{"last_updated":1701731240,"ttl":30,"version":"2.2","data":{"bikes":[{"bike_id":"28ebd374-feba-4125-a83b-550c37c27d57","system_id":"levelo_inurba_marseille","lat":43.309039,"lon":5.371797,"is_reserved":false,"is_disabled":false,"rental_uris":{"android":"levelo://app?vid=28ebd374-feba-4125-a83b-550c37c27d57","ios":"levelo://app?vid=28ebd374-feba-4125-a83b-550c37c27d57"},"vehicle_type_id":"4","last_reported":1701731240,"current_range_meters":26400,"station_id":"ce4bguh2rcd13ifvqckg","pricing_plan_id":"free"},{"bike_id":"33ec66da-f674-4551-b631-67b01d83989f","system_id":"levelo_inurba_marseille","lat":43.309039,"lon":5.371797,"is_reserved":false,"is_disabled":false,"rental_uris":{"android":"levelo://app?vid=33ec66da-f674-4551-b631-67b01d83989f","ios":"levelo://app?vid=33ec66da-f674-4551-b631-67b01d83989f"},"vehicle_type_id":"4","last_reported":1701731240,"current_range_meters":8000,"station_id":"ce4bguh2rcd13ifvqckg","pricing_plan_id":"free"},{"bike_id":"17db11e9-ff6b-4265-a772-9fca0f8a787a","system_id":"levelo_inurba_marseille","lat":43.31408,"lon":5.37621,"is_reserved":false,"is_disabled":false,"rental_uris":{"android":"levelo://app?vid=17db11e9-ff6b-4265-a772-9fca0f8a787a","ios":"levelo://app?vid=17db11e9-ff6b-4265-a772-9fca0f8a787a"},"vehicle_type_id":"4","last_reported":1701731240,"current_range_meters":25200,"station_id":"","pricing_plan_id":"free"},{"bike_id":"cb0843b8-23fd-49d3-a25d-dbe6680203e1","system_id":"levelo_inurba_marseille","lat":43.305989,"lon":5.37225,"is_reserved":false,"is_disabled":false,"rental_uris":{"android":"levelo://app?vid=cb0843b8-23fd-49d3-a25d-dbe6680203e1","ios":"levelo://app?vid=cb0843b8-23fd-49d3-a25d-dbe6680203e1"},"vehicle_type_id":"4","last_reported":1701731240,"current_range_meters":21200,"station_id":"ce4bgqh2rcd13ifvqc4g","pricing_plan_id":"free"},{"bike_id":"16e479b9-92d9-413f-ab92-1c69bcc940e7","system_id":"levelo_inurba_marseille","lat":43.305989,"lon":5.37225,"is_reserved":false,"is_disabled":false,"rental_uris":{"android":"levelo://app?vid=16e479b9-92d9-413f-ab92-1c69bcc940e7","ios":"levelo://app?vid=16e479b9-92d9-413f-ab92-1c69bcc940e7"},"vehicle_type_id":"4","last_reported":1701731240,"current_range_meters":30800,"station_id":"ce4bgqh2rcd13ifvqc4g","pricing_plan_id":"free"},{"bike_id":"b065b12a-ef87-47d8-8ac6-a38844050d40","system_id":"levelo_inurba_marseille","lat":43.319351,"lon":5.372931,"is_reserved":false,"is_disabled":false,"rental_uris":{"android":"levelo://app?vid=b065b12a-ef87-47d8-8ac6-a38844050d40","ios":"levelo://app?vid=b065b12a-ef87-47d8-8ac6-a38844050d40"},"vehicle_type_id":"4","last_reported":1701731240,"current_range_meters":0,"station_id":"","pricing_plan_id":"free"},{"bike_id":"4f2aae28-d2b6-487c-a401-fc912329f34d","system_id":"levelo_inurba_marseille","lat":43.311131,"lon":5.377651,"is_reserved":false,"is_disabled":false,"rental_uris":{"android":"levelo://app?vid=4f2aae28-d2b6-487c-a401-fc912329f34d","ios":"levelo://app?vid=4f2aae28-d2b6-487c-a401-fc912329f34d"},"vehicle_type_id":"4","last_reported":1701731240,"current_range_meters":22000,"station_id":"ce4bgt92rcd13ifvqcg0","pricing_plan_id":"free"},{"bike_id":"c0799d16-c8a8-4cee-9b0a-69ef1a765b40","system_id":"levelo_inurba_marseille","lat":43.308195,"lon":5.376582,"is_reserved":false,"is_disabled":false,"rental_uris":{"android":"levelo://app?vid=c0799d16-c8a8-4cee-9b0a-69ef1a765b40","ios":"levelo://app?vid=c0799d16-c8a8-4cee-9b0a-69ef1a765b40"},"vehicle_type_id":"4","last_reported":1701731240,"current_range_meters":27600,"station_id":"ce4bgv92rcd13ifvqcq0","pricing_plan_id":"free"},{"bike_id":"60540dcf-05e7-4692-a96c-72fe195087f5","system_id":"levelo_inurba_marseille","lat":43.307945,"lon":5.376487,"is_reserved":false,"is_disabled":false,"rental_uris":{"android":"levelo://app?vid=60540dcf-05e7-4692-a96c-72fe195087f5","ios":"levelo://app?vid=60540dcf-05e7-4692-a96c-72fe195087f5"},"vehicle_type_id":"4","last_reported":1701731240,"current_range_meters":26000,"station_id":"ce4bgv92rcd13ifvqcq0","pricing_plan_id":"free"},{"bike_id":"fb6fd937-527b-4585-9058-0dfdc6436ac8","system_id":"levelo_inurba_marseille","lat":43.31351,"lon":5.37909,"is_reserved":false,"is_disabled":false,"rental_uris":{"android":"levelo://app?vid=fb6fd937-527b-4585-9058-0dfdc6436ac8","ios":"levelo://app?vid=fb6fd937-527b-4585-9058-0dfdc6436ac8"},"vehicle_type_id":"4","last_reported":1701731240,"current_range_meters":12400,"station_id":"","pricing_plan_id":"free"},{"bike_id":"fc0ceea5-fd35-42eb-82d2-c19b4e37df98","system_id":"levelo_inurba_marseille","lat":43.30304,"lon":5.368987,"is_reserved":false,"is_disabled":false,"rental_uris":{"android":"levelo://app?vid=fc0ceea5-fd35-42eb-82d2-c19b4e37df98","ios":"levelo://app?vid=fc0ceea5-fd35-42eb-82d2-c19b4e37df98"},"vehicle_type_id":"4","last_reported":1701731240,"current_range_meters":30000,"station_id":"ce4bgqh2rcd13ifvqc5g","pricing_plan_id":"free"},{"bike_id":"f5b64e9f-258c-4ab4-8963-65b0cf4119e6","system_id":"levelo_inurba_marseille","lat":43.31528,"lon":5.38035,"is_reserved":false,"is_disabled":false,"rental_uris":{"android":"levelo://app?vid=f5b64e9f-258c-4ab4-8963-65b0cf4119e6","ios":"levelo://app?vid=f5b64e9f-258c-4ab4-8963-65b0cf4119e6"},"vehicle_type_id":"4","last_reported":1701731240,"current_range_meters":27200,"station_id":"ce4bhsp2rcd13ifvqi50","pricing_plan_id":"free"},{"bike_id":"3279ab10-c559-4255-80ce-132e262777da","system_id":"levelo_inurba_marseille","lat":43.32186,"lon":5.37499,"is_reserved":false,"is_disabled":false,"rental_uris":{"android":"levelo://app?vid=3279ab10-c559-4255-80ce-132e262777da","ios":"levelo://app?vid=3279ab10-c559-4255-80ce-132e262777da"},"vehicle_type_id":"4","last_reported":1701731240,"current_range_meters":28000,"station_id":"","pricing_plan_id":"free"},{"bike_id":"349dfaee-3ed5-42be-8292-0ab2ba4552e5","system_id":"levelo_inurba_marseille","lat":43.324771,"lon":5.36557,"is_reserved":false,"is_disabled":false,"rental_uris":{"android":"levelo://app?vid=349dfaee-3ed5-42be-8292-0ab2ba4552e5","ios":"levelo://app?vid=349dfaee-3ed5-42be-8292-0ab2ba4552e5"},"vehicle_type_id":"4","last_reported":1701731240,"current_range_meters":29600,"station_id":"ce4bhs12rcd13ifvqhvg","pricing_plan_id":"free"},{"bike_id":"ab542b0a-b258-4b62-baed-c4ff4b3a7961","system_id":"levelo_inurba_marseille","lat":43.324771,"lon":5.36557,"is_reserved":false,"is_disabled":false,"rental_uris":{"android":"levelo://app?vid=ab542b0a-b258-4b62-baed-c4ff4b3a7961","ios":"levelo://app?vid=ab542b0a-b258-4b62-baed-c4ff4b3a7961"},"vehicle_type_id":"4","last_reported":1701731240,"current_range_meters":16000,"station_id":"ce4bhs12rcd13ifvqhvg","pricing_plan_id":"free"},{"bike_id":"2275aca5-3158-4c2c-8022-ca5d2714bc86","system_id":"levelo_inurba_marseille","lat":43.319997,"lon":5.381594,"is_reserved":false,"is_disabled":false,"rental_uris":{"android":"levelo://app?vid=2275aca5-3158-4c2c-8022-ca5d2714bc86","ios":"levelo://app?vid=2275aca5-3158-4c2c-8022-ca5d2714bc86"},"vehicle_type_id":"4","last_reported":1701731240,"current_range_meters":6000,"station_id":"ce4bhr12rcd13ifvqhpg","pricing_plan_id":"free"},{"bike_id":"581a941c-76ca-4579-8ea2-7b985f64cf2d","system_id":"levelo_inurba_marseille","lat":43.313571,"lon":5.384829,"is_reserved":false,"is_disabled":false,"rental_uris":{"android":"levelo://app?vid=581a941c-76ca-4579-8ea2-7b985f64cf2d","ios":"levelo://app?vid=581a941c-76ca-4579-8ea2-7b985f64cf2d"},"vehicle_type_id":"4","last_reported":1701731240,"current_range_meters":28000,"station_id":"ce4bgt92rcd13ifvqcf0","pricing_plan_id":"free"},{"bike_id":"bb400996-ca48-43f0-af8b-a3c3f6849470","system_id":"levelo_inurba_marseille","lat":43.299724,"lon":5.371829,"is_reserved":false,"is_disabled":false,"rental_uris":{"android":"levelo://app?vid=bb400996-ca48-43f0-af8b-a3c3f6849470","ios":"levelo://app?vid=bb400996-ca48-43f0-af8b-a3c3f6849470"},"vehicle_type_id":"4","last_reported":1701731240,"current_range_meters":15200,"station_id":"ce4bgr92rcd13ifvqc7g","pricing_plan_id":"free"},{"bike_id":"bdff997a-9b73-4637-961c-5241e685cc19","system_id":"levelo_inurba_marseille","lat":43.299243,"lon":5.37481,"is_reserved":false,"is_disabled":false,"rental_uris":{"android":"levelo://app?vid=bdff997a-9b73-4637-961c-5241e685cc19","ios":"levelo://app?vid=bdff997a-9b73-4637-961c-5241e685cc19"},"vehicle_type_id":"4","last_reported":1701731240,"current_range_meters":8800,"station_id":"ce4bgjh2rcd13ifvqbg0","pricing_plan_id":"free"},{"bike_id":"728f8c45-c98c-4acf-a7a7-e1bdee0d6563","system_id":"levelo_inurba_marseille","lat":43.297794,"lon":5.370888,"is_reserved":false,"is_disabled":false,"rental_uris":{"android":"levelo://app?vid=728f8c45-c98c-4acf-a7a7-e1bdee0d6563","ios":"levelo://app?vid=728f8c45-c98c-4acf-a7a7-e1bdee0d6563"},"vehicle_type_id":"4","last_reported":1701731240,"current_range_meters":22000,"station_id":"ce4bgop2rcd13ifvqc1g","pricing_plan_id":"free"},{"bike_id":"273df213-851f-4e1a-98e6-236cea7e7fcb","system_id":"levelo_inurba_marseille","lat":43.297794,"lon":5.370888,"is_reserved":false,"is_disabled":false,"rental_uris":{"android":"levelo://app?vid=273df213-851f-4e1a-98e6-236cea7e7fcb","ios":"levelo://app?vid=273df213-851f-4e1a-98e6-236cea7e7fcb"},"vehicle_type_id":"4","last_reported":1701731240,"current_range_meters":27600,"station_id":"ce4bgop2rcd13ifvqc1g","pricing_plan_id":"free"},{"bike_id":"47321b85-2ddb-4fa3-8d13-00bea002eae7","system_id":"levelo_inurba_marseille","lat":43.32288,"lon":5.38275,"is_reserved":false,"is_disabled":false,"rental_uris":{"android":"levelo://app?vid=47321b85-2ddb-4fa3-8d13-00bea002eae7","ios":"levelo://app?vid=47321b85-2ddb-4fa3-8d13-00bea002eae7"},"vehicle_type_id":"4","last_reported":1701731240,"current_range_meters":28000,"station_id":"ce4bhr12rcd13ifvqhqg","pricing_plan_id":"free"},{"bike_id":"cb8f4c3a-456c-4d50-8ea3-298e057d608b","system_id":"levelo_inurba_marseille","lat":43.322872,"lon":5.382756,"is_reserved":false,"is_disabled":false,"rental_uris":{"android":"levelo://app?vid=cb8f4c3a-456c-4d50-8ea3-298e057d608b","ios":"levelo://app?vid=cb8f4c3a-456c-4d50-8ea3-298e057d608b"},"vehicle_type_id":"4","last_reported":1701731240,"current_range_meters":30000,"station_id":"ce4bhr12rcd13ifvqhqg","pricing_plan_id":"free"},{"bike_id":"b4879a0b-f87c-476b-ba9f-57011b8686d8","system_id":"levelo_inurba_marseille","lat":43.298218,"lon":5.374416,"is_reserved":false,"is_disabled":false,"rental_uris":{"android":"levelo://app?vid=b4879a0b-f87c-476b-ba9f-57011b8686d8","ios":"levelo://app?vid=b4879a0b-f87c-476b-ba9f-57011b8686d8"},"vehicle_type_id":"4","last_reported":1701731240,"current_range_meters":19600,"station_id":"","pricing_plan_id":"free"},{"bike_id":"c6ce3b8f-2076-4eb8-b7d5-d674dca50e8e","system_id":"levelo_inurba_marseille","lat":43.32832,"lon":5.36676,"is_reserved":false,"is_disabled":false,"rental_uris":{"android":"levelo://app?vid=c6ce3b8f-2076-4eb8-b7d5-d674dca50e8e","ios":"levelo://app?vid=c6ce3b8f-2076-4eb8-b7d5-d674dca50e8e"},"vehicle_type_id":"4","last_reported":1701731240,"current_range_meters":4800,"station_id":"ce4bhs92rcd13ifvqi0g","pricing_plan_id":"free"},{"bike_id":"f8284d70-c5e7-490d-9c5a-74a62dd38512","system_id":"levelo_inurba_marseille","lat":43.32836,"lon":5.36687,"is_reserved":false,"is_disabled":false,"rental_uris":{"android":"levelo://app?vid=f8284d70-c5e7-490d-9c5a-74a62dd38512","ios":"levelo://app?vid=f8284d70-c5e7-490d-9c5a-74a62dd38512"},"vehicle_type_id":"4","last_reported":1701731240,"current_range_meters":31200,"station_id":"ce4bhs92rcd13ifvqi0g","pricing_plan_id":"free"},{"bike_id":"f47f14fe-ec9d-4070-8751-bbcd10825ede","system_id":"levelo_inurba_marseille","lat":43.297163,"lon":5.365866,"is_reserved":false,"is_disabled":false,"rental_uris":{"android":"levelo://app?vid=f47f14fe-ec9d-4070-8751-bbcd10825ede","ios":"levelo://app?vid=f47f14fe-ec9d-4070-8751-bbcd10825ede"},"vehicle_type_id":"4","last_reported":1701731240,"current_range_meters":24400,"station_id":"ce4bgn12rcd13ifvqbt0","pricing_plan_id":"free"},{"bike_id":"92862562-b240-4732-b487-fff0f7a628b1","system_id":"levelo_inurba_marseille","lat":43.297163,"lon":5.365866,"is_reserved":false,"is_disabled":false,"rental_uris":{"android":"levelo://app?vid=92862562-b240-4732-b487-fff0f7a628b1","ios":"levelo://app?vid=92862562-b240-4732-b487-fff0f7a628b1"},"vehicle_type_id":"4","last_reported":1701731240,"current_range_meters":24800,"station_id":"ce4bgn12rcd13ifvqbt0","pricing_plan_id":"free"},{"bike_id":"eb6e7f47-d703-40d3-b365-ef330215af35","system_id":"levelo_inurba_marseille","lat":43.29598,"lon":5.36804,"is_reserved":false,"is_disabled":false,"rental_uris":{"android":"levelo://app?vid=eb6e7f47-d703-40d3-b365-ef330215af35","ios":"levelo://app?vid=eb6e7f47-d703-40d3-b365-ef330215af35"},"vehicle_type_id":"4","last_reported":1701731240,"current_range_meters":27200,"station_id":"","pricing_plan_id":"free"},{"bike_id":"71448ccd-9d25-4704-b48a-d448c4dbcd14","system_id":"levelo_inurba_marseille","lat":43.295966,"lon":5.367942,"is_reserved":false,"is_disabled":false,"rental_uris":{"android":"levelo://app?vid=71448ccd-9d25-4704-b48a-d448c4dbcd14","ios":"levelo://app?vid=71448ccd-9d25-4704-b48a-d448c4dbcd14"},"vehicle_type_id":"4","last_reported":1701731240,"current_range_meters":8000,"station_id":"","pricing_plan_id":"free"},{"bike_id":"eaa0e7e7-2390-47fa-909b-7b240952cbef","system_id":"levelo_inurba_marseille","lat":43.316538,"lon":5.38954,"is_reserved":false,"is_disabled":false,"rental_uris":{"android":"levelo://app?vid=eaa0e7e7-2390-47fa-909b-7b240952cbef","ios":"levelo://app?vid=eaa0e7e7-2390-47fa-909b-7b240952cbef"},"vehicle_type_id":"4","last_reported":1701731240,"current_range_meters":15600,"station_id":"","pricing_plan_id":"free"},{"bike_id":"df914548-d996-4a74-a7a5-c358bc8a1f8c","system_id":"levelo_inurba_marseille","lat":43.29573,"lon":5.367355,"is_reserved":false,"is_disabled":false,"rental_uris":{"android":"levelo://app?vid=df914548-d996-4a74-a7a5-c358bc8a1f8c","ios":"levelo://app?vid=df914548-d996-4a74-a7a5-c358bc8a1f8c"},"vehicle_type_id":"4","last_reported":1701731240,"current_range_meters":25600,"station_id":"ce4bgph2rcd13ifvqc2g","pricing_plan_id":"free"},{"bike_id":"70c33660-bf74-403c-a0ae-384880103157","system_id":"levelo_inurba_marseille","lat":43.317557,"lon":5.390173,"is_reserved":false,"is_disabled":false,"rental_uris":{"android":"levelo://app?vid=70c33660-bf74-403c-a0ae-384880103157","ios":"levelo://app?vid=70c33660-bf74-403c-a0ae-384880103157"},"vehicle_type_id":"4","last_reported":1701731240,"current_range_meters":31200,"station_id":"ce4bhqp2rcd13ifvqhng","pricing_plan_id":"free"},{"bike_id":"b51fdc1b-ab99-45a5-b4e7-d3adaed7df60","system_id":"levelo_inurba_marseille","lat":43.317557,"lon":5.390173,"is_reserved":false,"is_disabled":false,"rental_uris":{"android":"levelo://app?vid=b51fdc1b-ab99-45a5-b4e7-d3adaed7df60","ios":"levelo://app?vid=b51fdc1b-ab99-45a5-b4e7-d3adaed7df60"},"vehicle_type_id":"4","last_reported":1701731240,"current_range_meters":29200,"station_id":"ce4bhqp2rcd13ifvqhng","pricing_plan_id":"free"},{"bike_id":"ba56007f-9a72-4563-801c-1a936cc6bc3c","system_id":"levelo_inurba_marseille","lat":43.317557,"lon":5.390173,"is_reserved":false,"is_disabled":false,"rental_uris":{"android":"levelo://app?vid=ba56007f-9a72-4563-801c-1a936cc6bc3c","ios":"levelo://app?vid=ba56007f-9a72-4563-801c-1a936cc6bc3c"},"vehicle_type_id":"4","last_reported":1701731240,"current_range_meters":23600,"station_id":"ce4bhqp2rcd13ifvqhng","pricing_plan_id":"free"},{"bike_id":"cbdb1b26-1b7b-4316-9220-24d1960a98cf","system_id":"levelo_inurba_marseille","lat":43.31755,"lon":5.39022,"is_reserved":false,"is_disabled":false,"rental_uris":{"android":"levelo://app?vid=cbdb1b26-1b7b-4316-9220-24d1960a98cf","ios":"levelo://app?vid=cbdb1b26-1b7b-4316-9220-24d1960a98cf"},"vehicle_type_id":"4","last_reported":1701731240,"current_range_meters":31200,"station_id":"ce4bhqp2rcd13ifvqhng","pricing_plan_id":"free"},{"bike_id":"c6c5acc0-3971-43b9-ba4d-33c881a5a76e","system_id":"levelo_inurba_marseille","lat":43.31758,"lon":5.39026,"is_reserved":false,"is_disabled":false,"rental_uris":{"android":"levelo://app?vid=c6c5acc0-3971-43b9-ba4d-33c881a5a76e","ios":"levelo://app?vid=c6c5acc0-3971-43b9-ba4d-33c881a5a76e"},"vehicle_type_id":"4","last_reported":1701731240,"current_range_meters":29600,"station_id":"ce4bhqp2rcd13ifvqhng","pricing_plan_id":"free"},{"bike_id":"1fd32647-2ae8-40e6-b39f-09b46bfcb5f7","system_id":"levelo_inurba_marseille","lat":43.31761,"lon":5.390257,"is_reserved":false,"is_disabled":false,"rental_uris":{"android":"levelo://app?vid=1fd32647-2ae8-40e6-b39f-09b46bfcb5f7","ios":"levelo://app?vid=1fd32647-2ae8-40e6-b39f-09b46bfcb5f7"},"vehicle_type_id":"4","last_reported":1701731240,"current_range_meters":13600,"station_id":"ce4bhqp2rcd13ifvqhng","pricing_plan_id":"free"},{"bike_id":"f6fcc9e0-fad1-4765-8be2-dd378c148933","system_id":"levelo_inurba_marseille","lat":43.31756,"lon":5.39028,"is_reserved":false,"is_disabled":false,"rental_uris":{"android":"levelo://app?vid=f6fcc9e0-fad1-4765-8be2-dd378c148933","ios":"levelo://app?vid=f6fcc9e0-fad1-4765-8be2-dd378c148933"},"vehicle_type_id":"4","last_reported":1701731240,"current_range_meters":22000,"station_id":"ce4bhqp2rcd13ifvqhng","pricing_plan_id":"free"},{"bike_id":"5f928c50-dddf-4f4c-861a-6d6309d747ae","system_id":"levelo_inurba_marseille","lat":43.304274,"lon":5.388873,"is_reserved":false,"is_disabled":false,"rental_uris":{"android":"levelo://app?vid=5f928c50-dddf-4f4c-861a-6d6309d747ae","ios":"levelo://app?vid=5f928c50-dddf-4f4c-861a-6d6309d747ae"},"vehicle_type_id":"4","last_reported":1701731240,"current_range_meters":14000,"station_id":"ce4bgk12rcd13ifvqbi0","pricing_plan_id":"free"},{"bike_id":"798ea453-db6f-49ab-98d4-37cc411ccc62","system_id":"levelo_inurba_marseille","lat":43.304274,"lon":5.388873,"is_reserved":false,"is_disabled":false,"rental_uris":{"android":"levelo://app?vid=798ea453-db6f-49ab-98d4-37cc411ccc62","ios":"levelo://app?vid=798ea453-db6f-49ab-98d4-37cc411ccc62"},"vehicle_type_id":"4","last_reported":1701731240,"current_range_meters":20800,"station_id":"ce4bgk12rcd13ifvqbi0","pricing_plan_id":"free"},{"bike_id":"31307a27-90db-4c9f-9f99-95880bc6b240","system_id":"levelo_inurba_marseille","lat":43.32369,"lon":5.38884,"is_reserved":false,"is_disabled":false,"rental_uris":{"android":"levelo://app?vid=31307a27-90db-4c9f-9f99-95880bc6b240","ios":"levelo://app?vid=31307a27-90db-4c9f-9f99-95880bc6b240"},"vehicle_type_id":"4","last_reported":1701731240,"current_range_meters":400,"station_id":"ce4bhqp2rcd13ifvqhog","pricing_plan_id":"free"},{"bike_id":"61e6825b-71fa-4872-8d96-3d5209e511ea","system_id":"levelo_inurba_marseille","lat":43.29272,"lon":5.36841,"is_reserved":false,"is_disabled":false,"rental_uris":{"android":"levelo://app?vid=61e6825b-71fa-4872-8d96-3d5209e511ea","ios":"levelo://app?vid=61e6825b-71fa-4872-8d96-3d5209e511ea"},"vehicle_type_id":"4","last_reported":1701731240,"current_range_meters":26800,"station_id":"ce4bhbp2rcd13ifvqesg","pricing_plan_id":"free"},{"bike_id":"df9f2a28-4702-4424-ad22-568047e10328","system_id":"levelo_inurba_marseille","lat":43.293009,"lon":5.374584,"is_reserved":false,"is_disabled":false,"rental_uris":{"android":"levelo://app?vid=df9f2a28-4702-4424-ad22-568047e10328","ios":"levelo://app?vid=df9f2a28-4702-4424-ad22-568047e10328"},"vehicle_type_id":"4","last_reported":1701731240,"current_range_meters":14800,"station_id":"ce4bgi12rcd13ifvqb70","pricing_plan_id":"free"},{"bike_id":"a6eba17b-77f1-4a70-a50a-ca706111e5fb","system_id":"levelo_inurba_marseille","lat":43.2936,"lon":5.37835,"is_reserved":false,"is_disabled":false,"rental_uris":{"android":"levelo://app?vid=a6eba17b-77f1-4a70-a50a-ca706111e5fb","ios":"levelo://app?vid=a6eba17b-77f1-4a70-a50a-ca706111e5fb"},"vehicle_type_id":"4","last_reported":1701731240,"current_range_meters":14800,"station_id":"ce4bgjh2rcd13ifvqbf0","pricing_plan_id":"free"},{"bike_id":"76aec414-cc29-4815-850b-4164447a72db","system_id":"levelo_inurba_marseille","lat":43.309038,"lon":5.396546,"is_reserved":false,"is_disabled":false,"rental_uris":{"android":"levelo://app?vid=76aec414-cc29-4815-850b-4164447a72db","ios":"levelo://app?vid=76aec414-cc29-4815-850b-4164447a72db"},"vehicle_type_id":"4","last_reported":1701731240,"current_range_meters":28000,"station_id":"ce4bh012rcd13ifvqcv0","pricing_plan_id":"free"},{"bike_id":"d6aadfac-d267-4a6b-b3ef-364b999267b3","system_id":"levelo_inurba_marseille","lat":43.309047,"lon":5.396551,"is_reserved":false,"is_disabled":false,"rental_uris":{"android":"levelo://app?vid=d6aadfac-d267-4a6b-b3ef-364b999267b3","ios":"levelo://app?vid=d6aadfac-d267-4a6b-b3ef-364b999267b3"},"vehicle_type_id":"4","last_reported":1701731240,"current_range_meters":4400,"station_id":"ce4bh012rcd13ifvqcv0","pricing_plan_id":"free"},{"bike_id":"191a7774-cf16-47b2-abfa-5049722c78c6","system_id":"levelo_inurba_marseille","lat":43.309038,"lon":5.396546,"is_reserved":false,"is_disabled":false,"rental_uris":{"android":"levelo://app?vid=191a7774-cf16-47b2-abfa-5049722c78c6","ios":"levelo://app?vid=191a7774-cf16-47b2-abfa-5049722c78c6"},"vehicle_type_id":"4","last_reported":1701731240,"current_range_meters":16400,"station_id":"ce4bh012rcd13ifvqcv0","pricing_plan_id":"free"},{"bike_id":"d03c2969-8fac-4de7-8c10-81f4110e927e","system_id":"levelo_inurba_marseille","lat":43.313291,"lon":5.396838,"is_reserved":false,"is_disabled":false,"rental_uris":{"android":"levelo://app?vid=d03c2969-8fac-4de7-8c10-81f4110e927e","ios":"levelo://app?vid=d03c2969-8fac-4de7-8c10-81f4110e927e"},"vehicle_type_id":"4","last_reported":1701731240,"current_range_meters":21200,"station_id":"ce4bgvp2rcd13ifvqcu0","pricing_plan_id":"free"},{"bike_id":"5c7fbe37-874b-4e68-bfbb-5e06c304c2ce","system_id":"levelo_inurba_marseille","lat":43.3133,"lon":5.39689,"is_reserved":false,"is_disabled":false,"rental_uris":{"android":"levelo://app?vid=5c7fbe37-874b-4e68-bfbb-5e06c304c2ce","ios":"levelo://app?vid=5c7fbe37-874b-4e68-bfbb-5e06c304c2ce"},"vehicle_type_id":"4","last_reported":1701731240,"current_range_meters":2000,"station_id":"ce4bgvp2rcd13ifvqcu0","pricing_plan_id":"free"},{"bike_id":"32a878b2-dd3d-4c40-aa5a-8513930b94e4","system_id":"levelo_inurba_marseille","lat":43.313291,"lon":5.396838,"is_reserved":false,"is_disabled":false,"rental_uris":{"android":"levelo://app?vid=32a878b2-dd3d-4c40-aa5a-8513930b94e4","ios":"levelo://app?vid=32a878b2-dd3d-4c40-aa5a-8513930b94e4"},"vehicle_type_id":"4","last_reported":1701731240,"current_range_meters":5200,"station_id":"ce4bgvp2rcd13ifvqcu0","pricing_plan_id":"free"},{"bike_id":"dfabbaf4-a870-473d-816c-1943083f2de2","system_id":"levelo_inurba_marseille","lat":43.309038,"lon":5.396546,"is_reserved":false,"is_disabled":false,"rental_uris":{"android":"levelo://app?vid=dfabbaf4-a870-473d-816c-1943083f2de2","ios":"levelo://app?vid=dfabbaf4-a870-473d-816c-1943083f2de2"},"vehicle_type_id":"4","last_reported":1701731240,"current_range_meters":21600,"station_id":"ce4bh012rcd13ifvqcv0","pricing_plan_id":"free"},{"bike_id":"88d1dcab-8268-41f2-9be1-43356b788135","system_id":"levelo_inurba_marseille","lat":43.290779,"lon":5.371482,"is_reserved":false,"is_disabled":false,"rental_uris":{"android":"levelo://app?vid=88d1dcab-8268-41f2-9be1-43356b788135","ios":"levelo://app?vid=88d1dcab-8268-41f2-9be1-43356b788135"},"vehicle_type_id":"4","last_reported":1701731240,"current_range_meters":12800,"station_id":"ce4bh5p2rcd13ifvqe4g","pricing_plan_id":"free"},{"bike_id":"1a818ee4-eb72-4fb2-9d22-51b7fbc131d0","system_id":"levelo_inurba_marseille","lat":43.302008,"lon":5.394694,"is_reserved":false,"is_disabled":false,"rental_uris":{"android":"levelo://app?vid=1a818ee4-eb72-4fb2-9d22-51b7fbc131d0","ios":"levelo://app?vid=1a818ee4-eb72-4fb2-9d22-51b7fbc131d0"},"vehicle_type_id":"4","last_reported":1701731240,"current_range_meters":22800,"station_id":"ce4bh0p2rcd13ifvqd70","pricing_plan_id":"free"},{"bike_id":"b7aeffb7-62eb-4596-8e64-9a4750dd2ead","system_id":"levelo_inurba_marseille","lat":43.290624,"lon":5.359245,"is_reserved":false,"is_disabled":false,"rental_uris":{"android":"levelo://app?vid=b7aeffb7-62eb-4596-8e64-9a4750dd2ead","ios":"levelo://app?vid=b7aeffb7-62eb-4596-8e64-9a4750dd2ead"},"vehicle_type_id":"4","last_reported":1701731240,"current_range_meters":20400,"station_id":"ce4bha92rcd13ifvqeg0","pricing_plan_id":"free"},{"bike_id":"100cec12-32c1-4c56-80b5-32cbd68babd9","system_id":"levelo_inurba_marseille","lat":43.28944,"lon":5.36629,"is_reserved":false,"is_disabled":false,"rental_uris":{"android":"levelo://app?vid=100cec12-32c1-4c56-80b5-32cbd68babd9","ios":"levelo://app?vid=100cec12-32c1-4c56-80b5-32cbd68babd9"},"vehicle_type_id":"4","last_reported":1701731240,"current_range_meters":800,"station_id":"ce4bhap2rcd13ifvqek0","pricing_plan_id":"free"},{"bike_id":"13dca715-8744-4d06-b451-d6686626d9ea","system_id":"levelo_inurba_marseille","lat":43.28949,"lon":5.36415,"is_reserved":false,"is_disabled":false,"rental_uris":{"android":"levelo://app?vid=13dca715-8744-4d06-b451-d6686626d9ea","ios":"levelo://app?vid=13dca715-8744-4d06-b451-d6686626d9ea"},"vehicle_type_id":"4","last_reported":1701731240,"current_range_meters":29200,"station_id":"ce4bhc92rcd13ifvqetg","pricing_plan_id":"free"},{"bike_id":"7f749e51-5b80-4970-8e85-be17fc07251f","system_id":"levelo_inurba_marseille","lat":43.289468,"lon":5.363719,"is_reserved":false,"is_disabled":false,"rental_uris":{"android":"levelo://app?vid=7f749e51-5b80-4970-8e85-be17fc07251f","ios":"levelo://app?vid=7f749e51-5b80-4970-8e85-be17fc07251f"},"vehicle_type_id":"4","last_reported":1701731240,"current_range_meters":25600,"station_id":"ce4bhc92rcd13ifvqetg","pricing_plan_id":"free"},{"bike_id":"840a32cb-4533-43a1-a2c4-42140005fd9e","system_id":"levelo_inurba_marseille","lat":43.289184,"lon":5.366408,"is_reserved":false,"is_disabled":false,"rental_uris":{"android":"levelo://app?vid=840a32cb-4533-43a1-a2c4-42140005fd9e","ios":"levelo://app?vid=840a32cb-4533-43a1-a2c4-42140005fd9e"},"vehicle_type_id":"4","last_reported":1701731240,"current_range_meters":27200,"station_id":"ce4bhap2rcd13ifvqek0","pricing_plan_id":"free"},{"bike_id":"777da234-5c08-4d18-bc53-ff5b3fbe2a72","system_id":"levelo_inurba_marseille","lat":43.290103,"lon":5.356114,"is_reserved":false,"is_disabled":false,"rental_uris":{"android":"levelo://app?vid=777da234-5c08-4d18-bc53-ff5b3fbe2a72","ios":"levelo://app?vid=777da234-5c08-4d18-bc53-ff5b3fbe2a72"},"vehicle_type_id":"4","last_reported":1701731240,"current_range_meters":30000,"station_id":"ce4bhb92rcd13ifvqen0","pricing_plan_id":"free"},{"bike_id":"6c3f69cb-887a-4088-891b-80b14ea919a1","system_id":"levelo_inurba_marseille","lat":43.297815,"lon":5.393548,"is_reserved":false,"is_disabled":false,"rental_uris":{"android":"levelo://app?vid=6c3f69cb-887a-4088-891b-80b14ea919a1","ios":"levelo://app?vid=6c3f69cb-887a-4088-891b-80b14ea919a1"},"vehicle_type_id":"4","last_reported":1701731240,"current_range_meters":18000,"station_id":"chh1huq6cuj3fo74tm60","pricing_plan_id":"free"},{"bike_id":"509d6d28-68f7-4660-8452-229ed7438d83","system_id":"levelo_inurba_marseille","lat":43.28858,"lon":5.35864,"is_reserved":false,"is_disabled":false,"rental_uris":{"android":"levelo://app?vid=509d6d28-68f7-4660-8452-229ed7438d83","ios":"levelo://app?vid=509d6d28-68f7-4660-8452-229ed7438d83"},"vehicle_type_id":"4","last_reported":1701731240,"current_range_meters":11600,"station_id":"ce4bhb12rcd13ifvqem0","pricing_plan_id":"free"},{"bike_id":"9262868d-46fb-43ac-878b-47e770c197c5","system_id":"levelo_inurba_marseille","lat":43.30929,"lon":5.40137,"is_reserved":false,"is_disabled":false,"rental_uris":{"android":"levelo://app?vid=9262868d-46fb-43ac-878b-47e770c197c5","ios":"levelo://app?vid=9262868d-46fb-43ac-878b-47e770c197c5"},"vehicle_type_id":"4","last_reported":1701731240,"current_range_meters":18800,"station_id":"ce4bgvp2rcd13ifvqct0","pricing_plan_id":"free"},{"bike_id":"799c0d1d-4dbb-441f-8418-b8e953994f7d","system_id":"levelo_inurba_marseille","lat":43.312796,"lon":5.401699,"is_reserved":false,"is_disabled":false,"rental_uris":{"android":"levelo://app?vid=799c0d1d-4dbb-441f-8418-b8e953994f7d","ios":"levelo://app?vid=799c0d1d-4dbb-441f-8418-b8e953994f7d"},"vehicle_type_id":"4","last_reported":1701731240,"current_range_meters":25200,"station_id":"ce4bh092rcd13ifvqd30","pricing_plan_id":"free"},{"bike_id":"e9b751b7-c050-44e4-a848-70af9a1dc42e","system_id":"levelo_inurba_marseille","lat":43.31277,"lon":5.401738,"is_reserved":false,"is_disabled":false,"rental_uris":{"android":"levelo://app?vid=e9b751b7-c050-44e4-a848-70af9a1dc42e","ios":"levelo://app?vid=e9b751b7-c050-44e4-a848-70af9a1dc42e"},"vehicle_type_id":"4","last_reported":1701731240,"current_range_meters":25200,"station_id":"ce4bh092rcd13ifvqd30","pricing_plan_id":"free"},{"bike_id":"45278979-3d35-4cf8-afa4-740305960434","system_id":"levelo_inurba_marseille","lat":43.312609,"lon":5.401662,"is_reserved":false,"is_disabled":false,"rental_uris":{"android":"levelo://app?vid=45278979-3d35-4cf8-afa4-740305960434","ios":"levelo://app?vid=45278979-3d35-4cf8-afa4-740305960434"},"vehicle_type_id":"4","last_reported":1701731240,"current_range_meters":7600,"station_id":"ce4bh092rcd13ifvqd30","pricing_plan_id":"free"},{"bike_id":"61e94894-252e-4e6e-9735-b09eceabfad5","system_id":"levelo_inurba_marseille","lat":43.337429,"lon":5.374807,"is_reserved":false,"is_disabled":false,"rental_uris":{"android":"levelo://app?vid=61e94894-252e-4e6e-9735-b09eceabfad5","ios":"levelo://app?vid=61e94894-252e-4e6e-9735-b09eceabfad5"},"vehicle_type_id":"4","last_reported":1701731240,"current_range_meters":30800,"station_id":"","pricing_plan_id":"free"},{"bike_id":"b1da507f-59bc-4bfa-9de7-dd18b0d37739","system_id":"levelo_inurba_marseille","lat":43.3375,"lon":5.37457,"is_reserved":false,"is_disabled":false,"rental_uris":{"android":"levelo://app?vid=b1da507f-59bc-4bfa-9de7-dd18b0d37739","ios":"levelo://app?vid=b1da507f-59bc-4bfa-9de7-dd18b0d37739"},"vehicle_type_id":"4","last_reported":1701731240,"current_range_meters":30400,"station_id":"","pricing_plan_id":"free"},{"bike_id":"2fbea006-0d22-445c-bfc1-d379dcddc1c1","system_id":"levelo_inurba_marseille","lat":43.33748,"lon":5.374733,"is_reserved":false,"is_disabled":false,"rental_uris":{"android":"levelo://app?vid=2fbea006-0d22-445c-bfc1-d379dcddc1c1","ios":"levelo://app?vid=2fbea006-0d22-445c-bfc1-d379dcddc1c1"},"vehicle_type_id":"4","last_reported":1701731240,"current_range_meters":30800,"station_id":"","pricing_plan_id":"free"},{"bike_id":"cc18a066-1970-43c9-af5a-7c18226cb55c","system_id":"levelo_inurba_marseille","lat":43.309371,"lon":5.401449,"is_reserved":false,"is_disabled":false,"rental_uris":{"android":"levelo://app?vid=cc18a066-1970-43c9-af5a-7c18226cb55c","ios":"levelo://app?vid=cc18a066-1970-43c9-af5a-7c18226cb55c"},"vehicle_type_id":"4","last_reported":1701731240,"current_range_meters":21600,"station_id":"ce4bgvp2rcd13ifvqct0","pricing_plan_id":"free"},{"bike_id":"4afc425b-2cb4-4ed6-98f1-14e3da44a827","system_id":"levelo_inurba_marseille","lat":43.28727,"lon":5.36078,"is_reserved":false,"is_disabled":false,"rental_uris":{"android":"levelo://app?vid=4afc425b-2cb4-4ed6-98f1-14e3da44a827","ios":"levelo://app?vid=4afc425b-2cb4-4ed6-98f1-14e3da44a827"},"vehicle_type_id":"4","last_reported":1701731240,"current_range_meters":28800,"station_id":"cki0cbj6b192h4jlfktg","pricing_plan_id":"free"},{"bike_id":"8ebda87e-5002-4c98-92ac-f7f34c3f1718","system_id":"levelo_inurba_marseille","lat":43.28727,"lon":5.36078,"is_reserved":false,"is_disabled":false,"rental_uris":{"android":"levelo://app?vid=8ebda87e-5002-4c98-92ac-f7f34c3f1718","ios":"levelo://app?vid=8ebda87e-5002-4c98-92ac-f7f34c3f1718"},"vehicle_type_id":"4","last_reported":1701731240,"current_range_meters":30800,"station_id":"cki0cbj6b192h4jlfktg","pricing_plan_id":"free"},{"bike_id":"a7a4d1c7-32c7-4562-b663-d9fde128ab2b","system_id":"levelo_inurba_marseille","lat":43.28727,"lon":5.36078,"is_reserved":false,"is_disabled":false,"rental_uris":{"android":"levelo://app?vid=a7a4d1c7-32c7-4562-b663-d9fde128ab2b","ios":"levelo://app?vid=a7a4d1c7-32c7-4562-b663-d9fde128ab2b"},"vehicle_type_id":"4","last_reported":1701731240,"current_range_meters":22000,"station_id":"cki0cbj6b192h4jlfktg","pricing_plan_id":"free"},{"bike_id":"5712d1bd-d7ca-4eed-936e-3f59bba706f9","system_id":"levelo_inurba_marseille","lat":43.286591,"lon":5.363346,"is_reserved":false,"is_disabled":false,"rental_uris":{"android":"levelo://app?vid=5712d1bd-d7ca-4eed-936e-3f59bba706f9","ios":"levelo://app?vid=5712d1bd-d7ca-4eed-936e-3f59bba706f9"},"vehicle_type_id":"4","last_reported":1701731240,"current_range_meters":12400,"station_id":"ce4bhah2rcd13ifvqej0","pricing_plan_id":"free"},{"bike_id":"74cbf9c6-ccf2-4032-9822-9cc45dcb9cb5","system_id":"levelo_inurba_marseille","lat":43.298681,"lon":5.397225,"is_reserved":false,"is_disabled":false,"rental_uris":{"android":"levelo://app?vid=74cbf9c6-ccf2-4032-9822-9cc45dcb9cb5","ios":"levelo://app?vid=74cbf9c6-ccf2-4032-9822-9cc45dcb9cb5"},"vehicle_type_id":"4","last_reported":1701731240,"current_range_meters":24000,"station_id":"ce4bh0h2rcd13ifvqd50","pricing_plan_id":"free"},{"bike_id":"53351952-0515-4603-ac07-a2dff8a19163","system_id":"levelo_inurba_marseille","lat":43.286591,"lon":5.363346,"is_reserved":false,"is_disabled":false,"rental_uris":{"android":"levelo://app?vid=53351952-0515-4603-ac07-a2dff8a19163","ios":"levelo://app?vid=53351952-0515-4603-ac07-a2dff8a19163"},"vehicle_type_id":"4","last_reported":1701731240,"current_range_meters":22800,"station_id":"ce4bhah2rcd13ifvqej0","pricing_plan_id":"free"},{"bike_id":"a1d02f2c-33dc-4efb-a617-4647e6f00f6f","system_id":"levelo_inurba_marseille","lat":43.28704,"lon":5.373918,"is_reserved":false,"is_disabled":false,"rental_uris":{"android":"levelo://app?vid=a1d02f2c-33dc-4efb-a617-4647e6f00f6f","ios":"levelo://app?vid=a1d02f2c-33dc-4efb-a617-4647e6f00f6f"},"vehicle_type_id":"4","last_reported":1701731240,"current_range_meters":11600,"station_id":"ce4bh3p2rcd13ifvqdq0","pricing_plan_id":"free"},{"bike_id":"216723cd-a1d6-440a-aa05-4d132d642a2b","system_id":"levelo_inurba_marseille","lat":43.286591,"lon":5.363346,"is_reserved":false,"is_disabled":false,"rental_uris":{"android":"levelo://app?vid=216723cd-a1d6-440a-aa05-4d132d642a2b","ios":"levelo://app?vid=216723cd-a1d6-440a-aa05-4d132d642a2b"},"vehicle_type_id":"4","last_reported":1701731240,"current_range_meters":29200,"station_id":"ce4bhah2rcd13ifvqej0","pricing_plan_id":"free"},{"bike_id":"5bdeab8c-ac3a-4bf4-aa4b-46aa7e726206","system_id":"levelo_inurba_marseille","lat":43.28931,"lon":5.38394,"is_reserved":false,"is_disabled":false,"rental_uris":{"android":"levelo://app?vid=5bdeab8c-ac3a-4bf4-aa4b-46aa7e726206","ios":"levelo://app?vid=5bdeab8c-ac3a-4bf4-aa4b-46aa7e726206"},"vehicle_type_id":"4","last_reported":1701731240,"current_range_meters":18400,"station_id":"ce4bh612rcd13ifvqe6g","pricing_plan_id":"free"},{"bike_id":"b0937df3-6a56-4e12-a1a6-56251082b14e","system_id":"levelo_inurba_marseille","lat":43.286039,"lon":5.370679,"is_reserved":false,"is_disabled":false,"rental_uris":{"android":"levelo://app?vid=b0937df3-6a56-4e12-a1a6-56251082b14e","ios":"levelo://app?vid=b0937df3-6a56-4e12-a1a6-56251082b14e"},"vehicle_type_id":"4","last_reported":1701731240,"current_range_meters":26400,"station_id":"ce4bht12rcd13ifvqi60","pricing_plan_id":"free"},{"bike_id":"cebc581c-d768-4d70-9a38-1a47c44e063e","system_id":"levelo_inurba_marseille","lat":43.286039,"lon":5.370679,"is_reserved":false,"is_disabled":false,"rental_uris":{"android":"levelo://app?vid=cebc581c-d768-4d70-9a38-1a47c44e063e","ios":"levelo://app?vid=cebc581c-d768-4d70-9a38-1a47c44e063e"},"vehicle_type_id":"4","last_reported":1701731240,"current_range_meters":31200,"station_id":"ce4bht12rcd13ifvqi60","pricing_plan_id":"free"},{"bike_id":"0b6a2e09-7dcd-4569-9ce5-37609243ba7d","system_id":"levelo_inurba_marseille","lat":43.316517,"lon":5.404375,"is_reserved":false,"is_disabled":false,"rental_uris":{"android":"levelo://app?vid=0b6a2e09-7dcd-4569-9ce5-37609243ba7d","ios":"levelo://app?vid=0b6a2e09-7dcd-4569-9ce5-37609243ba7d"},"vehicle_type_id":"4","last_reported":1701731240,"current_range_meters":0,"station_id":"ce4bh012rcd13ifvqd00","pricing_plan_id":"free"},{"bike_id":"edd495ad-15aa-465e-9bde-a723fa9bb1ef","system_id":"levelo_inurba_marseille","lat":43.31645,"lon":5.40443,"is_reserved":false,"is_disabled":false,"rental_uris":{"android":"levelo://app?vid=edd495ad-15aa-465e-9bde-a723fa9bb1ef","ios":"levelo://app?vid=edd495ad-15aa-465e-9bde-a723fa9bb1ef"},"vehicle_type_id":"4","last_reported":1701731240,"current_range_meters":6400,"station_id":"ce4bh012rcd13ifvqd00","pricing_plan_id":"free"},{"bike_id":"cb44d5cb-05f1-4044-9cec-a2bd7ca862f4","system_id":"levelo_inurba_marseille","lat":43.291985,"lon":5.393322,"is_reserved":false,"is_disabled":false,"rental_uris":{"android":"levelo://app?vid=cb44d5cb-05f1-4044-9cec-a2bd7ca862f4","ios":"levelo://app?vid=cb44d5cb-05f1-4044-9cec-a2bd7ca862f4"},"vehicle_type_id":"4","last_reported":1701731240,"current_range_meters":0,"station_id":"ce4bh192rcd13ifvqdd0","pricing_plan_id":"free"},{"bike_id":"0385ca16-b998-46fc-8ded-07ad052c6377","system_id":"levelo_inurba_marseille","lat":43.284643,"lon":5.358918,"is_reserved":false,"is_disabled":false,"rental_uris":{"android":"levelo://app?vid=0385ca16-b998-46fc-8ded-07ad052c6377","ios":"levelo://app?vid=0385ca16-b998-46fc-8ded-07ad052c6377"},"vehicle_type_id":"4","last_reported":1701731240,"current_range_meters":22000,"station_id":"ce4bhah2rcd13ifvqei0","pricing_plan_id":"free"},{"bike_id":"f243fdf9-f670-4310-8368-8afa1db43a39","system_id":"levelo_inurba_marseille","lat":43.284534,"lon":5.358662,"is_reserved":false,"is_disabled":false,"rental_uris":{"android":"levelo://app?vid=f243fdf9-f670-4310-8368-8afa1db43a39","ios":"levelo://app?vid=f243fdf9-f670-4310-8368-8afa1db43a39"},"vehicle_type_id":"4","last_reported":1701731240,"current_range_meters":24800,"station_id":"ce4bhah2rcd13ifvqei0","pricing_plan_id":"free"},{"bike_id":"f4b5151a-97bd-49c2-be13-26e748213dde","system_id":"levelo_inurba_marseille","lat":43.284534,"lon":5.358662,"is_reserved":false,"is_disabled":false,"rental_uris":{"android":"levelo://app?vid=f4b5151a-97bd-49c2-be13-26e748213dde","ios":"levelo://app?vid=f4b5151a-97bd-49c2-be13-26e748213dde"},"vehicle_type_id":"4","last_reported":1701731240,"current_range_meters":29200,"station_id":"ce4bhah2rcd13ifvqei0","pricing_plan_id":"free"},{"bike_id":"3d817efa-ed1d-49db-902a-1f36f6667f25","system_id":"levelo_inurba_marseille","lat":43.294314,"lon":5.397498,"is_reserved":false,"is_disabled":false,"rental_uris":{"android":"levelo://app?vid=3d817efa-ed1d-49db-902a-1f36f6667f25","ios":"levelo://app?vid=3d817efa-ed1d-49db-902a-1f36f6667f25"},"vehicle_type_id":"4","last_reported":1701731240,"current_range_meters":27600,"station_id":"ce4bh3h2rcd13ifvqdo0","pricing_plan_id":"free"},{"bike_id":"74215b8f-5a98-407b-8406-c10d82d0037d","system_id":"levelo_inurba_marseille","lat":43.294314,"lon":5.397498,"is_reserved":false,"is_disabled":false,"rental_uris":{"android":"levelo://app?vid=74215b8f-5a98-407b-8406-c10d82d0037d","ios":"levelo://app?vid=74215b8f-5a98-407b-8406-c10d82d0037d"},"vehicle_type_id":"4","last_reported":1701731240,"current_range_meters":14400,"station_id":"ce4bh3h2rcd13ifvqdo0","pricing_plan_id":"free"},{"bike_id":"63950e9f-b916-49d6-ae7f-7e241686aa20","system_id":"levelo_inurba_marseille","lat":43.285856,"lon":5.350771,"is_reserved":false,"is_disabled":false,"rental_uris":{"android":"levelo://app?vid=63950e9f-b916-49d6-ae7f-7e241686aa20","ios":"levelo://app?vid=63950e9f-b916-49d6-ae7f-7e241686aa20"},"vehicle_type_id":"4","last_reported":1701731240,"current_range_meters":1600,"station_id":"ce4bhch2rcd13ifvqeug","pricing_plan_id":"free"},{"bike_id":"169c6444-b60b-49f0-b7a2-c93e30dfdc65","system_id":"levelo_inurba_marseille","lat":43.28615,"lon":5.35105,"is_reserved":false,"is_disabled":false,"rental_uris":{"android":"levelo://app?vid=169c6444-b60b-49f0-b7a2-c93e30dfdc65","ios":"levelo://app?vid=169c6444-b60b-49f0-b7a2-c93e30dfdc65"},"vehicle_type_id":"4","last_reported":1701731240,"current_range_meters":20000,"station_id":"ce4bhch2rcd13ifvqeug","pricing_plan_id":"free"},{"bike_id":"18c02c14-36c0-4cf5-b980-7dd3dcf817cf","system_id":"levelo_inurba_marseille","lat":43.28615,"lon":5.35104,"is_reserved":false,"is_disabled":false,"rental_uris":{"android":"levelo://app?vid=18c02c14-36c0-4cf5-b980-7dd3dcf817cf","ios":"levelo://app?vid=18c02c14-36c0-4cf5-b980-7dd3dcf817cf"},"vehicle_type_id":"4","last_reported":1701731240,"current_range_meters":18800,"station_id":"ce4bhch2rcd13ifvqeug","pricing_plan_id":"free"},{"bike_id":"8c9d1716-3fd0-4559-9e75-969d7b769d14","system_id":"levelo_inurba_marseille","lat":43.285856,"lon":5.350771,"is_reserved":false,"is_disabled":false,"rental_uris":{"android":"levelo://app?vid=8c9d1716-3fd0-4559-9e75-969d7b769d14","ios":"levelo://app?vid=8c9d1716-3fd0-4559-9e75-969d7b769d14"},"vehicle_type_id":"4","last_reported":1701731240,"current_range_meters":27600,"station_id":"ce4bhch2rcd13ifvqeug","pricing_plan_id":"free"},{"bike_id":"2933ab71-7a5a-48a9-8ff1-3f3616ca8f32","system_id":"levelo_inurba_marseille","lat":43.28614,"lon":5.35103,"is_reserved":false,"is_disabled":false,"rental_uris":{"android":"levelo://app?vid=2933ab71-7a5a-48a9-8ff1-3f3616ca8f32","ios":"levelo://app?vid=2933ab71-7a5a-48a9-8ff1-3f3616ca8f32"},"vehicle_type_id":"4","last_reported":1701731240,"current_range_meters":26000,"station_id":"ce4bhch2rcd13ifvqeug","pricing_plan_id":"free"},{"bike_id":"cedcaa43-9542-42e2-ab88-d3d53f689079","system_id":"levelo_inurba_marseille","lat":43.283998,"lon":5.375062,"is_reserved":false,"is_disabled":false,"rental_uris":{"android":"levelo://app?vid=cedcaa43-9542-42e2-ab88-d3d53f689079","ios":"levelo://app?vid=cedcaa43-9542-42e2-ab88-d3d53f689079"},"vehicle_type_id":"4","last_reported":1701731240,"current_range_meters":21200,"station_id":"ce4bh412rcd13ifvqds0","pricing_plan_id":"free"},{"bike_id":"4b472d2d-8db3-42ed-9a8f-2268fbbde39f","system_id":"levelo_inurba_marseille","lat":43.283998,"lon":5.375062,"is_reserved":false,"is_disabled":false,"rental_uris":{"android":"levelo://app?vid=4b472d2d-8db3-42ed-9a8f-2268fbbde39f","ios":"levelo://app?vid=4b472d2d-8db3-42ed-9a8f-2268fbbde39f"},"vehicle_type_id":"4","last_reported":1701731240,"current_range_meters":2400,"station_id":"ce4bh412rcd13ifvqds0","pricing_plan_id":"free"},{"bike_id":"6bbcf920-4d05-4284-bb20-53248be62fde","system_id":"levelo_inurba_marseille","lat":43.295713,"lon":5.399639,"is_reserved":false,"is_disabled":false,"rental_uris":{"android":"levelo://app?vid=6bbcf920-4d05-4284-bb20-53248be62fde","ios":"levelo://app?vid=6bbcf920-4d05-4284-bb20-53248be62fde"},"vehicle_type_id":"4","last_reported":1701731240,"current_range_meters":25600,"station_id":"ce4bh312rcd13ifvqdj0","pricing_plan_id":"free"},{"bike_id":"62c8e170-2395-4b44-b91a-addbcd373f70","system_id":"levelo_inurba_marseille","lat":43.283998,"lon":5.375062,"is_reserved":false,"is_disabled":false,"rental_uris":{"android":"levelo://app?vid=62c8e170-2395-4b44-b91a-addbcd373f70","ios":"levelo://app?vid=62c8e170-2395-4b44-b91a-addbcd373f70"},"vehicle_type_id":"4","last_reported":1701731240,"current_range_meters":23600,"station_id":"ce4bh412rcd13ifvqds0","pricing_plan_id":"free"},{"bike_id":"4edbd4b0-c877-488b-b964-ae399c8a36b3","system_id":"levelo_inurba_marseille","lat":43.295713,"lon":5.399639,"is_reserved":false,"is_disabled":false,"rental_uris":{"android":"levelo://app?vid=4edbd4b0-c877-488b-b964-ae399c8a36b3","ios":"levelo://app?vid=4edbd4b0-c877-488b-b964-ae399c8a36b3"},"vehicle_type_id":"4","last_reported":1701731240,"current_range_meters":27200,"station_id":"ce4bh312rcd13ifvqdj0","pricing_plan_id":"free"},{"bike_id":"c322d5f1-0c82-44a4-866c-216b659395fa","system_id":"levelo_inurba_marseille","lat":43.319179,"lon":5.407725,"is_reserved":false,"is_disabled":false,"rental_uris":{"android":"levelo://app?vid=c322d5f1-0c82-44a4-866c-216b659395fa","ios":"levelo://app?vid=c322d5f1-0c82-44a4-866c-216b659395fa"},"vehicle_type_id":"4","last_reported":1701731240,"current_range_meters":31200,"station_id":"ce4bhq12rcd13ifvqhig","pricing_plan_id":"free"},{"bike_id":"3aaa766c-12c1-4485-850d-b495677f1267","system_id":"levelo_inurba_marseille","lat":43.319179,"lon":5.407725,"is_reserved":false,"is_disabled":false,"rental_uris":{"android":"levelo://app?vid=3aaa766c-12c1-4485-850d-b495677f1267","ios":"levelo://app?vid=3aaa766c-12c1-4485-850d-b495677f1267"},"vehicle_type_id":"4","last_reported":1701731240,"current_range_meters":30400,"station_id":"ce4bhq12rcd13ifvqhig","pricing_plan_id":"free"},{"bike_id":"aa14360c-c056-4ae5-930e-01d87266e046","system_id":"levelo_inurba_marseille","lat":43.323464,"lon":5.406297,"is_reserved":false,"is_disabled":false,"rental_uris":{"android":"levelo://app?vid=aa14360c-c056-4ae5-930e-01d87266e046","ios":"levelo://app?vid=aa14360c-c056-4ae5-930e-01d87266e046"},"vehicle_type_id":"4","last_reported":1701731240,"current_range_meters":16400,"station_id":"ce4bhq92rcd13ifvqhjg","pricing_plan_id":"free"},{"bike_id":"37637d11-0d2c-4d6c-8684-6f3fad115197","system_id":"levelo_inurba_marseille","lat":43.323464,"lon":5.406297,"is_reserved":false,"is_disabled":false,"rental_uris":{"android":"levelo://app?vid=37637d11-0d2c-4d6c-8684-6f3fad115197","ios":"levelo://app?vid=37637d11-0d2c-4d6c-8684-6f3fad115197"},"vehicle_type_id":"4","last_reported":1701731240,"current_range_meters":30000,"station_id":"ce4bhq92rcd13ifvqhjg","pricing_plan_id":"free"},{"bike_id":"60e8c703-d82c-49c9-bc5f-f7e8deb1ac94","system_id":"levelo_inurba_marseille","lat":43.323464,"lon":5.406297,"is_reserved":false,"is_disabled":false,"rental_uris":{"android":"levelo://app?vid=60e8c703-d82c-49c9-bc5f-f7e8deb1ac94","ios":"levelo://app?vid=60e8c703-d82c-49c9-bc5f-f7e8deb1ac94"},"vehicle_type_id":"4","last_reported":1701731240,"current_range_meters":30800,"station_id":"ce4bhq92rcd13ifvqhjg","pricing_plan_id":"free"},{"bike_id":"23a6e18e-5ad6-40cf-b6fb-7a4b1a6034c9","system_id":"levelo_inurba_marseille","lat":43.337168,"lon":5.391825,"is_reserved":false,"is_disabled":false,"rental_uris":{"android":"levelo://app?vid=23a6e18e-5ad6-40cf-b6fb-7a4b1a6034c9","ios":"levelo://app?vid=23a6e18e-5ad6-40cf-b6fb-7a4b1a6034c9"},"vehicle_type_id":"4","last_reported":1701731240,"current_range_meters":28400,"station_id":"ce4bhr92rcd13ifvqhsg","pricing_plan_id":"free"},{"bike_id":"7eb8d386-7d06-4a93-80d6-54406d542d45","system_id":"levelo_inurba_marseille","lat":43.288501,"lon":5.393087,"is_reserved":false,"is_disabled":false,"rental_uris":{"android":"levelo://app?vid=7eb8d386-7d06-4a93-80d6-54406d542d45","ios":"levelo://app?vid=7eb8d386-7d06-4a93-80d6-54406d542d45"},"vehicle_type_id":"4","last_reported":1701731240,"current_range_meters":29600,"station_id":"ce4bh2p2rcd13ifvqdi0","pricing_plan_id":"free"},{"bike_id":"d58314f1-eceb-4068-b21c-c7c3312f3888","system_id":"levelo_inurba_marseille","lat":43.284219,"lon":5.3497,"is_reserved":false,"is_disabled":false,"rental_uris":{"android":"levelo://app?vid=d58314f1-eceb-4068-b21c-c7c3312f3888","ios":"levelo://app?vid=d58314f1-eceb-4068-b21c-c7c3312f3888"},"vehicle_type_id":"4","last_reported":1701731240,"current_range_meters":23600,"station_id":"ce4bhbh2rcd13ifvqepg","pricing_plan_id":"free"},{"bike_id":"d8beca11-8afb-495c-bcdc-d9740b7c9990","system_id":"levelo_inurba_marseille","lat":43.279087,"lon":5.380114,"is_reserved":false,"is_disabled":false,"rental_uris":{"android":"levelo://app?vid=d8beca11-8afb-495c-bcdc-d9740b7c9990","ios":"levelo://app?vid=d8beca11-8afb-495c-bcdc-d9740b7c9990"},"vehicle_type_id":"4","last_reported":1701731240,"current_range_meters":29200,"station_id":"ce4bhf92rcd13ifvqf50","pricing_plan_id":"free"},{"bike_id":"052c7fc7-ace5-456c-a6c3-741f73450385","system_id":"levelo_inurba_marseille","lat":43.28039,"lon":5.369297,"is_reserved":false,"is_disabled":false,"rental_uris":{"android":"levelo://app?vid=052c7fc7-ace5-456c-a6c3-741f73450385","ios":"levelo://app?vid=052c7fc7-ace5-456c-a6c3-741f73450385"},"vehicle_type_id":"4","last_reported":1701731240,"current_range_meters":31200,"station_id":"ce4bha12rcd13ifvqef0","pricing_plan_id":"free"},{"bike_id":"7528d699-1c71-4727-bf70-f5af6612adc3","system_id":"levelo_inurba_marseille","lat":43.283502,"lon":5.386471,"is_reserved":false,"is_disabled":false,"rental_uris":{"android":"levelo://app?vid=7528d699-1c71-4727-bf70-f5af6612adc3","ios":"levelo://app?vid=7528d699-1c71-4727-bf70-f5af6612adc3"},"vehicle_type_id":"4","last_reported":1701731240,"current_range_meters":2800,"station_id":"ce4bh492rcd13ifvqdvg","pricing_plan_id":"free"},{"bike_id":"fb17d47e-3f8e-47e7-a8f8-5ac35613e1ae","system_id":"levelo_inurba_marseille","lat":43.28039,"lon":5.369297,"is_reserved":false,"is_disabled":false,"rental_uris":{"android":"levelo://app?vid=fb17d47e-3f8e-47e7-a8f8-5ac35613e1ae","ios":"levelo://app?vid=fb17d47e-3f8e-47e7-a8f8-5ac35613e1ae"},"vehicle_type_id":"4","last_reported":1701731240,"current_range_meters":26400,"station_id":"ce4bha12rcd13ifvqef0","pricing_plan_id":"free"},{"bike_id":"4f144858-d244-4c5d-9c53-6a6b16cc8e58","system_id":"levelo_inurba_marseille","lat":43.280382,"lon":5.369291,"is_reserved":false,"is_disabled":false,"rental_uris":{"android":"levelo://app?vid=4f144858-d244-4c5d-9c53-6a6b16cc8e58","ios":"levelo://app?vid=4f144858-d244-4c5d-9c53-6a6b16cc8e58"},"vehicle_type_id":"4","last_reported":1701731240,"current_range_meters":27600,"station_id":"ce4bha12rcd13ifvqef0","pricing_plan_id":"free"},{"bike_id":"dd3edbec-e53d-4db9-9a2b-757cc47bce65","system_id":"levelo_inurba_marseille","lat":43.28039,"lon":5.369297,"is_reserved":false,"is_disabled":false,"rental_uris":{"android":"levelo://app?vid=dd3edbec-e53d-4db9-9a2b-757cc47bce65","ios":"levelo://app?vid=dd3edbec-e53d-4db9-9a2b-757cc47bce65"},"vehicle_type_id":"4","last_reported":1701731240,"current_range_meters":29200,"station_id":"ce4bha12rcd13ifvqef0","pricing_plan_id":"free"},{"bike_id":"8bf9564f-62b1-426c-bced-de4c15a4c0ad","system_id":"levelo_inurba_marseille","lat":43.28039,"lon":5.369297,"is_reserved":false,"is_disabled":false,"rental_uris":{"android":"levelo://app?vid=8bf9564f-62b1-426c-bced-de4c15a4c0ad","ios":"levelo://app?vid=8bf9564f-62b1-426c-bced-de4c15a4c0ad"},"vehicle_type_id":"4","last_reported":1701731240,"current_range_meters":29600,"station_id":"ce4bha12rcd13ifvqef0","pricing_plan_id":"free"},{"bike_id":"378e06e1-57f0-47f1-a348-dd7d576fe732","system_id":"levelo_inurba_marseille","lat":43.280382,"lon":5.369291,"is_reserved":false,"is_disabled":false,"rental_uris":{"android":"levelo://app?vid=378e06e1-57f0-47f1-a348-dd7d576fe732","ios":"levelo://app?vid=378e06e1-57f0-47f1-a348-dd7d576fe732"},"vehicle_type_id":"4","last_reported":1701731240,"current_range_meters":31200,"station_id":"ce4bha12rcd13ifvqef0","pricing_plan_id":"free"},{"bike_id":"8845e4a2-6943-416c-ab1d-a5bfe388ae71","system_id":"levelo_inurba_marseille","lat":43.29041,"lon":5.399634,"is_reserved":false,"is_disabled":false,"rental_uris":{"android":"levelo://app?vid=8845e4a2-6943-416c-ab1d-a5bfe388ae71","ios":"levelo://app?vid=8845e4a2-6943-416c-ab1d-a5bfe388ae71"},"vehicle_type_id":"4","last_reported":1701731240,"current_range_meters":15200,"station_id":"ce4bh392rcd13ifvqdm0","pricing_plan_id":"free"},{"bike_id":"1a72871e-d055-49e4-99af-27d6f5b19d03","system_id":"levelo_inurba_marseille","lat":43.29041,"lon":5.399634,"is_reserved":false,"is_disabled":false,"rental_uris":{"android":"levelo://app?vid=1a72871e-d055-49e4-99af-27d6f5b19d03","ios":"levelo://app?vid=1a72871e-d055-49e4-99af-27d6f5b19d03"},"vehicle_type_id":"4","last_reported":1701731240,"current_range_meters":31200,"station_id":"ce4bh392rcd13ifvqdm0","pricing_plan_id":"free"},{"bike_id":"057c79a0-eb7d-4580-8105-f6f62e67596c","system_id":"levelo_inurba_marseille","lat":43.29041,"lon":5.399634,"is_reserved":false,"is_disabled":false,"rental_uris":{"android":"levelo://app?vid=057c79a0-eb7d-4580-8105-f6f62e67596c","ios":"levelo://app?vid=057c79a0-eb7d-4580-8105-f6f62e67596c"},"vehicle_type_id":"4","last_reported":1701731240,"current_range_meters":20000,"station_id":"ce4bh392rcd13ifvqdm0","pricing_plan_id":"free"},{"bike_id":"01cd0cbb-ee6a-412a-b70b-1208d0cab111","system_id":"levelo_inurba_marseille","lat":43.281044,"lon":5.378308,"is_reserved":false,"is_disabled":false,"rental_uris":{"android":"levelo://app?vid=01cd0cbb-ee6a-412a-b70b-1208d0cab111","ios":"levelo://app?vid=01cd0cbb-ee6a-412a-b70b-1208d0cab111"},"vehicle_type_id":"4","last_reported":1701731240,"current_range_meters":22400,"station_id":"ce4bha12rcd13ifvqee0","pricing_plan_id":"free"},{"bike_id":"f23235c2-e3ab-417e-b9e8-1d0ae6d124bb","system_id":"levelo_inurba_marseille","lat":43.281044,"lon":5.378308,"is_reserved":false,"is_disabled":false,"rental_uris":{"android":"levelo://app?vid=f23235c2-e3ab-417e-b9e8-1d0ae6d124bb","ios":"levelo://app?vid=f23235c2-e3ab-417e-b9e8-1d0ae6d124bb"},"vehicle_type_id":"4","last_reported":1701731240,"current_range_meters":31200,"station_id":"ce4bha12rcd13ifvqee0","pricing_plan_id":"free"},{"bike_id":"03abf90b-e319-4f6f-b30a-09e8216c98fa","system_id":"levelo_inurba_marseille","lat":43.281044,"lon":5.378308,"is_reserved":false,"is_disabled":false,"rental_uris":{"android":"levelo://app?vid=03abf90b-e319-4f6f-b30a-09e8216c98fa","ios":"levelo://app?vid=03abf90b-e319-4f6f-b30a-09e8216c98fa"},"vehicle_type_id":"4","last_reported":1701731240,"current_range_meters":12000,"station_id":"ce4bha12rcd13ifvqee0","pricing_plan_id":"free"},{"bike_id":"c7272a63-85be-42a0-8a5a-05fe95cb8e00","system_id":"levelo_inurba_marseille","lat":43.281044,"lon":5.378308,"is_reserved":false,"is_disabled":false,"rental_uris":{"android":"levelo://app?vid=c7272a63-85be-42a0-8a5a-05fe95cb8e00","ios":"levelo://app?vid=c7272a63-85be-42a0-8a5a-05fe95cb8e00"},"vehicle_type_id":"4","last_reported":1701731240,"current_range_meters":25200,"station_id":"ce4bha12rcd13ifvqee0","pricing_plan_id":"free"},{"bike_id":"927891c7-6f00-4be7-8ba2-d4bbf6bddeac","system_id":"levelo_inurba_marseille","lat":43.296263,"lon":5.40601,"is_reserved":false,"is_disabled":false,"rental_uris":{"android":"levelo://app?vid=927891c7-6f00-4be7-8ba2-d4bbf6bddeac","ios":"levelo://app?vid=927891c7-6f00-4be7-8ba2-d4bbf6bddeac"},"vehicle_type_id":"4","last_reported":1701731240,"current_range_meters":28800,"station_id":"ce4bh0h2rcd13ifvqd60","pricing_plan_id":"free"},{"bike_id":"825e2c74-eca6-4f89-b747-bb99e398849e","system_id":"levelo_inurba_marseille","lat":43.281044,"lon":5.378308,"is_reserved":false,"is_disabled":false,"rental_uris":{"android":"levelo://app?vid=825e2c74-eca6-4f89-b747-bb99e398849e","ios":"levelo://app?vid=825e2c74-eca6-4f89-b747-bb99e398849e"},"vehicle_type_id":"4","last_reported":1701731240,"current_range_meters":13200,"station_id":"ce4bha12rcd13ifvqee0","pricing_plan_id":"free"},{"bike_id":"ae800d28-e3ee-47b8-8a37-cdf7e5e517a7","system_id":"levelo_inurba_marseille","lat":43.281044,"lon":5.378308,"is_reserved":false,"is_disabled":false,"rental_uris":{"android":"levelo://app?vid=ae800d28-e3ee-47b8-8a37-cdf7e5e517a7","ios":"levelo://app?vid=ae800d28-e3ee-47b8-8a37-cdf7e5e517a7"},"vehicle_type_id":"4","last_reported":1701731240,"current_range_meters":31200,"station_id":"ce4bha12rcd13ifvqee0","pricing_plan_id":"free"},{"bike_id":"44cfc62b-232e-4d7d-aa55-798eaa87c981","system_id":"levelo_inurba_marseille","lat":43.281,"lon":5.37848,"is_reserved":false,"is_disabled":false,"rental_uris":{"android":"levelo://app?vid=44cfc62b-232e-4d7d-aa55-798eaa87c981","ios":"levelo://app?vid=44cfc62b-232e-4d7d-aa55-798eaa87c981"},"vehicle_type_id":"4","last_reported":1701731240,"current_range_meters":0,"station_id":"ce4bha12rcd13ifvqee0","pricing_plan_id":"free"},{"bike_id":"3ed6cd63-fb09-4187-aa99-27f59a66ef12","system_id":"levelo_inurba_marseille","lat":43.296263,"lon":5.40601,"is_reserved":false,"is_disabled":false,"rental_uris":{"android":"levelo://app?vid=3ed6cd63-fb09-4187-aa99-27f59a66ef12","ios":"levelo://app?vid=3ed6cd63-fb09-4187-aa99-27f59a66ef12"},"vehicle_type_id":"4","last_reported":1701731240,"current_range_meters":26800,"station_id":"ce4bh0h2rcd13ifvqd60","pricing_plan_id":"free"},{"bike_id":"e5b3d878-4d19-47ec-994a-ec39745188fd","system_id":"levelo_inurba_marseille","lat":43.28573,"lon":5.394992,"is_reserved":false,"is_disabled":false,"rental_uris":{"android":"levelo://app?vid=e5b3d878-4d19-47ec-994a-ec39745188fd","ios":"levelo://app?vid=e5b3d878-4d19-47ec-994a-ec39745188fd"},"vehicle_type_id":"4","last_reported":1701731240,"current_range_meters":24400,"station_id":"ce4bh292rcd13ifvqdg0","pricing_plan_id":"free"},{"bike_id":"f71c3e4b-56cc-4b56-8ba6-eea098969b60","system_id":"levelo_inurba_marseille","lat":43.326605,"lon":5.409903,"is_reserved":false,"is_disabled":false,"rental_uris":{"android":"levelo://app?vid=f71c3e4b-56cc-4b56-8ba6-eea098969b60","ios":"levelo://app?vid=f71c3e4b-56cc-4b56-8ba6-eea098969b60"},"vehicle_type_id":"4","last_reported":1701731240,"current_range_meters":26800,"station_id":"ce4bhpp2rcd13ifvqhgg","pricing_plan_id":"free"},{"bike_id":"a80ed89f-3589-45cf-80ca-3459072dfb32","system_id":"levelo_inurba_marseille","lat":43.304188,"lon":5.412904,"is_reserved":false,"is_disabled":false,"rental_uris":{"android":"levelo://app?vid=a80ed89f-3589-45cf-80ca-3459072dfb32","ios":"levelo://app?vid=a80ed89f-3589-45cf-80ca-3459072dfb32"},"vehicle_type_id":"4","last_reported":1701731240,"current_range_meters":24400,"station_id":"ce4bhop2rcd13ifvqh8g","pricing_plan_id":"free"},{"bike_id":"229720ab-97c8-439a-b37b-4f884f28214f","system_id":"levelo_inurba_marseille","lat":43.304188,"lon":5.412904,"is_reserved":false,"is_disabled":false,"rental_uris":{"android":"levelo://app?vid=229720ab-97c8-439a-b37b-4f884f28214f","ios":"levelo://app?vid=229720ab-97c8-439a-b37b-4f884f28214f"},"vehicle_type_id":"4","last_reported":1701731240,"current_range_meters":24400,"station_id":"ce4bhop2rcd13ifvqh8g","pricing_plan_id":"free"},{"bike_id":"bd21c7ec-215f-4653-bafe-20f78ed8cf64","system_id":"levelo_inurba_marseille","lat":43.304188,"lon":5.412904,"is_reserved":false,"is_disabled":false,"rental_uris":{"android":"levelo://app?vid=bd21c7ec-215f-4653-bafe-20f78ed8cf64","ios":"levelo://app?vid=bd21c7ec-215f-4653-bafe-20f78ed8cf64"},"vehicle_type_id":"4","last_reported":1701731240,"current_range_meters":29200,"station_id":"ce4bhop2rcd13ifvqh8g","pricing_plan_id":"free"},{"bike_id":"a9b2653d-42e7-49b2-bf82-ec0a5f54a5d4","system_id":"levelo_inurba_marseille","lat":43.279087,"lon":5.380114,"is_reserved":false,"is_disabled":false,"rental_uris":{"android":"levelo://app?vid=a9b2653d-42e7-49b2-bf82-ec0a5f54a5d4","ios":"levelo://app?vid=a9b2653d-42e7-49b2-bf82-ec0a5f54a5d4"},"vehicle_type_id":"4","last_reported":1701731240,"current_range_meters":25600,"station_id":"ce4bhf92rcd13ifvqf50","pricing_plan_id":"free"},{"bike_id":"bfe58320-f079-4449-bbf5-a01627491005","system_id":"levelo_inurba_marseille","lat":43.287154,"lon":5.399979,"is_reserved":false,"is_disabled":false,"rental_uris":{"android":"levelo://app?vid=bfe58320-f079-4449-bbf5-a01627491005","ios":"levelo://app?vid=bfe58320-f079-4449-bbf5-a01627491005"},"vehicle_type_id":"4","last_reported":1701731240,"current_range_meters":30000,"station_id":"ce4bho92rcd13ifvqh3g","pricing_plan_id":"free"},{"bike_id":"766b6997-1ef1-4ea4-9578-d92bd8f24a2f","system_id":"levelo_inurba_marseille","lat":43.299579,"lon":5.413255,"is_reserved":false,"is_disabled":false,"rental_uris":{"android":"levelo://app?vid=766b6997-1ef1-4ea4-9578-d92bd8f24a2f","ios":"levelo://app?vid=766b6997-1ef1-4ea4-9578-d92bd8f24a2f"},"vehicle_type_id":"4","last_reported":1701731240,"current_range_meters":16800,"station_id":"ce4bhp12rcd13ifvqh9g","pricing_plan_id":"free"},{"bike_id":"e8a2cca4-bf1d-4b43-b496-a11cfa91f873","system_id":"levelo_inurba_marseille","lat":43.279742,"lon":5.38744,"is_reserved":false,"is_disabled":false,"rental_uris":{"android":"levelo://app?vid=e8a2cca4-bf1d-4b43-b496-a11cfa91f873","ios":"levelo://app?vid=e8a2cca4-bf1d-4b43-b496-a11cfa91f873"},"vehicle_type_id":"4","last_reported":1701731240,"current_range_meters":22800,"station_id":"ce4bhg12rcd13ifvqf80","pricing_plan_id":"free"},{"bike_id":"ee72b458-206a-4935-8f00-9be1ab3dfc98","system_id":"levelo_inurba_marseille","lat":43.292571,"lon":5.409107,"is_reserved":false,"is_disabled":false,"rental_uris":{"android":"levelo://app?vid=ee72b458-206a-4935-8f00-9be1ab3dfc98","ios":"levelo://app?vid=ee72b458-206a-4935-8f00-9be1ab3dfc98"},"vehicle_type_id":"4","last_reported":1701731240,"current_range_meters":9600,"station_id":"ce4bh192rcd13ifvqdc0","pricing_plan_id":"free"},{"bike_id":"6818f081-7f0d-4004-8f7d-fbbd5cf2e221","system_id":"levelo_inurba_marseille","lat":43.292569,"lon":5.409107,"is_reserved":false,"is_disabled":false,"rental_uris":{"android":"levelo://app?vid=6818f081-7f0d-4004-8f7d-fbbd5cf2e221","ios":"levelo://app?vid=6818f081-7f0d-4004-8f7d-fbbd5cf2e221"},"vehicle_type_id":"4","last_reported":1701731240,"current_range_meters":25200,"station_id":"ce4bh192rcd13ifvqdc0","pricing_plan_id":"free"},{"bike_id":"eec505d4-80c9-497c-8239-1aa51af8e69f","system_id":"levelo_inurba_marseille","lat":43.280784,"lon":5.396622,"is_reserved":false,"is_disabled":false,"rental_uris":{"android":"levelo://app?vid=eec505d4-80c9-497c-8239-1aa51af8e69f","ios":"levelo://app?vid=eec505d4-80c9-497c-8239-1aa51af8e69f"},"vehicle_type_id":"4","last_reported":1701731240,"current_range_meters":22800,"station_id":"ce4bho12rcd13ifvqh2g","pricing_plan_id":"free"},{"bike_id":"e9581d9c-efce-4f66-bb8b-913a40cd6b35","system_id":"levelo_inurba_marseille","lat":43.278401,"lon":5.392152,"is_reserved":false,"is_disabled":false,"rental_uris":{"android":"levelo://app?vid=e9581d9c-efce-4f66-bb8b-913a40cd6b35","ios":"levelo://app?vid=e9581d9c-efce-4f66-bb8b-913a40cd6b35"},"vehicle_type_id":"4","last_reported":1701731240,"current_range_meters":13600,"station_id":"ce4bhjp2rcd13ifvqga0","pricing_plan_id":"free"},{"bike_id":"3ea28be1-d23c-49b6-a64f-225039a206c7","system_id":"levelo_inurba_marseille","lat":43.273613,"lon":5.362705,"is_reserved":false,"is_disabled":false,"rental_uris":{"android":"levelo://app?vid=3ea28be1-d23c-49b6-a64f-225039a206c7","ios":"levelo://app?vid=3ea28be1-d23c-49b6-a64f-225039a206c7"},"vehicle_type_id":"4","last_reported":1701731240,"current_range_meters":30400,"station_id":"ce4bhbh2rcd13ifvqeo0","pricing_plan_id":"free"},{"bike_id":"faf55bbe-f5c0-4dc6-afde-2de7efdac4da","system_id":"levelo_inurba_marseille","lat":43.33612,"lon":5.410321,"is_reserved":false,"is_disabled":false,"rental_uris":{"android":"levelo://app?vid=faf55bbe-f5c0-4dc6-afde-2de7efdac4da","ios":"levelo://app?vid=faf55bbe-f5c0-4dc6-afde-2de7efdac4da"},"vehicle_type_id":"4","last_reported":1701731240,"current_range_meters":21600,"station_id":"ce4bhqh2rcd13ifvqhmg","pricing_plan_id":"free"},{"bike_id":"502feb3a-2ccb-4cfe-9d56-9e94c6b630e7","system_id":"levelo_inurba_marseille","lat":43.33612,"lon":5.410321,"is_reserved":false,"is_disabled":false,"rental_uris":{"android":"levelo://app?vid=502feb3a-2ccb-4cfe-9d56-9e94c6b630e7","ios":"levelo://app?vid=502feb3a-2ccb-4cfe-9d56-9e94c6b630e7"},"vehicle_type_id":"4","last_reported":1701731240,"current_range_meters":19200,"station_id":"ce4bhqh2rcd13ifvqhmg","pricing_plan_id":"free"},{"bike_id":"1258299f-d7e4-429c-a530-9c376d622f15","system_id":"levelo_inurba_marseille","lat":43.33612,"lon":5.410321,"is_reserved":false,"is_disabled":false,"rental_uris":{"android":"levelo://app?vid=1258299f-d7e4-429c-a530-9c376d622f15","ios":"levelo://app?vid=1258299f-d7e4-429c-a530-9c376d622f15"},"vehicle_type_id":"4","last_reported":1701731240,"current_range_meters":8000,"station_id":"ce4bhqh2rcd13ifvqhmg","pricing_plan_id":"free"},{"bike_id":"671fb5f1-2a82-4780-a5b0-30c24b7c7c9c","system_id":"levelo_inurba_marseille","lat":43.33612,"lon":5.410321,"is_reserved":false,"is_disabled":false,"rental_uris":{"android":"levelo://app?vid=671fb5f1-2a82-4780-a5b0-30c24b7c7c9c","ios":"levelo://app?vid=671fb5f1-2a82-4780-a5b0-30c24b7c7c9c"},"vehicle_type_id":"4","last_reported":1701731240,"current_range_meters":31200,"station_id":"ce4bhqh2rcd13ifvqhmg","pricing_plan_id":"free"},{"bike_id":"6dee21f9-0077-4751-a68d-f121846d4b85","system_id":"levelo_inurba_marseille","lat":43.336134,"lon":5.410341,"is_reserved":false,"is_disabled":false,"rental_uris":{"android":"levelo://app?vid=6dee21f9-0077-4751-a68d-f121846d4b85","ios":"levelo://app?vid=6dee21f9-0077-4751-a68d-f121846d4b85"},"vehicle_type_id":"4","last_reported":1701731240,"current_range_meters":12800,"station_id":"ce4bhqh2rcd13ifvqhmg","pricing_plan_id":"free"},{"bike_id":"3093e863-3806-4752-93a2-c8da27cc013f","system_id":"levelo_inurba_marseille","lat":43.276769,"lon":5.388787,"is_reserved":false,"is_disabled":false,"rental_uris":{"android":"levelo://app?vid=3093e863-3806-4752-93a2-c8da27cc013f","ios":"levelo://app?vid=3093e863-3806-4752-93a2-c8da27cc013f"},"vehicle_type_id":"4","last_reported":1701731240,"current_range_meters":22800,"station_id":"ce4bhi12rcd13ifvqfo0","pricing_plan_id":"free"},{"bike_id":"650086f7-a4cd-447e-816d-d905cd9236c5","system_id":"levelo_inurba_marseille","lat":43.336134,"lon":5.410341,"is_reserved":false,"is_disabled":false,"rental_uris":{"android":"levelo://app?vid=650086f7-a4cd-447e-816d-d905cd9236c5","ios":"levelo://app?vid=650086f7-a4cd-447e-816d-d905cd9236c5"},"vehicle_type_id":"4","last_reported":1701731240,"current_range_meters":25600,"station_id":"ce4bhqh2rcd13ifvqhmg","pricing_plan_id":"free"},{"bike_id":"10f10f2d-aec0-4798-a089-8ffafc7ef6a0","system_id":"levelo_inurba_marseille","lat":43.33612,"lon":5.410321,"is_reserved":false,"is_disabled":false,"rental_uris":{"android":"levelo://app?vid=10f10f2d-aec0-4798-a089-8ffafc7ef6a0","ios":"levelo://app?vid=10f10f2d-aec0-4798-a089-8ffafc7ef6a0"},"vehicle_type_id":"4","last_reported":1701731240,"current_range_meters":16800,"station_id":"ce4bhqh2rcd13ifvqhmg","pricing_plan_id":"free"},{"bike_id":"5f3f65df-c08a-48bd-9c38-56c6eb8de133","system_id":"levelo_inurba_marseille","lat":43.279975,"lon":5.40009,"is_reserved":false,"is_disabled":false,"rental_uris":{"android":"levelo://app?vid=5f3f65df-c08a-48bd-9c38-56c6eb8de133","ios":"levelo://app?vid=5f3f65df-c08a-48bd-9c38-56c6eb8de133"},"vehicle_type_id":"4","last_reported":1701731240,"current_range_meters":24800,"station_id":"ce4bho92rcd13ifvqh4g","pricing_plan_id":"free"},{"bike_id":"1cfc9c10-b769-4622-8b17-c929c7638b3b","system_id":"levelo_inurba_marseille","lat":43.279952,"lon":5.400085,"is_reserved":false,"is_disabled":false,"rental_uris":{"android":"levelo://app?vid=1cfc9c10-b769-4622-8b17-c929c7638b3b","ios":"levelo://app?vid=1cfc9c10-b769-4622-8b17-c929c7638b3b"},"vehicle_type_id":"4","last_reported":1701731240,"current_range_meters":18400,"station_id":"ce4bho92rcd13ifvqh4g","pricing_plan_id":"free"},{"bike_id":"e8996239-bac7-4ee1-815d-f1a52210aefa","system_id":"levelo_inurba_marseille","lat":43.317121,"lon":5.423936,"is_reserved":false,"is_disabled":false,"rental_uris":{"android":"levelo://app?vid=e8996239-bac7-4ee1-815d-f1a52210aefa","ios":"levelo://app?vid=e8996239-bac7-4ee1-815d-f1a52210aefa"},"vehicle_type_id":"4","last_reported":1701731240,"current_range_meters":30800,"station_id":"ce4bhp92rcd13ifvqhbg","pricing_plan_id":"free"},{"bike_id":"a3aef011-b611-4e5e-bf0b-b705e09a22b1","system_id":"levelo_inurba_marseille","lat":43.317121,"lon":5.423936,"is_reserved":false,"is_disabled":false,"rental_uris":{"android":"levelo://app?vid=a3aef011-b611-4e5e-bf0b-b705e09a22b1","ios":"levelo://app?vid=a3aef011-b611-4e5e-bf0b-b705e09a22b1"},"vehicle_type_id":"4","last_reported":1701731240,"current_range_meters":27600,"station_id":"ce4bhp92rcd13ifvqhbg","pricing_plan_id":"free"},{"bike_id":"49d03b61-ccf2-4434-94f9-b61e327e1f7c","system_id":"levelo_inurba_marseille","lat":43.317121,"lon":5.423936,"is_reserved":false,"is_disabled":false,"rental_uris":{"android":"levelo://app?vid=49d03b61-ccf2-4434-94f9-b61e327e1f7c","ios":"levelo://app?vid=49d03b61-ccf2-4434-94f9-b61e327e1f7c"},"vehicle_type_id":"4","last_reported":1701731240,"current_range_meters":27200,"station_id":"ce4bhp92rcd13ifvqhbg","pricing_plan_id":"free"},{"bike_id":"fb7b11b6-2e5c-4a6c-b668-e3de222703b6","system_id":"levelo_inurba_marseille","lat":43.310785,"lon":5.424305,"is_reserved":false,"is_disabled":false,"rental_uris":{"android":"levelo://app?vid=fb7b11b6-2e5c-4a6c-b668-e3de222703b6","ios":"levelo://app?vid=fb7b11b6-2e5c-4a6c-b668-e3de222703b6"},"vehicle_type_id":"4","last_reported":1701731240,"current_range_meters":27600,"station_id":"ce4bhp92rcd13ifvqhag","pricing_plan_id":"free"},{"bike_id":"910fd3aa-d2e0-4553-894a-6161d41c7fcd","system_id":"levelo_inurba_marseille","lat":43.27609,"lon":5.39475,"is_reserved":false,"is_disabled":false,"rental_uris":{"android":"levelo://app?vid=910fd3aa-d2e0-4553-894a-6161d41c7fcd","ios":"levelo://app?vid=910fd3aa-d2e0-4553-894a-6161d41c7fcd"},"vehicle_type_id":"4","last_reported":1701731240,"current_range_meters":8400,"station_id":"","pricing_plan_id":"free"},{"bike_id":"4f4e5d52-124e-4276-8af2-2d2503944d2e","system_id":"levelo_inurba_marseille","lat":43.340804,"lon":5.410219,"is_reserved":false,"is_disabled":false,"rental_uris":{"android":"levelo://app?vid=4f4e5d52-124e-4276-8af2-2d2503944d2e","ios":"levelo://app?vid=4f4e5d52-124e-4276-8af2-2d2503944d2e"},"vehicle_type_id":"4","last_reported":1701731240,"current_range_meters":16000,"station_id":"ce4bhqh2rcd13ifvqhlg","pricing_plan_id":"free"},{"bike_id":"55c23f66-31a6-4882-8fa6-769301f13946","system_id":"levelo_inurba_marseille","lat":43.295523,"lon":5.422926,"is_reserved":false,"is_disabled":false,"rental_uris":{"android":"levelo://app?vid=55c23f66-31a6-4882-8fa6-769301f13946","ios":"levelo://app?vid=55c23f66-31a6-4882-8fa6-769301f13946"},"vehicle_type_id":"4","last_reported":1701731240,"current_range_meters":31200,"station_id":"ce4bhph2rcd13ifvqhdg","pricing_plan_id":"free"},{"bike_id":"719c96fd-cbaf-4302-8ee1-bacd622624b7","system_id":"levelo_inurba_marseille","lat":43.295511,"lon":5.422926,"is_reserved":false,"is_disabled":false,"rental_uris":{"android":"levelo://app?vid=719c96fd-cbaf-4302-8ee1-bacd622624b7","ios":"levelo://app?vid=719c96fd-cbaf-4302-8ee1-bacd622624b7"},"vehicle_type_id":"4","last_reported":1701731240,"current_range_meters":27600,"station_id":"ce4bhph2rcd13ifvqhdg","pricing_plan_id":"free"},{"bike_id":"4d227eb7-d36a-425e-8f14-420e16d126ca","system_id":"levelo_inurba_marseille","lat":43.272064,"lon":5.392614,"is_reserved":false,"is_disabled":false,"rental_uris":{"android":"levelo://app?vid=4d227eb7-d36a-425e-8f14-420e16d126ca","ios":"levelo://app?vid=4d227eb7-d36a-425e-8f14-420e16d126ca"},"vehicle_type_id":"4","last_reported":1701731240,"current_range_meters":24400,"station_id":"","pricing_plan_id":"free"},{"bike_id":"e9556114-db65-4d9b-9e5f-f0337ad415a0","system_id":"levelo_inurba_marseille","lat":43.278128,"lon":5.407195,"is_reserved":false,"is_disabled":false,"rental_uris":{"android":"levelo://app?vid=e9556114-db65-4d9b-9e5f-f0337ad415a0","ios":"levelo://app?vid=e9556114-db65-4d9b-9e5f-f0337ad415a0"},"vehicle_type_id":"4","last_reported":1701731240,"current_range_meters":25600,"station_id":"ce4bhnh2rcd13ifvqgtg","pricing_plan_id":"free"},{"bike_id":"3318d069-295b-4dfa-b9fb-69de068c2dae","system_id":"levelo_inurba_marseille","lat":43.27818,"lon":5.40707,"is_reserved":false,"is_disabled":false,"rental_uris":{"android":"levelo://app?vid=3318d069-295b-4dfa-b9fb-69de068c2dae","ios":"levelo://app?vid=3318d069-295b-4dfa-b9fb-69de068c2dae"},"vehicle_type_id":"4","last_reported":1701731240,"current_range_meters":6000,"station_id":"ce4bhnh2rcd13ifvqgtg","pricing_plan_id":"free"},{"bike_id":"f6c9747c-d603-4edd-bae6-504ef60d0756","system_id":"levelo_inurba_marseille","lat":43.278128,"lon":5.407195,"is_reserved":false,"is_disabled":false,"rental_uris":{"android":"levelo://app?vid=f6c9747c-d603-4edd-bae6-504ef60d0756","ios":"levelo://app?vid=f6c9747c-d603-4edd-bae6-504ef60d0756"},"vehicle_type_id":"4","last_reported":1701731240,"current_range_meters":23600,"station_id":"ce4bhnh2rcd13ifvqgtg","pricing_plan_id":"free"},{"bike_id":"1212c2c1-349b-4da8-a22b-a470229a9b19","system_id":"levelo_inurba_marseille","lat":43.27809,"lon":5.40701,"is_reserved":false,"is_disabled":false,"rental_uris":{"android":"levelo://app?vid=1212c2c1-349b-4da8-a22b-a470229a9b19","ios":"levelo://app?vid=1212c2c1-349b-4da8-a22b-a470229a9b19"},"vehicle_type_id":"4","last_reported":1701731240,"current_range_meters":5600,"station_id":"ce4bhnh2rcd13ifvqgtg","pricing_plan_id":"free"},{"bike_id":"903cfa4a-32ee-4a67-9af2-578aaa00edb8","system_id":"levelo_inurba_marseille","lat":43.27809,"lon":5.40706,"is_reserved":false,"is_disabled":false,"rental_uris":{"android":"levelo://app?vid=903cfa4a-32ee-4a67-9af2-578aaa00edb8","ios":"levelo://app?vid=903cfa4a-32ee-4a67-9af2-578aaa00edb8"},"vehicle_type_id":"4","last_reported":1701731240,"current_range_meters":1200,"station_id":"ce4bhnh2rcd13ifvqgtg","pricing_plan_id":"free"},{"bike_id":"77e1b16a-b057-42f0-940a-e4f493319ff3","system_id":"levelo_inurba_marseille","lat":43.2781,"lon":5.40709,"is_reserved":false,"is_disabled":false,"rental_uris":{"android":"levelo://app?vid=77e1b16a-b057-42f0-940a-e4f493319ff3","ios":"levelo://app?vid=77e1b16a-b057-42f0-940a-e4f493319ff3"},"vehicle_type_id":"4","last_reported":1701731240,"current_range_meters":3600,"station_id":"ce4bhnh2rcd13ifvqgtg","pricing_plan_id":"free"},{"bike_id":"1b586783-2eae-41cc-93f3-6538647f14b8","system_id":"levelo_inurba_marseille","lat":43.27813,"lon":5.40714,"is_reserved":false,"is_disabled":false,"rental_uris":{"android":"levelo://app?vid=1b586783-2eae-41cc-93f3-6538647f14b8","ios":"levelo://app?vid=1b586783-2eae-41cc-93f3-6538647f14b8"},"vehicle_type_id":"4","last_reported":1701731240,"current_range_meters":6800,"station_id":"ce4bhnh2rcd13ifvqgtg","pricing_plan_id":"free"},{"bike_id":"dff9c113-7fa3-489b-ba88-b9f4ef6a5789","system_id":"levelo_inurba_marseille","lat":43.269582,"lon":5.386346,"is_reserved":false,"is_disabled":false,"rental_uris":{"android":"levelo://app?vid=dff9c113-7fa3-489b-ba88-b9f4ef6a5789","ios":"levelo://app?vid=dff9c113-7fa3-489b-ba88-b9f4ef6a5789"},"vehicle_type_id":"4","last_reported":1701731240,"current_range_meters":400,"station_id":"","pricing_plan_id":"free"},{"bike_id":"ab645f70-277b-4165-b4a1-4af3a3587654","system_id":"levelo_inurba_marseille","lat":43.27945,"lon":5.41035,"is_reserved":false,"is_disabled":false,"rental_uris":{"android":"levelo://app?vid=ab645f70-277b-4165-b4a1-4af3a3587654","ios":"levelo://app?vid=ab645f70-277b-4165-b4a1-4af3a3587654"},"vehicle_type_id":"4","last_reported":1701731240,"current_range_meters":3600,"station_id":"ce4bhnp2rcd13ifvqh0g","pricing_plan_id":"free"},{"bike_id":"a9b3236d-7277-490f-ac03-6038f514ca34","system_id":"levelo_inurba_marseille","lat":43.279426,"lon":5.41036,"is_reserved":false,"is_disabled":false,"rental_uris":{"android":"levelo://app?vid=a9b3236d-7277-490f-ac03-6038f514ca34","ios":"levelo://app?vid=a9b3236d-7277-490f-ac03-6038f514ca34"},"vehicle_type_id":"4","last_reported":1701731240,"current_range_meters":30400,"station_id":"ce4bhnp2rcd13ifvqh0g","pricing_plan_id":"free"},{"bike_id":"0cc1cfcb-ff95-4084-a7e8-6cb32269c199","system_id":"levelo_inurba_marseille","lat":43.279465,"lon":5.410561,"is_reserved":false,"is_disabled":false,"rental_uris":{"android":"levelo://app?vid=0cc1cfcb-ff95-4084-a7e8-6cb32269c199","ios":"levelo://app?vid=0cc1cfcb-ff95-4084-a7e8-6cb32269c199"},"vehicle_type_id":"4","last_reported":1701731240,"current_range_meters":28400,"station_id":"ce4bhnp2rcd13ifvqh0g","pricing_plan_id":"free"},{"bike_id":"cef6297d-6212-4387-90e7-cdfdddd287f3","system_id":"levelo_inurba_marseille","lat":43.281044,"lon":5.378308,"is_reserved":false,"is_disabled":false,"rental_uris":{"android":"levelo://app?vid=cef6297d-6212-4387-90e7-cdfdddd287f3","ios":"levelo://app?vid=cef6297d-6212-4387-90e7-cdfdddd287f3"},"vehicle_type_id":"4","last_reported":1701731240,"current_range_meters":9600,"station_id":"ce4bha12rcd13ifvqee0","pricing_plan_id":"free"},{"bike_id":"31f00b17-e68e-4f49-9a91-6fdcbfec2e26","system_id":"levelo_inurba_marseille","lat":43.265714,"lon":5.372891,"is_reserved":false,"is_disabled":false,"rental_uris":{"android":"levelo://app?vid=31f00b17-e68e-4f49-9a91-6fdcbfec2e26","ios":"levelo://app?vid=31f00b17-e68e-4f49-9a91-6fdcbfec2e26"},"vehicle_type_id":"4","last_reported":1701731240,"current_range_meters":23600,"station_id":"ce4bhg12rcd13ifvqf70","pricing_plan_id":"free"},{"bike_id":"492877f8-6ffd-4a1f-8092-39c6171a829a","system_id":"levelo_inurba_marseille","lat":43.26681,"lon":5.382694,"is_reserved":false,"is_disabled":false,"rental_uris":{"android":"levelo://app?vid=492877f8-6ffd-4a1f-8092-39c6171a829a","ios":"levelo://app?vid=492877f8-6ffd-4a1f-8092-39c6171a829a"},"vehicle_type_id":"4","last_reported":1701731240,"current_range_meters":11600,"station_id":"ce4bhg92rcd13ifvqf90","pricing_plan_id":"free"},{"bike_id":"35927572-ca20-47f0-b637-ccbc8542361a","system_id":"levelo_inurba_marseille","lat":43.27996,"lon":5.416624,"is_reserved":false,"is_disabled":false,"rental_uris":{"android":"levelo://app?vid=35927572-ca20-47f0-b637-ccbc8542361a","ios":"levelo://app?vid=35927572-ca20-47f0-b637-ccbc8542361a"},"vehicle_type_id":"4","last_reported":1701731240,"current_range_meters":24400,"station_id":"ce4bho12rcd13ifvqh1g","pricing_plan_id":"free"},{"bike_id":"e96163bb-9d57-4e99-bb5e-bca5afccddbb","system_id":"levelo_inurba_marseille","lat":43.27996,"lon":5.416624,"is_reserved":false,"is_disabled":false,"rental_uris":{"android":"levelo://app?vid=e96163bb-9d57-4e99-bb5e-bca5afccddbb","ios":"levelo://app?vid=e96163bb-9d57-4e99-bb5e-bca5afccddbb"},"vehicle_type_id":"4","last_reported":1701731240,"current_range_meters":30800,"station_id":"ce4bho12rcd13ifvqh1g","pricing_plan_id":"free"},{"bike_id":"c603ebe0-7bba-4739-9538-1f0044e728ca","system_id":"levelo_inurba_marseille","lat":43.31712,"lon":5.43709,"is_reserved":false,"is_disabled":false,"rental_uris":{"android":"levelo://app?vid=c603ebe0-7bba-4739-9538-1f0044e728ca","ios":"levelo://app?vid=c603ebe0-7bba-4739-9538-1f0044e728ca"},"vehicle_type_id":"4","last_reported":1701731240,"current_range_meters":26400,"station_id":"ce4bhp92rcd13ifvqhcg","pricing_plan_id":"free"},{"bike_id":"a959e5e9-fa4a-46b4-861f-df429abd67e0","system_id":"levelo_inurba_marseille","lat":43.271886,"lon":5.409866,"is_reserved":false,"is_disabled":false,"rental_uris":{"android":"levelo://app?vid=a959e5e9-fa4a-46b4-861f-df429abd67e0","ios":"levelo://app?vid=a959e5e9-fa4a-46b4-861f-df429abd67e0"},"vehicle_type_id":"4","last_reported":1701731240,"current_range_meters":23600,"station_id":"ce4bhl12rcd13ifvqgf0","pricing_plan_id":"free"},{"bike_id":"1074b912-6888-48a3-a725-7daee73d6728","system_id":"levelo_inurba_marseille","lat":43.27186,"lon":5.40993,"is_reserved":false,"is_disabled":false,"rental_uris":{"android":"levelo://app?vid=1074b912-6888-48a3-a725-7daee73d6728","ios":"levelo://app?vid=1074b912-6888-48a3-a725-7daee73d6728"},"vehicle_type_id":"4","last_reported":1701731240,"current_range_meters":18800,"station_id":"ce4bhl12rcd13ifvqgf0","pricing_plan_id":"free"},{"bike_id":"9bb2ab38-b524-43ce-80c2-4441064383e4","system_id":"levelo_inurba_marseille","lat":43.27182,"lon":5.4099,"is_reserved":false,"is_disabled":false,"rental_uris":{"android":"levelo://app?vid=9bb2ab38-b524-43ce-80c2-4441064383e4","ios":"levelo://app?vid=9bb2ab38-b524-43ce-80c2-4441064383e4"},"vehicle_type_id":"4","last_reported":1701731240,"current_range_meters":28800,"station_id":"ce4bhl12rcd13ifvqgf0","pricing_plan_id":"free"},{"bike_id":"fcbf68a3-9d20-4dff-b8bb-63107e6308aa","system_id":"levelo_inurba_marseille","lat":43.271368,"lon":5.40928,"is_reserved":false,"is_disabled":false,"rental_uris":{"android":"levelo://app?vid=fcbf68a3-9d20-4dff-b8bb-63107e6308aa","ios":"levelo://app?vid=fcbf68a3-9d20-4dff-b8bb-63107e6308aa"},"vehicle_type_id":"4","last_reported":1701731240,"current_range_meters":12400,"station_id":"ce4bhl12rcd13ifvqgf0","pricing_plan_id":"free"},{"bike_id":"cb6b1f8a-ba93-46a0-9d9a-9b060df04760","system_id":"levelo_inurba_marseille","lat":43.267959,"lon":5.402687,"is_reserved":false,"is_disabled":false,"rental_uris":{"android":"levelo://app?vid=cb6b1f8a-ba93-46a0-9d9a-9b060df04760","ios":"levelo://app?vid=cb6b1f8a-ba93-46a0-9d9a-9b060df04760"},"vehicle_type_id":"4","last_reported":1701731240,"current_range_meters":22800,"station_id":"ce501612rcd8frsf0b60","pricing_plan_id":"free"},{"bike_id":"21696287-8bc6-493f-a856-ae98911f37d3","system_id":"levelo_inurba_marseille","lat":43.298768,"lon":5.43643,"is_reserved":false,"is_disabled":false,"rental_uris":{"android":"levelo://app?vid=21696287-8bc6-493f-a856-ae98911f37d3","ios":"levelo://app?vid=21696287-8bc6-493f-a856-ae98911f37d3"},"vehicle_type_id":"4","last_reported":1701731240,"current_range_meters":26800,"station_id":"ce4bhpp2rcd13ifvqhfg","pricing_plan_id":"free"},{"bike_id":"ba91dcd1-74e7-4d77-91b8-a3885e5c779b","system_id":"levelo_inurba_marseille","lat":43.25585,"lon":5.3823,"is_reserved":false,"is_disabled":false,"rental_uris":{"android":"levelo://app?vid=ba91dcd1-74e7-4d77-91b8-a3885e5c779b","ios":"levelo://app?vid=ba91dcd1-74e7-4d77-91b8-a3885e5c779b"},"vehicle_type_id":"4","last_reported":1701731240,"current_range_meters":6800,"station_id":"ce4bhih2rcd13ifvqfs0","pricing_plan_id":"free"},{"bike_id":"e409ff7b-8b03-4de9-973b-ec771941efb4","system_id":"levelo_inurba_marseille","lat":43.25583,"lon":5.38223,"is_reserved":false,"is_disabled":false,"rental_uris":{"android":"levelo://app?vid=e409ff7b-8b03-4de9-973b-ec771941efb4","ios":"levelo://app?vid=e409ff7b-8b03-4de9-973b-ec771941efb4"},"vehicle_type_id":"4","last_reported":1701731240,"current_range_meters":18800,"station_id":"ce4bhih2rcd13ifvqfs0","pricing_plan_id":"free"},{"bike_id":"ba8e43cb-bd74-4f1e-b5f4-009c3504132d","system_id":"levelo_inurba_marseille","lat":43.258224,"lon":5.394369,"is_reserved":false,"is_disabled":false,"rental_uris":{"android":"levelo://app?vid=ba8e43cb-bd74-4f1e-b5f4-009c3504132d","ios":"levelo://app?vid=ba8e43cb-bd74-4f1e-b5f4-009c3504132d"},"vehicle_type_id":"4","last_reported":1701731240,"current_range_meters":23600,"station_id":"ce4bhip2rcd13ifvqft0","pricing_plan_id":"free"},{"bike_id":"ec813f21-9667-47e7-bba4-7fc295aac3f7","system_id":"levelo_inurba_marseille","lat":43.270721,"lon":5.422764,"is_reserved":false,"is_disabled":false,"rental_uris":{"android":"levelo://app?vid=ec813f21-9667-47e7-bba4-7fc295aac3f7","ios":"levelo://app?vid=ec813f21-9667-47e7-bba4-7fc295aac3f7"},"vehicle_type_id":"4","last_reported":1701731240,"current_range_meters":26800,"station_id":"ce4bhk92rcd13ifvqgb0","pricing_plan_id":"free"},{"bike_id":"b5302ae3-478a-4b1b-9641-4a725a9f0de3","system_id":"levelo_inurba_marseille","lat":43.270721,"lon":5.422764,"is_reserved":false,"is_disabled":false,"rental_uris":{"android":"levelo://app?vid=b5302ae3-478a-4b1b-9641-4a725a9f0de3","ios":"levelo://app?vid=b5302ae3-478a-4b1b-9641-4a725a9f0de3"},"vehicle_type_id":"4","last_reported":1701731240,"current_range_meters":28800,"station_id":"ce4bhk92rcd13ifvqgb0","pricing_plan_id":"free"},{"bike_id":"f3f584f6-d1cf-42d5-930f-0d2ec3d902f5","system_id":"levelo_inurba_marseille","lat":43.27066,"lon":5.42276,"is_reserved":false,"is_disabled":false,"rental_uris":{"android":"levelo://app?vid=f3f584f6-d1cf-42d5-930f-0d2ec3d902f5","ios":"levelo://app?vid=f3f584f6-d1cf-42d5-930f-0d2ec3d902f5"},"vehicle_type_id":"4","last_reported":1701731240,"current_range_meters":26000,"station_id":"ce4bhk92rcd13ifvqgb0","pricing_plan_id":"free"},{"bike_id":"23e5ff1f-b20a-4b96-950d-fd6efb151d76","system_id":"levelo_inurba_marseille","lat":43.27072,"lon":5.42292,"is_reserved":false,"is_disabled":false,"rental_uris":{"android":"levelo://app?vid=23e5ff1f-b20a-4b96-950d-fd6efb151d76","ios":"levelo://app?vid=23e5ff1f-b20a-4b96-950d-fd6efb151d76"},"vehicle_type_id":"4","last_reported":1701731240,"current_range_meters":17200,"station_id":"ce4bhk92rcd13ifvqgb0","pricing_plan_id":"free"},{"bike_id":"d042c477-043a-4299-969a-9242c77c5144","system_id":"levelo_inurba_marseille","lat":43.258658,"lon":5.398935,"is_reserved":false,"is_disabled":false,"rental_uris":{"android":"levelo://app?vid=d042c477-043a-4299-969a-9242c77c5144","ios":"levelo://app?vid=d042c477-043a-4299-969a-9242c77c5144"},"vehicle_type_id":"4","last_reported":1701731240,"current_range_meters":27200,"station_id":"ce4bhl92rcd13ifvqghg","pricing_plan_id":"free"},{"bike_id":"01034a8f-e737-4887-80f7-ed7c6fbdb149","system_id":"levelo_inurba_marseille","lat":43.250009,"lon":5.389195,"is_reserved":false,"is_disabled":false,"rental_uris":{"android":"levelo://app?vid=01034a8f-e737-4887-80f7-ed7c6fbdb149","ios":"levelo://app?vid=01034a8f-e737-4887-80f7-ed7c6fbdb149"},"vehicle_type_id":"4","last_reported":1701731240,"current_range_meters":27200,"station_id":"ce4bhgp2rcd13ifvqfd0","pricing_plan_id":"free"},{"bike_id":"fbf4d356-d4bd-493c-9171-b23e8af8b26d","system_id":"levelo_inurba_marseille","lat":43.250009,"lon":5.389195,"is_reserved":false,"is_disabled":false,"rental_uris":{"android":"levelo://app?vid=fbf4d356-d4bd-493c-9171-b23e8af8b26d","ios":"levelo://app?vid=fbf4d356-d4bd-493c-9171-b23e8af8b26d"},"vehicle_type_id":"4","last_reported":1701731240,"current_range_meters":30400,"station_id":"ce4bhgp2rcd13ifvqfd0","pricing_plan_id":"free"},{"bike_id":"1b2dd76b-d6c3-4fed-bfd4-7a2588b5a36b","system_id":"levelo_inurba_marseille","lat":43.2479,"lon":5.374457,"is_reserved":false,"is_disabled":false,"rental_uris":{"android":"levelo://app?vid=1b2dd76b-d6c3-4fed-bfd4-7a2588b5a36b","ios":"levelo://app?vid=1b2dd76b-d6c3-4fed-bfd4-7a2588b5a36b"},"vehicle_type_id":"4","last_reported":1701731240,"current_range_meters":10000,"station_id":"ce4bhgh2rcd13ifvqfb0","pricing_plan_id":"free"},{"bike_id":"6ff27904-26f7-486f-85f0-d884e301bd66","system_id":"levelo_inurba_marseille","lat":43.2479,"lon":5.374457,"is_reserved":false,"is_disabled":false,"rental_uris":{"android":"levelo://app?vid=6ff27904-26f7-486f-85f0-d884e301bd66","ios":"levelo://app?vid=6ff27904-26f7-486f-85f0-d884e301bd66"},"vehicle_type_id":"4","last_reported":1701731240,"current_range_meters":22400,"station_id":"ce4bhgh2rcd13ifvqfb0","pricing_plan_id":"free"},{"bike_id":"f154b583-1c21-4cfd-aba1-b8255a388802","system_id":"levelo_inurba_marseille","lat":43.2479,"lon":5.374457,"is_reserved":false,"is_disabled":false,"rental_uris":{"android":"levelo://app?vid=f154b583-1c21-4cfd-aba1-b8255a388802","ios":"levelo://app?vid=f154b583-1c21-4cfd-aba1-b8255a388802"},"vehicle_type_id":"4","last_reported":1701731240,"current_range_meters":21600,"station_id":"ce4bhgh2rcd13ifvqfb0","pricing_plan_id":"free"},{"bike_id":"a1f07619-1579-4fdb-9037-c01741dff529","system_id":"levelo_inurba_marseille","lat":43.250904,"lon":5.395136,"is_reserved":false,"is_disabled":false,"rental_uris":{"android":"levelo://app?vid=a1f07619-1579-4fdb-9037-c01741dff529","ios":"levelo://app?vid=a1f07619-1579-4fdb-9037-c01741dff529"},"vehicle_type_id":"4","last_reported":1701731240,"current_range_meters":0,"station_id":"ce4bhm12rcd13ifvqgkg","pricing_plan_id":"free"},{"bike_id":"11cd32e7-517b-49d8-95fd-bdc2fe3ba685","system_id":"levelo_inurba_marseille","lat":43.250808,"lon":5.395158,"is_reserved":false,"is_disabled":false,"rental_uris":{"android":"levelo://app?vid=11cd32e7-517b-49d8-95fd-bdc2fe3ba685","ios":"levelo://app?vid=11cd32e7-517b-49d8-95fd-bdc2fe3ba685"},"vehicle_type_id":"4","last_reported":1701731240,"current_range_meters":17600,"station_id":"ce4bhm12rcd13ifvqgkg","pricing_plan_id":"free"},{"bike_id":"20c85448-d10f-403e-86be-a89151db2b3c","system_id":"levelo_inurba_marseille","lat":43.24693,"lon":5.382096,"is_reserved":false,"is_disabled":false,"rental_uris":{"android":"levelo://app?vid=20c85448-d10f-403e-86be-a89151db2b3c","ios":"levelo://app?vid=20c85448-d10f-403e-86be-a89151db2b3c"},"vehicle_type_id":"4","last_reported":1701731240,"current_range_meters":30000,"station_id":"ce4bhih2rcd13ifvqfr0","pricing_plan_id":"free"},{"bike_id":"573ba776-2bb8-4ff6-9549-4ede0468314d","system_id":"levelo_inurba_marseille","lat":43.24671,"lon":5.38164,"is_reserved":false,"is_disabled":false,"rental_uris":{"android":"levelo://app?vid=573ba776-2bb8-4ff6-9549-4ede0468314d","ios":"levelo://app?vid=573ba776-2bb8-4ff6-9549-4ede0468314d"},"vehicle_type_id":"4","last_reported":1701731240,"current_range_meters":30000,"station_id":"ce4bhih2rcd13ifvqfr0","pricing_plan_id":"free"},{"bike_id":"8158b743-249f-419b-9e46-838d7d53ba77","system_id":"levelo_inurba_marseille","lat":43.24693,"lon":5.382096,"is_reserved":false,"is_disabled":false,"rental_uris":{"android":"levelo://app?vid=8158b743-249f-419b-9e46-838d7d53ba77","ios":"levelo://app?vid=8158b743-249f-419b-9e46-838d7d53ba77"},"vehicle_type_id":"4","last_reported":1701731240,"current_range_meters":28000,"station_id":"ce4bhih2rcd13ifvqfr0","pricing_plan_id":"free"},{"bike_id":"fc925304-b6cf-4279-8293-371e4ab3436d","system_id":"levelo_inurba_marseille","lat":43.25102,"lon":5.403214,"is_reserved":false,"is_disabled":false,"rental_uris":{"android":"levelo://app?vid=fc925304-b6cf-4279-8293-371e4ab3436d","ios":"levelo://app?vid=fc925304-b6cf-4279-8293-371e4ab3436d"},"vehicle_type_id":"4","last_reported":1701731240,"current_range_meters":31600,"station_id":"ce4bhlh2rcd13ifvqgig","pricing_plan_id":"free"},{"bike_id":"a08ecca1-ef8c-45bc-8d30-601c087c218d","system_id":"levelo_inurba_marseille","lat":43.25102,"lon":5.403214,"is_reserved":false,"is_disabled":false,"rental_uris":{"android":"levelo://app?vid=a08ecca1-ef8c-45bc-8d30-601c087c218d","ios":"levelo://app?vid=a08ecca1-ef8c-45bc-8d30-601c087c218d"},"vehicle_type_id":"4","last_reported":1701731240,"current_range_meters":1200,"station_id":"ce4bhlh2rcd13ifvqgig","pricing_plan_id":"free"},{"bike_id":"6b0a7c82-1089-4eee-817c-ffe8ce2df2dc","system_id":"levelo_inurba_marseille","lat":43.25109,"lon":5.40326,"is_reserved":false,"is_disabled":false,"rental_uris":{"android":"levelo://app?vid=6b0a7c82-1089-4eee-817c-ffe8ce2df2dc","ios":"levelo://app?vid=6b0a7c82-1089-4eee-817c-ffe8ce2df2dc"},"vehicle_type_id":"4","last_reported":1701731240,"current_range_meters":0,"station_id":"ce4bhlh2rcd13ifvqgig","pricing_plan_id":"free"},{"bike_id":"fab15115-d972-4f82-9867-bc84399b6055","system_id":"levelo_inurba_marseille","lat":43.25102,"lon":5.403214,"is_reserved":false,"is_disabled":false,"rental_uris":{"android":"levelo://app?vid=fab15115-d972-4f82-9867-bc84399b6055","ios":"levelo://app?vid=fab15115-d972-4f82-9867-bc84399b6055"},"vehicle_type_id":"4","last_reported":1701731240,"current_range_meters":16400,"station_id":"ce4bhlh2rcd13ifvqgig","pricing_plan_id":"free"},{"bike_id":"3606662b-c95b-47e0-b40c-2840c6331fb6","system_id":"levelo_inurba_marseille","lat":43.25102,"lon":5.403214,"is_reserved":false,"is_disabled":false,"rental_uris":{"android":"levelo://app?vid=3606662b-c95b-47e0-b40c-2840c6331fb6","ios":"levelo://app?vid=3606662b-c95b-47e0-b40c-2840c6331fb6"},"vehicle_type_id":"4","last_reported":1701731240,"current_range_meters":3600,"station_id":"ce4bhlh2rcd13ifvqgig","pricing_plan_id":"free"},{"bike_id":"075c5af7-8a66-44a0-ae30-a6b648947e96","system_id":"levelo_inurba_marseille","lat":43.246461,"lon":5.389014,"is_reserved":false,"is_disabled":false,"rental_uris":{"android":"levelo://app?vid=075c5af7-8a66-44a0-ae30-a6b648947e96","ios":"levelo://app?vid=075c5af7-8a66-44a0-ae30-a6b648947e96"},"vehicle_type_id":"4","last_reported":1701731240,"current_range_meters":30800,"station_id":"ce4bhg12rcd13ifvqf60","pricing_plan_id":"free"},{"bike_id":"c712a2b9-b1c7-48ca-a7b7-72d23ebbe56f","system_id":"levelo_inurba_marseille","lat":43.246461,"lon":5.389014,"is_reserved":false,"is_disabled":false,"rental_uris":{"android":"levelo://app?vid=c712a2b9-b1c7-48ca-a7b7-72d23ebbe56f","ios":"levelo://app?vid=c712a2b9-b1c7-48ca-a7b7-72d23ebbe56f"},"vehicle_type_id":"4","last_reported":1701731240,"current_range_meters":30800,"station_id":"ce4bhg12rcd13ifvqf60","pricing_plan_id":"free"},{"bike_id":"a1c0e568-b494-4bf3-ae03-9682d2653665","system_id":"levelo_inurba_marseille","lat":43.246461,"lon":5.389014,"is_reserved":false,"is_disabled":false,"rental_uris":{"android":"levelo://app?vid=a1c0e568-b494-4bf3-ae03-9682d2653665","ios":"levelo://app?vid=a1c0e568-b494-4bf3-ae03-9682d2653665"},"vehicle_type_id":"4","last_reported":1701731240,"current_range_meters":13200,"station_id":"ce4bhg12rcd13ifvqf60","pricing_plan_id":"free"},{"bike_id":"7ec16487-cc72-4870-a286-56d3e3b45a04","system_id":"levelo_inurba_marseille","lat":43.245581,"lon":5.395069,"is_reserved":false,"is_disabled":false,"rental_uris":{"android":"levelo://app?vid=7ec16487-cc72-4870-a286-56d3e3b45a04","ios":"levelo://app?vid=7ec16487-cc72-4870-a286-56d3e3b45a04"},"vehicle_type_id":"4","last_reported":1701731240,"current_range_meters":23200,"station_id":"ce4bhlp2rcd13ifvqgjg","pricing_plan_id":"free"},{"bike_id":"8af28d66-daba-47c3-af30-7e896a5300de","system_id":"levelo_inurba_marseille","lat":43.245581,"lon":5.395069,"is_reserved":false,"is_disabled":false,"rental_uris":{"android":"levelo://app?vid=8af28d66-daba-47c3-af30-7e896a5300de","ios":"levelo://app?vid=8af28d66-daba-47c3-af30-7e896a5300de"},"vehicle_type_id":"4","last_reported":1701731240,"current_range_meters":29600,"station_id":"ce4bhlp2rcd13ifvqgjg","pricing_plan_id":"free"},{"bike_id":"ee8de862-9d88-45bb-b1d6-aff082bc930d","system_id":"levelo_inurba_marseille","lat":43.24074,"lon":5.37754,"is_reserved":false,"is_disabled":false,"rental_uris":{"android":"levelo://app?vid=ee8de862-9d88-45bb-b1d6-aff082bc930d","ios":"levelo://app?vid=ee8de862-9d88-45bb-b1d6-aff082bc930d"},"vehicle_type_id":"4","last_reported":1701731240,"current_range_meters":9600,"station_id":"ce4bhnp2rcd13ifvqgvg","pricing_plan_id":"free"},{"bike_id":"af051b45-0d26-4307-9a54-968ef6a25caa","system_id":"levelo_inurba_marseille","lat":43.24069,"lon":5.37762,"is_reserved":false,"is_disabled":false,"rental_uris":{"android":"levelo://app?vid=af051b45-0d26-4307-9a54-968ef6a25caa","ios":"levelo://app?vid=af051b45-0d26-4307-9a54-968ef6a25caa"},"vehicle_type_id":"4","last_reported":1701731240,"current_range_meters":14400,"station_id":"ce4bhnp2rcd13ifvqgvg","pricing_plan_id":"free"},{"bike_id":"7ffa733d-3283-44cf-bc6c-8873f0729d27","system_id":"levelo_inurba_marseille","lat":43.240623,"lon":5.377642,"is_reserved":false,"is_disabled":false,"rental_uris":{"android":"levelo://app?vid=7ffa733d-3283-44cf-bc6c-8873f0729d27","ios":"levelo://app?vid=7ffa733d-3283-44cf-bc6c-8873f0729d27"},"vehicle_type_id":"4","last_reported":1701731240,"current_range_meters":31200,"station_id":"ce4bhnp2rcd13ifvqgvg","pricing_plan_id":"free"},{"bike_id":"2b04708e-eed8-4471-916a-9fdeea01eec7","system_id":"levelo_inurba_marseille","lat":43.231923,"lon":5.355545,"is_reserved":false,"is_disabled":false,"rental_uris":{"android":"levelo://app?vid=2b04708e-eed8-4471-916a-9fdeea01eec7","ios":"levelo://app?vid=2b04708e-eed8-4471-916a-9fdeea01eec7"},"vehicle_type_id":"4","last_reported":1701731240,"current_range_meters":26400,"station_id":"ce4bhu92rcd13ifvqi70","pricing_plan_id":"free"},{"bike_id":"8756435f-ebd3-4df3-89fa-6a5a1e380d37","system_id":"levelo_inurba_marseille","lat":43.231919,"lon":5.355532,"is_reserved":false,"is_disabled":false,"rental_uris":{"android":"levelo://app?vid=8756435f-ebd3-4df3-89fa-6a5a1e380d37","ios":"levelo://app?vid=8756435f-ebd3-4df3-89fa-6a5a1e380d37"},"vehicle_type_id":"4","last_reported":1701731240,"current_range_meters":31200,"station_id":"ce4bhu92rcd13ifvqi70","pricing_plan_id":"free"},{"bike_id":"9e01ee59-41e6-425c-ae1f-3e33312fefcd","system_id":"levelo_inurba_marseille","lat":43.231923,"lon":5.355545,"is_reserved":false,"is_disabled":false,"rental_uris":{"android":"levelo://app?vid=9e01ee59-41e6-425c-ae1f-3e33312fefcd","ios":"levelo://app?vid=9e01ee59-41e6-425c-ae1f-3e33312fefcd"},"vehicle_type_id":"4","last_reported":1701731240,"current_range_meters":10000,"station_id":"ce4bhu92rcd13ifvqi70","pricing_plan_id":"free"},{"bike_id":"cf3102c4-88e0-4a41-86b7-69a76932d3e6","system_id":"levelo_inurba_marseille","lat":43.231923,"lon":5.355545,"is_reserved":false,"is_disabled":false,"rental_uris":{"android":"levelo://app?vid=cf3102c4-88e0-4a41-86b7-69a76932d3e6","ios":"levelo://app?vid=cf3102c4-88e0-4a41-86b7-69a76932d3e6"},"vehicle_type_id":"4","last_reported":1701731240,"current_range_meters":31200,"station_id":"ce4bhu92rcd13ifvqi70","pricing_plan_id":"free"},{"bike_id":"6041d620-664b-4836-b597-a0e62593a032","system_id":"levelo_inurba_marseille","lat":43.231923,"lon":5.355545,"is_reserved":false,"is_disabled":false,"rental_uris":{"android":"levelo://app?vid=6041d620-664b-4836-b597-a0e62593a032","ios":"levelo://app?vid=6041d620-664b-4836-b597-a0e62593a032"},"vehicle_type_id":"4","last_reported":1701731240,"current_range_meters":22800,"station_id":"ce4bhu92rcd13ifvqi70","pricing_plan_id":"free"},{"bike_id":"6bd9f065-50d9-4657-9ca0-a006f413d305","system_id":"levelo_inurba_marseille","lat":43.231794,"lon":5.400052,"is_reserved":false,"is_disabled":false,"rental_uris":{"android":"levelo://app?vid=6bd9f065-50d9-4657-9ca0-a006f413d305","ios":"levelo://app?vid=6bd9f065-50d9-4657-9ca0-a006f413d305"},"vehicle_type_id":"4","last_reported":1701731240,"current_range_meters":31200,"station_id":"ce4bhn12rcd13ifvqgqg","pricing_plan_id":"free"},{"bike_id":"554e18bc-f6bd-448a-9d3a-a49810d0b6de","system_id":"levelo_inurba_marseille","lat":43.231895,"lon":5.399832,"is_reserved":false,"is_disabled":false,"rental_uris":{"android":"levelo://app?vid=554e18bc-f6bd-448a-9d3a-a49810d0b6de","ios":"levelo://app?vid=554e18bc-f6bd-448a-9d3a-a49810d0b6de"},"vehicle_type_id":"4","last_reported":1701731240,"current_range_meters":12400,"station_id":"ce4bhn12rcd13ifvqgqg","pricing_plan_id":"free"},{"bike_id":"88cf855f-bb31-40e0-8afc-686df3c193ab","system_id":"levelo_inurba_marseille","lat":43.231794,"lon":5.400052,"is_reserved":false,"is_disabled":false,"rental_uris":{"android":"levelo://app?vid=88cf855f-bb31-40e0-8afc-686df3c193ab","ios":"levelo://app?vid=88cf855f-bb31-40e0-8afc-686df3c193ab"},"vehicle_type_id":"4","last_reported":1701731240,"current_range_meters":28800,"station_id":"ce4bhn12rcd13ifvqgqg","pricing_plan_id":"free"},{"bike_id":"d6f1b06d-6100-4b51-8fdd-b5dbe00f7ca7","system_id":"levelo_inurba_marseille","lat":43.23187,"lon":5.39975,"is_reserved":false,"is_disabled":false,"rental_uris":{"android":"levelo://app?vid=d6f1b06d-6100-4b51-8fdd-b5dbe00f7ca7","ios":"levelo://app?vid=d6f1b06d-6100-4b51-8fdd-b5dbe00f7ca7"},"vehicle_type_id":"4","last_reported":1701731240,"current_range_meters":11200,"station_id":"ce4bhn12rcd13ifvqgqg","pricing_plan_id":"free"},{"bike_id":"e47e98e0-4256-4c41-ae86-e531a41b9213","system_id":"levelo_inurba_marseille","lat":43.231794,"lon":5.400052,"is_reserved":false,"is_disabled":false,"rental_uris":{"android":"levelo://app?vid=e47e98e0-4256-4c41-ae86-e531a41b9213","ios":"levelo://app?vid=e47e98e0-4256-4c41-ae86-e531a41b9213"},"vehicle_type_id":"4","last_reported":1701731240,"current_range_meters":31200,"station_id":"ce4bhn12rcd13ifvqgqg","pricing_plan_id":"free"},{"bike_id":"c649eff1-b727-4a3a-ae80-4002093c2a17","system_id":"levelo_inurba_marseille","lat":43.23189,"lon":5.39987,"is_reserved":false,"is_disabled":false,"rental_uris":{"android":"levelo://app?vid=c649eff1-b727-4a3a-ae80-4002093c2a17","ios":"levelo://app?vid=c649eff1-b727-4a3a-ae80-4002093c2a17"},"vehicle_type_id":"4","last_reported":1701731240,"current_range_meters":23600,"station_id":"ce4bhn12rcd13ifvqgqg","pricing_plan_id":"free"},{"bike_id":"ab5eae98-96ca-4718-91b7-353de917f40d","system_id":"levelo_inurba_marseille","lat":43.23187,"lon":5.39979,"is_reserved":false,"is_disabled":false,"rental_uris":{"android":"levelo://app?vid=ab5eae98-96ca-4718-91b7-353de917f40d","ios":"levelo://app?vid=ab5eae98-96ca-4718-91b7-353de917f40d"},"vehicle_type_id":"4","last_reported":1701731240,"current_range_meters":31200,"station_id":"ce4bhn12rcd13ifvqgqg","pricing_plan_id":"free"},{"bike_id":"5d9be6d5-2985-432d-ac4f-8e0798b2a0ac","system_id":"levelo_inurba_marseille","lat":43.231876,"lon":5.399841,"is_reserved":false,"is_disabled":false,"rental_uris":{"android":"levelo://app?vid=5d9be6d5-2985-432d-ac4f-8e0798b2a0ac","ios":"levelo://app?vid=5d9be6d5-2985-432d-ac4f-8e0798b2a0ac"},