{"last_updated":1760857689,"ttl":60,"version":"2.2","data":{"bikes":[{"bike_id":"ad817210-8c8f-48f7-98c7-dd3be03d9809","system_id":"levelo_inurba_marseille","lat":43.28268,"lon":5.35083,"is_reserved":false,"is_disabled":false,"rental_uris":{"android":"levelo://app?vid=ad817210-8c8f-48f7-98c7-dd3be03d9809","ios":"levelo://app?vid=ad817210-8c8f-48f7-98c7-dd3be03d9809"},"vehicle_type_id":"4","last_reported":1760857689,"current_range_meters":2800,"station_id":"ce4bhbp2rcd13ifvqerg","pricing_plan_id":"cebpf4jnsgd1na2vs0mg"},{"bike_id":"24d82d64-1145-442f-a9f5-19238b0b39ef","system_id":"levelo_inurba_marseille","lat":43.272133,"lon":5.391866,"is_reserved":false,"is_disabled":false,"rental_uris":{"android":"levelo://app?vid=24d82d64-1145-442f-a9f5-19238b0b39ef","ios":"levelo://app?vid=24d82d64-1145-442f-a9f5-19238b0b39ef"},"vehicle_type_id":"4","last_reported":1760857689,"current_range_meters":2800,"station_id":"","pricing_plan_id":"cebpf4jnsgd1na2vs0mg"},{"bike_id":"c1d3ef20-8f0a-4e4a-97fa-b06f3b92c8a4","system_id":"levelo_inurba_marseille","lat":43.30774,"lon":5.3765,"is_reserved":false,"is_disabled":false,"rental_uris":{"android":"levelo://app?vid=c1d3ef20-8f0a-4e4a-97fa-b06f3b92c8a4","ios":"levelo://app?vid=c1d3ef20-8f0a-4e4a-97fa-b06f3b92c8a4"},"vehicle_type_id":"4","last_reported":1760857689,"current_range_meters":2800,"station_id":"ce4bgv92rcd13ifvqcq0","pricing_plan_id":"cebpf4jnsgd1na2vs0mg"},{"bike_id":"5cf58e81-7552-4ebd-a932-79bba6f62907","system_id":"levelo_inurba_marseille","lat":43.29008,"lon":5.38639,"is_reserved":false,"is_disabled":true,"rental_uris":{"android":"levelo://app?vid=5cf58e81-7552-4ebd-a932-79bba6f62907","ios":"levelo://app?vid=5cf58e81-7552-4ebd-a932-79bba6f62907"},"vehicle_type_id":"4","last_reported":1760857689,"current_range_meters":3200,"station_id":"ce4bh4p2rcd13ifvqe0g","pricing_plan_id":"cebpf4jnsgd1na2vs0mg"},{"bike_id":"342a28cb-1d40-4958-84bb-a581187aaef7","system_id":"levelo_inurba_marseille","lat":43.28405,"lon":5.37525,"is_reserved":false,"is_disabled":false,"rental_uris":{"android":"levelo://app?vid=342a28cb-1d40-4958-84bb-a581187aaef7","ios":"levelo://app?vid=342a28cb-1d40-4958-84bb-a581187aaef7"},"vehicle_type_id":"4","last_reported":1760857689,"current_range_meters":3200,"station_id":"ce4bh412rcd13ifvqds0","pricing_plan_id":"cebpf4jnsgd1na2vs0mg"},{"bike_id":"b198fdae-a02e-4380-b40a-23fa0f5e4197","system_id":"levelo_inurba_marseille","lat":43.28649,"lon":5.40661,"is_reserved":false,"is_disabled":false,"rental_uris":{"android":"levelo://app?vid=b198fdae-a02e-4380-b40a-23fa0f5e4197","ios":"levelo://app?vid=b198fdae-a02e-4380-b40a-23fa0f5e4197"},"vehicle_type_id":"4","last_reported":1760857689,"current_range_meters":3200,"station_id":"","pricing_plan_id":"cebpf4jnsgd1na2vs0mg"},{"bike_id":"0c06f90b-a707-4a2f-bb30-f8a5b1661161","system_id":"levelo_inurba_marseille","lat":43.2902,"lon":5.38132,"is_reserved":false,"is_disabled":false,"rental_uris":{"android":"levelo://app?vid=0c06f90b-a707-4a2f-bb30-f8a5b1661161","ios":"levelo://app?vid=0c06f90b-a707-4a2f-bb30-f8a5b1661161"},"vehicle_type_id":"4","last_reported":1760857689,"current_range_meters":3600,"station_id":"ce4bh4p2rcd13ifvqe1g","pricing_plan_id":"cebpf4jnsgd1na2vs0mg"},{"bike_id":"1af2e540-b5db-47ea-af6b-5b140f67f618","system_id":"levelo_inurba_marseille","lat":43.28653,"lon":5.3999,"is_reserved":false,"is_disabled":false,"rental_uris":{"android":"levelo://app?vid=1af2e540-b5db-47ea-af6b-5b140f67f618","ios":"levelo://app?vid=1af2e540-b5db-47ea-af6b-5b140f67f618"},"vehicle_type_id":"4","last_reported":1760857689,"current_range_meters":3600,"station_id":"","pricing_plan_id":"cebpf4jnsgd1na2vs0mg"},{"bike_id":"416f580b-31c7-4ade-8604-dbd86eb8155f","system_id":"levelo_inurba_marseille","lat":43.28164,"lon":5.4213,"is_reserved":false,"is_disabled":false,"rental_uris":{"android":"levelo://app?vid=416f580b-31c7-4ade-8604-dbd86eb8155f","ios":"levelo://app?vid=416f580b-31c7-4ade-8604-dbd86eb8155f"},"vehicle_type_id":"4","last_reported":1760857689,"current_range_meters":3600,"station_id":"","pricing_plan_id":"cebpf4jnsgd1na2vs0mg"},{"bike_id":"8a2c9755-e84e-4c02-8bc9-8e7e9001fd4f","system_id":"levelo_inurba_marseille","lat":43.25939,"lon":5.40907,"is_reserved":false,"is_disabled":false,"rental_uris":{"android":"levelo://app?vid=8a2c9755-e84e-4c02-8bc9-8e7e9001fd4f","ios":"levelo://app?vid=8a2c9755-e84e-4c02-8bc9-8e7e9001fd4f"},"vehicle_type_id":"4","last_reported":1760857689,"current_range_meters":3600,"station_id":"ce4bhm92rcd13ifvqglg","pricing_plan_id":"cebpf4jnsgd1na2vs0mg"},{"bike_id":"f94de6ed-63e1-44bc-aca8-5551fc8ced20","system_id":"levelo_inurba_marseille","lat":43.29031,"lon":5.38645,"is_reserved":false,"is_disabled":false,"rental_uris":{"android":"levelo://app?vid=f94de6ed-63e1-44bc-aca8-5551fc8ced20","ios":"levelo://app?vid=f94de6ed-63e1-44bc-aca8-5551fc8ced20"},"vehicle_type_id":"4","last_reported":1760857689,"current_range_meters":4000,"station_id":"ce4bh4p2rcd13ifvqe0g","pricing_plan_id":"cebpf4jnsgd1na2vs0mg"},{"bike_id":"5fe6e873-dba1-40dd-bc65-77de126f2710","system_id":"levelo_inurba_marseille","lat":43.332893,"lon":5.395256,"is_reserved":false,"is_disabled":true,"rental_uris":{"android":"levelo://app?vid=5fe6e873-dba1-40dd-bc65-77de126f2710","ios":"levelo://app?vid=5fe6e873-dba1-40dd-bc65-77de126f2710"},"vehicle_type_id":"4","last_reported":1760857689,"current_range_meters":4000,"station_id":"","pricing_plan_id":"cebpf4jnsgd1na2vs0mg"},{"bike_id":"35c77582-7caa-4946-951c-4d37262a664c","system_id":"levelo_inurba_marseille","lat":43.26213,"lon":5.37443,"is_reserved":false,"is_disabled":false,"rental_uris":{"android":"levelo://app?vid=35c77582-7caa-4946-951c-4d37262a664c","ios":"levelo://app?vid=35c77582-7caa-4946-951c-4d37262a664c"},"vehicle_type_id":"4","last_reported":1760857689,"current_range_meters":4400,"station_id":"ce4bhgp2rcd13ifvqfc0","pricing_plan_id":"cebpf4jnsgd1na2vs0mg"},{"bike_id":"0e3f5e89-9580-401a-9d09-43978c636700","system_id":"levelo_inurba_marseille","lat":43.28702,"lon":5.39989,"is_reserved":false,"is_disabled":false,"rental_uris":{"android":"levelo://app?vid=0e3f5e89-9580-401a-9d09-43978c636700","ios":"levelo://app?vid=0e3f5e89-9580-401a-9d09-43978c636700"},"vehicle_type_id":"4","last_reported":1760857689,"current_range_meters":4400,"station_id":"ce4bho92rcd13ifvqh3g","pricing_plan_id":"cebpf4jnsgd1na2vs0mg"},{"bike_id":"efd2845a-691f-481f-9d89-1af96d644633","system_id":"levelo_inurba_marseille","lat":43.28935,"lon":5.39636,"is_reserved":false,"is_disabled":false,"rental_uris":{"android":"levelo://app?vid=efd2845a-691f-481f-9d89-1af96d644633","ios":"levelo://app?vid=efd2845a-691f-481f-9d89-1af96d644633"},"vehicle_type_id":"4","last_reported":1760857689,"current_range_meters":4400,"station_id":"ce4bh3h2rcd13ifvqdn0","pricing_plan_id":"cebpf4jnsgd1na2vs0mg"},{"bike_id":"a817b630-bbed-48d3-97f4-9bd571b9ebab","system_id":"levelo_inurba_marseille","lat":43.30004,"lon":5.3736,"is_reserved":false,"is_disabled":false,"rental_uris":{"android":"levelo://app?vid=a817b630-bbed-48d3-97f4-9bd571b9ebab","ios":"levelo://app?vid=a817b630-bbed-48d3-97f4-9bd571b9ebab"},"vehicle_type_id":"4","last_reported":1760857689,"current_range_meters":4800,"station_id":"","pricing_plan_id":"cebpf4jnsgd1na2vs0mg"},{"bike_id":"efbce1d0-71a2-4337-9d3c-c97340097a11","system_id":"levelo_inurba_marseille","lat":43.314932,"lon":5.372994,"is_reserved":false,"is_disabled":false,"rental_uris":{"android":"levelo://app?vid=efbce1d0-71a2-4337-9d3c-c97340097a11","ios":"levelo://app?vid=efbce1d0-71a2-4337-9d3c-c97340097a11"},"vehicle_type_id":"4","last_reported":1760857689,"current_range_meters":5600,"station_id":"ce4bgt12rcd13ifvqcd0","pricing_plan_id":"cebpf4jnsgd1na2vs0mg"},{"bike_id":"c2547837-57de-4771-bf6e-62b81607fd90","system_id":"levelo_inurba_marseille","lat":43.30078,"lon":5.39096,"is_reserved":false,"is_disabled":false,"rental_uris":{"android":"levelo://app?vid=c2547837-57de-4771-bf6e-62b81607fd90","ios":"levelo://app?vid=c2547837-57de-4771-bf6e-62b81607fd90"},"vehicle_type_id":"4","last_reported":1760857689,"current_range_meters":5600,"station_id":"ce4bh192rcd13ifvqdb0","pricing_plan_id":"cebpf4jnsgd1na2vs0mg"},{"bike_id":"1382b748-840e-4ecc-afc5-0fb4eeaeb841","system_id":"levelo_inurba_marseille","lat":43.30605,"lon":5.37491,"is_reserved":false,"is_disabled":false,"rental_uris":{"android":"levelo://app?vid=1382b748-840e-4ecc-afc5-0fb4eeaeb841","ios":"levelo://app?vid=1382b748-840e-4ecc-afc5-0fb4eeaeb841"},"vehicle_type_id":"4","last_reported":1760857689,"current_range_meters":6000,"station_id":"","pricing_plan_id":"cebpf4jnsgd1na2vs0mg"},{"bike_id":"23106cad-886f-404f-82e9-c2982189811d","system_id":"levelo_inurba_marseille","lat":43.27193,"lon":5.42791,"is_reserved":false,"is_disabled":false,"rental_uris":{"android":"levelo://app?vid=23106cad-886f-404f-82e9-c2982189811d","ios":"levelo://app?vid=23106cad-886f-404f-82e9-c2982189811d"},"vehicle_type_id":"4","last_reported":1760857689,"current_range_meters":6000,"station_id":"","pricing_plan_id":"cebpf4jnsgd1na2vs0mg"},{"bike_id":"620f19db-e929-4071-8a7a-fb5114fd2597","system_id":"levelo_inurba_marseille","lat":43.273248,"lon":5.390864,"is_reserved":false,"is_disabled":true,"rental_uris":{"android":"levelo://app?vid=620f19db-e929-4071-8a7a-fb5114fd2597","ios":"levelo://app?vid=620f19db-e929-4071-8a7a-fb5114fd2597"},"vehicle_type_id":"4","last_reported":1760857689,"current_range_meters":6000,"station_id":"ce4bhgp2rcd13ifvqfe0","pricing_plan_id":"cebpf4jnsgd1na2vs0mg"},{"bike_id":"d0057ba9-b233-440f-8490-e26f02f1a1dd","system_id":"levelo_inurba_marseille","lat":43.28658,"lon":5.36355,"is_reserved":false,"is_disabled":true,"rental_uris":{"android":"levelo://app?vid=d0057ba9-b233-440f-8490-e26f02f1a1dd","ios":"levelo://app?vid=d0057ba9-b233-440f-8490-e26f02f1a1dd"},"vehicle_type_id":"4","last_reported":1760857689,"current_range_meters":6400,"station_id":"ce4bhah2rcd13ifvqej0","pricing_plan_id":"cebpf4jnsgd1na2vs0mg"},{"bike_id":"3ce2b19a-e168-4209-83be-b37dcb6d9d80","system_id":"levelo_inurba_marseille","lat":43.292277,"lon":5.360736,"is_reserved":false,"is_disabled":false,"rental_uris":{"android":"levelo://app?vid=3ce2b19a-e168-4209-83be-b37dcb6d9d80","ios":"levelo://app?vid=3ce2b19a-e168-4209-83be-b37dcb6d9d80"},"vehicle_type_id":"4","last_reported":1760857689,"current_range_meters":6400,"station_id":"ce4bhbh2rcd13ifvqeqg","pricing_plan_id":"cebpf4jnsgd1na2vs0mg"},{"bike_id":"1fc80208-2780-48f1-8e80-04452c6f3563","system_id":"levelo_inurba_marseille","lat":43.247052,"lon":5.399625,"is_reserved":false,"is_disabled":false,"rental_uris":{"android":"levelo://app?vid=1fc80208-2780-48f1-8e80-04452c6f3563","ios":"levelo://app?vid=1fc80208-2780-48f1-8e80-04452c6f3563"},"vehicle_type_id":"4","last_reported":1760857689,"current_range_meters":6800,"station_id":"ce4bhlh2rcd13ifvqgig","pricing_plan_id":"cebpf4jnsgd1na2vs0mg"},{"bike_id":"924ac669-be8b-47aa-9a8e-6f22baf815eb","system_id":"levelo_inurba_marseille","lat":43.337692,"lon":5.374734,"is_reserved":false,"is_disabled":false,"rental_uris":{"android":"levelo://app?vid=924ac669-be8b-47aa-9a8e-6f22baf815eb","ios":"levelo://app?vid=924ac669-be8b-47aa-9a8e-6f22baf815eb"},"vehicle_type_id":"4","last_reported":1760857689,"current_range_meters":6800,"station_id":"","pricing_plan_id":"cebpf4jnsgd1na2vs0mg"},{"bike_id":"af277a69-2c40-4884-9e98-0003e5cba8ca","system_id":"levelo_inurba_marseille","lat":43.24416,"lon":5.37036,"is_reserved":false,"is_disabled":false,"rental_uris":{"android":"levelo://app?vid=af277a69-2c40-4884-9e98-0003e5cba8ca","ios":"levelo://app?vid=af277a69-2c40-4884-9e98-0003e5cba8ca"},"vehicle_type_id":"4","last_reported":1760857689,"current_range_meters":6800,"station_id":"ce4bhhh2rcd13ifvqfk0","pricing_plan_id":"cebpf4jnsgd1na2vs0mg"},{"bike_id":"f9de3a12-b52c-4312-b6ad-b94cbebbb5bd","system_id":"levelo_inurba_marseille","lat":43.28447,"lon":5.39212,"is_reserved":false,"is_disabled":false,"rental_uris":{"android":"levelo://app?vid=f9de3a12-b52c-4312-b6ad-b94cbebbb5bd","ios":"levelo://app?vid=f9de3a12-b52c-4312-b6ad-b94cbebbb5bd"},"vehicle_type_id":"4","last_reported":1760857689,"current_range_meters":6800,"station_id":"ce4bhoh2rcd13ifvqh5g","pricing_plan_id":"cebpf4jnsgd1na2vs0mg"},{"bike_id":"91b6b3bb-f752-409f-a59c-fda45187bd78","system_id":"levelo_inurba_marseille","lat":43.30747,"lon":5.42428,"is_reserved":false,"is_disabled":false,"rental_uris":{"android":"levelo://app?vid=91b6b3bb-f752-409f-a59c-fda45187bd78","ios":"levelo://app?vid=91b6b3bb-f752-409f-a59c-fda45187bd78"},"vehicle_type_id":"4","last_reported":1760857689,"current_range_meters":6800,"station_id":"st_cvj6ca6bvosntc0bfgr0","pricing_plan_id":"cebpf4jnsgd1na2vs0mg"},{"bike_id":"502db72a-a4a3-4583-8e11-cf349a0c7341","system_id":"levelo_inurba_marseille","lat":43.28354,"lon":5.38646,"is_reserved":false,"is_disabled":false,"rental_uris":{"android":"levelo://app?vid=502db72a-a4a3-4583-8e11-cf349a0c7341","ios":"levelo://app?vid=502db72a-a4a3-4583-8e11-cf349a0c7341"},"vehicle_type_id":"4","last_reported":1760857689,"current_range_meters":6800,"station_id":"ce4bh492rcd13ifvqdvg","pricing_plan_id":"cebpf4jnsgd1na2vs0mg"},{"bike_id":"9b3ec767-26cf-4b69-97c2-4503b4353f66","system_id":"levelo_inurba_marseille","lat":43.31119,"lon":5.37778,"is_reserved":false,"is_disabled":false,"rental_uris":{"android":"levelo://app?vid=9b3ec767-26cf-4b69-97c2-4503b4353f66","ios":"levelo://app?vid=9b3ec767-26cf-4b69-97c2-4503b4353f66"},"vehicle_type_id":"4","last_reported":1760857689,"current_range_meters":7200,"station_id":"ce4bgt92rcd13ifvqcg0","pricing_plan_id":"cebpf4jnsgd1na2vs0mg"},{"bike_id":"ffba4afa-54a2-4996-b187-e03b2e75334d","system_id":"levelo_inurba_marseille","lat":43.31682,"lon":5.40496,"is_reserved":false,"is_disabled":false,"rental_uris":{"android":"levelo://app?vid=ffba4afa-54a2-4996-b187-e03b2e75334d","ios":"levelo://app?vid=ffba4afa-54a2-4996-b187-e03b2e75334d"},"vehicle_type_id":"4","last_reported":1760857689,"current_range_meters":7200,"station_id":"ce4bh012rcd13ifvqd00","pricing_plan_id":"cebpf4jnsgd1na2vs0mg"},{"bike_id":"f55709e0-4b78-4850-8db3-b4d73728152f","system_id":"levelo_inurba_marseille","lat":43.35176,"lon":5.36456,"is_reserved":false,"is_disabled":false,"rental_uris":{"android":"levelo://app?vid=f55709e0-4b78-4850-8db3-b4d73728152f","ios":"levelo://app?vid=f55709e0-4b78-4850-8db3-b4d73728152f"},"vehicle_type_id":"4","last_reported":1760857689,"current_range_meters":7200,"station_id":"","pricing_plan_id":"cebpf4jnsgd1na2vs0mg"},{"bike_id":"75b02a51-1325-435e-9661-29bb451a696a","system_id":"levelo_inurba_marseille","lat":43.31448,"lon":5.38488,"is_reserved":false,"is_disabled":false,"rental_uris":{"android":"levelo://app?vid=75b02a51-1325-435e-9661-29bb451a696a","ios":"levelo://app?vid=75b02a51-1325-435e-9661-29bb451a696a"},"vehicle_type_id":"4","last_reported":1760857689,"current_range_meters":8000,"station_id":"","pricing_plan_id":"cebpf4jnsgd1na2vs0mg"},{"bike_id":"297d13ed-f0d9-44df-8fc4-632fc1d81159","system_id":"levelo_inurba_marseille","lat":43.297952,"lon":5.404129,"is_reserved":false,"is_disabled":false,"rental_uris":{"android":"levelo://app?vid=297d13ed-f0d9-44df-8fc4-632fc1d81159","ios":"levelo://app?vid=297d13ed-f0d9-44df-8fc4-632fc1d81159"},"vehicle_type_id":"4","last_reported":1760857689,"current_range_meters":8000,"station_id":"ce4bh112rcd13ifvqd90","pricing_plan_id":"cebpf4jnsgd1na2vs0mg"},{"bike_id":"9dd1d8fe-c2a8-4a70-a175-61f5f9fe7fd2","system_id":"levelo_inurba_marseille","lat":43.315648,"lon":5.388617,"is_reserved":false,"is_disabled":false,"rental_uris":{"android":"levelo://app?vid=9dd1d8fe-c2a8-4a70-a175-61f5f9fe7fd2","ios":"levelo://app?vid=9dd1d8fe-c2a8-4a70-a175-61f5f9fe7fd2"},"vehicle_type_id":"4","last_reported":1760857689,"current_range_meters":8400,"station_id":"","pricing_plan_id":"cebpf4jnsgd1na2vs0mg"},{"bike_id":"31031a74-27cc-4f5f-a2c4-c5d9ae180c41","system_id":"levelo_inurba_marseille","lat":43.281082,"lon":5.378418,"is_reserved":false,"is_disabled":false,"rental_uris":{"android":"levelo://app?vid=31031a74-27cc-4f5f-a2c4-c5d9ae180c41","ios":"levelo://app?vid=31031a74-27cc-4f5f-a2c4-c5d9ae180c41"},"vehicle_type_id":"4","last_reported":1760857689,"current_range_meters":8400,"station_id":"ce4bha12rcd13ifvqee0","pricing_plan_id":"cebpf4jnsgd1na2vs0mg"},{"bike_id":"bbfea383-53c1-4cff-975b-4647ba07b014","system_id":"levelo_inurba_marseille","lat":43.30259,"lon":5.40058,"is_reserved":false,"is_disabled":false,"rental_uris":{"android":"levelo://app?vid=bbfea383-53c1-4cff-975b-4647ba07b014","ios":"levelo://app?vid=bbfea383-53c1-4cff-975b-4647ba07b014"},"vehicle_type_id":"4","last_reported":1760857689,"current_range_meters":8400,"station_id":"ce4bgvh2rcd13ifvqcs0","pricing_plan_id":"cebpf4jnsgd1na2vs0mg"},{"bike_id":"228be0a7-a064-416a-aad1-c9443795ad86","system_id":"levelo_inurba_marseille","lat":43.31557,"lon":5.38628,"is_reserved":false,"is_disabled":false,"rental_uris":{"android":"levelo://app?vid=228be0a7-a064-416a-aad1-c9443795ad86","ios":"levelo://app?vid=228be0a7-a064-416a-aad1-c9443795ad86"},"vehicle_type_id":"4","last_reported":1760857689,"current_range_meters":8400,"station_id":"","pricing_plan_id":"cebpf4jnsgd1na2vs0mg"},{"bike_id":"0b170382-a38a-48fc-b060-b901de311f1a","system_id":"levelo_inurba_marseille","lat":43.33047,"lon":5.39024,"is_reserved":false,"is_disabled":true,"rental_uris":{"android":"levelo://app?vid=0b170382-a38a-48fc-b060-b901de311f1a","ios":"levelo://app?vid=0b170382-a38a-48fc-b060-b901de311f1a"},"vehicle_type_id":"4","last_reported":1760857689,"current_range_meters":8800,"station_id":"ce4bhr92rcd13ifvqhrg","pricing_plan_id":"cebpf4jnsgd1na2vs0mg"},{"bike_id":"e109b907-863a-49c9-8538-dc4d6a4e43f5","system_id":"levelo_inurba_marseille","lat":43.292128,"lon":5.376643,"is_reserved":false,"is_disabled":false,"rental_uris":{"android":"levelo://app?vid=e109b907-863a-49c9-8538-dc4d6a4e43f5","ios":"levelo://app?vid=e109b907-863a-49c9-8538-dc4d6a4e43f5"},"vehicle_type_id":"4","last_reported":1760857689,"current_range_meters":8800,"station_id":"ce4bgi12rcd13ifvqb80","pricing_plan_id":"cebpf4jnsgd1na2vs0mg"},{"bike_id":"383132c7-6568-4b3f-85e0-394f17b8ed8c","system_id":"levelo_inurba_marseille","lat":43.246474,"lon":5.388943,"is_reserved":false,"is_disabled":true,"rental_uris":{"android":"levelo://app?vid=383132c7-6568-4b3f-85e0-394f17b8ed8c","ios":"levelo://app?vid=383132c7-6568-4b3f-85e0-394f17b8ed8c"},"vehicle_type_id":"4","last_reported":1760857689,"current_range_meters":8800,"station_id":"ce4bhg12rcd13ifvqf60","pricing_plan_id":"cebpf4jnsgd1na2vs0mg"},{"bike_id":"676fd588-494b-4028-8203-f37ef89d1fbb","system_id":"levelo_inurba_marseille","lat":43.22562,"lon":5.41636,"is_reserved":false,"is_disabled":false,"rental_uris":{"android":"levelo://app?vid=676fd588-494b-4028-8203-f37ef89d1fbb","ios":"levelo://app?vid=676fd588-494b-4028-8203-f37ef89d1fbb"},"vehicle_type_id":"4","last_reported":1760857689,"current_range_meters":8800,"station_id":"st_d2o4gvlbi1j2169b742g","pricing_plan_id":"cebpf4jnsgd1na2vs0mg"},{"bike_id":"51e93946-6e8e-41b7-8790-cb249c3647a1","system_id":"levelo_inurba_marseille","lat":43.2868,"lon":5.40016,"is_reserved":false,"is_disabled":false,"rental_uris":{"android":"levelo://app?vid=51e93946-6e8e-41b7-8790-cb249c3647a1","ios":"levelo://app?vid=51e93946-6e8e-41b7-8790-cb249c3647a1"},"vehicle_type_id":"4","last_reported":1760857689,"current_range_meters":8800,"station_id":"ce4bho92rcd13ifvqh3g","pricing_plan_id":"cebpf4jnsgd1na2vs0mg"},{"bike_id":"d7de8a4b-054e-4f08-972f-750ba132f0ec","system_id":"levelo_inurba_marseille","lat":43.291895,"lon":5.357936,"is_reserved":false,"is_disabled":true,"rental_uris":{"android":"levelo://app?vid=d7de8a4b-054e-4f08-972f-750ba132f0ec","ios":"levelo://app?vid=d7de8a4b-054e-4f08-972f-750ba132f0ec"},"vehicle_type_id":"4","last_reported":1760857689,"current_range_meters":8800,"station_id":"ce4bhb12rcd13ifvqel0","pricing_plan_id":"cebpf4jnsgd1na2vs0mg"},{"bike_id":"5ec36f29-a595-43fb-81bc-e1f6ecf04525","system_id":"levelo_inurba_marseille","lat":43.21187,"lon":5.35095,"is_reserved":false,"is_disabled":true,"rental_uris":{"android":"levelo://app?vid=5ec36f29-a595-43fb-81bc-e1f6ecf04525","ios":"levelo://app?vid=5ec36f29-a595-43fb-81bc-e1f6ecf04525"},"vehicle_type_id":"4","last_reported":1760857689,"current_range_meters":8800,"station_id":"st_cvj6sg6p6f1abm77japg","pricing_plan_id":"cebpf4jnsgd1na2vs0mg"},{"bike_id":"0893a90a-1d21-45cc-81a6-451237ea0d7e","system_id":"levelo_inurba_marseille","lat":43.28652,"lon":5.39996,"is_reserved":false,"is_disabled":false,"rental_uris":{"android":"levelo://app?vid=0893a90a-1d21-45cc-81a6-451237ea0d7e","ios":"levelo://app?vid=0893a90a-1d21-45cc-81a6-451237ea0d7e"},"vehicle_type_id":"4","last_reported":1760857689,"current_range_meters":8800,"station_id":"","pricing_plan_id":"cebpf4jnsgd1na2vs0mg"},{"bike_id":"f770bc01-f2ec-4bd6-8e37-4f02eca83a56","system_id":"levelo_inurba_marseille","lat":43.315247,"lon":5.387481,"is_reserved":false,"is_disabled":false,"rental_uris":{"android":"levelo://app?vid=f770bc01-f2ec-4bd6-8e37-4f02eca83a56","ios":"levelo://app?vid=f770bc01-f2ec-4bd6-8e37-4f02eca83a56"},"vehicle_type_id":"4","last_reported":1760857689,"current_range_meters":8800,"station_id":"","pricing_plan_id":"cebpf4jnsgd1na2vs0mg"},{"bike_id":"6e5dc3f4-6d85-4e2b-9fe6-3fc6d3654eb9","system_id":"levelo_inurba_marseille","lat":43.30164,"lon":5.38079,"is_reserved":false,"is_disabled":false,"rental_uris":{"android":"levelo://app?vid=6e5dc3f4-6d85-4e2b-9fe6-3fc6d3654eb9","ios":"levelo://app?vid=6e5dc3f4-6d85-4e2b-9fe6-3fc6d3654eb9"},"vehicle_type_id":"4","last_reported":1760857689,"current_range_meters":8800,"station_id":"ce4bgjp2rcd13ifvqbh0","pricing_plan_id":"cebpf4jnsgd1na2vs0mg"},{"bike_id":"2da8af00-5bde-4f68-9a63-f51b703d78e7","system_id":"levelo_inurba_marseille","lat":43.28617,"lon":5.35095,"is_reserved":false,"is_disabled":false,"rental_uris":{"android":"levelo://app?vid=2da8af00-5bde-4f68-9a63-f51b703d78e7","ios":"levelo://app?vid=2da8af00-5bde-4f68-9a63-f51b703d78e7"},"vehicle_type_id":"4","last_reported":1760857689,"current_range_meters":9200,"station_id":"ce4bhch2rcd13ifvqeug","pricing_plan_id":"cebpf4jnsgd1na2vs0mg"},{"bike_id":"cc7ce9c8-73dc-4ce5-b895-f3305ff956bd","system_id":"levelo_inurba_marseille","lat":43.30545,"lon":5.38429,"is_reserved":false,"is_disabled":false,"rental_uris":{"android":"levelo://app?vid=cc7ce9c8-73dc-4ce5-b895-f3305ff956bd","ios":"levelo://app?vid=cc7ce9c8-73dc-4ce5-b895-f3305ff956bd"},"vehicle_type_id":"4","last_reported":1760857689,"current_range_meters":9200,"station_id":"ce4bgg92rcd13ifvqb30","pricing_plan_id":"cebpf4jnsgd1na2vs0mg"},{"bike_id":"ce11fcf0-3241-46b7-be99-4d8a0098ce85","system_id":"levelo_inurba_marseille","lat":43.31319,"lon":5.39718,"is_reserved":false,"is_disabled":false,"rental_uris":{"android":"levelo://app?vid=ce11fcf0-3241-46b7-be99-4d8a0098ce85","ios":"levelo://app?vid=ce11fcf0-3241-46b7-be99-4d8a0098ce85"},"vehicle_type_id":"4","last_reported":1760857689,"current_range_meters":9200,"station_id":"ce4bgvp2rcd13ifvqcu0","pricing_plan_id":"cebpf4jnsgd1na2vs0mg"},{"bike_id":"e7e8b93c-02d4-466b-82b5-3f4c4f15c2ae","system_id":"levelo_inurba_marseille","lat":43.288145,"lon":5.438465,"is_reserved":false,"is_disabled":false,"rental_uris":{"android":"levelo://app?vid=e7e8b93c-02d4-466b-82b5-3f4c4f15c2ae","ios":"levelo://app?vid=e7e8b93c-02d4-466b-82b5-3f4c4f15c2ae"},"vehicle_type_id":"4","last_reported":1760857689,"current_range_meters":9200,"station_id":"","pricing_plan_id":"cebpf4jnsgd1na2vs0mg"},{"bike_id":"c6227cff-120f-49c6-93a2-5454dd916cde","system_id":"levelo_inurba_marseille","lat":43.26556,"lon":5.37284,"is_reserved":false,"is_disabled":true,"rental_uris":{"android":"levelo://app?vid=c6227cff-120f-49c6-93a2-5454dd916cde","ios":"levelo://app?vid=c6227cff-120f-49c6-93a2-5454dd916cde"},"vehicle_type_id":"4","last_reported":1760857689,"current_range_meters":9200,"station_id":"ce4bhg12rcd13ifvqf70","pricing_plan_id":"cebpf4jnsgd1na2vs0mg"},{"bike_id":"9b35f520-b47c-4550-9804-23f27fab5ce9","system_id":"levelo_inurba_marseille","lat":43.254899,"lon":5.376558,"is_reserved":false,"is_disabled":true,"rental_uris":{"android":"levelo://app?vid=9b35f520-b47c-4550-9804-23f27fab5ce9","ios":"levelo://app?vid=9b35f520-b47c-4550-9804-23f27fab5ce9"},"vehicle_type_id":"4","last_reported":1760857689,"current_range_meters":9200,"station_id":"ce4bhh12rcd13ifvqff0","pricing_plan_id":"cebpf4jnsgd1na2vs0mg"},{"bike_id":"a8846c10-c7ea-4a0c-bdcc-23a6ec63fd6e","system_id":"levelo_inurba_marseille","lat":43.271311,"lon":5.391734,"is_reserved":false,"is_disabled":false,"rental_uris":{"android":"levelo://app?vid=a8846c10-c7ea-4a0c-bdcc-23a6ec63fd6e","ios":"levelo://app?vid=a8846c10-c7ea-4a0c-bdcc-23a6ec63fd6e"},"vehicle_type_id":"4","last_reported":1760857689,"current_range_meters":9200,"station_id":"","pricing_plan_id":"cebpf4jnsgd1na2vs0mg"},{"bike_id":"8e6781bb-2e20-454e-8191-54182f17bdfc","system_id":"levelo_inurba_marseille","lat":43.21748,"lon":5.34608,"is_reserved":false,"is_disabled":true,"rental_uris":{"android":"levelo://app?vid=8e6781bb-2e20-454e-8191-54182f17bdfc","ios":"levelo://app?vid=8e6781bb-2e20-454e-8191-54182f17bdfc"},"vehicle_type_id":"4","last_reported":1760857689,"current_range_meters":9200,"station_id":"st_cvj6r9ubvosntc0bgbag","pricing_plan_id":"cebpf4jnsgd1na2vs0mg"},{"bike_id":"7293a2a8-133b-46e7-8c52-a9845edf3932","system_id":"levelo_inurba_marseille","lat":43.27989,"lon":5.41659,"is_reserved":false,"is_disabled":false,"rental_uris":{"android":"levelo://app?vid=7293a2a8-133b-46e7-8c52-a9845edf3932","ios":"levelo://app?vid=7293a2a8-133b-46e7-8c52-a9845edf3932"},"vehicle_type_id":"4","last_reported":1760857689,"current_range_meters":9200,"station_id":"ce4bho12rcd13ifvqh1g","pricing_plan_id":"cebpf4jnsgd1na2vs0mg"},{"bike_id":"a9d31d42-6d86-4993-b335-38ed0cc5765d","system_id":"levelo_inurba_marseille","lat":43.24647,"lon":5.38921,"is_reserved":false,"is_disabled":false,"rental_uris":{"android":"levelo://app?vid=a9d31d42-6d86-4993-b335-38ed0cc5765d","ios":"levelo://app?vid=a9d31d42-6d86-4993-b335-38ed0cc5765d"},"vehicle_type_id":"4","last_reported":1760857689,"current_range_meters":9200,"station_id":"ce4bhg12rcd13ifvqf60","pricing_plan_id":"cebpf4jnsgd1na2vs0mg"},{"bike_id":"245a030c-0c43-41f8-a4cc-088d55252b06","system_id":"levelo_inurba_marseille","lat":43.244764,"lon":5.369336,"is_reserved":false,"is_disabled":false,"rental_uris":{"android":"levelo://app?vid=245a030c-0c43-41f8-a4cc-088d55252b06","ios":"levelo://app?vid=245a030c-0c43-41f8-a4cc-088d55252b06"},"vehicle_type_id":"4","last_reported":1760857689,"current_range_meters":9600,"station_id":"","pricing_plan_id":"cebpf4jnsgd1na2vs0mg"},{"bike_id":"657f303b-2417-4a96-a979-9bb80b1500f6","system_id":"levelo_inurba_marseille","lat":43.29858,"lon":5.36286,"is_reserved":false,"is_disabled":true,"rental_uris":{"android":"levelo://app?vid=657f303b-2417-4a96-a979-9bb80b1500f6","ios":"levelo://app?vid=657f303b-2417-4a96-a979-9bb80b1500f6"},"vehicle_type_id":"4","last_reported":1760857689,"current_range_meters":9600,"station_id":"ce4bgpp2rcd13ifvqc3g","pricing_plan_id":"cebpf4jnsgd1na2vs0mg"},{"bike_id":"887e0711-86db-4d03-ae0c-852685105df3","system_id":"levelo_inurba_marseille","lat":43.279605,"lon":5.379273,"is_reserved":false,"is_disabled":false,"rental_uris":{"android":"levelo://app?vid=887e0711-86db-4d03-ae0c-852685105df3","ios":"levelo://app?vid=887e0711-86db-4d03-ae0c-852685105df3"},"vehicle_type_id":"4","last_reported":1760857689,"current_range_meters":9600,"station_id":"ce4bha12rcd13ifvqee0","pricing_plan_id":"cebpf4jnsgd1na2vs0mg"},{"bike_id":"29deeaa9-e77a-408d-b13e-b6abc21d5df6","system_id":"levelo_inurba_marseille","lat":43.296509,"lon":5.386966,"is_reserved":false,"is_disabled":false,"rental_uris":{"android":"levelo://app?vid=29deeaa9-e77a-408d-b13e-b6abc21d5df6","ios":"levelo://app?vid=29deeaa9-e77a-408d-b13e-b6abc21d5df6"},"vehicle_type_id":"4","last_reported":1760857689,"current_range_meters":9600,"station_id":"","pricing_plan_id":"cebpf4jnsgd1na2vs0mg"},{"bike_id":"d268909a-e206-40bf-8f0e-13d23d661ef9","system_id":"levelo_inurba_marseille","lat":43.303717,"lon":5.424983,"is_reserved":false,"is_disabled":false,"rental_uris":{"android":"levelo://app?vid=d268909a-e206-40bf-8f0e-13d23d661ef9","ios":"levelo://app?vid=d268909a-e206-40bf-8f0e-13d23d661ef9"},"vehicle_type_id":"4","last_reported":1760857689,"current_range_meters":9600,"station_id":"ce4bhoh2rcd13ifvqh6g","pricing_plan_id":"cebpf4jnsgd1na2vs0mg"},{"bike_id":"b1db1391-3474-48f3-85bd-dfc79b190eda","system_id":"levelo_inurba_marseille","lat":43.29297,"lon":5.36118,"is_reserved":false,"is_disabled":false,"rental_uris":{"android":"levelo://app?vid=b1db1391-3474-48f3-85bd-dfc79b190eda","ios":"levelo://app?vid=b1db1391-3474-48f3-85bd-dfc79b190eda"},"vehicle_type_id":"4","last_reported":1760857689,"current_range_meters":9600,"station_id":"","pricing_plan_id":"cebpf4jnsgd1na2vs0mg"},{"bike_id":"1d2e768f-70b1-4771-9d80-f8333d7b1d35","system_id":"levelo_inurba_marseille","lat":43.29258,"lon":5.36865,"is_reserved":false,"is_disabled":false,"rental_uris":{"android":"levelo://app?vid=1d2e768f-70b1-4771-9d80-f8333d7b1d35","ios":"levelo://app?vid=1d2e768f-70b1-4771-9d80-f8333d7b1d35"},"vehicle_type_id":"4","last_reported":1760857689,"current_range_meters":10000,"station_id":"ce4bhbp2rcd13ifvqesg","pricing_plan_id":"cebpf4jnsgd1na2vs0mg"},{"bike_id":"0a414463-fe1a-4833-8a11-178a3c2c879a","system_id":"levelo_inurba_marseille","lat":43.29852,"lon":5.37897,"is_reserved":false,"is_disabled":false,"rental_uris":{"android":"levelo://app?vid=0a414463-fe1a-4833-8a11-178a3c2c879a","ios":"levelo://app?vid=0a414463-fe1a-4833-8a11-178a3c2c879a"},"vehicle_type_id":"4","last_reported":1760857689,"current_range_meters":10000,"station_id":"","pricing_plan_id":"cebpf4jnsgd1na2vs0mg"},{"bike_id":"83348da8-a4f5-46df-865e-64326525590d","system_id":"levelo_inurba_marseille","lat":43.217489,"lon":5.346103,"is_reserved":false,"is_disabled":false,"rental_uris":{"android":"levelo://app?vid=83348da8-a4f5-46df-865e-64326525590d","ios":"levelo://app?vid=83348da8-a4f5-46df-865e-64326525590d"},"vehicle_type_id":"4","last_reported":1760857689,"current_range_meters":10000,"station_id":"st_cvj6r9ubvosntc0bgbag","pricing_plan_id":"cebpf4jnsgd1na2vs0mg"},{"bike_id":"73d0f6b4-1e1d-4987-ba6b-7343a51e2e21","system_id":"levelo_inurba_marseille","lat":43.30263,"lon":5.40062,"is_reserved":false,"is_disabled":false,"rental_uris":{"android":"levelo://app?vid=73d0f6b4-1e1d-4987-ba6b-7343a51e2e21","ios":"levelo://app?vid=73d0f6b4-1e1d-4987-ba6b-7343a51e2e21"},"vehicle_type_id":"4","last_reported":1760857689,"current_range_meters":10000,"station_id":"ce4bgvh2rcd13ifvqcs0","pricing_plan_id":"cebpf4jnsgd1na2vs0mg"},{"bike_id":"ea883585-d0e4-4bcb-922c-57b2a3efdeac","system_id":"levelo_inurba_marseille","lat":43.30512,"lon":5.3681,"is_reserved":false,"is_disabled":false,"rental_uris":{"android":"levelo://app?vid=ea883585-d0e4-4bcb-922c-57b2a3efdeac","ios":"levelo://app?vid=ea883585-d0e4-4bcb-922c-57b2a3efdeac"},"vehicle_type_id":"4","last_reported":1760857689,"current_range_meters":10000,"station_id":"","pricing_plan_id":"cebpf4jnsgd1na2vs0mg"},{"bike_id":"95517d2e-464c-4bb9-8d8d-e2fba29fedbc","system_id":"levelo_inurba_marseille","lat":43.32141,"lon":5.36747,"is_reserved":false,"is_disabled":false,"rental_uris":{"android":"levelo://app?vid=95517d2e-464c-4bb9-8d8d-e2fba29fedbc","ios":"levelo://app?vid=95517d2e-464c-4bb9-8d8d-e2fba29fedbc"},"vehicle_type_id":"4","last_reported":1760857689,"current_range_meters":10000,"station_id":"","pricing_plan_id":"cebpf4jnsgd1na2vs0mg"},{"bike_id":"3586afa5-19c6-4385-ae3b-80726606c1bb","system_id":"levelo_inurba_marseille","lat":43.26392,"lon":5.39872,"is_reserved":false,"is_disabled":false,"rental_uris":{"android":"levelo://app?vid=3586afa5-19c6-4385-ae3b-80726606c1bb","ios":"levelo://app?vid=3586afa5-19c6-4385-ae3b-80726606c1bb"},"vehicle_type_id":"4","last_reported":1760857689,"current_range_meters":10000,"station_id":"","pricing_plan_id":"cebpf4jnsgd1na2vs0mg"},{"bike_id":"e9c8911f-6661-4330-b933-c7ef20dc0f45","system_id":"levelo_inurba_marseille","lat":43.28104,"lon":5.35048,"is_reserved":false,"is_disabled":false,"rental_uris":{"android":"levelo://app?vid=e9c8911f-6661-4330-b933-c7ef20dc0f45","ios":"levelo://app?vid=e9c8911f-6661-4330-b933-c7ef20dc0f45"},"vehicle_type_id":"4","last_reported":1760857689,"current_range_meters":10000,"station_id":"","pricing_plan_id":"cebpf4jnsgd1na2vs0mg"},{"bike_id":"c690dac1-0ca7-4344-86ef-57616dd27e21","system_id":"levelo_inurba_marseille","lat":43.29636,"lon":5.40445,"is_reserved":false,"is_disabled":false,"rental_uris":{"android":"levelo://app?vid=c690dac1-0ca7-4344-86ef-57616dd27e21","ios":"levelo://app?vid=c690dac1-0ca7-4344-86ef-57616dd27e21"},"vehicle_type_id":"4","last_reported":1760857689,"current_range_meters":10000,"station_id":"","pricing_plan_id":"cebpf4jnsgd1na2vs0mg"},{"bike_id":"e978660f-731d-4a95-8df5-e0a54d8fe8be","system_id":"levelo_inurba_marseille","lat":43.21208,"lon":5.35071,"is_reserved":false,"is_disabled":true,"rental_uris":{"android":"levelo://app?vid=e978660f-731d-4a95-8df5-e0a54d8fe8be","ios":"levelo://app?vid=e978660f-731d-4a95-8df5-e0a54d8fe8be"},"vehicle_type_id":"4","last_reported":1760857689,"current_range_meters":10000,"station_id":"st_cvj6sg6p6f1abm77japg","pricing_plan_id":"cebpf4jnsgd1na2vs0mg"},{"bike_id":"94a80ed1-2fee-468c-bb76-25f1829c19bf","system_id":"levelo_inurba_marseille","lat":43.304717,"lon":5.378985,"is_reserved":false,"is_disabled":true,"rental_uris":{"android":"levelo://app?vid=94a80ed1-2fee-468c-bb76-25f1829c19bf","ios":"levelo://app?vid=94a80ed1-2fee-468c-bb76-25f1829c19bf"},"vehicle_type_id":"4","last_reported":1760857689,"current_range_meters":10000,"station_id":"ce4bgup2rcd13ifvqcn0","pricing_plan_id":"cebpf4jnsgd1na2vs0mg"},{"bike_id":"e44a9fda-96bb-4edc-a9ca-3bd163b75a58","system_id":"levelo_inurba_marseille","lat":43.240792,"lon":5.377473,"is_reserved":false,"is_disabled":false,"rental_uris":{"android":"levelo://app?vid=e44a9fda-96bb-4edc-a9ca-3bd163b75a58","ios":"levelo://app?vid=e44a9fda-96bb-4edc-a9ca-3bd163b75a58"},"vehicle_type_id":"4","last_reported":1760857689,"current_range_meters":10000,"station_id":"ce4bhnp2rcd13ifvqgvg","pricing_plan_id":"cebpf4jnsgd1na2vs0mg"},{"bike_id":"074be791-6c38-4f2f-8dd0-b227e073e27e","system_id":"levelo_inurba_marseille","lat":43.24171,"lon":5.36408,"is_reserved":false,"is_disabled":false,"rental_uris":{"android":"levelo://app?vid=074be791-6c38-4f2f-8dd0-b227e073e27e","ios":"levelo://app?vid=074be791-6c38-4f2f-8dd0-b227e073e27e"},"vehicle_type_id":"4","last_reported":1760857689,"current_range_meters":10800,"station_id":"cpo36qri1sfpv3e86is0","pricing_plan_id":"cebpf4jnsgd1na2vs0mg"},{"bike_id":"bf2c3617-0e72-4f4a-8585-0c63bcbc4fce","system_id":"levelo_inurba_marseille","lat":43.28626,"lon":5.35092,"is_reserved":false,"is_disabled":true,"rental_uris":{"android":"levelo://app?vid=bf2c3617-0e72-4f4a-8585-0c63bcbc4fce","ios":"levelo://app?vid=bf2c3617-0e72-4f4a-8585-0c63bcbc4fce"},"vehicle_type_id":"4","last_reported":1760857689,"current_range_meters":10800,"station_id":"ce4bhch2rcd13ifvqeug","pricing_plan_id":"cebpf4jnsgd1na2vs0mg"},{"bike_id":"4d639fc2-fd62-4b4f-8fc3-f0ee032daac3","system_id":"levelo_inurba_marseille","lat":43.2417,"lon":5.36402,"is_reserved":false,"is_disabled":false,"rental_uris":{"android":"levelo://app?vid=4d639fc2-fd62-4b4f-8fc3-f0ee032daac3","ios":"levelo://app?vid=4d639fc2-fd62-4b4f-8fc3-f0ee032daac3"},"vehicle_type_id":"4","last_reported":1760857689,"current_range_meters":10800,"station_id":"cpo36qri1sfpv3e86is0","pricing_plan_id":"cebpf4jnsgd1na2vs0mg"},{"bike_id":"234de998-d88b-4c8d-801a-e0e06ca0ab94","system_id":"levelo_inurba_marseille","lat":43.29574,"lon":5.39695,"is_reserved":false,"is_disabled":false,"rental_uris":{"android":"levelo://app?vid=234de998-d88b-4c8d-801a-e0e06ca0ab94","ios":"levelo://app?vid=234de998-d88b-4c8d-801a-e0e06ca0ab94"},"vehicle_type_id":"4","last_reported":1760857689,"current_range_meters":10800,"station_id":"","pricing_plan_id":"cebpf4jnsgd1na2vs0mg"},{"bike_id":"6632a0ad-f43a-451e-834c-e4d64180498e","system_id":"levelo_inurba_marseille","lat":43.326592,"lon":5.40989,"is_reserved":false,"is_disabled":false,"rental_uris":{"android":"levelo://app?vid=6632a0ad-f43a-451e-834c-e4d64180498e","ios":"levelo://app?vid=6632a0ad-f43a-451e-834c-e4d64180498e"},"vehicle_type_id":"4","last_reported":1760857689,"current_range_meters":10800,"station_id":"ce4bhpp2rcd13ifvqhgg","pricing_plan_id":"cebpf4jnsgd1na2vs0mg"},{"bike_id":"d9ff0385-d455-4cad-b189-ce7b9ec089df","system_id":"levelo_inurba_marseille","lat":43.2894,"lon":5.39633,"is_reserved":false,"is_disabled":false,"rental_uris":{"android":"levelo://app?vid=d9ff0385-d455-4cad-b189-ce7b9ec089df","ios":"levelo://app?vid=d9ff0385-d455-4cad-b189-ce7b9ec089df"},"vehicle_type_id":"4","last_reported":1760857689,"current_range_meters":10800,"station_id":"ce4bh3h2rcd13ifvqdn0","pricing_plan_id":"cebpf4jnsgd1na2vs0mg"},{"bike_id":"3f13991a-43fd-4b49-b31a-f84d43d4b745","system_id":"levelo_inurba_marseille","lat":43.289793,"lon":5.371788,"is_reserved":false,"is_disabled":false,"rental_uris":{"android":"levelo://app?vid=3f13991a-43fd-4b49-b31a-f84d43d4b745","ios":"levelo://app?vid=3f13991a-43fd-4b49-b31a-f84d43d4b745"},"vehicle_type_id":"4","last_reported":1760857689,"current_range_meters":11200,"station_id":"","pricing_plan_id":"cebpf4jnsgd1na2vs0mg"},{"bike_id":"9aca6410-dfe2-4f0b-8309-4bbe61aef318","system_id":"levelo_inurba_marseille","lat":43.3301,"lon":5.39042,"is_reserved":false,"is_disabled":false,"rental_uris":{"android":"levelo://app?vid=9aca6410-dfe2-4f0b-8309-4bbe61aef318","ios":"levelo://app?vid=9aca6410-dfe2-4f0b-8309-4bbe61aef318"},"vehicle_type_id":"4","last_reported":1760857689,"current_range_meters":11200,"station_id":"ce4bhr92rcd13ifvqhrg","pricing_plan_id":"cebpf4jnsgd1na2vs0mg"},{"bike_id":"f4b21278-7a88-4f1e-8b50-4cb4a181722f","system_id":"levelo_inurba_marseille","lat":43.285255,"lon":5.441148,"is_reserved":false,"is_disabled":false,"rental_uris":{"android":"levelo://app?vid=f4b21278-7a88-4f1e-8b50-4cb4a181722f","ios":"levelo://app?vid=f4b21278-7a88-4f1e-8b50-4cb4a181722f"},"vehicle_type_id":"4","last_reported":1760857689,"current_range_meters":11200,"station_id":"st_d3j3df2ikq2c7380ej80","pricing_plan_id":"cebpf4jnsgd1na2vs0mg"},{"bike_id":"6426e4fa-7f79-410d-acfa-0a51b3b2658a","system_id":"levelo_inurba_marseille","lat":43.3125,"lon":5.4041,"is_reserved":false,"is_disabled":false,"rental_uris":{"android":"levelo://app?vid=6426e4fa-7f79-410d-acfa-0a51b3b2658a","ios":"levelo://app?vid=6426e4fa-7f79-410d-acfa-0a51b3b2658a"},"vehicle_type_id":"4","last_reported":1760857689,"current_range_meters":11600,"station_id":"","pricing_plan_id":"cebpf4jnsgd1na2vs0mg"},{"bike_id":"87149b01-cae5-4147-a3a5-0bece62ea65b","system_id":"levelo_inurba_marseille","lat":43.28666,"lon":5.36348,"is_reserved":false,"is_disabled":false,"rental_uris":{"android":"levelo://app?vid=87149b01-cae5-4147-a3a5-0bece62ea65b","ios":"levelo://app?vid=87149b01-cae5-4147-a3a5-0bece62ea65b"},"vehicle_type_id":"4","last_reported":1760857689,"current_range_meters":11600,"station_id":"ce4bhah2rcd13ifvqej0","pricing_plan_id":"cebpf4jnsgd1na2vs0mg"},{"bike_id":"42c0e70b-edb2-4a4b-adf0-47cecd416238","system_id":"levelo_inurba_marseille","lat":43.308909,"lon":5.396383,"is_reserved":false,"is_disabled":false,"rental_uris":{"android":"levelo://app?vid=42c0e70b-edb2-4a4b-adf0-47cecd416238","ios":"levelo://app?vid=42c0e70b-edb2-4a4b-adf0-47cecd416238"},"vehicle_type_id":"4","last_reported":1760857689,"current_range_meters":11600,"station_id":"ce4bh012rcd13ifvqcv0","pricing_plan_id":"cebpf4jnsgd1na2vs0mg"},{"bike_id":"8633551f-7b73-402d-ab1c-d42f9e24f871","system_id":"levelo_inurba_marseille","lat":43.24621,"lon":5.43158,"is_reserved":false,"is_disabled":false,"rental_uris":{"android":"levelo://app?vid=8633551f-7b73-402d-ab1c-d42f9e24f871","ios":"levelo://app?vid=8633551f-7b73-402d-ab1c-d42f9e24f871"},"vehicle_type_id":"4","last_reported":1760857689,"current_range_meters":11600,"station_id":"st_d2m6c4gdas8pm72e190g","pricing_plan_id":"cebpf4jnsgd1na2vs0mg"},{"bike_id":"394213f8-a678-4fef-874f-bcb7093d4f1d","system_id":"levelo_inurba_marseille","lat":43.281578,"lon":5.42647,"is_reserved":false,"is_disabled":false,"rental_uris":{"android":"levelo://app?vid=394213f8-a678-4fef-874f-bcb7093d4f1d","ios":"levelo://app?vid=394213f8-a678-4fef-874f-bcb7093d4f1d"},"vehicle_type_id":"4","last_reported":1760857689,"current_range_meters":11600,"station_id":"ce4bhnh2rcd13ifvqgug","pricing_plan_id":"cebpf4jnsgd1na2vs0mg"},{"bike_id":"c3a43516-decc-43f9-8e26-5e24bd17a93e","system_id":"levelo_inurba_marseille","lat":43.31161,"lon":5.37716,"is_reserved":false,"is_disabled":false,"rental_uris":{"android":"levelo://app?vid=c3a43516-decc-43f9-8e26-5e24bd17a93e","ios":"levelo://app?vid=c3a43516-decc-43f9-8e26-5e24bd17a93e"},"vehicle_type_id":"4","last_reported":1760857689,"current_range_meters":12000,"station_id":"","pricing_plan_id":"cebpf4jnsgd1na2vs0mg"},{"bike_id":"365b1110-8604-4b2d-ad9b-3263b8a258f2","system_id":"levelo_inurba_marseille","lat":43.28655,"lon":5.3634,"is_reserved":false,"is_disabled":false,"rental_uris":{"android":"levelo://app?vid=365b1110-8604-4b2d-ad9b-3263b8a258f2","ios":"levelo://app?vid=365b1110-8604-4b2d-ad9b-3263b8a258f2"},"vehicle_type_id":"4","last_reported":1760857689,"current_range_meters":12000,"station_id":"ce4bhah2rcd13ifvqej0","pricing_plan_id":"cebpf4jnsgd1na2vs0mg"},{"bike_id":"d712d0ff-3096-41ad-87d0-b640167ff060","system_id":"levelo_inurba_marseille","lat":43.31541,"lon":5.38512,"is_reserved":false,"is_disabled":false,"rental_uris":{"android":"levelo://app?vid=d712d0ff-3096-41ad-87d0-b640167ff060","ios":"levelo://app?vid=d712d0ff-3096-41ad-87d0-b640167ff060"},"vehicle_type_id":"4","last_reported":1760857689,"current_range_meters":12000,"station_id":"","pricing_plan_id":"cebpf4jnsgd1na2vs0mg"},{"bike_id":"ac6d2c4d-74a8-443d-a9f9-0d9807feacda","system_id":"levelo_inurba_marseille","lat":43.33772,"lon":5.37469,"is_reserved":false,"is_disabled":false,"rental_uris":{"android":"levelo://app?vid=ac6d2c4d-74a8-443d-a9f9-0d9807feacda","ios":"levelo://app?vid=ac6d2c4d-74a8-443d-a9f9-0d9807feacda"},"vehicle_type_id":"4","last_reported":1760857689,"current_range_meters":12000,"station_id":"","pricing_plan_id":"cebpf4jnsgd1na2vs0mg"},{"bike_id":"cf4c14bf-7635-4f96-a4b6-ee6481db3804","system_id":"levelo_inurba_marseille","lat":43.32293,"lon":5.38287,"is_reserved":false,"is_disabled":false,"rental_uris":{"android":"levelo://app?vid=cf4c14bf-7635-4f96-a4b6-ee6481db3804","ios":"levelo://app?vid=cf4c14bf-7635-4f96-a4b6-ee6481db3804"},"vehicle_type_id":"4","last_reported":1760857689,"current_range_meters":12400,"station_id":"ce4bhr12rcd13ifvqhqg","pricing_plan_id":"cebpf4jnsgd1na2vs0mg"},{"bike_id":"306ea87b-2815-4719-a6e5-9830c9d8e776","system_id":"levelo_inurba_marseille","lat":43.31508,"lon":5.37258,"is_reserved":false,"is_disabled":false,"rental_uris":{"android":"levelo://app?vid=306ea87b-2815-4719-a6e5-9830c9d8e776","ios":"levelo://app?vid=306ea87b-2815-4719-a6e5-9830c9d8e776"},"vehicle_type_id":"4","last_reported":1760857689,"current_range_meters":12400,"station_id":"","pricing_plan_id":"cebpf4jnsgd1na2vs0mg"},{"bike_id":"684dea98-4fa8-4451-8c5f-30e274ad7842","system_id":"levelo_inurba_marseille","lat":43.25114,"lon":5.40318,"is_reserved":false,"is_disabled":false,"rental_uris":{"android":"levelo://app?vid=684dea98-4fa8-4451-8c5f-30e274ad7842","ios":"levelo://app?vid=684dea98-4fa8-4451-8c5f-30e274ad7842"},"vehicle_type_id":"4","last_reported":1760857689,"current_range_meters":12400,"station_id":"ce4bhlh2rcd13ifvqgig","pricing_plan_id":"cebpf4jnsgd1na2vs0mg"},{"bike_id":"a7b3764b-b896-4840-bd7e-9880973af195","system_id":"levelo_inurba_marseille","lat":43.292287,"lon":5.360602,"is_reserved":false,"is_disabled":false,"rental_uris":{"android":"levelo://app?vid=a7b3764b-b896-4840-bd7e-9880973af195","ios":"levelo://app?vid=a7b3764b-b896-4840-bd7e-9880973af195"},"vehicle_type_id":"4","last_reported":1760857689,"current_range_meters":12400,"station_id":"","pricing_plan_id":"cebpf4jnsgd1na2vs0mg"},{"bike_id":"74a0e418-9a8a-4d6c-82ac-4bcdbfc66662","system_id":"levelo_inurba_marseille","lat":43.29526,"lon":5.38553,"is_reserved":false,"is_disabled":true,"rental_uris":{"android":"levelo://app?vid=74a0e418-9a8a-4d6c-82ac-4bcdbfc66662","ios":"levelo://app?vid=74a0e418-9a8a-4d6c-82ac-4bcdbfc66662"},"vehicle_type_id":"4","last_reported":1760857689,"current_range_meters":12800,"station_id":"ce4bgih2rcd13ifvqba0","pricing_plan_id":"cebpf4jnsgd1na2vs0mg"},{"bike_id":"3723dc20-8123-4f5f-92a0-0c3073c1e3b9","system_id":"levelo_inurba_marseille","lat":43.253355,"lon":5.421937,"is_reserved":false,"is_disabled":false,"rental_uris":{"android":"levelo://app?vid=3723dc20-8123-4f5f-92a0-0c3073c1e3b9","ios":"levelo://app?vid=3723dc20-8123-4f5f-92a0-0c3073c1e3b9"},"vehicle_type_id":"4","last_reported":1760857689,"current_range_meters":12800,"station_id":"st_d2m65c5bi1j21697t3ng","pricing_plan_id":"cebpf4jnsgd1na2vs0mg"},{"bike_id":"c35717d0-5fe6-4520-8aec-8d7ada383776","system_id":"levelo_inurba_marseille","lat":43.3135,"lon":5.38512,"is_reserved":false,"is_disabled":false,"rental_uris":{"android":"levelo://app?vid=c35717d0-5fe6-4520-8aec-8d7ada383776","ios":"levelo://app?vid=c35717d0-5fe6-4520-8aec-8d7ada383776"},"vehicle_type_id":"4","last_reported":1760857689,"current_range_meters":12800,"station_id":"ce4bgt92rcd13ifvqcf0","pricing_plan_id":"cebpf4jnsgd1na2vs0mg"},{"bike_id":"51539c6d-039a-4035-81b8-b9683f3fe755","system_id":"levelo_inurba_marseille","lat":43.309345,"lon":5.401388,"is_reserved":false,"is_disabled":false,"rental_uris":{"android":"levelo://app?vid=51539c6d-039a-4035-81b8-b9683f3fe755","ios":"levelo://app?vid=51539c6d-039a-4035-81b8-b9683f3fe755"},"vehicle_type_id":"4","last_reported":1760857689,"current_range_meters":12800,"station_id":"ce4bgvp2rcd13ifvqct0","pricing_plan_id":"cebpf4jnsgd1na2vs0mg"},{"bike_id":"fcdb490e-5966-4191-874f-a0870dbecf5e","system_id":"levelo_inurba_marseille","lat":43.25931,"lon":5.40888,"is_reserved":false,"is_disabled":false,"rental_uris":{"android":"levelo://app?vid=fcdb490e-5966-4191-874f-a0870dbecf5e","ios":"levelo://app?vid=fcdb490e-5966-4191-874f-a0870dbecf5e"},"vehicle_type_id":"4","last_reported":1760857689,"current_range_meters":12800,"station_id":"ce4bhm92rcd13ifvqglg","pricing_plan_id":"cebpf4jnsgd1na2vs0mg"},{"bike_id":"9acfcdb9-7bf0-4991-8024-da3d8f37ea9e","system_id":"levelo_inurba_marseille","lat":43.28613,"lon":5.35101,"is_reserved":false,"is_disabled":false,"rental_uris":{"android":"levelo://app?vid=9acfcdb9-7bf0-4991-8024-da3d8f37ea9e","ios":"levelo://app?vid=9acfcdb9-7bf0-4991-8024-da3d8f37ea9e"},"vehicle_type_id":"4","last_reported":1760857689,"current_range_meters":12800,"station_id":"ce4bhch2rcd13ifvqeug","pricing_plan_id":"cebpf4jnsgd1na2vs0mg"},{"bike_id":"90ba9e44-eda0-4914-aadc-c21ede29abbf","system_id":"levelo_inurba_marseille","lat":43.25324,"lon":5.42168,"is_reserved":false,"is_disabled":false,"rental_uris":{"android":"levelo://app?vid=90ba9e44-eda0-4914-aadc-c21ede29abbf","ios":"levelo://app?vid=90ba9e44-eda0-4914-aadc-c21ede29abbf"},"vehicle_type_id":"4","last_reported":1760857689,"current_range_meters":13600,"station_id":"st_d2m65c5bi1j21697t3ng","pricing_plan_id":"cebpf4jnsgd1na2vs0mg"},{"bike_id":"367c1051-7e4c-4903-8a1f-171c98150810","system_id":"levelo_inurba_marseille","lat":43.24158,"lon":5.36402,"is_reserved":false,"is_disabled":false,"rental_uris":{"android":"levelo://app?vid=367c1051-7e4c-4903-8a1f-171c98150810","ios":"levelo://app?vid=367c1051-7e4c-4903-8a1f-171c98150810"},"vehicle_type_id":"4","last_reported":1760857689,"current_range_meters":13600,"station_id":"cpo36qri1sfpv3e86is0","pricing_plan_id":"cebpf4jnsgd1na2vs0mg"},{"bike_id":"4dcd39f9-9bd6-42dc-9a26-7ef7a271b761","system_id":"levelo_inurba_marseille","lat":43.29593,"lon":5.38108,"is_reserved":false,"is_disabled":false,"rental_uris":{"android":"levelo://app?vid=4dcd39f9-9bd6-42dc-9a26-7ef7a271b761","ios":"levelo://app?vid=4dcd39f9-9bd6-42dc-9a26-7ef7a271b761"},"vehicle_type_id":"4","last_reported":1760857689,"current_range_meters":13600,"station_id":"ce4bgl12rcd13ifvqbo0","pricing_plan_id":"cebpf4jnsgd1na2vs0mg"},{"bike_id":"8694199a-8f1e-419c-b1d7-408286138698","system_id":"levelo_inurba_marseille","lat":43.24387,"lon":5.37063,"is_reserved":false,"is_disabled":false,"rental_uris":{"android":"levelo://app?vid=8694199a-8f1e-419c-b1d7-408286138698","ios":"levelo://app?vid=8694199a-8f1e-419c-b1d7-408286138698"},"vehicle_type_id":"4","last_reported":1760857689,"current_range_meters":13600,"station_id":"ce4bhhh2rcd13ifvqfk0","pricing_plan_id":"cebpf4jnsgd1na2vs0mg"},{"bike_id":"039e2461-f460-4ef8-a658-0a0ed3531b85","system_id":"levelo_inurba_marseille","lat":43.311219,"lon":5.377705,"is_reserved":false,"is_disabled":false,"rental_uris":{"android":"levelo://app?vid=039e2461-f460-4ef8-a658-0a0ed3531b85","ios":"levelo://app?vid=039e2461-f460-4ef8-a658-0a0ed3531b85"},"vehicle_type_id":"4","last_reported":1760857689,"current_range_meters":13600,"station_id":"ce4bgt92rcd13ifvqcg0","pricing_plan_id":"cebpf4jnsgd1na2vs0mg"},{"bike_id":"b9f4c452-f1a0-4b31-854c-2325a5b73556","system_id":"levelo_inurba_marseille","lat":43.21461,"lon":5.34323,"is_reserved":false,"is_disabled":false,"rental_uris":{"android":"levelo://app?vid=b9f4c452-f1a0-4b31-854c-2325a5b73556","ios":"levelo://app?vid=b9f4c452-f1a0-4b31-854c-2325a5b73556"},"vehicle_type_id":"4","last_reported":1760857689,"current_range_meters":13600,"station_id":"","pricing_plan_id":"cebpf4jnsgd1na2vs0mg"},{"bike_id":"8f6c99a9-2111-4ea5-ba4d-4bb0a3b06aa1","system_id":"levelo_inurba_marseille","lat":43.2983,"lon":5.44063,"is_reserved":false,"is_disabled":false,"rental_uris":{"android":"levelo://app?vid=8f6c99a9-2111-4ea5-ba4d-4bb0a3b06aa1","ios":"levelo://app?vid=8f6c99a9-2111-4ea5-ba4d-4bb0a3b06aa1"},"vehicle_type_id":"4","last_reported":1760857689,"current_range_meters":14000,"station_id":"st_d3jp68qikq2c7381ktn0","pricing_plan_id":"cebpf4jnsgd1na2vs0mg"},{"bike_id":"3f9922fa-5fa2-4bb2-b6fe-411d28b8df2c","system_id":"levelo_inurba_marseille","lat":43.284651,"lon":5.381459,"is_reserved":false,"is_disabled":false,"rental_uris":{"android":"levelo://app?vid=3f9922fa-5fa2-4bb2-b6fe-411d28b8df2c","ios":"levelo://app?vid=3f9922fa-5fa2-4bb2-b6fe-411d28b8df2c"},"vehicle_type_id":"4","last_reported":1760857689,"current_range_meters":14000,"station_id":"","pricing_plan_id":"cebpf4jnsgd1na2vs0mg"},{"bike_id":"8cd818e3-a9e2-4f48-92b2-26306f507696","system_id":"levelo_inurba_marseille","lat":43.31349,"lon":5.37913,"is_reserved":false,"is_disabled":false,"rental_uris":{"android":"levelo://app?vid=8cd818e3-a9e2-4f48-92b2-26306f507696","ios":"levelo://app?vid=8cd818e3-a9e2-4f48-92b2-26306f507696"},"vehicle_type_id":"4","last_reported":1760857689,"current_range_meters":14000,"station_id":"","pricing_plan_id":"cebpf4jnsgd1na2vs0mg"},{"bike_id":"dd9349a9-1c57-41ea-85c9-a2e59c5ac387","system_id":"levelo_inurba_marseille","lat":43.29554,"lon":5.42295,"is_reserved":false,"is_disabled":false,"rental_uris":{"android":"levelo://app?vid=dd9349a9-1c57-41ea-85c9-a2e59c5ac387","ios":"levelo://app?vid=dd9349a9-1c57-41ea-85c9-a2e59c5ac387"},"vehicle_type_id":"4","last_reported":1760857689,"current_range_meters":14000,"station_id":"ce4bhph2rcd13ifvqhdg","pricing_plan_id":"cebpf4jnsgd1na2vs0mg"},{"bike_id":"33072f8a-fdd4-421e-bff0-051872342972","system_id":"levelo_inurba_marseille","lat":43.279935,"lon":5.416631,"is_reserved":false,"is_disabled":false,"rental_uris":{"android":"levelo://app?vid=33072f8a-fdd4-421e-bff0-051872342972","ios":"levelo://app?vid=33072f8a-fdd4-421e-bff0-051872342972"},"vehicle_type_id":"4","last_reported":1760857689,"current_range_meters":14400,"station_id":"ce4bho12rcd13ifvqh1g","pricing_plan_id":"cebpf4jnsgd1na2vs0mg"},{"bike_id":"8e9e6b93-cd6b-400a-a518-29baddae32ac","system_id":"levelo_inurba_marseille","lat":43.29746,"lon":5.38821,"is_reserved":false,"is_disabled":false,"rental_uris":{"android":"levelo://app?vid=8e9e6b93-cd6b-400a-a518-29baddae32ac","ios":"levelo://app?vid=8e9e6b93-cd6b-400a-a518-29baddae32ac"},"vehicle_type_id":"4","last_reported":1760857689,"current_range_meters":14400,"station_id":"","pricing_plan_id":"cebpf4jnsgd1na2vs0mg"},{"bike_id":"8fc39a68-750e-4904-a3b6-7d372c0a4269","system_id":"levelo_inurba_marseille","lat":43.30789,"lon":5.37635,"is_reserved":false,"is_disabled":false,"rental_uris":{"android":"levelo://app?vid=8fc39a68-750e-4904-a3b6-7d372c0a4269","ios":"levelo://app?vid=8fc39a68-750e-4904-a3b6-7d372c0a4269"},"vehicle_type_id":"4","last_reported":1760857689,"current_range_meters":14400,"station_id":"ce4bgv92rcd13ifvqcq0","pricing_plan_id":"cebpf4jnsgd1na2vs0mg"},{"bike_id":"86ce52f8-f590-4694-90e1-216ddc477b29","system_id":"levelo_inurba_marseille","lat":43.30968,"lon":5.3812,"is_reserved":false,"is_disabled":false,"rental_uris":{"android":"levelo://app?vid=86ce52f8-f590-4694-90e1-216ddc477b29","ios":"levelo://app?vid=86ce52f8-f590-4694-90e1-216ddc477b29"},"vehicle_type_id":"4","last_reported":1760857689,"current_range_meters":14400,"station_id":"","pricing_plan_id":"cebpf4jnsgd1na2vs0mg"},{"bike_id":"f31b156e-2264-44ca-8b67-3860eadd088e","system_id":"levelo_inurba_marseille","lat":43.30234,"lon":5.40017,"is_reserved":false,"is_disabled":false,"rental_uris":{"android":"levelo://app?vid=f31b156e-2264-44ca-8b67-3860eadd088e","ios":"levelo://app?vid=f31b156e-2264-44ca-8b67-3860eadd088e"},"vehicle_type_id":"4","last_reported":1760857689,"current_range_meters":14400,"station_id":"","pricing_plan_id":"cebpf4jnsgd1na2vs0mg"},{"bike_id":"92b855db-83ae-42a5-ae3c-3811d6f3b9c4","system_id":"levelo_inurba_marseille","lat":43.28679,"lon":5.36351,"is_reserved":false,"is_disabled":false,"rental_uris":{"android":"levelo://app?vid=92b855db-83ae-42a5-ae3c-3811d6f3b9c4","ios":"levelo://app?vid=92b855db-83ae-42a5-ae3c-3811d6f3b9c4"},"vehicle_type_id":"4","last_reported":1760857689,"current_range_meters":14400,"station_id":"ce4bhah2rcd13ifvqej0","pricing_plan_id":"cebpf4jnsgd1na2vs0mg"},{"bike_id":"fbe586dc-ebc7-45f2-b699-4812fb9ca15d","system_id":"levelo_inurba_marseille","lat":43.2549,"lon":5.37657,"is_reserved":false,"is_disabled":true,"rental_uris":{"android":"levelo://app?vid=fbe586dc-ebc7-45f2-b699-4812fb9ca15d","ios":"levelo://app?vid=fbe586dc-ebc7-45f2-b699-4812fb9ca15d"},"vehicle_type_id":"4","last_reported":1760857689,"current_range_meters":14400,"station_id":"ce4bhh12rcd13ifvqff0","pricing_plan_id":"cebpf4jnsgd1na2vs0mg"},{"bike_id":"dc93ad0f-026e-4bfb-a302-4b74fc9c8814","system_id":"levelo_inurba_marseille","lat":43.31357,"lon":5.38537,"is_reserved":false,"is_disabled":false,"rental_uris":{"android":"levelo://app?vid=dc93ad0f-026e-4bfb-a302-4b74fc9c8814","ios":"levelo://app?vid=dc93ad0f-026e-4bfb-a302-4b74fc9c8814"},"vehicle_type_id":"4","last_reported":1760857689,"current_range_meters":14400,"station_id":"ce4bgt92rcd13ifvqcf0","pricing_plan_id":"cebpf4jnsgd1na2vs0mg"},{"bike_id":"c2109d25-d4ee-4a1f-897b-a03e90535513","system_id":"levelo_inurba_marseille","lat":43.285337,"lon":5.441114,"is_reserved":false,"is_disabled":false,"rental_uris":{"android":"levelo://app?vid=c2109d25-d4ee-4a1f-897b-a03e90535513","ios":"levelo://app?vid=c2109d25-d4ee-4a1f-897b-a03e90535513"},"vehicle_type_id":"4","last_reported":1760857689,"current_range_meters":14400,"station_id":"st_d3j3df2ikq2c7380ej80","pricing_plan_id":"cebpf4jnsgd1na2vs0mg"},{"bike_id":"0f787efd-37ca-4060-a03d-15d3c3ce389f","system_id":"levelo_inurba_marseille","lat":43.29989,"lon":5.37406,"is_reserved":false,"is_disabled":false,"rental_uris":{"android":"levelo://app?vid=0f787efd-37ca-4060-a03d-15d3c3ce389f","ios":"levelo://app?vid=0f787efd-37ca-4060-a03d-15d3c3ce389f"},"vehicle_type_id":"4","last_reported":1760857689,"current_range_meters":14400,"station_id":"","pricing_plan_id":"cebpf4jnsgd1na2vs0mg"},{"bike_id":"7b4102bf-aba1-447f-93de-ffef7042242e","system_id":"levelo_inurba_marseille","lat":43.277674,"lon":5.375939,"is_reserved":false,"is_disabled":false,"rental_uris":{"android":"levelo://app?vid=7b4102bf-aba1-447f-93de-ffef7042242e","ios":"levelo://app?vid=7b4102bf-aba1-447f-93de-ffef7042242e"},"vehicle_type_id":"4","last_reported":1760857689,"current_range_meters":14800,"station_id":"","pricing_plan_id":"cebpf4jnsgd1na2vs0mg"},{"bike_id":"86427311-b4dd-4aef-8f66-307154232324","system_id":"levelo_inurba_marseille","lat":43.28414,"lon":5.37535,"is_reserved":false,"is_disabled":false,"rental_uris":{"android":"levelo://app?vid=86427311-b4dd-4aef-8f66-307154232324","ios":"levelo://app?vid=86427311-b4dd-4aef-8f66-307154232324"},"vehicle_type_id":"4","last_reported":1760857689,"current_range_meters":14800,"station_id":"ce4bh412rcd13ifvqds0","pricing_plan_id":"cebpf4jnsgd1na2vs0mg"},{"bike_id":"7fd36eea-805d-4dce-89b5-46f277eaf158","system_id":"levelo_inurba_marseille","lat":43.305097,"lon":5.366695,"is_reserved":false,"is_disabled":false,"rental_uris":{"android":"levelo://app?vid=7fd36eea-805d-4dce-89b5-46f277eaf158","ios":"levelo://app?vid=7fd36eea-805d-4dce-89b5-46f277eaf158"},"vehicle_type_id":"4","last_reported":1760857689,"current_range_meters":14800,"station_id":"","pricing_plan_id":"cebpf4jnsgd1na2vs0mg"},{"bike_id":"c04ec69d-6f4d-48f7-aaa3-f0b9e15d37d3","system_id":"levelo_inurba_marseille","lat":43.24915,"lon":5.4051,"is_reserved":false,"is_disabled":false,"rental_uris":{"android":"levelo://app?vid=c04ec69d-6f4d-48f7-aaa3-f0b9e15d37d3","ios":"levelo://app?vid=c04ec69d-6f4d-48f7-aaa3-f0b9e15d37d3"},"vehicle_type_id":"4","last_reported":1760857689,"current_range_meters":14800,"station_id":"st_d2ngiaodas8pm72gd1h0","pricing_plan_id":"cebpf4jnsgd1na2vs0mg"},{"bike_id":"7a8ac50b-c3a4-490a-8f96-9c005f89ed5d","system_id":"levelo_inurba_marseille","lat":43.26521,"lon":5.39049,"is_reserved":false,"is_disabled":false,"rental_uris":{"android":"levelo://app?vid=7a8ac50b-c3a4-490a-8f96-9c005f89ed5d","ios":"levelo://app?vid=7a8ac50b-c3a4-490a-8f96-9c005f89ed5d"},"vehicle_type_id":"4","last_reported":1760857689,"current_range_meters":15200,"station_id":"","pricing_plan_id":"cebpf4jnsgd1na2vs0mg"},{"bike_id":"437e49d2-ac1d-44f1-871d-4eda45fc3c65","system_id":"levelo_inurba_marseille","lat":43.23152,"lon":5.4372,"is_reserved":false,"is_disabled":false,"rental_uris":{"android":"levelo://app?vid=437e49d2-ac1d-44f1-871d-4eda45fc3c65","ios":"levelo://app?vid=437e49d2-ac1d-44f1-871d-4eda45fc3c65"},"vehicle_type_id":"4","last_reported":1760857689,"current_range_meters":15200,"station_id":"ce4bhmp2rcd13ifvqgog","pricing_plan_id":"cebpf4jnsgd1na2vs0mg"},{"bike_id":"975218b1-0233-42f1-9373-40d58585c2f5","system_id":"levelo_inurba_marseille","lat":43.3136,"lon":5.38496,"is_reserved":false,"is_disabled":false,"rental_uris":{"android":"levelo://app?vid=975218b1-0233-42f1-9373-40d58585c2f5","ios":"levelo://app?vid=975218b1-0233-42f1-9373-40d58585c2f5"},"vehicle_type_id":"4","last_reported":1760857689,"current_range_meters":15200,"station_id":"ce4bgt92rcd13ifvqcf0","pricing_plan_id":"cebpf4jnsgd1na2vs0mg"},{"bike_id":"bce98ae8-dfdf-4c26-a4bd-718a9035c2fc","system_id":"levelo_inurba_marseille","lat":43.27939,"lon":5.41052,"is_reserved":false,"is_disabled":false,"rental_uris":{"android":"levelo://app?vid=bce98ae8-dfdf-4c26-a4bd-718a9035c2fc","ios":"levelo://app?vid=bce98ae8-dfdf-4c26-a4bd-718a9035c2fc"},"vehicle_type_id":"4","last_reported":1760857689,"current_range_meters":15200,"station_id":"ce4bhnp2rcd13ifvqh0g","pricing_plan_id":"cebpf4jnsgd1na2vs0mg"},{"bike_id":"5bd9155f-156c-49c8-8b0f-833732c1c592","system_id":"levelo_inurba_marseille","lat":43.285372,"lon":5.44117,"is_reserved":false,"is_disabled":false,"rental_uris":{"android":"levelo://app?vid=5bd9155f-156c-49c8-8b0f-833732c1c592","ios":"levelo://app?vid=5bd9155f-156c-49c8-8b0f-833732c1c592"},"vehicle_type_id":"4","last_reported":1760857689,"current_range_meters":16000,"station_id":"st_d3j3df2ikq2c7380ej80","pricing_plan_id":"cebpf4jnsgd1na2vs0mg"},{"bike_id":"281275b0-340b-4d2d-bc29-085f43a86d4d","system_id":"levelo_inurba_marseille","lat":43.27377,"lon":5.36251,"is_reserved":false,"is_disabled":false,"rental_uris":{"android":"levelo://app?vid=281275b0-340b-4d2d-bc29-085f43a86d4d","ios":"levelo://app?vid=281275b0-340b-4d2d-bc29-085f43a86d4d"},"vehicle_type_id":"4","last_reported":1760857689,"current_range_meters":16000,"station_id":"","pricing_plan_id":"cebpf4jnsgd1na2vs0mg"},{"bike_id":"c22e92c8-3fe0-4c56-ab21-210e12f7f0b4","system_id":"levelo_inurba_marseille","lat":43.319492,"lon":5.415308,"is_reserved":false,"is_disabled":false,"rental_uris":{"android":"levelo://app?vid=c22e92c8-3fe0-4c56-ab21-210e12f7f0b4","ios":"levelo://app?vid=c22e92c8-3fe0-4c56-ab21-210e12f7f0b4"},"vehicle_type_id":"4","last_reported":1760857689,"current_range_meters":16000,"station_id":"","pricing_plan_id":"cebpf4jnsgd1na2vs0mg"},{"bike_id":"61a03972-6032-4677-a33f-1ca16df398f0","system_id":"levelo_inurba_marseille","lat":43.309287,"lon":5.401345,"is_reserved":false,"is_disabled":false,"rental_uris":{"android":"levelo://app?vid=61a03972-6032-4677-a33f-1ca16df398f0","ios":"levelo://app?vid=61a03972-6032-4677-a33f-1ca16df398f0"},"vehicle_type_id":"4","last_reported":1760857689,"current_range_meters":16000,"station_id":"ce4bgvp2rcd13ifvqct0","pricing_plan_id":"cebpf4jnsgd1na2vs0mg"},{"bike_id":"a0d88737-c6da-4c3a-b384-e15f59c2346a","system_id":"levelo_inurba_marseille","lat":43.286611,"lon":5.363493,"is_reserved":false,"is_disabled":false,"rental_uris":{"android":"levelo://app?vid=a0d88737-c6da-4c3a-b384-e15f59c2346a","ios":"levelo://app?vid=a0d88737-c6da-4c3a-b384-e15f59c2346a"},"vehicle_type_id":"4","last_reported":1760857689,"current_range_meters":16000,"station_id":"ce4bhah2rcd13ifvqej0","pricing_plan_id":"cebpf4jnsgd1na2vs0mg"},{"bike_id":"d1668fd5-d05d-42a9-b5d1-4388db8ac6a3","system_id":"levelo_inurba_marseille","lat":43.31764,"lon":5.39029,"is_reserved":false,"is_disabled":false,"rental_uris":{"android":"levelo://app?vid=d1668fd5-d05d-42a9-b5d1-4388db8ac6a3","ios":"levelo://app?vid=d1668fd5-d05d-42a9-b5d1-4388db8ac6a3"},"vehicle_type_id":"4","last_reported":1760857689,"current_range_meters":16000,"station_id":"ce4bhqp2rcd13ifvqhng","pricing_plan_id":"cebpf4jnsgd1na2vs0mg"},{"bike_id":"a5fc564a-c489-40d8-a469-6e76c4119dc1","system_id":"levelo_inurba_marseille","lat":43.28656,"lon":5.36366,"is_reserved":false,"is_disabled":false,"rental_uris":{"android":"levelo://app?vid=a5fc564a-c489-40d8-a469-6e76c4119dc1","ios":"levelo://app?vid=a5fc564a-c489-40d8-a469-6e76c4119dc1"},"vehicle_type_id":"4","last_reported":1760857689,"current_range_meters":16000,"station_id":"ce4bhah2rcd13ifvqej0","pricing_plan_id":"cebpf4jnsgd1na2vs0mg"},{"bike_id":"bf40278b-4bc5-4d5b-be65-c18872b0fe60","system_id":"levelo_inurba_marseille","lat":43.211943,"lon":5.350828,"is_reserved":false,"is_disabled":false,"rental_uris":{"android":"levelo://app?vid=bf40278b-4bc5-4d5b-be65-c18872b0fe60","ios":"levelo://app?vid=bf40278b-4bc5-4d5b-be65-c18872b0fe60"},"vehicle_type_id":"4","last_reported":1760857689,"current_range_meters":16400,"station_id":"st_cvj6sg6p6f1abm77japg","pricing_plan_id":"cebpf4jnsgd1na2vs0mg"},{"bike_id":"0a950a0d-01ce-40b2-be0e-ad7894fd72f2","system_id":"levelo_inurba_marseille","lat":43.321033,"lon":5.367656,"is_reserved":false,"is_disabled":true,"rental_uris":{"android":"levelo://app?vid=0a950a0d-01ce-40b2-be0e-ad7894fd72f2","ios":"levelo://app?vid=0a950a0d-01ce-40b2-be0e-ad7894fd72f2"},"vehicle_type_id":"4","last_reported":1760857689,"current_range_meters":16400,"station_id":"ce4bhrh2rcd13ifvqhug","pricing_plan_id":"cebpf4jnsgd1na2vs0mg"},{"bike_id":"9652283e-21f4-4490-ac9e-ffa9429f0005","system_id":"levelo_inurba_marseille","lat":43.29073,"lon":5.40524,"is_reserved":false,"is_disabled":false,"rental_uris":{"android":"levelo://app?vid=9652283e-21f4-4490-ac9e-ffa9429f0005","ios":"levelo://app?vid=9652283e-21f4-4490-ac9e-ffa9429f0005"},"vehicle_type_id":"4","last_reported":1760857689,"current_range_meters":16400,"station_id":"","pricing_plan_id":"cebpf4jnsgd1na2vs0mg"},{"bike_id":"3281eb69-9f14-48d9-a8af-bd1dbcbd3dc6","system_id":"levelo_inurba_marseille","lat":43.3246,"lon":5.36558,"is_reserved":false,"is_disabled":false,"rental_uris":{"android":"levelo://app?vid=3281eb69-9f14-48d9-a8af-bd1dbcbd3dc6","ios":"levelo://app?vid=3281eb69-9f14-48d9-a8af-bd1dbcbd3dc6"},"vehicle_type_id":"4","last_reported":1760857689,"current_range_meters":16400,"station_id":"ce4bhs12rcd13ifvqhvg","pricing_plan_id":"cebpf4jnsgd1na2vs0mg"},{"bike_id":"5a35347d-1dbb-434c-8651-0148cd77cd1e","system_id":"levelo_inurba_marseille","lat":43.315289,"lon":5.387445,"is_reserved":false,"is_disabled":false,"rental_uris":{"android":"levelo://app?vid=5a35347d-1dbb-434c-8651-0148cd77cd1e","ios":"levelo://app?vid=5a35347d-1dbb-434c-8651-0148cd77cd1e"},"vehicle_type_id":"4","last_reported":1760857689,"current_range_meters":16400,"station_id":"","pricing_plan_id":"cebpf4jnsgd1na2vs0mg"},{"bike_id":"f1b8e04f-457e-461e-a0a7-0d512845fe50","system_id":"levelo_inurba_marseille","lat":43.333372,"lon":5.39875,"is_reserved":false,"is_disabled":false,"rental_uris":{"android":"levelo://app?vid=f1b8e04f-457e-461e-a0a7-0d512845fe50","ios":"levelo://app?vid=f1b8e04f-457e-461e-a0a7-0d512845fe50"},"vehicle_type_id":"4","last_reported":1760857689,"current_range_meters":16400,"station_id":"","pricing_plan_id":"cebpf4jnsgd1na2vs0mg"},{"bike_id":"e6a7d054-152f-48ef-adea-b2903c04274b","system_id":"levelo_inurba_marseille","lat":43.310733,"lon":5.383554,"is_reserved":false,"is_disabled":false,"rental_uris":{"android":"levelo://app?vid=e6a7d054-152f-48ef-adea-b2903c04274b","ios":"levelo://app?vid=e6a7d054-152f-48ef-adea-b2903c04274b"},"vehicle_type_id":"4","last_reported":1760857689,"current_range_meters":16400,"station_id":"ce4bgv92rcd13ifvqcr0","pricing_plan_id":"cebpf4jnsgd1na2vs0mg"},{"bike_id":"bb79989d-871e-48b8-a3e7-7a297a28b04c","system_id":"levelo_inurba_marseille","lat":43.281524,"lon":5.351267,"is_reserved":false,"is_disabled":false,"rental_uris":{"android":"levelo://app?vid=bb79989d-871e-48b8-a3e7-7a297a28b04c","ios":"levelo://app?vid=bb79989d-871e-48b8-a3e7-7a297a28b04c"},"vehicle_type_id":"4","last_reported":1760857689,"current_range_meters":16800,"station_id":"","pricing_plan_id":"cebpf4jnsgd1na2vs0mg"},{"bike_id":"5b2e9661-9fd4-4d0d-957d-eefc69cf7582","system_id":"levelo_inurba_marseille","lat":43.319163,"lon":5.367297,"is_reserved":false,"is_disabled":false,"rental_uris":{"android":"levelo://app?vid=5b2e9661-9fd4-4d0d-957d-eefc69cf7582","ios":"levelo://app?vid=5b2e9661-9fd4-4d0d-957d-eefc69cf7582"},"vehicle_type_id":"4","last_reported":1760857689,"current_range_meters":16800,"station_id":"","pricing_plan_id":"cebpf4jnsgd1na2vs0mg"},{"bike_id":"ddb2b9bc-e02a-4792-aae2-e902e747eeed","system_id":"levelo_inurba_marseille","lat":43.289416,"lon":5.396253,"is_reserved":false,"is_disabled":false,"rental_uris":{"android":"levelo://app?vid=ddb2b9bc-e02a-4792-aae2-e902e747eeed","ios":"levelo://app?vid=ddb2b9bc-e02a-4792-aae2-e902e747eeed"},"vehicle_type_id":"4","last_reported":1760857689,"current_range_meters":16800,"station_id":"ce4bh3h2rcd13ifvqdn0","pricing_plan_id":"cebpf4jnsgd1na2vs0mg"},{"bike_id":"09c5c7ea-a1e5-441e-9d28-941694561539","system_id":"levelo_inurba_marseille","lat":43.311728,"lon":5.387105,"is_reserved":false,"is_disabled":false,"rental_uris":{"android":"levelo://app?vid=09c5c7ea-a1e5-441e-9d28-941694561539","ios":"levelo://app?vid=09c5c7ea-a1e5-441e-9d28-941694561539"},"vehicle_type_id":"4","last_reported":1760857689,"current_range_meters":16800,"station_id":"ce4bgv12rcd13ifvqcp0","pricing_plan_id":"cebpf4jnsgd1na2vs0mg"},{"bike_id":"62a2917a-11f1-4065-bafc-67f0f75ed065","system_id":"levelo_inurba_marseille","lat":43.313237,"lon":5.397137,"is_reserved":false,"is_disabled":false,"rental_uris":{"android":"levelo://app?vid=62a2917a-11f1-4065-bafc-67f0f75ed065","ios":"levelo://app?vid=62a2917a-11f1-4065-bafc-67f0f75ed065"},"vehicle_type_id":"4","last_reported":1760857689,"current_range_meters":16800,"station_id":"ce4bgvp2rcd13ifvqcu0","pricing_plan_id":"cebpf4jnsgd1na2vs0mg"},{"bike_id":"4bbd6801-e86f-4670-a08c-5a08e1dabb92","system_id":"levelo_inurba_marseille","lat":43.2923,"lon":5.38091,"is_reserved":false,"is_disabled":false,"rental_uris":{"android":"levelo://app?vid=4bbd6801-e86f-4670-a08c-5a08e1dabb92","ios":"levelo://app?vid=4bbd6801-e86f-4670-a08c-5a08e1dabb92"},"vehicle_type_id":"4","last_reported":1760857689,"current_range_meters":16800,"station_id":"","pricing_plan_id":"cebpf4jnsgd1na2vs0mg"},{"bike_id":"28036086-9fc0-4694-90bd-3af15535beb3","system_id":"levelo_inurba_marseille","lat":43.29835,"lon":5.36266,"is_reserved":false,"is_disabled":true,"rental_uris":{"android":"levelo://app?vid=28036086-9fc0-4694-90bd-3af15535beb3","ios":"levelo://app?vid=28036086-9fc0-4694-90bd-3af15535beb3"},"vehicle_type_id":"4","last_reported":1760857689,"current_range_meters":16800,"station_id":"ce4bgpp2rcd13ifvqc3g","pricing_plan_id":"cebpf4jnsgd1na2vs0mg"},{"bike_id":"c1797d73-9a57-4ace-9913-3d5292c80a81","system_id":"levelo_inurba_marseille","lat":43.30315,"lon":5.404407,"is_reserved":false,"is_disabled":false,"rental_uris":{"android":"levelo://app?vid=c1797d73-9a57-4ace-9913-3d5292c80a81","ios":"levelo://app?vid=c1797d73-9a57-4ace-9913-3d5292c80a81"},"vehicle_type_id":"4","last_reported":1760857689,"current_range_meters":16800,"station_id":"ce4bh012rcd13ifvqd10","pricing_plan_id":"cebpf4jnsgd1na2vs0mg"},{"bike_id":"8c370b85-7300-4952-bf71-08899ecc1fd7","system_id":"levelo_inurba_marseille","lat":43.310803,"lon":5.383602,"is_reserved":false,"is_disabled":false,"rental_uris":{"android":"levelo://app?vid=8c370b85-7300-4952-bf71-08899ecc1fd7","ios":"levelo://app?vid=8c370b85-7300-4952-bf71-08899ecc1fd7"},"vehicle_type_id":"4","last_reported":1760857689,"current_range_meters":16800,"station_id":"ce4bgv92rcd13ifvqcr0","pricing_plan_id":"cebpf4jnsgd1na2vs0mg"},{"bike_id":"da22a6bb-ece8-4168-87fa-39fdca8adc0a","system_id":"levelo_inurba_marseille","lat":43.248064,"lon":5.374574,"is_reserved":false,"is_disabled":false,"rental_uris":{"android":"levelo://app?vid=da22a6bb-ece8-4168-87fa-39fdca8adc0a","ios":"levelo://app?vid=da22a6bb-ece8-4168-87fa-39fdca8adc0a"},"vehicle_type_id":"4","last_reported":1760857689,"current_range_meters":16800,"station_id":"ce4bhgh2rcd13ifvqfb0","pricing_plan_id":"cebpf4jnsgd1na2vs0mg"},{"bike_id":"311d5b6a-2a78-40fa-b6b0-f5fc46e36810","system_id":"levelo_inurba_marseille","lat":43.28838,"lon":5.35842,"is_reserved":false,"is_disabled":false,"rental_uris":{"android":"levelo://app?vid=311d5b6a-2a78-40fa-b6b0-f5fc46e36810","ios":"levelo://app?vid=311d5b6a-2a78-40fa-b6b0-f5fc46e36810"},"vehicle_type_id":"4","last_reported":1760857689,"current_range_meters":17200,"station_id":"ce4bhb12rcd13ifvqem0","pricing_plan_id":"cebpf4jnsgd1na2vs0mg"},{"bike_id":"0efdc4b6-faae-410e-a01e-42fe021ab326","system_id":"levelo_inurba_marseille","lat":43.29196,"lon":5.39315,"is_reserved":false,"is_disabled":false,"rental_uris":{"android":"levelo://app?vid=0efdc4b6-faae-410e-a01e-42fe021ab326","ios":"levelo://app?vid=0efdc4b6-faae-410e-a01e-42fe021ab326"},"vehicle_type_id":"4","last_reported":1760857689,"current_range_meters":17200,"station_id":"ce4bh192rcd13ifvqdd0","pricing_plan_id":"cebpf4jnsgd1na2vs0mg"},{"bike_id":"eb0f8260-6f11-4a1f-b19a-91d75f623be2","system_id":"levelo_inurba_marseille","lat":43.23152,"lon":5.43708,"is_reserved":false,"is_disabled":false,"rental_uris":{"android":"levelo://app?vid=eb0f8260-6f11-4a1f-b19a-91d75f623be2","ios":"levelo://app?vid=eb0f8260-6f11-4a1f-b19a-91d75f623be2"},"vehicle_type_id":"4","last_reported":1760857689,"current_range_meters":17200,"station_id":"ce4bhmp2rcd13ifvqgog","pricing_plan_id":"cebpf4jnsgd1na2vs0mg"},{"bike_id":"605c8a23-7906-4fb2-9c0a-c6590810f681","system_id":"levelo_inurba_marseille","lat":43.2417,"lon":5.36401,"is_reserved":false,"is_disabled":false,"rental_uris":{"android":"levelo://app?vid=605c8a23-7906-4fb2-9c0a-c6590810f681","ios":"levelo://app?vid=605c8a23-7906-4fb2-9c0a-c6590810f681"},"vehicle_type_id":"4","last_reported":1760857689,"current_range_meters":17200,"station_id":"cpo36qri1sfpv3e86is0","pricing_plan_id":"cebpf4jnsgd1na2vs0mg"},{"bike_id":"e7805540-5200-429d-9c2a-e278465a6b97","system_id":"levelo_inurba_marseille","lat":43.24388,"lon":5.37061,"is_reserved":false,"is_disabled":false,"rental_uris":{"android":"levelo://app?vid=e7805540-5200-429d-9c2a-e278465a6b97","ios":"levelo://app?vid=e7805540-5200-429d-9c2a-e278465a6b97"},"vehicle_type_id":"4","last_reported":1760857689,"current_range_meters":17200,"station_id":"ce4bhhh2rcd13ifvqfk0","pricing_plan_id":"cebpf4jnsgd1na2vs0mg"},{"bike_id":"c530e950-50a8-4b2f-81e6-a5f7e6f752e8","system_id":"levelo_inurba_marseille","lat":43.33759,"lon":5.37473,"is_reserved":false,"is_disabled":false,"rental_uris":{"android":"levelo://app?vid=c530e950-50a8-4b2f-81e6-a5f7e6f752e8","ios":"levelo://app?vid=c530e950-50a8-4b2f-81e6-a5f7e6f752e8"},"vehicle_type_id":"4","last_reported":1760857689,"current_range_meters":17600,"station_id":"","pricing_plan_id":"cebpf4jnsgd1na2vs0mg"},{"bike_id":"14b61eee-06ce-44bc-a99e-8bf0c35b7935","system_id":"levelo_inurba_marseille","lat":43.251148,"lon":5.403109,"is_reserved":false,"is_disabled":false,"rental_uris":{"android":"levelo://app?vid=14b61eee-06ce-44bc-a99e-8bf0c35b7935","ios":"levelo://app?vid=14b61eee-06ce-44bc-a99e-8bf0c35b7935"},"vehicle_type_id":"4","last_reported":1760857689,"current_range_meters":17600,"station_id":"ce4bhlh2rcd13ifvqgig","pricing_plan_id":"cebpf4jnsgd1na2vs0mg"},{"bike_id":"88979df4-35e0-4f2c-b685-7ddc1720b501","system_id":"levelo_inurba_marseille","lat":43.26529,"lon":5.39061,"is_reserved":false,"is_disabled":false,"rental_uris":{"android":"levelo://app?vid=88979df4-35e0-4f2c-b685-7ddc1720b501","ios":"levelo://app?vid=88979df4-35e0-4f2c-b685-7ddc1720b501"},"vehicle_type_id":"4","last_reported":1760857689,"current_range_meters":17600,"station_id":"ce4bhe12rcd13ifvqf30","pricing_plan_id":"cebpf4jnsgd1na2vs0mg"},{"bike_id":"dbcc6ca7-1fa1-4400-a514-28fb692c9f71","system_id":"levelo_inurba_marseille","lat":43.245681,"lon":5.42271,"is_reserved":false,"is_disabled":false,"rental_uris":{"android":"levelo://app?vid=dbcc6ca7-1fa1-4400-a514-28fb692c9f71","ios":"levelo://app?vid=dbcc6ca7-1fa1-4400-a514-28fb692c9f71"},"vehicle_type_id":"4","last_reported":1760857689,"current_range_meters":17600,"station_id":"ce4bhmp2rcd13ifvqgog","pricing_plan_id":"cebpf4jnsgd1na2vs0mg"},{"bike_id":"9aa893ee-1807-4639-a1a7-1714b8f2dc9d","system_id":"levelo_inurba_marseille","lat":43.27504,"lon":5.42435,"is_reserved":false,"is_disabled":false,"rental_uris":{"android":"levelo://app?vid=9aa893ee-1807-4639-a1a7-1714b8f2dc9d","ios":"levelo://app?vid=9aa893ee-1807-4639-a1a7-1714b8f2dc9d"},"vehicle_type_id":"4","last_reported":1760857689,"current_range_meters":18000,"station_id":"ce4bhn92rcd13ifvqgrg","pricing_plan_id":"cebpf4jnsgd1na2vs0mg"},{"bike_id":"b7ddea43-28dc-4fbe-a7ed-b00d6badff2a","system_id":"levelo_inurba_marseille","lat":43.287842,"lon":5.380541,"is_reserved":false,"is_disabled":true,"rental_uris":{"android":"levelo://app?vid=b7ddea43-28dc-4fbe-a7ed-b00d6badff2a","ios":"levelo://app?vid=b7ddea43-28dc-4fbe-a7ed-b00d6badff2a"},"vehicle_type_id":"4","last_reported":1760857689,"current_range_meters":18000,"station_id":"","pricing_plan_id":"cebpf4jnsgd1na2vs0mg"},{"bike_id":"443fc992-bd8f-4e48-89c4-ef1795929a1e","system_id":"levelo_inurba_marseille","lat":43.31403,"lon":5.38485,"is_reserved":false,"is_disabled":false,"rental_uris":{"android":"levelo://app?vid=443fc992-bd8f-4e48-89c4-ef1795929a1e","ios":"levelo://app?vid=443fc992-bd8f-4e48-89c4-ef1795929a1e"},"vehicle_type_id":"4","last_reported":1760857689,"current_range_meters":18000,"station_id":"","pricing_plan_id":"cebpf4jnsgd1na2vs0mg"},{"bike_id":"8c67b8bd-506a-480f-b2d8-697c005d7ef8","system_id":"levelo_inurba_marseille","lat":43.29693,"lon":5.36612,"is_reserved":false,"is_disabled":false,"rental_uris":{"android":"levelo://app?vid=8c67b8bd-506a-480f-b2d8-697c005d7ef8","ios":"levelo://app?vid=8c67b8bd-506a-480f-b2d8-697c005d7ef8"},"vehicle_type_id":"4","last_reported":1760857689,"current_range_meters":18000,"station_id":"ce4bgn12rcd13ifvqbt0","pricing_plan_id":"cebpf4jnsgd1na2vs0mg"},{"bike_id":"47ad36fc-1d6b-4faa-b0d4-aea7afc16122","system_id":"levelo_inurba_marseille","lat":43.30934,"lon":5.40148,"is_reserved":false,"is_disabled":false,"rental_uris":{"android":"levelo://app?vid=47ad36fc-1d6b-4faa-b0d4-aea7afc16122","ios":"levelo://app?vid=47ad36fc-1d6b-4faa-b0d4-aea7afc16122"},"vehicle_type_id":"4","last_reported":1760857689,"current_range_meters":18000,"station_id":"ce4bgvp2rcd13ifvqct0","pricing_plan_id":"cebpf4jnsgd1na2vs0mg"},{"bike_id":"e343fae2-abdd-419f-add3-4252cf1a7c5a","system_id":"levelo_inurba_marseille","lat":43.30482,"lon":5.40078,"is_reserved":false,"is_disabled":false,"rental_uris":{"android":"levelo://app?vid=e343fae2-abdd-419f-add3-4252cf1a7c5a","ios":"levelo://app?vid=e343fae2-abdd-419f-add3-4252cf1a7c5a"},"vehicle_type_id":"4","last_reported":1760857689,"current_range_meters":18000,"station_id":"","pricing_plan_id":"cebpf4jnsgd1na2vs0mg"},{"bike_id":"27b5581b-44ff-4718-b758-98465db337b8","system_id":"levelo_inurba_marseille","lat":43.308806,"lon":5.396517,"is_reserved":false,"is_disabled":false,"rental_uris":{"android":"levelo://app?vid=27b5581b-44ff-4718-b758-98465db337b8","ios":"levelo://app?vid=27b5581b-44ff-4718-b758-98465db337b8"},"vehicle_type_id":"4","last_reported":1760857689,"current_range_meters":18000,"station_id":"ce4bh012rcd13ifvqcv0","pricing_plan_id":"cebpf4jnsgd1na2vs0mg"},{"bike_id":"7c9134d6-f24d-43fc-b5dd-c553a4300356","system_id":"levelo_inurba_marseille","lat":43.28613,"lon":5.37079,"is_reserved":false,"is_disabled":true,"rental_uris":{"android":"levelo://app?vid=7c9134d6-f24d-43fc-b5dd-c553a4300356","ios":"levelo://app?vid=7c9134d6-f24d-43fc-b5dd-c553a4300356"},"vehicle_type_id":"4","last_reported":1760857689,"current_range_meters":18000,"station_id":"ce4bht12rcd13ifvqi60","pricing_plan_id":"cebpf4jnsgd1na2vs0mg"},{"bike_id":"0000b6d3-e83a-4149-90d5-c0999f573ff8","system_id":"levelo_inurba_marseille","lat":43.32107,"lon":5.36779,"is_reserved":false,"is_disabled":false,"rental_uris":{"android":"levelo://app?vid=0000b6d3-e83a-4149-90d5-c0999f573ff8","ios":"levelo://app?vid=0000b6d3-e83a-4149-90d5-c0999f573ff8"},"vehicle_type_id":"4","last_reported":1760857689,"current_range_meters":18800,"station_id":"ce4bhrh2rcd13ifvqhug","pricing_plan_id":"cebpf4jnsgd1na2vs0mg"},{"bike_id":"bb211116-29a7-4e48-93ed-d4ab1a1c4665","system_id":"levelo_inurba_marseille","lat":43.259377,"lon":5.40891,"is_reserved":false,"is_disabled":false,"rental_uris":{"android":"levelo://app?vid=bb211116-29a7-4e48-93ed-d4ab1a1c4665","ios":"levelo://app?vid=bb211116-29a7-4e48-93ed-d4ab1a1c4665"},"vehicle_type_id":"4","last_reported":1760857689,"current_range_meters":18800,"station_id":"ce4bhm92rcd13ifvqglg","pricing_plan_id":"cebpf4jnsgd1na2vs0mg"},{"bike_id":"348ab8cc-81cc-4702-b12d-7027572c1935","system_id":"levelo_inurba_marseille","lat":43.27373,"lon":5.3625,"is_reserved":false,"is_disabled":true,"rental_uris":{"android":"levelo://app?vid=348ab8cc-81cc-4702-b12d-7027572c1935","ios":"levelo://app?vid=348ab8cc-81cc-4702-b12d-7027572c1935"},"vehicle_type_id":"4","last_reported":1760857689,"current_range_meters":18800,"station_id":"ce4bhbh2rcd13ifvqeo0","pricing_plan_id":"cebpf4jnsgd1na2vs0mg"},{"bike_id":"8f5b4e3f-d0c8-438b-955e-3fd6c08bc9d3","system_id":"levelo_inurba_marseille","lat":43.24173,"lon":5.36391,"is_reserved":false,"is_disabled":false,"rental_uris":{"android":"levelo://app?vid=8f5b4e3f-d0c8-438b-955e-3fd6c08bc9d3","ios":"levelo://app?vid=8f5b4e3f-d0c8-438b-955e-3fd6c08bc9d3"},"vehicle_type_id":"4","last_reported":1760857689,"current_range_meters":18800,"station_id":"cpo36qri1sfpv3e86is0","pricing_plan_id":"cebpf4jnsgd1na2vs0mg"},{"bike_id":"e3ceb8f0-5e12-4ef4-a429-05541ebe2200","system_id":"levelo_inurba_marseille","lat":43.313711,"lon":5.384948,"is_reserved":false,"is_disabled":false,"rental_uris":{"android":"levelo://app?vid=e3ceb8f0-5e12-4ef4-a429-05541ebe2200","ios":"levelo://app?vid=e3ceb8f0-5e12-4ef4-a429-05541ebe2200"},"vehicle_type_id":"4","last_reported":1760857689,"current_range_meters":18800,"station_id":"ce4bgt92rcd13ifvqcf0","pricing_plan_id":"cebpf4jnsgd1na2vs0mg"},{"bike_id":"000ffae2-734f-491c-adc2-b06d24d3f805","system_id":"levelo_inurba_marseille","lat":43.29623,"lon":5.40598,"is_reserved":false,"is_disabled":false,"rental_uris":{"android":"levelo://app?vid=000ffae2-734f-491c-adc2-b06d24d3f805","ios":"levelo://app?vid=000ffae2-734f-491c-adc2-b06d24d3f805"},"vehicle_type_id":"4","last_reported":1760857689,"current_range_meters":18800,"station_id":"ce4bh0h2rcd13ifvqd60","pricing_plan_id":"cebpf4jnsgd1na2vs0mg"},{"bike_id":"df0b1ad2-effc-488f-a203-90340b7fa431","system_id":"levelo_inurba_marseille","lat":43.24061,"lon":5.37774,"is_reserved":false,"is_disabled":false,"rental_uris":{"android":"levelo://app?vid=df0b1ad2-effc-488f-a203-90340b7fa431","ios":"levelo://app?vid=df0b1ad2-effc-488f-a203-90340b7fa431"},"vehicle_type_id":"4","last_reported":1760857689,"current_range_meters":18800,"station_id":"ce4bhnp2rcd13ifvqgvg","pricing_plan_id":"cebpf4jnsgd1na2vs0mg"},{"bike_id":"78b3bdff-c8c8-4550-9ff0-18c632b07088","system_id":"levelo_inurba_marseille","lat":43.315407,"lon":5.38029,"is_reserved":false,"is_disabled":false,"rental_uris":{"android":"levelo://app?vid=78b3bdff-c8c8-4550-9ff0-18c632b07088","ios":"levelo://app?vid=78b3bdff-c8c8-4550-9ff0-18c632b07088"},"vehicle_type_id":"4","last_reported":1760857689,"current_range_meters":19200,"station_id":"ce4bhsp2rcd13ifvqi50","pricing_plan_id":"cebpf4jnsgd1na2vs0mg"},{"bike_id":"5aaf4735-cb3d-4d3c-b922-9654de2ca31c","system_id":"levelo_inurba_marseille","lat":43.281042,"lon":5.378613,"is_reserved":false,"is_disabled":false,"rental_uris":{"android":"levelo://app?vid=5aaf4735-cb3d-4d3c-b922-9654de2ca31c","ios":"levelo://app?vid=5aaf4735-cb3d-4d3c-b922-9654de2ca31c"},"vehicle_type_id":"4","last_reported":1760857689,"current_range_meters":19200,"station_id":"ce4bha12rcd13ifvqee0","pricing_plan_id":"cebpf4jnsgd1na2vs0mg"},{"bike_id":"a084b6b2-1500-4098-9b79-15baacb33e8f","system_id":"levelo_inurba_marseille","lat":43.308882,"lon":5.396503,"is_reserved":false,"is_disabled":false,"rental_uris":{"android":"levelo://app?vid=a084b6b2-1500-4098-9b79-15baacb33e8f","ios":"levelo://app?vid=a084b6b2-1500-4098-9b79-15baacb33e8f"},"vehicle_type_id":"4","last_reported":1760857689,"current_range_meters":19200,"station_id":"ce4bh012rcd13ifvqcv0","pricing_plan_id":"cebpf4jnsgd1na2vs0mg"},{"bike_id":"6e8ed827-a6f7-46f1-ad28-2f0468b71691","system_id":"levelo_inurba_marseille","lat":43.32096,"lon":5.36744,"is_reserved":false,"is_disabled":true,"rental_uris":{"android":"levelo://app?vid=6e8ed827-a6f7-46f1-ad28-2f0468b71691","ios":"levelo://app?vid=6e8ed827-a6f7-46f1-ad28-2f0468b71691"},"vehicle_type_id":"4","last_reported":1760857689,"current_range_meters":19200,"station_id":"ce4bhrh2rcd13ifvqhug","pricing_plan_id":"cebpf4jnsgd1na2vs0mg"},{"bike_id":"7aae7eeb-ada1-48a3-8415-9b13ecbae171","system_id":"levelo_inurba_marseille","lat":43.251082,"lon":5.403294,"is_reserved":false,"is_disabled":false,"rental_uris":{"android":"levelo://app?vid=7aae7eeb-ada1-48a3-8415-9b13ecbae171","ios":"levelo://app?vid=7aae7eeb-ada1-48a3-8415-9b13ecbae171"},"vehicle_type_id":"4","last_reported":1760857689,"current_range_meters":19200,"station_id":"ce4bhlh2rcd13ifvqgig","pricing_plan_id":"cebpf4jnsgd1na2vs0mg"},{"bike_id":"d06fb50d-c65b-432c-b433-e9f5248356cd","system_id":"levelo_inurba_marseille","lat":43.28999,"lon":5.35591,"is_reserved":false,"is_disabled":true,"rental_uris":{"android":"levelo://app?vid=d06fb50d-c65b-432c-b433-e9f5248356cd","ios":"levelo://app?vid=d06fb50d-c65b-432c-b433-e9f5248356cd"},"vehicle_type_id":"4","last_reported":1760857689,"current_range_meters":19200,"station_id":"ce4bhb92rcd13ifvqen0","pricing_plan_id":"cebpf4jnsgd1na2vs0mg"},{"bike_id":"66f7fe07-f70c-4306-a457-c24ce4f2f477","system_id":"levelo_inurba_marseille","lat":43.240677,"lon":5.377556,"is_reserved":false,"is_disabled":false,"rental_uris":{"android":"levelo://app?vid=66f7fe07-f70c-4306-a457-c24ce4f2f477","ios":"levelo://app?vid=66f7fe07-f70c-4306-a457-c24ce4f2f477"},"vehicle_type_id":"4","last_reported":1760857689,"current_range_meters":19600,"station_id":"ce4bhnp2rcd13ifvqgvg","pricing_plan_id":"cebpf4jnsgd1na2vs0mg"},{"bike_id":"78fe83c7-5376-41e5-afa1-483e220954a6","system_id":"levelo_inurba_marseille","lat":43.291692,"lon":5.370735,"is_reserved":false,"is_disabled":false,"rental_uris":{"android":"levelo://app?vid=78fe83c7-5376-41e5-afa1-483e220954a6","ios":"levelo://app?vid=78fe83c7-5376-41e5-afa1-483e220954a6"},"vehicle_type_id":"4","last_reported":1760857689,"current_range_meters":19600,"station_id":"","pricing_plan_id":"cebpf4jnsgd1na2vs0mg"},{"bike_id":"7b337a6b-60f1-4325-85d3-02c30c39d179","system_id":"levelo_inurba_marseille","lat":43.29187,"lon":5.39318,"is_reserved":false,"is_disabled":false,"rental_uris":{"android":"levelo://app?vid=7b337a6b-60f1-4325-85d3-02c30c39d179","ios":"levelo://app?vid=7b337a6b-60f1-4325-85d3-02c30c39d179"},"vehicle_type_id":"4","last_reported":1760857689,"current_range_meters":19600,"station_id":"ce4bh192rcd13ifvqdd0","pricing_plan_id":"cebpf4jnsgd1na2vs0mg"},{"bike_id":"d6318f9e-0184-4ff6-931a-ee0c5a28c2b7","system_id":"levelo_inurba_marseille","lat":43.23199,"lon":5.35545,"is_reserved":false,"is_disabled":false,"rental_uris":{"android":"levelo://app?vid=d6318f9e-0184-4ff6-931a-ee0c5a28c2b7","ios":"levelo://app?vid=d6318f9e-0184-4ff6-931a-ee0c5a28c2b7"},"vehicle_type_id":"4","last_reported":1760857689,"current_range_meters":19600,"station_id":"ce4bhu92rcd13ifvqi70","pricing_plan_id":"cebpf4jnsgd1na2vs0mg"},{"bike_id":"8580f859-d8f4-44fb-9c0c-da0a57d43dea","system_id":"levelo_inurba_marseille","lat":43.303268,"lon":5.404387,"is_reserved":false,"is_disabled":false,"rental_uris":{"android":"levelo://app?vid=8580f859-d8f4-44fb-9c0c-da0a57d43dea","ios":"levelo://app?vid=8580f859-d8f4-44fb-9c0c-da0a57d43dea"},"vehicle_type_id":"4","last_reported":1760857689,"current_range_meters":19600,"station_id":"ce4bh012rcd13ifvqd10","pricing_plan_id":"cebpf4jnsgd1na2vs0mg"},{"bike_id":"f6bcfd0e-b247-4a30-9443-2755b83baa73","system_id":"levelo_inurba_marseille","lat":43.281515,"lon":5.426538,"is_reserved":false,"is_disabled":false,"rental_uris":{"android":"levelo://app?vid=f6bcfd0e-b247-4a30-9443-2755b83baa73","ios":"levelo://app?vid=f6bcfd0e-b247-4a30-9443-2755b83baa73"},"vehicle_type_id":"4","last_reported":1760857689,"current_range_meters":19600,"station_id":"ce4bhnh2rcd13ifvqgug","pricing_plan_id":"cebpf4jnsgd1na2vs0mg"},{"bike_id":"e4e299d9-1b55-4ed1-bb9f-1e2a828fd41c","system_id":"levelo_inurba_marseille","lat":43.30154,"lon":5.38078,"is_reserved":false,"is_disabled":false,"rental_uris":{"android":"levelo://app?vid=e4e299d9-1b55-4ed1-bb9f-1e2a828fd41c","ios":"levelo://app?vid=e4e299d9-1b55-4ed1-bb9f-1e2a828fd41c"},"vehicle_type_id":"4","last_reported":1760857689,"current_range_meters":19600,"station_id":"ce4bgjp2rcd13ifvqbh0","pricing_plan_id":"cebpf4jnsgd1na2vs0mg"},{"bike_id":"faa3e668-6719-4125-8206-72a0a37494c0","system_id":"levelo_inurba_marseille","lat":43.26928,"lon":5.40248,"is_reserved":false,"is_disabled":true,"rental_uris":{"android":"levelo://app?vid=faa3e668-6719-4125-8206-72a0a37494c0","ios":"levelo://app?vid=faa3e668-6719-4125-8206-72a0a37494c0"},"vehicle_type_id":"4","last_reported":1760857689,"current_range_meters":19600,"station_id":"cjm6bp8fraef2m0cb0m0","pricing_plan_id":"cebpf4jnsgd1na2vs0mg"},{"bike_id":"78ed1f23-a0aa-47ea-b414-35a6bd3e9c11","system_id":"levelo_inurba_marseille","lat":43.238203,"lon":5.377746,"is_reserved":false,"is_disabled":false,"rental_uris":{"android":"levelo://app?vid=78ed1f23-a0aa-47ea-b414-35a6bd3e9c11","ios":"levelo://app?vid=78ed1f23-a0aa-47ea-b414-35a6bd3e9c11"},"vehicle_type_id":"4","last_reported":1760857689,"current_range_meters":19600,"station_id":"","pricing_plan_id":"cebpf4jnsgd1na2vs0mg"},{"bike_id":"81fee18c-da25-4715-ae44-9f4e3a7b4702","system_id":"levelo_inurba_marseille","lat":43.28405,"lon":5.3495,"is_reserved":false,"is_disabled":false,"rental_uris":{"android":"levelo://app?vid=81fee18c-da25-4715-ae44-9f4e3a7b4702","ios":"levelo://app?vid=81fee18c-da25-4715-ae44-9f4e3a7b4702"},"vehicle_type_id":"4","last_reported":1760857689,"current_range_meters":20000,"station_id":"","pricing_plan_id":"cebpf4jnsgd1na2vs0mg"},{"bike_id":"5b87a245-ba0a-4145-84ed-54302e4f634d","system_id":"levelo_inurba_marseille","lat":43.28596,"lon":5.37074,"is_reserved":false,"is_disabled":false,"rental_uris":{"android":"levelo://app?vid=5b87a245-ba0a-4145-84ed-54302e4f634d","ios":"levelo://app?vid=5b87a245-ba0a-4145-84ed-54302e4f634d"},"vehicle_type_id":"4","last_reported":1760857689,"current_range_meters":20000,"station_id":"ce4bht12rcd13ifvqi60","pricing_plan_id":"cebpf4jnsgd1na2vs0mg"},{"bike_id":"490c187a-0098-44bd-9010-902ebf6f6ea9","system_id":"levelo_inurba_marseille","lat":43.28268,"lon":5.35084,"is_reserved":false,"is_disabled":true,"rental_uris":{"android":"levelo://app?vid=490c187a-0098-44bd-9010-902ebf6f6ea9","ios":"levelo://app?vid=490c187a-0098-44bd-9010-902ebf6f6ea9"},"vehicle_type_id":"4","last_reported":1760857689,"current_range_meters":20000,"station_id":"ce4bhbp2rcd13ifvqerg","pricing_plan_id":"cebpf4jnsgd1na2vs0mg"},{"bike_id":"44def8bb-fc22-46bb-a308-b8e670ec5dfd","system_id":"levelo_inurba_marseille","lat":43.30131,"lon":5.37428,"is_reserved":false,"is_disabled":true,"rental_uris":{"android":"levelo://app?vid=44def8bb-fc22-46bb-a308-b8e670ec5dfd","ios":"levelo://app?vid=44def8bb-fc22-46bb-a308-b8e670ec5dfd"},"vehicle_type_id":"4","last_reported":1760857689,"current_range_meters":20000,"station_id":"ce4bgs92rcd13ifvqcc0","pricing_plan_id":"cebpf4jnsgd1na2vs0mg"},{"bike_id":"b6f6ba1e-5d04-4635-9340-0dad39863634","system_id":"levelo_inurba_marseille","lat":43.32353,"lon":5.36748,"is_reserved":false,"is_disabled":false,"rental_uris":{"android":"levelo://app?vid=b6f6ba1e-5d04-4635-9340-0dad39863634","ios":"levelo://app?vid=b6f6ba1e-5d04-4635-9340-0dad39863634"},"vehicle_type_id":"4","last_reported":1760857689,"current_range_meters":20000,"station_id":"ce4bhsh2rcd13ifvqi2g","pricing_plan_id":"cebpf4jnsgd1na2vs0mg"},{"bike_id":"a6e1884f-76ca-449a-9150-7e1f37794b6c","system_id":"levelo_inurba_marseille","lat":43.28931,"lon":5.36404,"is_reserved":false,"is_disabled":true,"rental_uris":{"android":"levelo://app?vid=a6e1884f-76ca-449a-9150-7e1f37794b6c","ios":"levelo://app?vid=a6e1884f-76ca-449a-9150-7e1f37794b6c"},"vehicle_type_id":"4","last_reported":1760857689,"current_range_meters":20000,"station_id":"ce4bhc92rcd13ifvqetg","pricing_plan_id":"cebpf4jnsgd1na2vs0mg"},{"bike_id":"2e1509f2-cf2c-4d97-8d95-3bbe9e5b4999","system_id":"levelo_inurba_marseille","lat":43.308889,"lon":5.371989,"is_reserved":false,"is_disabled":false,"rental_uris":{"android":"levelo://app?vid=2e1509f2-cf2c-4d97-8d95-3bbe9e5b4999","ios":"levelo://app?vid=2e1509f2-cf2c-4d97-8d95-3bbe9e5b4999"},"vehicle_type_id":"4","last_reported":1760857689,"current_range_meters":20000,"station_id":"ce4bguh2rcd13ifvqckg","pricing_plan_id":"cebpf4jnsgd1na2vs0mg"},{"bike_id":"06c84d1b-6e81-4ab2-ab43-e166647822bc","system_id":"levelo_inurba_marseille","lat":43.28939,"lon":5.36843,"is_reserved":false,"is_disabled":false,"rental_uris":{"android":"levelo://app?vid=06c84d1b-6e81-4ab2-ab43-e166647822bc","ios":"levelo://app?vid=06c84d1b-6e81-4ab2-ab43-e166647822bc"},"vehicle_type_id":"4","last_reported":1760857689,"current_range_meters":20400,"station_id":"","pricing_plan_id":"cebpf4jnsgd1na2vs0mg"},{"bike_id":"5645f280-6685-434c-ba8a-063d786f43b4","system_id":"levelo_inurba_marseille","lat":43.311772,"lon":5.387208,"is_reserved":false,"is_disabled":false,"rental_uris":{"android":"levelo://app?vid=5645f280-6685-434c-ba8a-063d786f43b4","ios":"levelo://app?vid=5645f280-6685-434c-ba8a-063d786f43b4"},"vehicle_type_id":"4","last_reported":1760857689,"current_range_meters":20400,"station_id":"ce4bgv12rcd13ifvqcp0","pricing_plan_id":"cebpf4jnsgd1na2vs0mg"},{"bike_id":"239fc625-c459-40bf-b021-41dbfe58f972","system_id":"levelo_inurba_marseille","lat":43.25329,"lon":5.42167,"is_reserved":false,"is_disabled":false,"rental_uris":{"android":"levelo://app?vid=239fc625-c459-40bf-b021-41dbfe58f972","ios":"levelo://app?vid=239fc625-c459-40bf-b021-41dbfe58f972"},"vehicle_type_id":"4","last_reported":1760857689,"current_range_meters":20400,"station_id":"st_d2m65c5bi1j21697t3ng","pricing_plan_id":"cebpf4jnsgd1na2vs0mg"},{"bike_id":"16c6b20e-8897-40ab-b69d-f40016c13179","system_id":"levelo_inurba_marseille","lat":43.3112,"lon":5.37761,"is_reserved":false,"is_disabled":false,"rental_uris":{"android":"levelo://app?vid=16c6b20e-8897-40ab-b69d-f40016c13179","ios":"levelo://app?vid=16c6b20e-8897-40ab-b69d-f40016c13179"},"vehicle_type_id":"4","last_reported":1760857689,"current_range_meters":20400,"station_id":"ce4bgt92rcd13ifvqcg0","pricing_plan_id":"cebpf4jnsgd1na2vs0mg"},{"bike_id":"c117f0b1-5fd5-4bca-b1fe-9672deb865b2","system_id":"levelo_inurba_marseille","lat":43.23155,"lon":5.43709,"is_reserved":false,"is_disabled":false,"rental_uris":{"android":"levelo://app?vid=c117f0b1-5fd5-4bca-b1fe-9672deb865b2","ios":"levelo://app?vid=c117f0b1-5fd5-4bca-b1fe-9672deb865b2"},"vehicle_type_id":"4","last_reported":1760857689,"current_range_meters":20400,"station_id":"ce4bhmp2rcd13ifvqgog","pricing_plan_id":"cebpf4jnsgd1na2vs0mg"},{"bike_id":"8758806c-a775-4e20-b8bd-1fb9bd76f1c5","system_id":"levelo_inurba_marseille","lat":43.296666,"lon":5.387036,"is_reserved":false,"is_disabled":false,"rental_uris":{"android":"levelo://app?vid=8758806c-a775-4e20-b8bd-1fb9bd76f1c5","ios":"levelo://app?vid=8758806c-a775-4e20-b8bd-1fb9bd76f1c5"},"vehicle_type_id":"4","last_reported":1760857689,"current_range_meters":20400,"station_id":"","pricing_plan_id":"cebpf4jnsgd1na2vs0mg"},{"bike_id":"e5089735-7dde-42b8-bd5e-fca739cfdcbf","system_id":"levelo_inurba_marseille","lat":43.32641,"lon":5.40991,"is_reserved":false,"is_disabled":false,"rental_uris":{"android":"levelo://app?vid=e5089735-7dde-42b8-bd5e-fca739cfdcbf","ios":"levelo://app?vid=e5089735-7dde-42b8-bd5e-fca739cfdcbf"},"vehicle_type_id":"4","last_reported":1760857689,"current_range_meters":20400,"station_id":"ce4bhpp2rcd13ifvqhgg","pricing_plan_id":"cebpf4jnsgd1na2vs0mg"},{"bike_id":"ac9e0450-c7cd-408b-9730-e6cdacee0a4d","system_id":"levelo_inurba_marseille","lat":43.251143,"lon":5.403261,"is_reserved":false,"is_disabled":false,"rental_uris":{"android":"levelo://app?vid=ac9e0450-c7cd-408b-9730-e6cdacee0a4d","ios":"levelo://app?vid=ac9e0450-c7cd-408b-9730-e6cdacee0a4d"},"vehicle_type_id":"4","last_reported":1760857689,"current_range_meters":20800,"station_id":"ce4bhlh2rcd13ifvqgig","pricing_plan_id":"cebpf4jnsgd1na2vs0mg"},{"bike_id":"2452bcdc-ba81-45a8-bd5f-223466679ec8","system_id":"levelo_inurba_marseille","lat":43.30306,"lon":5.3689,"is_reserved":false,"is_disabled":false,"rental_uris":{"android":"levelo://app?vid=2452bcdc-ba81-45a8-bd5f-223466679ec8","ios":"levelo://app?vid=2452bcdc-ba81-45a8-bd5f-223466679ec8"},"vehicle_type_id":"4","last_reported":1760857689,"current_range_meters":20800,"station_id":"ce4bgqh2rcd13ifvqc5g","pricing_plan_id":"cebpf4jnsgd1na2vs0mg"},{"bike_id":"86ff8606-13ad-4ebe-90a7-cb30c82b39dd","system_id":"levelo_inurba_marseille","lat":43.31284,"lon":5.40156,"is_reserved":false,"is_disabled":false,"rental_uris":{"android":"levelo://app?vid=86ff8606-13ad-4ebe-90a7-cb30c82b39dd","ios":"levelo://app?vid=86ff8606-13ad-4ebe-90a7-cb30c82b39dd"},"vehicle_type_id":"4","last_reported":1760857689,"current_range_meters":20800,"station_id":"ce4bh092rcd13ifvqd30","pricing_plan_id":"cebpf4jnsgd1na2vs0mg"},{"bike_id":"4a37eea3-ca04-46c2-8ea2-bfcadbf344b0","system_id":"levelo_inurba_marseille","lat":43.28782,"lon":5.36629,"is_reserved":false,"is_disabled":false,"rental_uris":{"android":"levelo://app?vid=4a37eea3-ca04-46c2-8ea2-bfcadbf344b0","ios":"levelo://app?vid=4a37eea3-ca04-46c2-8ea2-bfcadbf344b0"},"vehicle_type_id":"4","last_reported":1760857689,"current_range_meters":20800,"station_id":"","pricing_plan_id":"cebpf4jnsgd1na2vs0mg"},{"bike_id":"36e74dbc-824d-42dc-b04d-3e8bed84b913","system_id":"levelo_inurba_marseille","lat":43.30145,"lon":5.38091,"is_reserved":false,"is_disabled":false,"rental_uris":{"android":"levelo://app?vid=36e74dbc-824d-42dc-b04d-3e8bed84b913","ios":"levelo://app?vid=36e74dbc-824d-42dc-b04d-3e8bed84b913"},"vehicle_type_id":"4","last_reported":1760857689,"current_range_meters":20800,"station_id":"ce4bgjp2rcd13ifvqbh0","pricing_plan_id":"cebpf4jnsgd1na2vs0mg"},{"bike_id":"25d08ad0-0b62-4f36-9359-2f67deecc13f","system_id":"levelo_inurba_marseille","lat":43.28374,"lon":5.38623,"is_reserved":false,"is_disabled":true,"rental_uris":{"android":"levelo://app?vid=25d08ad0-0b62-4f36-9359-2f67deecc13f","ios":"levelo://app?vid=25d08ad0-0b62-4f36-9359-2f67deecc13f"},"vehicle_type_id":"4","last_reported":1760857689,"current_range_meters":20800,"station_id":"ce4bh492rcd13ifvqdvg","pricing_plan_id":"cebpf4jnsgd1na2vs0mg"},{"bike_id":"e1f879d9-a39f-4654-a4e3-2912f8dd27de","system_id":"levelo_inurba_marseille","lat":43.28435,"lon":5.35006,"is_reserved":false,"is_disabled":true,"rental_uris":{"android":"levelo://app?vid=e1f879d9-a39f-4654-a4e3-2912f8dd27de","ios":"levelo://app?vid=e1f879d9-a39f-4654-a4e3-2912f8dd27de"},"vehicle_type_id":"4","last_reported":1760857689,"current_range_meters":20800,"station_id":"ce4bhbh2rcd13ifvqepg","pricing_plan_id":"cebpf4jnsgd1na2vs0mg"},{"bike_id":"9953bb32-6d68-488a-9e42-24a31e2ab81f","system_id":"levelo_inurba_marseille","lat":43.31525,"lon":5.38034,"is_reserved":false,"is_disabled":false,"rental_uris":{"android":"levelo://app?vid=9953bb32-6d68-488a-9e42-24a31e2ab81f","ios":"levelo://app?vid=9953bb32-6d68-488a-9e42-24a31e2ab81f"},"vehicle_type_id":"4","last_reported":1760857689,"current_range_meters":20800,"station_id":"ce4bhsp2rcd13ifvqi50","pricing_plan_id":"cebpf4jnsgd1na2vs0mg"},{"bike_id":"12759272-9ae9-4531-88bf-492c68a538d1","system_id":"levelo_inurba_marseille","lat":43.30534,"lon":5.38438,"is_reserved":false,"is_disabled":true,"rental_uris":{"android":"levelo://app?vid=12759272-9ae9-4531-88bf-492c68a538d1","ios":"levelo://app?vid=12759272-9ae9-4531-88bf-492c68a538d1"},"vehicle_type_id":"4","last_reported":1760857689,"current_range_meters":20800,"station_id":"ce4bgg92rcd13ifvqb30","pricing_plan_id":"cebpf4jnsgd1na2vs0mg"},{"bike_id":"3935a1ba-e646-4edc-99e6-302593ef76d6","system_id":"levelo_inurba_marseille","lat":43.313231,"lon":5.397108,"is_reserved":false,"is_disabled":false,"rental_uris":{"android":"levelo://app?vid=3935a1ba-e646-4edc-99e6-302593ef76d6","ios":"levelo://app?vid=3935a1ba-e646-4edc-99e6-302593ef76d6"},"vehicle_type_id":"4","last_reported":1760857689,"current_range_meters":20800,"station_id":"ce4bgvp2rcd13ifvqcu0","pricing_plan_id":"cebpf4jnsgd1na2vs0mg"},{"bike_id":"50256437-f563-4e18-83ab-119789c51b86","system_id":"levelo_inurba_marseille","lat":43.31655,"lon":5.376111,"is_reserved":false,"is_disabled":false,"rental_uris":{"android":"levelo://app?vid=50256437-f563-4e18-83ab-119789c51b86","ios":"levelo://app?vid=50256437-f563-4e18-83ab-119789c51b86"},"vehicle_type_id":"4","last_reported":1760857689,"current_range_meters":21600,"station_id":"","pricing_plan_id":"cebpf4jnsgd1na2vs0mg"},{"bike_id":"fa4da7d0-9f39-4083-9ce5-f84443fcf4b0","system_id":"levelo_inurba_marseille","lat":43.28874,"lon":5.4252,"is_reserved":false,"is_disabled":false,"rental_uris":{"android":"levelo://app?vid=fa4da7d0-9f39-4083-9ce5-f84443fcf4b0","ios":"levelo://app?vid=fa4da7d0-9f39-4083-9ce5-f84443fcf4b0"},"vehicle_type_id":"4","last_reported":1760857689,"current_range_meters":21600,"station_id":"st_d3b462108ojc7389ooeg","pricing_plan_id":"cebpf4jnsgd1na2vs0mg"},