{"last_updated":1726589472,"ttl":30,"version":"2.2","data":{"bikes":[{"bike_id":"f7ac80b8-2886-48c4-9bc5-c6e996275ffb","system_id":"levelo_inurba_marseille","lat":43.28694,"lon":5.39981,"is_reserved":false,"is_disabled":false,"rental_uris":{"android":"levelo://app?vid=f7ac80b8-2886-48c4-9bc5-c6e996275ffb","ios":"levelo://app?vid=f7ac80b8-2886-48c4-9bc5-c6e996275ffb"},"vehicle_type_id":"4","last_reported":1726589481,"current_range_meters":30800,"station_id":"ce4bho92rcd13ifvqh3g","pricing_plan_id":"cebpf4jnsgd1na2vs0mg"},{"bike_id":"b8564fa2-ad2b-400b-a3aa-b8b5babc9eee","system_id":"levelo_inurba_marseille","lat":43.27495,"lon":5.4244,"is_reserved":false,"is_disabled":false,"rental_uris":{"android":"levelo://app?vid=b8564fa2-ad2b-400b-a3aa-b8b5babc9eee","ios":"levelo://app?vid=b8564fa2-ad2b-400b-a3aa-b8b5babc9eee"},"vehicle_type_id":"4","last_reported":1726589481,"current_range_meters":14400,"station_id":"ce4bhn92rcd13ifvqgrg","pricing_plan_id":"cebpf4jnsgd1na2vs0mg"},{"bike_id":"65712b9a-28c5-4e00-ab3a-ec23b0f45f3c","system_id":"levelo_inurba_marseille","lat":43.26803,"lon":5.40272,"is_reserved":false,"is_disabled":false,"rental_uris":{"android":"levelo://app?vid=65712b9a-28c5-4e00-ab3a-ec23b0f45f3c","ios":"levelo://app?vid=65712b9a-28c5-4e00-ab3a-ec23b0f45f3c"},"vehicle_type_id":"4","last_reported":1726589481,"current_range_meters":3600,"station_id":"ce501612rcd8frsf0b60","pricing_plan_id":"cebpf4jnsgd1na2vs0mg"},{"bike_id":"2debd252-2eef-42b9-9b9b-0f0b2809e814","system_id":"levelo_inurba_marseille","lat":43.31074,"lon":5.38352,"is_reserved":false,"is_disabled":false,"rental_uris":{"android":"levelo://app?vid=2debd252-2eef-42b9-9b9b-0f0b2809e814","ios":"levelo://app?vid=2debd252-2eef-42b9-9b9b-0f0b2809e814"},"vehicle_type_id":"4","last_reported":1726589481,"current_range_meters":30800,"station_id":"ce4bgv92rcd13ifvqcr0","pricing_plan_id":"cebpf4jnsgd1na2vs0mg"},{"bike_id":"2ce4fea1-3618-45de-b491-8deecb51eb65","system_id":"levelo_inurba_marseille","lat":43.275665,"lon":5.384106,"is_reserved":false,"is_disabled":false,"rental_uris":{"android":"levelo://app?vid=2ce4fea1-3618-45de-b491-8deecb51eb65","ios":"levelo://app?vid=2ce4fea1-3618-45de-b491-8deecb51eb65"},"vehicle_type_id":"4","last_reported":1726589481,"current_range_meters":22800,"station_id":"ce4bhh92rcd13ifvqfi0","pricing_plan_id":"cebpf4jnsgd1na2vs0mg"},{"bike_id":"6c61786e-869d-4144-bd52-53339e0c7471","system_id":"levelo_inurba_marseille","lat":43.30744,"lon":5.40063,"is_reserved":false,"is_disabled":false,"rental_uris":{"android":"levelo://app?vid=6c61786e-869d-4144-bd52-53339e0c7471","ios":"levelo://app?vid=6c61786e-869d-4144-bd52-53339e0c7471"},"vehicle_type_id":"4","last_reported":1726589481,"current_range_meters":17200,"station_id":"ce4bh0h2rcd13ifvqd50","pricing_plan_id":"cebpf4jnsgd1na2vs0mg"},{"bike_id":"43176770-eaee-4996-86c7-d408161e4ce6","system_id":"levelo_inurba_marseille","lat":43.29897,"lon":5.43658,"is_reserved":false,"is_disabled":false,"rental_uris":{"android":"levelo://app?vid=43176770-eaee-4996-86c7-d408161e4ce6","ios":"levelo://app?vid=43176770-eaee-4996-86c7-d408161e4ce6"},"vehicle_type_id":"4","last_reported":1726589481,"current_range_meters":4800,"station_id":"ce4bhpp2rcd13ifvqhfg","pricing_plan_id":"cebpf4jnsgd1na2vs0mg"},{"bike_id":"98dbbabc-9f8d-44e6-86dd-2ae0464166df","system_id":"levelo_inurba_marseille","lat":43.29974,"lon":5.3849,"is_reserved":false,"is_disabled":false,"rental_uris":{"android":"levelo://app?vid=98dbbabc-9f8d-44e6-86dd-2ae0464166df","ios":"levelo://app?vid=98dbbabc-9f8d-44e6-86dd-2ae0464166df"},"vehicle_type_id":"4","last_reported":1726589481,"current_range_meters":6800,"station_id":"ce4bgvp2rcd13ifvqcu0","pricing_plan_id":"cebpf4jnsgd1na2vs0mg"},{"bike_id":"7b2f97db-eeab-498c-8f29-9de35d358bfe","system_id":"levelo_inurba_marseille","lat":43.26546,"lon":5.37292,"is_reserved":false,"is_disabled":false,"rental_uris":{"android":"levelo://app?vid=7b2f97db-eeab-498c-8f29-9de35d358bfe","ios":"levelo://app?vid=7b2f97db-eeab-498c-8f29-9de35d358bfe"},"vehicle_type_id":"4","last_reported":1726589481,"current_range_meters":30400,"station_id":"ce4bhg12rcd13ifvqf70","pricing_plan_id":"cebpf4jnsgd1na2vs0mg"},{"bike_id":"7242170e-59ed-4ff8-9bd1-442c5b9f4d28","system_id":"levelo_inurba_marseille","lat":43.25494,"lon":5.37653,"is_reserved":false,"is_disabled":false,"rental_uris":{"android":"levelo://app?vid=7242170e-59ed-4ff8-9bd1-442c5b9f4d28","ios":"levelo://app?vid=7242170e-59ed-4ff8-9bd1-442c5b9f4d28"},"vehicle_type_id":"4","last_reported":1726589481,"current_range_meters":29600,"station_id":"ce4bhh12rcd13ifvqff0","pricing_plan_id":"cebpf4jnsgd1na2vs0mg"},{"bike_id":"017ad941-2bc7-4c23-aa10-a9af1a423d28","system_id":"levelo_inurba_marseille","lat":43.33026,"lon":5.39031,"is_reserved":false,"is_disabled":false,"rental_uris":{"android":"levelo://app?vid=017ad941-2bc7-4c23-aa10-a9af1a423d28","ios":"levelo://app?vid=017ad941-2bc7-4c23-aa10-a9af1a423d28"},"vehicle_type_id":"4","last_reported":1726589481,"current_range_meters":15200,"station_id":"ce4bhr92rcd13ifvqhrg","pricing_plan_id":"cebpf4jnsgd1na2vs0mg"},{"bike_id":"8ee5198f-f2e6-42b0-9222-7b0c644ae14e","system_id":"levelo_inurba_marseille","lat":43.31085,"lon":5.42433,"is_reserved":false,"is_disabled":false,"rental_uris":{"android":"levelo://app?vid=8ee5198f-f2e6-42b0-9222-7b0c644ae14e","ios":"levelo://app?vid=8ee5198f-f2e6-42b0-9222-7b0c644ae14e"},"vehicle_type_id":"4","last_reported":1726589481,"current_range_meters":38800,"station_id":"ce4bhp92rcd13ifvqhag","pricing_plan_id":"cebpf4jnsgd1na2vs0mg"},{"bike_id":"5a567a26-d9cf-4db5-9a45-0cc60399f6f1","system_id":"levelo_inurba_marseille","lat":43.30304,"lon":5.368932,"is_reserved":false,"is_disabled":false,"rental_uris":{"android":"levelo://app?vid=5a567a26-d9cf-4db5-9a45-0cc60399f6f1","ios":"levelo://app?vid=5a567a26-d9cf-4db5-9a45-0cc60399f6f1"},"vehicle_type_id":"4","last_reported":1726589481,"current_range_meters":30400,"station_id":"ce4bgqh2rcd13ifvqc5g","pricing_plan_id":"cebpf4jnsgd1na2vs0mg"},{"bike_id":"9cff9911-504f-4744-80c5-f88d829d05f3","system_id":"levelo_inurba_marseille","lat":43.29265,"lon":5.36851,"is_reserved":false,"is_disabled":false,"rental_uris":{"android":"levelo://app?vid=9cff9911-504f-4744-80c5-f88d829d05f3","ios":"levelo://app?vid=9cff9911-504f-4744-80c5-f88d829d05f3"},"vehicle_type_id":"4","last_reported":1726589481,"current_range_meters":18800,"station_id":"ce4bhbp2rcd13ifvqesg","pricing_plan_id":"cebpf4jnsgd1na2vs0mg"},{"bike_id":"3053fbf6-e009-4940-b9f4-41dcbc41a7f8","system_id":"levelo_inurba_marseille","lat":43.295301,"lon":5.390376,"is_reserved":false,"is_disabled":false,"rental_uris":{"android":"levelo://app?vid=3053fbf6-e009-4940-b9f4-41dcbc41a7f8","ios":"levelo://app?vid=3053fbf6-e009-4940-b9f4-41dcbc41a7f8"},"vehicle_type_id":"4","last_reported":1726589481,"current_range_meters":40000,"station_id":"ce4bh3p2rcd13ifvqdp0","pricing_plan_id":"cebpf4jnsgd1na2vs0mg"},{"bike_id":"d2465314-c95c-48a7-be9d-3c09c3f94707","system_id":"levelo_inurba_marseille","lat":43.30179,"lon":5.36603,"is_reserved":false,"is_disabled":false,"rental_uris":{"android":"levelo://app?vid=d2465314-c95c-48a7-be9d-3c09c3f94707","ios":"levelo://app?vid=d2465314-c95c-48a7-be9d-3c09c3f94707"},"vehicle_type_id":"4","last_reported":1726589481,"current_range_meters":7200,"station_id":"ce4bgrh2rcd13ifvqc8g","pricing_plan_id":"cebpf4jnsgd1na2vs0mg"},{"bike_id":"74dba5b3-84aa-40c4-9205-da6b39a25448","system_id":"levelo_inurba_marseille","lat":43.28931,"lon":5.384,"is_reserved":false,"is_disabled":false,"rental_uris":{"android":"levelo://app?vid=74dba5b3-84aa-40c4-9205-da6b39a25448","ios":"levelo://app?vid=74dba5b3-84aa-40c4-9205-da6b39a25448"},"vehicle_type_id":"4","last_reported":1726589481,"current_range_meters":18000,"station_id":"ce4bh612rcd13ifvqe6g","pricing_plan_id":"cebpf4jnsgd1na2vs0mg"},{"bike_id":"76babcba-70f8-4a96-a055-7f2c0711d67a","system_id":"levelo_inurba_marseille","lat":43.292655,"lon":5.368483,"is_reserved":false,"is_disabled":false,"rental_uris":{"android":"levelo://app?vid=76babcba-70f8-4a96-a055-7f2c0711d67a","ios":"levelo://app?vid=76babcba-70f8-4a96-a055-7f2c0711d67a"},"vehicle_type_id":"4","last_reported":1726589481,"current_range_meters":8400,"station_id":"ce4bhbp2rcd13ifvqesg","pricing_plan_id":"cebpf4jnsgd1na2vs0mg"},{"bike_id":"46e339a4-271c-47a9-beb6-699e198dd785","system_id":"levelo_inurba_marseille","lat":43.3053,"lon":5.38422,"is_reserved":false,"is_disabled":false,"rental_uris":{"android":"levelo://app?vid=46e339a4-271c-47a9-beb6-699e198dd785","ios":"levelo://app?vid=46e339a4-271c-47a9-beb6-699e198dd785"},"vehicle_type_id":"4","last_reported":1726589481,"current_range_meters":13600,"station_id":"ce4bgg92rcd13ifvqb30","pricing_plan_id":"cebpf4jnsgd1na2vs0mg"},{"bike_id":"add46327-23bc-4055-bbe1-314cfc8e3709","system_id":"levelo_inurba_marseille","lat":43.23198,"lon":5.35555,"is_reserved":false,"is_disabled":false,"rental_uris":{"android":"levelo://app?vid=add46327-23bc-4055-bbe1-314cfc8e3709","ios":"levelo://app?vid=add46327-23bc-4055-bbe1-314cfc8e3709"},"vehicle_type_id":"4","last_reported":1726589481,"current_range_meters":5600,"station_id":"ce4bhu92rcd13ifvqi70","pricing_plan_id":"cebpf4jnsgd1na2vs0mg"},{"bike_id":"dc3b39be-23ef-4d9b-9885-b732ca6ed588","system_id":"levelo_inurba_marseille","lat":43.312902,"lon":5.39649,"is_reserved":false,"is_disabled":false,"rental_uris":{"android":"levelo://app?vid=dc3b39be-23ef-4d9b-9885-b732ca6ed588","ios":"levelo://app?vid=dc3b39be-23ef-4d9b-9885-b732ca6ed588"},"vehicle_type_id":"4","last_reported":1726589481,"current_range_meters":38800,"station_id":"ce4bgip2rcd13ifvqbb0","pricing_plan_id":"cebpf4jnsgd1na2vs0mg"},{"bike_id":"36587967-1e79-47c3-ba21-dd6bfe64ec87","system_id":"levelo_inurba_marseille","lat":43.32361,"lon":5.38882,"is_reserved":false,"is_disabled":false,"rental_uris":{"android":"levelo://app?vid=36587967-1e79-47c3-ba21-dd6bfe64ec87","ios":"levelo://app?vid=36587967-1e79-47c3-ba21-dd6bfe64ec87"},"vehicle_type_id":"4","last_reported":1726589481,"current_range_meters":15200,"station_id":"ce4bhqp2rcd13ifvqhog","pricing_plan_id":"cebpf4jnsgd1na2vs0mg"},{"bike_id":"ca813a34-26a3-4c75-a66e-cbb7d66a0e30","system_id":"levelo_inurba_marseille","lat":43.31526,"lon":5.3804,"is_reserved":false,"is_disabled":false,"rental_uris":{"android":"levelo://app?vid=ca813a34-26a3-4c75-a66e-cbb7d66a0e30","ios":"levelo://app?vid=ca813a34-26a3-4c75-a66e-cbb7d66a0e30"},"vehicle_type_id":"4","last_reported":1726589481,"current_range_meters":19600,"station_id":"ce4bhsp2rcd13ifvqi50","pricing_plan_id":"cebpf4jnsgd1na2vs0mg"},{"bike_id":"a8e6034b-13c6-4af1-8fb1-69b40120fc55","system_id":"levelo_inurba_marseille","lat":43.29293,"lon":5.37464,"is_reserved":false,"is_disabled":false,"rental_uris":{"android":"levelo://app?vid=a8e6034b-13c6-4af1-8fb1-69b40120fc55","ios":"levelo://app?vid=a8e6034b-13c6-4af1-8fb1-69b40120fc55"},"vehicle_type_id":"4","last_reported":1726589481,"current_range_meters":4400,"station_id":"ce4bgi12rcd13ifvqb70","pricing_plan_id":"cebpf4jnsgd1na2vs0mg"},{"bike_id":"ecef04d1-6574-41d2-9741-989d31627e04","system_id":"levelo_inurba_marseille","lat":43.31323,"lon":5.39692,"is_reserved":false,"is_disabled":false,"rental_uris":{"android":"levelo://app?vid=ecef04d1-6574-41d2-9741-989d31627e04","ios":"levelo://app?vid=ecef04d1-6574-41d2-9741-989d31627e04"},"vehicle_type_id":"4","last_reported":1726589481,"current_range_meters":36400,"station_id":"ce4bgvp2rcd13ifvqcu0","pricing_plan_id":"cebpf4jnsgd1na2vs0mg"},{"bike_id":"36ff1673-e996-4918-8958-9ffc564ae753","system_id":"levelo_inurba_marseille","lat":43.29251,"lon":5.40916,"is_reserved":false,"is_disabled":false,"rental_uris":{"android":"levelo://app?vid=36ff1673-e996-4918-8958-9ffc564ae753","ios":"levelo://app?vid=36ff1673-e996-4918-8958-9ffc564ae753"},"vehicle_type_id":"4","last_reported":1726589481,"current_range_meters":32000,"station_id":"ce4bh192rcd13ifvqdc0","pricing_plan_id":"cebpf4jnsgd1na2vs0mg"},{"bike_id":"3b5bc347-7dd2-4890-bc41-73d7f355d862","system_id":"levelo_inurba_marseille","lat":43.29221,"lon":5.36042,"is_reserved":false,"is_disabled":false,"rental_uris":{"android":"levelo://app?vid=3b5bc347-7dd2-4890-bc41-73d7f355d862","ios":"levelo://app?vid=3b5bc347-7dd2-4890-bc41-73d7f355d862"},"vehicle_type_id":"4","last_reported":1726589481,"current_range_meters":24800,"station_id":"ce4bhbh2rcd13ifvqeqg","pricing_plan_id":"cebpf4jnsgd1na2vs0mg"},{"bike_id":"936796dd-46ba-438d-8c77-a86cb4660e61","system_id":"levelo_inurba_marseille","lat":43.309509,"lon":5.390252,"is_reserved":false,"is_disabled":false,"rental_uris":{"android":"levelo://app?vid=936796dd-46ba-438d-8c77-a86cb4660e61","ios":"levelo://app?vid=936796dd-46ba-438d-8c77-a86cb4660e61"},"vehicle_type_id":"4","last_reported":1726589481,"current_range_meters":36800,"station_id":"ce4bgup2rcd13ifvqco0","pricing_plan_id":"cebpf4jnsgd1na2vs0mg"},{"bike_id":"6c4f60b3-6d95-4818-927d-540934fc21f4","system_id":"levelo_inurba_marseille","lat":43.28705,"lon":5.37386,"is_reserved":false,"is_disabled":false,"rental_uris":{"android":"levelo://app?vid=6c4f60b3-6d95-4818-927d-540934fc21f4","ios":"levelo://app?vid=6c4f60b3-6d95-4818-927d-540934fc21f4"},"vehicle_type_id":"4","last_reported":1726589481,"current_range_meters":30800,"station_id":"ce4bh3p2rcd13ifvqdq0","pricing_plan_id":"cebpf4jnsgd1na2vs0mg"},{"bike_id":"237de3d6-8297-4d7b-8af2-7b2715687bf9","system_id":"levelo_inurba_marseille","lat":43.29795,"lon":5.40401,"is_reserved":false,"is_disabled":false,"rental_uris":{"android":"levelo://app?vid=237de3d6-8297-4d7b-8af2-7b2715687bf9","ios":"levelo://app?vid=237de3d6-8297-4d7b-8af2-7b2715687bf9"},"vehicle_type_id":"4","last_reported":1726589481,"current_range_meters":400,"station_id":"ce4bh112rcd13ifvqd90","pricing_plan_id":"cebpf4jnsgd1na2vs0mg"},{"bike_id":"2a5808e5-1612-4dc1-a62b-b9c71459256c","system_id":"levelo_inurba_marseille","lat":43.34084,"lon":5.39112,"is_reserved":false,"is_disabled":false,"rental_uris":{"android":"levelo://app?vid=2a5808e5-1612-4dc1-a62b-b9c71459256c","ios":"levelo://app?vid=2a5808e5-1612-4dc1-a62b-b9c71459256c"},"vehicle_type_id":"4","last_reported":1726589481,"current_range_meters":9600,"station_id":"","pricing_plan_id":"cebpf4jnsgd1na2vs0mg"},{"bike_id":"9def4d63-7cec-4ef3-bac5-883bf42519e2","system_id":"levelo_inurba_marseille","lat":43.28459,"lon":5.35895,"is_reserved":false,"is_disabled":false,"rental_uris":{"android":"levelo://app?vid=9def4d63-7cec-4ef3-bac5-883bf42519e2","ios":"levelo://app?vid=9def4d63-7cec-4ef3-bac5-883bf42519e2"},"vehicle_type_id":"4","last_reported":1726589481,"current_range_meters":16800,"station_id":"ce4bhah2rcd13ifvqei0","pricing_plan_id":"cebpf4jnsgd1na2vs0mg"},{"bike_id":"718a6302-83d8-4dc4-afc1-9a1e92275292","system_id":"levelo_inurba_marseille","lat":43.3155,"lon":5.38033,"is_reserved":false,"is_disabled":false,"rental_uris":{"android":"levelo://app?vid=718a6302-83d8-4dc4-afc1-9a1e92275292","ios":"levelo://app?vid=718a6302-83d8-4dc4-afc1-9a1e92275292"},"vehicle_type_id":"4","last_reported":1726589481,"current_range_meters":4800,"station_id":"ce4bhsp2rcd13ifvqi50","pricing_plan_id":"cebpf4jnsgd1na2vs0mg"},{"bike_id":"8e348505-df72-410a-93d0-1c9770028c82","system_id":"levelo_inurba_marseille","lat":43.30796,"lon":5.43521,"is_reserved":false,"is_disabled":false,"rental_uris":{"android":"levelo://app?vid=8e348505-df72-410a-93d0-1c9770028c82","ios":"levelo://app?vid=8e348505-df72-410a-93d0-1c9770028c82"},"vehicle_type_id":"4","last_reported":1726589481,"current_range_meters":30400,"station_id":"ce4bhph2rcd13ifvqheg","pricing_plan_id":"cebpf4jnsgd1na2vs0mg"},{"bike_id":"7ce4e271-f188-4c54-b407-82dd8cc5d692","system_id":"levelo_inurba_marseille","lat":43.30538,"lon":5.36531,"is_reserved":false,"is_disabled":false,"rental_uris":{"android":"levelo://app?vid=7ce4e271-f188-4c54-b407-82dd8cc5d692","ios":"levelo://app?vid=7ce4e271-f188-4c54-b407-82dd8cc5d692"},"vehicle_type_id":"4","last_reported":1726589481,"current_range_meters":33600,"station_id":"ce4bgs12rcd13ifvqcag","pricing_plan_id":"cebpf4jnsgd1na2vs0mg"},{"bike_id":"6c3b465f-08c2-4171-978e-02e7d0439687","system_id":"levelo_inurba_marseille","lat":43.31987,"lon":5.38144,"is_reserved":false,"is_disabled":false,"rental_uris":{"android":"levelo://app?vid=6c3b465f-08c2-4171-978e-02e7d0439687","ios":"levelo://app?vid=6c3b465f-08c2-4171-978e-02e7d0439687"},"vehicle_type_id":"4","last_reported":1726589481,"current_range_meters":38800,"station_id":"ce4bhr12rcd13ifvqhpg","pricing_plan_id":"cebpf4jnsgd1na2vs0mg"},{"bike_id":"961a7f6f-a478-4c5f-b3c2-6ddca1436200","system_id":"levelo_inurba_marseille","lat":43.23961,"lon":5.36642,"is_reserved":false,"is_disabled":false,"rental_uris":{"android":"levelo://app?vid=961a7f6f-a478-4c5f-b3c2-6ddca1436200","ios":"levelo://app?vid=961a7f6f-a478-4c5f-b3c2-6ddca1436200"},"vehicle_type_id":"4","last_reported":1726589481,"current_range_meters":22400,"station_id":"ce4bha12rcd13ifvqef0","pricing_plan_id":"cebpf4jnsgd1na2vs0mg"},{"bike_id":"7147b544-3b32-425c-9981-3fccefae6fe9","system_id":"levelo_inurba_marseille","lat":43.296234,"lon":5.377023,"is_reserved":false,"is_disabled":false,"rental_uris":{"android":"levelo://app?vid=7147b544-3b32-425c-9981-3fccefae6fe9","ios":"levelo://app?vid=7147b544-3b32-425c-9981-3fccefae6fe9"},"vehicle_type_id":"4","last_reported":1726589481,"current_range_meters":24400,"station_id":"ce4bgi92rcd13ifvqb90","pricing_plan_id":"cebpf4jnsgd1na2vs0mg"},{"bike_id":"72416bd3-2eee-497b-8c33-72b016ab308d","system_id":"levelo_inurba_marseille","lat":43.29716,"lon":5.37695,"is_reserved":false,"is_disabled":false,"rental_uris":{"android":"levelo://app?vid=72416bd3-2eee-497b-8c33-72b016ab308d","ios":"levelo://app?vid=72416bd3-2eee-497b-8c33-72b016ab308d"},"vehicle_type_id":"4","last_reported":1726589481,"current_range_meters":27200,"station_id":"ce4bgkh2rcd13ifvqbl0","pricing_plan_id":"cebpf4jnsgd1na2vs0mg"},{"bike_id":"7912119e-bf7a-45cb-b431-7c607c11ea93","system_id":"levelo_inurba_marseille","lat":43.289673,"lon":5.378359,"is_reserved":false,"is_disabled":false,"rental_uris":{"android":"levelo://app?vid=7912119e-bf7a-45cb-b431-7c607c11ea93","ios":"levelo://app?vid=7912119e-bf7a-45cb-b431-7c607c11ea93"},"vehicle_type_id":"4","last_reported":1726589481,"current_range_meters":38000,"station_id":"ce4bhih2rcd13ifvqfs0","pricing_plan_id":"cebpf4jnsgd1na2vs0mg"},{"bike_id":"033d8293-396c-4ad0-9622-185421ecc1ff","system_id":"levelo_inurba_marseille","lat":43.28454,"lon":5.35882,"is_reserved":false,"is_disabled":false,"rental_uris":{"android":"levelo://app?vid=033d8293-396c-4ad0-9622-185421ecc1ff","ios":"levelo://app?vid=033d8293-396c-4ad0-9622-185421ecc1ff"},"vehicle_type_id":"4","last_reported":1726589481,"current_range_meters":26800,"station_id":"ce4bhah2rcd13ifvqei0","pricing_plan_id":"cebpf4jnsgd1na2vs0mg"},{"bike_id":"b9f6a000-29a1-4547-89da-cef6582d7a03","system_id":"levelo_inurba_marseille","lat":43.29714,"lon":5.36615,"is_reserved":false,"is_disabled":false,"rental_uris":{"android":"levelo://app?vid=b9f6a000-29a1-4547-89da-cef6582d7a03","ios":"levelo://app?vid=b9f6a000-29a1-4547-89da-cef6582d7a03"},"vehicle_type_id":"4","last_reported":1726589481,"current_range_meters":39200,"station_id":"ce4bgn12rcd13ifvqbt0","pricing_plan_id":"cebpf4jnsgd1na2vs0mg"},{"bike_id":"f409a27c-3291-4d9b-ac57-9e74e75d80d1","system_id":"levelo_inurba_marseille","lat":43.32363,"lon":5.38877,"is_reserved":false,"is_disabled":false,"rental_uris":{"android":"levelo://app?vid=f409a27c-3291-4d9b-ac57-9e74e75d80d1","ios":"levelo://app?vid=f409a27c-3291-4d9b-ac57-9e74e75d80d1"},"vehicle_type_id":"4","last_reported":1726589481,"current_range_meters":13600,"station_id":"ce4bhqp2rcd13ifvqhog","pricing_plan_id":"cebpf4jnsgd1na2vs0mg"},{"bike_id":"f0a456df-1c65-4b16-b18b-8605a7979f8a","system_id":"levelo_inurba_marseille","lat":43.29418,"lon":5.38619,"is_reserved":false,"is_disabled":false,"rental_uris":{"android":"levelo://app?vid=f0a456df-1c65-4b16-b18b-8605a7979f8a","ios":"levelo://app?vid=f0a456df-1c65-4b16-b18b-8605a7979f8a"},"vehicle_type_id":"4","last_reported":1726589481,"current_range_meters":10800,"station_id":"ce4bh2h2rcd13ifvqdh0","pricing_plan_id":"cebpf4jnsgd1na2vs0mg"},{"bike_id":"fe8ac5df-d92a-42b3-97d4-af1ec0da8d0b","system_id":"levelo_inurba_marseille","lat":43.29522,"lon":5.39048,"is_reserved":false,"is_disabled":false,"rental_uris":{"android":"levelo://app?vid=fe8ac5df-d92a-42b3-97d4-af1ec0da8d0b","ios":"levelo://app?vid=fe8ac5df-d92a-42b3-97d4-af1ec0da8d0b"},"vehicle_type_id":"4","last_reported":1726589481,"current_range_meters":9600,"station_id":"ce4bh3p2rcd13ifvqdp0","pricing_plan_id":"cebpf4jnsgd1na2vs0mg"},{"bike_id":"ebc8af27-c813-4a1a-978b-9297498fc87a","system_id":"levelo_inurba_marseille","lat":43.290039,"lon":5.356053,"is_reserved":false,"is_disabled":false,"rental_uris":{"android":"levelo://app?vid=ebc8af27-c813-4a1a-978b-9297498fc87a","ios":"levelo://app?vid=ebc8af27-c813-4a1a-978b-9297498fc87a"},"vehicle_type_id":"4","last_reported":1726589481,"current_range_meters":23200,"station_id":"ce4bhb92rcd13ifvqen0","pricing_plan_id":"cebpf4jnsgd1na2vs0mg"},{"bike_id":"e876abaa-53b8-4014-aee0-1e810868c591","system_id":"levelo_inurba_marseille","lat":43.28922,"lon":5.38403,"is_reserved":false,"is_disabled":false,"rental_uris":{"android":"levelo://app?vid=e876abaa-53b8-4014-aee0-1e810868c591","ios":"levelo://app?vid=e876abaa-53b8-4014-aee0-1e810868c591"},"vehicle_type_id":"4","last_reported":1726589481,"current_range_meters":17200,"station_id":"ce4bh612rcd13ifvqe6g","pricing_plan_id":"cebpf4jnsgd1na2vs0mg"},{"bike_id":"ee7cab51-ac41-4df2-a570-0b8afed077f6","system_id":"levelo_inurba_marseille","lat":43.33022,"lon":5.3904,"is_reserved":false,"is_disabled":false,"rental_uris":{"android":"levelo://app?vid=ee7cab51-ac41-4df2-a570-0b8afed077f6","ios":"levelo://app?vid=ee7cab51-ac41-4df2-a570-0b8afed077f6"},"vehicle_type_id":"4","last_reported":1726589481,"current_range_meters":29600,"station_id":"ce4bhr92rcd13ifvqhrg","pricing_plan_id":"cebpf4jnsgd1na2vs0mg"},{"bike_id":"c7f93bf2-2b30-4c5c-aa72-447b3f4a28ea","system_id":"levelo_inurba_marseille","lat":43.29896,"lon":5.43664,"is_reserved":false,"is_disabled":false,"rental_uris":{"android":"levelo://app?vid=c7f93bf2-2b30-4c5c-aa72-447b3f4a28ea","ios":"levelo://app?vid=c7f93bf2-2b30-4c5c-aa72-447b3f4a28ea"},"vehicle_type_id":"4","last_reported":1726589481,"current_range_meters":8400,"station_id":"ce4bhpp2rcd13ifvqhfg","pricing_plan_id":"cebpf4jnsgd1na2vs0mg"},{"bike_id":"58ce924a-882e-43b6-9991-ea8db65c1e2c","system_id":"levelo_inurba_marseille","lat":43.25489,"lon":5.3765,"is_reserved":false,"is_disabled":false,"rental_uris":{"android":"levelo://app?vid=58ce924a-882e-43b6-9991-ea8db65c1e2c","ios":"levelo://app?vid=58ce924a-882e-43b6-9991-ea8db65c1e2c"},"vehicle_type_id":"4","last_reported":1726589481,"current_range_meters":20400,"station_id":"ce4bhh12rcd13ifvqff0","pricing_plan_id":"cebpf4jnsgd1na2vs0mg"},{"bike_id":"d8c0eaa6-b64a-4b5a-a581-722baf8502e4","system_id":"levelo_inurba_marseille","lat":43.31708,"lon":5.37736,"is_reserved":false,"is_disabled":false,"rental_uris":{"android":"levelo://app?vid=d8c0eaa6-b64a-4b5a-a581-722baf8502e4","ios":"levelo://app?vid=d8c0eaa6-b64a-4b5a-a581-722baf8502e4"},"vehicle_type_id":"4","last_reported":1726589481,"current_range_meters":36800,"station_id":"ce4bgth2rcd13ifvqch0","pricing_plan_id":"cebpf4jnsgd1na2vs0mg"},{"bike_id":"b88d8bac-711e-49d2-9eee-8f0f2fcec434","system_id":"levelo_inurba_marseille","lat":43.33024,"lon":5.39047,"is_reserved":false,"is_disabled":false,"rental_uris":{"android":"levelo://app?vid=b88d8bac-711e-49d2-9eee-8f0f2fcec434","ios":"levelo://app?vid=b88d8bac-711e-49d2-9eee-8f0f2fcec434"},"vehicle_type_id":"4","last_reported":1726589481,"current_range_meters":28400,"station_id":"ce4bhr92rcd13ifvqhrg","pricing_plan_id":"cebpf4jnsgd1na2vs0mg"},{"bike_id":"e52d7a9e-1166-44f6-8584-3cbc8cfac9ed","system_id":"levelo_inurba_marseille","lat":43.2693,"lon":5.3893,"is_reserved":false,"is_disabled":false,"rental_uris":{"android":"levelo://app?vid=e52d7a9e-1166-44f6-8584-3cbc8cfac9ed","ios":"levelo://app?vid=e52d7a9e-1166-44f6-8584-3cbc8cfac9ed"},"vehicle_type_id":"4","last_reported":1726589481,"current_range_meters":36400,"station_id":"ce4bhhh2rcd13ifvqfl0","pricing_plan_id":"cebpf4jnsgd1na2vs0mg"},{"bike_id":"2e2254f6-d3ed-4277-af5f-ee204e464f40","system_id":"levelo_inurba_marseille","lat":43.29937,"lon":5.41323,"is_reserved":false,"is_disabled":false,"rental_uris":{"android":"levelo://app?vid=2e2254f6-d3ed-4277-af5f-ee204e464f40","ios":"levelo://app?vid=2e2254f6-d3ed-4277-af5f-ee204e464f40"},"vehicle_type_id":"4","last_reported":1726589481,"current_range_meters":38800,"station_id":"ce4bhp12rcd13ifvqh9g","pricing_plan_id":"cebpf4jnsgd1na2vs0mg"},{"bike_id":"8cb592d9-f82f-4171-894f-8d7ffa6525e5","system_id":"levelo_inurba_marseille","lat":43.23187,"lon":5.35541,"is_reserved":false,"is_disabled":false,"rental_uris":{"android":"levelo://app?vid=8cb592d9-f82f-4171-894f-8d7ffa6525e5","ios":"levelo://app?vid=8cb592d9-f82f-4171-894f-8d7ffa6525e5"},"vehicle_type_id":"4","last_reported":1726589481,"current_range_meters":18800,"station_id":"ce4bhu92rcd13ifvqi70","pricing_plan_id":"cebpf4jnsgd1na2vs0mg"},{"bike_id":"e186cf1f-40c9-463e-9255-0542a2aa6bbb","system_id":"levelo_inurba_marseille","lat":43.27376,"lon":5.36255,"is_reserved":false,"is_disabled":false,"rental_uris":{"android":"levelo://app?vid=e186cf1f-40c9-463e-9255-0542a2aa6bbb","ios":"levelo://app?vid=e186cf1f-40c9-463e-9255-0542a2aa6bbb"},"vehicle_type_id":"4","last_reported":1726589481,"current_range_meters":38000,"station_id":"ce4bhbh2rcd13ifvqeo0","pricing_plan_id":"cebpf4jnsgd1na2vs0mg"},{"bike_id":"699d09b8-17ae-4b5a-81a4-f0906a954e6d","system_id":"levelo_inurba_marseille","lat":43.32281,"lon":5.38276,"is_reserved":false,"is_disabled":false,"rental_uris":{"android":"levelo://app?vid=699d09b8-17ae-4b5a-81a4-f0906a954e6d","ios":"levelo://app?vid=699d09b8-17ae-4b5a-81a4-f0906a954e6d"},"vehicle_type_id":"4","last_reported":1726589481,"current_range_meters":14000,"station_id":"ce4bhr12rcd13ifvqhqg","pricing_plan_id":"cebpf4jnsgd1na2vs0mg"},{"bike_id":"20a4a91d-8541-4958-9b2e-4e75165c8a2a","system_id":"levelo_inurba_marseille","lat":43.30799,"lon":5.43518,"is_reserved":false,"is_disabled":false,"rental_uris":{"android":"levelo://app?vid=20a4a91d-8541-4958-9b2e-4e75165c8a2a","ios":"levelo://app?vid=20a4a91d-8541-4958-9b2e-4e75165c8a2a"},"vehicle_type_id":"4","last_reported":1726589481,"current_range_meters":13600,"station_id":"ce4bhph2rcd13ifvqheg","pricing_plan_id":"cebpf4jnsgd1na2vs0mg"},{"bike_id":"c3bcca86-6294-4639-9d07-9722d40f464e","system_id":"levelo_inurba_marseille","lat":43.29897,"lon":5.43658,"is_reserved":false,"is_disabled":false,"rental_uris":{"android":"levelo://app?vid=c3bcca86-6294-4639-9d07-9722d40f464e","ios":"levelo://app?vid=c3bcca86-6294-4639-9d07-9722d40f464e"},"vehicle_type_id":"4","last_reported":1726589481,"current_range_meters":32800,"station_id":"ce4bhpp2rcd13ifvqhfg","pricing_plan_id":"cebpf4jnsgd1na2vs0mg"},{"bike_id":"464b765a-5bcf-418f-9058-526dab1b44f9","system_id":"levelo_inurba_marseille","lat":43.32289,"lon":5.38281,"is_reserved":false,"is_disabled":false,"rental_uris":{"android":"levelo://app?vid=464b765a-5bcf-418f-9058-526dab1b44f9","ios":"levelo://app?vid=464b765a-5bcf-418f-9058-526dab1b44f9"},"vehicle_type_id":"4","last_reported":1726589481,"current_range_meters":26000,"station_id":"ce4bhr12rcd13ifvqhqg","pricing_plan_id":"cebpf4jnsgd1na2vs0mg"},{"bike_id":"8d4fa9ce-4f53-4bbd-8ebe-9fa61a6486de","system_id":"levelo_inurba_marseille","lat":43.27619,"lon":5.36106,"is_reserved":false,"is_disabled":false,"rental_uris":{"android":"levelo://app?vid=8d4fa9ce-4f53-4bbd-8ebe-9fa61a6486de","ios":"levelo://app?vid=8d4fa9ce-4f53-4bbd-8ebe-9fa61a6486de"},"vehicle_type_id":"4","last_reported":1726589481,"current_range_meters":16800,"station_id":"ce4bgj92rcd13ifvqbe0","pricing_plan_id":"cebpf4jnsgd1na2vs0mg"},{"bike_id":"3409573c-fa2d-4692-a6cc-0de5bd56afb7","system_id":"levelo_inurba_marseille","lat":43.27915,"lon":5.39583,"is_reserved":false,"is_disabled":false,"rental_uris":{"android":"levelo://app?vid=3409573c-fa2d-4692-a6cc-0de5bd56afb7","ios":"levelo://app?vid=3409573c-fa2d-4692-a6cc-0de5bd56afb7"},"vehicle_type_id":"4","last_reported":1726589481,"current_range_meters":23200,"station_id":"ce4bhf92rcd13ifvqf40","pricing_plan_id":"cebpf4jnsgd1na2vs0mg"},{"bike_id":"8e3c84db-879d-4669-8d43-f74eed3d4c1b","system_id":"levelo_inurba_marseille","lat":43.2737,"lon":5.36253,"is_reserved":false,"is_disabled":false,"rental_uris":{"android":"levelo://app?vid=8e3c84db-879d-4669-8d43-f74eed3d4c1b","ios":"levelo://app?vid=8e3c84db-879d-4669-8d43-f74eed3d4c1b"},"vehicle_type_id":"4","last_reported":1726589481,"current_range_meters":39200,"station_id":"ce4bhbh2rcd13ifvqeo0","pricing_plan_id":"cebpf4jnsgd1na2vs0mg"},{"bike_id":"932e06e0-9bec-4e3e-8b15-5d116b9a2067","system_id":"levelo_inurba_marseille","lat":43.27902,"lon":5.38013,"is_reserved":false,"is_disabled":false,"rental_uris":{"android":"levelo://app?vid=932e06e0-9bec-4e3e-8b15-5d116b9a2067","ios":"levelo://app?vid=932e06e0-9bec-4e3e-8b15-5d116b9a2067"},"vehicle_type_id":"4","last_reported":1726589481,"current_range_meters":18800,"station_id":"ce4bhf92rcd13ifvqf50","pricing_plan_id":"cebpf4jnsgd1na2vs0mg"},{"bike_id":"b1db6496-7d7b-4acc-a88c-e5406d38e100","system_id":"levelo_inurba_marseille","lat":43.23188,"lon":5.35549,"is_reserved":false,"is_disabled":false,"rental_uris":{"android":"levelo://app?vid=b1db6496-7d7b-4acc-a88c-e5406d38e100","ios":"levelo://app?vid=b1db6496-7d7b-4acc-a88c-e5406d38e100"},"vehicle_type_id":"4","last_reported":1726589481,"current_range_meters":26800,"station_id":"ce4bhu92rcd13ifvqi70","pricing_plan_id":"cebpf4jnsgd1na2vs0mg"},{"bike_id":"48cbff0c-943b-4cc3-a95e-eac789e46561","system_id":"levelo_inurba_marseille","lat":43.288509,"lon":5.393317,"is_reserved":false,"is_disabled":false,"rental_uris":{"android":"levelo://app?vid=48cbff0c-943b-4cc3-a95e-eac789e46561","ios":"levelo://app?vid=48cbff0c-943b-4cc3-a95e-eac789e46561"},"vehicle_type_id":"4","last_reported":1726589481,"current_range_meters":8000,"station_id":"ce4bh2p2rcd13ifvqdi0","pricing_plan_id":"cebpf4jnsgd1na2vs0mg"},{"bike_id":"c9734a22-8dde-4a1f-bd8e-86c7281f5ca2","system_id":"levelo_inurba_marseille","lat":43.3013,"lon":5.38784,"is_reserved":false,"is_disabled":false,"rental_uris":{"android":"levelo://app?vid=c9734a22-8dde-4a1f-bd8e-86c7281f5ca2","ios":"levelo://app?vid=c9734a22-8dde-4a1f-bd8e-86c7281f5ca2"},"vehicle_type_id":"4","last_reported":1726589481,"current_range_meters":3200,"station_id":"ce4bghh2rcd13ifvqb60","pricing_plan_id":"cebpf4jnsgd1na2vs0mg"},{"bike_id":"733e4865-3357-4a1f-819b-4a724885d4e3","system_id":"levelo_inurba_marseille","lat":43.26912,"lon":5.38637,"is_reserved":false,"is_disabled":false,"rental_uris":{"android":"levelo://app?vid=733e4865-3357-4a1f-819b-4a724885d4e3","ios":"levelo://app?vid=733e4865-3357-4a1f-819b-4a724885d4e3"},"vehicle_type_id":"4","last_reported":1726589481,"current_range_meters":31200,"station_id":"ce4bhh92rcd13ifvqfh0","pricing_plan_id":"cebpf4jnsgd1na2vs0mg"},{"bike_id":"27ec9ad3-78a6-4c32-bcca-77c343a577b7","system_id":"levelo_inurba_marseille","lat":43.29916,"lon":5.37478,"is_reserved":false,"is_disabled":false,"rental_uris":{"android":"levelo://app?vid=27ec9ad3-78a6-4c32-bcca-77c343a577b7","ios":"levelo://app?vid=27ec9ad3-78a6-4c32-bcca-77c343a577b7"},"vehicle_type_id":"4","last_reported":1726589481,"current_range_meters":3200,"station_id":"ce4bgjh2rcd13ifvqbg0","pricing_plan_id":"cebpf4jnsgd1na2vs0mg"},{"bike_id":"57cb2cb5-d8df-4653-9d48-12a410e5f358","system_id":"levelo_inurba_marseille","lat":43.30641,"lon":5.40084,"is_reserved":false,"is_disabled":false,"rental_uris":{"android":"levelo://app?vid=57cb2cb5-d8df-4653-9d48-12a410e5f358","ios":"levelo://app?vid=57cb2cb5-d8df-4653-9d48-12a410e5f358"},"vehicle_type_id":"4","last_reported":1726589481,"current_range_meters":17600,"station_id":"ce4bh112rcd13ifvqda0","pricing_plan_id":"cebpf4jnsgd1na2vs0mg"},{"bike_id":"b645ac77-0d58-4fa9-8ad3-947af8bdb1d9","system_id":"levelo_inurba_marseille","lat":43.29897,"lon":5.43669,"is_reserved":false,"is_disabled":false,"rental_uris":{"android":"levelo://app?vid=b645ac77-0d58-4fa9-8ad3-947af8bdb1d9","ios":"levelo://app?vid=b645ac77-0d58-4fa9-8ad3-947af8bdb1d9"},"vehicle_type_id":"4","last_reported":1726589481,"current_range_meters":24400,"station_id":"ce4bhpp2rcd13ifvqhfg","pricing_plan_id":"cebpf4jnsgd1na2vs0mg"},{"bike_id":"02a3c5df-5a11-4222-a8f6-931fa6274066","system_id":"levelo_inurba_marseille","lat":43.24174,"lon":5.39731,"is_reserved":false,"is_disabled":false,"rental_uris":{"android":"levelo://app?vid=02a3c5df-5a11-4222-a8f6-931fa6274066","ios":"levelo://app?vid=02a3c5df-5a11-4222-a8f6-931fa6274066"},"vehicle_type_id":"4","last_reported":1726589481,"current_range_meters":8800,"station_id":"ce4bhn12rcd13ifvqgpg","pricing_plan_id":"cebpf4jnsgd1na2vs0mg"},{"bike_id":"18e2ac03-505c-4de5-bc2f-f907d23e8ece","system_id":"levelo_inurba_marseille","lat":43.27917,"lon":5.39576,"is_reserved":false,"is_disabled":false,"rental_uris":{"android":"levelo://app?vid=18e2ac03-505c-4de5-bc2f-f907d23e8ece","ios":"levelo://app?vid=18e2ac03-505c-4de5-bc2f-f907d23e8ece"},"vehicle_type_id":"4","last_reported":1726589481,"current_range_meters":12000,"station_id":"ce4bhf92rcd13ifvqf40","pricing_plan_id":"cebpf4jnsgd1na2vs0mg"},{"bike_id":"0a32a15b-1af4-41d9-8184-b3579882b300","system_id":"levelo_inurba_marseille","lat":43.27991,"lon":5.40011,"is_reserved":false,"is_disabled":false,"rental_uris":{"android":"levelo://app?vid=0a32a15b-1af4-41d9-8184-b3579882b300","ios":"levelo://app?vid=0a32a15b-1af4-41d9-8184-b3579882b300"},"vehicle_type_id":"4","last_reported":1726589481,"current_range_meters":28000,"station_id":"ce4bho92rcd13ifvqh4g","pricing_plan_id":"cebpf4jnsgd1na2vs0mg"},{"bike_id":"677498c9-746b-4650-9a8e-2c7479635944","system_id":"levelo_inurba_marseille","lat":43.33026,"lon":5.39046,"is_reserved":false,"is_disabled":false,"rental_uris":{"android":"levelo://app?vid=677498c9-746b-4650-9a8e-2c7479635944","ios":"levelo://app?vid=677498c9-746b-4650-9a8e-2c7479635944"},"vehicle_type_id":"4","last_reported":1726589481,"current_range_meters":20800,"station_id":"ce4bhr92rcd13ifvqhrg","pricing_plan_id":"cebpf4jnsgd1na2vs0mg"},{"bike_id":"0aff2689-3e67-4569-b0ff-18a3fce32146","system_id":"levelo_inurba_marseille","lat":43.30779,"lon":5.37657,"is_reserved":false,"is_disabled":false,"rental_uris":{"android":"levelo://app?vid=0aff2689-3e67-4569-b0ff-18a3fce32146","ios":"levelo://app?vid=0aff2689-3e67-4569-b0ff-18a3fce32146"},"vehicle_type_id":"4","last_reported":1726589481,"current_range_meters":19200,"station_id":"ce4bgv92rcd13ifvqcq0","pricing_plan_id":"cebpf4jnsgd1na2vs0mg"},{"bike_id":"7f01c134-48df-480f-90d4-776ab8158feb","system_id":"levelo_inurba_marseille","lat":43.30428,"lon":5.38886,"is_reserved":false,"is_disabled":false,"rental_uris":{"android":"levelo://app?vid=7f01c134-48df-480f-90d4-776ab8158feb","ios":"levelo://app?vid=7f01c134-48df-480f-90d4-776ab8158feb"},"vehicle_type_id":"4","last_reported":1726589481,"current_range_meters":38800,"station_id":"ce4bgk12rcd13ifvqbi0","pricing_plan_id":"cebpf4jnsgd1na2vs0mg"},{"bike_id":"0e7fa0af-7f2f-4ef9-9134-c3fffbdc0a42","system_id":"levelo_inurba_marseille","lat":43.31359,"lon":5.38491,"is_reserved":false,"is_disabled":false,"rental_uris":{"android":"levelo://app?vid=0e7fa0af-7f2f-4ef9-9134-c3fffbdc0a42","ios":"levelo://app?vid=0e7fa0af-7f2f-4ef9-9134-c3fffbdc0a42"},"vehicle_type_id":"4","last_reported":1726589481,"current_range_meters":32400,"station_id":"ce4bgt92rcd13ifvqcf0","pricing_plan_id":"cebpf4jnsgd1na2vs0mg"},{"bike_id":"e322896a-9301-4e00-8a2b-00ac0afcf56a","system_id":"levelo_inurba_marseille","lat":43.2971,"lon":5.36615,"is_reserved":false,"is_disabled":false,"rental_uris":{"android":"levelo://app?vid=e322896a-9301-4e00-8a2b-00ac0afcf56a","ios":"levelo://app?vid=e322896a-9301-4e00-8a2b-00ac0afcf56a"},"vehicle_type_id":"4","last_reported":1726589481,"current_range_meters":38800,"station_id":"ce4bgn12rcd13ifvqbt0","pricing_plan_id":"cebpf4jnsgd1na2vs0mg"},{"bike_id":"a5d1ccb3-71a1-450e-b4c2-898ffd4e772b","system_id":"levelo_inurba_marseille","lat":43.30193,"lon":5.36612,"is_reserved":false,"is_disabled":false,"rental_uris":{"android":"levelo://app?vid=a5d1ccb3-71a1-450e-b4c2-898ffd4e772b","ios":"levelo://app?vid=a5d1ccb3-71a1-450e-b4c2-898ffd4e772b"},"vehicle_type_id":"4","last_reported":1726589481,"current_range_meters":28000,"station_id":"ce4bgrh2rcd13ifvqc8g","pricing_plan_id":"cebpf4jnsgd1na2vs0mg"},{"bike_id":"e2e1d8ad-0674-473e-bdeb-2af3e9fe39fe","system_id":"levelo_inurba_marseille","lat":43.289246,"lon":5.366378,"is_reserved":false,"is_disabled":false,"rental_uris":{"android":"levelo://app?vid=e2e1d8ad-0674-473e-bdeb-2af3e9fe39fe","ios":"levelo://app?vid=e2e1d8ad-0674-473e-bdeb-2af3e9fe39fe"},"vehicle_type_id":"4","last_reported":1726589481,"current_range_meters":34800,"station_id":"cki0cbj6b192h4jlfktg","pricing_plan_id":"cebpf4jnsgd1na2vs0mg"},{"bike_id":"18a8cf3d-109a-43f2-89b9-5fcfd63134af","system_id":"levelo_inurba_marseille","lat":43.28697,"lon":5.39981,"is_reserved":false,"is_disabled":false,"rental_uris":{"android":"levelo://app?vid=18a8cf3d-109a-43f2-89b9-5fcfd63134af","ios":"levelo://app?vid=18a8cf3d-109a-43f2-89b9-5fcfd63134af"},"vehicle_type_id":"4","last_reported":1726589481,"current_range_meters":28400,"station_id":"ce4bho92rcd13ifvqh3g","pricing_plan_id":"cebpf4jnsgd1na2vs0mg"},{"bike_id":"78f6e1c5-6c53-4bcd-9b71-240eb6d988b3","system_id":"levelo_inurba_marseille","lat":43.30182,"lon":5.36623,"is_reserved":false,"is_disabled":false,"rental_uris":{"android":"levelo://app?vid=78f6e1c5-6c53-4bcd-9b71-240eb6d988b3","ios":"levelo://app?vid=78f6e1c5-6c53-4bcd-9b71-240eb6d988b3"},"vehicle_type_id":"4","last_reported":1726589481,"current_range_meters":9600,"station_id":"ce4bgrh2rcd13ifvqc8g","pricing_plan_id":"cebpf4jnsgd1na2vs0mg"},{"bike_id":"99684f50-b398-427b-a4e9-7ca0a0382c79","system_id":"levelo_inurba_marseille","lat":43.2319,"lon":5.35545,"is_reserved":false,"is_disabled":false,"rental_uris":{"android":"levelo://app?vid=99684f50-b398-427b-a4e9-7ca0a0382c79","ios":"levelo://app?vid=99684f50-b398-427b-a4e9-7ca0a0382c79"},"vehicle_type_id":"4","last_reported":1726589481,"current_range_meters":38800,"station_id":"ce4bhu92rcd13ifvqi70","pricing_plan_id":"cebpf4jnsgd1na2vs0mg"},{"bike_id":"3035210a-8e82-44b6-b145-b99eb6bcaa5e","system_id":"levelo_inurba_marseille","lat":43.2845,"lon":5.359,"is_reserved":false,"is_disabled":false,"rental_uris":{"android":"levelo://app?vid=3035210a-8e82-44b6-b145-b99eb6bcaa5e","ios":"levelo://app?vid=3035210a-8e82-44b6-b145-b99eb6bcaa5e"},"vehicle_type_id":"4","last_reported":1726589481,"current_range_meters":16000,"station_id":"ce4bhah2rcd13ifvqei0","pricing_plan_id":"cebpf4jnsgd1na2vs0mg"},{"bike_id":"d782c430-b2c7-45ce-aaaf-78dc9a80ca97","system_id":"levelo_inurba_marseille","lat":43.33025,"lon":5.39039,"is_reserved":false,"is_disabled":false,"rental_uris":{"android":"levelo://app?vid=d782c430-b2c7-45ce-aaaf-78dc9a80ca97","ios":"levelo://app?vid=d782c430-b2c7-45ce-aaaf-78dc9a80ca97"},"vehicle_type_id":"4","last_reported":1726589481,"current_range_meters":26800,"station_id":"ce4bhr92rcd13ifvqhrg","pricing_plan_id":"cebpf4jnsgd1na2vs0mg"},{"bike_id":"dd4b5128-6c65-4324-96d6-df731de78aa8","system_id":"levelo_inurba_marseille","lat":43.33023,"lon":5.39036,"is_reserved":false,"is_disabled":false,"rental_uris":{"android":"levelo://app?vid=dd4b5128-6c65-4324-96d6-df731de78aa8","ios":"levelo://app?vid=dd4b5128-6c65-4324-96d6-df731de78aa8"},"vehicle_type_id":"4","last_reported":1726589481,"current_range_meters":25200,"station_id":"ce4bhr92rcd13ifvqhrg","pricing_plan_id":"cebpf4jnsgd1na2vs0mg"},{"bike_id":"6c1468de-e14a-407b-9a20-3cdfa0922744","system_id":"levelo_inurba_marseille","lat":43.28453,"lon":5.35892,"is_reserved":false,"is_disabled":false,"rental_uris":{"android":"levelo://app?vid=6c1468de-e14a-407b-9a20-3cdfa0922744","ios":"levelo://app?vid=6c1468de-e14a-407b-9a20-3cdfa0922744"},"vehicle_type_id":"4","last_reported":1726589481,"current_range_meters":39200,"station_id":"ce4bhah2rcd13ifvqei0","pricing_plan_id":"cebpf4jnsgd1na2vs0mg"},{"bike_id":"496e6e0a-03c0-469b-a66b-529cb267131d","system_id":"levelo_inurba_marseille","lat":43.24177,"lon":5.39735,"is_reserved":false,"is_disabled":false,"rental_uris":{"android":"levelo://app?vid=496e6e0a-03c0-469b-a66b-529cb267131d","ios":"levelo://app?vid=496e6e0a-03c0-469b-a66b-529cb267131d"},"vehicle_type_id":"4","last_reported":1726589481,"current_range_meters":27200,"station_id":"ce4bhn12rcd13ifvqgpg","pricing_plan_id":"cebpf4jnsgd1na2vs0mg"},{"bike_id":"34a90722-f629-41bb-bdb8-6f743a933f4a","system_id":"levelo_inurba_marseille","lat":43.29587,"lon":5.36734,"is_reserved":false,"is_disabled":false,"rental_uris":{"android":"levelo://app?vid=34a90722-f629-41bb-bdb8-6f743a933f4a","ios":"levelo://app?vid=34a90722-f629-41bb-bdb8-6f743a933f4a"},"vehicle_type_id":"4","last_reported":1726589481,"current_range_meters":39200,"station_id":"ce4bgph2rcd13ifvqc2g","pricing_plan_id":"cebpf4jnsgd1na2vs0mg"},{"bike_id":"2b714e73-49f8-4f26-bb6d-7d72ce23aabc","system_id":"levelo_inurba_marseille","lat":43.23053,"lon":5.35488,"is_reserved":false,"is_disabled":false,"rental_uris":{"android":"levelo://app?vid=2b714e73-49f8-4f26-bb6d-7d72ce23aabc","ios":"levelo://app?vid=2b714e73-49f8-4f26-bb6d-7d72ce23aabc"},"vehicle_type_id":"4","last_reported":1726589481,"current_range_meters":12000,"station_id":"cpo3342slgdg3j2ifvpg","pricing_plan_id":"cebpf4jnsgd1na2vs0mg"},{"bike_id":"86487b22-4b2f-4876-a550-05cc03d3ed0f","system_id":"levelo_inurba_marseille","lat":43.31117,"lon":5.37783,"is_reserved":false,"is_disabled":false,"rental_uris":{"android":"levelo://app?vid=86487b22-4b2f-4876-a550-05cc03d3ed0f","ios":"levelo://app?vid=86487b22-4b2f-4876-a550-05cc03d3ed0f"},"vehicle_type_id":"4","last_reported":1726589481,"current_range_meters":38800,"station_id":"ce4bgt92rcd13ifvqcg0","pricing_plan_id":"cebpf4jnsgd1na2vs0mg"},{"bike_id":"fc8f4cc0-3930-4737-a71c-6195fb45af68","system_id":"levelo_inurba_marseille","lat":43.28701,"lon":5.37386,"is_reserved":false,"is_disabled":false,"rental_uris":{"android":"levelo://app?vid=fc8f4cc0-3930-4737-a71c-6195fb45af68","ios":"levelo://app?vid=fc8f4cc0-3930-4737-a71c-6195fb45af68"},"vehicle_type_id":"4","last_reported":1726589481,"current_range_meters":28000,"station_id":"ce4bh3p2rcd13ifvqdq0","pricing_plan_id":"cebpf4jnsgd1na2vs0mg"},{"bike_id":"dff3dd77-7187-4652-8073-1f3353d0530f","system_id":"levelo_inurba_marseille","lat":43.28678,"lon":5.38096,"is_reserved":false,"is_disabled":false,"rental_uris":{"android":"levelo://app?vid=dff3dd77-7187-4652-8073-1f3353d0530f","ios":"levelo://app?vid=dff3dd77-7187-4652-8073-1f3353d0530f"},"vehicle_type_id":"4","last_reported":1726589481,"current_range_meters":6400,"station_id":"ce4bha12rcd13ifvqee0","pricing_plan_id":"cebpf4jnsgd1na2vs0mg"},{"bike_id":"8ab9fe4d-c184-4acf-a19d-e1133a2f9e06","system_id":"levelo_inurba_marseille","lat":43.23959,"lon":5.36625,"is_reserved":false,"is_disabled":false,"rental_uris":{"android":"levelo://app?vid=8ab9fe4d-c184-4acf-a19d-e1133a2f9e06","ios":"levelo://app?vid=8ab9fe4d-c184-4acf-a19d-e1133a2f9e06"},"vehicle_type_id":"4","last_reported":1726589481,"current_range_meters":2800,"station_id":"ce4bhi12rcd13ifvqfp0","pricing_plan_id":"cebpf4jnsgd1na2vs0mg"},{"bike_id":"2e4c0d1a-a4a2-40d5-9c70-26993c46a5f6","system_id":"levelo_inurba_marseille","lat":43.23203,"lon":5.35543,"is_reserved":false,"is_disabled":false,"rental_uris":{"android":"levelo://app?vid=2e4c0d1a-a4a2-40d5-9c70-26993c46a5f6","ios":"levelo://app?vid=2e4c0d1a-a4a2-40d5-9c70-26993c46a5f6"},"vehicle_type_id":"4","last_reported":1726589481,"current_range_meters":38800,"station_id":"ce4bhu92rcd13ifvqi70","pricing_plan_id":"cebpf4jnsgd1na2vs0mg"},{"bike_id":"f22744fe-f207-401b-9415-2851f8d0a6a5","system_id":"levelo_inurba_marseille","lat":43.23179,"lon":5.39991,"is_reserved":false,"is_disabled":false,"rental_uris":{"android":"levelo://app?vid=f22744fe-f207-401b-9415-2851f8d0a6a5","ios":"levelo://app?vid=f22744fe-f207-401b-9415-2851f8d0a6a5"},"vehicle_type_id":"4","last_reported":1726589481,"current_range_meters":5600,"station_id":"ce4bhn12rcd13ifvqgqg","pricing_plan_id":"cebpf4jnsgd1na2vs0mg"},{"bike_id":"45bb80ce-6601-4018-8dcc-550a04f5b11c","system_id":"levelo_inurba_marseille","lat":43.25494,"lon":5.37645,"is_reserved":false,"is_disabled":false,"rental_uris":{"android":"levelo://app?vid=45bb80ce-6601-4018-8dcc-550a04f5b11c","ios":"levelo://app?vid=45bb80ce-6601-4018-8dcc-550a04f5b11c"},"vehicle_type_id":"4","last_reported":1726589481,"current_range_meters":6800,"station_id":"ce4bhh12rcd13ifvqff0","pricing_plan_id":"cebpf4jnsgd1na2vs0mg"},{"bike_id":"65f1df32-61b1-458b-86e4-dd611488d344","system_id":"levelo_inurba_marseille","lat":43.27996,"lon":5.41657,"is_reserved":false,"is_disabled":false,"rental_uris":{"android":"levelo://app?vid=65f1df32-61b1-458b-86e4-dd611488d344","ios":"levelo://app?vid=65f1df32-61b1-458b-86e4-dd611488d344"},"vehicle_type_id":"4","last_reported":1726589481,"current_range_meters":31200,"station_id":"ce4bho12rcd13ifvqh1g","pricing_plan_id":"cebpf4jnsgd1na2vs0mg"},{"bike_id":"70e13328-d2a3-4895-92e0-a78ec74991e1","system_id":"levelo_inurba_marseille","lat":43.28276,"lon":5.35073,"is_reserved":false,"is_disabled":false,"rental_uris":{"android":"levelo://app?vid=70e13328-d2a3-4895-92e0-a78ec74991e1","ios":"levelo://app?vid=70e13328-d2a3-4895-92e0-a78ec74991e1"},"vehicle_type_id":"4","last_reported":1726589481,"current_range_meters":12800,"station_id":"ce4bhbp2rcd13ifvqerg","pricing_plan_id":"cebpf4jnsgd1na2vs0mg"},{"bike_id":"ea34d517-3900-41c1-bca7-d2608b54935e","system_id":"levelo_inurba_marseille","lat":43.29526,"lon":5.39409,"is_reserved":false,"is_disabled":false,"rental_uris":{"android":"levelo://app?vid=ea34d517-3900-41c1-bca7-d2608b54935e","ios":"levelo://app?vid=ea34d517-3900-41c1-bca7-d2608b54935e"},"vehicle_type_id":"4","last_reported":1726589481,"current_range_meters":16400,"station_id":"ce4bh292rcd13ifvqdf0","pricing_plan_id":"cebpf4jnsgd1na2vs0mg"},{"bike_id":"5ce18740-1041-4048-b11d-64251e2ba0a2","system_id":"levelo_inurba_marseille","lat":43.32473,"lon":5.36558,"is_reserved":false,"is_disabled":false,"rental_uris":{"android":"levelo://app?vid=5ce18740-1041-4048-b11d-64251e2ba0a2","ios":"levelo://app?vid=5ce18740-1041-4048-b11d-64251e2ba0a2"},"vehicle_type_id":"4","last_reported":1726589481,"current_range_meters":38800,"station_id":"ce4bhs12rcd13ifvqhvg","pricing_plan_id":"cebpf4jnsgd1na2vs0mg"},{"bike_id":"255def12-1a7e-4787-b2e4-a6a54888a394","system_id":"levelo_inurba_marseille","lat":43.32473,"lon":5.36574,"is_reserved":false,"is_disabled":false,"rental_uris":{"android":"levelo://app?vid=255def12-1a7e-4787-b2e4-a6a54888a394","ios":"levelo://app?vid=255def12-1a7e-4787-b2e4-a6a54888a394"},"vehicle_type_id":"4","last_reported":1726589481,"current_range_meters":6800,"station_id":"ce4bhs12rcd13ifvqhvg","pricing_plan_id":"cebpf4jnsgd1na2vs0mg"},{"bike_id":"6dd17a2f-59bb-4453-859d-2c09ab795824","system_id":"levelo_inurba_marseille","lat":43.33024,"lon":5.39043,"is_reserved":false,"is_disabled":false,"rental_uris":{"android":"levelo://app?vid=6dd17a2f-59bb-4453-859d-2c09ab795824","ios":"levelo://app?vid=6dd17a2f-59bb-4453-859d-2c09ab795824"},"vehicle_type_id":"4","last_reported":1726589481,"current_range_meters":30000,"station_id":"ce4bhr92rcd13ifvqhrg","pricing_plan_id":"cebpf4jnsgd1na2vs0mg"},{"bike_id":"618cc3b2-cb3f-4ba5-a5e8-6888c3b54d49","system_id":"levelo_inurba_marseille","lat":43.32362,"lon":5.38887,"is_reserved":false,"is_disabled":false,"rental_uris":{"android":"levelo://app?vid=618cc3b2-cb3f-4ba5-a5e8-6888c3b54d49","ios":"levelo://app?vid=618cc3b2-cb3f-4ba5-a5e8-6888c3b54d49"},"vehicle_type_id":"4","last_reported":1726589481,"current_range_meters":14000,"station_id":"ce4bhqp2rcd13ifvqhog","pricing_plan_id":"cebpf4jnsgd1na2vs0mg"},{"bike_id":"9d32f91b-48fa-412e-bf1e-380d60eb8898","system_id":"levelo_inurba_marseille","lat":43.30553,"lon":5.36566,"is_reserved":false,"is_disabled":false,"rental_uris":{"android":"levelo://app?vid=9d32f91b-48fa-412e-bf1e-380d60eb8898","ios":"levelo://app?vid=9d32f91b-48fa-412e-bf1e-380d60eb8898"},"vehicle_type_id":"4","last_reported":1726589481,"current_range_meters":14400,"station_id":"ce4bgs12rcd13ifvqcag","pricing_plan_id":"cebpf4jnsgd1na2vs0mg"},{"bike_id":"d00ef931-ca94-46a5-a153-d39e1f7651c4","system_id":"levelo_inurba_marseille","lat":43.24649,"lon":5.38896,"is_reserved":false,"is_disabled":false,"rental_uris":{"android":"levelo://app?vid=d00ef931-ca94-46a5-a153-d39e1f7651c4","ios":"levelo://app?vid=d00ef931-ca94-46a5-a153-d39e1f7651c4"},"vehicle_type_id":"4","last_reported":1726589481,"current_range_meters":2800,"station_id":"ce4bhg12rcd13ifvqf60","pricing_plan_id":"cebpf4jnsgd1na2vs0mg"},{"bike_id":"70fc7e83-326c-4da5-9b44-70451b78b4c2","system_id":"levelo_inurba_marseille","lat":43.3248,"lon":5.36568,"is_reserved":false,"is_disabled":false,"rental_uris":{"android":"levelo://app?vid=70fc7e83-326c-4da5-9b44-70451b78b4c2","ios":"levelo://app?vid=70fc7e83-326c-4da5-9b44-70451b78b4c2"},"vehicle_type_id":"4","last_reported":1726589481,"current_range_meters":16000,"station_id":"ce4bhs12rcd13ifvqhvg","pricing_plan_id":"cebpf4jnsgd1na2vs0mg"},{"bike_id":"0308f358-78cd-4ed3-9f73-03a0aff7b7aa","system_id":"levelo_inurba_marseille","lat":43.29901,"lon":5.43654,"is_reserved":false,"is_disabled":false,"rental_uris":{"android":"levelo://app?vid=0308f358-78cd-4ed3-9f73-03a0aff7b7aa","ios":"levelo://app?vid=0308f358-78cd-4ed3-9f73-03a0aff7b7aa"},"vehicle_type_id":"4","last_reported":1726589481,"current_range_meters":17600,"station_id":"ce4bhpp2rcd13ifvqhfg","pricing_plan_id":"cebpf4jnsgd1na2vs0mg"},{"bike_id":"12413b7f-5690-4b72-abcf-7999b39eea0c","system_id":"levelo_inurba_marseille","lat":43.29413,"lon":5.38627,"is_reserved":false,"is_disabled":false,"rental_uris":{"android":"levelo://app?vid=12413b7f-5690-4b72-abcf-7999b39eea0c","ios":"levelo://app?vid=12413b7f-5690-4b72-abcf-7999b39eea0c"},"vehicle_type_id":"4","last_reported":1726589481,"current_range_meters":25200,"station_id":"ce4bh2h2rcd13ifvqdh0","pricing_plan_id":"cebpf4jnsgd1na2vs0mg"},{"bike_id":"c61fb4b0-e115-4eee-9e9a-a70081c95b92","system_id":"levelo_inurba_marseille","lat":43.29581,"lon":5.37523,"is_reserved":false,"is_disabled":false,"rental_uris":{"android":"levelo://app?vid=c61fb4b0-e115-4eee-9e9a-a70081c95b92","ios":"levelo://app?vid=c61fb4b0-e115-4eee-9e9a-a70081c95b92"},"vehicle_type_id":"4","last_reported":1726589481,"current_range_meters":34800,"station_id":"ce4bgh92rcd13ifvqb50","pricing_plan_id":"cebpf4jnsgd1na2vs0mg"},{"bike_id":"33fc1c9c-36ef-4c2a-b907-6a08ba67f526","system_id":"levelo_inurba_marseille","lat":43.26799,"lon":5.4027,"is_reserved":false,"is_disabled":false,"rental_uris":{"android":"levelo://app?vid=33fc1c9c-36ef-4c2a-b907-6a08ba67f526","ios":"levelo://app?vid=33fc1c9c-36ef-4c2a-b907-6a08ba67f526"},"vehicle_type_id":"4","last_reported":1726589481,"current_range_meters":17600,"station_id":"ce501612rcd8frsf0b60","pricing_plan_id":"cebpf4jnsgd1na2vs0mg"},{"bike_id":"2b75eec4-d3c2-4770-b215-8a0ca7e19396","system_id":"levelo_inurba_marseille","lat":43.29619,"lon":5.37152,"is_reserved":false,"is_disabled":false,"rental_uris":{"android":"levelo://app?vid=2b75eec4-d3c2-4770-b215-8a0ca7e19396","ios":"levelo://app?vid=2b75eec4-d3c2-4770-b215-8a0ca7e19396"},"vehicle_type_id":"4","last_reported":1726589481,"current_range_meters":38800,"station_id":"ce4bgnh2rcd13ifvqc0g","pricing_plan_id":"cebpf4jnsgd1na2vs0mg"},{"bike_id":"88fafa0e-18d8-4d48-a42c-020306491765","system_id":"levelo_inurba_marseille","lat":43.250885,"lon":5.395227,"is_reserved":false,"is_disabled":false,"rental_uris":{"android":"levelo://app?vid=88fafa0e-18d8-4d48-a42c-020306491765","ios":"levelo://app?vid=88fafa0e-18d8-4d48-a42c-020306491765"},"vehicle_type_id":"4","last_reported":1726589481,"current_range_meters":38000,"station_id":"ce4bhm12rcd13ifvqgkg","pricing_plan_id":"cebpf4jnsgd1na2vs0mg"},{"bike_id":"65eecb51-7024-4f30-af20-d65f809bce2b","system_id":"levelo_inurba_marseille","lat":43.31341,"lon":5.37931,"is_reserved":false,"is_disabled":false,"rental_uris":{"android":"levelo://app?vid=65eecb51-7024-4f30-af20-d65f809bce2b","ios":"levelo://app?vid=65eecb51-7024-4f30-af20-d65f809bce2b"},"vehicle_type_id":"4","last_reported":1726589481,"current_range_meters":8000,"station_id":"","pricing_plan_id":"cebpf4jnsgd1na2vs0mg"},{"bike_id":"2c77c5f0-cb55-4024-8106-9340ac23b8eb","system_id":"levelo_inurba_marseille","lat":43.26552,"lon":5.3729,"is_reserved":false,"is_disabled":false,"rental_uris":{"android":"levelo://app?vid=2c77c5f0-cb55-4024-8106-9340ac23b8eb","ios":"levelo://app?vid=2c77c5f0-cb55-4024-8106-9340ac23b8eb"},"vehicle_type_id":"4","last_reported":1726589481,"current_range_meters":24400,"station_id":"ce4bhg12rcd13ifvqf70","pricing_plan_id":"cebpf4jnsgd1na2vs0mg"},{"bike_id":"d3991d1a-d3fa-44e4-ad74-dd564dc647a4","system_id":"levelo_inurba_marseille","lat":43.30084,"lon":5.39078,"is_reserved":false,"is_disabled":false,"rental_uris":{"android":"levelo://app?vid=d3991d1a-d3fa-44e4-ad74-dd564dc647a4","ios":"levelo://app?vid=d3991d1a-d3fa-44e4-ad74-dd564dc647a4"},"vehicle_type_id":"4","last_reported":1726589481,"current_range_meters":28000,"station_id":"ce4bh192rcd13ifvqdb0","pricing_plan_id":"cebpf4jnsgd1na2vs0mg"},{"bike_id":"5bed5d4c-c6ef-49c5-8688-17f8f7e33285","system_id":"levelo_inurba_marseille","lat":43.28615,"lon":5.35104,"is_reserved":false,"is_disabled":false,"rental_uris":{"android":"levelo://app?vid=5bed5d4c-c6ef-49c5-8688-17f8f7e33285","ios":"levelo://app?vid=5bed5d4c-c6ef-49c5-8688-17f8f7e33285"},"vehicle_type_id":"4","last_reported":1726589481,"current_range_meters":18000,"station_id":"ce4bhch2rcd13ifvqeug","pricing_plan_id":"cebpf4jnsgd1na2vs0mg"},{"bike_id":"5ad76090-8691-48ec-9040-016e70c34f7b","system_id":"levelo_inurba_marseille","lat":43.28035,"lon":5.36946,"is_reserved":false,"is_disabled":false,"rental_uris":{"android":"levelo://app?vid=5ad76090-8691-48ec-9040-016e70c34f7b","ios":"levelo://app?vid=5ad76090-8691-48ec-9040-016e70c34f7b"},"vehicle_type_id":"4","last_reported":1726589481,"current_range_meters":32800,"station_id":"ce4bha12rcd13ifvqef0","pricing_plan_id":"cebpf4jnsgd1na2vs0mg"},{"bike_id":"cc546503-8fc6-42f1-b400-4e4e1f629ac0","system_id":"levelo_inurba_marseille","lat":43.297977,"lon":5.380749,"is_reserved":false,"is_disabled":false,"rental_uris":{"android":"levelo://app?vid=cc546503-8fc6-42f1-b400-4e4e1f629ac0","ios":"levelo://app?vid=cc546503-8fc6-42f1-b400-4e4e1f629ac0"},"vehicle_type_id":"4","last_reported":1726589481,"current_range_meters":31200,"station_id":"ce4bh2p2rcd13ifvqdi0","pricing_plan_id":"cebpf4jnsgd1na2vs0mg"},{"bike_id":"135f7a05-ba61-4293-bc8a-22a6432afaf0","system_id":"levelo_inurba_marseille","lat":43.29707,"lon":5.36601,"is_reserved":false,"is_disabled":false,"rental_uris":{"android":"levelo://app?vid=135f7a05-ba61-4293-bc8a-22a6432afaf0","ios":"levelo://app?vid=135f7a05-ba61-4293-bc8a-22a6432afaf0"},"vehicle_type_id":"4","last_reported":1726589481,"current_range_meters":39200,"station_id":"ce4bgn12rcd13ifvqbt0","pricing_plan_id":"cebpf4jnsgd1na2vs0mg"},{"bike_id":"1d0a9d56-758d-4e45-83d9-d96411f88a93","system_id":"levelo_inurba_marseille","lat":43.24999,"lon":5.38924,"is_reserved":false,"is_disabled":false,"rental_uris":{"android":"levelo://app?vid=1d0a9d56-758d-4e45-83d9-d96411f88a93","ios":"levelo://app?vid=1d0a9d56-758d-4e45-83d9-d96411f88a93"},"vehicle_type_id":"4","last_reported":1726589481,"current_range_meters":8400,"station_id":"ce4bhgp2rcd13ifvqfd0","pricing_plan_id":"cebpf4jnsgd1na2vs0mg"},{"bike_id":"f7d12e80-a591-4c5a-90d6-bea60d063fa8","system_id":"levelo_inurba_marseille","lat":43.30092,"lon":5.3908,"is_reserved":false,"is_disabled":false,"rental_uris":{"android":"levelo://app?vid=f7d12e80-a591-4c5a-90d6-bea60d063fa8","ios":"levelo://app?vid=f7d12e80-a591-4c5a-90d6-bea60d063fa8"},"vehicle_type_id":"4","last_reported":1726589481,"current_range_meters":16800,"station_id":"ce4bh192rcd13ifvqdb0","pricing_plan_id":"cebpf4jnsgd1na2vs0mg"},{"bike_id":"de0b1410-fd64-4729-8215-5f15114b3e7d","system_id":"levelo_inurba_marseille","lat":43.29324,"lon":5.41163,"is_reserved":false,"is_disabled":false,"rental_uris":{"android":"levelo://app?vid=de0b1410-fd64-4729-8215-5f15114b3e7d","ios":"levelo://app?vid=de0b1410-fd64-4729-8215-5f15114b3e7d"},"vehicle_type_id":"4","last_reported":1726589481,"current_range_meters":34000,"station_id":"","pricing_plan_id":"cebpf4jnsgd1na2vs0mg"},{"bike_id":"e1055f26-c66c-41ee-bf2f-25406c6db080","system_id":"levelo_inurba_marseille","lat":43.33018,"lon":5.39042,"is_reserved":false,"is_disabled":false,"rental_uris":{"android":"levelo://app?vid=e1055f26-c66c-41ee-bf2f-25406c6db080","ios":"levelo://app?vid=e1055f26-c66c-41ee-bf2f-25406c6db080"},"vehicle_type_id":"4","last_reported":1726589481,"current_range_meters":38400,"station_id":"ce4bhr92rcd13ifvqhrg","pricing_plan_id":"cebpf4jnsgd1na2vs0mg"},{"bike_id":"a13b8302-4ea2-4c29-8731-e0e42e68149a","system_id":"levelo_inurba_marseille","lat":43.32291,"lon":5.38279,"is_reserved":false,"is_disabled":false,"rental_uris":{"android":"levelo://app?vid=a13b8302-4ea2-4c29-8731-e0e42e68149a","ios":"levelo://app?vid=a13b8302-4ea2-4c29-8731-e0e42e68149a"},"vehicle_type_id":"4","last_reported":1726589481,"current_range_meters":38800,"station_id":"ce4bhr12rcd13ifvqhqg","pricing_plan_id":"cebpf4jnsgd1na2vs0mg"},{"bike_id":"dc17347b-6de9-4ce4-9462-db5c81d57c80","system_id":"levelo_inurba_marseille","lat":43.23954,"lon":5.36642,"is_reserved":false,"is_disabled":false,"rental_uris":{"android":"levelo://app?vid=dc17347b-6de9-4ce4-9462-db5c81d57c80","ios":"levelo://app?vid=dc17347b-6de9-4ce4-9462-db5c81d57c80"},"vehicle_type_id":"4","last_reported":1726589481,"current_range_meters":6000,"station_id":"ce4bhi12rcd13ifvqfp0","pricing_plan_id":"cebpf4jnsgd1na2vs0mg"},{"bike_id":"0093f99f-32e7-41b0-abe0-a28b802c66c9","system_id":"levelo_inurba_marseille","lat":43.29937,"lon":5.36533,"is_reserved":false,"is_disabled":false,"rental_uris":{"android":"levelo://app?vid=0093f99f-32e7-41b0-abe0-a28b802c66c9","ios":"levelo://app?vid=0093f99f-32e7-41b0-abe0-a28b802c66c9"},"vehicle_type_id":"4","last_reported":1726589481,"current_range_meters":25200,"station_id":"ce4bgm92rcd13ifvqbr0","pricing_plan_id":"cebpf4jnsgd1na2vs0mg"},{"bike_id":"9196874d-5490-4b81-b092-bfdd66c4d6c0","system_id":"levelo_inurba_marseille","lat":43.2941,"lon":5.38629,"is_reserved":false,"is_disabled":false,"rental_uris":{"android":"levelo://app?vid=9196874d-5490-4b81-b092-bfdd66c4d6c0","ios":"levelo://app?vid=9196874d-5490-4b81-b092-bfdd66c4d6c0"},"vehicle_type_id":"4","last_reported":1726589481,"current_range_meters":10000,"station_id":"ce4bh2h2rcd13ifvqdh0","pricing_plan_id":"cebpf4jnsgd1na2vs0mg"},{"bike_id":"cbaf03bf-0340-4293-a424-18d0ef0b595f","system_id":"levelo_inurba_marseille","lat":43.2989,"lon":5.43657,"is_reserved":false,"is_disabled":false,"rental_uris":{"android":"levelo://app?vid=cbaf03bf-0340-4293-a424-18d0ef0b595f","ios":"levelo://app?vid=cbaf03bf-0340-4293-a424-18d0ef0b595f"},"vehicle_type_id":"4","last_reported":1726589481,"current_range_meters":20400,"station_id":"ce4bhpp2rcd13ifvqhfg","pricing_plan_id":"cebpf4jnsgd1na2vs0mg"},{"bike_id":"d8e751ce-68d8-4843-af31-f29be99d953d","system_id":"levelo_inurba_marseille","lat":43.23957,"lon":5.36641,"is_reserved":false,"is_disabled":false,"rental_uris":{"android":"levelo://app?vid=d8e751ce-68d8-4843-af31-f29be99d953d","ios":"levelo://app?vid=d8e751ce-68d8-4843-af31-f29be99d953d"},"vehicle_type_id":"4","last_reported":1726589481,"current_range_meters":12000,"station_id":"ce4bhi12rcd13ifvqfp0","pricing_plan_id":"cebpf4jnsgd1na2vs0mg"},{"bike_id":"9adce2f6-4782-498f-88f0-01b8c2b12bad","system_id":"levelo_inurba_marseille","lat":43.29429,"lon":5.39754,"is_reserved":false,"is_disabled":false,"rental_uris":{"android":"levelo://app?vid=9adce2f6-4782-498f-88f0-01b8c2b12bad","ios":"levelo://app?vid=9adce2f6-4782-498f-88f0-01b8c2b12bad"},"vehicle_type_id":"4","last_reported":1726589481,"current_range_meters":20000,"station_id":"ce4bh3h2rcd13ifvqdo0","pricing_plan_id":"cebpf4jnsgd1na2vs0mg"},{"bike_id":"73e17ec8-e47d-415b-a693-9917ccf29905","system_id":"levelo_inurba_marseille","lat":43.31754,"lon":5.39015,"is_reserved":false,"is_disabled":false,"rental_uris":{"android":"levelo://app?vid=73e17ec8-e47d-415b-a693-9917ccf29905","ios":"levelo://app?vid=73e17ec8-e47d-415b-a693-9917ccf29905"},"vehicle_type_id":"4","last_reported":1726589481,"current_range_meters":36800,"station_id":"ce4bhqp2rcd13ifvqhng","pricing_plan_id":"cebpf4jnsgd1na2vs0mg"},{"bike_id":"fcd06f25-6716-4d19-861d-61c35cfd4262","system_id":"levelo_inurba_marseille","lat":43.30325,"lon":5.40434,"is_reserved":false,"is_disabled":false,"rental_uris":{"android":"levelo://app?vid=fcd06f25-6716-4d19-861d-61c35cfd4262","ios":"levelo://app?vid=fcd06f25-6716-4d19-861d-61c35cfd4262"},"vehicle_type_id":"4","last_reported":1726589481,"current_range_meters":25600,"station_id":"ce4bh012rcd13ifvqd10","pricing_plan_id":"cebpf4jnsgd1na2vs0mg"},{"bike_id":"bb9b0b96-fc7b-46c6-8bd7-e61f24aa0921","system_id":"levelo_inurba_marseille","lat":43.32359,"lon":5.38876,"is_reserved":false,"is_disabled":false,"rental_uris":{"android":"levelo://app?vid=bb9b0b96-fc7b-46c6-8bd7-e61f24aa0921","ios":"levelo://app?vid=bb9b0b96-fc7b-46c6-8bd7-e61f24aa0921"},"vehicle_type_id":"4","last_reported":1726589481,"current_range_meters":4400,"station_id":"ce4bhqp2rcd13ifvqhog","pricing_plan_id":"cebpf4jnsgd1na2vs0mg"},{"bike_id":"07c8e192-7d01-4e16-8612-0915514c1cf0","system_id":"levelo_inurba_marseille","lat":43.290375,"lon":5.399653,"is_reserved":false,"is_disabled":false,"rental_uris":{"android":"levelo://app?vid=07c8e192-7d01-4e16-8612-0915514c1cf0","ios":"levelo://app?vid=07c8e192-7d01-4e16-8612-0915514c1cf0"},"vehicle_type_id":"4","last_reported":1726589481,"current_range_meters":33200,"station_id":"chh1huq6cuj3fo74tm60","pricing_plan_id":"cebpf4jnsgd1na2vs0mg"},{"bike_id":"8feb52f1-17bd-497e-ab8c-f3df349465bf","system_id":"levelo_inurba_marseille","lat":43.29579,"lon":5.3674,"is_reserved":false,"is_disabled":false,"rental_uris":{"android":"levelo://app?vid=8feb52f1-17bd-497e-ab8c-f3df349465bf","ios":"levelo://app?vid=8feb52f1-17bd-497e-ab8c-f3df349465bf"},"vehicle_type_id":"4","last_reported":1726589481,"current_range_meters":20000,"station_id":"ce4bgph2rcd13ifvqc2g","pricing_plan_id":"cebpf4jnsgd1na2vs0mg"},{"bike_id":"c82d7f3c-afe2-4dff-9dcb-16ae1a7b7ae3","system_id":"levelo_inurba_marseille","lat":43.32286,"lon":5.38269,"is_reserved":false,"is_disabled":false,"rental_uris":{"android":"levelo://app?vid=c82d7f3c-afe2-4dff-9dcb-16ae1a7b7ae3","ios":"levelo://app?vid=c82d7f3c-afe2-4dff-9dcb-16ae1a7b7ae3"},"vehicle_type_id":"4","last_reported":1726589481,"current_range_meters":9200,"station_id":"ce4bhr12rcd13ifvqhqg","pricing_plan_id":"cebpf4jnsgd1na2vs0mg"},{"bike_id":"cd5bcc1f-6586-4314-9ac3-73bb4c6b0673","system_id":"levelo_inurba_marseille","lat":43.274872,"lon":5.424514,"is_reserved":false,"is_disabled":false,"rental_uris":{"android":"levelo://app?vid=cd5bcc1f-6586-4314-9ac3-73bb4c6b0673","ios":"levelo://app?vid=cd5bcc1f-6586-4314-9ac3-73bb4c6b0673"},"vehicle_type_id":"4","last_reported":1726589481,"current_range_meters":24400,"station_id":"ce4bhn92rcd13ifvqgrg","pricing_plan_id":"cebpf4jnsgd1na2vs0mg"},{"bike_id":"328d45f9-980e-4811-97c0-47d761861509","system_id":"levelo_inurba_marseille","lat":43.29847,"lon":5.37836,"is_reserved":false,"is_disabled":false,"rental_uris":{"android":"levelo://app?vid=328d45f9-980e-4811-97c0-47d761861509","ios":"levelo://app?vid=328d45f9-980e-4811-97c0-47d761861509"},"vehicle_type_id":"4","last_reported":1726589481,"current_range_meters":16800,"station_id":"ce4bgkh2rcd13ifvqbl0","pricing_plan_id":"cebpf4jnsgd1na2vs0mg"},{"bike_id":"7c46ba34-3747-4bf1-9e82-4c2bb84be8d5","system_id":"levelo_inurba_marseille","lat":43.3094,"lon":5.40176,"is_reserved":false,"is_disabled":false,"rental_uris":{"android":"levelo://app?vid=7c46ba34-3747-4bf1-9e82-4c2bb84be8d5","ios":"levelo://app?vid=7c46ba34-3747-4bf1-9e82-4c2bb84be8d5"},"vehicle_type_id":"4","last_reported":1726589481,"current_range_meters":38400,"station_id":"ce4bgvp2rcd13ifvqct0","pricing_plan_id":"cebpf4jnsgd1na2vs0mg"},{"bike_id":"b1512e21-0d75-4511-8316-0151c5567a4e","system_id":"levelo_inurba_marseille","lat":43.29704,"lon":5.36616,"is_reserved":false,"is_disabled":false,"rental_uris":{"android":"levelo://app?vid=b1512e21-0d75-4511-8316-0151c5567a4e","ios":"levelo://app?vid=b1512e21-0d75-4511-8316-0151c5567a4e"},"vehicle_type_id":"4","last_reported":1726589481,"current_range_meters":20800,"station_id":"ce4bgn12rcd13ifvqbt0","pricing_plan_id":"cebpf4jnsgd1na2vs0mg"},{"bike_id":"4d9d0f37-6741-4f82-9c0a-9d39fa851505","system_id":"levelo_inurba_marseille","lat":43.31164,"lon":5.38719,"is_reserved":false,"is_disabled":false,"rental_uris":{"android":"levelo://app?vid=4d9d0f37-6741-4f82-9c0a-9d39fa851505","ios":"levelo://app?vid=4d9d0f37-6741-4f82-9c0a-9d39fa851505"},"vehicle_type_id":"4","last_reported":1726589481,"current_range_meters":27200,"station_id":"ce4bgv12rcd13ifvqcp0","pricing_plan_id":"cebpf4jnsgd1na2vs0mg"},{"bike_id":"fa690805-233a-4a70-a9f3-33f1b67cdb1f","system_id":"levelo_inurba_marseille","lat":43.3228,"lon":5.38269,"is_reserved":false,"is_disabled":false,"rental_uris":{"android":"levelo://app?vid=fa690805-233a-4a70-a9f3-33f1b67cdb1f","ios":"levelo://app?vid=fa690805-233a-4a70-a9f3-33f1b67cdb1f"},"vehicle_type_id":"4","last_reported":1726589481,"current_range_meters":32000,"station_id":"ce4bhr12rcd13ifvqhqg","pricing_plan_id":"cebpf4jnsgd1na2vs0mg"},{"bike_id":"8b608b96-fedf-4511-8d4b-09bad2606e1a","system_id":"levelo_inurba_marseille","lat":43.27723,"lon":5.4113,"is_reserved":false,"is_disabled":false,"rental_uris":{"android":"levelo://app?vid=8b608b96-fedf-4511-8d4b-09bad2606e1a","ios":"levelo://app?vid=8b608b96-fedf-4511-8d4b-09bad2606e1a"},"vehicle_type_id":"4","last_reported":1726589481,"current_range_meters":9200,"station_id":"","pricing_plan_id":"cebpf4jnsgd1na2vs0mg"},{"bike_id":"74fcf1e7-64a1-42f8-bcec-bf0af491e527","system_id":"levelo_inurba_marseille","lat":43.295532,"lon":5.422987,"is_reserved":false,"is_disabled":false,"rental_uris":{"android":"levelo://app?vid=74fcf1e7-64a1-42f8-bcec-bf0af491e527","ios":"levelo://app?vid=74fcf1e7-64a1-42f8-bcec-bf0af491e527"},"vehicle_type_id":"4","last_reported":1726589481,"current_range_meters":8000,"station_id":"ce4bhp92rcd13ifvqhcg","pricing_plan_id":"cebpf4jnsgd1na2vs0mg"},{"bike_id":"d51eda34-b026-42ae-9d57-402e8d4ead63","system_id":"levelo_inurba_marseille","lat":43.30952,"lon":5.39037,"is_reserved":false,"is_disabled":false,"rental_uris":{"android":"levelo://app?vid=d51eda34-b026-42ae-9d57-402e8d4ead63","ios":"levelo://app?vid=d51eda34-b026-42ae-9d57-402e8d4ead63"},"vehicle_type_id":"4","last_reported":1726589481,"current_range_meters":26000,"station_id":"ce4bgup2rcd13ifvqco0","pricing_plan_id":"cebpf4jnsgd1na2vs0mg"},{"bike_id":"7934c2b6-1bac-43bf-8ede-d33bc81e347b","system_id":"levelo_inurba_marseille","lat":43.23966,"lon":5.36632,"is_reserved":false,"is_disabled":false,"rental_uris":{"android":"levelo://app?vid=7934c2b6-1bac-43bf-8ede-d33bc81e347b","ios":"levelo://app?vid=7934c2b6-1bac-43bf-8ede-d33bc81e347b"},"vehicle_type_id":"4","last_reported":1726589481,"current_range_meters":3200,"station_id":"ce4bhi12rcd13ifvqfp0","pricing_plan_id":"cebpf4jnsgd1na2vs0mg"},{"bike_id":"36aeed49-da71-4106-9676-9768d0b45ee4","system_id":"levelo_inurba_marseille","lat":43.27755,"lon":5.39088,"is_reserved":false,"is_disabled":false,"rental_uris":{"android":"levelo://app?vid=36aeed49-da71-4106-9676-9768d0b45ee4","ios":"levelo://app?vid=36aeed49-da71-4106-9676-9768d0b45ee4"},"vehicle_type_id":"4","last_reported":1726589481,"current_range_meters":22400,"station_id":"","pricing_plan_id":"cebpf4jnsgd1na2vs0mg"},{"bike_id":"4e7c08ac-ac94-47f9-a787-3b39dc262b3f","system_id":"levelo_inurba_marseille","lat":43.30889,"lon":5.39655,"is_reserved":false,"is_disabled":false,"rental_uris":{"android":"levelo://app?vid=4e7c08ac-ac94-47f9-a787-3b39dc262b3f","ios":"levelo://app?vid=4e7c08ac-ac94-47f9-a787-3b39dc262b3f"},"vehicle_type_id":"4","last_reported":1726589481,"current_range_meters":13600,"station_id":"ce4bh012rcd13ifvqcv0","pricing_plan_id":"cebpf4jnsgd1na2vs0mg"},{"bike_id":"42e147af-6f9b-4f23-8ed9-148329387cf8","system_id":"levelo_inurba_marseille","lat":43.312653,"lon":5.401728,"is_reserved":false,"is_disabled":false,"rental_uris":{"android":"levelo://app?vid=42e147af-6f9b-4f23-8ed9-148329387cf8","ios":"levelo://app?vid=42e147af-6f9b-4f23-8ed9-148329387cf8"},"vehicle_type_id":"4","last_reported":1726589481,"current_range_meters":16000,"station_id":"ce4bh092rcd13ifvqd30","pricing_plan_id":"cebpf4jnsgd1na2vs0mg"},{"bike_id":"ac552e57-2e76-4073-91c5-f9cfff3a32a3","system_id":"levelo_inurba_marseille","lat":43.29573,"lon":5.36724,"is_reserved":false,"is_disabled":false,"rental_uris":{"android":"levelo://app?vid=ac552e57-2e76-4073-91c5-f9cfff3a32a3","ios":"levelo://app?vid=ac552e57-2e76-4073-91c5-f9cfff3a32a3"},"vehicle_type_id":"4","last_reported":1726589481,"current_range_meters":8800,"station_id":"ce4bgph2rcd13ifvqc2g","pricing_plan_id":"cebpf4jnsgd1na2vs0mg"},{"bike_id":"7f7c3904-f2d7-4775-b8eb-87bb08c0d8f2","system_id":"levelo_inurba_marseille","lat":43.29005,"lon":5.35607,"is_reserved":false,"is_disabled":false,"rental_uris":{"android":"levelo://app?vid=7f7c3904-f2d7-4775-b8eb-87bb08c0d8f2","ios":"levelo://app?vid=7f7c3904-f2d7-4775-b8eb-87bb08c0d8f2"},"vehicle_type_id":"4","last_reported":1726589481,"current_range_meters":32800,"station_id":"ce4bhb92rcd13ifvqen0","pricing_plan_id":"cebpf4jnsgd1na2vs0mg"},{"bike_id":"cac679ff-5392-43ea-93bf-7befb04a5cb2","system_id":"levelo_inurba_marseille","lat":43.28696,"lon":5.3739,"is_reserved":false,"is_disabled":false,"rental_uris":{"android":"levelo://app?vid=cac679ff-5392-43ea-93bf-7befb04a5cb2","ios":"levelo://app?vid=cac679ff-5392-43ea-93bf-7befb04a5cb2"},"vehicle_type_id":"4","last_reported":1726589481,"current_range_meters":19200,"station_id":"ce4bh3p2rcd13ifvqdq0","pricing_plan_id":"cebpf4jnsgd1na2vs0mg"},{"bike_id":"d423ed8f-403e-4941-953d-6e361b8d2aa6","system_id":"levelo_inurba_marseille","lat":43.29435,"lon":5.39751,"is_reserved":false,"is_disabled":false,"rental_uris":{"android":"levelo://app?vid=d423ed8f-403e-4941-953d-6e361b8d2aa6","ios":"levelo://app?vid=d423ed8f-403e-4941-953d-6e361b8d2aa6"},"vehicle_type_id":"4","last_reported":1726589481,"current_range_meters":21600,"station_id":"ce4bh3h2rcd13ifvqdo0","pricing_plan_id":"cebpf4jnsgd1na2vs0mg"},{"bike_id":"70a56108-96ed-4142-9d42-dc14255f2988","system_id":"levelo_inurba_marseille","lat":43.26983,"lon":5.39894,"is_reserved":false,"is_disabled":false,"rental_uris":{"android":"levelo://app?vid=70a56108-96ed-4142-9d42-dc14255f2988","ios":"levelo://app?vid=70a56108-96ed-4142-9d42-dc14255f2988"},"vehicle_type_id":"4","last_reported":1726589481,"current_range_meters":22800,"station_id":"","pricing_plan_id":"cebpf4jnsgd1na2vs0mg"},{"bike_id":"763311e2-11d6-4b84-a9e9-b0617866ec04","system_id":"levelo_inurba_marseille","lat":43.31327,"lon":5.39689,"is_reserved":false,"is_disabled":false,"rental_uris":{"android":"levelo://app?vid=763311e2-11d6-4b84-a9e9-b0617866ec04","ios":"levelo://app?vid=763311e2-11d6-4b84-a9e9-b0617866ec04"},"vehicle_type_id":"4","last_reported":1726589481,"current_range_meters":4000,"station_id":"ce4bgvp2rcd13ifvqcu0","pricing_plan_id":"cebpf4jnsgd1na2vs0mg"},{"bike_id":"7d3b23ed-0c94-46b7-9742-133943fdcffe","system_id":"levelo_inurba_marseille","lat":43.2799,"lon":5.4166,"is_reserved":false,"is_disabled":false,"rental_uris":{"android":"levelo://app?vid=7d3b23ed-0c94-46b7-9742-133943fdcffe","ios":"levelo://app?vid=7d3b23ed-0c94-46b7-9742-133943fdcffe"},"vehicle_type_id":"4","last_reported":1726589481,"current_range_meters":28400,"station_id":"ce4bho12rcd13ifvqh1g","pricing_plan_id":"cebpf4jnsgd1na2vs0mg"},{"bike_id":"41985220-0dee-4086-96ae-4960711f0c78","system_id":"levelo_inurba_marseille","lat":43.295223,"lon":5.390377,"is_reserved":false,"is_disabled":false,"rental_uris":{"android":"levelo://app?vid=41985220-0dee-4086-96ae-4960711f0c78","ios":"levelo://app?vid=41985220-0dee-4086-96ae-4960711f0c78"},"vehicle_type_id":"4","last_reported":1726589481,"current_range_meters":24000,"station_id":"ce4bh3p2rcd13ifvqdp0","pricing_plan_id":"cebpf4jnsgd1na2vs0mg"},{"bike_id":"35344f7f-23b9-44cf-b4f0-94b058da6e82","system_id":"levelo_inurba_marseille","lat":43.27064,"lon":5.40239,"is_reserved":false,"is_disabled":false,"rental_uris":{"android":"levelo://app?vid=35344f7f-23b9-44cf-b4f0-94b058da6e82","ios":"levelo://app?vid=35344f7f-23b9-44cf-b4f0-94b058da6e82"},"vehicle_type_id":"4","last_reported":1726589481,"current_range_meters":8000,"station_id":"ce4bhk92rcd13ifvqgc0","pricing_plan_id":"cebpf4jnsgd1na2vs0mg"},{"bike_id":"88c48fd9-14af-4c3a-aee5-d2372390d921","system_id":"levelo_inurba_marseille","lat":43.24172,"lon":5.39731,"is_reserved":false,"is_disabled":false,"rental_uris":{"android":"levelo://app?vid=88c48fd9-14af-4c3a-aee5-d2372390d921","ios":"levelo://app?vid=88c48fd9-14af-4c3a-aee5-d2372390d921"},"vehicle_type_id":"4","last_reported":1726589481,"current_range_meters":34000,"station_id":"ce4bhn12rcd13ifvqgpg","pricing_plan_id":"cebpf4jnsgd1na2vs0mg"},{"bike_id":"5bb4d307-592c-4eba-aa61-90e5596373ab","system_id":"levelo_inurba_marseille","lat":43.2318,"lon":5.39987,"is_reserved":false,"is_disabled":false,"rental_uris":{"android":"levelo://app?vid=5bb4d307-592c-4eba-aa61-90e5596373ab","ios":"levelo://app?vid=5bb4d307-592c-4eba-aa61-90e5596373ab"},"vehicle_type_id":"4","last_reported":1726589481,"current_range_meters":8400,"station_id":"ce4bhn12rcd13ifvqgqg","pricing_plan_id":"cebpf4jnsgd1na2vs0mg"},{"bike_id":"82dcdc42-43cf-4dfc-9bc3-3af19cb4f4db","system_id":"levelo_inurba_marseille","lat":43.30646,"lon":5.40086,"is_reserved":false,"is_disabled":false,"rental_uris":{"android":"levelo://app?vid=82dcdc42-43cf-4dfc-9bc3-3af19cb4f4db","ios":"levelo://app?vid=82dcdc42-43cf-4dfc-9bc3-3af19cb4f4db"},"vehicle_type_id":"4","last_reported":1726589481,"current_range_meters":34000,"station_id":"ce4bh112rcd13ifvqda0","pricing_plan_id":"cebpf4jnsgd1na2vs0mg"},{"bike_id":"6f387a41-1a28-4619-ac86-26875678b81b","system_id":"levelo_inurba_marseille","lat":43.29897,"lon":5.43672,"is_reserved":false,"is_disabled":false,"rental_uris":{"android":"levelo://app?vid=6f387a41-1a28-4619-ac86-26875678b81b","ios":"levelo://app?vid=6f387a41-1a28-4619-ac86-26875678b81b"},"vehicle_type_id":"4","last_reported":1726589481,"current_range_meters":20400,"station_id":"ce4bhpp2rcd13ifvqhfg","pricing_plan_id":"cebpf4jnsgd1na2vs0mg"},{"bike_id":"30903d89-ed88-4908-b44a-e64df44b9224","system_id":"levelo_inurba_marseille","lat":43.288513,"lon":5.393077,"is_reserved":false,"is_disabled":false,"rental_uris":{"android":"levelo://app?vid=30903d89-ed88-4908-b44a-e64df44b9224","ios":"levelo://app?vid=30903d89-ed88-4908-b44a-e64df44b9224"},"vehicle_type_id":"4","last_reported":1726589481,"current_range_meters":20000,"station_id":"ce4bh2p2rcd13ifvqdi0","pricing_plan_id":"cebpf4jnsgd1na2vs0mg"},{"bike_id":"dbbf7d07-9644-4826-b9cb-088b01a7fe4c","system_id":"levelo_inurba_marseille","lat":43.293701,"lon":5.37847,"is_reserved":false,"is_disabled":false,"rental_uris":{"android":"levelo://app?vid=dbbf7d07-9644-4826-b9cb-088b01a7fe4c","ios":"levelo://app?vid=dbbf7d07-9644-4826-b9cb-088b01a7fe4c"},"vehicle_type_id":"4","last_reported":1726589481,"current_range_meters":29600,"station_id":"ce4bgjh2rcd13ifvqbf0","pricing_plan_id":"cebpf4jnsgd1na2vs0mg"},{"bike_id":"04b843a2-eb15-4990-a5d5-e4688af15940","system_id":"levelo_inurba_marseille","lat":43.24653,"lon":5.38902,"is_reserved":false,"is_disabled":false,"rental_uris":{"android":"levelo://app?vid=04b843a2-eb15-4990-a5d5-e4688af15940","ios":"levelo://app?vid=04b843a2-eb15-4990-a5d5-e4688af15940"},"vehicle_type_id":"4","last_reported":1726589481,"current_range_meters":38800,"station_id":"ce4bhg12rcd13ifvqf60","pricing_plan_id":"cebpf4jnsgd1na2vs0mg"},{"bike_id":"d2c690ab-172f-4e37-9629-c1acb02ca887","system_id":"levelo_inurba_marseille","lat":43.30463,"lon":5.37918,"is_reserved":false,"is_disabled":false,"rental_uris":{"android":"levelo://app?vid=d2c690ab-172f-4e37-9629-c1acb02ca887","ios":"levelo://app?vid=d2c690ab-172f-4e37-9629-c1acb02ca887"},"vehicle_type_id":"4","last_reported":1726589481,"current_range_meters":35200,"station_id":"ce4bgup2rcd13ifvqcn0","pricing_plan_id":"cebpf4jnsgd1na2vs0mg"},{"bike_id":"d2e9915b-6def-4d28-9ee7-7a207ee3e5e7","system_id":"levelo_inurba_marseille","lat":43.27619,"lon":5.36108,"is_reserved":false,"is_disabled":false,"rental_uris":{"android":"levelo://app?vid=d2e9915b-6def-4d28-9ee7-7a207ee3e5e7","ios":"levelo://app?vid=d2e9915b-6def-4d28-9ee7-7a207ee3e5e7"},"vehicle_type_id":"4","last_reported":1726589481,"current_range_meters":27200,"station_id":"ce4bgj92rcd13ifvqbe0","pricing_plan_id":"cebpf4jnsgd1na2vs0mg"},{"bike_id":"05d7b1ca-e0f5-4551-94ef-be4cc7fb2757","system_id":"levelo_inurba_marseille","lat":43.31753,"lon":5.39024,"is_reserved":false,"is_disabled":false,"rental_uris":{"android":"levelo://app?vid=05d7b1ca-e0f5-4551-94ef-be4cc7fb2757","ios":"levelo://app?vid=05d7b1ca-e0f5-4551-94ef-be4cc7fb2757"},"vehicle_type_id":"4","last_reported":1726589481,"current_range_meters":17200,"station_id":"ce4bhqp2rcd13ifvqhng","pricing_plan_id":"cebpf4jnsgd1na2vs0mg"},{"bike_id":"dbd98bc5-b0a2-4da5-bab8-fcdfea9ab87e","system_id":"levelo_inurba_marseille","lat":43.29706,"lon":5.36617,"is_reserved":false,"is_disabled":false,"rental_uris":{"android":"levelo://app?vid=dbd98bc5-b0a2-4da5-bab8-fcdfea9ab87e","ios":"levelo://app?vid=dbd98bc5-b0a2-4da5-bab8-fcdfea9ab87e"},"vehicle_type_id":"4","last_reported":1726589481,"current_range_meters":38800,"station_id":"ce4bgn12rcd13ifvqbt0","pricing_plan_id":"cebpf4jnsgd1na2vs0mg"},{"bike_id":"ca42bf31-578d-4027-86c9-a89c31ecd503","system_id":"levelo_inurba_marseille","lat":43.32371,"lon":5.3888,"is_reserved":false,"is_disabled":false,"rental_uris":{"android":"levelo://app?vid=ca42bf31-578d-4027-86c9-a89c31ecd503","ios":"levelo://app?vid=ca42bf31-578d-4027-86c9-a89c31ecd503"},"vehicle_type_id":"4","last_reported":1726589481,"current_range_meters":11200,"station_id":"ce4bhqp2rcd13ifvqhog","pricing_plan_id":"cebpf4jnsgd1na2vs0mg"},{"bike_id":"03e9886e-db52-4e24-9cdd-9dc143cf4bff","system_id":"levelo_inurba_marseille","lat":43.30531,"lon":5.36536,"is_reserved":false,"is_disabled":false,"rental_uris":{"android":"levelo://app?vid=03e9886e-db52-4e24-9cdd-9dc143cf4bff","ios":"levelo://app?vid=03e9886e-db52-4e24-9cdd-9dc143cf4bff"},"vehicle_type_id":"4","last_reported":1726589481,"current_range_meters":38800,"station_id":"ce4bgs12rcd13ifvqcag","pricing_plan_id":"cebpf4jnsgd1na2vs0mg"},{"bike_id":"0e41f1e6-9c0f-4b21-a785-7a4c6e282185","system_id":"levelo_inurba_marseille","lat":43.32471,"lon":5.3657,"is_reserved":false,"is_disabled":false,"rental_uris":{"android":"levelo://app?vid=0e41f1e6-9c0f-4b21-a785-7a4c6e282185","ios":"levelo://app?vid=0e41f1e6-9c0f-4b21-a785-7a4c6e282185"},"vehicle_type_id":"4","last_reported":1726589481,"current_range_meters":20800,"station_id":"ce4bhs12rcd13ifvqhvg","pricing_plan_id":"cebpf4jnsgd1na2vs0mg"},{"bike_id":"b19bdb04-768d-4ba2-a58f-5557970c2c47","system_id":"levelo_inurba_marseille","lat":43.31754,"lon":5.39015,"is_reserved":false,"is_disabled":false,"rental_uris":{"android":"levelo://app?vid=b19bdb04-768d-4ba2-a58f-5557970c2c47","ios":"levelo://app?vid=b19bdb04-768d-4ba2-a58f-5557970c2c47"},"vehicle_type_id":"4","last_reported":1726589481,"current_range_meters":24000,"station_id":"ce4bhqp2rcd13ifvqhng","pricing_plan_id":"cebpf4jnsgd1na2vs0mg"},{"bike_id":"6ba1384a-3627-499e-a04f-5ef6adb3e69c","system_id":"levelo_inurba_marseille","lat":43.29929,"lon":5.36534,"is_reserved":false,"is_disabled":false,"rental_uris":{"android":"levelo://app?vid=6ba1384a-3627-499e-a04f-5ef6adb3e69c","ios":"levelo://app?vid=6ba1384a-3627-499e-a04f-5ef6adb3e69c"},"vehicle_type_id":"4","last_reported":1726589481,"current_range_meters":23200,"station_id":"ce4bgm92rcd13ifvqbr0","pricing_plan_id":"cebpf4jnsgd1na2vs0mg"},{"bike_id":"6791405b-f4d6-4bc3-8bf8-112850d3ebd7","system_id":"levelo_inurba_marseille","lat":43.279824,"lon":5.410002,"is_reserved":false,"is_disabled":false,"rental_uris":{"android":"levelo://app?vid=6791405b-f4d6-4bc3-8bf8-112850d3ebd7","ios":"levelo://app?vid=6791405b-f4d6-4bc3-8bf8-112850d3ebd7"},"vehicle_type_id":"4","last_reported":1726589481,"current_range_meters":24800,"station_id":"ce4bhnp2rcd13ifvqh0g","pricing_plan_id":"cebpf4jnsgd1na2vs0mg"},{"bike_id":"26ba5574-0cad-4092-9c82-14cec70d01f9","system_id":"levelo_inurba_marseille","lat":43.25576,"lon":5.38222,"is_reserved":false,"is_disabled":false,"rental_uris":{"android":"levelo://app?vid=26ba5574-0cad-4092-9c82-14cec70d01f9","ios":"levelo://app?vid=26ba5574-0cad-4092-9c82-14cec70d01f9"},"vehicle_type_id":"4","last_reported":1726589481,"current_range_meters":24400,"station_id":"ce4bhih2rcd13ifvqfs0","pricing_plan_id":"cebpf4jnsgd1na2vs0mg"},{"bike_id":"63c5d175-fd82-4be5-bc62-c2cd10490b6d","system_id":"levelo_inurba_marseille","lat":43.33717,"lon":5.39178,"is_reserved":false,"is_disabled":false,"rental_uris":{"android":"levelo://app?vid=63c5d175-fd82-4be5-bc62-c2cd10490b6d","ios":"levelo://app?vid=63c5d175-fd82-4be5-bc62-c2cd10490b6d"},"vehicle_type_id":"4","last_reported":1726589481,"current_range_meters":37600,"station_id":"ce4bhr92rcd13ifvqhsg","pricing_plan_id":"cebpf4jnsgd1na2vs0mg"},{"bike_id":"110f240c-282b-4952-824c-db726a1b2b0b","system_id":"levelo_inurba_marseille","lat":43.32291,"lon":5.38276,"is_reserved":false,"is_disabled":false,"rental_uris":{"android":"levelo://app?vid=110f240c-282b-4952-824c-db726a1b2b0b","ios":"levelo://app?vid=110f240c-282b-4952-824c-db726a1b2b0b"},"vehicle_type_id":"4","last_reported":1726589481,"current_range_meters":35200,"station_id":"ce4bhr12rcd13ifvqhqg","pricing_plan_id":"cebpf4jnsgd1na2vs0mg"},{"bike_id":"fe1c1b54-5398-4814-8ceb-d2712463d0cc","system_id":"levelo_inurba_marseille","lat":43.29969,"lon":5.38492,"is_reserved":false,"is_disabled":false,"rental_uris":{"android":"levelo://app?vid=fe1c1b54-5398-4814-8ceb-d2712463d0cc","ios":"levelo://app?vid=fe1c1b54-5398-4814-8ceb-d2712463d0cc"},"vehicle_type_id":"4","last_reported":1726589481,"current_range_meters":32400,"station_id":"ce4bgj92rcd13ifvqbd0","pricing_plan_id":"cebpf4jnsgd1na2vs0mg"},{"bike_id":"e4eecd57-be90-4dae-ab0d-f83476208072","system_id":"levelo_inurba_marseille","lat":43.30147,"lon":5.37427,"is_reserved":false,"is_disabled":false,"rental_uris":{"android":"levelo://app?vid=e4eecd57-be90-4dae-ab0d-f83476208072","ios":"levelo://app?vid=e4eecd57-be90-4dae-ab0d-f83476208072"},"vehicle_type_id":"4","last_reported":1726589481,"current_range_meters":28000,"station_id":"ce4bhq12rcd13ifvqhig","pricing_plan_id":"cebpf4jnsgd1na2vs0mg"},{"bike_id":"c6d3e2d3-956f-400e-acab-412e06c16d9f","system_id":"levelo_inurba_marseille","lat":43.29582,"lon":5.36733,"is_reserved":false,"is_disabled":false,"rental_uris":{"android":"levelo://app?vid=c6d3e2d3-956f-400e-acab-412e06c16d9f","ios":"levelo://app?vid=c6d3e2d3-956f-400e-acab-412e06c16d9f"},"vehicle_type_id":"4","last_reported":1726589481,"current_range_meters":39200,"station_id":"ce4bgph2rcd13ifvqc2g","pricing_plan_id":"cebpf4jnsgd1na2vs0mg"},{"bike_id":"96d141e5-e16a-4357-ae6c-fafe3916c30e","system_id":"levelo_inurba_marseille","lat":43.293789,"lon":5.372749,"is_reserved":false,"is_disabled":false,"rental_uris":{"android":"levelo://app?vid=96d141e5-e16a-4357-ae6c-fafe3916c30e","ios":"levelo://app?vid=96d141e5-e16a-4357-ae6c-fafe3916c30e"},"vehicle_type_id":"4","last_reported":1726589481,"current_range_meters":19600,"station_id":"ce4bhc92rcd13ifvqetg","pricing_plan_id":"cebpf4jnsgd1na2vs0mg"},{"bike_id":"7093a889-90cc-4d9d-b589-3bef695b5083","system_id":"levelo_inurba_marseille","lat":43.31712,"lon":5.43705,"is_reserved":false,"is_disabled":false,"rental_uris":{"android":"levelo://app?vid=7093a889-90cc-4d9d-b589-3bef695b5083","ios":"levelo://app?vid=7093a889-90cc-4d9d-b589-3bef695b5083"},"vehicle_type_id":"4","last_reported":1726589481,"current_range_meters":17200,"station_id":"ce4bhp92rcd13ifvqhcg","pricing_plan_id":"cebpf4jnsgd1na2vs0mg"},{"bike_id":"bd965961-f6d8-4563-a88d-b35679c733f7","system_id":"levelo_inurba_marseille","lat":43.30139,"lon":5.37405,"is_reserved":false,"is_disabled":false,"rental_uris":{"android":"levelo://app?vid=bd965961-f6d8-4563-a88d-b35679c733f7","ios":"levelo://app?vid=bd965961-f6d8-4563-a88d-b35679c733f7"},"vehicle_type_id":"4","last_reported":1726589481,"current_range_meters":10800,"station_id":"ce4bgs92rcd13ifvqcc0","pricing_plan_id":"cebpf4jnsgd1na2vs0mg"},{"bike_id":"5bb1d010-0238-448f-a470-fc44e8685316","system_id":"levelo_inurba_marseille","lat":43.23189,"lon":5.35545,"is_reserved":false,"is_disabled":false,"rental_uris":{"android":"levelo://app?vid=5bb1d010-0238-448f-a470-fc44e8685316","ios":"levelo://app?vid=5bb1d010-0238-448f-a470-fc44e8685316"},"vehicle_type_id":"4","last_reported":1726589481,"current_range_meters":33600,"station_id":"ce4bhu92rcd13ifvqi70","pricing_plan_id":"cebpf4jnsgd1na2vs0mg"},{"bike_id":"7ed691ad-cf2e-4278-8166-adc7971f7075","system_id":"levelo_inurba_marseille","lat":43.33027,"lon":5.39053,"is_reserved":false,"is_disabled":false,"rental_uris":{"android":"levelo://app?vid=7ed691ad-cf2e-4278-8166-adc7971f7075","ios":"levelo://app?vid=7ed691ad-cf2e-4278-8166-adc7971f7075"},"vehicle_type_id":"4","last_reported":1726589481,"current_range_meters":24400,"station_id":"ce4bhr92rcd13ifvqhrg","pricing_plan_id":"cebpf4jnsgd1na2vs0mg"},{"bike_id":"a774a980-1461-47a5-86e2-5fe8d0608fe7","system_id":"levelo_inurba_marseille","lat":43.31711,"lon":5.43706,"is_reserved":false,"is_disabled":false,"rental_uris":{"android":"levelo://app?vid=a774a980-1461-47a5-86e2-5fe8d0608fe7","ios":"levelo://app?vid=a774a980-1461-47a5-86e2-5fe8d0608fe7"},"vehicle_type_id":"4","last_reported":1726589481,"current_range_meters":18000,"station_id":"ce4bhp92rcd13ifvqhcg","pricing_plan_id":"cebpf4jnsgd1na2vs0mg"},{"bike_id":"8ff06290-4a79-4ecd-a231-edc1855bc41e","system_id":"levelo_inurba_marseille","lat":43.29793,"lon":5.38098,"is_reserved":false,"is_disabled":false,"rental_uris":{"android":"levelo://app?vid=8ff06290-4a79-4ecd-a231-edc1855bc41e","ios":"levelo://app?vid=8ff06290-4a79-4ecd-a231-edc1855bc41e"},"vehicle_type_id":"4","last_reported":1726589481,"current_range_meters":6800,"station_id":"ce4bgip2rcd13ifvqbb0","pricing_plan_id":"cebpf4jnsgd1na2vs0mg"},{"bike_id":"b7da88ef-a63b-4cb1-9154-dd2c7ccb96af","system_id":"levelo_inurba_marseille","lat":43.32293,"lon":5.38262,"is_reserved":false,"is_disabled":false,"rental_uris":{"android":"levelo://app?vid=b7da88ef-a63b-4cb1-9154-dd2c7ccb96af","ios":"levelo://app?vid=b7da88ef-a63b-4cb1-9154-dd2c7ccb96af"},"vehicle_type_id":"4","last_reported":1726589481,"current_range_meters":30800,"station_id":"ce4bhr12rcd13ifvqhqg","pricing_plan_id":"cebpf4jnsgd1na2vs0mg"},{"bike_id":"bdb39330-5975-4c48-aab8-9dba954320be","system_id":"levelo_inurba_marseille","lat":43.29702,"lon":5.36598,"is_reserved":false,"is_disabled":false,"rental_uris":{"android":"levelo://app?vid=bdb39330-5975-4c48-aab8-9dba954320be","ios":"levelo://app?vid=bdb39330-5975-4c48-aab8-9dba954320be"},"vehicle_type_id":"4","last_reported":1726589481,"current_range_meters":16000,"station_id":"ce4bgn12rcd13ifvqbt0","pricing_plan_id":"cebpf4jnsgd1na2vs0mg"},{"bike_id":"5f20ad4e-33cc-4948-a327-0a9f826cf76f","system_id":"levelo_inurba_marseille","lat":43.29523,"lon":5.38539,"is_reserved":false,"is_disabled":false,"rental_uris":{"android":"levelo://app?vid=5f20ad4e-33cc-4948-a327-0a9f826cf76f","ios":"levelo://app?vid=5f20ad4e-33cc-4948-a327-0a9f826cf76f"},"vehicle_type_id":"4","last_reported":1726589481,"current_range_meters":4400,"station_id":"ce4bgih2rcd13ifvqba0","pricing_plan_id":"cebpf4jnsgd1na2vs0mg"},{"bike_id":"f6fdaa6c-8ffe-4864-97b4-d218c88f7394","system_id":"levelo_inurba_marseille","lat":43.27366,"lon":5.36253,"is_reserved":false,"is_disabled":false,"rental_uris":{"android":"levelo://app?vid=f6fdaa6c-8ffe-4864-97b4-d218c88f7394","ios":"levelo://app?vid=f6fdaa6c-8ffe-4864-97b4-d218c88f7394"},"vehicle_type_id":"4","last_reported":1726589481,"current_range_meters":39200,"station_id":"ce4bhbh2rcd13ifvqeo0","pricing_plan_id":"cebpf4jnsgd1na2vs0mg"},{"bike_id":"5fd8ec2c-b573-4def-8c65-4c1895c52680","system_id":"levelo_inurba_marseille","lat":43.29708,"lon":5.36609,"is_reserved":false,"is_disabled":false,"rental_uris":{"android":"levelo://app?vid=5fd8ec2c-b573-4def-8c65-4c1895c52680","ios":"levelo://app?vid=5fd8ec2c-b573-4def-8c65-4c1895c52680"},"vehicle_type_id":"4","last_reported":1726589481,"current_range_meters":25200,"station_id":"ce4bgn12rcd13ifvqbt0","pricing_plan_id":"cebpf4jnsgd1na2vs0mg"},{"bike_id":"4929f1ba-6bb8-4cec-9ea3-e8ec1496dc09","system_id":"levelo_inurba_marseille","lat":43.29937,"lon":5.36542,"is_reserved":false,"is_disabled":false,"rental_uris":{"android":"levelo://app?vid=4929f1ba-6bb8-4cec-9ea3-e8ec1496dc09","ios":"levelo://app?vid=4929f1ba-6bb8-4cec-9ea3-e8ec1496dc09"},"vehicle_type_id":"4","last_reported":1726589481,"current_range_meters":38800,"station_id":"ce4bgm92rcd13ifvqbr0","pricing_plan_id":"cebpf4jnsgd1na2vs0mg"},{"bike_id":"25d9ed68-6626-427f-a580-35786d46fb4d","system_id":"levelo_inurba_marseille","lat":43.29539,"lon":5.37512,"is_reserved":false,"is_disabled":false,"rental_uris":{"android":"levelo://app?vid=25d9ed68-6626-427f-a580-35786d46fb4d","ios":"levelo://app?vid=25d9ed68-6626-427f-a580-35786d46fb4d"},"vehicle_type_id":"4","last_reported":1726589481,"current_range_meters":4800,"station_id":"ce4bgkp2rcd13ifvqbmg","pricing_plan_id":"cebpf4jnsgd1na2vs0mg"},{"bike_id":"6df9fc46-3b77-403b-b323-f0f0db711f97","system_id":"levelo_inurba_marseille","lat":43.27615,"lon":5.36112,"is_reserved":false,"is_disabled":false,"rental_uris":{"android":"levelo://app?vid=6df9fc46-3b77-403b-b323-f0f0db711f97","ios":"levelo://app?vid=6df9fc46-3b77-403b-b323-f0f0db711f97"},"vehicle_type_id":"4","last_reported":1726589481,"current_range_meters":30000,"station_id":"ce4bgj92rcd13ifvqbe0","pricing_plan_id":"cebpf4jnsgd1na2vs0mg"},{"bike_id":"0a33859e-bd8e-40d6-89a3-928c4c40622d","system_id":"levelo_inurba_marseille","lat":43.29955,"lon":5.41326,"is_reserved":false,"is_disabled":false,"rental_uris":{"android":"levelo://app?vid=0a33859e-bd8e-40d6-89a3-928c4c40622d","ios":"levelo://app?vid=0a33859e-bd8e-40d6-89a3-928c4c40622d"},"vehicle_type_id":"4","last_reported":1726589481,"current_range_meters":28400,"station_id":"ce4bhp12rcd13ifvqh9g","pricing_plan_id":"cebpf4jnsgd1na2vs0mg"},{"bike_id":"996c1db0-6d53-45eb-9f9b-ed64ea715095","system_id":"levelo_inurba_marseille","lat":43.28817,"lon":5.35961,"is_reserved":false,"is_disabled":false,"rental_uris":{"android":"levelo://app?vid=996c1db0-6d53-45eb-9f9b-ed64ea715095","ios":"levelo://app?vid=996c1db0-6d53-45eb-9f9b-ed64ea715095"},"vehicle_type_id":"4","last_reported":1726589481,"current_range_meters":22800,"station_id":"ce4bhb12rcd13ifvqem0","pricing_plan_id":"cebpf4jnsgd1na2vs0mg"},{"bike_id":"181db6d0-9e7c-4265-b3c4-22298e816e02","system_id":"levelo_inurba_marseille","lat":43.28704,"lon":5.37393,"is_reserved":false,"is_disabled":false,"rental_uris":{"android":"levelo://app?vid=181db6d0-9e7c-4265-b3c4-22298e816e02","ios":"levelo://app?vid=181db6d0-9e7c-4265-b3c4-22298e816e02"},"vehicle_type_id":"4","last_reported":1726589481,"current_range_meters":16800,"station_id":"ce4bh3p2rcd13ifvqdq0","pricing_plan_id":"cebpf4jnsgd1na2vs0mg"},{"bike_id":"75389189-e262-4560-8ade-f9b7aff4d839","system_id":"levelo_inurba_marseille","lat":43.301819,"lon":5.394343,"is_reserved":false,"is_disabled":false,"rental_uris":{"android":"levelo://app?vid=75389189-e262-4560-8ade-f9b7aff4d839","ios":"levelo://app?vid=75389189-e262-4560-8ade-f9b7aff4d839"},"vehicle_type_id":"4","last_reported":1726589481,"current_range_meters":28400,"station_id":"ce4bh0p2rcd13ifvqd70","pricing_plan_id":"cebpf4jnsgd1na2vs0mg"},{"bike_id":"9e36d06d-b039-4c72-8b6c-2b3cbb15145c","system_id":"levelo_inurba_marseille","lat":43.26558,"lon":5.37283,"is_reserved":false,"is_disabled":false,"rental_uris":{"android":"levelo://app?vid=9e36d06d-b039-4c72-8b6c-2b3cbb15145c","ios":"levelo://app?vid=9e36d06d-b039-4c72-8b6c-2b3cbb15145c"},"vehicle_type_id":"4","last_reported":1726589481,"current_range_meters":7200,"station_id":"ce4bhg12rcd13ifvqf70","pricing_plan_id":"cebpf4jnsgd1na2vs0mg"},{"bike_id":"b345c720-054e-40a0-84f3-01ee0a6c9525","system_id":"levelo_inurba_marseille","lat":43.30637,"lon":5.40076,"is_reserved":false,"is_disabled":false,"rental_uris":{"android":"levelo://app?vid=b345c720-054e-40a0-84f3-01ee0a6c9525","ios":"levelo://app?vid=b345c720-054e-40a0-84f3-01ee0a6c9525"},"vehicle_type_id":"4","last_reported":1726589481,"current_range_meters":38800,"station_id":"ce4bh112rcd13ifvqda0","pricing_plan_id":"cebpf4jnsgd1na2vs0mg"},{"bike_id":"ac92ede7-4299-4a39-8395-ae0b535578ed","system_id":"levelo_inurba_marseille","lat":43.295532,"lon":5.375035,"is_reserved":false,"is_disabled":false,"rental_uris":{"android":"levelo://app?vid=ac92ede7-4299-4a39-8395-ae0b535578ed","ios":"levelo://app?vid=ac92ede7-4299-4a39-8395-ae0b535578ed"},"vehicle_type_id":"4","last_reported":1726589481,"current_range_meters":30400,"station_id":"ce4bgkp2rcd13ifvqbmg","pricing_plan_id":"cebpf4jnsgd1na2vs0mg"},{"bike_id":"395c1213-d6ee-49a2-85d6-6e50c11ea89f","system_id":"levelo_inurba_marseille","lat":43.28616,"lon":5.35103,"is_reserved":false,"is_disabled":false,"rental_uris":{"android":"levelo://app?vid=395c1213-d6ee-49a2-85d6-6e50c11ea89f","ios":"levelo://app?vid=395c1213-d6ee-49a2-85d6-6e50c11ea89f"},"vehicle_type_id":"4","last_reported":1726589481,"current_range_meters":8000,"station_id":"ce4bhch2rcd13ifvqeug","pricing_plan_id":"cebpf4jnsgd1na2vs0mg"},{"bike_id":"aac90c2f-f3ec-412b-956d-ba70b7515be8","system_id":"levelo_inurba_marseille","lat":43.2923,"lon":5.36058,"is_reserved":false,"is_disabled":false,"rental_uris":{"android":"levelo://app?vid=aac90c2f-f3ec-412b-956d-ba70b7515be8","ios":"levelo://app?vid=aac90c2f-f3ec-412b-956d-ba70b7515be8"},"vehicle_type_id":"4","last_reported":1726589481,"current_range_meters":32000,"station_id":"","pricing_plan_id":"cebpf4jnsgd1na2vs0mg"},{"bike_id":"8c2c5b40-001d-42a1-8816-89d396e114a2","system_id":"levelo_inurba_marseille","lat":43.31065,"lon":5.38352,"is_reserved":false,"is_disabled":false,"rental_uris":{"android":"levelo://app?vid=8c2c5b40-001d-42a1-8816-89d396e114a2","ios":"levelo://app?vid=8c2c5b40-001d-42a1-8816-89d396e114a2"},"vehicle_type_id":"4","last_reported":1726589481,"current_range_meters":28800,"station_id":"ce4bgv92rcd13ifvqcr0","pricing_plan_id":"cebpf4jnsgd1na2vs0mg"},{"bike_id":"6851ffd4-0830-4176-8ccf-80499d971c72","system_id":"levelo_inurba_marseille","lat":43.29912,"lon":5.38147,"is_reserved":false,"is_disabled":false,"rental_uris":{"android":"levelo://app?vid=6851ffd4-0830-4176-8ccf-80499d971c72","ios":"levelo://app?vid=6851ffd4-0830-4176-8ccf-80499d971c72"},"vehicle_type_id":"4","last_reported":1726589481,"current_range_meters":17600,"station_id":"ce4bgj12rcd13ifvqbc0","pricing_plan_id":"cebpf4jnsgd1na2vs0mg"},{"bike_id":"7e0c5a11-79d5-4fbe-9669-bf2a57964368","system_id":"levelo_inurba_marseille","lat":43.33721,"lon":5.39184,"is_reserved":false,"is_disabled":false,"rental_uris":{"android":"levelo://app?vid=7e0c5a11-79d5-4fbe-9669-bf2a57964368","ios":"levelo://app?vid=7e0c5a11-79d5-4fbe-9669-bf2a57964368"},"vehicle_type_id":"4","last_reported":1726589481,"current_range_meters":38800,"station_id":"ce4bhr92rcd13ifvqhsg","pricing_plan_id":"cebpf4jnsgd1na2vs0mg"},{"bike_id":"bef56d0b-7bee-4ae2-9d95-faf6c81e39bb","system_id":"levelo_inurba_marseille","lat":43.231862,"lon":5.399906,"is_reserved":false,"is_disabled":false,"rental_uris":{"android":"levelo://app?vid=bef56d0b-7bee-4ae2-9d95-faf6c81e39bb","ios":"levelo://app?vid=bef56d0b-7bee-4ae2-9d95-faf6c81e39bb"},"vehicle_type_id":"4","last_reported":1726589481,"current_range_meters":10800,"station_id":"ce4bhn12rcd13ifvqgqg","pricing_plan_id":"cebpf4jnsgd1na2vs0mg"},{"bike_id":"685022df-6d81-434e-a3db-6d224f227602","system_id":"levelo_inurba_marseille","lat":43.31331,"lon":5.39694,"is_reserved":false,"is_disabled":false,"rental_uris":{"android":"levelo://app?vid=685022df-6d81-434e-a3db-6d224f227602","ios":"levelo://app?vid=685022df-6d81-434e-a3db-6d224f227602"},"vehicle_type_id":"4","last_reported":1726589481,"current_range_meters":36000,"station_id":"ce4bgvp2rcd13ifvqcu0","pricing_plan_id":"cebpf4jnsgd1na2vs0mg"},{"bike_id":"f5d53549-a420-4bac-a7d8-c6cac0229a19","system_id":"levelo_inurba_marseille","lat":43.33608,"lon":5.41034,"is_reserved":false,"is_disabled":false,"rental_uris":{"android":"levelo://app?vid=f5d53549-a420-4bac-a7d8-c6cac0229a19","ios":"levelo://app?vid=f5d53549-a420-4bac-a7d8-c6cac0229a19"},"vehicle_type_id":"4","last_reported":1726589481,"current_range_meters":33200,"station_id":"ce4bhqh2rcd13ifvqhmg","pricing_plan_id":"cebpf4jnsgd1na2vs0mg"},{"bike_id":"003b572c-b36b-468d-9263-256c1ba29c15","system_id":"levelo_inurba_marseille","lat":43.299,"lon":5.43673,"is_reserved":false,"is_disabled":false,"rental_uris":{"android":"levelo://app?vid=003b572c-b36b-468d-9263-256c1ba29c15","ios":"levelo://app?vid=003b572c-b36b-468d-9263-256c1ba29c15"},"vehicle_type_id":"4","last_reported":1726589481,"current_range_meters":38000,"station_id":"ce4bhpp2rcd13ifvqhfg","pricing_plan_id":"cebpf4jnsgd1na2vs0mg"},{"bike_id":"6025e595-8b72-4425-9407-cfb819780878","system_id":"levelo_inurba_marseille","lat":43.26562,"lon":5.37283,"is_reserved":false,"is_disabled":false,"rental_uris":{"android":"levelo://app?vid=6025e595-8b72-4425-9407-cfb819780878","ios":"levelo://app?vid=6025e595-8b72-4425-9407-cfb819780878"},"vehicle_type_id":"4","last_reported":1726589481,"current_range_meters":19600,"station_id":"ce4bhg12rcd13ifvqf70","pricing_plan_id":"cebpf4jnsgd1na2vs0mg"},{"bike_id":"63ce5163-1a57-4f21-a38b-2641e00cb93f","system_id":"levelo_inurba_marseille","lat":43.28463,"lon":5.35895,"is_reserved":false,"is_disabled":false,"rental_uris":{"android":"levelo://app?vid=63ce5163-1a57-4f21-a38b-2641e00cb93f","ios":"levelo://app?vid=63ce5163-1a57-4f21-a38b-2641e00cb93f"},"vehicle_type_id":"4","last_reported":1726589481,"current_range_meters":22800,"station_id":"ce4bhah2rcd13ifvqei0","pricing_plan_id":"cebpf4jnsgd1na2vs0mg"},{"bike_id":"700abf2f-cd33-4c46-8212-7e992614b346","system_id":"levelo_inurba_marseille","lat":43.29925,"lon":5.36526,"is_reserved":false,"is_disabled":false,"rental_uris":{"android":"levelo://app?vid=700abf2f-cd33-4c46-8212-7e992614b346","ios":"levelo://app?vid=700abf2f-cd33-4c46-8212-7e992614b346"},"vehicle_type_id":"4","last_reported":1726589481,"current_range_meters":36400,"station_id":"ce4bgm92rcd13ifvqbr0","pricing_plan_id":"cebpf4jnsgd1na2vs0mg"},{"bike_id":"265160cd-a5e7-4779-b98a-89b4bed60118","system_id":"levelo_inurba_marseille","lat":43.32334,"lon":5.40621,"is_reserved":false,"is_disabled":false,"rental_uris":{"android":"levelo://app?vid=265160cd-a5e7-4779-b98a-89b4bed60118","ios":"levelo://app?vid=265160cd-a5e7-4779-b98a-89b4bed60118"},"vehicle_type_id":"4","last_reported":1726589481,"current_range_meters":32000,"station_id":"ce4bhq92rcd13ifvqhjg","pricing_plan_id":"cebpf4jnsgd1na2vs0mg"},{"bike_id":"bf42da3c-7f5f-4819-975b-9c5c4dc987ba","system_id":"levelo_inurba_marseille","lat":43.28266,"lon":5.35069,"is_reserved":false,"is_disabled":false,"rental_uris":{"android":"levelo://app?vid=bf42da3c-7f5f-4819-975b-9c5c4dc987ba","ios":"levelo://app?vid=bf42da3c-7f5f-4819-975b-9c5c4dc987ba"},"vehicle_type_id":"4","last_reported":1726589481,"current_range_meters":24800,"station_id":"ce4bhbp2rcd13ifvqerg","pricing_plan_id":"cebpf4jnsgd1na2vs0mg"},