{"last_updated":1769462038,"ttl":60,"version":"2.2","data":{"bikes":[{"bike_id":"c101c5e7-a92c-4262-9de4-730cf3520d3e","system_id":"levelo_inurba_marseille","lat":43.24403,"lon":5.37059,"is_reserved":false,"is_disabled":false,"rental_uris":{"android":"levelo://app?vid=c101c5e7-a92c-4262-9de4-730cf3520d3e","ios":"levelo://app?vid=c101c5e7-a92c-4262-9de4-730cf3520d3e"},"vehicle_type_id":"4","last_reported":1769462039,"current_range_meters":2800,"station_id":"ce4bhhh2rcd13ifvqfk0","pricing_plan_id":"cebpf4jnsgd1na2vs0mg"},{"bike_id":"6e9fc606-704c-4bfa-839d-78e8dbfd140c","system_id":"levelo_inurba_marseille","lat":43.30315,"lon":5.36905,"is_reserved":false,"is_disabled":true,"rental_uris":{"android":"levelo://app?vid=6e9fc606-704c-4bfa-839d-78e8dbfd140c","ios":"levelo://app?vid=6e9fc606-704c-4bfa-839d-78e8dbfd140c"},"vehicle_type_id":"4","last_reported":1769462039,"current_range_meters":2800,"station_id":"ce4bgqh2rcd13ifvqc5g","pricing_plan_id":"cebpf4jnsgd1na2vs0mg"},{"bike_id":"82b5d913-4277-4632-aba8-efdc4660c6ca","system_id":"levelo_inurba_marseille","lat":43.321092,"lon":5.36766,"is_reserved":false,"is_disabled":false,"rental_uris":{"android":"levelo://app?vid=82b5d913-4277-4632-aba8-efdc4660c6ca","ios":"levelo://app?vid=82b5d913-4277-4632-aba8-efdc4660c6ca"},"vehicle_type_id":"4","last_reported":1769462039,"current_range_meters":2800,"station_id":"ce4bhrh2rcd13ifvqhug","pricing_plan_id":"cebpf4jnsgd1na2vs0mg"},{"bike_id":"8e2505b4-5347-4269-b234-fa04e1475066","system_id":"levelo_inurba_marseille","lat":43.28968,"lon":5.37843,"is_reserved":false,"is_disabled":false,"rental_uris":{"android":"levelo://app?vid=8e2505b4-5347-4269-b234-fa04e1475066","ios":"levelo://app?vid=8e2505b4-5347-4269-b234-fa04e1475066"},"vehicle_type_id":"4","last_reported":1769462039,"current_range_meters":2800,"station_id":"ce4bh9p2rcd13ifvqed0","pricing_plan_id":"cebpf4jnsgd1na2vs0mg"},{"bike_id":"c617e641-6731-42d0-9e99-c0557746d623","system_id":"levelo_inurba_marseille","lat":43.295929,"lon":5.380929,"is_reserved":false,"is_disabled":false,"rental_uris":{"android":"levelo://app?vid=c617e641-6731-42d0-9e99-c0557746d623","ios":"levelo://app?vid=c617e641-6731-42d0-9e99-c0557746d623"},"vehicle_type_id":"4","last_reported":1769462039,"current_range_meters":2800,"station_id":"ce4bgl12rcd13ifvqbo0","pricing_plan_id":"cebpf4jnsgd1na2vs0mg"},{"bike_id":"a7d2959e-278b-41d6-9192-a644114b55de","system_id":"levelo_inurba_marseille","lat":43.237884,"lon":5.366351,"is_reserved":false,"is_disabled":false,"rental_uris":{"android":"levelo://app?vid=a7d2959e-278b-41d6-9192-a644114b55de","ios":"levelo://app?vid=a7d2959e-278b-41d6-9192-a644114b55de"},"vehicle_type_id":"4","last_reported":1769462039,"current_range_meters":2800,"station_id":"st_d3nk18o9ro0c73en2l3g","pricing_plan_id":"cebpf4jnsgd1na2vs0mg"},{"bike_id":"b431b3d6-ab44-474b-b942-9bae8f5fe3d9","system_id":"levelo_inurba_marseille","lat":43.28441,"lon":5.3919,"is_reserved":false,"is_disabled":false,"rental_uris":{"android":"levelo://app?vid=b431b3d6-ab44-474b-b942-9bae8f5fe3d9","ios":"levelo://app?vid=b431b3d6-ab44-474b-b942-9bae8f5fe3d9"},"vehicle_type_id":"4","last_reported":1769462039,"current_range_meters":2800,"station_id":"ce4bhoh2rcd13ifvqh5g","pricing_plan_id":"cebpf4jnsgd1na2vs0mg"},{"bike_id":"648af1c5-a750-4012-b965-e750f26212a2","system_id":"levelo_inurba_marseille","lat":43.307409,"lon":5.424469,"is_reserved":false,"is_disabled":false,"rental_uris":{"android":"levelo://app?vid=648af1c5-a750-4012-b965-e750f26212a2","ios":"levelo://app?vid=648af1c5-a750-4012-b965-e750f26212a2"},"vehicle_type_id":"4","last_reported":1769462039,"current_range_meters":2800,"station_id":"st_cvj6ca6bvosntc0bfgr0","pricing_plan_id":"cebpf4jnsgd1na2vs0mg"},{"bike_id":"76f15ad4-d2a1-4e04-beac-26f7234bdc21","system_id":"levelo_inurba_marseille","lat":43.30297,"lon":5.36806,"is_reserved":false,"is_disabled":false,"rental_uris":{"android":"levelo://app?vid=76f15ad4-d2a1-4e04-beac-26f7234bdc21","ios":"levelo://app?vid=76f15ad4-d2a1-4e04-beac-26f7234bdc21"},"vehicle_type_id":"4","last_reported":1769462039,"current_range_meters":2800,"station_id":"","pricing_plan_id":"cebpf4jnsgd1na2vs0mg"},{"bike_id":"c0a949f8-9480-4af1-bfa2-b10edaaa2118","system_id":"levelo_inurba_marseille","lat":43.2481,"lon":5.37457,"is_reserved":false,"is_disabled":false,"rental_uris":{"android":"levelo://app?vid=c0a949f8-9480-4af1-bfa2-b10edaaa2118","ios":"levelo://app?vid=c0a949f8-9480-4af1-bfa2-b10edaaa2118"},"vehicle_type_id":"4","last_reported":1769462039,"current_range_meters":2800,"station_id":"ce4bhgh2rcd13ifvqfb0","pricing_plan_id":"cebpf4jnsgd1na2vs0mg"},{"bike_id":"05702008-b9fb-4485-8852-be0161cdf405","system_id":"levelo_inurba_marseille","lat":43.254893,"lon":5.376416,"is_reserved":false,"is_disabled":false,"rental_uris":{"android":"levelo://app?vid=05702008-b9fb-4485-8852-be0161cdf405","ios":"levelo://app?vid=05702008-b9fb-4485-8852-be0161cdf405"},"vehicle_type_id":"4","last_reported":1769462039,"current_range_meters":3200,"station_id":"ce4bhh12rcd13ifvqff0","pricing_plan_id":"cebpf4jnsgd1na2vs0mg"},{"bike_id":"e8e4e087-a5f5-46d6-bde5-a155ee69ec30","system_id":"levelo_inurba_marseille","lat":43.26202,"lon":5.37893,"is_reserved":false,"is_disabled":false,"rental_uris":{"android":"levelo://app?vid=e8e4e087-a5f5-46d6-bde5-a155ee69ec30","ios":"levelo://app?vid=e8e4e087-a5f5-46d6-bde5-a155ee69ec30"},"vehicle_type_id":"4","last_reported":1769462039,"current_range_meters":3200,"station_id":"ce4bhjp2rcd13ifvqg90","pricing_plan_id":"cebpf4jnsgd1na2vs0mg"},{"bike_id":"75429793-44eb-4ba0-b0b0-a4e96d69fbf4","system_id":"levelo_inurba_marseille","lat":43.28155,"lon":5.426499,"is_reserved":false,"is_disabled":false,"rental_uris":{"android":"levelo://app?vid=75429793-44eb-4ba0-b0b0-a4e96d69fbf4","ios":"levelo://app?vid=75429793-44eb-4ba0-b0b0-a4e96d69fbf4"},"vehicle_type_id":"4","last_reported":1769462039,"current_range_meters":3200,"station_id":"ce4bhnh2rcd13ifvqgug","pricing_plan_id":"cebpf4jnsgd1na2vs0mg"},{"bike_id":"00c57c00-61e3-4dce-b3d2-a0f7e1489fd8","system_id":"levelo_inurba_marseille","lat":43.28156,"lon":5.42639,"is_reserved":false,"is_disabled":false,"rental_uris":{"android":"levelo://app?vid=00c57c00-61e3-4dce-b3d2-a0f7e1489fd8","ios":"levelo://app?vid=00c57c00-61e3-4dce-b3d2-a0f7e1489fd8"},"vehicle_type_id":"4","last_reported":1769462039,"current_range_meters":3200,"station_id":"ce4bhnh2rcd13ifvqgug","pricing_plan_id":"cebpf4jnsgd1na2vs0mg"},{"bike_id":"5d6ab070-f68e-4aa8-929f-8e2f0e97c8c5","system_id":"levelo_inurba_marseille","lat":43.31368,"lon":5.3709,"is_reserved":false,"is_disabled":false,"rental_uris":{"android":"levelo://app?vid=5d6ab070-f68e-4aa8-929f-8e2f0e97c8c5","ios":"levelo://app?vid=5d6ab070-f68e-4aa8-929f-8e2f0e97c8c5"},"vehicle_type_id":"4","last_reported":1769462039,"current_range_meters":3200,"station_id":"","pricing_plan_id":"cebpf4jnsgd1na2vs0mg"},{"bike_id":"872ca787-ea41-43ac-9081-3181ff9b1e3b","system_id":"levelo_inurba_marseille","lat":43.2738,"lon":5.36254,"is_reserved":false,"is_disabled":false,"rental_uris":{"android":"levelo://app?vid=872ca787-ea41-43ac-9081-3181ff9b1e3b","ios":"levelo://app?vid=872ca787-ea41-43ac-9081-3181ff9b1e3b"},"vehicle_type_id":"4","last_reported":1769462039,"current_range_meters":3200,"station_id":"ce4bhbh2rcd13ifvqeo0","pricing_plan_id":"cebpf4jnsgd1na2vs0mg"},{"bike_id":"bdb69a13-aead-4f82-83aa-de58bde97ddd","system_id":"levelo_inurba_marseille","lat":43.278157,"lon":5.407076,"is_reserved":false,"is_disabled":false,"rental_uris":{"android":"levelo://app?vid=bdb69a13-aead-4f82-83aa-de58bde97ddd","ios":"levelo://app?vid=bdb69a13-aead-4f82-83aa-de58bde97ddd"},"vehicle_type_id":"4","last_reported":1769462039,"current_range_meters":3600,"station_id":"ce4bhnh2rcd13ifvqgtg","pricing_plan_id":"cebpf4jnsgd1na2vs0mg"},{"bike_id":"8f67af62-3175-4e61-a1b4-f65469f192e9","system_id":"levelo_inurba_marseille","lat":43.24634,"lon":5.43167,"is_reserved":false,"is_disabled":false,"rental_uris":{"android":"levelo://app?vid=8f67af62-3175-4e61-a1b4-f65469f192e9","ios":"levelo://app?vid=8f67af62-3175-4e61-a1b4-f65469f192e9"},"vehicle_type_id":"4","last_reported":1769462039,"current_range_meters":3600,"station_id":"st_d2m6c4gdas8pm72e190g","pricing_plan_id":"cebpf4jnsgd1na2vs0mg"},{"bike_id":"1daef85b-ca98-47ee-9f6e-ad7e13e7014c","system_id":"levelo_inurba_marseille","lat":43.28007,"lon":5.41667,"is_reserved":false,"is_disabled":false,"rental_uris":{"android":"levelo://app?vid=1daef85b-ca98-47ee-9f6e-ad7e13e7014c","ios":"levelo://app?vid=1daef85b-ca98-47ee-9f6e-ad7e13e7014c"},"vehicle_type_id":"4","last_reported":1769462039,"current_range_meters":3600,"station_id":"ce4bho12rcd13ifvqh1g","pricing_plan_id":"cebpf4jnsgd1na2vs0mg"},{"bike_id":"b41ba2a0-1343-49eb-803d-f14eb8b0ccdf","system_id":"levelo_inurba_marseille","lat":43.26701,"lon":5.39242,"is_reserved":false,"is_disabled":false,"rental_uris":{"android":"levelo://app?vid=b41ba2a0-1343-49eb-803d-f14eb8b0ccdf","ios":"levelo://app?vid=b41ba2a0-1343-49eb-803d-f14eb8b0ccdf"},"vehicle_type_id":"4","last_reported":1769462039,"current_range_meters":3600,"station_id":"","pricing_plan_id":"cebpf4jnsgd1na2vs0mg"},{"bike_id":"67ff9a75-4fe8-45e7-914d-fc416a457597","system_id":"levelo_inurba_marseille","lat":43.32108,"lon":5.3679,"is_reserved":false,"is_disabled":false,"rental_uris":{"android":"levelo://app?vid=67ff9a75-4fe8-45e7-914d-fc416a457597","ios":"levelo://app?vid=67ff9a75-4fe8-45e7-914d-fc416a457597"},"vehicle_type_id":"4","last_reported":1769462039,"current_range_meters":3600,"station_id":"ce4bhrh2rcd13ifvqhug","pricing_plan_id":"cebpf4jnsgd1na2vs0mg"},{"bike_id":"2d49407c-600e-4267-a6a3-9c914fca903d","system_id":"levelo_inurba_marseille","lat":43.24805,"lon":5.3746,"is_reserved":false,"is_disabled":false,"rental_uris":{"android":"levelo://app?vid=2d49407c-600e-4267-a6a3-9c914fca903d","ios":"levelo://app?vid=2d49407c-600e-4267-a6a3-9c914fca903d"},"vehicle_type_id":"4","last_reported":1769462039,"current_range_meters":3600,"station_id":"ce4bhgh2rcd13ifvqfb0","pricing_plan_id":"cebpf4jnsgd1na2vs0mg"},{"bike_id":"e91ddedc-e58d-413a-aeeb-4a5d1cd0f030","system_id":"levelo_inurba_marseille","lat":43.30119,"lon":5.43114,"is_reserved":false,"is_disabled":false,"rental_uris":{"android":"levelo://app?vid=e91ddedc-e58d-413a-aeeb-4a5d1cd0f030","ios":"levelo://app?vid=e91ddedc-e58d-413a-aeeb-4a5d1cd0f030"},"vehicle_type_id":"4","last_reported":1769462039,"current_range_meters":3600,"station_id":"st_d3js3co5814s73ftftug","pricing_plan_id":"cebpf4jnsgd1na2vs0mg"},{"bike_id":"de5f2f04-920e-4722-ad7f-a65e27e670eb","system_id":"levelo_inurba_marseille","lat":43.32112,"lon":5.36791,"is_reserved":false,"is_disabled":false,"rental_uris":{"android":"levelo://app?vid=de5f2f04-920e-4722-ad7f-a65e27e670eb","ios":"levelo://app?vid=de5f2f04-920e-4722-ad7f-a65e27e670eb"},"vehicle_type_id":"4","last_reported":1769462039,"current_range_meters":3600,"station_id":"ce4bhrh2rcd13ifvqhug","pricing_plan_id":"cebpf4jnsgd1na2vs0mg"},{"bike_id":"d6e29f6b-09e4-4ac5-a9fe-bb3a238d5d54","system_id":"levelo_inurba_marseille","lat":43.27172,"lon":5.40999,"is_reserved":false,"is_disabled":false,"rental_uris":{"android":"levelo://app?vid=d6e29f6b-09e4-4ac5-a9fe-bb3a238d5d54","ios":"levelo://app?vid=d6e29f6b-09e4-4ac5-a9fe-bb3a238d5d54"},"vehicle_type_id":"4","last_reported":1769462039,"current_range_meters":3600,"station_id":"ce4bhl12rcd13ifvqgf0","pricing_plan_id":"cebpf4jnsgd1na2vs0mg"},{"bike_id":"2f242890-4c1e-4235-8eed-4ce5bbbc589c","system_id":"levelo_inurba_marseille","lat":43.2755,"lon":5.3845,"is_reserved":false,"is_disabled":false,"rental_uris":{"android":"levelo://app?vid=2f242890-4c1e-4235-8eed-4ce5bbbc589c","ios":"levelo://app?vid=2f242890-4c1e-4235-8eed-4ce5bbbc589c"},"vehicle_type_id":"4","last_reported":1769462039,"current_range_meters":3600,"station_id":"ce4bhh92rcd13ifvqfi0","pricing_plan_id":"cebpf4jnsgd1na2vs0mg"},{"bike_id":"ac187026-3811-481a-999e-88941a14da12","system_id":"levelo_inurba_marseille","lat":43.275602,"lon":5.384201,"is_reserved":false,"is_disabled":false,"rental_uris":{"android":"levelo://app?vid=ac187026-3811-481a-999e-88941a14da12","ios":"levelo://app?vid=ac187026-3811-481a-999e-88941a14da12"},"vehicle_type_id":"4","last_reported":1769462039,"current_range_meters":3600,"station_id":"ce4bhh92rcd13ifvqfi0","pricing_plan_id":"cebpf4jnsgd1na2vs0mg"},{"bike_id":"99bc9e46-2a2d-4354-b606-97e38b1b91d7","system_id":"levelo_inurba_marseille","lat":43.23936,"lon":5.37567,"is_reserved":false,"is_disabled":false,"rental_uris":{"android":"levelo://app?vid=99bc9e46-2a2d-4354-b606-97e38b1b91d7","ios":"levelo://app?vid=99bc9e46-2a2d-4354-b606-97e38b1b91d7"},"vehicle_type_id":"4","last_reported":1769462039,"current_range_meters":3600,"station_id":"","pricing_plan_id":"cebpf4jnsgd1na2vs0mg"},{"bike_id":"0ba18f4b-143f-4682-967c-913382d8183f","system_id":"levelo_inurba_marseille","lat":43.25083,"lon":5.39512,"is_reserved":false,"is_disabled":false,"rental_uris":{"android":"levelo://app?vid=0ba18f4b-143f-4682-967c-913382d8183f","ios":"levelo://app?vid=0ba18f4b-143f-4682-967c-913382d8183f"},"vehicle_type_id":"4","last_reported":1769462039,"current_range_meters":4000,"station_id":"ce4bhm12rcd13ifvqgkg","pricing_plan_id":"cebpf4jnsgd1na2vs0mg"},{"bike_id":"a28cadf6-c0c8-4b85-a813-e875d1738946","system_id":"levelo_inurba_marseille","lat":43.24654,"lon":5.38182,"is_reserved":false,"is_disabled":false,"rental_uris":{"android":"levelo://app?vid=a28cadf6-c0c8-4b85-a813-e875d1738946","ios":"levelo://app?vid=a28cadf6-c0c8-4b85-a813-e875d1738946"},"vehicle_type_id":"4","last_reported":1769462039,"current_range_meters":4000,"station_id":"ce4bhih2rcd13ifvqfr0","pricing_plan_id":"cebpf4jnsgd1na2vs0mg"},{"bike_id":"5a924aa5-a60a-459f-9ce9-4aee6291d40d","system_id":"levelo_inurba_marseille","lat":43.24167,"lon":5.36387,"is_reserved":false,"is_disabled":false,"rental_uris":{"android":"levelo://app?vid=5a924aa5-a60a-459f-9ce9-4aee6291d40d","ios":"levelo://app?vid=5a924aa5-a60a-459f-9ce9-4aee6291d40d"},"vehicle_type_id":"4","last_reported":1769462039,"current_range_meters":4000,"station_id":"cpo36qri1sfpv3e86is0","pricing_plan_id":"cebpf4jnsgd1na2vs0mg"},{"bike_id":"367a6bfa-022d-4ac7-9a7a-fafdb9ad5966","system_id":"levelo_inurba_marseille","lat":43.23184,"lon":5.39978,"is_reserved":false,"is_disabled":false,"rental_uris":{"android":"levelo://app?vid=367a6bfa-022d-4ac7-9a7a-fafdb9ad5966","ios":"levelo://app?vid=367a6bfa-022d-4ac7-9a7a-fafdb9ad5966"},"vehicle_type_id":"4","last_reported":1769462039,"current_range_meters":4000,"station_id":"ce4bhn12rcd13ifvqgqg","pricing_plan_id":"cebpf4jnsgd1na2vs0mg"},{"bike_id":"c1b4d38c-fee1-4e2c-8eb1-c51b4fd0d338","system_id":"levelo_inurba_marseille","lat":43.26558,"lon":5.39064,"is_reserved":false,"is_disabled":false,"rental_uris":{"android":"levelo://app?vid=c1b4d38c-fee1-4e2c-8eb1-c51b4fd0d338","ios":"levelo://app?vid=c1b4d38c-fee1-4e2c-8eb1-c51b4fd0d338"},"vehicle_type_id":"4","last_reported":1769462039,"current_range_meters":4000,"station_id":"ce4bhe12rcd13ifvqf30","pricing_plan_id":"cebpf4jnsgd1na2vs0mg"},{"bike_id":"9f4420a9-be11-4676-b7e1-428ce9cf9263","system_id":"levelo_inurba_marseille","lat":43.254633,"lon":5.378162,"is_reserved":false,"is_disabled":false,"rental_uris":{"android":"levelo://app?vid=9f4420a9-be11-4676-b7e1-428ce9cf9263","ios":"levelo://app?vid=9f4420a9-be11-4676-b7e1-428ce9cf9263"},"vehicle_type_id":"4","last_reported":1769462039,"current_range_meters":4000,"station_id":"ce4bhh12rcd13ifvqff0","pricing_plan_id":"cebpf4jnsgd1na2vs0mg"},{"bike_id":"87b9f7ee-9694-473f-a64e-391d26e62fd2","system_id":"levelo_inurba_marseille","lat":43.30884,"lon":5.39632,"is_reserved":false,"is_disabled":false,"rental_uris":{"android":"levelo://app?vid=87b9f7ee-9694-473f-a64e-391d26e62fd2","ios":"levelo://app?vid=87b9f7ee-9694-473f-a64e-391d26e62fd2"},"vehicle_type_id":"4","last_reported":1769462039,"current_range_meters":4000,"station_id":"ce4bh012rcd13ifvqcv0","pricing_plan_id":"cebpf4jnsgd1na2vs0mg"},{"bike_id":"35de4117-1885-471d-ae81-ebbd7b148d3a","system_id":"levelo_inurba_marseille","lat":43.28144,"lon":5.42663,"is_reserved":false,"is_disabled":false,"rental_uris":{"android":"levelo://app?vid=35de4117-1885-471d-ae81-ebbd7b148d3a","ios":"levelo://app?vid=35de4117-1885-471d-ae81-ebbd7b148d3a"},"vehicle_type_id":"4","last_reported":1769462039,"current_range_meters":4000,"station_id":"ce4bhnh2rcd13ifvqgug","pricing_plan_id":"cebpf4jnsgd1na2vs0mg"},{"bike_id":"51f288b4-018b-4d88-8207-ee946fd883e8","system_id":"levelo_inurba_marseille","lat":43.279238,"lon":5.395742,"is_reserved":false,"is_disabled":false,"rental_uris":{"android":"levelo://app?vid=51f288b4-018b-4d88-8207-ee946fd883e8","ios":"levelo://app?vid=51f288b4-018b-4d88-8207-ee946fd883e8"},"vehicle_type_id":"4","last_reported":1769462039,"current_range_meters":4000,"station_id":"ce4bhf92rcd13ifvqf40","pricing_plan_id":"cebpf4jnsgd1na2vs0mg"},{"bike_id":"454df14f-1f20-4d9b-aee9-4f23ee68b2d4","system_id":"levelo_inurba_marseille","lat":43.23157,"lon":5.43696,"is_reserved":false,"is_disabled":false,"rental_uris":{"android":"levelo://app?vid=454df14f-1f20-4d9b-aee9-4f23ee68b2d4","ios":"levelo://app?vid=454df14f-1f20-4d9b-aee9-4f23ee68b2d4"},"vehicle_type_id":"4","last_reported":1769462039,"current_range_meters":4000,"station_id":"ce4bhmp2rcd13ifvqgog","pricing_plan_id":"cebpf4jnsgd1na2vs0mg"},{"bike_id":"ea588fac-e24d-4d35-941a-f2a03f03483f","system_id":"levelo_inurba_marseille","lat":43.31318,"lon":5.39718,"is_reserved":false,"is_disabled":false,"rental_uris":{"android":"levelo://app?vid=ea588fac-e24d-4d35-941a-f2a03f03483f","ios":"levelo://app?vid=ea588fac-e24d-4d35-941a-f2a03f03483f"},"vehicle_type_id":"4","last_reported":1769462039,"current_range_meters":4000,"station_id":"ce4bgvp2rcd13ifvqcu0","pricing_plan_id":"cebpf4jnsgd1na2vs0mg"},{"bike_id":"281c13db-7575-4f01-8cb4-ab2b2ff0bb6c","system_id":"levelo_inurba_marseille","lat":43.23062,"lon":5.35495,"is_reserved":false,"is_disabled":false,"rental_uris":{"android":"levelo://app?vid=281c13db-7575-4f01-8cb4-ab2b2ff0bb6c","ios":"levelo://app?vid=281c13db-7575-4f01-8cb4-ab2b2ff0bb6c"},"vehicle_type_id":"4","last_reported":1769462039,"current_range_meters":4000,"station_id":"cpo3342slgdg3j2ifvpg","pricing_plan_id":"cebpf4jnsgd1na2vs0mg"},{"bike_id":"47492743-489d-45ae-8cd5-a690ce98ece0","system_id":"levelo_inurba_marseille","lat":43.25592,"lon":5.38215,"is_reserved":false,"is_disabled":false,"rental_uris":{"android":"levelo://app?vid=47492743-489d-45ae-8cd5-a690ce98ece0","ios":"levelo://app?vid=47492743-489d-45ae-8cd5-a690ce98ece0"},"vehicle_type_id":"4","last_reported":1769462039,"current_range_meters":4400,"station_id":"ce4bhih2rcd13ifvqfs0","pricing_plan_id":"cebpf4jnsgd1na2vs0mg"},{"bike_id":"620120a6-8a36-4b57-b49f-d8065118fae9","system_id":"levelo_inurba_marseille","lat":43.23142,"lon":5.43723,"is_reserved":false,"is_disabled":false,"rental_uris":{"android":"levelo://app?vid=620120a6-8a36-4b57-b49f-d8065118fae9","ios":"levelo://app?vid=620120a6-8a36-4b57-b49f-d8065118fae9"},"vehicle_type_id":"4","last_reported":1769462039,"current_range_meters":4400,"station_id":"ce4bhmp2rcd13ifvqgog","pricing_plan_id":"cebpf4jnsgd1na2vs0mg"},{"bike_id":"2d503944-e385-4157-aca2-44b6de3d2d4a","system_id":"levelo_inurba_marseille","lat":43.312905,"lon":5.404302,"is_reserved":false,"is_disabled":false,"rental_uris":{"android":"levelo://app?vid=2d503944-e385-4157-aca2-44b6de3d2d4a","ios":"levelo://app?vid=2d503944-e385-4157-aca2-44b6de3d2d4a"},"vehicle_type_id":"4","last_reported":1769462039,"current_range_meters":4400,"station_id":"ce4bhqh2rcd13ifvqhmg","pricing_plan_id":"cebpf4jnsgd1na2vs0mg"},{"bike_id":"399ac81d-4eef-4dd6-9d3c-75f658e814f0","system_id":"levelo_inurba_marseille","lat":43.23188,"lon":5.35552,"is_reserved":false,"is_disabled":false,"rental_uris":{"android":"levelo://app?vid=399ac81d-4eef-4dd6-9d3c-75f658e814f0","ios":"levelo://app?vid=399ac81d-4eef-4dd6-9d3c-75f658e814f0"},"vehicle_type_id":"4","last_reported":1769462039,"current_range_meters":4400,"station_id":"ce4bhu92rcd13ifvqi70","pricing_plan_id":"cebpf4jnsgd1na2vs0mg"},{"bike_id":"49a85479-8eb6-4ab7-9fea-3b0b940ee022","system_id":"levelo_inurba_marseille","lat":43.31354,"lon":5.38493,"is_reserved":false,"is_disabled":false,"rental_uris":{"android":"levelo://app?vid=49a85479-8eb6-4ab7-9fea-3b0b940ee022","ios":"levelo://app?vid=49a85479-8eb6-4ab7-9fea-3b0b940ee022"},"vehicle_type_id":"4","last_reported":1769462039,"current_range_meters":4400,"station_id":"ce4bgt92rcd13ifvqcf0","pricing_plan_id":"cebpf4jnsgd1na2vs0mg"},{"bike_id":"cdcf56f5-7813-42f5-ba12-33deb4932740","system_id":"levelo_inurba_marseille","lat":43.25511,"lon":5.37666,"is_reserved":false,"is_disabled":false,"rental_uris":{"android":"levelo://app?vid=cdcf56f5-7813-42f5-ba12-33deb4932740","ios":"levelo://app?vid=cdcf56f5-7813-42f5-ba12-33deb4932740"},"vehicle_type_id":"4","last_reported":1769462039,"current_range_meters":4400,"station_id":"ce4bhh12rcd13ifvqff0","pricing_plan_id":"cebpf4jnsgd1na2vs0mg"},{"bike_id":"c5bef746-5e35-4629-bb18-e2f7eaf59326","system_id":"levelo_inurba_marseille","lat":43.2315,"lon":5.43742,"is_reserved":false,"is_disabled":false,"rental_uris":{"android":"levelo://app?vid=c5bef746-5e35-4629-bb18-e2f7eaf59326","ios":"levelo://app?vid=c5bef746-5e35-4629-bb18-e2f7eaf59326"},"vehicle_type_id":"4","last_reported":1769462039,"current_range_meters":4400,"station_id":"ce4bhmp2rcd13ifvqgog","pricing_plan_id":"cebpf4jnsgd1na2vs0mg"},{"bike_id":"937b371a-eebb-4e9f-91d6-14132459e29c","system_id":"levelo_inurba_marseille","lat":43.27893,"lon":5.38003,"is_reserved":false,"is_disabled":false,"rental_uris":{"android":"levelo://app?vid=937b371a-eebb-4e9f-91d6-14132459e29c","ios":"levelo://app?vid=937b371a-eebb-4e9f-91d6-14132459e29c"},"vehicle_type_id":"4","last_reported":1769462039,"current_range_meters":4400,"station_id":"ce4bhf92rcd13ifvqf50","pricing_plan_id":"cebpf4jnsgd1na2vs0mg"},{"bike_id":"0c486cf0-025b-47c2-895e-055063b4dc31","system_id":"levelo_inurba_marseille","lat":43.23783,"lon":5.36632,"is_reserved":false,"is_disabled":false,"rental_uris":{"android":"levelo://app?vid=0c486cf0-025b-47c2-895e-055063b4dc31","ios":"levelo://app?vid=0c486cf0-025b-47c2-895e-055063b4dc31"},"vehicle_type_id":"4","last_reported":1769462039,"current_range_meters":4400,"station_id":"st_d3nk18o9ro0c73en2l3g","pricing_plan_id":"cebpf4jnsgd1na2vs0mg"},{"bike_id":"22504924-9e54-4399-93b4-2d8b2985824d","system_id":"levelo_inurba_marseille","lat":43.24081,"lon":5.37749,"is_reserved":false,"is_disabled":false,"rental_uris":{"android":"levelo://app?vid=22504924-9e54-4399-93b4-2d8b2985824d","ios":"levelo://app?vid=22504924-9e54-4399-93b4-2d8b2985824d"},"vehicle_type_id":"4","last_reported":1769462039,"current_range_meters":4800,"station_id":"ce4bhnp2rcd13ifvqgvg","pricing_plan_id":"cebpf4jnsgd1na2vs0mg"},{"bike_id":"3554d7de-d5ce-4541-bed5-448b189dc9bc","system_id":"levelo_inurba_marseille","lat":43.27048,"lon":5.38316,"is_reserved":false,"is_disabled":false,"rental_uris":{"android":"levelo://app?vid=3554d7de-d5ce-4541-bed5-448b189dc9bc","ios":"levelo://app?vid=3554d7de-d5ce-4541-bed5-448b189dc9bc"},"vehicle_type_id":"4","last_reported":1769462039,"current_range_meters":4800,"station_id":"st_d3n2fo6cfp8s73cte1j0","pricing_plan_id":"cebpf4jnsgd1na2vs0mg"},{"bike_id":"d8e353ee-a24d-49a1-b311-041cbc1996e9","system_id":"levelo_inurba_marseille","lat":43.25522,"lon":5.37641,"is_reserved":false,"is_disabled":false,"rental_uris":{"android":"levelo://app?vid=d8e353ee-a24d-49a1-b311-041cbc1996e9","ios":"levelo://app?vid=d8e353ee-a24d-49a1-b311-041cbc1996e9"},"vehicle_type_id":"4","last_reported":1769462039,"current_range_meters":4800,"station_id":"ce4bhh12rcd13ifvqff0","pricing_plan_id":"cebpf4jnsgd1na2vs0mg"},{"bike_id":"15fcf417-3767-4243-b447-4816336d559e","system_id":"levelo_inurba_marseille","lat":43.284646,"lon":5.384126,"is_reserved":false,"is_disabled":false,"rental_uris":{"android":"levelo://app?vid=15fcf417-3767-4243-b447-4816336d559e","ios":"levelo://app?vid=15fcf417-3767-4243-b447-4816336d559e"},"vehicle_type_id":"4","last_reported":1769462039,"current_range_meters":4800,"station_id":"ce4bh512rcd13ifvqe3g","pricing_plan_id":"cebpf4jnsgd1na2vs0mg"},{"bike_id":"9b1c3c11-e9b9-443c-bcaf-397cf90c5b93","system_id":"levelo_inurba_marseille","lat":43.3199,"lon":5.3813,"is_reserved":false,"is_disabled":false,"rental_uris":{"android":"levelo://app?vid=9b1c3c11-e9b9-443c-bcaf-397cf90c5b93","ios":"levelo://app?vid=9b1c3c11-e9b9-443c-bcaf-397cf90c5b93"},"vehicle_type_id":"4","last_reported":1769462039,"current_range_meters":4800,"station_id":"ce4bhr12rcd13ifvqhpg","pricing_plan_id":"cebpf4jnsgd1na2vs0mg"},{"bike_id":"7f3e5c0b-c06f-4356-b8cb-68c8424b7076","system_id":"levelo_inurba_marseille","lat":43.33204,"lon":5.41297,"is_reserved":false,"is_disabled":false,"rental_uris":{"android":"levelo://app?vid=7f3e5c0b-c06f-4356-b8cb-68c8424b7076","ios":"levelo://app?vid=7f3e5c0b-c06f-4356-b8cb-68c8424b7076"},"vehicle_type_id":"4","last_reported":1769462039,"current_range_meters":4800,"station_id":"","pricing_plan_id":"cebpf4jnsgd1na2vs0mg"},{"bike_id":"d63ed78d-eca7-4700-aaa5-48377a2e3e4e","system_id":"levelo_inurba_marseille","lat":43.26379,"lon":5.41063,"is_reserved":false,"is_disabled":false,"rental_uris":{"android":"levelo://app?vid=d63ed78d-eca7-4700-aaa5-48377a2e3e4e","ios":"levelo://app?vid=d63ed78d-eca7-4700-aaa5-48377a2e3e4e"},"vehicle_type_id":"4","last_reported":1769462039,"current_range_meters":4800,"station_id":"st_d4e5ca6na9uc73bfl5fg","pricing_plan_id":"cebpf4jnsgd1na2vs0mg"},{"bike_id":"b89b4caf-e759-48f0-87a9-9f0c27d24098","system_id":"levelo_inurba_marseille","lat":43.286143,"lon":5.350958,"is_reserved":false,"is_disabled":false,"rental_uris":{"android":"levelo://app?vid=b89b4caf-e759-48f0-87a9-9f0c27d24098","ios":"levelo://app?vid=b89b4caf-e759-48f0-87a9-9f0c27d24098"},"vehicle_type_id":"4","last_reported":1769462039,"current_range_meters":5600,"station_id":"ce4bhch2rcd13ifvqeug","pricing_plan_id":"cebpf4jnsgd1na2vs0mg"},{"bike_id":"bfd19003-43ce-4d1b-ab98-d88466ea1f9b","system_id":"levelo_inurba_marseille","lat":43.280817,"lon":5.396596,"is_reserved":false,"is_disabled":false,"rental_uris":{"android":"levelo://app?vid=bfd19003-43ce-4d1b-ab98-d88466ea1f9b","ios":"levelo://app?vid=bfd19003-43ce-4d1b-ab98-d88466ea1f9b"},"vehicle_type_id":"4","last_reported":1769462039,"current_range_meters":5600,"station_id":"ce4bho12rcd13ifvqh2g","pricing_plan_id":"cebpf4jnsgd1na2vs0mg"},{"bike_id":"601f55a6-583a-4dbf-a5ec-2030c0f950b7","system_id":"levelo_inurba_marseille","lat":43.29507,"lon":5.39415,"is_reserved":false,"is_disabled":false,"rental_uris":{"android":"levelo://app?vid=601f55a6-583a-4dbf-a5ec-2030c0f950b7","ios":"levelo://app?vid=601f55a6-583a-4dbf-a5ec-2030c0f950b7"},"vehicle_type_id":"4","last_reported":1769462039,"current_range_meters":5600,"station_id":"ce4bh292rcd13ifvqdf0","pricing_plan_id":"cebpf4jnsgd1na2vs0mg"},{"bike_id":"41ee23aa-0dba-468d-8fa2-740dd6a2a2df","system_id":"levelo_inurba_marseille","lat":43.31323,"lon":5.39707,"is_reserved":false,"is_disabled":false,"rental_uris":{"android":"levelo://app?vid=41ee23aa-0dba-468d-8fa2-740dd6a2a2df","ios":"levelo://app?vid=41ee23aa-0dba-468d-8fa2-740dd6a2a2df"},"vehicle_type_id":"4","last_reported":1769462039,"current_range_meters":5600,"station_id":"ce4bgvp2rcd13ifvqcu0","pricing_plan_id":"cebpf4jnsgd1na2vs0mg"},{"bike_id":"b681f863-0f3d-4d17-bb27-830d59083782","system_id":"levelo_inurba_marseille","lat":43.23166,"lon":5.43727,"is_reserved":false,"is_disabled":false,"rental_uris":{"android":"levelo://app?vid=b681f863-0f3d-4d17-bb27-830d59083782","ios":"levelo://app?vid=b681f863-0f3d-4d17-bb27-830d59083782"},"vehicle_type_id":"4","last_reported":1769462039,"current_range_meters":5600,"station_id":"ce4bhmp2rcd13ifvqgog","pricing_plan_id":"cebpf4jnsgd1na2vs0mg"},{"bike_id":"42bb40a9-fbe5-41d6-a540-56e07de5dbf4","system_id":"levelo_inurba_marseille","lat":43.265592,"lon":5.372925,"is_reserved":false,"is_disabled":false,"rental_uris":{"android":"levelo://app?vid=42bb40a9-fbe5-41d6-a540-56e07de5dbf4","ios":"levelo://app?vid=42bb40a9-fbe5-41d6-a540-56e07de5dbf4"},"vehicle_type_id":"4","last_reported":1769462039,"current_range_meters":5600,"station_id":"ce4bhg12rcd13ifvqf70","pricing_plan_id":"cebpf4jnsgd1na2vs0mg"},{"bike_id":"45e07959-74ee-4a53-b95d-b4b3dff2ce2f","system_id":"levelo_inurba_marseille","lat":43.23778,"lon":5.36636,"is_reserved":false,"is_disabled":false,"rental_uris":{"android":"levelo://app?vid=45e07959-74ee-4a53-b95d-b4b3dff2ce2f","ios":"levelo://app?vid=45e07959-74ee-4a53-b95d-b4b3dff2ce2f"},"vehicle_type_id":"4","last_reported":1769462039,"current_range_meters":5600,"station_id":"st_d3nk18o9ro0c73en2l3g","pricing_plan_id":"cebpf4jnsgd1na2vs0mg"},{"bike_id":"6e26fc8c-448e-43cd-b37f-f4be03989230","system_id":"levelo_inurba_marseille","lat":43.323484,"lon":5.367428,"is_reserved":false,"is_disabled":false,"rental_uris":{"android":"levelo://app?vid=6e26fc8c-448e-43cd-b37f-f4be03989230","ios":"levelo://app?vid=6e26fc8c-448e-43cd-b37f-f4be03989230"},"vehicle_type_id":"4","last_reported":1769462039,"current_range_meters":5600,"station_id":"ce4bhsh2rcd13ifvqi2g","pricing_plan_id":"cebpf4jnsgd1na2vs0mg"},{"bike_id":"94e99806-117e-4d9c-8d35-a79f25024243","system_id":"levelo_inurba_marseille","lat":43.28967,"lon":5.36395,"is_reserved":false,"is_disabled":false,"rental_uris":{"android":"levelo://app?vid=94e99806-117e-4d9c-8d35-a79f25024243","ios":"levelo://app?vid=94e99806-117e-4d9c-8d35-a79f25024243"},"vehicle_type_id":"4","last_reported":1769462039,"current_range_meters":5600,"station_id":"ce4bhc92rcd13ifvqetg","pricing_plan_id":"cebpf4jnsgd1na2vs0mg"},{"bike_id":"3b5a4c25-8fd0-4c8d-9794-315ef613a5a9","system_id":"levelo_inurba_marseille","lat":43.30377,"lon":5.36837,"is_reserved":false,"is_disabled":false,"rental_uris":{"android":"levelo://app?vid=3b5a4c25-8fd0-4c8d-9794-315ef613a5a9","ios":"levelo://app?vid=3b5a4c25-8fd0-4c8d-9794-315ef613a5a9"},"vehicle_type_id":"4","last_reported":1769462039,"current_range_meters":5600,"station_id":"","pricing_plan_id":"cebpf4jnsgd1na2vs0mg"},{"bike_id":"b870a273-6d60-43b1-aeff-305310ce9e81","system_id":"levelo_inurba_marseille","lat":43.2396,"lon":5.36637,"is_reserved":false,"is_disabled":false,"rental_uris":{"android":"levelo://app?vid=b870a273-6d60-43b1-aeff-305310ce9e81","ios":"levelo://app?vid=b870a273-6d60-43b1-aeff-305310ce9e81"},"vehicle_type_id":"4","last_reported":1769462039,"current_range_meters":5600,"station_id":"ce4bhi12rcd13ifvqfp0","pricing_plan_id":"cebpf4jnsgd1na2vs0mg"},{"bike_id":"b6c21133-2bc7-4e53-93db-5d7ab9341050","system_id":"levelo_inurba_marseille","lat":43.29447,"lon":5.39744,"is_reserved":false,"is_disabled":false,"rental_uris":{"android":"levelo://app?vid=b6c21133-2bc7-4e53-93db-5d7ab9341050","ios":"levelo://app?vid=b6c21133-2bc7-4e53-93db-5d7ab9341050"},"vehicle_type_id":"4","last_reported":1769462039,"current_range_meters":5600,"station_id":"ce4bh3h2rcd13ifvqdo0","pricing_plan_id":"cebpf4jnsgd1na2vs0mg"},{"bike_id":"2d78c52a-e821-423c-8912-3c0fcf451046","system_id":"levelo_inurba_marseille","lat":43.24185,"lon":5.36411,"is_reserved":false,"is_disabled":false,"rental_uris":{"android":"levelo://app?vid=2d78c52a-e821-423c-8912-3c0fcf451046","ios":"levelo://app?vid=2d78c52a-e821-423c-8912-3c0fcf451046"},"vehicle_type_id":"4","last_reported":1769462039,"current_range_meters":5600,"station_id":"cpo36qri1sfpv3e86is0","pricing_plan_id":"cebpf4jnsgd1na2vs0mg"},{"bike_id":"1d64597d-9aab-4864-8716-3d19fa5cdb9d","system_id":"levelo_inurba_marseille","lat":43.298182,"lon":5.440686,"is_reserved":false,"is_disabled":false,"rental_uris":{"android":"levelo://app?vid=1d64597d-9aab-4864-8716-3d19fa5cdb9d","ios":"levelo://app?vid=1d64597d-9aab-4864-8716-3d19fa5cdb9d"},"vehicle_type_id":"4","last_reported":1769462039,"current_range_meters":5600,"station_id":"st_d3jp68qikq2c7381ktn0","pricing_plan_id":"cebpf4jnsgd1na2vs0mg"},{"bike_id":"f1344493-d7e2-4748-bc58-2fed67721019","system_id":"levelo_inurba_marseille","lat":43.28099,"lon":5.37837,"is_reserved":false,"is_disabled":false,"rental_uris":{"android":"levelo://app?vid=f1344493-d7e2-4748-bc58-2fed67721019","ios":"levelo://app?vid=f1344493-d7e2-4748-bc58-2fed67721019"},"vehicle_type_id":"4","last_reported":1769462039,"current_range_meters":5600,"station_id":"ce4bha12rcd13ifvqee0","pricing_plan_id":"cebpf4jnsgd1na2vs0mg"},{"bike_id":"d1889511-b137-4f93-abf5-20e5d029d7b3","system_id":"levelo_inurba_marseille","lat":43.25576,"lon":5.38234,"is_reserved":false,"is_disabled":false,"rental_uris":{"android":"levelo://app?vid=d1889511-b137-4f93-abf5-20e5d029d7b3","ios":"levelo://app?vid=d1889511-b137-4f93-abf5-20e5d029d7b3"},"vehicle_type_id":"4","last_reported":1769462039,"current_range_meters":5600,"station_id":"ce4bhih2rcd13ifvqfs0","pricing_plan_id":"cebpf4jnsgd1na2vs0mg"},{"bike_id":"5777293f-b66a-4a6f-8081-966890dd397a","system_id":"levelo_inurba_marseille","lat":43.32107,"lon":5.36788,"is_reserved":false,"is_disabled":false,"rental_uris":{"android":"levelo://app?vid=5777293f-b66a-4a6f-8081-966890dd397a","ios":"levelo://app?vid=5777293f-b66a-4a6f-8081-966890dd397a"},"vehicle_type_id":"4","last_reported":1769462039,"current_range_meters":5600,"station_id":"ce4bhrh2rcd13ifvqhug","pricing_plan_id":"cebpf4jnsgd1na2vs0mg"},{"bike_id":"1d4557f2-9194-433e-908c-7af0a931319a","system_id":"levelo_inurba_marseille","lat":43.25489,"lon":5.37651,"is_reserved":false,"is_disabled":false,"rental_uris":{"android":"levelo://app?vid=1d4557f2-9194-433e-908c-7af0a931319a","ios":"levelo://app?vid=1d4557f2-9194-433e-908c-7af0a931319a"},"vehicle_type_id":"4","last_reported":1769462039,"current_range_meters":6000,"station_id":"ce4bhh12rcd13ifvqff0","pricing_plan_id":"cebpf4jnsgd1na2vs0mg"},{"bike_id":"5e4893e0-7e86-482d-a767-2dc95c5fbe1a","system_id":"levelo_inurba_marseille","lat":43.28145,"lon":5.41028,"is_reserved":false,"is_disabled":false,"rental_uris":{"android":"levelo://app?vid=5e4893e0-7e86-482d-a767-2dc95c5fbe1a","ios":"levelo://app?vid=5e4893e0-7e86-482d-a767-2dc95c5fbe1a"},"vehicle_type_id":"4","last_reported":1769462039,"current_range_meters":6000,"station_id":"","pricing_plan_id":"cebpf4jnsgd1na2vs0mg"},{"bike_id":"8fcc7dfb-9afa-4b40-8aed-c00c1dd819d8","system_id":"levelo_inurba_marseille","lat":43.31108,"lon":5.37826,"is_reserved":false,"is_disabled":false,"rental_uris":{"android":"levelo://app?vid=8fcc7dfb-9afa-4b40-8aed-c00c1dd819d8","ios":"levelo://app?vid=8fcc7dfb-9afa-4b40-8aed-c00c1dd819d8"},"vehicle_type_id":"4","last_reported":1769462039,"current_range_meters":6000,"station_id":"ce4bgt92rcd13ifvqcg0","pricing_plan_id":"cebpf4jnsgd1na2vs0mg"},{"bike_id":"9713f383-b08e-4426-b8eb-983d4865231f","system_id":"levelo_inurba_marseille","lat":43.24352,"lon":5.37099,"is_reserved":false,"is_disabled":false,"rental_uris":{"android":"levelo://app?vid=9713f383-b08e-4426-b8eb-983d4865231f","ios":"levelo://app?vid=9713f383-b08e-4426-b8eb-983d4865231f"},"vehicle_type_id":"4","last_reported":1769462039,"current_range_meters":6000,"station_id":"ce4bhhh2rcd13ifvqfk0","pricing_plan_id":"cebpf4jnsgd1na2vs0mg"},{"bike_id":"93c7ca3c-2e02-4311-a0d1-b461f66e2ced","system_id":"levelo_inurba_marseille","lat":43.314982,"lon":5.373115,"is_reserved":false,"is_disabled":false,"rental_uris":{"android":"levelo://app?vid=93c7ca3c-2e02-4311-a0d1-b461f66e2ced","ios":"levelo://app?vid=93c7ca3c-2e02-4311-a0d1-b461f66e2ced"},"vehicle_type_id":"4","last_reported":1769462039,"current_range_meters":6000,"station_id":"","pricing_plan_id":"cebpf4jnsgd1na2vs0mg"},{"bike_id":"35a7406f-c3d7-4ad8-baa5-77e0b1066dfe","system_id":"levelo_inurba_marseille","lat":43.28161,"lon":5.42628,"is_reserved":false,"is_disabled":false,"rental_uris":{"android":"levelo://app?vid=35a7406f-c3d7-4ad8-baa5-77e0b1066dfe","ios":"levelo://app?vid=35a7406f-c3d7-4ad8-baa5-77e0b1066dfe"},"vehicle_type_id":"4","last_reported":1769462039,"current_range_meters":6000,"station_id":"ce4bhnh2rcd13ifvqgug","pricing_plan_id":"cebpf4jnsgd1na2vs0mg"},{"bike_id":"b633e966-5653-4f4f-933b-143a8d470829","system_id":"levelo_inurba_marseille","lat":43.26075,"lon":5.37309,"is_reserved":false,"is_disabled":false,"rental_uris":{"android":"levelo://app?vid=b633e966-5653-4f4f-933b-143a8d470829","ios":"levelo://app?vid=b633e966-5653-4f4f-933b-143a8d470829"},"vehicle_type_id":"4","last_reported":1769462039,"current_range_meters":6000,"station_id":"","pricing_plan_id":"cebpf4jnsgd1na2vs0mg"},{"bike_id":"4300228c-a74d-4d37-940c-46e3542698e2","system_id":"levelo_inurba_marseille","lat":43.252373,"lon":5.406192,"is_reserved":false,"is_disabled":false,"rental_uris":{"android":"levelo://app?vid=4300228c-a74d-4d37-940c-46e3542698e2","ios":"levelo://app?vid=4300228c-a74d-4d37-940c-46e3542698e2"},"vehicle_type_id":"4","last_reported":1769462039,"current_range_meters":6000,"station_id":"ce4bhdp2rcd13ifvqf20","pricing_plan_id":"cebpf4jnsgd1na2vs0mg"},{"bike_id":"c06d86c1-3ce9-4d98-9573-b6d0b1a6715e","system_id":"levelo_inurba_marseille","lat":43.28723,"lon":5.36105,"is_reserved":false,"is_disabled":false,"rental_uris":{"android":"levelo://app?vid=c06d86c1-3ce9-4d98-9573-b6d0b1a6715e","ios":"levelo://app?vid=c06d86c1-3ce9-4d98-9573-b6d0b1a6715e"},"vehicle_type_id":"4","last_reported":1769462039,"current_range_meters":6000,"station_id":"cki0cbj6b192h4jlfktg","pricing_plan_id":"cebpf4jnsgd1na2vs0mg"},{"bike_id":"4f9646d0-e890-4075-9fb7-8871574ea59d","system_id":"levelo_inurba_marseille","lat":43.2502,"lon":5.38904,"is_reserved":false,"is_disabled":false,"rental_uris":{"android":"levelo://app?vid=4f9646d0-e890-4075-9fb7-8871574ea59d","ios":"levelo://app?vid=4f9646d0-e890-4075-9fb7-8871574ea59d"},"vehicle_type_id":"4","last_reported":1769462039,"current_range_meters":6000,"station_id":"ce4bhgp2rcd13ifvqfd0","pricing_plan_id":"cebpf4jnsgd1na2vs0mg"},{"bike_id":"2e7dad9e-9695-44d6-bc96-ef3eee5dfbfa","system_id":"levelo_inurba_marseille","lat":43.31413,"lon":5.3668,"is_reserved":false,"is_disabled":false,"rental_uris":{"android":"levelo://app?vid=2e7dad9e-9695-44d6-bc96-ef3eee5dfbfa","ios":"levelo://app?vid=2e7dad9e-9695-44d6-bc96-ef3eee5dfbfa"},"vehicle_type_id":"4","last_reported":1769462039,"current_range_meters":6000,"station_id":"","pricing_plan_id":"cebpf4jnsgd1na2vs0mg"},{"bike_id":"3ea061e6-3522-4acc-948f-9e8a2f88b026","system_id":"levelo_inurba_marseille","lat":43.231451,"lon":5.437023,"is_reserved":false,"is_disabled":false,"rental_uris":{"android":"levelo://app?vid=3ea061e6-3522-4acc-948f-9e8a2f88b026","ios":"levelo://app?vid=3ea061e6-3522-4acc-948f-9e8a2f88b026"},"vehicle_type_id":"4","last_reported":1769462039,"current_range_meters":6000,"station_id":"ce4bhmp2rcd13ifvqgog","pricing_plan_id":"cebpf4jnsgd1na2vs0mg"},{"bike_id":"acd93821-580f-41e7-bd7f-004edf8066b9","system_id":"levelo_inurba_marseille","lat":43.24072,"lon":5.37742,"is_reserved":false,"is_disabled":false,"rental_uris":{"android":"levelo://app?vid=acd93821-580f-41e7-bd7f-004edf8066b9","ios":"levelo://app?vid=acd93821-580f-41e7-bd7f-004edf8066b9"},"vehicle_type_id":"4","last_reported":1769462039,"current_range_meters":6000,"station_id":"ce4bhnp2rcd13ifvqgvg","pricing_plan_id":"cebpf4jnsgd1na2vs0mg"},{"bike_id":"2ea93c3a-0d0a-472b-b231-85dc213d24b7","system_id":"levelo_inurba_marseille","lat":43.250026,"lon":5.389257,"is_reserved":false,"is_disabled":false,"rental_uris":{"android":"levelo://app?vid=2ea93c3a-0d0a-472b-b231-85dc213d24b7","ios":"levelo://app?vid=2ea93c3a-0d0a-472b-b231-85dc213d24b7"},"vehicle_type_id":"4","last_reported":1769462039,"current_range_meters":6000,"station_id":"ce4bhgp2rcd13ifvqfd0","pricing_plan_id":"cebpf4jnsgd1na2vs0mg"},{"bike_id":"8f9da522-4132-4e9e-a406-f805a0681f69","system_id":"levelo_inurba_marseille","lat":43.28499,"lon":5.3824,"is_reserved":false,"is_disabled":false,"rental_uris":{"android":"levelo://app?vid=8f9da522-4132-4e9e-a406-f805a0681f69","ios":"levelo://app?vid=8f9da522-4132-4e9e-a406-f805a0681f69"},"vehicle_type_id":"4","last_reported":1769462039,"current_range_meters":6000,"station_id":"","pricing_plan_id":"cebpf4jnsgd1na2vs0mg"},{"bike_id":"b81ca986-1c94-4b0d-931e-ce66cddf52bd","system_id":"levelo_inurba_marseille","lat":43.24293,"lon":5.37982,"is_reserved":false,"is_disabled":false,"rental_uris":{"android":"levelo://app?vid=b81ca986-1c94-4b0d-931e-ce66cddf52bd","ios":"levelo://app?vid=b81ca986-1c94-4b0d-931e-ce66cddf52bd"},"vehicle_type_id":"4","last_reported":1769462039,"current_range_meters":6000,"station_id":"","pricing_plan_id":"cebpf4jnsgd1na2vs0mg"},{"bike_id":"e73f1781-62f4-4a23-b153-6815bc29f05e","system_id":"levelo_inurba_marseille","lat":43.29318,"lon":5.411828,"is_reserved":false,"is_disabled":false,"rental_uris":{"android":"levelo://app?vid=e73f1781-62f4-4a23-b153-6815bc29f05e","ios":"levelo://app?vid=e73f1781-62f4-4a23-b153-6815bc29f05e"},"vehicle_type_id":"4","last_reported":1769462039,"current_range_meters":6000,"station_id":"","pricing_plan_id":"cebpf4jnsgd1na2vs0mg"},{"bike_id":"2565db7e-39aa-4540-9db8-387cb26b11cd","system_id":"levelo_inurba_marseille","lat":43.291919,"lon":5.35807,"is_reserved":false,"is_disabled":false,"rental_uris":{"android":"levelo://app?vid=2565db7e-39aa-4540-9db8-387cb26b11cd","ios":"levelo://app?vid=2565db7e-39aa-4540-9db8-387cb26b11cd"},"vehicle_type_id":"4","last_reported":1769462039,"current_range_meters":6400,"station_id":"ce4bhb12rcd13ifvqel0","pricing_plan_id":"cebpf4jnsgd1na2vs0mg"},{"bike_id":"a31c88fe-eab3-4a9e-bb85-de943818a780","system_id":"levelo_inurba_marseille","lat":43.23786,"lon":5.36628,"is_reserved":false,"is_disabled":false,"rental_uris":{"android":"levelo://app?vid=a31c88fe-eab3-4a9e-bb85-de943818a780","ios":"levelo://app?vid=a31c88fe-eab3-4a9e-bb85-de943818a780"},"vehicle_type_id":"4","last_reported":1769462039,"current_range_meters":6400,"station_id":"st_d3nk18o9ro0c73en2l3g","pricing_plan_id":"cebpf4jnsgd1na2vs0mg"},{"bike_id":"a916d745-d182-4531-966b-51a04f934c34","system_id":"levelo_inurba_marseille","lat":43.29253,"lon":5.38443,"is_reserved":false,"is_disabled":false,"rental_uris":{"android":"levelo://app?vid=a916d745-d182-4531-966b-51a04f934c34","ios":"levelo://app?vid=a916d745-d182-4531-966b-51a04f934c34"},"vehicle_type_id":"4","last_reported":1769462039,"current_range_meters":6400,"station_id":"ce4bh692rcd13ifvqea0","pricing_plan_id":"cebpf4jnsgd1na2vs0mg"},{"bike_id":"c03ddeec-e836-49fd-b78f-62619ea57896","system_id":"levelo_inurba_marseille","lat":43.29708,"lon":5.36585,"is_reserved":false,"is_disabled":false,"rental_uris":{"android":"levelo://app?vid=c03ddeec-e836-49fd-b78f-62619ea57896","ios":"levelo://app?vid=c03ddeec-e836-49fd-b78f-62619ea57896"},"vehicle_type_id":"4","last_reported":1769462039,"current_range_meters":6400,"station_id":"ce4bgn12rcd13ifvqbt0","pricing_plan_id":"cebpf4jnsgd1na2vs0mg"},{"bike_id":"cfb67ada-34b1-419c-91f0-868c9be1a48b","system_id":"levelo_inurba_marseille","lat":43.241711,"lon":5.36395,"is_reserved":false,"is_disabled":false,"rental_uris":{"android":"levelo://app?vid=cfb67ada-34b1-419c-91f0-868c9be1a48b","ios":"levelo://app?vid=cfb67ada-34b1-419c-91f0-868c9be1a48b"},"vehicle_type_id":"4","last_reported":1769462039,"current_range_meters":6400,"station_id":"cpo36qri1sfpv3e86is0","pricing_plan_id":"cebpf4jnsgd1na2vs0mg"},{"bike_id":"daab4c5f-eb65-4192-89dd-6363e81a674d","system_id":"levelo_inurba_marseille","lat":43.27532,"lon":5.4094,"is_reserved":false,"is_disabled":false,"rental_uris":{"android":"levelo://app?vid=daab4c5f-eb65-4192-89dd-6363e81a674d","ios":"levelo://app?vid=daab4c5f-eb65-4192-89dd-6363e81a674d"},"vehicle_type_id":"4","last_reported":1769462039,"current_range_meters":6400,"station_id":"","pricing_plan_id":"cebpf4jnsgd1na2vs0mg"},{"bike_id":"9529b62c-70d8-4a14-97b4-fe13622d1c5b","system_id":"levelo_inurba_marseille","lat":43.296243,"lon":5.377143,"is_reserved":false,"is_disabled":false,"rental_uris":{"android":"levelo://app?vid=9529b62c-70d8-4a14-97b4-fe13622d1c5b","ios":"levelo://app?vid=9529b62c-70d8-4a14-97b4-fe13622d1c5b"},"vehicle_type_id":"4","last_reported":1769462039,"current_range_meters":6400,"station_id":"ce4bh3p2rcd13ifvqdp0","pricing_plan_id":"cebpf4jnsgd1na2vs0mg"},{"bike_id":"b0d2c80e-ed15-4930-af0a-5bfc09a11396","system_id":"levelo_inurba_marseille","lat":43.2293,"lon":5.35379,"is_reserved":false,"is_disabled":false,"rental_uris":{"android":"levelo://app?vid=b0d2c80e-ed15-4930-af0a-5bfc09a11396","ios":"levelo://app?vid=b0d2c80e-ed15-4930-af0a-5bfc09a11396"},"vehicle_type_id":"4","last_reported":1769462039,"current_range_meters":6400,"station_id":"cpo3532slgdg3j2ikp40","pricing_plan_id":"cebpf4jnsgd1na2vs0mg"},{"bike_id":"a85c4dff-4d0e-447f-be35-ab46b7400fe4","system_id":"levelo_inurba_marseille","lat":43.24832,"lon":5.37402,"is_reserved":false,"is_disabled":false,"rental_uris":{"android":"levelo://app?vid=a85c4dff-4d0e-447f-be35-ab46b7400fe4","ios":"levelo://app?vid=a85c4dff-4d0e-447f-be35-ab46b7400fe4"},"vehicle_type_id":"4","last_reported":1769462039,"current_range_meters":6400,"station_id":"","pricing_plan_id":"cebpf4jnsgd1na2vs0mg"},{"bike_id":"03628ce2-f90f-4215-9e8f-4d1a2c153b49","system_id":"levelo_inurba_marseille","lat":43.24564,"lon":5.37312,"is_reserved":false,"is_disabled":false,"rental_uris":{"android":"levelo://app?vid=03628ce2-f90f-4215-9e8f-4d1a2c153b49","ios":"levelo://app?vid=03628ce2-f90f-4215-9e8f-4d1a2c153b49"},"vehicle_type_id":"4","last_reported":1769462039,"current_range_meters":6400,"station_id":"","pricing_plan_id":"cebpf4jnsgd1na2vs0mg"},{"bike_id":"1be5c9eb-27e3-427d-8b79-039e6802232b","system_id":"levelo_inurba_marseille","lat":43.3106,"lon":5.38371,"is_reserved":false,"is_disabled":false,"rental_uris":{"android":"levelo://app?vid=1be5c9eb-27e3-427d-8b79-039e6802232b","ios":"levelo://app?vid=1be5c9eb-27e3-427d-8b79-039e6802232b"},"vehicle_type_id":"4","last_reported":1769462039,"current_range_meters":6400,"station_id":"ce4bgv92rcd13ifvqcr0","pricing_plan_id":"cebpf4jnsgd1na2vs0mg"},{"bike_id":"66635ff5-1455-40c0-978e-60bbaea2798e","system_id":"levelo_inurba_marseille","lat":43.29719,"lon":5.36629,"is_reserved":false,"is_disabled":false,"rental_uris":{"android":"levelo://app?vid=66635ff5-1455-40c0-978e-60bbaea2798e","ios":"levelo://app?vid=66635ff5-1455-40c0-978e-60bbaea2798e"},"vehicle_type_id":"4","last_reported":1769462039,"current_range_meters":6400,"station_id":"ce4bgn12rcd13ifvqbt0","pricing_plan_id":"cebpf4jnsgd1na2vs0mg"},{"bike_id":"ccf326ac-ae0a-4ffb-a071-520b4c6f402c","system_id":"levelo_inurba_marseille","lat":43.3327,"lon":5.3795,"is_reserved":false,"is_disabled":false,"rental_uris":{"android":"levelo://app?vid=ccf326ac-ae0a-4ffb-a071-520b4c6f402c","ios":"levelo://app?vid=ccf326ac-ae0a-4ffb-a071-520b4c6f402c"},"vehicle_type_id":"4","last_reported":1769462039,"current_range_meters":6400,"station_id":"","pricing_plan_id":"cebpf4jnsgd1na2vs0mg"},{"bike_id":"062ac5f5-90b2-4964-8a95-05a79098170a","system_id":"levelo_inurba_marseille","lat":43.24468,"lon":5.42542,"is_reserved":false,"is_disabled":false,"rental_uris":{"android":"levelo://app?vid=062ac5f5-90b2-4964-8a95-05a79098170a","ios":"levelo://app?vid=062ac5f5-90b2-4964-8a95-05a79098170a"},"vehicle_type_id":"4","last_reported":1769462039,"current_range_meters":6400,"station_id":"st_d4a3vfp97mjs738cd8kg","pricing_plan_id":"cebpf4jnsgd1na2vs0mg"},{"bike_id":"b310bd46-efd6-40da-b4d5-b9992577e5e4","system_id":"levelo_inurba_marseille","lat":43.2622,"lon":5.40424,"is_reserved":false,"is_disabled":false,"rental_uris":{"android":"levelo://app?vid=b310bd46-efd6-40da-b4d5-b9992577e5e4","ios":"levelo://app?vid=b310bd46-efd6-40da-b4d5-b9992577e5e4"},"vehicle_type_id":"4","last_reported":1769462039,"current_range_meters":6400,"station_id":"ce4bhmh2rcd13ifvqgmg","pricing_plan_id":"cebpf4jnsgd1na2vs0mg"},{"bike_id":"23ebf9eb-35b0-4aaa-be4d-04b1f5047515","system_id":"levelo_inurba_marseille","lat":43.23179,"lon":5.39989,"is_reserved":false,"is_disabled":false,"rental_uris":{"android":"levelo://app?vid=23ebf9eb-35b0-4aaa-be4d-04b1f5047515","ios":"levelo://app?vid=23ebf9eb-35b0-4aaa-be4d-04b1f5047515"},"vehicle_type_id":"4","last_reported":1769462039,"current_range_meters":6400,"station_id":"ce4bhn12rcd13ifvqgqg","pricing_plan_id":"cebpf4jnsgd1na2vs0mg"},{"bike_id":"736929a0-d6a8-4f12-8769-fcb0d31195b2","system_id":"levelo_inurba_marseille","lat":43.27848,"lon":5.40382,"is_reserved":false,"is_disabled":false,"rental_uris":{"android":"levelo://app?vid=736929a0-d6a8-4f12-8769-fcb0d31195b2","ios":"levelo://app?vid=736929a0-d6a8-4f12-8769-fcb0d31195b2"},"vehicle_type_id":"4","last_reported":1769462039,"current_range_meters":6400,"station_id":"","pricing_plan_id":"cebpf4jnsgd1na2vs0mg"},{"bike_id":"78057728-c99f-47b2-90ea-294bf4cce766","system_id":"levelo_inurba_marseille","lat":43.29543,"lon":5.38541,"is_reserved":false,"is_disabled":false,"rental_uris":{"android":"levelo://app?vid=78057728-c99f-47b2-90ea-294bf4cce766","ios":"levelo://app?vid=78057728-c99f-47b2-90ea-294bf4cce766"},"vehicle_type_id":"4","last_reported":1769462039,"current_range_meters":6400,"station_id":"ce4bgih2rcd13ifvqba0","pricing_plan_id":"cebpf4jnsgd1na2vs0mg"},{"bike_id":"2e78d352-6c30-469d-92ea-ed0a45cc54ed","system_id":"levelo_inurba_marseille","lat":43.30877,"lon":5.39666,"is_reserved":false,"is_disabled":false,"rental_uris":{"android":"levelo://app?vid=2e78d352-6c30-469d-92ea-ed0a45cc54ed","ios":"levelo://app?vid=2e78d352-6c30-469d-92ea-ed0a45cc54ed"},"vehicle_type_id":"4","last_reported":1769462039,"current_range_meters":6400,"station_id":"ce4bh012rcd13ifvqcv0","pricing_plan_id":"cebpf4jnsgd1na2vs0mg"},{"bike_id":"79b6158d-49ea-4914-8da1-643529c2d44f","system_id":"levelo_inurba_marseille","lat":43.24645,"lon":5.38909,"is_reserved":false,"is_disabled":false,"rental_uris":{"android":"levelo://app?vid=79b6158d-49ea-4914-8da1-643529c2d44f","ios":"levelo://app?vid=79b6158d-49ea-4914-8da1-643529c2d44f"},"vehicle_type_id":"4","last_reported":1769462039,"current_range_meters":6800,"station_id":"ce4bhg12rcd13ifvqf60","pricing_plan_id":"cebpf4jnsgd1na2vs0mg"},{"bike_id":"aeaa2f78-4472-4f7c-89f1-7a1a254f34d5","system_id":"levelo_inurba_marseille","lat":43.30311,"lon":5.40431,"is_reserved":false,"is_disabled":false,"rental_uris":{"android":"levelo://app?vid=aeaa2f78-4472-4f7c-89f1-7a1a254f34d5","ios":"levelo://app?vid=aeaa2f78-4472-4f7c-89f1-7a1a254f34d5"},"vehicle_type_id":"4","last_reported":1769462039,"current_range_meters":6800,"station_id":"ce4bh012rcd13ifvqd10","pricing_plan_id":"cebpf4jnsgd1na2vs0mg"},{"bike_id":"860d4648-96bb-41c6-990b-e19b394bde4c","system_id":"levelo_inurba_marseille","lat":43.29469,"lon":5.43361,"is_reserved":false,"is_disabled":false,"rental_uris":{"android":"levelo://app?vid=860d4648-96bb-41c6-990b-e19b394bde4c","ios":"levelo://app?vid=860d4648-96bb-41c6-990b-e19b394bde4c"},"vehicle_type_id":"4","last_reported":1769462039,"current_range_meters":6800,"station_id":"st_d3j5ugp08ojc73fj9d10","pricing_plan_id":"cebpf4jnsgd1na2vs0mg"},{"bike_id":"bdfbb0b4-0102-456a-9ae1-856c48844502","system_id":"levelo_inurba_marseille","lat":43.31258,"lon":5.40167,"is_reserved":false,"is_disabled":false,"rental_uris":{"android":"levelo://app?vid=bdfbb0b4-0102-456a-9ae1-856c48844502","ios":"levelo://app?vid=bdfbb0b4-0102-456a-9ae1-856c48844502"},"vehicle_type_id":"4","last_reported":1769462039,"current_range_meters":6800,"station_id":"ce4bh092rcd13ifvqd30","pricing_plan_id":"cebpf4jnsgd1na2vs0mg"},{"bike_id":"de627c95-b9c3-415b-a205-de08f16c1b3b","system_id":"levelo_inurba_marseille","lat":43.26395,"lon":5.41061,"is_reserved":false,"is_disabled":false,"rental_uris":{"android":"levelo://app?vid=de627c95-b9c3-415b-a205-de08f16c1b3b","ios":"levelo://app?vid=de627c95-b9c3-415b-a205-de08f16c1b3b"},"vehicle_type_id":"4","last_reported":1769462039,"current_range_meters":6800,"station_id":"st_d4e5ca6na9uc73bfl5fg","pricing_plan_id":"cebpf4jnsgd1na2vs0mg"},{"bike_id":"e329dd71-725a-4dd6-828f-456a085ef790","system_id":"levelo_inurba_marseille","lat":43.30451,"lon":5.38894,"is_reserved":false,"is_disabled":false,"rental_uris":{"android":"levelo://app?vid=e329dd71-725a-4dd6-828f-456a085ef790","ios":"levelo://app?vid=e329dd71-725a-4dd6-828f-456a085ef790"},"vehicle_type_id":"4","last_reported":1769462039,"current_range_meters":6800,"station_id":"ce4bgk12rcd13ifvqbi0","pricing_plan_id":"cebpf4jnsgd1na2vs0mg"},{"bike_id":"50183e64-6ce3-457a-967a-43cb7eec0d70","system_id":"levelo_inurba_marseille","lat":43.29489,"lon":5.39152,"is_reserved":false,"is_disabled":false,"rental_uris":{"android":"levelo://app?vid=50183e64-6ce3-457a-967a-43cb7eec0d70","ios":"levelo://app?vid=50183e64-6ce3-457a-967a-43cb7eec0d70"},"vehicle_type_id":"4","last_reported":1769462039,"current_range_meters":6800,"station_id":"","pricing_plan_id":"cebpf4jnsgd1na2vs0mg"},{"bike_id":"77c28fe0-5ae7-4aac-b4aa-5a886888a2e9","system_id":"levelo_inurba_marseille","lat":43.27937,"lon":5.41068,"is_reserved":false,"is_disabled":false,"rental_uris":{"android":"levelo://app?vid=77c28fe0-5ae7-4aac-b4aa-5a886888a2e9","ios":"levelo://app?vid=77c28fe0-5ae7-4aac-b4aa-5a886888a2e9"},"vehicle_type_id":"4","last_reported":1769462039,"current_range_meters":6800,"station_id":"ce4bhnp2rcd13ifvqh0g","pricing_plan_id":"cebpf4jnsgd1na2vs0mg"},{"bike_id":"5b91b93d-b3ae-4751-8498-b1dabc506a1f","system_id":"levelo_inurba_marseille","lat":43.24466,"lon":5.42532,"is_reserved":false,"is_disabled":false,"rental_uris":{"android":"levelo://app?vid=5b91b93d-b3ae-4751-8498-b1dabc506a1f","ios":"levelo://app?vid=5b91b93d-b3ae-4751-8498-b1dabc506a1f"},"vehicle_type_id":"4","last_reported":1769462039,"current_range_meters":6800,"station_id":"st_d4a3vfp97mjs738cd8kg","pricing_plan_id":"cebpf4jnsgd1na2vs0mg"},{"bike_id":"fefe4d30-1974-4c06-9b66-899aa1dd538f","system_id":"levelo_inurba_marseille","lat":43.33035,"lon":5.39027,"is_reserved":false,"is_disabled":false,"rental_uris":{"android":"levelo://app?vid=fefe4d30-1974-4c06-9b66-899aa1dd538f","ios":"levelo://app?vid=fefe4d30-1974-4c06-9b66-899aa1dd538f"},"vehicle_type_id":"4","last_reported":1769462039,"current_range_meters":6800,"station_id":"ce4bhr92rcd13ifvqhrg","pricing_plan_id":"cebpf4jnsgd1na2vs0mg"},{"bike_id":"bda8d170-c411-43f2-99e3-22f10d72b0e6","system_id":"levelo_inurba_marseille","lat":43.23146,"lon":5.43699,"is_reserved":false,"is_disabled":false,"rental_uris":{"android":"levelo://app?vid=bda8d170-c411-43f2-99e3-22f10d72b0e6","ios":"levelo://app?vid=bda8d170-c411-43f2-99e3-22f10d72b0e6"},"vehicle_type_id":"4","last_reported":1769462039,"current_range_meters":6800,"station_id":"ce4bhmp2rcd13ifvqgog","pricing_plan_id":"cebpf4jnsgd1na2vs0mg"},{"bike_id":"a57ac1b9-36db-4721-8a5f-8013a4daf2e4","system_id":"levelo_inurba_marseille","lat":43.28526,"lon":5.44103,"is_reserved":false,"is_disabled":false,"rental_uris":{"android":"levelo://app?vid=a57ac1b9-36db-4721-8a5f-8013a4daf2e4","ios":"levelo://app?vid=a57ac1b9-36db-4721-8a5f-8013a4daf2e4"},"vehicle_type_id":"4","last_reported":1769462039,"current_range_meters":6800,"station_id":"st_d3j3df2ikq2c7380ej80","pricing_plan_id":"cebpf4jnsgd1na2vs0mg"},{"bike_id":"618af153-27fa-4b2e-89ba-9b1fa2ffdb54","system_id":"levelo_inurba_marseille","lat":43.29517,"lon":5.39405,"is_reserved":false,"is_disabled":false,"rental_uris":{"android":"levelo://app?vid=618af153-27fa-4b2e-89ba-9b1fa2ffdb54","ios":"levelo://app?vid=618af153-27fa-4b2e-89ba-9b1fa2ffdb54"},"vehicle_type_id":"4","last_reported":1769462039,"current_range_meters":6800,"station_id":"ce4bh292rcd13ifvqdf0","pricing_plan_id":"cebpf4jnsgd1na2vs0mg"},{"bike_id":"5bd03fda-17ed-42fc-aa4d-7ef68bd0ba56","system_id":"levelo_inurba_marseille","lat":43.24649,"lon":5.38157,"is_reserved":false,"is_disabled":false,"rental_uris":{"android":"levelo://app?vid=5bd03fda-17ed-42fc-aa4d-7ef68bd0ba56","ios":"levelo://app?vid=5bd03fda-17ed-42fc-aa4d-7ef68bd0ba56"},"vehicle_type_id":"4","last_reported":1769462039,"current_range_meters":6800,"station_id":"ce4bhih2rcd13ifvqfr0","pricing_plan_id":"cebpf4jnsgd1na2vs0mg"},{"bike_id":"5743090c-9a1b-4d9c-82d1-51bc64427c21","system_id":"levelo_inurba_marseille","lat":43.28724,"lon":5.37991,"is_reserved":false,"is_disabled":true,"rental_uris":{"android":"levelo://app?vid=5743090c-9a1b-4d9c-82d1-51bc64427c21","ios":"levelo://app?vid=5743090c-9a1b-4d9c-82d1-51bc64427c21"},"vehicle_type_id":"4","last_reported":1769462039,"current_range_meters":6800,"station_id":"ce4bh9p2rcd13ifvqec0","pricing_plan_id":"cebpf4jnsgd1na2vs0mg"},{"bike_id":"898169fa-29c0-4349-a185-41ab96475b8a","system_id":"levelo_inurba_marseille","lat":43.25007,"lon":5.38918,"is_reserved":false,"is_disabled":false,"rental_uris":{"android":"levelo://app?vid=898169fa-29c0-4349-a185-41ab96475b8a","ios":"levelo://app?vid=898169fa-29c0-4349-a185-41ab96475b8a"},"vehicle_type_id":"4","last_reported":1769462039,"current_range_meters":6800,"station_id":"ce4bhgp2rcd13ifvqfd0","pricing_plan_id":"cebpf4jnsgd1na2vs0mg"},{"bike_id":"11a846e9-9802-4769-b7fc-69d7786adabd","system_id":"levelo_inurba_marseille","lat":43.24641,"lon":5.38891,"is_reserved":false,"is_disabled":false,"rental_uris":{"android":"levelo://app?vid=11a846e9-9802-4769-b7fc-69d7786adabd","ios":"levelo://app?vid=11a846e9-9802-4769-b7fc-69d7786adabd"},"vehicle_type_id":"4","last_reported":1769462039,"current_range_meters":6800,"station_id":"ce4bhg12rcd13ifvqf60","pricing_plan_id":"cebpf4jnsgd1na2vs0mg"},{"bike_id":"20748162-a355-4c7c-8caf-612a7ad95f24","system_id":"levelo_inurba_marseille","lat":43.291809,"lon":5.385995,"is_reserved":false,"is_disabled":false,"rental_uris":{"android":"levelo://app?vid=20748162-a355-4c7c-8caf-612a7ad95f24","ios":"levelo://app?vid=20748162-a355-4c7c-8caf-612a7ad95f24"},"vehicle_type_id":"4","last_reported":1769462039,"current_range_meters":6800,"station_id":"ce4bh3h2rcd13ifvqdn0","pricing_plan_id":"cebpf4jnsgd1na2vs0mg"},{"bike_id":"21be62a1-c968-473b-9c56-f2f1e7e2371d","system_id":"levelo_inurba_marseille","lat":43.27076,"lon":5.38309,"is_reserved":false,"is_disabled":false,"rental_uris":{"android":"levelo://app?vid=21be62a1-c968-473b-9c56-f2f1e7e2371d","ios":"levelo://app?vid=21be62a1-c968-473b-9c56-f2f1e7e2371d"},"vehicle_type_id":"4","last_reported":1769462039,"current_range_meters":6800,"station_id":"st_d3n2fo6cfp8s73cte1j0","pricing_plan_id":"cebpf4jnsgd1na2vs0mg"},{"bike_id":"c060f6fe-9c22-4601-a3d6-b324dc7e883d","system_id":"levelo_inurba_marseille","lat":43.22932,"lon":5.35365,"is_reserved":false,"is_disabled":false,"rental_uris":{"android":"levelo://app?vid=c060f6fe-9c22-4601-a3d6-b324dc7e883d","ios":"levelo://app?vid=c060f6fe-9c22-4601-a3d6-b324dc7e883d"},"vehicle_type_id":"4","last_reported":1769462039,"current_range_meters":6800,"station_id":"cpo3532slgdg3j2ikp40","pricing_plan_id":"cebpf4jnsgd1na2vs0mg"},{"bike_id":"5b13aad4-a190-4a10-bf52-1ca208002695","system_id":"levelo_inurba_marseille","lat":43.27835,"lon":5.39212,"is_reserved":false,"is_disabled":false,"rental_uris":{"android":"levelo://app?vid=5b13aad4-a190-4a10-bf52-1ca208002695","ios":"levelo://app?vid=5b13aad4-a190-4a10-bf52-1ca208002695"},"vehicle_type_id":"4","last_reported":1769462039,"current_range_meters":6800,"station_id":"ce4bhjp2rcd13ifvqga0","pricing_plan_id":"cebpf4jnsgd1na2vs0mg"},{"bike_id":"f09c06aa-a05d-4b00-b228-d8bee2b62b4f","system_id":"levelo_inurba_marseille","lat":43.32341,"lon":5.36733,"is_reserved":false,"is_disabled":false,"rental_uris":{"android":"levelo://app?vid=f09c06aa-a05d-4b00-b228-d8bee2b62b4f","ios":"levelo://app?vid=f09c06aa-a05d-4b00-b228-d8bee2b62b4f"},"vehicle_type_id":"4","last_reported":1769462039,"current_range_meters":7200,"station_id":"ce4bhsh2rcd13ifvqi2g","pricing_plan_id":"cebpf4jnsgd1na2vs0mg"},{"bike_id":"e630d310-713f-4305-a411-b4c5914b4943","system_id":"levelo_inurba_marseille","lat":43.25112,"lon":5.40321,"is_reserved":false,"is_disabled":false,"rental_uris":{"android":"levelo://app?vid=e630d310-713f-4305-a411-b4c5914b4943","ios":"levelo://app?vid=e630d310-713f-4305-a411-b4c5914b4943"},"vehicle_type_id":"4","last_reported":1769462039,"current_range_meters":7200,"station_id":"ce4bhlh2rcd13ifvqgig","pricing_plan_id":"cebpf4jnsgd1na2vs0mg"},{"bike_id":"fcf7a98f-1fd5-4e85-9314-c14ad8323d94","system_id":"levelo_inurba_marseille","lat":43.31163,"lon":5.3937,"is_reserved":false,"is_disabled":false,"rental_uris":{"android":"levelo://app?vid=fcf7a98f-1fd5-4e85-9314-c14ad8323d94","ios":"levelo://app?vid=fcf7a98f-1fd5-4e85-9314-c14ad8323d94"},"vehicle_type_id":"4","last_reported":1769462039,"current_range_meters":7200,"station_id":"","pricing_plan_id":"cebpf4jnsgd1na2vs0mg"},{"bike_id":"908b886e-cc4b-4226-b372-446a0d3f1b77","system_id":"levelo_inurba_marseille","lat":43.2318,"lon":5.35557,"is_reserved":false,"is_disabled":false,"rental_uris":{"android":"levelo://app?vid=908b886e-cc4b-4226-b372-446a0d3f1b77","ios":"levelo://app?vid=908b886e-cc4b-4226-b372-446a0d3f1b77"},"vehicle_type_id":"4","last_reported":1769462039,"current_range_meters":7200,"station_id":"ce4bhu92rcd13ifvqi70","pricing_plan_id":"cebpf4jnsgd1na2vs0mg"},{"bike_id":"8b0bf582-c927-4bc1-b65b-5600d7cfc9b6","system_id":"levelo_inurba_marseille","lat":43.231861,"lon":5.399846,"is_reserved":false,"is_disabled":false,"rental_uris":{"android":"levelo://app?vid=8b0bf582-c927-4bc1-b65b-5600d7cfc9b6","ios":"levelo://app?vid=8b0bf582-c927-4bc1-b65b-5600d7cfc9b6"},"vehicle_type_id":"4","last_reported":1769462039,"current_range_meters":7200,"station_id":"ce4bhn12rcd13ifvqgqg","pricing_plan_id":"cebpf4jnsgd1na2vs0mg"},{"bike_id":"d59a1339-9c53-4675-bf9d-3552aa5174f0","system_id":"levelo_inurba_marseille","lat":43.28929,"lon":5.38394,"is_reserved":false,"is_disabled":false,"rental_uris":{"android":"levelo://app?vid=d59a1339-9c53-4675-bf9d-3552aa5174f0","ios":"levelo://app?vid=d59a1339-9c53-4675-bf9d-3552aa5174f0"},"vehicle_type_id":"4","last_reported":1769462039,"current_range_meters":7200,"station_id":"ce4bh612rcd13ifvqe6g","pricing_plan_id":"cebpf4jnsgd1na2vs0mg"},{"bike_id":"25fdb873-b1d5-4615-9092-8534f17c5e38","system_id":"levelo_inurba_marseille","lat":43.25108,"lon":5.40324,"is_reserved":false,"is_disabled":false,"rental_uris":{"android":"levelo://app?vid=25fdb873-b1d5-4615-9092-8534f17c5e38","ios":"levelo://app?vid=25fdb873-b1d5-4615-9092-8534f17c5e38"},"vehicle_type_id":"4","last_reported":1769462039,"current_range_meters":7200,"station_id":"ce4bhlh2rcd13ifvqgig","pricing_plan_id":"cebpf4jnsgd1na2vs0mg"},{"bike_id":"33eee04b-051b-44ad-a8a9-96172990b8ad","system_id":"levelo_inurba_marseille","lat":43.30428,"lon":5.38883,"is_reserved":false,"is_disabled":false,"rental_uris":{"android":"levelo://app?vid=33eee04b-051b-44ad-a8a9-96172990b8ad","ios":"levelo://app?vid=33eee04b-051b-44ad-a8a9-96172990b8ad"},"vehicle_type_id":"4","last_reported":1769462039,"current_range_meters":7200,"station_id":"ce4bgk12rcd13ifvqbi0","pricing_plan_id":"cebpf4jnsgd1na2vs0mg"},{"bike_id":"4c5e84a3-878b-4e80-a848-d4891b4199bc","system_id":"levelo_inurba_marseille","lat":43.32344,"lon":5.36752,"is_reserved":false,"is_disabled":false,"rental_uris":{"android":"levelo://app?vid=4c5e84a3-878b-4e80-a848-d4891b4199bc","ios":"levelo://app?vid=4c5e84a3-878b-4e80-a848-d4891b4199bc"},"vehicle_type_id":"4","last_reported":1769462039,"current_range_meters":7200,"station_id":"ce4bhsh2rcd13ifvqi2g","pricing_plan_id":"cebpf4jnsgd1na2vs0mg"},{"bike_id":"7bd6d805-b68f-46a2-8696-18247a4b8c1e","system_id":"levelo_inurba_marseille","lat":43.32337,"lon":5.36745,"is_reserved":false,"is_disabled":false,"rental_uris":{"android":"levelo://app?vid=7bd6d805-b68f-46a2-8696-18247a4b8c1e","ios":"levelo://app?vid=7bd6d805-b68f-46a2-8696-18247a4b8c1e"},"vehicle_type_id":"4","last_reported":1769462039,"current_range_meters":7200,"station_id":"ce4bhsh2rcd13ifvqi2g","pricing_plan_id":"cebpf4jnsgd1na2vs0mg"},{"bike_id":"61f9b512-dfe2-4c6f-b9eb-0a539aacc6ab","system_id":"levelo_inurba_marseille","lat":43.29904,"lon":5.4367,"is_reserved":false,"is_disabled":false,"rental_uris":{"android":"levelo://app?vid=61f9b512-dfe2-4c6f-b9eb-0a539aacc6ab","ios":"levelo://app?vid=61f9b512-dfe2-4c6f-b9eb-0a539aacc6ab"},"vehicle_type_id":"4","last_reported":1769462039,"current_range_meters":7200,"station_id":"ce4bhpp2rcd13ifvqhfg","pricing_plan_id":"cebpf4jnsgd1na2vs0mg"},{"bike_id":"2e56e0de-f8d6-44d0-a2bc-1be0c0e19b40","system_id":"levelo_inurba_marseille","lat":43.28418,"lon":5.34988,"is_reserved":false,"is_disabled":false,"rental_uris":{"android":"levelo://app?vid=2e56e0de-f8d6-44d0-a2bc-1be0c0e19b40","ios":"levelo://app?vid=2e56e0de-f8d6-44d0-a2bc-1be0c0e19b40"},"vehicle_type_id":"4","last_reported":1769462039,"current_range_meters":7200,"station_id":"ce4bhbh2rcd13ifvqepg","pricing_plan_id":"cebpf4jnsgd1na2vs0mg"},{"bike_id":"62689e11-30b2-4cf7-a0a0-b39283952b26","system_id":"levelo_inurba_marseille","lat":43.244678,"lon":5.425355,"is_reserved":false,"is_disabled":false,"rental_uris":{"android":"levelo://app?vid=62689e11-30b2-4cf7-a0a0-b39283952b26","ios":"levelo://app?vid=62689e11-30b2-4cf7-a0a0-b39283952b26"},"vehicle_type_id":"4","last_reported":1769462039,"current_range_meters":7200,"station_id":"st_d4a3vfp97mjs738cd8kg","pricing_plan_id":"cebpf4jnsgd1na2vs0mg"},{"bike_id":"f88d705c-fd5d-47fd-9cec-4cc11d33b889","system_id":"levelo_inurba_marseille","lat":43.28405,"lon":5.34991,"is_reserved":false,"is_disabled":false,"rental_uris":{"android":"levelo://app?vid=f88d705c-fd5d-47fd-9cec-4cc11d33b889","ios":"levelo://app?vid=f88d705c-fd5d-47fd-9cec-4cc11d33b889"},"vehicle_type_id":"4","last_reported":1769462039,"current_range_meters":7200,"station_id":"ce4bhbh2rcd13ifvqepg","pricing_plan_id":"cebpf4jnsgd1na2vs0mg"},{"bike_id":"d6688788-056e-4826-ab86-d4dd6ad4a0fd","system_id":"levelo_inurba_marseille","lat":43.28632,"lon":5.35095,"is_reserved":false,"is_disabled":false,"rental_uris":{"android":"levelo://app?vid=d6688788-056e-4826-ab86-d4dd6ad4a0fd","ios":"levelo://app?vid=d6688788-056e-4826-ab86-d4dd6ad4a0fd"},"vehicle_type_id":"4","last_reported":1769462039,"current_range_meters":7200,"station_id":"ce4bhch2rcd13ifvqeug","pricing_plan_id":"cebpf4jnsgd1na2vs0mg"},{"bike_id":"5be68105-477a-4926-9923-7b5ffbb88956","system_id":"levelo_inurba_marseille","lat":43.28532,"lon":5.44102,"is_reserved":false,"is_disabled":false,"rental_uris":{"android":"levelo://app?vid=5be68105-477a-4926-9923-7b5ffbb88956","ios":"levelo://app?vid=5be68105-477a-4926-9923-7b5ffbb88956"},"vehicle_type_id":"4","last_reported":1769462039,"current_range_meters":7200,"station_id":"st_d3j3df2ikq2c7380ej80","pricing_plan_id":"cebpf4jnsgd1na2vs0mg"},{"bike_id":"99dbcf00-df5b-4cca-a30e-b1ad9293dc4e","system_id":"levelo_inurba_marseille","lat":43.27838,"lon":5.40685,"is_reserved":false,"is_disabled":false,"rental_uris":{"android":"levelo://app?vid=99dbcf00-df5b-4cca-a30e-b1ad9293dc4e","ios":"levelo://app?vid=99dbcf00-df5b-4cca-a30e-b1ad9293dc4e"},"vehicle_type_id":"4","last_reported":1769462039,"current_range_meters":7200,"station_id":"ce4bhnh2rcd13ifvqgtg","pricing_plan_id":"cebpf4jnsgd1na2vs0mg"},{"bike_id":"668cddb3-60bb-49ea-80ca-9bd3711538c6","system_id":"levelo_inurba_marseille","lat":43.29197,"lon":5.35808,"is_reserved":false,"is_disabled":false,"rental_uris":{"android":"levelo://app?vid=668cddb3-60bb-49ea-80ca-9bd3711538c6","ios":"levelo://app?vid=668cddb3-60bb-49ea-80ca-9bd3711538c6"},"vehicle_type_id":"4","last_reported":1769462039,"current_range_meters":7200,"station_id":"ce4bhb12rcd13ifvqel0","pricing_plan_id":"cebpf4jnsgd1na2vs0mg"},{"bike_id":"7e659817-a1f0-4944-87e6-b538da6c9df9","system_id":"levelo_inurba_marseille","lat":43.26552,"lon":5.37294,"is_reserved":false,"is_disabled":false,"rental_uris":{"android":"levelo://app?vid=7e659817-a1f0-4944-87e6-b538da6c9df9","ios":"levelo://app?vid=7e659817-a1f0-4944-87e6-b538da6c9df9"},"vehicle_type_id":"4","last_reported":1769462039,"current_range_meters":7200,"station_id":"ce4bhg12rcd13ifvqf70","pricing_plan_id":"cebpf4jnsgd1na2vs0mg"},{"bike_id":"5c18bca9-46cd-42a4-bd07-ba7493ce75f5","system_id":"levelo_inurba_marseille","lat":43.24633,"lon":5.4314,"is_reserved":false,"is_disabled":false,"rental_uris":{"android":"levelo://app?vid=5c18bca9-46cd-42a4-bd07-ba7493ce75f5","ios":"levelo://app?vid=5c18bca9-46cd-42a4-bd07-ba7493ce75f5"},"vehicle_type_id":"4","last_reported":1769462039,"current_range_meters":7200,"station_id":"st_d2m6c4gdas8pm72e190g","pricing_plan_id":"cebpf4jnsgd1na2vs0mg"},{"bike_id":"37f80f06-28e8-4bdc-8235-2b5370b5eec4","system_id":"levelo_inurba_marseille","lat":43.29801,"lon":5.37109,"is_reserved":false,"is_disabled":false,"rental_uris":{"android":"levelo://app?vid=37f80f06-28e8-4bdc-8235-2b5370b5eec4","ios":"levelo://app?vid=37f80f06-28e8-4bdc-8235-2b5370b5eec4"},"vehicle_type_id":"4","last_reported":1769462039,"current_range_meters":7200,"station_id":"ce4bgop2rcd13ifvqc1g","pricing_plan_id":"cebpf4jnsgd1na2vs0mg"},{"bike_id":"f845e441-1ca1-4fde-889e-45a681c017c7","system_id":"levelo_inurba_marseille","lat":43.24548,"lon":5.39519,"is_reserved":false,"is_disabled":false,"rental_uris":{"android":"levelo://app?vid=f845e441-1ca1-4fde-889e-45a681c017c7","ios":"levelo://app?vid=f845e441-1ca1-4fde-889e-45a681c017c7"},"vehicle_type_id":"4","last_reported":1769462039,"current_range_meters":8000,"station_id":"ce4bhlp2rcd13ifvqgjg","pricing_plan_id":"cebpf4jnsgd1na2vs0mg"},{"bike_id":"cd32b736-566b-4d35-8940-26c8819f750b","system_id":"levelo_inurba_marseille","lat":43.25001,"lon":5.38907,"is_reserved":false,"is_disabled":false,"rental_uris":{"android":"levelo://app?vid=cd32b736-566b-4d35-8940-26c8819f750b","ios":"levelo://app?vid=cd32b736-566b-4d35-8940-26c8819f750b"},"vehicle_type_id":"4","last_reported":1769462039,"current_range_meters":8000,"station_id":"ce4bhgp2rcd13ifvqfd0","pricing_plan_id":"cebpf4jnsgd1na2vs0mg"},{"bike_id":"9c4736d7-a2be-4a24-a763-5e7f00e0a104","system_id":"levelo_inurba_marseille","lat":43.25112,"lon":5.40317,"is_reserved":false,"is_disabled":false,"rental_uris":{"android":"levelo://app?vid=9c4736d7-a2be-4a24-a763-5e7f00e0a104","ios":"levelo://app?vid=9c4736d7-a2be-4a24-a763-5e7f00e0a104"},"vehicle_type_id":"4","last_reported":1769462039,"current_range_meters":8000,"station_id":"ce4bhlh2rcd13ifvqgig","pricing_plan_id":"cebpf4jnsgd1na2vs0mg"},{"bike_id":"e495c2f5-f80d-4df9-82ae-75a42acd9c16","system_id":"levelo_inurba_marseille","lat":43.27992,"lon":5.40003,"is_reserved":false,"is_disabled":false,"rental_uris":{"android":"levelo://app?vid=e495c2f5-f80d-4df9-82ae-75a42acd9c16","ios":"levelo://app?vid=e495c2f5-f80d-4df9-82ae-75a42acd9c16"},"vehicle_type_id":"4","last_reported":1769462039,"current_range_meters":8000,"station_id":"ce4bho92rcd13ifvqh4g","pricing_plan_id":"cebpf4jnsgd1na2vs0mg"},{"bike_id":"539af392-7350-492a-86ff-031e626096d7","system_id":"levelo_inurba_marseille","lat":43.32372,"lon":5.36731,"is_reserved":false,"is_disabled":false,"rental_uris":{"android":"levelo://app?vid=539af392-7350-492a-86ff-031e626096d7","ios":"levelo://app?vid=539af392-7350-492a-86ff-031e626096d7"},"vehicle_type_id":"4","last_reported":1769462039,"current_range_meters":8000,"station_id":"ce4bhsh2rcd13ifvqi2g","pricing_plan_id":"cebpf4jnsgd1na2vs0mg"},{"bike_id":"12f24eb8-5c55-46d3-9dfb-18bb42c06da0","system_id":"levelo_inurba_marseille","lat":43.303394,"lon":5.40443,"is_reserved":false,"is_disabled":false,"rental_uris":{"android":"levelo://app?vid=12f24eb8-5c55-46d3-9dfb-18bb42c06da0","ios":"levelo://app?vid=12f24eb8-5c55-46d3-9dfb-18bb42c06da0"},"vehicle_type_id":"4","last_reported":1769462039,"current_range_meters":8000,"station_id":"ce4bh012rcd13ifvqd10","pricing_plan_id":"cebpf4jnsgd1na2vs0mg"},{"bike_id":"45604e1e-fc75-4a08-b963-95d5701ab030","system_id":"levelo_inurba_marseille","lat":43.29059,"lon":5.37167,"is_reserved":false,"is_disabled":false,"rental_uris":{"android":"levelo://app?vid=45604e1e-fc75-4a08-b963-95d5701ab030","ios":"levelo://app?vid=45604e1e-fc75-4a08-b963-95d5701ab030"},"vehicle_type_id":"4","last_reported":1769462039,"current_range_meters":8000,"station_id":"ce4bh5p2rcd13ifvqe4g","pricing_plan_id":"cebpf4jnsgd1na2vs0mg"},{"bike_id":"aaf68de7-a8ba-4f2c-b543-643a8694a695","system_id":"levelo_inurba_marseille","lat":43.24802,"lon":5.37446,"is_reserved":false,"is_disabled":false,"rental_uris":{"android":"levelo://app?vid=aaf68de7-a8ba-4f2c-b543-643a8694a695","ios":"levelo://app?vid=aaf68de7-a8ba-4f2c-b543-643a8694a695"},"vehicle_type_id":"4","last_reported":1769462039,"current_range_meters":8000,"station_id":"ce4bhgh2rcd13ifvqfb0","pricing_plan_id":"cebpf4jnsgd1na2vs0mg"},{"bike_id":"ddf0627f-8ae1-4070-900d-7896689996f7","system_id":"levelo_inurba_marseille","lat":43.25015,"lon":5.38934,"is_reserved":false,"is_disabled":false,"rental_uris":{"android":"levelo://app?vid=ddf0627f-8ae1-4070-900d-7896689996f7","ios":"levelo://app?vid=ddf0627f-8ae1-4070-900d-7896689996f7"},"vehicle_type_id":"4","last_reported":1769462039,"current_range_meters":8000,"station_id":"ce4bhgp2rcd13ifvqfd0","pricing_plan_id":"cebpf4jnsgd1na2vs0mg"},{"bike_id":"f90a7cba-5743-45de-a991-86993c3511a7","system_id":"levelo_inurba_marseille","lat":43.32364,"lon":5.36766,"is_reserved":false,"is_disabled":false,"rental_uris":{"android":"levelo://app?vid=f90a7cba-5743-45de-a991-86993c3511a7","ios":"levelo://app?vid=f90a7cba-5743-45de-a991-86993c3511a7"},"vehicle_type_id":"4","last_reported":1769462039,"current_range_meters":8000,"station_id":"ce4bhsh2rcd13ifvqi2g","pricing_plan_id":"cebpf4jnsgd1na2vs0mg"},{"bike_id":"0bd3fd33-ca42-4b1b-b0cd-6ec4b1ecd569","system_id":"levelo_inurba_marseille","lat":43.32603,"lon":5.37897,"is_reserved":false,"is_disabled":false,"rental_uris":{"android":"levelo://app?vid=0bd3fd33-ca42-4b1b-b0cd-6ec4b1ecd569","ios":"levelo://app?vid=0bd3fd33-ca42-4b1b-b0cd-6ec4b1ecd569"},"vehicle_type_id":"4","last_reported":1769462039,"current_range_meters":8000,"station_id":"","pricing_plan_id":"cebpf4jnsgd1na2vs0mg"},{"bike_id":"5c99255e-2f49-4613-b032-b12f2a20b34f","system_id":"levelo_inurba_marseille","lat":43.30408,"lon":5.39762,"is_reserved":false,"is_disabled":false,"rental_uris":{"android":"levelo://app?vid=5c99255e-2f49-4613-b032-b12f2a20b34f","ios":"levelo://app?vid=5c99255e-2f49-4613-b032-b12f2a20b34f"},"vehicle_type_id":"4","last_reported":1769462039,"current_range_meters":8000,"station_id":"ce4bh092rcd13ifvqd20","pricing_plan_id":"cebpf4jnsgd1na2vs0mg"},{"bike_id":"74975ee5-cc21-4f8d-8ef0-3c4b42557576","system_id":"levelo_inurba_marseille","lat":43.32107,"lon":5.36798,"is_reserved":false,"is_disabled":false,"rental_uris":{"android":"levelo://app?vid=74975ee5-cc21-4f8d-8ef0-3c4b42557576","ios":"levelo://app?vid=74975ee5-cc21-4f8d-8ef0-3c4b42557576"},"vehicle_type_id":"4","last_reported":1769462039,"current_range_meters":8000,"station_id":"ce4bhrh2rcd13ifvqhug","pricing_plan_id":"cebpf4jnsgd1na2vs0mg"},{"bike_id":"53794d06-1a16-44c3-b71c-7469affc740c","system_id":"levelo_inurba_marseille","lat":43.27904,"lon":5.39584,"is_reserved":false,"is_disabled":false,"rental_uris":{"android":"levelo://app?vid=53794d06-1a16-44c3-b71c-7469affc740c","ios":"levelo://app?vid=53794d06-1a16-44c3-b71c-7469affc740c"},"vehicle_type_id":"4","last_reported":1769462039,"current_range_meters":8000,"station_id":"ce4bhf92rcd13ifvqf40","pricing_plan_id":"cebpf4jnsgd1na2vs0mg"},{"bike_id":"8d44fa9f-abea-4043-bcef-d17417c9f4ed","system_id":"levelo_inurba_marseille","lat":43.25833,"lon":5.39413,"is_reserved":false,"is_disabled":false,"rental_uris":{"android":"levelo://app?vid=8d44fa9f-abea-4043-bcef-d17417c9f4ed","ios":"levelo://app?vid=8d44fa9f-abea-4043-bcef-d17417c9f4ed"},"vehicle_type_id":"4","last_reported":1769462039,"current_range_meters":8000,"station_id":"ce4bhip2rcd13ifvqft0","pricing_plan_id":"cebpf4jnsgd1na2vs0mg"},{"bike_id":"0cbe870f-8349-4837-ae0a-20b1625481ea","system_id":"levelo_inurba_marseille","lat":43.3132,"lon":5.39695,"is_reserved":false,"is_disabled":false,"rental_uris":{"android":"levelo://app?vid=0cbe870f-8349-4837-ae0a-20b1625481ea","ios":"levelo://app?vid=0cbe870f-8349-4837-ae0a-20b1625481ea"},"vehicle_type_id":"4","last_reported":1769462039,"current_range_meters":8000,"station_id":"ce4bgvp2rcd13ifvqcu0","pricing_plan_id":"cebpf4jnsgd1na2vs0mg"},{"bike_id":"88ffd3a2-1506-480b-abc1-f9282e869380","system_id":"levelo_inurba_marseille","lat":43.25086,"lon":5.39509,"is_reserved":false,"is_disabled":false,"rental_uris":{"android":"levelo://app?vid=88ffd3a2-1506-480b-abc1-f9282e869380","ios":"levelo://app?vid=88ffd3a2-1506-480b-abc1-f9282e869380"},"vehicle_type_id":"4","last_reported":1769462039,"current_range_meters":8000,"station_id":"ce4bhm12rcd13ifvqgkg","pricing_plan_id":"cebpf4jnsgd1na2vs0mg"},{"bike_id":"a240423c-4d7e-41a8-a549-8c46c4bdd550","system_id":"levelo_inurba_marseille","lat":43.248118,"lon":5.37454,"is_reserved":false,"is_disabled":false,"rental_uris":{"android":"levelo://app?vid=a240423c-4d7e-41a8-a549-8c46c4bdd550","ios":"levelo://app?vid=a240423c-4d7e-41a8-a549-8c46c4bdd550"},"vehicle_type_id":"4","last_reported":1769462039,"current_range_meters":8000,"station_id":"ce4bhgh2rcd13ifvqfb0","pricing_plan_id":"cebpf4jnsgd1na2vs0mg"},{"bike_id":"9ab8ecac-aeb3-4a0c-a494-377ef9a5914e","system_id":"levelo_inurba_marseille","lat":43.28403,"lon":5.35002,"is_reserved":false,"is_disabled":false,"rental_uris":{"android":"levelo://app?vid=9ab8ecac-aeb3-4a0c-a494-377ef9a5914e","ios":"levelo://app?vid=9ab8ecac-aeb3-4a0c-a494-377ef9a5914e"},"vehicle_type_id":"4","last_reported":1769462039,"current_range_meters":8000,"station_id":"ce4bhbh2rcd13ifvqepg","pricing_plan_id":"cebpf4jnsgd1na2vs0mg"},{"bike_id":"22e8e03e-d2e8-4f18-b5d4-ece44b58d5b1","system_id":"levelo_inurba_marseille","lat":43.24953,"lon":5.40486,"is_reserved":false,"is_disabled":false,"rental_uris":{"android":"levelo://app?vid=22e8e03e-d2e8-4f18-b5d4-ece44b58d5b1","ios":"levelo://app?vid=22e8e03e-d2e8-4f18-b5d4-ece44b58d5b1"},"vehicle_type_id":"4","last_reported":1769462039,"current_range_meters":8000,"station_id":"st_d2ngiaodas8pm72gd1h0","pricing_plan_id":"cebpf4jnsgd1na2vs0mg"},{"bike_id":"cdd00e40-e898-421e-b9d3-7f5546861658","system_id":"levelo_inurba_marseille","lat":43.23802,"lon":5.36603,"is_reserved":false,"is_disabled":false,"rental_uris":{"android":"levelo://app?vid=cdd00e40-e898-421e-b9d3-7f5546861658","ios":"levelo://app?vid=cdd00e40-e898-421e-b9d3-7f5546861658"},"vehicle_type_id":"4","last_reported":1769462039,"current_range_meters":8000,"station_id":"st_d3nk18o9ro0c73en2l3g","pricing_plan_id":"cebpf4jnsgd1na2vs0mg"},{"bike_id":"e5d711e4-bd13-457b-b6dd-87787f653a94","system_id":"levelo_inurba_marseille","lat":43.29506,"lon":5.394,"is_reserved":false,"is_disabled":false,"rental_uris":{"android":"levelo://app?vid=e5d711e4-bd13-457b-b6dd-87787f653a94","ios":"levelo://app?vid=e5d711e4-bd13-457b-b6dd-87787f653a94"},"vehicle_type_id":"4","last_reported":1769462039,"current_range_meters":8000,"station_id":"ce4bh292rcd13ifvqdf0","pricing_plan_id":"cebpf4jnsgd1na2vs0mg"},{"bike_id":"97d1eda0-a9af-4c4a-9c8b-3b1301d74ec8","system_id":"levelo_inurba_marseille","lat":43.22928,"lon":5.35387,"is_reserved":false,"is_disabled":false,"rental_uris":{"android":"levelo://app?vid=97d1eda0-a9af-4c4a-9c8b-3b1301d74ec8","ios":"levelo://app?vid=97d1eda0-a9af-4c4a-9c8b-3b1301d74ec8"},"vehicle_type_id":"4","last_reported":1769462039,"current_range_meters":8400,"station_id":"cpo3532slgdg3j2ikp40","pricing_plan_id":"cebpf4jnsgd1na2vs0mg"},{"bike_id":"4982447f-e072-41ab-8515-f50997651ddc","system_id":"levelo_inurba_marseille","lat":43.23052,"lon":5.35492,"is_reserved":false,"is_disabled":true,"rental_uris":{"android":"levelo://app?vid=4982447f-e072-41ab-8515-f50997651ddc","ios":"levelo://app?vid=4982447f-e072-41ab-8515-f50997651ddc"},"vehicle_type_id":"4","last_reported":1769462039,"current_range_meters":8400,"station_id":"cpo3342slgdg3j2ifvpg","pricing_plan_id":"cebpf4jnsgd1na2vs0mg"},{"bike_id":"56076317-b66a-45ba-b3b6-c261c650aa84","system_id":"levelo_inurba_marseille","lat":43.29659,"lon":5.37819,"is_reserved":false,"is_disabled":false,"rental_uris":{"android":"levelo://app?vid=56076317-b66a-45ba-b3b6-c261c650aa84","ios":"levelo://app?vid=56076317-b66a-45ba-b3b6-c261c650aa84"},"vehicle_type_id":"4","last_reported":1769462039,"current_range_meters":8400,"station_id":"","pricing_plan_id":"cebpf4jnsgd1na2vs0mg"},{"bike_id":"abe3f4a1-7241-420f-a757-2993be441687","system_id":"levelo_inurba_marseille","lat":43.28946,"lon":5.36397,"is_reserved":false,"is_disabled":false,"rental_uris":{"android":"levelo://app?vid=abe3f4a1-7241-420f-a757-2993be441687","ios":"levelo://app?vid=abe3f4a1-7241-420f-a757-2993be441687"},"vehicle_type_id":"4","last_reported":1769462039,"current_range_meters":8400,"station_id":"ce4bhc92rcd13ifvqetg","pricing_plan_id":"cebpf4jnsgd1na2vs0mg"},{"bike_id":"4f438dad-01fc-4a34-afef-9521fac04b4f","system_id":"levelo_inurba_marseille","lat":43.3237,"lon":5.36763,"is_reserved":false,"is_disabled":false,"rental_uris":{"android":"levelo://app?vid=4f438dad-01fc-4a34-afef-9521fac04b4f","ios":"levelo://app?vid=4f438dad-01fc-4a34-afef-9521fac04b4f"},"vehicle_type_id":"4","last_reported":1769462039,"current_range_meters":8400,"station_id":"ce4bhsh2rcd13ifvqi2g","pricing_plan_id":"cebpf4jnsgd1na2vs0mg"},{"bike_id":"928b9507-9a9f-441b-8125-1e5a101d07d1","system_id":"levelo_inurba_marseille","lat":43.30143,"lon":5.37415,"is_reserved":false,"is_disabled":false,"rental_uris":{"android":"levelo://app?vid=928b9507-9a9f-441b-8125-1e5a101d07d1","ios":"levelo://app?vid=928b9507-9a9f-441b-8125-1e5a101d07d1"},"vehicle_type_id":"4","last_reported":1769462039,"current_range_meters":8400,"station_id":"ce4bgs92rcd13ifvqcc0","pricing_plan_id":"cebpf4jnsgd1na2vs0mg"},{"bike_id":"628d1d29-948b-4815-bc3f-a0ef2ac1c781","system_id":"levelo_inurba_marseille","lat":43.24156,"lon":5.36406,"is_reserved":false,"is_disabled":false,"rental_uris":{"android":"levelo://app?vid=628d1d29-948b-4815-bc3f-a0ef2ac1c781","ios":"levelo://app?vid=628d1d29-948b-4815-bc3f-a0ef2ac1c781"},"vehicle_type_id":"4","last_reported":1769462039,"current_range_meters":8400,"station_id":"cpo36qri1sfpv3e86is0","pricing_plan_id":"cebpf4jnsgd1na2vs0mg"},{"bike_id":"8dc1c371-7a8b-4d40-96de-5f21b3f68e5e","system_id":"levelo_inurba_marseille","lat":43.29905,"lon":5.37487,"is_reserved":false,"is_disabled":false,"rental_uris":{"android":"levelo://app?vid=8dc1c371-7a8b-4d40-96de-5f21b3f68e5e","ios":"levelo://app?vid=8dc1c371-7a8b-4d40-96de-5f21b3f68e5e"},"vehicle_type_id":"4","last_reported":1769462039,"current_range_meters":8400,"station_id":"ce4bgjh2rcd13ifvqbg0","pricing_plan_id":"cebpf4jnsgd1na2vs0mg"},{"bike_id":"15ffb544-9cf9-4c83-98f5-22f43ecc1d4c","system_id":"levelo_inurba_marseille","lat":43.30812,"lon":5.40462,"is_reserved":false,"is_disabled":false,"rental_uris":{"android":"levelo://app?vid=15ffb544-9cf9-4c83-98f5-22f43ecc1d4c","ios":"levelo://app?vid=15ffb544-9cf9-4c83-98f5-22f43ecc1d4c"},"vehicle_type_id":"4","last_reported":1769462039,"current_range_meters":8400,"station_id":"","pricing_plan_id":"cebpf4jnsgd1na2vs0mg"},{"bike_id":"a75b5e2d-4bc7-45d9-aa21-a914f9f2e7f2","system_id":"levelo_inurba_marseille","lat":43.288509,"lon":5.358484,"is_reserved":false,"is_disabled":false,"rental_uris":{"android":"levelo://app?vid=a75b5e2d-4bc7-45d9-aa21-a914f9f2e7f2","ios":"levelo://app?vid=a75b5e2d-4bc7-45d9-aa21-a914f9f2e7f2"},"vehicle_type_id":"4","last_reported":1769462039,"current_range_meters":8400,"station_id":"ce4bhb12rcd13ifvqem0","pricing_plan_id":"cebpf4jnsgd1na2vs0mg"},{"bike_id":"8494d4e2-9c5d-4cb9-ac63-0bb88bff4a7d","system_id":"levelo_inurba_marseille","lat":43.29868,"lon":5.39743,"is_reserved":false,"is_disabled":false,"rental_uris":{"android":"levelo://app?vid=8494d4e2-9c5d-4cb9-ac63-0bb88bff4a7d","ios":"levelo://app?vid=8494d4e2-9c5d-4cb9-ac63-0bb88bff4a7d"},"vehicle_type_id":"4","last_reported":1769462039,"current_range_meters":8400,"station_id":"ce4bh0h2rcd13ifvqd50","pricing_plan_id":"cebpf4jnsgd1na2vs0mg"},{"bike_id":"1e6ae573-7b0d-4ca7-8d21-23950df7df4a","system_id":"levelo_inurba_marseille","lat":43.28552,"lon":5.44108,"is_reserved":false,"is_disabled":false,"rental_uris":{"android":"levelo://app?vid=1e6ae573-7b0d-4ca7-8d21-23950df7df4a","ios":"levelo://app?vid=1e6ae573-7b0d-4ca7-8d21-23950df7df4a"},"vehicle_type_id":"4","last_reported":1769462039,"current_range_meters":8400,"station_id":"st_d3j3df2ikq2c7380ej80","pricing_plan_id":"cebpf4jnsgd1na2vs0mg"},{"bike_id":"4e7998cc-623f-4738-8139-b97df6c53947","system_id":"levelo_inurba_marseille","lat":43.28406,"lon":5.37506,"is_reserved":false,"is_disabled":false,"rental_uris":{"android":"levelo://app?vid=4e7998cc-623f-4738-8139-b97df6c53947","ios":"levelo://app?vid=4e7998cc-623f-4738-8139-b97df6c53947"},"vehicle_type_id":"4","last_reported":1769462039,"current_range_meters":8400,"station_id":"ce4bh412rcd13ifvqds0","pricing_plan_id":"cebpf4jnsgd1na2vs0mg"},{"bike_id":"fbbfdfb0-2a68-42b1-8e98-f01f0f60526d","system_id":"levelo_inurba_marseille","lat":43.28082,"lon":5.39648,"is_reserved":false,"is_disabled":false,"rental_uris":{"android":"levelo://app?vid=fbbfdfb0-2a68-42b1-8e98-f01f0f60526d","ios":"levelo://app?vid=fbbfdfb0-2a68-42b1-8e98-f01f0f60526d"},"vehicle_type_id":"4","last_reported":1769462039,"current_range_meters":8400,"station_id":"ce4bho12rcd13ifvqh2g","pricing_plan_id":"cebpf4jnsgd1na2vs0mg"},{"bike_id":"376d69a1-6c6a-4847-9e8d-b0a51343ba06","system_id":"levelo_inurba_marseille","lat":43.29628,"lon":5.37952,"is_reserved":false,"is_disabled":false,"rental_uris":{"android":"levelo://app?vid=376d69a1-6c6a-4847-9e8d-b0a51343ba06","ios":"levelo://app?vid=376d69a1-6c6a-4847-9e8d-b0a51343ba06"},"vehicle_type_id":"4","last_reported":1769462039,"current_range_meters":8400,"station_id":"","pricing_plan_id":"cebpf4jnsgd1na2vs0mg"},{"bike_id":"2abdbc45-a66e-4faf-971c-b57d8f806d8d","system_id":"levelo_inurba_marseille","lat":43.284905,"lon":5.483978,"is_reserved":false,"is_disabled":false,"rental_uris":{"android":"levelo://app?vid=2abdbc45-a66e-4faf-971c-b57d8f806d8d","ios":"levelo://app?vid=2abdbc45-a66e-4faf-971c-b57d8f806d8d"},"vehicle_type_id":"4","last_reported":1769462039,"current_range_meters":8400,"station_id":"st_d3svhcjqgbts73a3dn0g","pricing_plan_id":"cebpf4jnsgd1na2vs0mg"},{"bike_id":"fb8934f6-9dab-439c-acce-05fcdc10c589","system_id":"levelo_inurba_marseille","lat":43.249456,"lon":5.404928,"is_reserved":false,"is_disabled":false,"rental_uris":{"android":"levelo://app?vid=fb8934f6-9dab-439c-acce-05fcdc10c589","ios":"levelo://app?vid=fb8934f6-9dab-439c-acce-05fcdc10c589"},"vehicle_type_id":"4","last_reported":1769462039,"current_range_meters":8400,"station_id":"st_d2ngiaodas8pm72gd1h0","pricing_plan_id":"cebpf4jnsgd1na2vs0mg"},{"bike_id":"36ca7a34-5729-421e-882e-68cf59edfc5e","system_id":"levelo_inurba_marseille","lat":43.30653,"lon":5.401,"is_reserved":false,"is_disabled":false,"rental_uris":{"android":"levelo://app?vid=36ca7a34-5729-421e-882e-68cf59edfc5e","ios":"levelo://app?vid=36ca7a34-5729-421e-882e-68cf59edfc5e"},"vehicle_type_id":"4","last_reported":1769462039,"current_range_meters":8400,"station_id":"ce4bh112rcd13ifvqda0","pricing_plan_id":"cebpf4jnsgd1na2vs0mg"},{"bike_id":"ea522609-0ed7-4984-8790-8a7ed4d9009b","system_id":"levelo_inurba_marseille","lat":43.22564,"lon":5.41637,"is_reserved":false,"is_disabled":false,"rental_uris":{"android":"levelo://app?vid=ea522609-0ed7-4984-8790-8a7ed4d9009b","ios":"levelo://app?vid=ea522609-0ed7-4984-8790-8a7ed4d9009b"},"vehicle_type_id":"4","last_reported":1769462039,"current_range_meters":8800,"station_id":"st_d2o4gvlbi1j2169b742g","pricing_plan_id":"cebpf4jnsgd1na2vs0mg"},{"bike_id":"a29a518b-38fa-475d-86f7-4bae9519ad44","system_id":"levelo_inurba_marseille","lat":43.29573,"lon":5.39974,"is_reserved":false,"is_disabled":false,"rental_uris":{"android":"levelo://app?vid=a29a518b-38fa-475d-86f7-4bae9519ad44","ios":"levelo://app?vid=a29a518b-38fa-475d-86f7-4bae9519ad44"},"vehicle_type_id":"4","last_reported":1769462039,"current_range_meters":8800,"station_id":"ce4bh312rcd13ifvqdj0","pricing_plan_id":"cebpf4jnsgd1na2vs0mg"},{"bike_id":"b778e9ae-9e5d-422f-9aa0-c2aebe5892bf","system_id":"levelo_inurba_marseille","lat":43.32336,"lon":5.36684,"is_reserved":false,"is_disabled":false,"rental_uris":{"android":"levelo://app?vid=b778e9ae-9e5d-422f-9aa0-c2aebe5892bf","ios":"levelo://app?vid=b778e9ae-9e5d-422f-9aa0-c2aebe5892bf"},"vehicle_type_id":"4","last_reported":1769462039,"current_range_meters":8800,"station_id":"","pricing_plan_id":"cebpf4jnsgd1na2vs0mg"},{"bike_id":"e1b65952-cf23-4d4c-bb61-476f12fae8d2","system_id":"levelo_inurba_marseille","lat":43.23184,"lon":5.35564,"is_reserved":false,"is_disabled":false,"rental_uris":{"android":"levelo://app?vid=e1b65952-cf23-4d4c-bb61-476f12fae8d2","ios":"levelo://app?vid=e1b65952-cf23-4d4c-bb61-476f12fae8d2"},"vehicle_type_id":"4","last_reported":1769462039,"current_range_meters":8800,"station_id":"ce4bhu92rcd13ifvqi70","pricing_plan_id":"cebpf4jnsgd1na2vs0mg"},{"bike_id":"fd72f9ae-206c-4312-bc08-7921ba3261a6","system_id":"levelo_inurba_marseille","lat":43.29669,"lon":5.39438,"is_reserved":false,"is_disabled":false,"rental_uris":{"android":"levelo://app?vid=fd72f9ae-206c-4312-bc08-7921ba3261a6","ios":"levelo://app?vid=fd72f9ae-206c-4312-bc08-7921ba3261a6"},"vehicle_type_id":"4","last_reported":1769462039,"current_range_meters":8800,"station_id":"","pricing_plan_id":"cebpf4jnsgd1na2vs0mg"},{"bike_id":"4df45a23-8322-48c7-91ed-b9f0dfff1365","system_id":"levelo_inurba_marseille","lat":43.31322,"lon":5.39689,"is_reserved":false,"is_disabled":false,"rental_uris":{"android":"levelo://app?vid=4df45a23-8322-48c7-91ed-b9f0dfff1365","ios":"levelo://app?vid=4df45a23-8322-48c7-91ed-b9f0dfff1365"},"vehicle_type_id":"4","last_reported":1769462039,"current_range_meters":8800,"station_id":"ce4bgvp2rcd13ifvqcu0","pricing_plan_id":"cebpf4jnsgd1na2vs0mg"},{"bike_id":"39c45b00-edbc-4039-9410-db409ff71c29","system_id":"levelo_inurba_marseille","lat":43.304715,"lon":5.372635,"is_reserved":false,"is_disabled":false,"rental_uris":{"android":"levelo://app?vid=39c45b00-edbc-4039-9410-db409ff71c29","ios":"levelo://app?vid=39c45b00-edbc-4039-9410-db409ff71c29"},"vehicle_type_id":"4","last_reported":1769462039,"current_range_meters":8800,"station_id":"","pricing_plan_id":"cebpf4jnsgd1na2vs0mg"},{"bike_id":"a508bc75-015e-4809-b279-6da3061a536a","system_id":"levelo_inurba_marseille","lat":43.29274,"lon":5.38435,"is_reserved":false,"is_disabled":false,"rental_uris":{"android":"levelo://app?vid=a508bc75-015e-4809-b279-6da3061a536a","ios":"levelo://app?vid=a508bc75-015e-4809-b279-6da3061a536a"},"vehicle_type_id":"4","last_reported":1769462039,"current_range_meters":8800,"station_id":"ce4bh692rcd13ifvqea0","pricing_plan_id":"cebpf4jnsgd1na2vs0mg"},{"bike_id":"77303589-c1d8-4b2a-831f-ef70821c780d","system_id":"levelo_inurba_marseille","lat":43.2852,"lon":5.44139,"is_reserved":false,"is_disabled":false,"rental_uris":{"android":"levelo://app?vid=77303589-c1d8-4b2a-831f-ef70821c780d","ios":"levelo://app?vid=77303589-c1d8-4b2a-831f-ef70821c780d"},"vehicle_type_id":"4","last_reported":1769462039,"current_range_meters":8800,"station_id":"st_d3j3df2ikq2c7380ej80","pricing_plan_id":"cebpf4jnsgd1na2vs0mg"},{"bike_id":"28069015-53fc-49fd-837a-ba6722dae4b5","system_id":"levelo_inurba_marseille","lat":43.27955,"lon":5.386466,"is_reserved":false,"is_disabled":false,"rental_uris":{"android":"levelo://app?vid=28069015-53fc-49fd-837a-ba6722dae4b5","ios":"levelo://app?vid=28069015-53fc-49fd-837a-ba6722dae4b5"},"vehicle_type_id":"4","last_reported":1769462039,"current_range_meters":8800,"station_id":"ce4bhg12rcd13ifvqf80","pricing_plan_id":"cebpf4jnsgd1na2vs0mg"},{"bike_id":"c8bb2a08-170b-4c3f-9a7c-8d580e9bd3cc","system_id":"levelo_inurba_marseille","lat":43.24492,"lon":5.4253,"is_reserved":false,"is_disabled":false,"rental_uris":{"android":"levelo://app?vid=c8bb2a08-170b-4c3f-9a7c-8d580e9bd3cc","ios":"levelo://app?vid=c8bb2a08-170b-4c3f-9a7c-8d580e9bd3cc"},"vehicle_type_id":"4","last_reported":1769462039,"current_range_meters":8800,"station_id":"st_d4a3vfp97mjs738cd8kg","pricing_plan_id":"cebpf4jnsgd1na2vs0mg"},{"bike_id":"04ddf445-c90e-4eb2-b7e0-2646a674cd14","system_id":"levelo_inurba_marseille","lat":43.24812,"lon":5.37455,"is_reserved":false,"is_disabled":false,"rental_uris":{"android":"levelo://app?vid=04ddf445-c90e-4eb2-b7e0-2646a674cd14","ios":"levelo://app?vid=04ddf445-c90e-4eb2-b7e0-2646a674cd14"},"vehicle_type_id":"4","last_reported":1769462039,"current_range_meters":8800,"station_id":"ce4bhgh2rcd13ifvqfb0","pricing_plan_id":"cebpf4jnsgd1na2vs0mg"},{"bike_id":"f6c56634-6661-48df-926a-3053aaf49fdf","system_id":"levelo_inurba_marseille","lat":43.28676,"lon":5.36371,"is_reserved":false,"is_disabled":false,"rental_uris":{"android":"levelo://app?vid=f6c56634-6661-48df-926a-3053aaf49fdf","ios":"levelo://app?vid=f6c56634-6661-48df-926a-3053aaf49fdf"},"vehicle_type_id":"4","last_reported":1769462039,"current_range_meters":8800,"station_id":"ce4bhah2rcd13ifvqej0","pricing_plan_id":"cebpf4jnsgd1na2vs0mg"},{"bike_id":"8631421d-21a9-439a-82c3-3764ee3e564c","system_id":"levelo_inurba_marseille","lat":43.27193,"lon":5.40984,"is_reserved":false,"is_disabled":false,"rental_uris":{"android":"levelo://app?vid=8631421d-21a9-439a-82c3-3764ee3e564c","ios":"levelo://app?vid=8631421d-21a9-439a-82c3-3764ee3e564c"},"vehicle_type_id":"4","last_reported":1769462039,"current_range_meters":8800,"station_id":"ce4bhl12rcd13ifvqgf0","pricing_plan_id":"cebpf4jnsgd1na2vs0mg"},{"bike_id":"6ac30028-ac43-4deb-9894-9340571b9e81","system_id":"levelo_inurba_marseille","lat":43.28085,"lon":5.39707,"is_reserved":false,"is_disabled":false,"rental_uris":{"android":"levelo://app?vid=6ac30028-ac43-4deb-9894-9340571b9e81","ios":"levelo://app?vid=6ac30028-ac43-4deb-9894-9340571b9e81"},"vehicle_type_id":"4","last_reported":1769462039,"current_range_meters":8800,"station_id":"ce4bho12rcd13ifvqh2g","pricing_plan_id":"cebpf4jnsgd1na2vs0mg"},{"bike_id":"9e60ed0e-251a-4867-be0d-81099b8503ef","system_id":"levelo_inurba_marseille","lat":43.27922,"lon":5.39574,"is_reserved":false,"is_disabled":false,"rental_uris":{"android":"levelo://app?vid=9e60ed0e-251a-4867-be0d-81099b8503ef","ios":"levelo://app?vid=9e60ed0e-251a-4867-be0d-81099b8503ef"},"vehicle_type_id":"4","last_reported":1769462039,"current_range_meters":8800,"station_id":"ce4bhf92rcd13ifvqf40","pricing_plan_id":"cebpf4jnsgd1na2vs0mg"},{"bike_id":"c3616682-88ec-472f-b28b-1fbb837fa9d1","system_id":"levelo_inurba_marseille","lat":43.24153,"lon":5.36411,"is_reserved":false,"is_disabled":false,"rental_uris":{"android":"levelo://app?vid=c3616682-88ec-472f-b28b-1fbb837fa9d1","ios":"levelo://app?vid=c3616682-88ec-472f-b28b-1fbb837fa9d1"},"vehicle_type_id":"4","last_reported":1769462039,"current_range_meters":8800,"station_id":"cpo36qri1sfpv3e86is0","pricing_plan_id":"cebpf4jnsgd1na2vs0mg"},{"bike_id":"97d9c0be-7863-4ee9-9664-219df15d50b8","system_id":"levelo_inurba_marseille","lat":43.27763,"lon":5.38369,"is_reserved":false,"is_disabled":false,"rental_uris":{"android":"levelo://app?vid=97d9c0be-7863-4ee9-9664-219df15d50b8","ios":"levelo://app?vid=97d9c0be-7863-4ee9-9664-219df15d50b8"},"vehicle_type_id":"4","last_reported":1769462039,"current_range_meters":8800,"station_id":"","pricing_plan_id":"cebpf4jnsgd1na2vs0mg"},{"bike_id":"71e4063f-a131-40b9-b906-a778662b6ea8","system_id":"levelo_inurba_marseille","lat":43.239579,"lon":5.366436,"is_reserved":false,"is_disabled":false,"rental_uris":{"android":"levelo://app?vid=71e4063f-a131-40b9-b906-a778662b6ea8","ios":"levelo://app?vid=71e4063f-a131-40b9-b906-a778662b6ea8"},"vehicle_type_id":"4","last_reported":1769462039,"current_range_meters":8800,"station_id":"ce4bhi12rcd13ifvqfp0","pricing_plan_id":"cebpf4jnsgd1na2vs0mg"},{"bike_id":"34490c13-8bcf-415c-b9e5-3eb81df8b667","system_id":"levelo_inurba_marseille","lat":43.26552,"lon":5.37297,"is_reserved":false,"is_disabled":false,"rental_uris":{"android":"levelo://app?vid=34490c13-8bcf-415c-b9e5-3eb81df8b667","ios":"levelo://app?vid=34490c13-8bcf-415c-b9e5-3eb81df8b667"},"vehicle_type_id":"4","last_reported":1769462039,"current_range_meters":8800,"station_id":"ce4bhg12rcd13ifvqf70","pricing_plan_id":"cebpf4jnsgd1na2vs0mg"},{"bike_id":"ef2d9e29-a0d7-414b-95da-a7f8bfed90fb","system_id":"levelo_inurba_marseille","lat":43.33038,"lon":5.39147,"is_reserved":false,"is_disabled":false,"rental_uris":{"android":"levelo://app?vid=ef2d9e29-a0d7-414b-95da-a7f8bfed90fb","ios":"levelo://app?vid=ef2d9e29-a0d7-414b-95da-a7f8bfed90fb"},"vehicle_type_id":"4","last_reported":1769462039,"current_range_meters":9200,"station_id":"","pricing_plan_id":"cebpf4jnsgd1na2vs0mg"},{"bike_id":"ebf94705-971d-438e-a953-f7c4d4ddfd43","system_id":"levelo_inurba_marseille","lat":43.28407,"lon":5.37512,"is_reserved":false,"is_disabled":false,"rental_uris":{"android":"levelo://app?vid=ebf94705-971d-438e-a953-f7c4d4ddfd43","ios":"levelo://app?vid=ebf94705-971d-438e-a953-f7c4d4ddfd43"},"vehicle_type_id":"4","last_reported":1769462039,"current_range_meters":9200,"station_id":"ce4bh412rcd13ifvqds0","pricing_plan_id":"cebpf4jnsgd1na2vs0mg"},{"bike_id":"bed981e9-239a-4c8e-b1c1-b226709af449","system_id":"levelo_inurba_marseille","lat":43.26543,"lon":5.37324,"is_reserved":false,"is_disabled":false,"rental_uris":{"android":"levelo://app?vid=bed981e9-239a-4c8e-b1c1-b226709af449","ios":"levelo://app?vid=bed981e9-239a-4c8e-b1c1-b226709af449"},"vehicle_type_id":"4","last_reported":1769462039,"current_range_meters":9200,"station_id":"ce4bhg12rcd13ifvqf70","pricing_plan_id":"cebpf4jnsgd1na2vs0mg"},{"bike_id":"6d7d240c-931b-44e2-8c6f-8d9d1583fc30","system_id":"levelo_inurba_marseille","lat":43.316928,"lon":5.404782,"is_reserved":false,"is_disabled":false,"rental_uris":{"android":"levelo://app?vid=6d7d240c-931b-44e2-8c6f-8d9d1583fc30","ios":"levelo://app?vid=6d7d240c-931b-44e2-8c6f-8d9d1583fc30"},"vehicle_type_id":"4","last_reported":1769462039,"current_range_meters":9200,"station_id":"ce4bh012rcd13ifvqd00","pricing_plan_id":"cebpf4jnsgd1na2vs0mg"},{"bike_id":"054e163b-1e47-4a0a-a038-a7939885860e","system_id":"levelo_inurba_marseille","lat":43.32363,"lon":5.36763,"is_reserved":false,"is_disabled":false,"rental_uris":{"android":"levelo://app?vid=054e163b-1e47-4a0a-a038-a7939885860e","ios":"levelo://app?vid=054e163b-1e47-4a0a-a038-a7939885860e"},"vehicle_type_id":"4","last_reported":1769462039,"current_range_meters":9200,"station_id":"ce4bhsh2rcd13ifvqi2g","pricing_plan_id":"cebpf4jnsgd1na2vs0mg"},{"bike_id":"ccb8f850-15c8-4a47-a07e-b172230b2bf2","system_id":"levelo_inurba_marseille","lat":43.24485,"lon":5.42531,"is_reserved":false,"is_disabled":false,"rental_uris":{"android":"levelo://app?vid=ccb8f850-15c8-4a47-a07e-b172230b2bf2","ios":"levelo://app?vid=ccb8f850-15c8-4a47-a07e-b172230b2bf2"},"vehicle_type_id":"4","last_reported":1769462039,"current_range_meters":9200,"station_id":"st_d4a3vfp97mjs738cd8kg","pricing_plan_id":"cebpf4jnsgd1na2vs0mg"},{"bike_id":"1a56152d-f93b-4ba8-94fe-9709967df90d","system_id":"levelo_inurba_marseille","lat":43.23962,"lon":5.36625,"is_reserved":false,"is_disabled":false,"rental_uris":{"android":"levelo://app?vid=1a56152d-f93b-4ba8-94fe-9709967df90d","ios":"levelo://app?vid=1a56152d-f93b-4ba8-94fe-9709967df90d"},"vehicle_type_id":"4","last_reported":1769462039,"current_range_meters":9200,"station_id":"ce4bhi12rcd13ifvqfp0","pricing_plan_id":"cebpf4jnsgd1na2vs0mg"},{"bike_id":"9b2364e2-c595-4437-8139-867053cd7191","system_id":"levelo_inurba_marseille","lat":43.24804,"lon":5.37457,"is_reserved":false,"is_disabled":false,"rental_uris":{"android":"levelo://app?vid=9b2364e2-c595-4437-8139-867053cd7191","ios":"levelo://app?vid=9b2364e2-c595-4437-8139-867053cd7191"},"vehicle_type_id":"4","last_reported":1769462039,"current_range_meters":9200,"station_id":"ce4bhgh2rcd13ifvqfb0","pricing_plan_id":"cebpf4jnsgd1na2vs0mg"},{"bike_id":"73fc0ed2-33b8-469f-9d74-8809de49ae7e","system_id":"levelo_inurba_marseille","lat":43.26056,"lon":5.39391,"is_reserved":false,"is_disabled":false,"rental_uris":{"android":"levelo://app?vid=73fc0ed2-33b8-469f-9d74-8809de49ae7e","ios":"levelo://app?vid=73fc0ed2-33b8-469f-9d74-8809de49ae7e"},"vehicle_type_id":"4","last_reported":1769462039,"current_range_meters":9200,"station_id":"ce4bhh92rcd13ifvqfj0","pricing_plan_id":"cebpf4jnsgd1na2vs0mg"},