{"last_updated":1776888209,"ttl":60,"version":"2.2","data":{"bikes":[{"bike_id":"afe6c9ff-8c7f-40d2-96bc-86354113b443","system_id":"levelo_inurba_marseille","lat":43.2849,"lon":5.4848,"is_reserved":false,"is_disabled":false,"rental_uris":{"android":"levelo://app?vid=afe6c9ff-8c7f-40d2-96bc-86354113b443","ios":"levelo://app?vid=afe6c9ff-8c7f-40d2-96bc-86354113b443"},"vehicle_type_id":"4","last_reported":1776888210,"current_range_meters":2800,"station_id":"st_d3svhcjqgbts73a3dn0g","pricing_plan_id":"cebpf4jnsgd1na2vs0mg"},{"bike_id":"3c89d143-3bfb-4753-a182-535ee5f95997","system_id":"levelo_inurba_marseille","lat":43.23189,"lon":5.40001,"is_reserved":false,"is_disabled":true,"rental_uris":{"android":"levelo://app?vid=3c89d143-3bfb-4753-a182-535ee5f95997","ios":"levelo://app?vid=3c89d143-3bfb-4753-a182-535ee5f95997"},"vehicle_type_id":"4","last_reported":1776888210,"current_range_meters":2800,"station_id":"ce4bhn12rcd13ifvqgqg","pricing_plan_id":"cebpf4jnsgd1na2vs0mg"},{"bike_id":"825aa177-f719-4c6c-9795-8c35d01212e0","system_id":"levelo_inurba_marseille","lat":43.2909,"lon":5.38149,"is_reserved":false,"is_disabled":false,"rental_uris":{"android":"levelo://app?vid=825aa177-f719-4c6c-9795-8c35d01212e0","ios":"levelo://app?vid=825aa177-f719-4c6c-9795-8c35d01212e0"},"vehicle_type_id":"4","last_reported":1776888210,"current_range_meters":2800,"station_id":"ce4bh512rcd13ifvqe2g","pricing_plan_id":"cebpf4jnsgd1na2vs0mg"},{"bike_id":"205a7e4b-4837-4ebb-be79-26220f0c5601","system_id":"levelo_inurba_marseille","lat":43.23385,"lon":5.41254,"is_reserved":false,"is_disabled":false,"rental_uris":{"android":"levelo://app?vid=205a7e4b-4837-4ebb-be79-26220f0c5601","ios":"levelo://app?vid=205a7e4b-4837-4ebb-be79-26220f0c5601"},"vehicle_type_id":"4","last_reported":1776888210,"current_range_meters":2800,"station_id":"st_d75pvndhf9lc73cqq3eg","pricing_plan_id":"cebpf4jnsgd1na2vs0mg"},{"bike_id":"30cfa579-6713-4ed7-b4f0-02b7ba344c3f","system_id":"levelo_inurba_marseille","lat":43.2846,"lon":5.35885,"is_reserved":false,"is_disabled":false,"rental_uris":{"android":"levelo://app?vid=30cfa579-6713-4ed7-b4f0-02b7ba344c3f","ios":"levelo://app?vid=30cfa579-6713-4ed7-b4f0-02b7ba344c3f"},"vehicle_type_id":"4","last_reported":1776888210,"current_range_meters":2800,"station_id":"ce4bhah2rcd13ifvqei0","pricing_plan_id":"cebpf4jnsgd1na2vs0mg"},{"bike_id":"53398df8-835b-4ed2-bf08-039bd71fda25","system_id":"levelo_inurba_marseille","lat":43.25928,"lon":5.38592,"is_reserved":false,"is_disabled":false,"rental_uris":{"android":"levelo://app?vid=53398df8-835b-4ed2-bf08-039bd71fda25","ios":"levelo://app?vid=53398df8-835b-4ed2-bf08-039bd71fda25"},"vehicle_type_id":"4","last_reported":1776888210,"current_range_meters":3200,"station_id":"","pricing_plan_id":"cebpf4jnsgd1na2vs0mg"},{"bike_id":"2d40a836-133e-4df4-8e94-64278280c4e2","system_id":"levelo_inurba_marseille","lat":43.28476,"lon":5.48408,"is_reserved":false,"is_disabled":false,"rental_uris":{"android":"levelo://app?vid=2d40a836-133e-4df4-8e94-64278280c4e2","ios":"levelo://app?vid=2d40a836-133e-4df4-8e94-64278280c4e2"},"vehicle_type_id":"4","last_reported":1776888210,"current_range_meters":3200,"station_id":"","pricing_plan_id":"cebpf4jnsgd1na2vs0mg"},{"bike_id":"40ef221a-67e9-40d8-9c7c-f1457962d25b","system_id":"levelo_inurba_marseille","lat":43.2512,"lon":5.40314,"is_reserved":false,"is_disabled":false,"rental_uris":{"android":"levelo://app?vid=40ef221a-67e9-40d8-9c7c-f1457962d25b","ios":"levelo://app?vid=40ef221a-67e9-40d8-9c7c-f1457962d25b"},"vehicle_type_id":"4","last_reported":1776888210,"current_range_meters":3200,"station_id":"ce4bhlh2rcd13ifvqgig","pricing_plan_id":"cebpf4jnsgd1na2vs0mg"},{"bike_id":"fb1854d3-4c0d-4cf6-900c-01f60c5ec09f","system_id":"levelo_inurba_marseille","lat":43.29764,"lon":5.42778,"is_reserved":false,"is_disabled":false,"rental_uris":{"android":"levelo://app?vid=fb1854d3-4c0d-4cf6-900c-01f60c5ec09f","ios":"levelo://app?vid=fb1854d3-4c0d-4cf6-900c-01f60c5ec09f"},"vehicle_type_id":"4","last_reported":1776888210,"current_range_meters":3600,"station_id":"st_d3md5207bmas73dh9klg","pricing_plan_id":"cebpf4jnsgd1na2vs0mg"},{"bike_id":"1327f68a-39d3-4c4a-a6ac-9fb12ab8c19a","system_id":"levelo_inurba_marseille","lat":43.31758,"lon":5.39018,"is_reserved":false,"is_disabled":false,"rental_uris":{"android":"levelo://app?vid=1327f68a-39d3-4c4a-a6ac-9fb12ab8c19a","ios":"levelo://app?vid=1327f68a-39d3-4c4a-a6ac-9fb12ab8c19a"},"vehicle_type_id":"4","last_reported":1776888210,"current_range_meters":3600,"station_id":"ce4bhqp2rcd13ifvqhng","pricing_plan_id":"cebpf4jnsgd1na2vs0mg"},{"bike_id":"b8ecd6af-cc0a-4926-b9cc-37652d45b66d","system_id":"levelo_inurba_marseille","lat":43.26364,"lon":5.41055,"is_reserved":false,"is_disabled":false,"rental_uris":{"android":"levelo://app?vid=b8ecd6af-cc0a-4926-b9cc-37652d45b66d","ios":"levelo://app?vid=b8ecd6af-cc0a-4926-b9cc-37652d45b66d"},"vehicle_type_id":"4","last_reported":1776888210,"current_range_meters":3600,"station_id":"st_d4e5ca6na9uc73bfl5fg","pricing_plan_id":"cebpf4jnsgd1na2vs0mg"},{"bike_id":"909929ad-6150-4e90-9010-fc5021f6e58c","system_id":"levelo_inurba_marseille","lat":43.27223,"lon":5.40094,"is_reserved":false,"is_disabled":false,"rental_uris":{"android":"levelo://app?vid=909929ad-6150-4e90-9010-fc5021f6e58c","ios":"levelo://app?vid=909929ad-6150-4e90-9010-fc5021f6e58c"},"vehicle_type_id":"4","last_reported":1776888210,"current_range_meters":4000,"station_id":"","pricing_plan_id":"cebpf4jnsgd1na2vs0mg"},{"bike_id":"b913c996-50b1-4ff5-9c12-2c611f1d92ea","system_id":"levelo_inurba_marseille","lat":43.30432,"lon":5.39748,"is_reserved":false,"is_disabled":false,"rental_uris":{"android":"levelo://app?vid=b913c996-50b1-4ff5-9c12-2c611f1d92ea","ios":"levelo://app?vid=b913c996-50b1-4ff5-9c12-2c611f1d92ea"},"vehicle_type_id":"4","last_reported":1776888210,"current_range_meters":4000,"station_id":"ce4bh092rcd13ifvqd20","pricing_plan_id":"cebpf4jnsgd1na2vs0mg"},{"bike_id":"8b306467-54e9-4828-8baa-14b14213374c","system_id":"levelo_inurba_marseille","lat":43.33601,"lon":5.41027,"is_reserved":false,"is_disabled":false,"rental_uris":{"android":"levelo://app?vid=8b306467-54e9-4828-8baa-14b14213374c","ios":"levelo://app?vid=8b306467-54e9-4828-8baa-14b14213374c"},"vehicle_type_id":"4","last_reported":1776888210,"current_range_meters":4000,"station_id":"ce4bhqh2rcd13ifvqhmg","pricing_plan_id":"cebpf4jnsgd1na2vs0mg"},{"bike_id":"c77bfbf1-f9c9-450d-b256-9c22a010e69f","system_id":"levelo_inurba_marseille","lat":43.28851,"lon":5.3931,"is_reserved":false,"is_disabled":false,"rental_uris":{"android":"levelo://app?vid=c77bfbf1-f9c9-450d-b256-9c22a010e69f","ios":"levelo://app?vid=c77bfbf1-f9c9-450d-b256-9c22a010e69f"},"vehicle_type_id":"4","last_reported":1776888210,"current_range_meters":4000,"station_id":"ce4bh2p2rcd13ifvqdi0","pricing_plan_id":"cebpf4jnsgd1na2vs0mg"},{"bike_id":"0364bba6-ae2f-4903-afe5-44eb14521b92","system_id":"levelo_inurba_marseille","lat":43.2757,"lon":5.38426,"is_reserved":false,"is_disabled":false,"rental_uris":{"android":"levelo://app?vid=0364bba6-ae2f-4903-afe5-44eb14521b92","ios":"levelo://app?vid=0364bba6-ae2f-4903-afe5-44eb14521b92"},"vehicle_type_id":"4","last_reported":1776888210,"current_range_meters":4000,"station_id":"ce4bhh92rcd13ifvqfi0","pricing_plan_id":"cebpf4jnsgd1na2vs0mg"},{"bike_id":"fc193e2f-6336-409c-b978-0b15bb1b7d1e","system_id":"levelo_inurba_marseille","lat":43.288422,"lon":5.393044,"is_reserved":false,"is_disabled":false,"rental_uris":{"android":"levelo://app?vid=fc193e2f-6336-409c-b978-0b15bb1b7d1e","ios":"levelo://app?vid=fc193e2f-6336-409c-b978-0b15bb1b7d1e"},"vehicle_type_id":"4","last_reported":1776888210,"current_range_meters":4000,"station_id":"ce4bh2p2rcd13ifvqdi0","pricing_plan_id":"cebpf4jnsgd1na2vs0mg"},{"bike_id":"c750cd90-b9fb-4726-ae6a-fea3a4b4304e","system_id":"levelo_inurba_marseille","lat":43.291682,"lon":5.371544,"is_reserved":false,"is_disabled":false,"rental_uris":{"android":"levelo://app?vid=c750cd90-b9fb-4726-ae6a-fea3a4b4304e","ios":"levelo://app?vid=c750cd90-b9fb-4726-ae6a-fea3a4b4304e"},"vehicle_type_id":"4","last_reported":1776888210,"current_range_meters":4400,"station_id":"ce4bha92rcd13ifvqeh0","pricing_plan_id":"cebpf4jnsgd1na2vs0mg"},{"bike_id":"659d95b4-d76d-4fc7-93d0-9728055ab99d","system_id":"levelo_inurba_marseille","lat":43.29776,"lon":5.38116,"is_reserved":false,"is_disabled":false,"rental_uris":{"android":"levelo://app?vid=659d95b4-d76d-4fc7-93d0-9728055ab99d","ios":"levelo://app?vid=659d95b4-d76d-4fc7-93d0-9728055ab99d"},"vehicle_type_id":"4","last_reported":1776888210,"current_range_meters":4400,"station_id":"ce4bgip2rcd13ifvqbb0","pricing_plan_id":"cebpf4jnsgd1na2vs0mg"},{"bike_id":"d9be86bb-6c4e-4c05-bc60-e02431cbb916","system_id":"levelo_inurba_marseille","lat":43.31898,"lon":5.36804,"is_reserved":false,"is_disabled":false,"rental_uris":{"android":"levelo://app?vid=d9be86bb-6c4e-4c05-bc60-e02431cbb916","ios":"levelo://app?vid=d9be86bb-6c4e-4c05-bc60-e02431cbb916"},"vehicle_type_id":"4","last_reported":1776888210,"current_range_meters":4400,"station_id":"st_d6o2h0d0559c73evc1b0","pricing_plan_id":"cebpf4jnsgd1na2vs0mg"},{"bike_id":"d204400f-8745-41a5-b8f3-30b0d4c8bfb2","system_id":"levelo_inurba_marseille","lat":43.319,"lon":5.36807,"is_reserved":false,"is_disabled":false,"rental_uris":{"android":"levelo://app?vid=d204400f-8745-41a5-b8f3-30b0d4c8bfb2","ios":"levelo://app?vid=d204400f-8745-41a5-b8f3-30b0d4c8bfb2"},"vehicle_type_id":"4","last_reported":1776888210,"current_range_meters":4400,"station_id":"st_d6o2h0d0559c73evc1b0","pricing_plan_id":"cebpf4jnsgd1na2vs0mg"},{"bike_id":"09154eff-0cc0-426b-b9d1-c1bbbdf15ee5","system_id":"levelo_inurba_marseille","lat":43.29054,"lon":5.37148,"is_reserved":false,"is_disabled":false,"rental_uris":{"android":"levelo://app?vid=09154eff-0cc0-426b-b9d1-c1bbbdf15ee5","ios":"levelo://app?vid=09154eff-0cc0-426b-b9d1-c1bbbdf15ee5"},"vehicle_type_id":"4","last_reported":1776888210,"current_range_meters":4400,"station_id":"ce4bh5p2rcd13ifvqe4g","pricing_plan_id":"cebpf4jnsgd1na2vs0mg"},{"bike_id":"f4036f49-75cc-4cf0-b675-c21ec4d348ae","system_id":"levelo_inurba_marseille","lat":43.30465,"lon":5.37905,"is_reserved":false,"is_disabled":false,"rental_uris":{"android":"levelo://app?vid=f4036f49-75cc-4cf0-b675-c21ec4d348ae","ios":"levelo://app?vid=f4036f49-75cc-4cf0-b675-c21ec4d348ae"},"vehicle_type_id":"4","last_reported":1776888210,"current_range_meters":4400,"station_id":"ce4bgup2rcd13ifvqcn0","pricing_plan_id":"cebpf4jnsgd1na2vs0mg"},{"bike_id":"2f688e4e-6e35-47e8-a9e9-52061c4c2044","system_id":"levelo_inurba_marseille","lat":43.24652,"lon":5.38147,"is_reserved":false,"is_disabled":false,"rental_uris":{"android":"levelo://app?vid=2f688e4e-6e35-47e8-a9e9-52061c4c2044","ios":"levelo://app?vid=2f688e4e-6e35-47e8-a9e9-52061c4c2044"},"vehicle_type_id":"4","last_reported":1776888210,"current_range_meters":4400,"station_id":"ce4bhih2rcd13ifvqfr0","pricing_plan_id":"cebpf4jnsgd1na2vs0mg"},{"bike_id":"46802080-6872-4888-a961-087730684668","system_id":"levelo_inurba_marseille","lat":43.28369,"lon":5.38612,"is_reserved":false,"is_disabled":false,"rental_uris":{"android":"levelo://app?vid=46802080-6872-4888-a961-087730684668","ios":"levelo://app?vid=46802080-6872-4888-a961-087730684668"},"vehicle_type_id":"4","last_reported":1776888210,"current_range_meters":4800,"station_id":"ce4bh492rcd13ifvqdvg","pricing_plan_id":"cebpf4jnsgd1na2vs0mg"},{"bike_id":"771813b4-66e2-4091-993a-717d49a2d84b","system_id":"levelo_inurba_marseille","lat":43.30158,"lon":5.37405,"is_reserved":false,"is_disabled":false,"rental_uris":{"android":"levelo://app?vid=771813b4-66e2-4091-993a-717d49a2d84b","ios":"levelo://app?vid=771813b4-66e2-4091-993a-717d49a2d84b"},"vehicle_type_id":"4","last_reported":1776888210,"current_range_meters":4800,"station_id":"ce4bgs92rcd13ifvqcc0","pricing_plan_id":"cebpf4jnsgd1na2vs0mg"},{"bike_id":"078619d4-ac66-4b95-bd37-42d6fee8c84d","system_id":"levelo_inurba_marseille","lat":43.23198,"lon":5.3555,"is_reserved":false,"is_disabled":false,"rental_uris":{"android":"levelo://app?vid=078619d4-ac66-4b95-bd37-42d6fee8c84d","ios":"levelo://app?vid=078619d4-ac66-4b95-bd37-42d6fee8c84d"},"vehicle_type_id":"4","last_reported":1776888210,"current_range_meters":4800,"station_id":"ce4bhu92rcd13ifvqi70","pricing_plan_id":"cebpf4jnsgd1na2vs0mg"},{"bike_id":"63dc8bdc-9afb-4d89-8dbc-6eca23d62090","system_id":"levelo_inurba_marseille","lat":43.30247,"lon":5.40075,"is_reserved":false,"is_disabled":false,"rental_uris":{"android":"levelo://app?vid=63dc8bdc-9afb-4d89-8dbc-6eca23d62090","ios":"levelo://app?vid=63dc8bdc-9afb-4d89-8dbc-6eca23d62090"},"vehicle_type_id":"4","last_reported":1776888210,"current_range_meters":4800,"station_id":"ce4bgvh2rcd13ifvqcs0","pricing_plan_id":"cebpf4jnsgd1na2vs0mg"},{"bike_id":"8194a0ff-2824-43c5-8a22-527fdaa0a136","system_id":"levelo_inurba_marseille","lat":43.27356,"lon":5.4081,"is_reserved":false,"is_disabled":false,"rental_uris":{"android":"levelo://app?vid=8194a0ff-2824-43c5-8a22-527fdaa0a136","ios":"levelo://app?vid=8194a0ff-2824-43c5-8a22-527fdaa0a136"},"vehicle_type_id":"4","last_reported":1776888210,"current_range_meters":4800,"station_id":"","pricing_plan_id":"cebpf4jnsgd1na2vs0mg"},{"bike_id":"21880da7-0211-4f59-ad3c-2038f9e18f83","system_id":"levelo_inurba_marseille","lat":43.28418,"lon":5.37525,"is_reserved":false,"is_disabled":false,"rental_uris":{"android":"levelo://app?vid=21880da7-0211-4f59-ad3c-2038f9e18f83","ios":"levelo://app?vid=21880da7-0211-4f59-ad3c-2038f9e18f83"},"vehicle_type_id":"4","last_reported":1776888210,"current_range_meters":4800,"station_id":"ce4bh412rcd13ifvqds0","pricing_plan_id":"cebpf4jnsgd1na2vs0mg"},{"bike_id":"a5932d33-7fe4-4ab5-ab73-558a4a420627","system_id":"levelo_inurba_marseille","lat":43.24461,"lon":5.40058,"is_reserved":false,"is_disabled":false,"rental_uris":{"android":"levelo://app?vid=a5932d33-7fe4-4ab5-ab73-558a4a420627","ios":"levelo://app?vid=a5932d33-7fe4-4ab5-ab73-558a4a420627"},"vehicle_type_id":"4","last_reported":1776888210,"current_range_meters":4800,"station_id":"","pricing_plan_id":"cebpf4jnsgd1na2vs0mg"},{"bike_id":"d3fafc95-41fb-4f9c-8ea6-553ab0f42fc8","system_id":"levelo_inurba_marseille","lat":43.29306,"lon":5.371742,"is_reserved":false,"is_disabled":false,"rental_uris":{"android":"levelo://app?vid=d3fafc95-41fb-4f9c-8ea6-553ab0f42fc8","ios":"levelo://app?vid=d3fafc95-41fb-4f9c-8ea6-553ab0f42fc8"},"vehicle_type_id":"4","last_reported":1776888210,"current_range_meters":4800,"station_id":"ce4bgh92rcd13ifvqb40","pricing_plan_id":"cebpf4jnsgd1na2vs0mg"},{"bike_id":"7aea2240-32f9-4c2f-acec-273ffe099474","system_id":"levelo_inurba_marseille","lat":43.24661,"lon":5.38155,"is_reserved":false,"is_disabled":false,"rental_uris":{"android":"levelo://app?vid=7aea2240-32f9-4c2f-acec-273ffe099474","ios":"levelo://app?vid=7aea2240-32f9-4c2f-acec-273ffe099474"},"vehicle_type_id":"4","last_reported":1776888210,"current_range_meters":5600,"station_id":"ce4bhih2rcd13ifvqfr0","pricing_plan_id":"cebpf4jnsgd1na2vs0mg"},{"bike_id":"7667da32-6518-4ca0-a8d9-649eadce9421","system_id":"levelo_inurba_marseille","lat":43.29787,"lon":5.38074,"is_reserved":false,"is_disabled":false,"rental_uris":{"android":"levelo://app?vid=7667da32-6518-4ca0-a8d9-649eadce9421","ios":"levelo://app?vid=7667da32-6518-4ca0-a8d9-649eadce9421"},"vehicle_type_id":"4","last_reported":1776888210,"current_range_meters":5600,"station_id":"ce4bgip2rcd13ifvqbb0","pricing_plan_id":"cebpf4jnsgd1na2vs0mg"},{"bike_id":"72194b03-ff50-418e-8217-b22bd2c9ff49","system_id":"levelo_inurba_marseille","lat":43.30374,"lon":5.4249,"is_reserved":false,"is_disabled":false,"rental_uris":{"android":"levelo://app?vid=72194b03-ff50-418e-8217-b22bd2c9ff49","ios":"levelo://app?vid=72194b03-ff50-418e-8217-b22bd2c9ff49"},"vehicle_type_id":"4","last_reported":1776888210,"current_range_meters":5600,"station_id":"ce4bhoh2rcd13ifvqh6g","pricing_plan_id":"cebpf4jnsgd1na2vs0mg"},{"bike_id":"ab441cdc-9cd1-4c8e-b69e-34bb46fece34","system_id":"levelo_inurba_marseille","lat":43.29391,"lon":5.363,"is_reserved":false,"is_disabled":false,"rental_uris":{"android":"levelo://app?vid=ab441cdc-9cd1-4c8e-b69e-34bb46fece34","ios":"levelo://app?vid=ab441cdc-9cd1-4c8e-b69e-34bb46fece34"},"vehicle_type_id":"4","last_reported":1776888210,"current_range_meters":5600,"station_id":"","pricing_plan_id":"cebpf4jnsgd1na2vs0mg"},{"bike_id":"3ddb5174-c50c-4964-ba54-898026491bc0","system_id":"levelo_inurba_marseille","lat":43.29877,"lon":5.3892,"is_reserved":false,"is_disabled":false,"rental_uris":{"android":"levelo://app?vid=3ddb5174-c50c-4964-ba54-898026491bc0","ios":"levelo://app?vid=3ddb5174-c50c-4964-ba54-898026491bc0"},"vehicle_type_id":"4","last_reported":1776888210,"current_range_meters":5600,"station_id":"ce4bh392rcd13ifvqdl0","pricing_plan_id":"cebpf4jnsgd1na2vs0mg"},{"bike_id":"0618c7b6-2150-45b5-9647-727f3eefe639","system_id":"levelo_inurba_marseille","lat":43.29026,"lon":5.38651,"is_reserved":false,"is_disabled":false,"rental_uris":{"android":"levelo://app?vid=0618c7b6-2150-45b5-9647-727f3eefe639","ios":"levelo://app?vid=0618c7b6-2150-45b5-9647-727f3eefe639"},"vehicle_type_id":"4","last_reported":1776888210,"current_range_meters":5600,"station_id":"ce4bh4p2rcd13ifvqe0g","pricing_plan_id":"cebpf4jnsgd1na2vs0mg"},{"bike_id":"ddab6965-aceb-4a51-ade0-1407b69f632f","system_id":"levelo_inurba_marseille","lat":43.27837,"lon":5.39211,"is_reserved":false,"is_disabled":false,"rental_uris":{"android":"levelo://app?vid=ddab6965-aceb-4a51-ade0-1407b69f632f","ios":"levelo://app?vid=ddab6965-aceb-4a51-ade0-1407b69f632f"},"vehicle_type_id":"4","last_reported":1776888210,"current_range_meters":5600,"station_id":"ce4bhjp2rcd13ifvqga0","pricing_plan_id":"cebpf4jnsgd1na2vs0mg"},{"bike_id":"b6958d12-23c3-4d0c-9873-d937cd2dc935","system_id":"levelo_inurba_marseille","lat":43.30083,"lon":5.39925,"is_reserved":false,"is_disabled":false,"rental_uris":{"android":"levelo://app?vid=b6958d12-23c3-4d0c-9873-d937cd2dc935","ios":"levelo://app?vid=b6958d12-23c3-4d0c-9873-d937cd2dc935"},"vehicle_type_id":"4","last_reported":1776888210,"current_range_meters":5600,"station_id":"","pricing_plan_id":"cebpf4jnsgd1na2vs0mg"},{"bike_id":"7d3818a7-6cd7-4afb-a5c5-6557eac8aaaa","system_id":"levelo_inurba_marseille","lat":43.298,"lon":5.3811,"is_reserved":false,"is_disabled":false,"rental_uris":{"android":"levelo://app?vid=7d3818a7-6cd7-4afb-a5c5-6557eac8aaaa","ios":"levelo://app?vid=7d3818a7-6cd7-4afb-a5c5-6557eac8aaaa"},"vehicle_type_id":"4","last_reported":1776888210,"current_range_meters":5600,"station_id":"ce4bgip2rcd13ifvqbb0","pricing_plan_id":"cebpf4jnsgd1na2vs0mg"},{"bike_id":"7185d8ec-9dc6-41c8-947f-9d3b0aaeb86b","system_id":"levelo_inurba_marseille","lat":43.2388,"lon":5.37466,"is_reserved":false,"is_disabled":true,"rental_uris":{"android":"levelo://app?vid=7185d8ec-9dc6-41c8-947f-9d3b0aaeb86b","ios":"levelo://app?vid=7185d8ec-9dc6-41c8-947f-9d3b0aaeb86b"},"vehicle_type_id":"4","last_reported":1776888210,"current_range_meters":5600,"station_id":"st_d6sm7csbq4hs73f8fpjg","pricing_plan_id":"cebpf4jnsgd1na2vs0mg"},{"bike_id":"f3a0e42d-d6f1-4b31-afb5-c4667c8f968c","system_id":"levelo_inurba_marseille","lat":43.29547,"lon":5.39012,"is_reserved":false,"is_disabled":false,"rental_uris":{"android":"levelo://app?vid=f3a0e42d-d6f1-4b31-afb5-c4667c8f968c","ios":"levelo://app?vid=f3a0e42d-d6f1-4b31-afb5-c4667c8f968c"},"vehicle_type_id":"4","last_reported":1776888210,"current_range_meters":5600,"station_id":"ce4bh3p2rcd13ifvqdp0","pricing_plan_id":"cebpf4jnsgd1na2vs0mg"},{"bike_id":"ecad6050-1832-4468-8d69-7ed56849f7b0","system_id":"levelo_inurba_marseille","lat":43.31536,"lon":5.38034,"is_reserved":false,"is_disabled":false,"rental_uris":{"android":"levelo://app?vid=ecad6050-1832-4468-8d69-7ed56849f7b0","ios":"levelo://app?vid=ecad6050-1832-4468-8d69-7ed56849f7b0"},"vehicle_type_id":"4","last_reported":1776888210,"current_range_meters":5600,"station_id":"ce4bhsp2rcd13ifvqi50","pricing_plan_id":"cebpf4jnsgd1na2vs0mg"},{"bike_id":"882e84be-aff7-44fe-8e03-e10b9edfe543","system_id":"levelo_inurba_marseille","lat":43.29549,"lon":5.37556,"is_reserved":false,"is_disabled":true,"rental_uris":{"android":"levelo://app?vid=882e84be-aff7-44fe-8e03-e10b9edfe543","ios":"levelo://app?vid=882e84be-aff7-44fe-8e03-e10b9edfe543"},"vehicle_type_id":"4","last_reported":1776888210,"current_range_meters":5600,"station_id":"","pricing_plan_id":"cebpf4jnsgd1na2vs0mg"},{"bike_id":"536fa38a-c1bc-4652-b1fd-ef3ff74def6b","system_id":"levelo_inurba_marseille","lat":43.28878,"lon":5.42522,"is_reserved":false,"is_disabled":false,"rental_uris":{"android":"levelo://app?vid=536fa38a-c1bc-4652-b1fd-ef3ff74def6b","ios":"levelo://app?vid=536fa38a-c1bc-4652-b1fd-ef3ff74def6b"},"vehicle_type_id":"4","last_reported":1776888210,"current_range_meters":5600,"station_id":"st_d3b462108ojc7389ooeg","pricing_plan_id":"cebpf4jnsgd1na2vs0mg"},{"bike_id":"e0a4ba49-f8ed-472b-9905-30b9cee24c55","system_id":"levelo_inurba_marseille","lat":43.2885,"lon":5.3587,"is_reserved":false,"is_disabled":false,"rental_uris":{"android":"levelo://app?vid=e0a4ba49-f8ed-472b-9905-30b9cee24c55","ios":"levelo://app?vid=e0a4ba49-f8ed-472b-9905-30b9cee24c55"},"vehicle_type_id":"4","last_reported":1776888210,"current_range_meters":5600,"station_id":"ce4bhb12rcd13ifvqem0","pricing_plan_id":"cebpf4jnsgd1na2vs0mg"},{"bike_id":"73d436be-8bb5-400c-b5b8-edfd7e8d5913","system_id":"levelo_inurba_marseille","lat":43.337444,"lon":5.374475,"is_reserved":false,"is_disabled":false,"rental_uris":{"android":"levelo://app?vid=73d436be-8bb5-400c-b5b8-edfd7e8d5913","ios":"levelo://app?vid=73d436be-8bb5-400c-b5b8-edfd7e8d5913"},"vehicle_type_id":"4","last_reported":1776888210,"current_range_meters":6000,"station_id":"ce4bhgp2rcd13ifvqfc0","pricing_plan_id":"cebpf4jnsgd1na2vs0mg"},{"bike_id":"04257b95-4499-46e1-a4e3-88ab526291ba","system_id":"levelo_inurba_marseille","lat":43.28475,"lon":5.48407,"is_reserved":false,"is_disabled":false,"rental_uris":{"android":"levelo://app?vid=04257b95-4499-46e1-a4e3-88ab526291ba","ios":"levelo://app?vid=04257b95-4499-46e1-a4e3-88ab526291ba"},"vehicle_type_id":"4","last_reported":1776888210,"current_range_meters":6000,"station_id":"","pricing_plan_id":"cebpf4jnsgd1na2vs0mg"},{"bike_id":"fe450047-0a49-4639-91e2-adf40561d801","system_id":"levelo_inurba_marseille","lat":43.28619,"lon":5.35101,"is_reserved":false,"is_disabled":false,"rental_uris":{"android":"levelo://app?vid=fe450047-0a49-4639-91e2-adf40561d801","ios":"levelo://app?vid=fe450047-0a49-4639-91e2-adf40561d801"},"vehicle_type_id":"4","last_reported":1776888210,"current_range_meters":6000,"station_id":"ce4bhch2rcd13ifvqeug","pricing_plan_id":"cebpf4jnsgd1na2vs0mg"},{"bike_id":"c46fef82-61a1-434d-a80f-66738f8adbd3","system_id":"levelo_inurba_marseille","lat":43.31276,"lon":5.40166,"is_reserved":false,"is_disabled":false,"rental_uris":{"android":"levelo://app?vid=c46fef82-61a1-434d-a80f-66738f8adbd3","ios":"levelo://app?vid=c46fef82-61a1-434d-a80f-66738f8adbd3"},"vehicle_type_id":"4","last_reported":1776888210,"current_range_meters":6000,"station_id":"ce4bh092rcd13ifvqd30","pricing_plan_id":"cebpf4jnsgd1na2vs0mg"},{"bike_id":"ff422c07-4472-471c-ab0d-dcb023acae97","system_id":"levelo_inurba_marseille","lat":43.3061,"lon":5.37167,"is_reserved":false,"is_disabled":false,"rental_uris":{"android":"levelo://app?vid=ff422c07-4472-471c-ab0d-dcb023acae97","ios":"levelo://app?vid=ff422c07-4472-471c-ab0d-dcb023acae97"},"vehicle_type_id":"4","last_reported":1776888210,"current_range_meters":6000,"station_id":"ce4bgqh2rcd13ifvqc4g","pricing_plan_id":"cebpf4jnsgd1na2vs0mg"},{"bike_id":"1c03e31f-92ed-4d57-9969-bebaf86c794a","system_id":"levelo_inurba_marseille","lat":43.30453,"lon":5.38898,"is_reserved":false,"is_disabled":false,"rental_uris":{"android":"levelo://app?vid=1c03e31f-92ed-4d57-9969-bebaf86c794a","ios":"levelo://app?vid=1c03e31f-92ed-4d57-9969-bebaf86c794a"},"vehicle_type_id":"4","last_reported":1776888210,"current_range_meters":6000,"station_id":"ce4bgk12rcd13ifvqbi0","pricing_plan_id":"cebpf4jnsgd1na2vs0mg"},{"bike_id":"8cf4aaef-20b2-4c4b-8fd6-8496f3f6c9d2","system_id":"levelo_inurba_marseille","lat":43.23965,"lon":5.36628,"is_reserved":false,"is_disabled":false,"rental_uris":{"android":"levelo://app?vid=8cf4aaef-20b2-4c4b-8fd6-8496f3f6c9d2","ios":"levelo://app?vid=8cf4aaef-20b2-4c4b-8fd6-8496f3f6c9d2"},"vehicle_type_id":"4","last_reported":1776888210,"current_range_meters":6000,"station_id":"ce4bhi12rcd13ifvqfp0","pricing_plan_id":"cebpf4jnsgd1na2vs0mg"},{"bike_id":"aa9d89fe-ec08-418a-8ac3-01dbad3218b2","system_id":"levelo_inurba_marseille","lat":43.29039,"lon":5.39973,"is_reserved":false,"is_disabled":false,"rental_uris":{"android":"levelo://app?vid=aa9d89fe-ec08-418a-8ac3-01dbad3218b2","ios":"levelo://app?vid=aa9d89fe-ec08-418a-8ac3-01dbad3218b2"},"vehicle_type_id":"4","last_reported":1776888210,"current_range_meters":6000,"station_id":"ce4bh392rcd13ifvqdm0","pricing_plan_id":"cebpf4jnsgd1na2vs0mg"},{"bike_id":"d0cf33e7-92a7-47a4-85ac-d4b2e456fa78","system_id":"levelo_inurba_marseille","lat":43.3079,"lon":5.3816,"is_reserved":false,"is_disabled":false,"rental_uris":{"android":"levelo://app?vid=d0cf33e7-92a7-47a4-85ac-d4b2e456fa78","ios":"levelo://app?vid=d0cf33e7-92a7-47a4-85ac-d4b2e456fa78"},"vehicle_type_id":"4","last_reported":1776888210,"current_range_meters":6000,"station_id":"ce4bgt12rcd13ifvqce0","pricing_plan_id":"cebpf4jnsgd1na2vs0mg"},{"bike_id":"afddf26b-a760-4e62-b8bd-805072a4017f","system_id":"levelo_inurba_marseille","lat":43.299329,"lon":5.365526,"is_reserved":false,"is_disabled":false,"rental_uris":{"android":"levelo://app?vid=afddf26b-a760-4e62-b8bd-805072a4017f","ios":"levelo://app?vid=afddf26b-a760-4e62-b8bd-805072a4017f"},"vehicle_type_id":"4","last_reported":1776888210,"current_range_meters":6000,"station_id":"ce4bgm92rcd13ifvqbr0","pricing_plan_id":"cebpf4jnsgd1na2vs0mg"},{"bike_id":"1b9f3033-b460-4e1f-a438-9ab71168e18f","system_id":"levelo_inurba_marseille","lat":43.28927,"lon":5.36632,"is_reserved":false,"is_disabled":false,"rental_uris":{"android":"levelo://app?vid=1b9f3033-b460-4e1f-a438-9ab71168e18f","ios":"levelo://app?vid=1b9f3033-b460-4e1f-a438-9ab71168e18f"},"vehicle_type_id":"4","last_reported":1776888210,"current_range_meters":6400,"station_id":"ce4bhap2rcd13ifvqek0","pricing_plan_id":"cebpf4jnsgd1na2vs0mg"},{"bike_id":"bd3c6b3e-d299-464a-9a96-a94e112dc80d","system_id":"levelo_inurba_marseille","lat":43.2985,"lon":5.36282,"is_reserved":false,"is_disabled":false,"rental_uris":{"android":"levelo://app?vid=bd3c6b3e-d299-464a-9a96-a94e112dc80d","ios":"levelo://app?vid=bd3c6b3e-d299-464a-9a96-a94e112dc80d"},"vehicle_type_id":"4","last_reported":1776888210,"current_range_meters":6400,"station_id":"ce4bgpp2rcd13ifvqc3g","pricing_plan_id":"cebpf4jnsgd1na2vs0mg"},{"bike_id":"0d6c852c-fbab-4443-90e9-d447d4addd75","system_id":"levelo_inurba_marseille","lat":43.28931,"lon":5.36637,"is_reserved":false,"is_disabled":false,"rental_uris":{"android":"levelo://app?vid=0d6c852c-fbab-4443-90e9-d447d4addd75","ios":"levelo://app?vid=0d6c852c-fbab-4443-90e9-d447d4addd75"},"vehicle_type_id":"4","last_reported":1776888210,"current_range_meters":6400,"station_id":"ce4bhap2rcd13ifvqek0","pricing_plan_id":"cebpf4jnsgd1na2vs0mg"},{"bike_id":"741ec748-06b3-454b-8687-4601dbe79e98","system_id":"levelo_inurba_marseille","lat":43.29222,"lon":5.36082,"is_reserved":false,"is_disabled":false,"rental_uris":{"android":"levelo://app?vid=741ec748-06b3-454b-8687-4601dbe79e98","ios":"levelo://app?vid=741ec748-06b3-454b-8687-4601dbe79e98"},"vehicle_type_id":"4","last_reported":1776888210,"current_range_meters":6400,"station_id":"ce4bhbh2rcd13ifvqeqg","pricing_plan_id":"cebpf4jnsgd1na2vs0mg"},{"bike_id":"2d55dcb6-939b-4f02-b41f-c34266fa9e7a","system_id":"levelo_inurba_marseille","lat":43.29172,"lon":5.39335,"is_reserved":false,"is_disabled":true,"rental_uris":{"android":"levelo://app?vid=2d55dcb6-939b-4f02-b41f-c34266fa9e7a","ios":"levelo://app?vid=2d55dcb6-939b-4f02-b41f-c34266fa9e7a"},"vehicle_type_id":"4","last_reported":1776888210,"current_range_meters":6400,"station_id":"ce4bh192rcd13ifvqdd0","pricing_plan_id":"cebpf4jnsgd1na2vs0mg"},{"bike_id":"53ac9b94-d2b8-401a-8133-9009372f217e","system_id":"levelo_inurba_marseille","lat":43.28472,"lon":5.48405,"is_reserved":false,"is_disabled":false,"rental_uris":{"android":"levelo://app?vid=53ac9b94-d2b8-401a-8133-9009372f217e","ios":"levelo://app?vid=53ac9b94-d2b8-401a-8133-9009372f217e"},"vehicle_type_id":"4","last_reported":1776888210,"current_range_meters":6400,"station_id":"","pricing_plan_id":"cebpf4jnsgd1na2vs0mg"},{"bike_id":"9c047716-f105-4e67-ab57-b73bcfa4202e","system_id":"levelo_inurba_marseille","lat":43.27946,"lon":5.41051,"is_reserved":false,"is_disabled":false,"rental_uris":{"android":"levelo://app?vid=9c047716-f105-4e67-ab57-b73bcfa4202e","ios":"levelo://app?vid=9c047716-f105-4e67-ab57-b73bcfa4202e"},"vehicle_type_id":"4","last_reported":1776888210,"current_range_meters":6400,"station_id":"ce4bhnp2rcd13ifvqh0g","pricing_plan_id":"cebpf4jnsgd1na2vs0mg"},{"bike_id":"b6cef1c9-5e9c-48cb-8c7b-112f85c5f936","system_id":"levelo_inurba_marseille","lat":43.3061,"lon":5.37221,"is_reserved":false,"is_disabled":false,"rental_uris":{"android":"levelo://app?vid=b6cef1c9-5e9c-48cb-8c7b-112f85c5f936","ios":"levelo://app?vid=b6cef1c9-5e9c-48cb-8c7b-112f85c5f936"},"vehicle_type_id":"4","last_reported":1776888210,"current_range_meters":6400,"station_id":"ce4bgqh2rcd13ifvqc4g","pricing_plan_id":"cebpf4jnsgd1na2vs0mg"},{"bike_id":"050c33f6-ce80-4121-86f7-8e54d0b8e021","system_id":"levelo_inurba_marseille","lat":43.29026,"lon":5.38125,"is_reserved":false,"is_disabled":false,"rental_uris":{"android":"levelo://app?vid=050c33f6-ce80-4121-86f7-8e54d0b8e021","ios":"levelo://app?vid=050c33f6-ce80-4121-86f7-8e54d0b8e021"},"vehicle_type_id":"4","last_reported":1776888210,"current_range_meters":6400,"station_id":"ce4bh4p2rcd13ifvqe1g","pricing_plan_id":"cebpf4jnsgd1na2vs0mg"},{"bike_id":"6ee75b1e-3389-452c-805f-052a7231f6b2","system_id":"levelo_inurba_marseille","lat":43.28875,"lon":5.42506,"is_reserved":false,"is_disabled":false,"rental_uris":{"android":"levelo://app?vid=6ee75b1e-3389-452c-805f-052a7231f6b2","ios":"levelo://app?vid=6ee75b1e-3389-452c-805f-052a7231f6b2"},"vehicle_type_id":"4","last_reported":1776888210,"current_range_meters":6800,"station_id":"st_d3b462108ojc7389ooeg","pricing_plan_id":"cebpf4jnsgd1na2vs0mg"},{"bike_id":"1c4db81e-e54e-450a-b910-a202dc639503","system_id":"levelo_inurba_marseille","lat":43.28473,"lon":5.48414,"is_reserved":false,"is_disabled":false,"rental_uris":{"android":"levelo://app?vid=1c4db81e-e54e-450a-b910-a202dc639503","ios":"levelo://app?vid=1c4db81e-e54e-450a-b910-a202dc639503"},"vehicle_type_id":"4","last_reported":1776888210,"current_range_meters":6800,"station_id":"","pricing_plan_id":"cebpf4jnsgd1na2vs0mg"},{"bike_id":"8c33dcad-8792-4b7f-9ebc-77429e11d6b0","system_id":"levelo_inurba_marseille","lat":43.32455,"lon":5.36595,"is_reserved":false,"is_disabled":false,"rental_uris":{"android":"levelo://app?vid=8c33dcad-8792-4b7f-9ebc-77429e11d6b0","ios":"levelo://app?vid=8c33dcad-8792-4b7f-9ebc-77429e11d6b0"},"vehicle_type_id":"4","last_reported":1776888210,"current_range_meters":6800,"station_id":"ce4bhs12rcd13ifvqhvg","pricing_plan_id":"cebpf4jnsgd1na2vs0mg"},{"bike_id":"fc83597b-c92a-4d6b-9ec3-85cccb5b70a7","system_id":"levelo_inurba_marseille","lat":43.31971,"lon":5.36857,"is_reserved":false,"is_disabled":false,"rental_uris":{"android":"levelo://app?vid=fc83597b-c92a-4d6b-9ec3-85cccb5b70a7","ios":"levelo://app?vid=fc83597b-c92a-4d6b-9ec3-85cccb5b70a7"},"vehicle_type_id":"4","last_reported":1776888210,"current_range_meters":6800,"station_id":"","pricing_plan_id":"cebpf4jnsgd1na2vs0mg"},{"bike_id":"b0292b57-bc6e-4d3d-855f-2c85d8c85123","system_id":"levelo_inurba_marseille","lat":43.29321,"lon":5.36256,"is_reserved":false,"is_disabled":false,"rental_uris":{"android":"levelo://app?vid=b0292b57-bc6e-4d3d-855f-2c85d8c85123","ios":"levelo://app?vid=b0292b57-bc6e-4d3d-855f-2c85d8c85123"},"vehicle_type_id":"4","last_reported":1776888210,"current_range_meters":6800,"station_id":"","pricing_plan_id":"cebpf4jnsgd1na2vs0mg"},{"bike_id":"50918bbe-8b4a-4832-b89d-ffef40c798ba","system_id":"levelo_inurba_marseille","lat":43.3235,"lon":5.36769,"is_reserved":false,"is_disabled":false,"rental_uris":{"android":"levelo://app?vid=50918bbe-8b4a-4832-b89d-ffef40c798ba","ios":"levelo://app?vid=50918bbe-8b4a-4832-b89d-ffef40c798ba"},"vehicle_type_id":"4","last_reported":1776888210,"current_range_meters":6800,"station_id":"ce4bhsh2rcd13ifvqi2g","pricing_plan_id":"cebpf4jnsgd1na2vs0mg"},{"bike_id":"b07df4a8-3a84-4a6f-8930-a25b3ebe2fc3","system_id":"levelo_inurba_marseille","lat":43.3102,"lon":5.37718,"is_reserved":false,"is_disabled":false,"rental_uris":{"android":"levelo://app?vid=b07df4a8-3a84-4a6f-8930-a25b3ebe2fc3","ios":"levelo://app?vid=b07df4a8-3a84-4a6f-8930-a25b3ebe2fc3"},"vehicle_type_id":"4","last_reported":1776888210,"current_range_meters":6800,"station_id":"","pricing_plan_id":"cebpf4jnsgd1na2vs0mg"},{"bike_id":"7bcba6ec-2fa4-4918-9a73-fea85a6638d3","system_id":"levelo_inurba_marseille","lat":43.27846,"lon":5.40565,"is_reserved":false,"is_disabled":false,"rental_uris":{"android":"levelo://app?vid=7bcba6ec-2fa4-4918-9a73-fea85a6638d3","ios":"levelo://app?vid=7bcba6ec-2fa4-4918-9a73-fea85a6638d3"},"vehicle_type_id":"4","last_reported":1776888210,"current_range_meters":6800,"station_id":"","pricing_plan_id":"cebpf4jnsgd1na2vs0mg"},{"bike_id":"a94d236d-eba8-4733-81ef-6d7a05120d94","system_id":"levelo_inurba_marseille","lat":43.24866,"lon":5.39401,"is_reserved":false,"is_disabled":false,"rental_uris":{"android":"levelo://app?vid=a94d236d-eba8-4733-81ef-6d7a05120d94","ios":"levelo://app?vid=a94d236d-eba8-4733-81ef-6d7a05120d94"},"vehicle_type_id":"4","last_reported":1776888210,"current_range_meters":6800,"station_id":"","pricing_plan_id":"cebpf4jnsgd1na2vs0mg"},{"bike_id":"6a5bbe70-48a0-4392-9136-9a0675f9bf10","system_id":"levelo_inurba_marseille","lat":43.2657,"lon":5.40307,"is_reserved":false,"is_disabled":true,"rental_uris":{"android":"levelo://app?vid=6a5bbe70-48a0-4392-9136-9a0675f9bf10","ios":"levelo://app?vid=6a5bbe70-48a0-4392-9136-9a0675f9bf10"},"vehicle_type_id":"4","last_reported":1776888210,"current_range_meters":6800,"station_id":"ce4bhmp2rcd13ifvqgng","pricing_plan_id":"cebpf4jnsgd1na2vs0mg"},{"bike_id":"97640678-22eb-456e-8a6b-8940edbd10ca","system_id":"levelo_inurba_marseille","lat":43.23927,"lon":5.41474,"is_reserved":false,"is_disabled":false,"rental_uris":{"android":"levelo://app?vid=97640678-22eb-456e-8a6b-8940edbd10ca","ios":"levelo://app?vid=97640678-22eb-456e-8a6b-8940edbd10ca"},"vehicle_type_id":"4","last_reported":1776888210,"current_range_meters":6800,"station_id":"","pricing_plan_id":"cebpf4jnsgd1na2vs0mg"},{"bike_id":"031edc34-ec0c-42fe-997e-5e9b2ec2a0bc","system_id":"levelo_inurba_marseille","lat":43.29746,"lon":5.37075,"is_reserved":false,"is_disabled":false,"rental_uris":{"android":"levelo://app?vid=031edc34-ec0c-42fe-997e-5e9b2ec2a0bc","ios":"levelo://app?vid=031edc34-ec0c-42fe-997e-5e9b2ec2a0bc"},"vehicle_type_id":"4","last_reported":1776888210,"current_range_meters":6800,"station_id":"ce4bgop2rcd13ifvqc1g","pricing_plan_id":"cebpf4jnsgd1na2vs0mg"},{"bike_id":"e894a4f9-57b8-404c-a053-fa8ff9222667","system_id":"levelo_inurba_marseille","lat":43.28611,"lon":5.39885,"is_reserved":false,"is_disabled":true,"rental_uris":{"android":"levelo://app?vid=e894a4f9-57b8-404c-a053-fa8ff9222667","ios":"levelo://app?vid=e894a4f9-57b8-404c-a053-fa8ff9222667"},"vehicle_type_id":"4","last_reported":1776888210,"current_range_meters":6800,"station_id":"st_d4a7ka997mjs738ck50g","pricing_plan_id":"cebpf4jnsgd1na2vs0mg"},{"bike_id":"6b23908a-27fc-400a-b1b6-9daa8d6ab014","system_id":"levelo_inurba_marseille","lat":43.33707,"lon":5.39819,"is_reserved":false,"is_disabled":false,"rental_uris":{"android":"levelo://app?vid=6b23908a-27fc-400a-b1b6-9daa8d6ab014","ios":"levelo://app?vid=6b23908a-27fc-400a-b1b6-9daa8d6ab014"},"vehicle_type_id":"4","last_reported":1776888210,"current_range_meters":6800,"station_id":"","pricing_plan_id":"cebpf4jnsgd1na2vs0mg"},{"bike_id":"b503e929-2eef-4eef-a040-d0b506525994","system_id":"levelo_inurba_marseille","lat":43.29784,"lon":5.381,"is_reserved":false,"is_disabled":false,"rental_uris":{"android":"levelo://app?vid=b503e929-2eef-4eef-a040-d0b506525994","ios":"levelo://app?vid=b503e929-2eef-4eef-a040-d0b506525994"},"vehicle_type_id":"4","last_reported":1776888210,"current_range_meters":6800,"station_id":"ce4bgip2rcd13ifvqbb0","pricing_plan_id":"cebpf4jnsgd1na2vs0mg"},{"bike_id":"bd72b1e4-f25f-4a1b-9ff3-ec6aef1a98e0","system_id":"levelo_inurba_marseille","lat":43.28675,"lon":5.38668,"is_reserved":false,"is_disabled":false,"rental_uris":{"android":"levelo://app?vid=bd72b1e4-f25f-4a1b-9ff3-ec6aef1a98e0","ios":"levelo://app?vid=bd72b1e4-f25f-4a1b-9ff3-ec6aef1a98e0"},"vehicle_type_id":"4","last_reported":1776888210,"current_range_meters":6800,"station_id":"ce4bh492rcd13ifvqdug","pricing_plan_id":"cebpf4jnsgd1na2vs0mg"},{"bike_id":"ed37241c-9bd9-484b-a539-9adbf52e28e3","system_id":"levelo_inurba_marseille","lat":43.2887,"lon":5.35867,"is_reserved":false,"is_disabled":false,"rental_uris":{"android":"levelo://app?vid=ed37241c-9bd9-484b-a539-9adbf52e28e3","ios":"levelo://app?vid=ed37241c-9bd9-484b-a539-9adbf52e28e3"},"vehicle_type_id":"4","last_reported":1776888210,"current_range_meters":6800,"station_id":"ce4bhb12rcd13ifvqem0","pricing_plan_id":"cebpf4jnsgd1na2vs0mg"},{"bike_id":"ce2ca8dc-1450-460c-a671-43388b052d50","system_id":"levelo_inurba_marseille","lat":43.2707,"lon":5.38303,"is_reserved":false,"is_disabled":false,"rental_uris":{"android":"levelo://app?vid=ce2ca8dc-1450-460c-a671-43388b052d50","ios":"levelo://app?vid=ce2ca8dc-1450-460c-a671-43388b052d50"},"vehicle_type_id":"4","last_reported":1776888210,"current_range_meters":6800,"station_id":"st_d3n2fo6cfp8s73cte1j0","pricing_plan_id":"cebpf4jnsgd1na2vs0mg"},{"bike_id":"390b23cc-9811-481e-b0e3-1f0f13cd8c03","system_id":"levelo_inurba_marseille","lat":43.302495,"lon":5.40078,"is_reserved":false,"is_disabled":false,"rental_uris":{"android":"levelo://app?vid=390b23cc-9811-481e-b0e3-1f0f13cd8c03","ios":"levelo://app?vid=390b23cc-9811-481e-b0e3-1f0f13cd8c03"},"vehicle_type_id":"4","last_reported":1776888210,"current_range_meters":6800,"station_id":"ce4bgvh2rcd13ifvqcs0","pricing_plan_id":"cebpf4jnsgd1na2vs0mg"},{"bike_id":"9cfa2194-999b-407a-8f42-89777697c89e","system_id":"levelo_inurba_marseille","lat":43.29305,"lon":5.3717,"is_reserved":false,"is_disabled":false,"rental_uris":{"android":"levelo://app?vid=9cfa2194-999b-407a-8f42-89777697c89e","ios":"levelo://app?vid=9cfa2194-999b-407a-8f42-89777697c89e"},"vehicle_type_id":"4","last_reported":1776888210,"current_range_meters":6800,"station_id":"ce4bgh92rcd13ifvqb40","pricing_plan_id":"cebpf4jnsgd1na2vs0mg"},{"bike_id":"059b4ad8-665d-46df-9a3f-e9b9a20a1c99","system_id":"levelo_inurba_marseille","lat":43.33538,"lon":5.37472,"is_reserved":false,"is_disabled":false,"rental_uris":{"android":"levelo://app?vid=059b4ad8-665d-46df-9a3f-e9b9a20a1c99","ios":"levelo://app?vid=059b4ad8-665d-46df-9a3f-e9b9a20a1c99"},"vehicle_type_id":"4","last_reported":1776888210,"current_range_meters":6800,"station_id":"st_d46tts09ee8s73dlu43g","pricing_plan_id":"cebpf4jnsgd1na2vs0mg"},{"bike_id":"faf9535a-bce1-4796-967b-116ea7429902","system_id":"levelo_inurba_marseille","lat":43.29796,"lon":5.39322,"is_reserved":false,"is_disabled":false,"rental_uris":{"android":"levelo://app?vid=faf9535a-bce1-4796-967b-116ea7429902","ios":"levelo://app?vid=faf9535a-bce1-4796-967b-116ea7429902"},"vehicle_type_id":"4","last_reported":1776888210,"current_range_meters":7200,"station_id":"chh1huq6cuj3fo74tm60","pricing_plan_id":"cebpf4jnsgd1na2vs0mg"},{"bike_id":"7b477510-f637-48a3-8d07-151b6fdaa492","system_id":"levelo_inurba_marseille","lat":43.30138,"lon":5.39884,"is_reserved":false,"is_disabled":false,"rental_uris":{"android":"levelo://app?vid=7b477510-f637-48a3-8d07-151b6fdaa492","ios":"levelo://app?vid=7b477510-f637-48a3-8d07-151b6fdaa492"},"vehicle_type_id":"4","last_reported":1776888210,"current_range_meters":7200,"station_id":"ce4bh0h2rcd13ifvqd40","pricing_plan_id":"cebpf4jnsgd1na2vs0mg"},{"bike_id":"1ac32573-35ca-4b15-a3f0-b178fc7d1a24","system_id":"levelo_inurba_marseille","lat":43.23392,"lon":5.41248,"is_reserved":false,"is_disabled":false,"rental_uris":{"android":"levelo://app?vid=1ac32573-35ca-4b15-a3f0-b178fc7d1a24","ios":"levelo://app?vid=1ac32573-35ca-4b15-a3f0-b178fc7d1a24"},"vehicle_type_id":"4","last_reported":1776888210,"current_range_meters":7200,"station_id":"st_d75pvndhf9lc73cqq3eg","pricing_plan_id":"cebpf4jnsgd1na2vs0mg"},{"bike_id":"5c47d5b4-05d2-4ac8-8349-3679806a805a","system_id":"levelo_inurba_marseille","lat":43.27223,"lon":5.40998,"is_reserved":false,"is_disabled":false,"rental_uris":{"android":"levelo://app?vid=5c47d5b4-05d2-4ac8-8349-3679806a805a","ios":"levelo://app?vid=5c47d5b4-05d2-4ac8-8349-3679806a805a"},"vehicle_type_id":"4","last_reported":1776888210,"current_range_meters":7200,"station_id":"","pricing_plan_id":"cebpf4jnsgd1na2vs0mg"},{"bike_id":"2bc3d0de-abb2-40ef-8301-4cbf0412cf55","system_id":"levelo_inurba_marseille","lat":43.26232,"lon":5.40423,"is_reserved":false,"is_disabled":false,"rental_uris":{"android":"levelo://app?vid=2bc3d0de-abb2-40ef-8301-4cbf0412cf55","ios":"levelo://app?vid=2bc3d0de-abb2-40ef-8301-4cbf0412cf55"},"vehicle_type_id":"4","last_reported":1776888210,"current_range_meters":7200,"station_id":"ce4bhmh2rcd13ifvqgmg","pricing_plan_id":"cebpf4jnsgd1na2vs0mg"},{"bike_id":"d1fda486-70ba-4609-b998-7713b50defe1","system_id":"levelo_inurba_marseille","lat":43.27032,"lon":5.40082,"is_reserved":false,"is_disabled":false,"rental_uris":{"android":"levelo://app?vid=d1fda486-70ba-4609-b998-7713b50defe1","ios":"levelo://app?vid=d1fda486-70ba-4609-b998-7713b50defe1"},"vehicle_type_id":"4","last_reported":1776888210,"current_range_meters":7200,"station_id":"","pricing_plan_id":"cebpf4jnsgd1na2vs0mg"},{"bike_id":"a56618cc-2d62-424d-a2a9-812f16a3fb0c","system_id":"levelo_inurba_marseille","lat":43.29715,"lon":5.37692,"is_reserved":false,"is_disabled":false,"rental_uris":{"android":"levelo://app?vid=a56618cc-2d62-424d-a2a9-812f16a3fb0c","ios":"levelo://app?vid=a56618cc-2d62-424d-a2a9-812f16a3fb0c"},"vehicle_type_id":"4","last_reported":1776888210,"current_range_meters":7200,"station_id":"ce4bgkh2rcd13ifvqbl0","pricing_plan_id":"cebpf4jnsgd1na2vs0mg"},{"bike_id":"99dcc08c-320c-446b-addf-b1b474d8b357","system_id":"levelo_inurba_marseille","lat":43.28076,"lon":5.39666,"is_reserved":false,"is_disabled":false,"rental_uris":{"android":"levelo://app?vid=99dcc08c-320c-446b-addf-b1b474d8b357","ios":"levelo://app?vid=99dcc08c-320c-446b-addf-b1b474d8b357"},"vehicle_type_id":"4","last_reported":1776888210,"current_range_meters":7200,"station_id":"ce4bho12rcd13ifvqh2g","pricing_plan_id":"cebpf4jnsgd1na2vs0mg"},{"bike_id":"ce6d94a6-9b57-4784-8848-4967b5817135","system_id":"levelo_inurba_marseille","lat":43.30144,"lon":5.39847,"is_reserved":false,"is_disabled":false,"rental_uris":{"android":"levelo://app?vid=ce6d94a6-9b57-4784-8848-4967b5817135","ios":"levelo://app?vid=ce6d94a6-9b57-4784-8848-4967b5817135"},"vehicle_type_id":"4","last_reported":1776888210,"current_range_meters":7200,"station_id":"ce4bh0h2rcd13ifvqd40","pricing_plan_id":"cebpf4jnsgd1na2vs0mg"},{"bike_id":"44265ec6-78a7-44ea-89be-666f82f76022","system_id":"levelo_inurba_marseille","lat":43.24673,"lon":5.38165,"is_reserved":false,"is_disabled":false,"rental_uris":{"android":"levelo://app?vid=44265ec6-78a7-44ea-89be-666f82f76022","ios":"levelo://app?vid=44265ec6-78a7-44ea-89be-666f82f76022"},"vehicle_type_id":"4","last_reported":1776888210,"current_range_meters":7200,"station_id":"ce4bhih2rcd13ifvqfr0","pricing_plan_id":"cebpf4jnsgd1na2vs0mg"},{"bike_id":"cfcc8dcf-6816-46a1-945d-fdf5ccf50752","system_id":"levelo_inurba_marseille","lat":43.30924,"lon":5.41181,"is_reserved":false,"is_disabled":false,"rental_uris":{"android":"levelo://app?vid=cfcc8dcf-6816-46a1-945d-fdf5ccf50752","ios":"levelo://app?vid=cfcc8dcf-6816-46a1-945d-fdf5ccf50752"},"vehicle_type_id":"4","last_reported":1776888210,"current_range_meters":7200,"station_id":"","pricing_plan_id":"cebpf4jnsgd1na2vs0mg"},{"bike_id":"0d8738c8-efd5-4f83-bedf-81eb9a1d6096","system_id":"levelo_inurba_marseille","lat":43.33166,"lon":5.36172,"is_reserved":false,"is_disabled":false,"rental_uris":{"android":"levelo://app?vid=0d8738c8-efd5-4f83-bedf-81eb9a1d6096","ios":"levelo://app?vid=0d8738c8-efd5-4f83-bedf-81eb9a1d6096"},"vehicle_type_id":"4","last_reported":1776888210,"current_range_meters":7200,"station_id":"","pricing_plan_id":"cebpf4jnsgd1na2vs0mg"},{"bike_id":"873038f8-52d6-4618-968d-d955136c8dae","system_id":"levelo_inurba_marseille","lat":43.28101,"lon":5.37853,"is_reserved":false,"is_disabled":true,"rental_uris":{"android":"levelo://app?vid=873038f8-52d6-4618-968d-d955136c8dae","ios":"levelo://app?vid=873038f8-52d6-4618-968d-d955136c8dae"},"vehicle_type_id":"4","last_reported":1776888210,"current_range_meters":7200,"station_id":"ce4bha12rcd13ifvqee0","pricing_plan_id":"cebpf4jnsgd1na2vs0mg"},{"bike_id":"c173ad45-e723-4ed0-b932-8c7898ac1eed","system_id":"levelo_inurba_marseille","lat":43.29539,"lon":5.38534,"is_reserved":false,"is_disabled":false,"rental_uris":{"android":"levelo://app?vid=c173ad45-e723-4ed0-b932-8c7898ac1eed","ios":"levelo://app?vid=c173ad45-e723-4ed0-b932-8c7898ac1eed"},"vehicle_type_id":"4","last_reported":1776888210,"current_range_meters":7200,"station_id":"ce4bgih2rcd13ifvqba0","pricing_plan_id":"cebpf4jnsgd1na2vs0mg"},{"bike_id":"d36b6882-2c66-4b06-a40a-0d893bdebe37","system_id":"levelo_inurba_marseille","lat":43.28849,"lon":5.3587,"is_reserved":false,"is_disabled":false,"rental_uris":{"android":"levelo://app?vid=d36b6882-2c66-4b06-a40a-0d893bdebe37","ios":"levelo://app?vid=d36b6882-2c66-4b06-a40a-0d893bdebe37"},"vehicle_type_id":"4","last_reported":1776888210,"current_range_meters":8000,"station_id":"ce4bhb12rcd13ifvqem0","pricing_plan_id":"cebpf4jnsgd1na2vs0mg"},{"bike_id":"f2ff52a7-1503-4a80-9a0e-a217d36469bb","system_id":"levelo_inurba_marseille","lat":43.31067,"lon":5.37159,"is_reserved":false,"is_disabled":false,"rental_uris":{"android":"levelo://app?vid=f2ff52a7-1503-4a80-9a0e-a217d36469bb","ios":"levelo://app?vid=f2ff52a7-1503-4a80-9a0e-a217d36469bb"},"vehicle_type_id":"4","last_reported":1776888210,"current_range_meters":8000,"station_id":"st_d4kl2rp97mjs73e7tdfg","pricing_plan_id":"cebpf4jnsgd1na2vs0mg"},{"bike_id":"3975f7ad-77e0-46a9-aeda-f957df137c03","system_id":"levelo_inurba_marseille","lat":43.29518,"lon":5.39412,"is_reserved":false,"is_disabled":false,"rental_uris":{"android":"levelo://app?vid=3975f7ad-77e0-46a9-aeda-f957df137c03","ios":"levelo://app?vid=3975f7ad-77e0-46a9-aeda-f957df137c03"},"vehicle_type_id":"4","last_reported":1776888210,"current_range_meters":8000,"station_id":"ce4bh292rcd13ifvqdf0","pricing_plan_id":"cebpf4jnsgd1na2vs0mg"},{"bike_id":"2358b47f-21f9-4b9e-9418-009008a43b31","system_id":"levelo_inurba_marseille","lat":43.30293,"lon":5.36868,"is_reserved":false,"is_disabled":false,"rental_uris":{"android":"levelo://app?vid=2358b47f-21f9-4b9e-9418-009008a43b31","ios":"levelo://app?vid=2358b47f-21f9-4b9e-9418-009008a43b31"},"vehicle_type_id":"4","last_reported":1776888210,"current_range_meters":8000,"station_id":"ce4bgqh2rcd13ifvqc5g","pricing_plan_id":"cebpf4jnsgd1na2vs0mg"},{"bike_id":"2ff0d6f6-b845-4f82-a480-76928c2907d2","system_id":"levelo_inurba_marseille","lat":43.27578,"lon":5.38414,"is_reserved":false,"is_disabled":false,"rental_uris":{"android":"levelo://app?vid=2ff0d6f6-b845-4f82-a480-76928c2907d2","ios":"levelo://app?vid=2ff0d6f6-b845-4f82-a480-76928c2907d2"},"vehicle_type_id":"4","last_reported":1776888210,"current_range_meters":8000,"station_id":"ce4bhh92rcd13ifvqfi0","pricing_plan_id":"cebpf4jnsgd1na2vs0mg"},{"bike_id":"d029b96e-b789-40db-b6cf-9ba9a983048f","system_id":"levelo_inurba_marseille","lat":43.30117,"lon":5.38795,"is_reserved":false,"is_disabled":false,"rental_uris":{"android":"levelo://app?vid=d029b96e-b789-40db-b6cf-9ba9a983048f","ios":"levelo://app?vid=d029b96e-b789-40db-b6cf-9ba9a983048f"},"vehicle_type_id":"4","last_reported":1776888210,"current_range_meters":8000,"station_id":"ce4bghh2rcd13ifvqb60","pricing_plan_id":"cebpf4jnsgd1na2vs0mg"},{"bike_id":"f8d46f57-68ae-42a5-9479-ae67d8834276","system_id":"levelo_inurba_marseille","lat":43.30022,"lon":5.3705,"is_reserved":false,"is_disabled":false,"rental_uris":{"android":"levelo://app?vid=f8d46f57-68ae-42a5-9479-ae67d8834276","ios":"levelo://app?vid=f8d46f57-68ae-42a5-9479-ae67d8834276"},"vehicle_type_id":"4","last_reported":1776888210,"current_range_meters":8000,"station_id":"","pricing_plan_id":"cebpf4jnsgd1na2vs0mg"},{"bike_id":"98f62dc9-0b50-4f3b-93e9-85e5ac18f5cc","system_id":"levelo_inurba_marseille","lat":43.28664,"lon":5.37076,"is_reserved":false,"is_disabled":false,"rental_uris":{"android":"levelo://app?vid=98f62dc9-0b50-4f3b-93e9-85e5ac18f5cc","ios":"levelo://app?vid=98f62dc9-0b50-4f3b-93e9-85e5ac18f5cc"},"vehicle_type_id":"4","last_reported":1776888210,"current_range_meters":8000,"station_id":"","pricing_plan_id":"cebpf4jnsgd1na2vs0mg"},{"bike_id":"e61bc510-c262-4934-8f35-de99fc50a31e","system_id":"levelo_inurba_marseille","lat":43.30147,"lon":5.39855,"is_reserved":false,"is_disabled":false,"rental_uris":{"android":"levelo://app?vid=e61bc510-c262-4934-8f35-de99fc50a31e","ios":"levelo://app?vid=e61bc510-c262-4934-8f35-de99fc50a31e"},"vehicle_type_id":"4","last_reported":1776888210,"current_range_meters":8000,"station_id":"ce4bh0h2rcd13ifvqd40","pricing_plan_id":"cebpf4jnsgd1na2vs0mg"},{"bike_id":"2ac15ea7-1904-4a69-9f5e-f4cb7754354f","system_id":"levelo_inurba_marseille","lat":43.24073,"lon":5.37751,"is_reserved":false,"is_disabled":false,"rental_uris":{"android":"levelo://app?vid=2ac15ea7-1904-4a69-9f5e-f4cb7754354f","ios":"levelo://app?vid=2ac15ea7-1904-4a69-9f5e-f4cb7754354f"},"vehicle_type_id":"4","last_reported":1776888210,"current_range_meters":8000,"station_id":"ce4bhnp2rcd13ifvqgvg","pricing_plan_id":"cebpf4jnsgd1na2vs0mg"},{"bike_id":"63a24dc5-f70c-4b89-8b92-61b0a21398b5","system_id":"levelo_inurba_marseille","lat":43.29504,"lon":5.39387,"is_reserved":false,"is_disabled":false,"rental_uris":{"android":"levelo://app?vid=63a24dc5-f70c-4b89-8b92-61b0a21398b5","ios":"levelo://app?vid=63a24dc5-f70c-4b89-8b92-61b0a21398b5"},"vehicle_type_id":"4","last_reported":1776888210,"current_range_meters":8000,"station_id":"ce4bh292rcd13ifvqdf0","pricing_plan_id":"cebpf4jnsgd1na2vs0mg"},{"bike_id":"ee892214-1b64-4c0b-825a-e2c528ef2745","system_id":"levelo_inurba_marseille","lat":43.31531,"lon":5.38058,"is_reserved":false,"is_disabled":false,"rental_uris":{"android":"levelo://app?vid=ee892214-1b64-4c0b-825a-e2c528ef2745","ios":"levelo://app?vid=ee892214-1b64-4c0b-825a-e2c528ef2745"},"vehicle_type_id":"4","last_reported":1776888210,"current_range_meters":8000,"station_id":"ce4bhsp2rcd13ifvqi50","pricing_plan_id":"cebpf4jnsgd1na2vs0mg"},{"bike_id":"edb1f295-41c7-4945-b328-16b9a608d18e","system_id":"levelo_inurba_marseille","lat":43.25816,"lon":5.39431,"is_reserved":false,"is_disabled":false,"rental_uris":{"android":"levelo://app?vid=edb1f295-41c7-4945-b328-16b9a608d18e","ios":"levelo://app?vid=edb1f295-41c7-4945-b328-16b9a608d18e"},"vehicle_type_id":"4","last_reported":1776888210,"current_range_meters":8000,"station_id":"ce4bhip2rcd13ifvqft0","pricing_plan_id":"cebpf4jnsgd1na2vs0mg"},{"bike_id":"aa3d5a99-64bb-4996-8662-bfd3c15dc0fe","system_id":"levelo_inurba_marseille","lat":43.30139,"lon":5.3988,"is_reserved":false,"is_disabled":false,"rental_uris":{"android":"levelo://app?vid=aa3d5a99-64bb-4996-8662-bfd3c15dc0fe","ios":"levelo://app?vid=aa3d5a99-64bb-4996-8662-bfd3c15dc0fe"},"vehicle_type_id":"4","last_reported":1776888210,"current_range_meters":8000,"station_id":"ce4bh0h2rcd13ifvqd40","pricing_plan_id":"cebpf4jnsgd1na2vs0mg"},{"bike_id":"11950379-0406-4543-8366-59097d9cc211","system_id":"levelo_inurba_marseille","lat":43.29532,"lon":5.38536,"is_reserved":false,"is_disabled":false,"rental_uris":{"android":"levelo://app?vid=11950379-0406-4543-8366-59097d9cc211","ios":"levelo://app?vid=11950379-0406-4543-8366-59097d9cc211"},"vehicle_type_id":"4","last_reported":1776888210,"current_range_meters":8400,"station_id":"ce4bgih2rcd13ifvqba0","pricing_plan_id":"cebpf4jnsgd1na2vs0mg"},{"bike_id":"dd95c1fb-0934-4478-83c0-e83a5e6a8527","system_id":"levelo_inurba_marseille","lat":43.29922,"lon":5.38135,"is_reserved":false,"is_disabled":false,"rental_uris":{"android":"levelo://app?vid=dd95c1fb-0934-4478-83c0-e83a5e6a8527","ios":"levelo://app?vid=dd95c1fb-0934-4478-83c0-e83a5e6a8527"},"vehicle_type_id":"4","last_reported":1776888210,"current_range_meters":8400,"station_id":"ce4bgj12rcd13ifvqbc0","pricing_plan_id":"cebpf4jnsgd1na2vs0mg"},{"bike_id":"09012acd-7e2a-4e46-b00e-3df38d87fafc","system_id":"levelo_inurba_marseille","lat":43.24861,"lon":5.40639,"is_reserved":false,"is_disabled":false,"rental_uris":{"android":"levelo://app?vid=09012acd-7e2a-4e46-b00e-3df38d87fafc","ios":"levelo://app?vid=09012acd-7e2a-4e46-b00e-3df38d87fafc"},"vehicle_type_id":"4","last_reported":1776888210,"current_range_meters":8400,"station_id":"","pricing_plan_id":"cebpf4jnsgd1na2vs0mg"},{"bike_id":"46a8898e-e5cc-4df4-ac09-f68a4ebd52a8","system_id":"levelo_inurba_marseille","lat":43.30126,"lon":5.38791,"is_reserved":false,"is_disabled":false,"rental_uris":{"android":"levelo://app?vid=46a8898e-e5cc-4df4-ac09-f68a4ebd52a8","ios":"levelo://app?vid=46a8898e-e5cc-4df4-ac09-f68a4ebd52a8"},"vehicle_type_id":"4","last_reported":1776888210,"current_range_meters":8400,"station_id":"ce4bghh2rcd13ifvqb60","pricing_plan_id":"cebpf4jnsgd1na2vs0mg"},{"bike_id":"897ccc75-3e6d-4af3-94b6-7b8960c9a5e7","system_id":"levelo_inurba_marseille","lat":43.30655,"lon":5.4008,"is_reserved":false,"is_disabled":false,"rental_uris":{"android":"levelo://app?vid=897ccc75-3e6d-4af3-94b6-7b8960c9a5e7","ios":"levelo://app?vid=897ccc75-3e6d-4af3-94b6-7b8960c9a5e7"},"vehicle_type_id":"4","last_reported":1776888210,"current_range_meters":8400,"station_id":"ce4bh112rcd13ifvqda0","pricing_plan_id":"cebpf4jnsgd1na2vs0mg"},{"bike_id":"16f7fe35-694a-4eb9-9cc6-4679694d07e2","system_id":"levelo_inurba_marseille","lat":43.31249,"lon":5.37922,"is_reserved":false,"is_disabled":false,"rental_uris":{"android":"levelo://app?vid=16f7fe35-694a-4eb9-9cc6-4679694d07e2","ios":"levelo://app?vid=16f7fe35-694a-4eb9-9cc6-4679694d07e2"},"vehicle_type_id":"4","last_reported":1776888210,"current_range_meters":8400,"station_id":"","pricing_plan_id":"cebpf4jnsgd1na2vs0mg"},{"bike_id":"fd090187-b3cd-49e0-82c6-b3817cf3be1b","system_id":"levelo_inurba_marseille","lat":43.29866,"lon":5.38589,"is_reserved":false,"is_disabled":false,"rental_uris":{"android":"levelo://app?vid=fd090187-b3cd-49e0-82c6-b3817cf3be1b","ios":"levelo://app?vid=fd090187-b3cd-49e0-82c6-b3817cf3be1b"},"vehicle_type_id":"4","last_reported":1776888210,"current_range_meters":8400,"station_id":"","pricing_plan_id":"cebpf4jnsgd1na2vs0mg"},{"bike_id":"d7a7f8c1-390e-47a2-9d08-34bb7fc6e8a1","system_id":"levelo_inurba_marseille","lat":43.2756,"lon":5.3842,"is_reserved":false,"is_disabled":false,"rental_uris":{"android":"levelo://app?vid=d7a7f8c1-390e-47a2-9d08-34bb7fc6e8a1","ios":"levelo://app?vid=d7a7f8c1-390e-47a2-9d08-34bb7fc6e8a1"},"vehicle_type_id":"4","last_reported":1776888210,"current_range_meters":8400,"station_id":"ce4bhh92rcd13ifvqfi0","pricing_plan_id":"cebpf4jnsgd1na2vs0mg"},{"bike_id":"226ece2b-87fc-494b-b9b1-29d4f3a23456","system_id":"levelo_inurba_marseille","lat":43.28325,"lon":5.4262,"is_reserved":false,"is_disabled":false,"rental_uris":{"android":"levelo://app?vid=226ece2b-87fc-494b-b9b1-29d4f3a23456","ios":"levelo://app?vid=226ece2b-87fc-494b-b9b1-29d4f3a23456"},"vehicle_type_id":"4","last_reported":1776888210,"current_range_meters":8400,"station_id":"","pricing_plan_id":"cebpf4jnsgd1na2vs0mg"},{"bike_id":"ee3ba639-7cd4-4202-88d7-2368eb8cac92","system_id":"levelo_inurba_marseille","lat":43.2992,"lon":5.37489,"is_reserved":false,"is_disabled":false,"rental_uris":{"android":"levelo://app?vid=ee3ba639-7cd4-4202-88d7-2368eb8cac92","ios":"levelo://app?vid=ee3ba639-7cd4-4202-88d7-2368eb8cac92"},"vehicle_type_id":"4","last_reported":1776888210,"current_range_meters":8400,"station_id":"ce4bgjh2rcd13ifvqbg0","pricing_plan_id":"cebpf4jnsgd1na2vs0mg"},{"bike_id":"633f0f51-cd95-411c-a280-0b97188c6e3f","system_id":"levelo_inurba_marseille","lat":43.23959,"lon":5.36643,"is_reserved":false,"is_disabled":false,"rental_uris":{"android":"levelo://app?vid=633f0f51-cd95-411c-a280-0b97188c6e3f","ios":"levelo://app?vid=633f0f51-cd95-411c-a280-0b97188c6e3f"},"vehicle_type_id":"4","last_reported":1776888210,"current_range_meters":8400,"station_id":"ce4bhi12rcd13ifvqfp0","pricing_plan_id":"cebpf4jnsgd1na2vs0mg"},{"bike_id":"27333076-abb5-4a9b-ac59-89b1742839cf","system_id":"levelo_inurba_marseille","lat":43.28727,"lon":5.37948,"is_reserved":false,"is_disabled":true,"rental_uris":{"android":"levelo://app?vid=27333076-abb5-4a9b-ac59-89b1742839cf","ios":"levelo://app?vid=27333076-abb5-4a9b-ac59-89b1742839cf"},"vehicle_type_id":"4","last_reported":1776888210,"current_range_meters":8400,"station_id":"ce4bh9p2rcd13ifvqec0","pricing_plan_id":"cebpf4jnsgd1na2vs0mg"},{"bike_id":"19145919-a225-4afd-a698-ef808e1ee6ee","system_id":"levelo_inurba_marseille","lat":43.29794,"lon":5.38096,"is_reserved":false,"is_disabled":false,"rental_uris":{"android":"levelo://app?vid=19145919-a225-4afd-a698-ef808e1ee6ee","ios":"levelo://app?vid=19145919-a225-4afd-a698-ef808e1ee6ee"},"vehicle_type_id":"4","last_reported":1776888210,"current_range_meters":8400,"station_id":"ce4bgip2rcd13ifvqbb0","pricing_plan_id":"cebpf4jnsgd1na2vs0mg"},{"bike_id":"7c2d4cbd-4710-4158-8d5e-3ef9174bf26f","system_id":"levelo_inurba_marseille","lat":43.28694,"lon":5.46688,"is_reserved":false,"is_disabled":true,"rental_uris":{"android":"levelo://app?vid=7c2d4cbd-4710-4158-8d5e-3ef9174bf26f","ios":"levelo://app?vid=7c2d4cbd-4710-4158-8d5e-3ef9174bf26f"},"vehicle_type_id":"4","last_reported":1776888210,"current_range_meters":8400,"station_id":"","pricing_plan_id":"cebpf4jnsgd1na2vs0mg"},{"bike_id":"772652df-39a3-4a7d-ab76-86683fdc6511","system_id":"levelo_inurba_marseille","lat":43.28928,"lon":5.36883,"is_reserved":false,"is_disabled":false,"rental_uris":{"android":"levelo://app?vid=772652df-39a3-4a7d-ab76-86683fdc6511","ios":"levelo://app?vid=772652df-39a3-4a7d-ab76-86683fdc6511"},"vehicle_type_id":"4","last_reported":1776888210,"current_range_meters":8400,"station_id":"","pricing_plan_id":"cebpf4jnsgd1na2vs0mg"},{"bike_id":"7bcf589d-1485-482c-947e-3b81d1633d3f","system_id":"levelo_inurba_marseille","lat":43.26366,"lon":5.41083,"is_reserved":false,"is_disabled":false,"rental_uris":{"android":"levelo://app?vid=7bcf589d-1485-482c-947e-3b81d1633d3f","ios":"levelo://app?vid=7bcf589d-1485-482c-947e-3b81d1633d3f"},"vehicle_type_id":"4","last_reported":1776888210,"current_range_meters":8400,"station_id":"st_d4e5ca6na9uc73bfl5fg","pricing_plan_id":"cebpf4jnsgd1na2vs0mg"},{"bike_id":"6f061c2d-e294-44c5-a556-1fdc3d57ab50","system_id":"levelo_inurba_marseille","lat":43.31717,"lon":5.40472,"is_reserved":false,"is_disabled":false,"rental_uris":{"android":"levelo://app?vid=6f061c2d-e294-44c5-a556-1fdc3d57ab50","ios":"levelo://app?vid=6f061c2d-e294-44c5-a556-1fdc3d57ab50"},"vehicle_type_id":"4","last_reported":1776888210,"current_range_meters":8800,"station_id":"ce4bh012rcd13ifvqd00","pricing_plan_id":"cebpf4jnsgd1na2vs0mg"},{"bike_id":"f12e7adc-c081-4652-9247-8637f1a7e34a","system_id":"levelo_inurba_marseille","lat":43.26563,"lon":5.39024,"is_reserved":false,"is_disabled":false,"rental_uris":{"android":"levelo://app?vid=f12e7adc-c081-4652-9247-8637f1a7e34a","ios":"levelo://app?vid=f12e7adc-c081-4652-9247-8637f1a7e34a"},"vehicle_type_id":"4","last_reported":1776888210,"current_range_meters":8800,"station_id":"ce4bhe12rcd13ifvqf30","pricing_plan_id":"cebpf4jnsgd1na2vs0mg"},{"bike_id":"e8a5421b-3d17-47cb-b961-abed3974c1b1","system_id":"levelo_inurba_marseille","lat":43.25826,"lon":5.39432,"is_reserved":false,"is_disabled":false,"rental_uris":{"android":"levelo://app?vid=e8a5421b-3d17-47cb-b961-abed3974c1b1","ios":"levelo://app?vid=e8a5421b-3d17-47cb-b961-abed3974c1b1"},"vehicle_type_id":"4","last_reported":1776888210,"current_range_meters":8800,"station_id":"ce4bhip2rcd13ifvqft0","pricing_plan_id":"cebpf4jnsgd1na2vs0mg"},{"bike_id":"d55b7166-12de-4bdf-8b05-1755f1067768","system_id":"levelo_inurba_marseille","lat":43.301,"lon":5.39848,"is_reserved":false,"is_disabled":false,"rental_uris":{"android":"levelo://app?vid=d55b7166-12de-4bdf-8b05-1755f1067768","ios":"levelo://app?vid=d55b7166-12de-4bdf-8b05-1755f1067768"},"vehicle_type_id":"4","last_reported":1776888210,"current_range_meters":8800,"station_id":"ce4bh0h2rcd13ifvqd40","pricing_plan_id":"cebpf4jnsgd1na2vs0mg"},{"bike_id":"500638d0-cf5c-4061-b413-99b5dc6f2377","system_id":"levelo_inurba_marseille","lat":43.27452,"lon":5.4248,"is_reserved":false,"is_disabled":false,"rental_uris":{"android":"levelo://app?vid=500638d0-cf5c-4061-b413-99b5dc6f2377","ios":"levelo://app?vid=500638d0-cf5c-4061-b413-99b5dc6f2377"},"vehicle_type_id":"4","last_reported":1776888210,"current_range_meters":8800,"station_id":"","pricing_plan_id":"cebpf4jnsgd1na2vs0mg"},{"bike_id":"4cd4bc1d-308f-4a56-ac8e-bdea4ad9bef4","system_id":"levelo_inurba_marseille","lat":43.29899,"lon":5.39713,"is_reserved":false,"is_disabled":true,"rental_uris":{"android":"levelo://app?vid=4cd4bc1d-308f-4a56-ac8e-bdea4ad9bef4","ios":"levelo://app?vid=4cd4bc1d-308f-4a56-ac8e-bdea4ad9bef4"},"vehicle_type_id":"4","last_reported":1776888210,"current_range_meters":8800,"station_id":"ce4bh0h2rcd13ifvqd50","pricing_plan_id":"cebpf4jnsgd1na2vs0mg"},{"bike_id":"466b9cd9-0deb-4b9b-b01a-72f0529a774e","system_id":"levelo_inurba_marseille","lat":43.283697,"lon":5.373868,"is_reserved":false,"is_disabled":true,"rental_uris":{"android":"levelo://app?vid=466b9cd9-0deb-4b9b-b01a-72f0529a774e","ios":"levelo://app?vid=466b9cd9-0deb-4b9b-b01a-72f0529a774e"},"vehicle_type_id":"4","last_reported":1776888210,"current_range_meters":8800,"station_id":"ce4bh412rcd13ifvqds0","pricing_plan_id":"cebpf4jnsgd1na2vs0mg"},{"bike_id":"1c21b5e4-18ba-4d77-b990-0019b8294ddb","system_id":"levelo_inurba_marseille","lat":43.26553,"lon":5.39645,"is_reserved":false,"is_disabled":false,"rental_uris":{"android":"levelo://app?vid=1c21b5e4-18ba-4d77-b990-0019b8294ddb","ios":"levelo://app?vid=1c21b5e4-18ba-4d77-b990-0019b8294ddb"},"vehicle_type_id":"4","last_reported":1776888210,"current_range_meters":8800,"station_id":"","pricing_plan_id":"cebpf4jnsgd1na2vs0mg"},{"bike_id":"f22fab7c-d9ef-452e-9e0a-f53fca1bb2ad","system_id":"levelo_inurba_marseille","lat":43.29552,"lon":5.38994,"is_reserved":false,"is_disabled":false,"rental_uris":{"android":"levelo://app?vid=f22fab7c-d9ef-452e-9e0a-f53fca1bb2ad","ios":"levelo://app?vid=f22fab7c-d9ef-452e-9e0a-f53fca1bb2ad"},"vehicle_type_id":"4","last_reported":1776888210,"current_range_meters":8800,"station_id":"","pricing_plan_id":"cebpf4jnsgd1na2vs0mg"},{"bike_id":"b6d0ba7f-995a-4330-bda6-34dd7197caa9","system_id":"levelo_inurba_marseille","lat":43.29033,"lon":5.38632,"is_reserved":false,"is_disabled":false,"rental_uris":{"android":"levelo://app?vid=b6d0ba7f-995a-4330-bda6-34dd7197caa9","ios":"levelo://app?vid=b6d0ba7f-995a-4330-bda6-34dd7197caa9"},"vehicle_type_id":"4","last_reported":1776888210,"current_range_meters":8800,"station_id":"ce4bh4p2rcd13ifvqe0g","pricing_plan_id":"cebpf4jnsgd1na2vs0mg"},{"bike_id":"5710d7ee-d739-4902-a8de-7c8298222b96","system_id":"levelo_inurba_marseille","lat":43.27991,"lon":5.41656,"is_reserved":false,"is_disabled":false,"rental_uris":{"android":"levelo://app?vid=5710d7ee-d739-4902-a8de-7c8298222b96","ios":"levelo://app?vid=5710d7ee-d739-4902-a8de-7c8298222b96"},"vehicle_type_id":"4","last_reported":1776888210,"current_range_meters":8800,"station_id":"ce4bho12rcd13ifvqh1g","pricing_plan_id":"cebpf4jnsgd1na2vs0mg"},{"bike_id":"a56889e7-37d7-487e-a661-9c8461fe50da","system_id":"levelo_inurba_marseille","lat":43.30923,"lon":5.36849,"is_reserved":false,"is_disabled":false,"rental_uris":{"android":"levelo://app?vid=a56889e7-37d7-487e-a661-9c8461fe50da","ios":"levelo://app?vid=a56889e7-37d7-487e-a661-9c8461fe50da"},"vehicle_type_id":"4","last_reported":1776888210,"current_range_meters":8800,"station_id":"ce4bgn92rcd13ifvqbvg","pricing_plan_id":"cebpf4jnsgd1na2vs0mg"},{"bike_id":"3f3eeaf4-c83e-41ed-9fb2-dc86488083f7","system_id":"levelo_inurba_marseille","lat":43.30327,"lon":5.4044,"is_reserved":false,"is_disabled":false,"rental_uris":{"android":"levelo://app?vid=3f3eeaf4-c83e-41ed-9fb2-dc86488083f7","ios":"levelo://app?vid=3f3eeaf4-c83e-41ed-9fb2-dc86488083f7"},"vehicle_type_id":"4","last_reported":1776888210,"current_range_meters":8800,"station_id":"ce4bh012rcd13ifvqd10","pricing_plan_id":"cebpf4jnsgd1na2vs0mg"},{"bike_id":"25931435-472d-4946-9b9a-fc67e50f018d","system_id":"levelo_inurba_marseille","lat":43.2303,"lon":5.44489,"is_reserved":false,"is_disabled":false,"rental_uris":{"android":"levelo://app?vid=25931435-472d-4946-9b9a-fc67e50f018d","ios":"levelo://app?vid=25931435-472d-4946-9b9a-fc67e50f018d"},"vehicle_type_id":"4","last_reported":1776888210,"current_range_meters":8800,"station_id":"","pricing_plan_id":"cebpf4jnsgd1na2vs0mg"},{"bike_id":"82d246c1-9021-4519-a564-3635d2720dbc","system_id":"levelo_inurba_marseille","lat":43.30857,"lon":5.39642,"is_reserved":false,"is_disabled":false,"rental_uris":{"android":"levelo://app?vid=82d246c1-9021-4519-a564-3635d2720dbc","ios":"levelo://app?vid=82d246c1-9021-4519-a564-3635d2720dbc"},"vehicle_type_id":"4","last_reported":1776888210,"current_range_meters":8800,"station_id":"ce4bh012rcd13ifvqcv0","pricing_plan_id":"cebpf4jnsgd1na2vs0mg"},{"bike_id":"aaae48e0-0a80-48dd-82eb-b7e9afc8def9","system_id":"levelo_inurba_marseille","lat":43.28847,"lon":5.35867,"is_reserved":false,"is_disabled":false,"rental_uris":{"android":"levelo://app?vid=aaae48e0-0a80-48dd-82eb-b7e9afc8def9","ios":"levelo://app?vid=aaae48e0-0a80-48dd-82eb-b7e9afc8def9"},"vehicle_type_id":"4","last_reported":1776888210,"current_range_meters":8800,"station_id":"ce4bhb12rcd13ifvqem0","pricing_plan_id":"cebpf4jnsgd1na2vs0mg"},{"bike_id":"43551c7e-2e91-49bb-b9fd-9391ff299d13","system_id":"levelo_inurba_marseille","lat":43.23957,"lon":5.36639,"is_reserved":false,"is_disabled":false,"rental_uris":{"android":"levelo://app?vid=43551c7e-2e91-49bb-b9fd-9391ff299d13","ios":"levelo://app?vid=43551c7e-2e91-49bb-b9fd-9391ff299d13"},"vehicle_type_id":"4","last_reported":1776888210,"current_range_meters":8800,"station_id":"ce4bhi12rcd13ifvqfp0","pricing_plan_id":"cebpf4jnsgd1na2vs0mg"},{"bike_id":"f3f2b1b8-361c-439d-af6c-144b8f2b403b","system_id":"levelo_inurba_marseille","lat":43.30888,"lon":5.39644,"is_reserved":false,"is_disabled":false,"rental_uris":{"android":"levelo://app?vid=f3f2b1b8-361c-439d-af6c-144b8f2b403b","ios":"levelo://app?vid=f3f2b1b8-361c-439d-af6c-144b8f2b403b"},"vehicle_type_id":"4","last_reported":1776888210,"current_range_meters":8800,"station_id":"ce4bh012rcd13ifvqcv0","pricing_plan_id":"cebpf4jnsgd1na2vs0mg"},{"bike_id":"d3dc02e0-8ede-4c6d-90d1-aca77e4c5e9f","system_id":"levelo_inurba_marseille","lat":43.25349,"lon":5.42165,"is_reserved":false,"is_disabled":false,"rental_uris":{"android":"levelo://app?vid=d3dc02e0-8ede-4c6d-90d1-aca77e4c5e9f","ios":"levelo://app?vid=d3dc02e0-8ede-4c6d-90d1-aca77e4c5e9f"},"vehicle_type_id":"4","last_reported":1776888210,"current_range_meters":9200,"station_id":"st_d2m65c5bi1j21697t3ng","pricing_plan_id":"cebpf4jnsgd1na2vs0mg"},{"bike_id":"058df6f1-5b79-418b-ba9d-953abb9995c4","system_id":"levelo_inurba_marseille","lat":43.29109,"lon":5.38135,"is_reserved":false,"is_disabled":false,"rental_uris":{"android":"levelo://app?vid=058df6f1-5b79-418b-ba9d-953abb9995c4","ios":"levelo://app?vid=058df6f1-5b79-418b-ba9d-953abb9995c4"},"vehicle_type_id":"4","last_reported":1776888210,"current_range_meters":9200,"station_id":"ce4bh512rcd13ifvqe2g","pricing_plan_id":"cebpf4jnsgd1na2vs0mg"},{"bike_id":"7815ddfa-84fd-4ae5-b67a-cd6d6508af90","system_id":"levelo_inurba_marseille","lat":43.28056,"lon":5.36905,"is_reserved":false,"is_disabled":false,"rental_uris":{"android":"levelo://app?vid=7815ddfa-84fd-4ae5-b67a-cd6d6508af90","ios":"levelo://app?vid=7815ddfa-84fd-4ae5-b67a-cd6d6508af90"},"vehicle_type_id":"4","last_reported":1776888210,"current_range_meters":9200,"station_id":"ce4bha12rcd13ifvqef0","pricing_plan_id":"cebpf4jnsgd1na2vs0mg"},{"bike_id":"46be8457-d960-48a6-ad5b-f789ef8076c1","system_id":"levelo_inurba_marseille","lat":43.29649,"lon":5.37817,"is_reserved":false,"is_disabled":false,"rental_uris":{"android":"levelo://app?vid=46be8457-d960-48a6-ad5b-f789ef8076c1","ios":"levelo://app?vid=46be8457-d960-48a6-ad5b-f789ef8076c1"},"vehicle_type_id":"4","last_reported":1776888210,"current_range_meters":9200,"station_id":"","pricing_plan_id":"cebpf4jnsgd1na2vs0mg"},{"bike_id":"97563811-de7e-4fb9-bbc8-59c1cb66a0eb","system_id":"levelo_inurba_marseille","lat":43.243839,"lon":5.370514,"is_reserved":false,"is_disabled":false,"rental_uris":{"android":"levelo://app?vid=97563811-de7e-4fb9-bbc8-59c1cb66a0eb","ios":"levelo://app?vid=97563811-de7e-4fb9-bbc8-59c1cb66a0eb"},"vehicle_type_id":"4","last_reported":1776888210,"current_range_meters":9200,"station_id":"ce4bhhh2rcd13ifvqfk0","pricing_plan_id":"cebpf4jnsgd1na2vs0mg"},{"bike_id":"0923929c-d272-4fa1-a3d9-8f4c7a6f830d","system_id":"levelo_inurba_marseille","lat":43.30813,"lon":5.38206,"is_reserved":false,"is_disabled":false,"rental_uris":{"android":"levelo://app?vid=0923929c-d272-4fa1-a3d9-8f4c7a6f830d","ios":"levelo://app?vid=0923929c-d272-4fa1-a3d9-8f4c7a6f830d"},"vehicle_type_id":"4","last_reported":1776888210,"current_range_meters":9200,"station_id":"ce4bgt12rcd13ifvqce0","pricing_plan_id":"cebpf4jnsgd1na2vs0mg"},{"bike_id":"205eefac-f379-49f9-b02e-ad048a493b05","system_id":"levelo_inurba_marseille","lat":43.27144,"lon":5.42534,"is_reserved":false,"is_disabled":false,"rental_uris":{"android":"levelo://app?vid=205eefac-f379-49f9-b02e-ad048a493b05","ios":"levelo://app?vid=205eefac-f379-49f9-b02e-ad048a493b05"},"vehicle_type_id":"4","last_reported":1776888210,"current_range_meters":9200,"station_id":"","pricing_plan_id":"cebpf4jnsgd1na2vs0mg"},{"bike_id":"745efcb8-73c4-4b8c-9732-ada2e0fa7c05","system_id":"levelo_inurba_marseille","lat":43.2464,"lon":5.382,"is_reserved":false,"is_disabled":false,"rental_uris":{"android":"levelo://app?vid=745efcb8-73c4-4b8c-9732-ada2e0fa7c05","ios":"levelo://app?vid=745efcb8-73c4-4b8c-9732-ada2e0fa7c05"},"vehicle_type_id":"4","last_reported":1776888210,"current_range_meters":9200,"station_id":"ce4bhih2rcd13ifvqfr0","pricing_plan_id":"cebpf4jnsgd1na2vs0mg"},{"bike_id":"0f5c90b0-33e2-49d6-8403-cf3a4cabbf77","system_id":"levelo_inurba_marseille","lat":43.29313,"lon":5.37181,"is_reserved":false,"is_disabled":false,"rental_uris":{"android":"levelo://app?vid=0f5c90b0-33e2-49d6-8403-cf3a4cabbf77","ios":"levelo://app?vid=0f5c90b0-33e2-49d6-8403-cf3a4cabbf77"},"vehicle_type_id":"4","last_reported":1776888210,"current_range_meters":9200,"station_id":"ce4bgh92rcd13ifvqb40","pricing_plan_id":"cebpf4jnsgd1na2vs0mg"},{"bike_id":"f282d26b-e3f9-4251-85bc-094e3dc5238a","system_id":"levelo_inurba_marseille","lat":43.29968,"lon":5.38494,"is_reserved":false,"is_disabled":false,"rental_uris":{"android":"levelo://app?vid=f282d26b-e3f9-4251-85bc-094e3dc5238a","ios":"levelo://app?vid=f282d26b-e3f9-4251-85bc-094e3dc5238a"},"vehicle_type_id":"4","last_reported":1776888210,"current_range_meters":9200,"station_id":"ce4bgj92rcd13ifvqbd0","pricing_plan_id":"cebpf4jnsgd1na2vs0mg"},{"bike_id":"8331af0f-100e-470f-9e36-7657fa113fe2","system_id":"levelo_inurba_marseille","lat":43.31223,"lon":5.36891,"is_reserved":false,"is_disabled":false,"rental_uris":{"android":"levelo://app?vid=8331af0f-100e-470f-9e36-7657fa113fe2","ios":"levelo://app?vid=8331af0f-100e-470f-9e36-7657fa113fe2"},"vehicle_type_id":"4","last_reported":1776888210,"current_range_meters":9200,"station_id":"ce4bgl92rcd13ifvqbq0","pricing_plan_id":"cebpf4jnsgd1na2vs0mg"},{"bike_id":"52d848d3-e124-40a2-855d-fb7f07415aa4","system_id":"levelo_inurba_marseille","lat":43.28409,"lon":5.37528,"is_reserved":false,"is_disabled":true,"rental_uris":{"android":"levelo://app?vid=52d848d3-e124-40a2-855d-fb7f07415aa4","ios":"levelo://app?vid=52d848d3-e124-40a2-855d-fb7f07415aa4"},"vehicle_type_id":"4","last_reported":1776888210,"current_range_meters":9200,"station_id":"ce4bh412rcd13ifvqds0","pricing_plan_id":"cebpf4jnsgd1na2vs0mg"},{"bike_id":"50a4937c-b4e2-4e00-bb97-635b356fe48c","system_id":"levelo_inurba_marseille","lat":43.29194,"lon":5.35812,"is_reserved":false,"is_disabled":false,"rental_uris":{"android":"levelo://app?vid=50a4937c-b4e2-4e00-bb97-635b356fe48c","ios":"levelo://app?vid=50a4937c-b4e2-4e00-bb97-635b356fe48c"},"vehicle_type_id":"4","last_reported":1776888210,"current_range_meters":9200,"station_id":"ce4bhb12rcd13ifvqel0","pricing_plan_id":"cebpf4jnsgd1na2vs0mg"},{"bike_id":"9c3677d0-627f-49f8-bd9c-64ba96ef4fce","system_id":"levelo_inurba_marseille","lat":43.2847,"lon":5.48416,"is_reserved":false,"is_disabled":false,"rental_uris":{"android":"levelo://app?vid=9c3677d0-627f-49f8-bd9c-64ba96ef4fce","ios":"levelo://app?vid=9c3677d0-627f-49f8-bd9c-64ba96ef4fce"},"vehicle_type_id":"4","last_reported":1776888210,"current_range_meters":9200,"station_id":"","pricing_plan_id":"cebpf4jnsgd1na2vs0mg"},{"bike_id":"45895612-36eb-4b08-8d02-29b1724dc29d","system_id":"levelo_inurba_marseille","lat":43.29302,"lon":5.37169,"is_reserved":false,"is_disabled":false,"rental_uris":{"android":"levelo://app?vid=45895612-36eb-4b08-8d02-29b1724dc29d","ios":"levelo://app?vid=45895612-36eb-4b08-8d02-29b1724dc29d"},"vehicle_type_id":"4","last_reported":1776888210,"current_range_meters":9200,"station_id":"ce4bgh92rcd13ifvqb40","pricing_plan_id":"cebpf4jnsgd1na2vs0mg"},{"bike_id":"88e80028-38c4-43f5-8893-e02d090e3ace","system_id":"levelo_inurba_marseille","lat":43.29531,"lon":5.38541,"is_reserved":false,"is_disabled":false,"rental_uris":{"android":"levelo://app?vid=88e80028-38c4-43f5-8893-e02d090e3ace","ios":"levelo://app?vid=88e80028-38c4-43f5-8893-e02d090e3ace"},"vehicle_type_id":"4","last_reported":1776888210,"current_range_meters":9200,"station_id":"ce4bgih2rcd13ifvqba0","pricing_plan_id":"cebpf4jnsgd1na2vs0mg"},{"bike_id":"acb21e01-eb23-4757-a0b0-d28719e33c48","system_id":"levelo_inurba_marseille","lat":43.29022,"lon":5.39855,"is_reserved":false,"is_disabled":false,"rental_uris":{"android":"levelo://app?vid=acb21e01-eb23-4757-a0b0-d28719e33c48","ios":"levelo://app?vid=acb21e01-eb23-4757-a0b0-d28719e33c48"},"vehicle_type_id":"4","last_reported":1776888210,"current_range_meters":9200,"station_id":"","pricing_plan_id":"cebpf4jnsgd1na2vs0mg"},{"bike_id":"46335186-6bd7-4461-9e78-da17046593c8","system_id":"levelo_inurba_marseille","lat":43.28443,"lon":5.38425,"is_reserved":false,"is_disabled":false,"rental_uris":{"android":"levelo://app?vid=46335186-6bd7-4461-9e78-da17046593c8","ios":"levelo://app?vid=46335186-6bd7-4461-9e78-da17046593c8"},"vehicle_type_id":"4","last_reported":1776888210,"current_range_meters":9200,"station_id":"ce4bh512rcd13ifvqe3g","pricing_plan_id":"cebpf4jnsgd1na2vs0mg"},{"bike_id":"70b9185d-ed24-4c23-b56f-d24b79b55ab8","system_id":"levelo_inurba_marseille","lat":43.29012,"lon":5.35617,"is_reserved":false,"is_disabled":false,"rental_uris":{"android":"levelo://app?vid=70b9185d-ed24-4c23-b56f-d24b79b55ab8","ios":"levelo://app?vid=70b9185d-ed24-4c23-b56f-d24b79b55ab8"},"vehicle_type_id":"4","last_reported":1776888210,"current_range_meters":9600,"station_id":"ce4bhb92rcd13ifvqen0","pricing_plan_id":"cebpf4jnsgd1na2vs0mg"},{"bike_id":"2762151c-37b3-45f3-b7d7-d3dc9aa45e78","system_id":"levelo_inurba_marseille","lat":43.30175,"lon":5.36636,"is_reserved":false,"is_disabled":false,"rental_uris":{"android":"levelo://app?vid=2762151c-37b3-45f3-b7d7-d3dc9aa45e78","ios":"levelo://app?vid=2762151c-37b3-45f3-b7d7-d3dc9aa45e78"},"vehicle_type_id":"4","last_reported":1776888210,"current_range_meters":9600,"station_id":"ce4bgrh2rcd13ifvqc8g","pricing_plan_id":"cebpf4jnsgd1na2vs0mg"},{"bike_id":"03002e38-6cc6-4266-bca3-d1a185f45181","system_id":"levelo_inurba_marseille","lat":43.2902,"lon":5.37066,"is_reserved":false,"is_disabled":false,"rental_uris":{"android":"levelo://app?vid=03002e38-6cc6-4266-bca3-d1a185f45181","ios":"levelo://app?vid=03002e38-6cc6-4266-bca3-d1a185f45181"},"vehicle_type_id":"4","last_reported":1776888210,"current_range_meters":9600,"station_id":"ce4bh5p2rcd13ifvqe4g","pricing_plan_id":"cebpf4jnsgd1na2vs0mg"},{"bike_id":"9e49397d-b15f-42ca-b438-81f289c696f0","system_id":"levelo_inurba_marseille","lat":43.2313,"lon":5.43742,"is_reserved":false,"is_disabled":true,"rental_uris":{"android":"levelo://app?vid=9e49397d-b15f-42ca-b438-81f289c696f0","ios":"levelo://app?vid=9e49397d-b15f-42ca-b438-81f289c696f0"},"vehicle_type_id":"4","last_reported":1776888210,"current_range_meters":9600,"station_id":"ce4bhmp2rcd13ifvqgog","pricing_plan_id":"cebpf4jnsgd1na2vs0mg"},{"bike_id":"68e86292-e11d-49d5-888c-58848729cc3c","system_id":"levelo_inurba_marseille","lat":43.28339,"lon":5.38712,"is_reserved":false,"is_disabled":false,"rental_uris":{"android":"levelo://app?vid=68e86292-e11d-49d5-888c-58848729cc3c","ios":"levelo://app?vid=68e86292-e11d-49d5-888c-58848729cc3c"},"vehicle_type_id":"4","last_reported":1776888210,"current_range_meters":9600,"station_id":"","pricing_plan_id":"cebpf4jnsgd1na2vs0mg"},{"bike_id":"f5c3a6a6-3609-40ad-9c49-87232dad5958","system_id":"levelo_inurba_marseille","lat":43.30609,"lon":5.39347,"is_reserved":false,"is_disabled":true,"rental_uris":{"android":"levelo://app?vid=f5c3a6a6-3609-40ad-9c49-87232dad5958","ios":"levelo://app?vid=f5c3a6a6-3609-40ad-9c49-87232dad5958"},"vehicle_type_id":"4","last_reported":1776888210,"current_range_meters":9600,"station_id":"ce4bh0p2rcd13ifvqd80","pricing_plan_id":"cebpf4jnsgd1na2vs0mg"},{"bike_id":"de907253-0474-465c-b317-e26adc645bf3","system_id":"levelo_inurba_marseille","lat":43.2989,"lon":5.39695,"is_reserved":false,"is_disabled":false,"rental_uris":{"android":"levelo://app?vid=de907253-0474-465c-b317-e26adc645bf3","ios":"levelo://app?vid=de907253-0474-465c-b317-e26adc645bf3"},"vehicle_type_id":"4","last_reported":1776888210,"current_range_meters":9600,"station_id":"ce4bh0h2rcd13ifvqd50","pricing_plan_id":"cebpf4jnsgd1na2vs0mg"},{"bike_id":"e5f80ca6-4d7a-4322-a7d4-470599ff95fa","system_id":"levelo_inurba_marseille","lat":43.29204,"lon":5.3932,"is_reserved":false,"is_disabled":false,"rental_uris":{"android":"levelo://app?vid=e5f80ca6-4d7a-4322-a7d4-470599ff95fa","ios":"levelo://app?vid=e5f80ca6-4d7a-4322-a7d4-470599ff95fa"},"vehicle_type_id":"4","last_reported":1776888210,"current_range_meters":9600,"station_id":"ce4bh192rcd13ifvqdd0","pricing_plan_id":"cebpf4jnsgd1na2vs0mg"},{"bike_id":"76522220-dbd4-44ff-bf1b-0dec12aadd12","system_id":"levelo_inurba_marseille","lat":43.24949,"lon":5.40495,"is_reserved":false,"is_disabled":false,"rental_uris":{"android":"levelo://app?vid=76522220-dbd4-44ff-bf1b-0dec12aadd12","ios":"levelo://app?vid=76522220-dbd4-44ff-bf1b-0dec12aadd12"},"vehicle_type_id":"4","last_reported":1776888210,"current_range_meters":9600,"station_id":"st_d2ngiaodas8pm72gd1h0","pricing_plan_id":"cebpf4jnsgd1na2vs0mg"},{"bike_id":"68e56175-b857-46c2-b84f-8591cfaf3283","system_id":"levelo_inurba_marseille","lat":43.23958,"lon":5.3665,"is_reserved":false,"is_disabled":false,"rental_uris":{"android":"levelo://app?vid=68e56175-b857-46c2-b84f-8591cfaf3283","ios":"levelo://app?vid=68e56175-b857-46c2-b84f-8591cfaf3283"},"vehicle_type_id":"4","last_reported":1776888210,"current_range_meters":9600,"station_id":"ce4bhi12rcd13ifvqfp0","pricing_plan_id":"cebpf4jnsgd1na2vs0mg"},{"bike_id":"b7c8d7b8-94e1-4c81-9cd9-6870c5f4b76e","system_id":"levelo_inurba_marseille","lat":43.29724,"lon":5.37678,"is_reserved":false,"is_disabled":false,"rental_uris":{"android":"levelo://app?vid=b7c8d7b8-94e1-4c81-9cd9-6870c5f4b76e","ios":"levelo://app?vid=b7c8d7b8-94e1-4c81-9cd9-6870c5f4b76e"},"vehicle_type_id":"4","last_reported":1776888210,"current_range_meters":9600,"station_id":"ce4bgkh2rcd13ifvqbl0","pricing_plan_id":"cebpf4jnsgd1na2vs0mg"},{"bike_id":"8ad30868-064f-4d1f-aab0-97e3ab80ff59","system_id":"levelo_inurba_marseille","lat":43.29631,"lon":5.40591,"is_reserved":false,"is_disabled":false,"rental_uris":{"android":"levelo://app?vid=8ad30868-064f-4d1f-aab0-97e3ab80ff59","ios":"levelo://app?vid=8ad30868-064f-4d1f-aab0-97e3ab80ff59"},"vehicle_type_id":"4","last_reported":1776888210,"current_range_meters":9600,"station_id":"ce4bh0h2rcd13ifvqd60","pricing_plan_id":"cebpf4jnsgd1na2vs0mg"},{"bike_id":"cce9e933-3790-4ced-9eef-b5ac537ec700","system_id":"levelo_inurba_marseille","lat":43.28612,"lon":5.38366,"is_reserved":false,"is_disabled":false,"rental_uris":{"android":"levelo://app?vid=cce9e933-3790-4ced-9eef-b5ac537ec700","ios":"levelo://app?vid=cce9e933-3790-4ced-9eef-b5ac537ec700"},"vehicle_type_id":"4","last_reported":1776888210,"current_range_meters":9600,"station_id":"","pricing_plan_id":"cebpf4jnsgd1na2vs0mg"},{"bike_id":"38a484aa-5688-483d-a486-9780ac4b888d","system_id":"levelo_inurba_marseille","lat":43.29262,"lon":5.38439,"is_reserved":false,"is_disabled":false,"rental_uris":{"android":"levelo://app?vid=38a484aa-5688-483d-a486-9780ac4b888d","ios":"levelo://app?vid=38a484aa-5688-483d-a486-9780ac4b888d"},"vehicle_type_id":"4","last_reported":1776888210,"current_range_meters":9600,"station_id":"ce4bh692rcd13ifvqea0","pricing_plan_id":"cebpf4jnsgd1na2vs0mg"},{"bike_id":"0503e3ce-22a2-4b85-9440-1fd31bf7fc51","system_id":"levelo_inurba_marseille","lat":43.2621,"lon":5.41405,"is_reserved":false,"is_disabled":false,"rental_uris":{"android":"levelo://app?vid=0503e3ce-22a2-4b85-9440-1fd31bf7fc51","ios":"levelo://app?vid=0503e3ce-22a2-4b85-9440-1fd31bf7fc51"},"vehicle_type_id":"4","last_reported":1776888210,"current_range_meters":9600,"station_id":"","pricing_plan_id":"cebpf4jnsgd1na2vs0mg"},{"bike_id":"1f812c79-a1cc-4770-94e4-c447fae650ce","system_id":"levelo_inurba_marseille","lat":43.28588,"lon":5.38971,"is_reserved":false,"is_disabled":false,"rental_uris":{"android":"levelo://app?vid=1f812c79-a1cc-4770-94e4-c447fae650ce","ios":"levelo://app?vid=1f812c79-a1cc-4770-94e4-c447fae650ce"},"vehicle_type_id":"4","last_reported":1776888210,"current_range_meters":10000,"station_id":"","pricing_plan_id":"cebpf4jnsgd1na2vs0mg"},{"bike_id":"1b96147a-0a00-444b-a6da-e7e56ca38fd6","system_id":"levelo_inurba_marseille","lat":43.29888,"lon":5.39713,"is_reserved":false,"is_disabled":false,"rental_uris":{"android":"levelo://app?vid=1b96147a-0a00-444b-a6da-e7e56ca38fd6","ios":"levelo://app?vid=1b96147a-0a00-444b-a6da-e7e56ca38fd6"},"vehicle_type_id":"4","last_reported":1776888210,"current_range_meters":10000,"station_id":"ce4bh0h2rcd13ifvqd50","pricing_plan_id":"cebpf4jnsgd1na2vs0mg"},{"bike_id":"9cf12197-f9f4-46d1-956f-feba871b1eef","system_id":"levelo_inurba_marseille","lat":43.29714,"lon":5.37668,"is_reserved":false,"is_disabled":false,"rental_uris":{"android":"levelo://app?vid=9cf12197-f9f4-46d1-956f-feba871b1eef","ios":"levelo://app?vid=9cf12197-f9f4-46d1-956f-feba871b1eef"},"vehicle_type_id":"4","last_reported":1776888210,"current_range_meters":10000,"station_id":"ce4bgkh2rcd13ifvqbl0","pricing_plan_id":"cebpf4jnsgd1na2vs0mg"},{"bike_id":"aac8d525-8c84-436f-a81d-44f9bdecbbfc","system_id":"levelo_inurba_marseille","lat":43.25052,"lon":5.39515,"is_reserved":false,"is_disabled":false,"rental_uris":{"android":"levelo://app?vid=aac8d525-8c84-436f-a81d-44f9bdecbbfc","ios":"levelo://app?vid=aac8d525-8c84-436f-a81d-44f9bdecbbfc"},"vehicle_type_id":"4","last_reported":1776888210,"current_range_meters":10000,"station_id":"ce4bhm12rcd13ifvqgkg","pricing_plan_id":"cebpf4jnsgd1na2vs0mg"},{"bike_id":"eaf4223f-314a-4ea1-9fd0-5b4518fc7aa0","system_id":"levelo_inurba_marseille","lat":43.28974,"lon":5.37839,"is_reserved":false,"is_disabled":false,"rental_uris":{"android":"levelo://app?vid=eaf4223f-314a-4ea1-9fd0-5b4518fc7aa0","ios":"levelo://app?vid=eaf4223f-314a-4ea1-9fd0-5b4518fc7aa0"},"vehicle_type_id":"4","last_reported":1776888210,"current_range_meters":10000,"station_id":"ce4bh9p2rcd13ifvqed0","pricing_plan_id":"cebpf4jnsgd1na2vs0mg"},{"bike_id":"03b714fc-d600-4ef7-a461-b7b6354d1f22","system_id":"levelo_inurba_marseille","lat":43.29532,"lon":5.39033,"is_reserved":false,"is_disabled":false,"rental_uris":{"android":"levelo://app?vid=03b714fc-d600-4ef7-a461-b7b6354d1f22","ios":"levelo://app?vid=03b714fc-d600-4ef7-a461-b7b6354d1f22"},"vehicle_type_id":"4","last_reported":1776888210,"current_range_meters":10000,"station_id":"ce4bh3p2rcd13ifvqdp0","pricing_plan_id":"cebpf4jnsgd1na2vs0mg"},{"bike_id":"5f4c9ff4-ad39-4233-8a18-52e8b6a010bf","system_id":"levelo_inurba_marseille","lat":43.26489,"lon":5.39536,"is_reserved":false,"is_disabled":false,"rental_uris":{"android":"levelo://app?vid=5f4c9ff4-ad39-4233-8a18-52e8b6a010bf","ios":"levelo://app?vid=5f4c9ff4-ad39-4233-8a18-52e8b6a010bf"},"vehicle_type_id":"4","last_reported":1776888210,"current_range_meters":10000,"station_id":"ce4bhi12rcd13ifvqfq0","pricing_plan_id":"cebpf4jnsgd1na2vs0mg"},{"bike_id":"c7041db6-efe9-470b-b3aa-61638cf7bac3","system_id":"levelo_inurba_marseille","lat":43.33553,"lon":5.37456,"is_reserved":false,"is_disabled":false,"rental_uris":{"android":"levelo://app?vid=c7041db6-efe9-470b-b3aa-61638cf7bac3","ios":"levelo://app?vid=c7041db6-efe9-470b-b3aa-61638cf7bac3"},"vehicle_type_id":"4","last_reported":1776888210,"current_range_meters":10000,"station_id":"st_d46tts09ee8s73dlu43g","pricing_plan_id":"cebpf4jnsgd1na2vs0mg"},{"bike_id":"81c6baef-10f5-4319-92c1-6f08b9b2f8c7","system_id":"levelo_inurba_marseille","lat":43.29254,"lon":5.38457,"is_reserved":false,"is_disabled":false,"rental_uris":{"android":"levelo://app?vid=81c6baef-10f5-4319-92c1-6f08b9b2f8c7","ios":"levelo://app?vid=81c6baef-10f5-4319-92c1-6f08b9b2f8c7"},"vehicle_type_id":"4","last_reported":1776888210,"current_range_meters":10000,"station_id":"ce4bh692rcd13ifvqea0","pricing_plan_id":"cebpf4jnsgd1na2vs0mg"},{"bike_id":"f1c5df5d-b88c-410d-81bb-9f92ab637c93","system_id":"levelo_inurba_marseille","lat":43.28508,"lon":5.3842,"is_reserved":false,"is_disabled":false,"rental_uris":{"android":"levelo://app?vid=f1c5df5d-b88c-410d-81bb-9f92ab637c93","ios":"levelo://app?vid=f1c5df5d-b88c-410d-81bb-9f92ab637c93"},"vehicle_type_id":"4","last_reported":1776888210,"current_range_meters":10000,"station_id":"ce4bh512rcd13ifvqe3g","pricing_plan_id":"cebpf4jnsgd1na2vs0mg"},{"bike_id":"ac6be1d6-c96b-49c3-8012-27ce005f3a0b","system_id":"levelo_inurba_marseille","lat":43.29537,"lon":5.38553,"is_reserved":false,"is_disabled":false,"rental_uris":{"android":"levelo://app?vid=ac6be1d6-c96b-49c3-8012-27ce005f3a0b","ios":"levelo://app?vid=ac6be1d6-c96b-49c3-8012-27ce005f3a0b"},"vehicle_type_id":"4","last_reported":1776888210,"current_range_meters":10000,"station_id":"ce4bgih2rcd13ifvqba0","pricing_plan_id":"cebpf4jnsgd1na2vs0mg"},{"bike_id":"411114af-cb25-4516-9144-2d1a992b2bd4","system_id":"levelo_inurba_marseille","lat":43.28357,"lon":5.38091,"is_reserved":false,"is_disabled":false,"rental_uris":{"android":"levelo://app?vid=411114af-cb25-4516-9144-2d1a992b2bd4","ios":"levelo://app?vid=411114af-cb25-4516-9144-2d1a992b2bd4"},"vehicle_type_id":"4","last_reported":1776888210,"current_range_meters":10000,"station_id":"ce4bh412rcd13ifvqdr0","pricing_plan_id":"cebpf4jnsgd1na2vs0mg"},{"bike_id":"c4a5be84-23ca-46fa-992d-930745549150","system_id":"levelo_inurba_marseille","lat":43.29609,"lon":5.40592,"is_reserved":false,"is_disabled":false,"rental_uris":{"android":"levelo://app?vid=c4a5be84-23ca-46fa-992d-930745549150","ios":"levelo://app?vid=c4a5be84-23ca-46fa-992d-930745549150"},"vehicle_type_id":"4","last_reported":1776888210,"current_range_meters":10000,"station_id":"ce4bh0h2rcd13ifvqd60","pricing_plan_id":"cebpf4jnsgd1na2vs0mg"},{"bike_id":"91209ddc-e87a-468c-ac2f-e0a9b45953e7","system_id":"levelo_inurba_marseille","lat":43.30306,"lon":5.39213,"is_reserved":false,"is_disabled":false,"rental_uris":{"android":"levelo://app?vid=91209ddc-e87a-468c-ac2f-e0a9b45953e7","ios":"levelo://app?vid=91209ddc-e87a-468c-ac2f-e0a9b45953e7"},"vehicle_type_id":"4","last_reported":1776888210,"current_range_meters":10000,"station_id":"ce4bgkh2rcd13ifvqbk0","pricing_plan_id":"cebpf4jnsgd1na2vs0mg"},{"bike_id":"7c785f2f-fe9b-43b3-a93c-b64a4c8daf77","system_id":"levelo_inurba_marseille","lat":43.29788,"lon":5.42763,"is_reserved":false,"is_disabled":false,"rental_uris":{"android":"levelo://app?vid=7c785f2f-fe9b-43b3-a93c-b64a4c8daf77","ios":"levelo://app?vid=7c785f2f-fe9b-43b3-a93c-b64a4c8daf77"},"vehicle_type_id":"4","last_reported":1776888210,"current_range_meters":10000,"station_id":"st_d3md5207bmas73dh9klg","pricing_plan_id":"cebpf4jnsgd1na2vs0mg"},{"bike_id":"706869c6-be65-49b4-a496-7f18e8729124","system_id":"levelo_inurba_marseille","lat":43.29532,"lon":5.38537,"is_reserved":false,"is_disabled":false,"rental_uris":{"android":"levelo://app?vid=706869c6-be65-49b4-a496-7f18e8729124","ios":"levelo://app?vid=706869c6-be65-49b4-a496-7f18e8729124"},"vehicle_type_id":"4","last_reported":1776888210,"current_range_meters":10000,"station_id":"ce4bgih2rcd13ifvqba0","pricing_plan_id":"cebpf4jnsgd1na2vs0mg"},{"bike_id":"c6317af4-c756-4e8c-b274-3f21b7ab30a9","system_id":"levelo_inurba_marseille","lat":43.2978,"lon":5.38096,"is_reserved":false,"is_disabled":false,"rental_uris":{"android":"levelo://app?vid=c6317af4-c756-4e8c-b274-3f21b7ab30a9","ios":"levelo://app?vid=c6317af4-c756-4e8c-b274-3f21b7ab30a9"},"vehicle_type_id":"4","last_reported":1776888210,"current_range_meters":10000,"station_id":"ce4bgip2rcd13ifvqbb0","pricing_plan_id":"cebpf4jnsgd1na2vs0mg"},{"bike_id":"c3e0702e-4cd9-4eab-9e41-0d17750466d8","system_id":"levelo_inurba_marseille","lat":43.29365,"lon":5.37299,"is_reserved":false,"is_disabled":false,"rental_uris":{"android":"levelo://app?vid=c3e0702e-4cd9-4eab-9e41-0d17750466d8","ios":"levelo://app?vid=c3e0702e-4cd9-4eab-9e41-0d17750466d8"},"vehicle_type_id":"4","last_reported":1776888210,"current_range_meters":10000,"station_id":"","pricing_plan_id":"cebpf4jnsgd1na2vs0mg"},{"bike_id":"eaa56526-29a5-4cc4-abc0-c621dd30f9a4","system_id":"levelo_inurba_marseille","lat":43.29262,"lon":5.4268,"is_reserved":false,"is_disabled":false,"rental_uris":{"android":"levelo://app?vid=eaa56526-29a5-4cc4-abc0-c621dd30f9a4","ios":"levelo://app?vid=eaa56526-29a5-4cc4-abc0-c621dd30f9a4"},"vehicle_type_id":"4","last_reported":1776888210,"current_range_meters":10800,"station_id":"","pricing_plan_id":"cebpf4jnsgd1na2vs0mg"},{"bike_id":"46bb3cda-34a7-4db0-a60b-f24023c65ce2","system_id":"levelo_inurba_marseille","lat":43.29261,"lon":5.38452,"is_reserved":false,"is_disabled":false,"rental_uris":{"android":"levelo://app?vid=46bb3cda-34a7-4db0-a60b-f24023c65ce2","ios":"levelo://app?vid=46bb3cda-34a7-4db0-a60b-f24023c65ce2"},"vehicle_type_id":"4","last_reported":1776888210,"current_range_meters":10800,"station_id":"ce4bh692rcd13ifvqea0","pricing_plan_id":"cebpf4jnsgd1na2vs0mg"},{"bike_id":"150500be-d943-43ad-81eb-48f6433e564c","system_id":"levelo_inurba_marseille","lat":43.29501,"lon":5.38541,"is_reserved":false,"is_disabled":false,"rental_uris":{"android":"levelo://app?vid=150500be-d943-43ad-81eb-48f6433e564c","ios":"levelo://app?vid=150500be-d943-43ad-81eb-48f6433e564c"},"vehicle_type_id":"4","last_reported":1776888210,"current_range_meters":10800,"station_id":"ce4bgih2rcd13ifvqba0","pricing_plan_id":"cebpf4jnsgd1na2vs0mg"},{"bike_id":"3b91f882-219d-4945-9f5a-84a4b39e29fb","system_id":"levelo_inurba_marseille","lat":43.29258,"lon":5.37609,"is_reserved":false,"is_disabled":false,"rental_uris":{"android":"levelo://app?vid=3b91f882-219d-4945-9f5a-84a4b39e29fb","ios":"levelo://app?vid=3b91f882-219d-4945-9f5a-84a4b39e29fb"},"vehicle_type_id":"4","last_reported":1776888210,"current_range_meters":10800,"station_id":"ce4bgi12rcd13ifvqb80","pricing_plan_id":"cebpf4jnsgd1na2vs0mg"},{"bike_id":"1dfb8304-4a5b-4c32-b67a-ccf966ce412e","system_id":"levelo_inurba_marseille","lat":43.30329,"lon":5.36888,"is_reserved":false,"is_disabled":true,"rental_uris":{"android":"levelo://app?vid=1dfb8304-4a5b-4c32-b67a-ccf966ce412e","ios":"levelo://app?vid=1dfb8304-4a5b-4c32-b67a-ccf966ce412e"},"vehicle_type_id":"4","last_reported":1776888210,"current_range_meters":10800,"station_id":"ce4bgqh2rcd13ifvqc5g","pricing_plan_id":"cebpf4jnsgd1na2vs0mg"},{"bike_id":"fc7363fe-b04d-489a-9727-90ca30e7bca6","system_id":"levelo_inurba_marseille","lat":43.32116,"lon":5.36779,"is_reserved":false,"is_disabled":false,"rental_uris":{"android":"levelo://app?vid=fc7363fe-b04d-489a-9727-90ca30e7bca6","ios":"levelo://app?vid=fc7363fe-b04d-489a-9727-90ca30e7bca6"},"vehicle_type_id":"4","last_reported":1776888210,"current_range_meters":10800,"station_id":"ce4bhrh2rcd13ifvqhug","pricing_plan_id":"cebpf4jnsgd1na2vs0mg"},{"bike_id":"75f433ca-3df0-4831-9633-bf7b5e16ebc1","system_id":"levelo_inurba_marseille","lat":43.30932,"lon":5.40148,"is_reserved":false,"is_disabled":false,"rental_uris":{"android":"levelo://app?vid=75f433ca-3df0-4831-9633-bf7b5e16ebc1","ios":"levelo://app?vid=75f433ca-3df0-4831-9633-bf7b5e16ebc1"},"vehicle_type_id":"4","last_reported":1776888210,"current_range_meters":10800,"station_id":"ce4bgvp2rcd13ifvqct0","pricing_plan_id":"cebpf4jnsgd1na2vs0mg"},{"bike_id":"2250a80a-b728-44ae-a103-20defd92544b","system_id":"levelo_inurba_marseille","lat":43.29175,"lon":5.39368,"is_reserved":false,"is_disabled":false,"rental_uris":{"android":"levelo://app?vid=2250a80a-b728-44ae-a103-20defd92544b","ios":"levelo://app?vid=2250a80a-b728-44ae-a103-20defd92544b"},"vehicle_type_id":"4","last_reported":1776888210,"current_range_meters":10800,"station_id":"","pricing_plan_id":"cebpf4jnsgd1na2vs0mg"},{"bike_id":"1f68b41e-59e6-45c1-8843-64a039c566ec","system_id":"levelo_inurba_marseille","lat":43.27202,"lon":5.40993,"is_reserved":false,"is_disabled":false,"rental_uris":{"android":"levelo://app?vid=1f68b41e-59e6-45c1-8843-64a039c566ec","ios":"levelo://app?vid=1f68b41e-59e6-45c1-8843-64a039c566ec"},"vehicle_type_id":"4","last_reported":1776888210,"current_range_meters":10800,"station_id":"ce4bhl12rcd13ifvqgf0","pricing_plan_id":"cebpf4jnsgd1na2vs0mg"},{"bike_id":"89cb976b-df3a-46fc-a9ef-0025de561630","system_id":"levelo_inurba_marseille","lat":43.29432,"lon":5.43385,"is_reserved":false,"is_disabled":false,"rental_uris":{"android":"levelo://app?vid=89cb976b-df3a-46fc-a9ef-0025de561630","ios":"levelo://app?vid=89cb976b-df3a-46fc-a9ef-0025de561630"},"vehicle_type_id":"4","last_reported":1776888210,"current_range_meters":10800,"station_id":"","pricing_plan_id":"cebpf4jnsgd1na2vs0mg"},{"bike_id":"a8aa9b10-b201-4335-86a5-69aaa3d0be38","system_id":"levelo_inurba_marseille","lat":43.28405,"lon":5.3755,"is_reserved":false,"is_disabled":false,"rental_uris":{"android":"levelo://app?vid=a8aa9b10-b201-4335-86a5-69aaa3d0be38","ios":"levelo://app?vid=a8aa9b10-b201-4335-86a5-69aaa3d0be38"},"vehicle_type_id":"4","last_reported":1776888210,"current_range_meters":10800,"station_id":"ce4bh412rcd13ifvqds0","pricing_plan_id":"cebpf4jnsgd1na2vs0mg"},{"bike_id":"4c59e750-bd32-470f-aabb-d5afbed24b9c","system_id":"levelo_inurba_marseille","lat":43.24816,"lon":5.37458,"is_reserved":false,"is_disabled":false,"rental_uris":{"android":"levelo://app?vid=4c59e750-bd32-470f-aabb-d5afbed24b9c","ios":"levelo://app?vid=4c59e750-bd32-470f-aabb-d5afbed24b9c"},"vehicle_type_id":"4","last_reported":1776888210,"current_range_meters":10800,"station_id":"ce4bhgh2rcd13ifvqfb0","pricing_plan_id":"cebpf4jnsgd1na2vs0mg"},{"bike_id":"3861474c-5c79-40a8-a73c-d543fa3a8ccd","system_id":"levelo_inurba_marseille","lat":43.24808,"lon":5.3746,"is_reserved":false,"is_disabled":false,"rental_uris":{"android":"levelo://app?vid=3861474c-5c79-40a8-a73c-d543fa3a8ccd","ios":"levelo://app?vid=3861474c-5c79-40a8-a73c-d543fa3a8ccd"},"vehicle_type_id":"4","last_reported":1776888210,"current_range_meters":10800,"station_id":"ce4bhgh2rcd13ifvqfb0","pricing_plan_id":"cebpf4jnsgd1na2vs0mg"},{"bike_id":"96e5f519-eb90-45b1-a756-cb40b43b1cf8","system_id":"levelo_inurba_marseille","lat":43.27067,"lon":5.42278,"is_reserved":false,"is_disabled":false,"rental_uris":{"android":"levelo://app?vid=96e5f519-eb90-45b1-a756-cb40b43b1cf8","ios":"levelo://app?vid=96e5f519-eb90-45b1-a756-cb40b43b1cf8"},"vehicle_type_id":"4","last_reported":1776888210,"current_range_meters":10800,"station_id":"ce4bhk92rcd13ifvqgb0","pricing_plan_id":"cebpf4jnsgd1na2vs0mg"},{"bike_id":"09b36bd3-92a1-4671-9999-73b023a7ea25","system_id":"levelo_inurba_marseille","lat":43.288612,"lon":5.425243,"is_reserved":false,"is_disabled":false,"rental_uris":{"android":"levelo://app?vid=09b36bd3-92a1-4671-9999-73b023a7ea25","ios":"levelo://app?vid=09b36bd3-92a1-4671-9999-73b023a7ea25"},"vehicle_type_id":"4","last_reported":1776888210,"current_range_meters":10800,"station_id":"st_d3b462108ojc7389ooeg","pricing_plan_id":"cebpf4jnsgd1na2vs0mg"},{"bike_id":"6843e882-7c36-4091-90e8-5bc86219a69e","system_id":"levelo_inurba_marseille","lat":43.30595,"lon":5.37206,"is_reserved":false,"is_disabled":false,"rental_uris":{"android":"levelo://app?vid=6843e882-7c36-4091-90e8-5bc86219a69e","ios":"levelo://app?vid=6843e882-7c36-4091-90e8-5bc86219a69e"},"vehicle_type_id":"4","last_reported":1776888210,"current_range_meters":10800,"station_id":"ce4bgqh2rcd13ifvqc4g","pricing_plan_id":"cebpf4jnsgd1na2vs0mg"},{"bike_id":"c366be47-591a-4881-84b3-6ecaca0c6af3","system_id":"levelo_inurba_marseille","lat":43.330238,"lon":5.390502,"is_reserved":false,"is_disabled":false,"rental_uris":{"android":"levelo://app?vid=c366be47-591a-4881-84b3-6ecaca0c6af3","ios":"levelo://app?vid=c366be47-591a-4881-84b3-6ecaca0c6af3"},"vehicle_type_id":"4","last_reported":1776888210,"current_range_meters":10800,"station_id":"","pricing_plan_id":"cebpf4jnsgd1na2vs0mg"},{"bike_id":"7db8e5f3-3982-4808-8fb4-746a2f23f4b1","system_id":"levelo_inurba_marseille","lat":43.29342,"lon":5.4389,"is_reserved":false,"is_disabled":false,"rental_uris":{"android":"levelo://app?vid=7db8e5f3-3982-4808-8fb4-746a2f23f4b1","ios":"levelo://app?vid=7db8e5f3-3982-4808-8fb4-746a2f23f4b1"},"vehicle_type_id":"4","last_reported":1776888210,"current_range_meters":11200,"station_id":"","pricing_plan_id":"cebpf4jnsgd1na2vs0mg"},{"bike_id":"d088911f-aeb5-4003-a7ea-8a92c9b216cf","system_id":"levelo_inurba_marseille","lat":43.29565,"lon":5.38982,"is_reserved":false,"is_disabled":true,"rental_uris":{"android":"levelo://app?vid=d088911f-aeb5-4003-a7ea-8a92c9b216cf","ios":"levelo://app?vid=d088911f-aeb5-4003-a7ea-8a92c9b216cf"},"vehicle_type_id":"4","last_reported":1776888210,"current_range_meters":11200,"station_id":"ce4bh3p2rcd13ifvqdp0","pricing_plan_id":"cebpf4jnsgd1na2vs0mg"},{"bike_id":"ae1a0ce0-3e2e-4cf2-b858-405a12aeabc1","system_id":"levelo_inurba_marseille","lat":43.27066,"lon":5.42273,"is_reserved":false,"is_disabled":false,"rental_uris":{"android":"levelo://app?vid=ae1a0ce0-3e2e-4cf2-b858-405a12aeabc1","ios":"levelo://app?vid=ae1a0ce0-3e2e-4cf2-b858-405a12aeabc1"},"vehicle_type_id":"4","last_reported":1776888210,"current_range_meters":11200,"station_id":"ce4bhk92rcd13ifvqgb0","pricing_plan_id":"cebpf4jnsgd1na2vs0mg"},{"bike_id":"1f218a43-cd16-4bde-8ac9-44ec5949fe85","system_id":"levelo_inurba_marseille","lat":43.29504,"lon":5.38532,"is_reserved":false,"is_disabled":false,"rental_uris":{"android":"levelo://app?vid=1f218a43-cd16-4bde-8ac9-44ec5949fe85","ios":"levelo://app?vid=1f218a43-cd16-4bde-8ac9-44ec5949fe85"},"vehicle_type_id":"4","last_reported":1776888210,"current_range_meters":11200,"station_id":"ce4bgih2rcd13ifvqba0","pricing_plan_id":"cebpf4jnsgd1na2vs0mg"},