{"last_updated":1744103477,"ttl":60,"version":"2.2","data":{"bikes":[{"bike_id":"a5dfff8e-1567-4ba4-8466-6004f3bd7857","system_id":"levelo_inurba_marseille","lat":43.25571,"lon":5.38229,"is_reserved":false,"is_disabled":false,"rental_uris":{"android":"levelo://app?vid=a5dfff8e-1567-4ba4-8466-6004f3bd7857","ios":"levelo://app?vid=a5dfff8e-1567-4ba4-8466-6004f3bd7857"},"vehicle_type_id":"4","last_reported":1744103477,"current_range_meters":2800,"station_id":"ce4bhih2rcd13ifvqfs0","pricing_plan_id":"cebpf4jnsgd1na2vs0mg"},{"bike_id":"10b5c6f7-d67a-4780-a014-2e46d2e5f3a7","system_id":"levelo_inurba_marseille","lat":43.279213,"lon":5.39581,"is_reserved":false,"is_disabled":false,"rental_uris":{"android":"levelo://app?vid=10b5c6f7-d67a-4780-a014-2e46d2e5f3a7","ios":"levelo://app?vid=10b5c6f7-d67a-4780-a014-2e46d2e5f3a7"},"vehicle_type_id":"4","last_reported":1744103477,"current_range_meters":2800,"station_id":"ce4bhf92rcd13ifvqf40","pricing_plan_id":"cebpf4jnsgd1na2vs0mg"},{"bike_id":"dc2d6346-ef12-425d-ad7e-d1a002ee3624","system_id":"levelo_inurba_marseille","lat":43.2796,"lon":5.38683,"is_reserved":false,"is_disabled":false,"rental_uris":{"android":"levelo://app?vid=dc2d6346-ef12-425d-ad7e-d1a002ee3624","ios":"levelo://app?vid=dc2d6346-ef12-425d-ad7e-d1a002ee3624"},"vehicle_type_id":"4","last_reported":1744103477,"current_range_meters":2800,"station_id":"ce4bhg12rcd13ifvqf80","pricing_plan_id":"cebpf4jnsgd1na2vs0mg"},{"bike_id":"136b6e45-ee21-453e-aa22-e07947db9071","system_id":"levelo_inurba_marseille","lat":43.231552,"lon":5.436996,"is_reserved":false,"is_disabled":true,"rental_uris":{"android":"levelo://app?vid=136b6e45-ee21-453e-aa22-e07947db9071","ios":"levelo://app?vid=136b6e45-ee21-453e-aa22-e07947db9071"},"vehicle_type_id":"4","last_reported":1744103477,"current_range_meters":2800,"station_id":"ce4bhmp2rcd13ifvqgog","pricing_plan_id":"cebpf4jnsgd1na2vs0mg"},{"bike_id":"2607cbcb-f01f-4a18-a84e-704e99a9c241","system_id":"levelo_inurba_marseille","lat":43.25122,"lon":5.40332,"is_reserved":false,"is_disabled":false,"rental_uris":{"android":"levelo://app?vid=2607cbcb-f01f-4a18-a84e-704e99a9c241","ios":"levelo://app?vid=2607cbcb-f01f-4a18-a84e-704e99a9c241"},"vehicle_type_id":"4","last_reported":1744103477,"current_range_meters":2800,"station_id":"ce4bhlh2rcd13ifvqgig","pricing_plan_id":"cebpf4jnsgd1na2vs0mg"},{"bike_id":"762b41dd-0235-40d2-b9fe-689c63f4c95a","system_id":"levelo_inurba_marseille","lat":43.25924,"lon":5.40873,"is_reserved":false,"is_disabled":false,"rental_uris":{"android":"levelo://app?vid=762b41dd-0235-40d2-b9fe-689c63f4c95a","ios":"levelo://app?vid=762b41dd-0235-40d2-b9fe-689c63f4c95a"},"vehicle_type_id":"4","last_reported":1744103477,"current_range_meters":3200,"station_id":"ce4bhm92rcd13ifvqglg","pricing_plan_id":"cebpf4jnsgd1na2vs0mg"},{"bike_id":"1ac50db5-c426-43f8-b588-11a4cd34d00c","system_id":"levelo_inurba_marseille","lat":43.3141,"lon":5.36688,"is_reserved":false,"is_disabled":false,"rental_uris":{"android":"levelo://app?vid=1ac50db5-c426-43f8-b588-11a4cd34d00c","ios":"levelo://app?vid=1ac50db5-c426-43f8-b588-11a4cd34d00c"},"vehicle_type_id":"4","last_reported":1744103477,"current_range_meters":3200,"station_id":"","pricing_plan_id":"cebpf4jnsgd1na2vs0mg"},{"bike_id":"7c7fce45-c5bb-40aa-a692-3c322d41488e","system_id":"levelo_inurba_marseille","lat":43.27528,"lon":5.4246,"is_reserved":false,"is_disabled":false,"rental_uris":{"android":"levelo://app?vid=7c7fce45-c5bb-40aa-a692-3c322d41488e","ios":"levelo://app?vid=7c7fce45-c5bb-40aa-a692-3c322d41488e"},"vehicle_type_id":"4","last_reported":1744103477,"current_range_meters":4000,"station_id":"ce4bhn92rcd13ifvqgrg","pricing_plan_id":"cebpf4jnsgd1na2vs0mg"},{"bike_id":"d89cf537-5d49-4ffb-bba5-1642ba79c24f","system_id":"levelo_inurba_marseille","lat":43.25117,"lon":5.40298,"is_reserved":false,"is_disabled":true,"rental_uris":{"android":"levelo://app?vid=d89cf537-5d49-4ffb-bba5-1642ba79c24f","ios":"levelo://app?vid=d89cf537-5d49-4ffb-bba5-1642ba79c24f"},"vehicle_type_id":"4","last_reported":1744103477,"current_range_meters":4000,"station_id":"ce4bhlh2rcd13ifvqgig","pricing_plan_id":"cebpf4jnsgd1na2vs0mg"},{"bike_id":"05a9daa4-b797-440f-a570-1ec907d17c02","system_id":"levelo_inurba_marseille","lat":43.27554,"lon":5.38422,"is_reserved":false,"is_disabled":false,"rental_uris":{"android":"levelo://app?vid=05a9daa4-b797-440f-a570-1ec907d17c02","ios":"levelo://app?vid=05a9daa4-b797-440f-a570-1ec907d17c02"},"vehicle_type_id":"4","last_reported":1744103477,"current_range_meters":3600,"station_id":"ce4bhh92rcd13ifvqfi0","pricing_plan_id":"cebpf4jnsgd1na2vs0mg"},{"bike_id":"351b921a-1463-4cf6-859d-ca5bd51a6e76","system_id":"levelo_inurba_marseille","lat":43.31647,"lon":5.36409,"is_reserved":false,"is_disabled":false,"rental_uris":{"android":"levelo://app?vid=351b921a-1463-4cf6-859d-ca5bd51a6e76","ios":"levelo://app?vid=351b921a-1463-4cf6-859d-ca5bd51a6e76"},"vehicle_type_id":"4","last_reported":1744103477,"current_range_meters":4000,"station_id":"","pricing_plan_id":"cebpf4jnsgd1na2vs0mg"},{"bike_id":"e1e3e4d7-821d-4134-a13a-280ec3f9cbaa","system_id":"levelo_inurba_marseille","lat":43.32359,"lon":5.36749,"is_reserved":false,"is_disabled":false,"rental_uris":{"android":"levelo://app?vid=e1e3e4d7-821d-4134-a13a-280ec3f9cbaa","ios":"levelo://app?vid=e1e3e4d7-821d-4134-a13a-280ec3f9cbaa"},"vehicle_type_id":"4","last_reported":1744103477,"current_range_meters":4000,"station_id":"ce4bhsh2rcd13ifvqi2g","pricing_plan_id":"cebpf4jnsgd1na2vs0mg"},{"bike_id":"a959694d-18ce-4d80-917f-23c91ed81065","system_id":"levelo_inurba_marseille","lat":43.29897,"lon":5.43669,"is_reserved":false,"is_disabled":false,"rental_uris":{"android":"levelo://app?vid=a959694d-18ce-4d80-917f-23c91ed81065","ios":"levelo://app?vid=a959694d-18ce-4d80-917f-23c91ed81065"},"vehicle_type_id":"4","last_reported":1744103477,"current_range_meters":4800,"station_id":"ce4bhpp2rcd13ifvqhfg","pricing_plan_id":"cebpf4jnsgd1na2vs0mg"},{"bike_id":"efb7a6f0-2326-4e8f-973f-9e9d7df2346a","system_id":"levelo_inurba_marseille","lat":43.27059,"lon":5.40258,"is_reserved":false,"is_disabled":false,"rental_uris":{"android":"levelo://app?vid=efb7a6f0-2326-4e8f-973f-9e9d7df2346a","ios":"levelo://app?vid=efb7a6f0-2326-4e8f-973f-9e9d7df2346a"},"vehicle_type_id":"4","last_reported":1744103477,"current_range_meters":5600,"station_id":"ce4bhk92rcd13ifvqgc0","pricing_plan_id":"cebpf4jnsgd1na2vs0mg"},{"bike_id":"19224d95-e048-4cbb-8884-43e0e6b3db9b","system_id":"levelo_inurba_marseille","lat":43.29872,"lon":5.39752,"is_reserved":false,"is_disabled":true,"rental_uris":{"android":"levelo://app?vid=19224d95-e048-4cbb-8884-43e0e6b3db9b","ios":"levelo://app?vid=19224d95-e048-4cbb-8884-43e0e6b3db9b"},"vehicle_type_id":"4","last_reported":1744103477,"current_range_meters":5600,"station_id":"ce4bh0h2rcd13ifvqd50","pricing_plan_id":"cebpf4jnsgd1na2vs0mg"},{"bike_id":"465e5836-98d8-44fc-81ea-2ddec10fe18e","system_id":"levelo_inurba_marseille","lat":43.28453,"lon":5.39196,"is_reserved":false,"is_disabled":false,"rental_uris":{"android":"levelo://app?vid=465e5836-98d8-44fc-81ea-2ddec10fe18e","ios":"levelo://app?vid=465e5836-98d8-44fc-81ea-2ddec10fe18e"},"vehicle_type_id":"4","last_reported":1744103477,"current_range_meters":5600,"station_id":"ce4bhoh2rcd13ifvqh5g","pricing_plan_id":"cebpf4jnsgd1na2vs0mg"},{"bike_id":"6ebe9ec3-b74c-497b-aa8c-e68d0877c617","system_id":"levelo_inurba_marseille","lat":43.25131,"lon":5.40343,"is_reserved":false,"is_disabled":false,"rental_uris":{"android":"levelo://app?vid=6ebe9ec3-b74c-497b-aa8c-e68d0877c617","ios":"levelo://app?vid=6ebe9ec3-b74c-497b-aa8c-e68d0877c617"},"vehicle_type_id":"4","last_reported":1744103477,"current_range_meters":6000,"station_id":"ce4bhlh2rcd13ifvqgig","pricing_plan_id":"cebpf4jnsgd1na2vs0mg"},{"bike_id":"8a38320c-a733-4cf5-8c8e-152497fe8f8f","system_id":"levelo_inurba_marseille","lat":43.28151,"lon":5.42629,"is_reserved":false,"is_disabled":false,"rental_uris":{"android":"levelo://app?vid=8a38320c-a733-4cf5-8c8e-152497fe8f8f","ios":"levelo://app?vid=8a38320c-a733-4cf5-8c8e-152497fe8f8f"},"vehicle_type_id":"4","last_reported":1744103477,"current_range_meters":6000,"station_id":"ce4bhnh2rcd13ifvqgug","pricing_plan_id":"cebpf4jnsgd1na2vs0mg"},{"bike_id":"99a6a75e-eaea-44bc-8a64-878e7edc2729","system_id":"levelo_inurba_marseille","lat":43.30148,"lon":5.37392,"is_reserved":false,"is_disabled":false,"rental_uris":{"android":"levelo://app?vid=99a6a75e-eaea-44bc-8a64-878e7edc2729","ios":"levelo://app?vid=99a6a75e-eaea-44bc-8a64-878e7edc2729"},"vehicle_type_id":"4","last_reported":1744103477,"current_range_meters":6000,"station_id":"ce4bgs92rcd13ifvqcc0","pricing_plan_id":"cebpf4jnsgd1na2vs0mg"},{"bike_id":"243cbc00-83fb-4b24-9bdd-e1d4ef128677","system_id":"levelo_inurba_marseille","lat":43.28939,"lon":5.36647,"is_reserved":false,"is_disabled":false,"rental_uris":{"android":"levelo://app?vid=243cbc00-83fb-4b24-9bdd-e1d4ef128677","ios":"levelo://app?vid=243cbc00-83fb-4b24-9bdd-e1d4ef128677"},"vehicle_type_id":"4","last_reported":1744103477,"current_range_meters":6000,"station_id":"ce4bhap2rcd13ifvqek0","pricing_plan_id":"cebpf4jnsgd1na2vs0mg"},{"bike_id":"e4a07207-fed0-4e37-8539-48386b90c7e5","system_id":"levelo_inurba_marseille","lat":43.32544,"lon":5.41435,"is_reserved":false,"is_disabled":false,"rental_uris":{"android":"levelo://app?vid=e4a07207-fed0-4e37-8539-48386b90c7e5","ios":"levelo://app?vid=e4a07207-fed0-4e37-8539-48386b90c7e5"},"vehicle_type_id":"4","last_reported":1744103477,"current_range_meters":6000,"station_id":"ce4bhq12rcd13ifvqhhg","pricing_plan_id":"cebpf4jnsgd1na2vs0mg"},{"bike_id":"f3b83e8a-c65f-4f5d-8899-2b84c089f530","system_id":"levelo_inurba_marseille","lat":43.321,"lon":5.36768,"is_reserved":false,"is_disabled":false,"rental_uris":{"android":"levelo://app?vid=f3b83e8a-c65f-4f5d-8899-2b84c089f530","ios":"levelo://app?vid=f3b83e8a-c65f-4f5d-8899-2b84c089f530"},"vehicle_type_id":"4","last_reported":1744103477,"current_range_meters":6400,"station_id":"ce4bhrh2rcd13ifvqhug","pricing_plan_id":"cebpf4jnsgd1na2vs0mg"},{"bike_id":"73276e73-379c-4215-bfe8-0a4cdf26f8fb","system_id":"levelo_inurba_marseille","lat":43.27377,"lon":5.36231,"is_reserved":false,"is_disabled":false,"rental_uris":{"android":"levelo://app?vid=73276e73-379c-4215-bfe8-0a4cdf26f8fb","ios":"levelo://app?vid=73276e73-379c-4215-bfe8-0a4cdf26f8fb"},"vehicle_type_id":"4","last_reported":1744103477,"current_range_meters":6400,"station_id":"ce4bhbh2rcd13ifvqeo0","pricing_plan_id":"cebpf4jnsgd1na2vs0mg"},{"bike_id":"06d8c071-c15f-4628-bdf9-94c609b910a0","system_id":"levelo_inurba_marseille","lat":43.33617,"lon":5.40974,"is_reserved":false,"is_disabled":false,"rental_uris":{"android":"levelo://app?vid=06d8c071-c15f-4628-bdf9-94c609b910a0","ios":"levelo://app?vid=06d8c071-c15f-4628-bdf9-94c609b910a0"},"vehicle_type_id":"4","last_reported":1744103477,"current_range_meters":6400,"station_id":"ce4bhqh2rcd13ifvqhmg","pricing_plan_id":"cebpf4jnsgd1na2vs0mg"},{"bike_id":"cfb55e5b-35d4-4289-b801-c392f2d54dc8","system_id":"levelo_inurba_marseille","lat":43.30549,"lon":5.36522,"is_reserved":false,"is_disabled":false,"rental_uris":{"android":"levelo://app?vid=cfb55e5b-35d4-4289-b801-c392f2d54dc8","ios":"levelo://app?vid=cfb55e5b-35d4-4289-b801-c392f2d54dc8"},"vehicle_type_id":"4","last_reported":1744103477,"current_range_meters":6800,"station_id":"ce4bgs12rcd13ifvqcag","pricing_plan_id":"cebpf4jnsgd1na2vs0mg"},{"bike_id":"79201908-0f90-4e75-adc0-a2133affce80","system_id":"levelo_inurba_marseille","lat":43.291138,"lon":5.382766,"is_reserved":false,"is_disabled":false,"rental_uris":{"android":"levelo://app?vid=79201908-0f90-4e75-adc0-a2133affce80","ios":"levelo://app?vid=79201908-0f90-4e75-adc0-a2133affce80"},"vehicle_type_id":"4","last_reported":1744103477,"current_range_meters":6800,"station_id":"ce4bgop2rcd13ifvqc1g","pricing_plan_id":"cebpf4jnsgd1na2vs0mg"},{"bike_id":"74897263-22e0-48fa-905e-541fbe18d67a","system_id":"levelo_inurba_marseille","lat":43.3056,"lon":5.36523,"is_reserved":false,"is_disabled":false,"rental_uris":{"android":"levelo://app?vid=74897263-22e0-48fa-905e-541fbe18d67a","ios":"levelo://app?vid=74897263-22e0-48fa-905e-541fbe18d67a"},"vehicle_type_id":"4","last_reported":1744103477,"current_range_meters":6800,"station_id":"ce4bgs12rcd13ifvqcag","pricing_plan_id":"cebpf4jnsgd1na2vs0mg"},{"bike_id":"abf828e0-bebc-4654-bc93-1d92f449deee","system_id":"levelo_inurba_marseille","lat":43.32348,"lon":5.36686,"is_reserved":false,"is_disabled":false,"rental_uris":{"android":"levelo://app?vid=abf828e0-bebc-4654-bc93-1d92f449deee","ios":"levelo://app?vid=abf828e0-bebc-4654-bc93-1d92f449deee"},"vehicle_type_id":"4","last_reported":1744103477,"current_range_meters":6800,"station_id":"ce4bhsh2rcd13ifvqi2g","pricing_plan_id":"cebpf4jnsgd1na2vs0mg"},{"bike_id":"e223670b-5545-4017-934f-c2adf2f3c08b","system_id":"levelo_inurba_marseille","lat":43.27059,"lon":5.42256,"is_reserved":false,"is_disabled":false,"rental_uris":{"android":"levelo://app?vid=e223670b-5545-4017-934f-c2adf2f3c08b","ios":"levelo://app?vid=e223670b-5545-4017-934f-c2adf2f3c08b"},"vehicle_type_id":"4","last_reported":1744103477,"current_range_meters":6800,"station_id":"ce4bhk92rcd13ifvqgb0","pricing_plan_id":"cebpf4jnsgd1na2vs0mg"},{"bike_id":"6422ec53-afe7-41be-87cb-da9731d5a7f6","system_id":"levelo_inurba_marseille","lat":43.25927,"lon":5.4085,"is_reserved":false,"is_disabled":true,"rental_uris":{"android":"levelo://app?vid=6422ec53-afe7-41be-87cb-da9731d5a7f6","ios":"levelo://app?vid=6422ec53-afe7-41be-87cb-da9731d5a7f6"},"vehicle_type_id":"4","last_reported":1744103477,"current_range_meters":6800,"station_id":"ce4bhm92rcd13ifvqglg","pricing_plan_id":"cebpf4jnsgd1na2vs0mg"},{"bike_id":"5ba02e57-e745-47ce-9b93-c851debe9e12","system_id":"levelo_inurba_marseille","lat":43.27198,"lon":5.40972,"is_reserved":false,"is_disabled":false,"rental_uris":{"android":"levelo://app?vid=5ba02e57-e745-47ce-9b93-c851debe9e12","ios":"levelo://app?vid=5ba02e57-e745-47ce-9b93-c851debe9e12"},"vehicle_type_id":"4","last_reported":1744103477,"current_range_meters":6800,"station_id":"ce4bhl12rcd13ifvqgf0","pricing_plan_id":"cebpf4jnsgd1na2vs0mg"},{"bike_id":"0c3279bb-3192-4bb6-b845-5bc2bac9ef89","system_id":"levelo_inurba_marseille","lat":43.29257,"lon":5.36843,"is_reserved":false,"is_disabled":false,"rental_uris":{"android":"levelo://app?vid=0c3279bb-3192-4bb6-b845-5bc2bac9ef89","ios":"levelo://app?vid=0c3279bb-3192-4bb6-b845-5bc2bac9ef89"},"vehicle_type_id":"4","last_reported":1744103477,"current_range_meters":6800,"station_id":"ce4bhbp2rcd13ifvqesg","pricing_plan_id":"cebpf4jnsgd1na2vs0mg"},{"bike_id":"87bda883-ac94-49fc-94c2-3a86e52b4f97","system_id":"levelo_inurba_marseille","lat":43.30721,"lon":5.38336,"is_reserved":false,"is_disabled":false,"rental_uris":{"android":"levelo://app?vid=87bda883-ac94-49fc-94c2-3a86e52b4f97","ios":"levelo://app?vid=87bda883-ac94-49fc-94c2-3a86e52b4f97"},"vehicle_type_id":"4","last_reported":1744103477,"current_range_meters":7200,"station_id":"","pricing_plan_id":"cebpf4jnsgd1na2vs0mg"},{"bike_id":"7ae1c95c-1e2c-400a-8efd-618212ebe707","system_id":"levelo_inurba_marseille","lat":43.31657,"lon":5.38243,"is_reserved":false,"is_disabled":false,"rental_uris":{"android":"levelo://app?vid=7ae1c95c-1e2c-400a-8efd-618212ebe707","ios":"levelo://app?vid=7ae1c95c-1e2c-400a-8efd-618212ebe707"},"vehicle_type_id":"4","last_reported":1744103477,"current_range_meters":7200,"station_id":"","pricing_plan_id":"cebpf4jnsgd1na2vs0mg"},{"bike_id":"9f58fe17-7445-4171-ab8a-b7da8864df25","system_id":"levelo_inurba_marseille","lat":43.29902,"lon":5.43643,"is_reserved":false,"is_disabled":false,"rental_uris":{"android":"levelo://app?vid=9f58fe17-7445-4171-ab8a-b7da8864df25","ios":"levelo://app?vid=9f58fe17-7445-4171-ab8a-b7da8864df25"},"vehicle_type_id":"4","last_reported":1744103477,"current_range_meters":7200,"station_id":"ce4bhpp2rcd13ifvqhfg","pricing_plan_id":"cebpf4jnsgd1na2vs0mg"},{"bike_id":"cc057f14-b1e1-4dee-b107-8741c01c5964","system_id":"levelo_inurba_marseille","lat":43.32125,"lon":5.36767,"is_reserved":false,"is_disabled":true,"rental_uris":{"android":"levelo://app?vid=cc057f14-b1e1-4dee-b107-8741c01c5964","ios":"levelo://app?vid=cc057f14-b1e1-4dee-b107-8741c01c5964"},"vehicle_type_id":"4","last_reported":1744103477,"current_range_meters":7200,"station_id":"ce4bhrh2rcd13ifvqhug","pricing_plan_id":"cebpf4jnsgd1na2vs0mg"},{"bike_id":"85c88742-d94f-4116-8ecb-055ad88d5459","system_id":"levelo_inurba_marseille","lat":43.27502,"lon":5.42467,"is_reserved":false,"is_disabled":false,"rental_uris":{"android":"levelo://app?vid=85c88742-d94f-4116-8ecb-055ad88d5459","ios":"levelo://app?vid=85c88742-d94f-4116-8ecb-055ad88d5459"},"vehicle_type_id":"4","last_reported":1744103477,"current_range_meters":8000,"station_id":"ce4bhn92rcd13ifvqgrg","pricing_plan_id":"cebpf4jnsgd1na2vs0mg"},{"bike_id":"47f23708-5535-4149-ac75-998e76432576","system_id":"levelo_inurba_marseille","lat":43.3059,"lon":5.36512,"is_reserved":false,"is_disabled":false,"rental_uris":{"android":"levelo://app?vid=47f23708-5535-4149-ac75-998e76432576","ios":"levelo://app?vid=47f23708-5535-4149-ac75-998e76432576"},"vehicle_type_id":"4","last_reported":1744103477,"current_range_meters":8000,"station_id":"","pricing_plan_id":"cebpf4jnsgd1na2vs0mg"},{"bike_id":"db77aa95-72db-470c-9c43-5322da612de8","system_id":"levelo_inurba_marseille","lat":43.31792,"lon":5.40163,"is_reserved":false,"is_disabled":false,"rental_uris":{"android":"levelo://app?vid=db77aa95-72db-470c-9c43-5322da612de8","ios":"levelo://app?vid=db77aa95-72db-470c-9c43-5322da612de8"},"vehicle_type_id":"4","last_reported":1744103477,"current_range_meters":8000,"station_id":"","pricing_plan_id":"cebpf4jnsgd1na2vs0mg"},{"bike_id":"bec659b1-2ddb-41bf-9e2d-39084f6c1a4a","system_id":"levelo_inurba_marseille","lat":43.31722,"lon":5.42406,"is_reserved":false,"is_disabled":false,"rental_uris":{"android":"levelo://app?vid=bec659b1-2ddb-41bf-9e2d-39084f6c1a4a","ios":"levelo://app?vid=bec659b1-2ddb-41bf-9e2d-39084f6c1a4a"},"vehicle_type_id":"4","last_reported":1744103477,"current_range_meters":8000,"station_id":"ce4bhp92rcd13ifvqhbg","pricing_plan_id":"cebpf4jnsgd1na2vs0mg"},{"bike_id":"cd577a70-1285-4212-be14-c738c01c14c9","system_id":"levelo_inurba_marseille","lat":43.3373,"lon":5.39177,"is_reserved":false,"is_disabled":false,"rental_uris":{"android":"levelo://app?vid=cd577a70-1285-4212-be14-c738c01c14c9","ios":"levelo://app?vid=cd577a70-1285-4212-be14-c738c01c14c9"},"vehicle_type_id":"4","last_reported":1744103477,"current_range_meters":8000,"station_id":"ce4bhr92rcd13ifvqhsg","pricing_plan_id":"cebpf4jnsgd1na2vs0mg"},{"bike_id":"9972aee6-4470-443a-8e14-c2078bb91c0d","system_id":"levelo_inurba_marseille","lat":43.31201,"lon":5.37069,"is_reserved":false,"is_disabled":false,"rental_uris":{"android":"levelo://app?vid=9972aee6-4470-443a-8e14-c2078bb91c0d","ios":"levelo://app?vid=9972aee6-4470-443a-8e14-c2078bb91c0d"},"vehicle_type_id":"4","last_reported":1744103477,"current_range_meters":8000,"station_id":"","pricing_plan_id":"cebpf4jnsgd1na2vs0mg"},{"bike_id":"717e4a2b-312c-4c87-b19d-4ea15e0c33cc","system_id":"levelo_inurba_marseille","lat":43.3137,"lon":5.36712,"is_reserved":false,"is_disabled":true,"rental_uris":{"android":"levelo://app?vid=717e4a2b-312c-4c87-b19d-4ea15e0c33cc","ios":"levelo://app?vid=717e4a2b-312c-4c87-b19d-4ea15e0c33cc"},"vehicle_type_id":"4","last_reported":1744103477,"current_range_meters":8000,"station_id":"ce4bgr92rcd13ifvqc6g","pricing_plan_id":"cebpf4jnsgd1na2vs0mg"},{"bike_id":"4fe21798-e4d1-4985-bc15-6a7a89cb6541","system_id":"levelo_inurba_marseille","lat":43.21197,"lon":5.35076,"is_reserved":false,"is_disabled":false,"rental_uris":{"android":"levelo://app?vid=4fe21798-e4d1-4985-bc15-6a7a89cb6541","ios":"levelo://app?vid=4fe21798-e4d1-4985-bc15-6a7a89cb6541"},"vehicle_type_id":"4","last_reported":1744103477,"current_range_meters":8000,"station_id":"st_cvj6sg6p6f1abm77japg","pricing_plan_id":"cebpf4jnsgd1na2vs0mg"},{"bike_id":"c2d5aea1-f36b-49c4-8580-b2d41dc17c36","system_id":"levelo_inurba_marseille","lat":43.24165,"lon":5.39716,"is_reserved":false,"is_disabled":false,"rental_uris":{"android":"levelo://app?vid=c2d5aea1-f36b-49c4-8580-b2d41dc17c36","ios":"levelo://app?vid=c2d5aea1-f36b-49c4-8580-b2d41dc17c36"},"vehicle_type_id":"4","last_reported":1744103477,"current_range_meters":5600,"station_id":"ce4bhn12rcd13ifvqgpg","pricing_plan_id":"cebpf4jnsgd1na2vs0mg"},{"bike_id":"e338240f-435f-4193-8417-a9c441797f7a","system_id":"levelo_inurba_marseille","lat":43.27507,"lon":5.42469,"is_reserved":false,"is_disabled":false,"rental_uris":{"android":"levelo://app?vid=e338240f-435f-4193-8417-a9c441797f7a","ios":"levelo://app?vid=e338240f-435f-4193-8417-a9c441797f7a"},"vehicle_type_id":"4","last_reported":1744103477,"current_range_meters":8400,"station_id":"ce4bhn92rcd13ifvqgrg","pricing_plan_id":"cebpf4jnsgd1na2vs0mg"},{"bike_id":"750bc9c2-8244-4f27-a571-77c62d7d6b92","system_id":"levelo_inurba_marseille","lat":43.31294,"lon":5.37765,"is_reserved":false,"is_disabled":false,"rental_uris":{"android":"levelo://app?vid=750bc9c2-8244-4f27-a571-77c62d7d6b92","ios":"levelo://app?vid=750bc9c2-8244-4f27-a571-77c62d7d6b92"},"vehicle_type_id":"4","last_reported":1744103477,"current_range_meters":8400,"station_id":"","pricing_plan_id":"cebpf4jnsgd1na2vs0mg"},{"bike_id":"08e19f6e-35d2-4d7b-ba78-fc5542bcca44","system_id":"levelo_inurba_marseille","lat":43.29272,"lon":5.37622,"is_reserved":false,"is_disabled":false,"rental_uris":{"android":"levelo://app?vid=08e19f6e-35d2-4d7b-ba78-fc5542bcca44","ios":"levelo://app?vid=08e19f6e-35d2-4d7b-ba78-fc5542bcca44"},"vehicle_type_id":"4","last_reported":1744103477,"current_range_meters":9200,"station_id":"ce4bgi12rcd13ifvqb80","pricing_plan_id":"cebpf4jnsgd1na2vs0mg"},{"bike_id":"3cbad1fb-d71d-4e4f-90fa-c1465f9f9b65","system_id":"levelo_inurba_marseille","lat":43.21187,"lon":5.35074,"is_reserved":false,"is_disabled":true,"rental_uris":{"android":"levelo://app?vid=3cbad1fb-d71d-4e4f-90fa-c1465f9f9b65","ios":"levelo://app?vid=3cbad1fb-d71d-4e4f-90fa-c1465f9f9b65"},"vehicle_type_id":"4","last_reported":1744103477,"current_range_meters":8400,"station_id":"st_cvj6sg6p6f1abm77japg","pricing_plan_id":"cebpf4jnsgd1na2vs0mg"},{"bike_id":"485f24a3-8ba6-4caa-8780-8392668d8f6b","system_id":"levelo_inurba_marseille","lat":43.31714,"lon":5.37766,"is_reserved":false,"is_disabled":true,"rental_uris":{"android":"levelo://app?vid=485f24a3-8ba6-4caa-8780-8392668d8f6b","ios":"levelo://app?vid=485f24a3-8ba6-4caa-8780-8392668d8f6b"},"vehicle_type_id":"4","last_reported":1744103477,"current_range_meters":8800,"station_id":"ce4bgth2rcd13ifvqch0","pricing_plan_id":"cebpf4jnsgd1na2vs0mg"},{"bike_id":"88d39464-e295-45ef-b788-46a514d73c6d","system_id":"levelo_inurba_marseille","lat":43.25493,"lon":5.37634,"is_reserved":false,"is_disabled":false,"rental_uris":{"android":"levelo://app?vid=88d39464-e295-45ef-b788-46a514d73c6d","ios":"levelo://app?vid=88d39464-e295-45ef-b788-46a514d73c6d"},"vehicle_type_id":"4","last_reported":1744103477,"current_range_meters":8800,"station_id":"ce4bhh12rcd13ifvqff0","pricing_plan_id":"cebpf4jnsgd1na2vs0mg"},{"bike_id":"7b3646e0-cbf2-40de-92a8-c829ec618775","system_id":"levelo_inurba_marseille","lat":43.32007,"lon":5.38168,"is_reserved":false,"is_disabled":true,"rental_uris":{"android":"levelo://app?vid=7b3646e0-cbf2-40de-92a8-c829ec618775","ios":"levelo://app?vid=7b3646e0-cbf2-40de-92a8-c829ec618775"},"vehicle_type_id":"4","last_reported":1744103477,"current_range_meters":8800,"station_id":"ce4bhr12rcd13ifvqhpg","pricing_plan_id":"cebpf4jnsgd1na2vs0mg"},{"bike_id":"ba7c1988-38b0-47c5-9097-b9eef0649e1f","system_id":"levelo_inurba_marseille","lat":43.29056,"lon":5.39982,"is_reserved":false,"is_disabled":true,"rental_uris":{"android":"levelo://app?vid=ba7c1988-38b0-47c5-9097-b9eef0649e1f","ios":"levelo://app?vid=ba7c1988-38b0-47c5-9097-b9eef0649e1f"},"vehicle_type_id":"4","last_reported":1744103477,"current_range_meters":8800,"station_id":"ce4bh392rcd13ifvqdm0","pricing_plan_id":"cebpf4jnsgd1na2vs0mg"},{"bike_id":"55fe5251-21ad-4a8a-81dd-9a34b7108151","system_id":"levelo_inurba_marseille","lat":43.30552,"lon":5.36532,"is_reserved":false,"is_disabled":false,"rental_uris":{"android":"levelo://app?vid=55fe5251-21ad-4a8a-81dd-9a34b7108151","ios":"levelo://app?vid=55fe5251-21ad-4a8a-81dd-9a34b7108151"},"vehicle_type_id":"4","last_reported":1744103477,"current_range_meters":8800,"station_id":"ce4bgs12rcd13ifvqcag","pricing_plan_id":"cebpf4jnsgd1na2vs0mg"},{"bike_id":"00778e8f-82e6-400c-b4fc-beb129d9308e","system_id":"levelo_inurba_marseille","lat":43.28934,"lon":5.366294,"is_reserved":false,"is_disabled":false,"rental_uris":{"android":"levelo://app?vid=00778e8f-82e6-400c-b4fc-beb129d9308e","ios":"levelo://app?vid=00778e8f-82e6-400c-b4fc-beb129d9308e"},"vehicle_type_id":"4","last_reported":1744103477,"current_range_meters":8800,"station_id":"ce4bhap2rcd13ifvqek0","pricing_plan_id":"cebpf4jnsgd1na2vs0mg"},{"bike_id":"444a5f07-09c5-40f5-8d58-60f1f25c67b9","system_id":"levelo_inurba_marseille","lat":43.32003,"lon":5.38131,"is_reserved":false,"is_disabled":false,"rental_uris":{"android":"levelo://app?vid=444a5f07-09c5-40f5-8d58-60f1f25c67b9","ios":"levelo://app?vid=444a5f07-09c5-40f5-8d58-60f1f25c67b9"},"vehicle_type_id":"4","last_reported":1744103477,"current_range_meters":8800,"station_id":"ce4bhr12rcd13ifvqhpg","pricing_plan_id":"cebpf4jnsgd1na2vs0mg"},{"bike_id":"17c72205-4caa-4ced-8941-6ee68fca1388","system_id":"levelo_inurba_marseille","lat":43.30141,"lon":5.38054,"is_reserved":false,"is_disabled":false,"rental_uris":{"android":"levelo://app?vid=17c72205-4caa-4ced-8941-6ee68fca1388","ios":"levelo://app?vid=17c72205-4caa-4ced-8941-6ee68fca1388"},"vehicle_type_id":"4","last_reported":1744103477,"current_range_meters":9200,"station_id":"ce4bgjp2rcd13ifvqbh0","pricing_plan_id":"cebpf4jnsgd1na2vs0mg"},{"bike_id":"fd7d128c-986f-4250-b6d2-bf737d7077fb","system_id":"levelo_inurba_marseille","lat":43.26468,"lon":5.39555,"is_reserved":false,"is_disabled":true,"rental_uris":{"android":"levelo://app?vid=fd7d128c-986f-4250-b6d2-bf737d7077fb","ios":"levelo://app?vid=fd7d128c-986f-4250-b6d2-bf737d7077fb"},"vehicle_type_id":"4","last_reported":1744103477,"current_range_meters":9200,"station_id":"ce4bhi12rcd13ifvqfq0","pricing_plan_id":"cebpf4jnsgd1na2vs0mg"},{"bike_id":"f39be6f5-2f69-4c37-b021-559d20b299a4","system_id":"levelo_inurba_marseille","lat":43.29997,"lon":5.37641,"is_reserved":false,"is_disabled":false,"rental_uris":{"android":"levelo://app?vid=f39be6f5-2f69-4c37-b021-559d20b299a4","ios":"levelo://app?vid=f39be6f5-2f69-4c37-b021-559d20b299a4"},"vehicle_type_id":"4","last_reported":1744103477,"current_range_meters":9200,"station_id":"","pricing_plan_id":"cebpf4jnsgd1na2vs0mg"},{"bike_id":"f54ed993-fedb-455c-8329-424ac8299963","system_id":"levelo_inurba_marseille","lat":43.32362,"lon":5.36768,"is_reserved":false,"is_disabled":false,"rental_uris":{"android":"levelo://app?vid=f54ed993-fedb-455c-8329-424ac8299963","ios":"levelo://app?vid=f54ed993-fedb-455c-8329-424ac8299963"},"vehicle_type_id":"4","last_reported":1744103477,"current_range_meters":9200,"station_id":"ce4bhsh2rcd13ifvqi2g","pricing_plan_id":"cebpf4jnsgd1na2vs0mg"},{"bike_id":"2e9000dc-6400-4918-a994-dd60039ca96d","system_id":"levelo_inurba_marseille","lat":43.32001,"lon":5.38143,"is_reserved":false,"is_disabled":true,"rental_uris":{"android":"levelo://app?vid=2e9000dc-6400-4918-a994-dd60039ca96d","ios":"levelo://app?vid=2e9000dc-6400-4918-a994-dd60039ca96d"},"vehicle_type_id":"4","last_reported":1744103477,"current_range_meters":9200,"station_id":"ce4bhr12rcd13ifvqhpg","pricing_plan_id":"cebpf4jnsgd1na2vs0mg"},{"bike_id":"3b4e1299-1e40-4aec-ad7e-7eb21543e414","system_id":"levelo_inurba_marseille","lat":43.31256,"lon":5.36874,"is_reserved":false,"is_disabled":false,"rental_uris":{"android":"levelo://app?vid=3b4e1299-1e40-4aec-ad7e-7eb21543e414","ios":"levelo://app?vid=3b4e1299-1e40-4aec-ad7e-7eb21543e414"},"vehicle_type_id":"4","last_reported":1744103477,"current_range_meters":9600,"station_id":"ce4bgl92rcd13ifvqbq0","pricing_plan_id":"cebpf4jnsgd1na2vs0mg"},{"bike_id":"d1789c99-5c7c-4e88-9d29-ce771e783c08","system_id":"levelo_inurba_marseille","lat":43.31006,"lon":5.37719,"is_reserved":false,"is_disabled":false,"rental_uris":{"android":"levelo://app?vid=d1789c99-5c7c-4e88-9d29-ce771e783c08","ios":"levelo://app?vid=d1789c99-5c7c-4e88-9d29-ce771e783c08"},"vehicle_type_id":"4","last_reported":1744103477,"current_range_meters":9600,"station_id":"","pricing_plan_id":"cebpf4jnsgd1na2vs0mg"},{"bike_id":"c9bafbba-b7f7-46f1-9ddb-3cbf4105567c","system_id":"levelo_inurba_marseille","lat":43.309521,"lon":5.390604,"is_reserved":false,"is_disabled":false,"rental_uris":{"android":"levelo://app?vid=c9bafbba-b7f7-46f1-9ddb-3cbf4105567c","ios":"levelo://app?vid=c9bafbba-b7f7-46f1-9ddb-3cbf4105567c"},"vehicle_type_id":"4","last_reported":1744103477,"current_range_meters":9600,"station_id":"ce4bgup2rcd13ifvqco0","pricing_plan_id":"cebpf4jnsgd1na2vs0mg"},{"bike_id":"3576b946-70b3-456f-a60a-d98e227f015c","system_id":"levelo_inurba_marseille","lat":43.30113,"lon":5.38224,"is_reserved":false,"is_disabled":false,"rental_uris":{"android":"levelo://app?vid=3576b946-70b3-456f-a60a-d98e227f015c","ios":"levelo://app?vid=3576b946-70b3-456f-a60a-d98e227f015c"},"vehicle_type_id":"4","last_reported":1744103477,"current_range_meters":9600,"station_id":"ce4bgup2rcd13ifvqcn0","pricing_plan_id":"cebpf4jnsgd1na2vs0mg"},{"bike_id":"91af7c49-4122-4f83-a08d-fc084211eb7b","system_id":"levelo_inurba_marseille","lat":43.314,"lon":5.36688,"is_reserved":false,"is_disabled":false,"rental_uris":{"android":"levelo://app?vid=91af7c49-4122-4f83-a08d-fc084211eb7b","ios":"levelo://app?vid=91af7c49-4122-4f83-a08d-fc084211eb7b"},"vehicle_type_id":"4","last_reported":1744103477,"current_range_meters":9600,"station_id":"","pricing_plan_id":"cebpf4jnsgd1na2vs0mg"},{"bike_id":"d3292869-3a23-4776-9cc5-f847b4f8e10e","system_id":"levelo_inurba_marseille","lat":43.27676,"lon":5.38869,"is_reserved":false,"is_disabled":false,"rental_uris":{"android":"levelo://app?vid=d3292869-3a23-4776-9cc5-f847b4f8e10e","ios":"levelo://app?vid=d3292869-3a23-4776-9cc5-f847b4f8e10e"},"vehicle_type_id":"4","last_reported":1744103477,"current_range_meters":9200,"station_id":"ce4bhi12rcd13ifvqfo0","pricing_plan_id":"cebpf4jnsgd1na2vs0mg"},{"bike_id":"dff0c398-5457-4c82-99b9-071db8607d47","system_id":"levelo_inurba_marseille","lat":43.25704,"lon":5.41902,"is_reserved":false,"is_disabled":false,"rental_uris":{"android":"levelo://app?vid=dff0c398-5457-4c82-99b9-071db8607d47","ios":"levelo://app?vid=dff0c398-5457-4c82-99b9-071db8607d47"},"vehicle_type_id":"4","last_reported":1744103477,"current_range_meters":10000,"station_id":"","pricing_plan_id":"cebpf4jnsgd1na2vs0mg"},{"bike_id":"f17ce36f-e80a-4732-89e2-7a7dfab19d87","system_id":"levelo_inurba_marseille","lat":43.29916,"lon":5.43656,"is_reserved":false,"is_disabled":false,"rental_uris":{"android":"levelo://app?vid=f17ce36f-e80a-4732-89e2-7a7dfab19d87","ios":"levelo://app?vid=f17ce36f-e80a-4732-89e2-7a7dfab19d87"},"vehicle_type_id":"4","last_reported":1744103477,"current_range_meters":10000,"station_id":"ce4bhpp2rcd13ifvqhfg","pricing_plan_id":"cebpf4jnsgd1na2vs0mg"},{"bike_id":"82f28cf6-556c-431d-a12b-bd3ce5fc2f28","system_id":"levelo_inurba_marseille","lat":43.275,"lon":5.37736,"is_reserved":false,"is_disabled":false,"rental_uris":{"android":"levelo://app?vid=82f28cf6-556c-431d-a12b-bd3ce5fc2f28","ios":"levelo://app?vid=82f28cf6-556c-431d-a12b-bd3ce5fc2f28"},"vehicle_type_id":"4","last_reported":1744103477,"current_range_meters":10000,"station_id":"","pricing_plan_id":"cebpf4jnsgd1na2vs0mg"},{"bike_id":"cf749fae-7d0d-4e31-882b-69567102e54d","system_id":"levelo_inurba_marseille","lat":43.25888,"lon":5.40846,"is_reserved":false,"is_disabled":true,"rental_uris":{"android":"levelo://app?vid=cf749fae-7d0d-4e31-882b-69567102e54d","ios":"levelo://app?vid=cf749fae-7d0d-4e31-882b-69567102e54d"},"vehicle_type_id":"4","last_reported":1744103477,"current_range_meters":10000,"station_id":"ce4bhm92rcd13ifvqglg","pricing_plan_id":"cebpf4jnsgd1na2vs0mg"},{"bike_id":"fe5fa5b7-cdbd-4495-9a4a-14f4d8a30513","system_id":"levelo_inurba_marseille","lat":43.288695,"lon":5.358509,"is_reserved":false,"is_disabled":false,"rental_uris":{"android":"levelo://app?vid=fe5fa5b7-cdbd-4495-9a4a-14f4d8a30513","ios":"levelo://app?vid=fe5fa5b7-cdbd-4495-9a4a-14f4d8a30513"},"vehicle_type_id":"4","last_reported":1744103477,"current_range_meters":10000,"station_id":"ce4bhb12rcd13ifvqem0","pricing_plan_id":"cebpf4jnsgd1na2vs0mg"},{"bike_id":"89771962-fe60-4144-a8a6-39dd0f7b9fb3","system_id":"levelo_inurba_marseille","lat":43.21229,"lon":5.35069,"is_reserved":false,"is_disabled":false,"rental_uris":{"android":"levelo://app?vid=89771962-fe60-4144-a8a6-39dd0f7b9fb3","ios":"levelo://app?vid=89771962-fe60-4144-a8a6-39dd0f7b9fb3"},"vehicle_type_id":"4","last_reported":1744103477,"current_range_meters":10000,"station_id":"","pricing_plan_id":"cebpf4jnsgd1na2vs0mg"},{"bike_id":"6734a96c-00f8-4634-9403-c44f9894f4ea","system_id":"levelo_inurba_marseille","lat":43.29903,"lon":5.37488,"is_reserved":false,"is_disabled":false,"rental_uris":{"android":"levelo://app?vid=6734a96c-00f8-4634-9403-c44f9894f4ea","ios":"levelo://app?vid=6734a96c-00f8-4634-9403-c44f9894f4ea"},"vehicle_type_id":"4","last_reported":1744103477,"current_range_meters":9600,"station_id":"ce4bgjh2rcd13ifvqbg0","pricing_plan_id":"cebpf4jnsgd1na2vs0mg"},{"bike_id":"4bdf6b96-f187-465a-a70a-64c4e90ba7c1","system_id":"levelo_inurba_marseille","lat":43.30124,"lon":5.3878,"is_reserved":false,"is_disabled":false,"rental_uris":{"android":"levelo://app?vid=4bdf6b96-f187-465a-a70a-64c4e90ba7c1","ios":"levelo://app?vid=4bdf6b96-f187-465a-a70a-64c4e90ba7c1"},"vehicle_type_id":"4","last_reported":1744103477,"current_range_meters":10000,"station_id":"ce4bghh2rcd13ifvqb60","pricing_plan_id":"cebpf4jnsgd1na2vs0mg"},{"bike_id":"5b499456-7a48-491a-993f-36d1c697711e","system_id":"levelo_inurba_marseille","lat":43.26812,"lon":5.39405,"is_reserved":false,"is_disabled":false,"rental_uris":{"android":"levelo://app?vid=5b499456-7a48-491a-993f-36d1c697711e","ios":"levelo://app?vid=5b499456-7a48-491a-993f-36d1c697711e"},"vehicle_type_id":"4","last_reported":1744103477,"current_range_meters":10800,"station_id":"ce4bhh12rcd13ifvqfg0","pricing_plan_id":"cebpf4jnsgd1na2vs0mg"},{"bike_id":"8a08216c-264c-40c9-baa0-51102ea40b4f","system_id":"levelo_inurba_marseille","lat":43.26691,"lon":5.38263,"is_reserved":false,"is_disabled":false,"rental_uris":{"android":"levelo://app?vid=8a08216c-264c-40c9-baa0-51102ea40b4f","ios":"levelo://app?vid=8a08216c-264c-40c9-baa0-51102ea40b4f"},"vehicle_type_id":"4","last_reported":1744103477,"current_range_meters":10800,"station_id":"ce4bhg92rcd13ifvqf90","pricing_plan_id":"cebpf4jnsgd1na2vs0mg"},{"bike_id":"e0e8e7d9-9588-4598-9249-4441331f8e80","system_id":"levelo_inurba_marseille","lat":43.30287,"lon":5.37711,"is_reserved":false,"is_disabled":false,"rental_uris":{"android":"levelo://app?vid=e0e8e7d9-9588-4598-9249-4441331f8e80","ios":"levelo://app?vid=e0e8e7d9-9588-4598-9249-4441331f8e80"},"vehicle_type_id":"4","last_reported":1744103477,"current_range_meters":10800,"station_id":"ce4bguh2rcd13ifvqcj0","pricing_plan_id":"cebpf4jnsgd1na2vs0mg"},{"bike_id":"9fdbb279-7ab1-411c-a559-9a6c79c25c3b","system_id":"levelo_inurba_marseille","lat":43.31275,"lon":5.40171,"is_reserved":false,"is_disabled":false,"rental_uris":{"android":"levelo://app?vid=9fdbb279-7ab1-411c-a559-9a6c79c25c3b","ios":"levelo://app?vid=9fdbb279-7ab1-411c-a559-9a6c79c25c3b"},"vehicle_type_id":"4","last_reported":1744103477,"current_range_meters":11200,"station_id":"ce4bh092rcd13ifvqd30","pricing_plan_id":"cebpf4jnsgd1na2vs0mg"},{"bike_id":"de05a175-8870-4899-9c6b-89537d17ab4c","system_id":"levelo_inurba_marseille","lat":43.31741,"lon":5.38985,"is_reserved":false,"is_disabled":false,"rental_uris":{"android":"levelo://app?vid=de05a175-8870-4899-9c6b-89537d17ab4c","ios":"levelo://app?vid=de05a175-8870-4899-9c6b-89537d17ab4c"},"vehicle_type_id":"4","last_reported":1744103477,"current_range_meters":11200,"station_id":"ce4bhqp2rcd13ifvqhng","pricing_plan_id":"cebpf4jnsgd1na2vs0mg"},{"bike_id":"6cb5b5a1-969f-4139-ba7a-12696e51f125","system_id":"levelo_inurba_marseille","lat":43.33605,"lon":5.40992,"is_reserved":false,"is_disabled":false,"rental_uris":{"android":"levelo://app?vid=6cb5b5a1-969f-4139-ba7a-12696e51f125","ios":"levelo://app?vid=6cb5b5a1-969f-4139-ba7a-12696e51f125"},"vehicle_type_id":"4","last_reported":1744103477,"current_range_meters":11200,"station_id":"ce4bhqh2rcd13ifvqhmg","pricing_plan_id":"cebpf4jnsgd1na2vs0mg"},{"bike_id":"57c4e6e8-026a-4350-b996-12df6b497807","system_id":"levelo_inurba_marseille","lat":43.29625,"lon":5.37705,"is_reserved":false,"is_disabled":true,"rental_uris":{"android":"levelo://app?vid=57c4e6e8-026a-4350-b996-12df6b497807","ios":"levelo://app?vid=57c4e6e8-026a-4350-b996-12df6b497807"},"vehicle_type_id":"4","last_reported":1744103477,"current_range_meters":11200,"station_id":"ce4bgi92rcd13ifvqb90","pricing_plan_id":"cebpf4jnsgd1na2vs0mg"},{"bike_id":"0afed779-407d-455d-a0b7-f04caa260d0f","system_id":"levelo_inurba_marseille","lat":43.31724,"lon":5.43704,"is_reserved":false,"is_disabled":true,"rental_uris":{"android":"levelo://app?vid=0afed779-407d-455d-a0b7-f04caa260d0f","ios":"levelo://app?vid=0afed779-407d-455d-a0b7-f04caa260d0f"},"vehicle_type_id":"4","last_reported":1744103477,"current_range_meters":11600,"station_id":"ce4bhp92rcd13ifvqhcg","pricing_plan_id":"cebpf4jnsgd1na2vs0mg"},{"bike_id":"0748ce16-1dbb-4683-afb9-eabebbdfd5a5","system_id":"levelo_inurba_marseille","lat":43.29229,"lon":5.40005,"is_reserved":false,"is_disabled":false,"rental_uris":{"android":"levelo://app?vid=0748ce16-1dbb-4683-afb9-eabebbdfd5a5","ios":"levelo://app?vid=0748ce16-1dbb-4683-afb9-eabebbdfd5a5"},"vehicle_type_id":"4","last_reported":1744103477,"current_range_meters":11600,"station_id":"","pricing_plan_id":"cebpf4jnsgd1na2vs0mg"},{"bike_id":"c25cebe9-0724-4d96-8a8d-d22a0b8c00a4","system_id":"levelo_inurba_marseille","lat":43.24586,"lon":5.41576,"is_reserved":false,"is_disabled":false,"rental_uris":{"android":"levelo://app?vid=c25cebe9-0724-4d96-8a8d-d22a0b8c00a4","ios":"levelo://app?vid=c25cebe9-0724-4d96-8a8d-d22a0b8c00a4"},"vehicle_type_id":"4","last_reported":1744103477,"current_range_meters":11600,"station_id":"","pricing_plan_id":"cebpf4jnsgd1na2vs0mg"},{"bike_id":"5b76e7b8-bbb9-404a-8218-efeecbc6b7f2","system_id":"levelo_inurba_marseille","lat":43.24187,"lon":5.39732,"is_reserved":false,"is_disabled":false,"rental_uris":{"android":"levelo://app?vid=5b76e7b8-bbb9-404a-8218-efeecbc6b7f2","ios":"levelo://app?vid=5b76e7b8-bbb9-404a-8218-efeecbc6b7f2"},"vehicle_type_id":"4","last_reported":1744103477,"current_range_meters":11600,"station_id":"ce4bhn12rcd13ifvqgpg","pricing_plan_id":"cebpf4jnsgd1na2vs0mg"},{"bike_id":"a613de97-0090-4415-bf45-b9a7dfc2a534","system_id":"levelo_inurba_marseille","lat":43.24173,"lon":5.36393,"is_reserved":false,"is_disabled":false,"rental_uris":{"android":"levelo://app?vid=a613de97-0090-4415-bf45-b9a7dfc2a534","ios":"levelo://app?vid=a613de97-0090-4415-bf45-b9a7dfc2a534"},"vehicle_type_id":"4","last_reported":1744103477,"current_range_meters":11600,"station_id":"cpo36qri1sfpv3e86is0","pricing_plan_id":"cebpf4jnsgd1na2vs0mg"},{"bike_id":"68d1cc33-0218-451e-8e10-d32225c21263","system_id":"levelo_inurba_marseille","lat":43.23157,"lon":5.43659,"is_reserved":false,"is_disabled":true,"rental_uris":{"android":"levelo://app?vid=68d1cc33-0218-451e-8e10-d32225c21263","ios":"levelo://app?vid=68d1cc33-0218-451e-8e10-d32225c21263"},"vehicle_type_id":"4","last_reported":1744103477,"current_range_meters":11600,"station_id":"ce4bhmp2rcd13ifvqgog","pricing_plan_id":"cebpf4jnsgd1na2vs0mg"},{"bike_id":"0aa02c49-cbb3-4907-a588-f754056f3ba8","system_id":"levelo_inurba_marseille","lat":43.308,"lon":5.38143,"is_reserved":false,"is_disabled":true,"rental_uris":{"android":"levelo://app?vid=0aa02c49-cbb3-4907-a588-f754056f3ba8","ios":"levelo://app?vid=0aa02c49-cbb3-4907-a588-f754056f3ba8"},"vehicle_type_id":"4","last_reported":1744103477,"current_range_meters":12000,"station_id":"ce4bgt12rcd13ifvqce0","pricing_plan_id":"cebpf4jnsgd1na2vs0mg"},{"bike_id":"2f0a04da-5197-4754-8fad-e315cb0d75cb","system_id":"levelo_inurba_marseille","lat":43.309448,"lon":5.390338,"is_reserved":false,"is_disabled":false,"rental_uris":{"android":"levelo://app?vid=2f0a04da-5197-4754-8fad-e315cb0d75cb","ios":"levelo://app?vid=2f0a04da-5197-4754-8fad-e315cb0d75cb"},"vehicle_type_id":"4","last_reported":1744103477,"current_range_meters":12000,"station_id":"ce4bgup2rcd13ifvqco0","pricing_plan_id":"cebpf4jnsgd1na2vs0mg"},{"bike_id":"cf1ff944-6ec6-45c5-ad6f-1a6c9a1154b0","system_id":"levelo_inurba_marseille","lat":43.309106,"lon":5.368543,"is_reserved":false,"is_disabled":false,"rental_uris":{"android":"levelo://app?vid=cf1ff944-6ec6-45c5-ad6f-1a6c9a1154b0","ios":"levelo://app?vid=cf1ff944-6ec6-45c5-ad6f-1a6c9a1154b0"},"vehicle_type_id":"4","last_reported":1744103477,"current_range_meters":12000,"station_id":"ce4bgn92rcd13ifvqbvg","pricing_plan_id":"cebpf4jnsgd1na2vs0mg"},{"bike_id":"20fc5042-1d35-4e78-b5b4-05f75cbe7b93","system_id":"levelo_inurba_marseille","lat":43.30871,"lon":5.36833,"is_reserved":false,"is_disabled":false,"rental_uris":{"android":"levelo://app?vid=20fc5042-1d35-4e78-b5b4-05f75cbe7b93","ios":"levelo://app?vid=20fc5042-1d35-4e78-b5b4-05f75cbe7b93"},"vehicle_type_id":"4","last_reported":1744103477,"current_range_meters":12000,"station_id":"ce4bgn92rcd13ifvqbvg","pricing_plan_id":"cebpf4jnsgd1na2vs0mg"},{"bike_id":"4bacdaaa-7fb4-452a-b873-94dd24624c9a","system_id":"levelo_inurba_marseille","lat":43.31316,"lon":5.36639,"is_reserved":false,"is_disabled":false,"rental_uris":{"android":"levelo://app?vid=4bacdaaa-7fb4-452a-b873-94dd24624c9a","ios":"levelo://app?vid=4bacdaaa-7fb4-452a-b873-94dd24624c9a"},"vehicle_type_id":"4","last_reported":1744103477,"current_range_meters":12000,"station_id":"","pricing_plan_id":"cebpf4jnsgd1na2vs0mg"},{"bike_id":"a7517978-c0ab-4d22-9874-bc3a5fa3be83","system_id":"levelo_inurba_marseille","lat":43.29165,"lon":5.37151,"is_reserved":false,"is_disabled":false,"rental_uris":{"android":"levelo://app?vid=a7517978-c0ab-4d22-9874-bc3a5fa3be83","ios":"levelo://app?vid=a7517978-c0ab-4d22-9874-bc3a5fa3be83"},"vehicle_type_id":"4","last_reported":1744103477,"current_range_meters":12000,"station_id":"ce4bha92rcd13ifvqeh0","pricing_plan_id":"cebpf4jnsgd1na2vs0mg"},{"bike_id":"a2b55975-55e4-4a3f-8af7-2c27ff45ed68","system_id":"levelo_inurba_marseille","lat":43.28154,"lon":5.42642,"is_reserved":false,"is_disabled":true,"rental_uris":{"android":"levelo://app?vid=a2b55975-55e4-4a3f-8af7-2c27ff45ed68","ios":"levelo://app?vid=a2b55975-55e4-4a3f-8af7-2c27ff45ed68"},"vehicle_type_id":"4","last_reported":1744103477,"current_range_meters":12400,"station_id":"ce4bhnh2rcd13ifvqgug","pricing_plan_id":"cebpf4jnsgd1na2vs0mg"},{"bike_id":"93e3fd92-d65f-4f36-ba40-a3e5476ebc87","system_id":"levelo_inurba_marseille","lat":43.30686,"lon":5.366,"is_reserved":false,"is_disabled":false,"rental_uris":{"android":"levelo://app?vid=93e3fd92-d65f-4f36-ba40-a3e5476ebc87","ios":"levelo://app?vid=93e3fd92-d65f-4f36-ba40-a3e5476ebc87"},"vehicle_type_id":"4","last_reported":1744103477,"current_range_meters":12400,"station_id":"","pricing_plan_id":"cebpf4jnsgd1na2vs0mg"},{"bike_id":"575ecfc1-7681-4131-b780-0093048f354c","system_id":"levelo_inurba_marseille","lat":43.25929,"lon":5.40909,"is_reserved":false,"is_disabled":false,"rental_uris":{"android":"levelo://app?vid=575ecfc1-7681-4131-b780-0093048f354c","ios":"levelo://app?vid=575ecfc1-7681-4131-b780-0093048f354c"},"vehicle_type_id":"4","last_reported":1744103477,"current_range_meters":12800,"station_id":"ce4bhm92rcd13ifvqglg","pricing_plan_id":"cebpf4jnsgd1na2vs0mg"},{"bike_id":"1ca7d0c4-b7aa-4350-ad9f-4e24c2ba029a","system_id":"levelo_inurba_marseille","lat":43.30382,"lon":5.42499,"is_reserved":false,"is_disabled":true,"rental_uris":{"android":"levelo://app?vid=1ca7d0c4-b7aa-4350-ad9f-4e24c2ba029a","ios":"levelo://app?vid=1ca7d0c4-b7aa-4350-ad9f-4e24c2ba029a"},"vehicle_type_id":"4","last_reported":1744103477,"current_range_meters":12800,"station_id":"ce4bhoh2rcd13ifvqh6g","pricing_plan_id":"cebpf4jnsgd1na2vs0mg"},{"bike_id":"33f3c6cd-a892-4626-bb7b-dc7ed8ff6e47","system_id":"levelo_inurba_marseille","lat":43.31359,"lon":5.36699,"is_reserved":false,"is_disabled":false,"rental_uris":{"android":"levelo://app?vid=33f3c6cd-a892-4626-bb7b-dc7ed8ff6e47","ios":"levelo://app?vid=33f3c6cd-a892-4626-bb7b-dc7ed8ff6e47"},"vehicle_type_id":"4","last_reported":1744103477,"current_range_meters":12800,"station_id":"ce4bgr92rcd13ifvqc6g","pricing_plan_id":"cebpf4jnsgd1na2vs0mg"},{"bike_id":"424487f3-4350-40b8-aa7c-dfad0244cdf9","system_id":"levelo_inurba_marseille","lat":43.2784,"lon":5.41784,"is_reserved":false,"is_disabled":false,"rental_uris":{"android":"levelo://app?vid=424487f3-4350-40b8-aa7c-dfad0244cdf9","ios":"levelo://app?vid=424487f3-4350-40b8-aa7c-dfad0244cdf9"},"vehicle_type_id":"4","last_reported":1744103477,"current_range_meters":12800,"station_id":"","pricing_plan_id":"cebpf4jnsgd1na2vs0mg"},{"bike_id":"5b6be73e-e697-452c-8046-980c42a9b685","system_id":"levelo_inurba_marseille","lat":43.32479,"lon":5.36562,"is_reserved":false,"is_disabled":false,"rental_uris":{"android":"levelo://app?vid=5b6be73e-e697-452c-8046-980c42a9b685","ios":"levelo://app?vid=5b6be73e-e697-452c-8046-980c42a9b685"},"vehicle_type_id":"4","last_reported":1744103477,"current_range_meters":12800,"station_id":"ce4bhs12rcd13ifvqhvg","pricing_plan_id":"cebpf4jnsgd1na2vs0mg"},{"bike_id":"f143ff2e-721e-493c-bcdc-a7d2cc09ad81","system_id":"levelo_inurba_marseille","lat":43.31004,"lon":5.37721,"is_reserved":false,"is_disabled":true,"rental_uris":{"android":"levelo://app?vid=f143ff2e-721e-493c-bcdc-a7d2cc09ad81","ios":"levelo://app?vid=f143ff2e-721e-493c-bcdc-a7d2cc09ad81"},"vehicle_type_id":"4","last_reported":1744103477,"current_range_meters":12800,"station_id":"","pricing_plan_id":"cebpf4jnsgd1na2vs0mg"},{"bike_id":"90783537-fc6a-4e00-a8c3-1dc70d12d604","system_id":"levelo_inurba_marseille","lat":43.26194,"lon":5.37447,"is_reserved":false,"is_disabled":false,"rental_uris":{"android":"levelo://app?vid=90783537-fc6a-4e00-a8c3-1dc70d12d604","ios":"levelo://app?vid=90783537-fc6a-4e00-a8c3-1dc70d12d604"},"vehicle_type_id":"4","last_reported":1744103477,"current_range_meters":12800,"station_id":"ce4bhgp2rcd13ifvqfc0","pricing_plan_id":"cebpf4jnsgd1na2vs0mg"},{"bike_id":"47b469b5-8f60-4f5a-8e1b-6fb8dca45179","system_id":"levelo_inurba_marseille","lat":43.30972,"lon":5.39074,"is_reserved":false,"is_disabled":false,"rental_uris":{"android":"levelo://app?vid=47b469b5-8f60-4f5a-8e1b-6fb8dca45179","ios":"levelo://app?vid=47b469b5-8f60-4f5a-8e1b-6fb8dca45179"},"vehicle_type_id":"4","last_reported":1744103477,"current_range_meters":13600,"station_id":"ce4bgup2rcd13ifvqco0","pricing_plan_id":"cebpf4jnsgd1na2vs0mg"},{"bike_id":"c100526d-4d35-4657-a255-97c7221f1c44","system_id":"levelo_inurba_marseille","lat":43.29025,"lon":5.37557,"is_reserved":false,"is_disabled":true,"rental_uris":{"android":"levelo://app?vid=c100526d-4d35-4657-a255-97c7221f1c44","ios":"levelo://app?vid=c100526d-4d35-4657-a255-97c7221f1c44"},"vehicle_type_id":"4","last_reported":1744103477,"current_range_meters":13600,"station_id":"ce4bh692rcd13ifvqe90","pricing_plan_id":"cebpf4jnsgd1na2vs0mg"},{"bike_id":"cf1e3e29-0d99-4c8b-9d85-9649606fe6fe","system_id":"levelo_inurba_marseille","lat":43.30908,"lon":5.36859,"is_reserved":false,"is_disabled":false,"rental_uris":{"android":"levelo://app?vid=cf1e3e29-0d99-4c8b-9d85-9649606fe6fe","ios":"levelo://app?vid=cf1e3e29-0d99-4c8b-9d85-9649606fe6fe"},"vehicle_type_id":"4","last_reported":1744103477,"current_range_meters":13600,"station_id":"ce4bgn92rcd13ifvqbvg","pricing_plan_id":"cebpf4jnsgd1na2vs0mg"},{"bike_id":"1c24abbf-d842-4df3-9e43-2ef3129819ef","system_id":"levelo_inurba_marseille","lat":43.26786,"lon":5.39416,"is_reserved":false,"is_disabled":false,"rental_uris":{"android":"levelo://app?vid=1c24abbf-d842-4df3-9e43-2ef3129819ef","ios":"levelo://app?vid=1c24abbf-d842-4df3-9e43-2ef3129819ef"},"vehicle_type_id":"4","last_reported":1744103477,"current_range_meters":13600,"station_id":"ce4bhh12rcd13ifvqfg0","pricing_plan_id":"cebpf4jnsgd1na2vs0mg"},{"bike_id":"9e524312-4eb1-42a9-8d5b-763346e53427","system_id":"levelo_inurba_marseille","lat":43.30524,"lon":5.36707,"is_reserved":false,"is_disabled":false,"rental_uris":{"android":"levelo://app?vid=9e524312-4eb1-42a9-8d5b-763346e53427","ios":"levelo://app?vid=9e524312-4eb1-42a9-8d5b-763346e53427"},"vehicle_type_id":"4","last_reported":1744103477,"current_range_meters":14000,"station_id":"ce4bgrp2rcd13ifvqc9g","pricing_plan_id":"cebpf4jnsgd1na2vs0mg"},{"bike_id":"fdcf7938-4647-44bf-aab4-4119a71ee908","system_id":"levelo_inurba_marseille","lat":43.26697,"lon":5.38246,"is_reserved":false,"is_disabled":false,"rental_uris":{"android":"levelo://app?vid=fdcf7938-4647-44bf-aab4-4119a71ee908","ios":"levelo://app?vid=fdcf7938-4647-44bf-aab4-4119a71ee908"},"vehicle_type_id":"4","last_reported":1744103477,"current_range_meters":13600,"station_id":"ce4bhg92rcd13ifvqf90","pricing_plan_id":"cebpf4jnsgd1na2vs0mg"},{"bike_id":"37956fe4-5744-431d-afa2-d35a2b0e9346","system_id":"levelo_inurba_marseille","lat":43.31412,"lon":5.36646,"is_reserved":false,"is_disabled":false,"rental_uris":{"android":"levelo://app?vid=37956fe4-5744-431d-afa2-d35a2b0e9346","ios":"levelo://app?vid=37956fe4-5744-431d-afa2-d35a2b0e9346"},"vehicle_type_id":"4","last_reported":1744103477,"current_range_meters":14000,"station_id":"ce4bgr92rcd13ifvqc6g","pricing_plan_id":"cebpf4jnsgd1na2vs0mg"},{"bike_id":"5b5ffd5f-ff47-4b19-8c4c-94dc4ce8cd40","system_id":"levelo_inurba_marseille","lat":43.31242,"lon":5.36865,"is_reserved":false,"is_disabled":false,"rental_uris":{"android":"levelo://app?vid=5b5ffd5f-ff47-4b19-8c4c-94dc4ce8cd40","ios":"levelo://app?vid=5b5ffd5f-ff47-4b19-8c4c-94dc4ce8cd40"},"vehicle_type_id":"4","last_reported":1744103477,"current_range_meters":14000,"station_id":"ce4bgl92rcd13ifvqbq0","pricing_plan_id":"cebpf4jnsgd1na2vs0mg"},{"bike_id":"6119e120-199b-4a0a-946b-619e372621de","system_id":"levelo_inurba_marseille","lat":43.27309,"lon":5.39127,"is_reserved":false,"is_disabled":false,"rental_uris":{"android":"levelo://app?vid=6119e120-199b-4a0a-946b-619e372621de","ios":"levelo://app?vid=6119e120-199b-4a0a-946b-619e372621de"},"vehicle_type_id":"4","last_reported":1744103477,"current_range_meters":14000,"station_id":"ce4bhgp2rcd13ifvqfe0","pricing_plan_id":"cebpf4jnsgd1na2vs0mg"},{"bike_id":"b397701f-0d3d-44bf-ab3e-3ccc7e74fb2e","system_id":"levelo_inurba_marseille","lat":43.26428,"lon":5.42275,"is_reserved":false,"is_disabled":false,"rental_uris":{"android":"levelo://app?vid=b397701f-0d3d-44bf-ab3e-3ccc7e74fb2e","ios":"levelo://app?vid=b397701f-0d3d-44bf-ab3e-3ccc7e74fb2e"},"vehicle_type_id":"4","last_reported":1744103477,"current_range_meters":14000,"station_id":"","pricing_plan_id":"cebpf4jnsgd1na2vs0mg"},{"bike_id":"0c01be24-5fc2-43fd-bcb9-f1d4dd53281a","system_id":"levelo_inurba_marseille","lat":43.29073,"lon":5.4002,"is_reserved":false,"is_disabled":false,"rental_uris":{"android":"levelo://app?vid=0c01be24-5fc2-43fd-bcb9-f1d4dd53281a","ios":"levelo://app?vid=0c01be24-5fc2-43fd-bcb9-f1d4dd53281a"},"vehicle_type_id":"4","last_reported":1744103477,"current_range_meters":14400,"station_id":"","pricing_plan_id":"cebpf4jnsgd1na2vs0mg"},{"bike_id":"67f5402e-84ba-4cca-bae1-1308d8bfce95","system_id":"levelo_inurba_marseille","lat":43.32359,"lon":5.36759,"is_reserved":false,"is_disabled":true,"rental_uris":{"android":"levelo://app?vid=67f5402e-84ba-4cca-bae1-1308d8bfce95","ios":"levelo://app?vid=67f5402e-84ba-4cca-bae1-1308d8bfce95"},"vehicle_type_id":"4","last_reported":1744103477,"current_range_meters":14400,"station_id":"ce4bhsh2rcd13ifvqi2g","pricing_plan_id":"cebpf4jnsgd1na2vs0mg"},{"bike_id":"16812b35-8e35-42a3-974c-e768da60e32f","system_id":"levelo_inurba_marseille","lat":43.25032,"lon":5.38969,"is_reserved":false,"is_disabled":false,"rental_uris":{"android":"levelo://app?vid=16812b35-8e35-42a3-974c-e768da60e32f","ios":"levelo://app?vid=16812b35-8e35-42a3-974c-e768da60e32f"},"vehicle_type_id":"4","last_reported":1744103477,"current_range_meters":14800,"station_id":"ce4bhgp2rcd13ifvqfd0","pricing_plan_id":"cebpf4jnsgd1na2vs0mg"},{"bike_id":"ce5ed1c9-72dc-47d4-b09c-55d7645e4525","system_id":"levelo_inurba_marseille","lat":43.25121,"lon":5.4033,"is_reserved":false,"is_disabled":false,"rental_uris":{"android":"levelo://app?vid=ce5ed1c9-72dc-47d4-b09c-55d7645e4525","ios":"levelo://app?vid=ce5ed1c9-72dc-47d4-b09c-55d7645e4525"},"vehicle_type_id":"4","last_reported":1744103477,"current_range_meters":14800,"station_id":"ce4bhlh2rcd13ifvqgig","pricing_plan_id":"cebpf4jnsgd1na2vs0mg"},{"bike_id":"980b4909-06e8-4961-a7b7-ea7871482c8f","system_id":"levelo_inurba_marseille","lat":43.31416,"lon":5.36714,"is_reserved":false,"is_disabled":false,"rental_uris":{"android":"levelo://app?vid=980b4909-06e8-4961-a7b7-ea7871482c8f","ios":"levelo://app?vid=980b4909-06e8-4961-a7b7-ea7871482c8f"},"vehicle_type_id":"4","last_reported":1744103477,"current_range_meters":14800,"station_id":"ce4bgr92rcd13ifvqc6g","pricing_plan_id":"cebpf4jnsgd1na2vs0mg"},{"bike_id":"017ececf-43d5-455c-bb45-51a25d919062","system_id":"levelo_inurba_marseille","lat":43.3015,"lon":5.38086,"is_reserved":false,"is_disabled":false,"rental_uris":{"android":"levelo://app?vid=017ececf-43d5-455c-bb45-51a25d919062","ios":"levelo://app?vid=017ececf-43d5-455c-bb45-51a25d919062"},"vehicle_type_id":"4","last_reported":1744103477,"current_range_meters":14800,"station_id":"ce4bgjp2rcd13ifvqbh0","pricing_plan_id":"cebpf4jnsgd1na2vs0mg"},{"bike_id":"cad21abe-a0fd-4bc1-a752-f64a192ceed0","system_id":"levelo_inurba_marseille","lat":43.23959,"lon":5.36628,"is_reserved":false,"is_disabled":false,"rental_uris":{"android":"levelo://app?vid=cad21abe-a0fd-4bc1-a752-f64a192ceed0","ios":"levelo://app?vid=cad21abe-a0fd-4bc1-a752-f64a192ceed0"},"vehicle_type_id":"4","last_reported":1744103477,"current_range_meters":14800,"station_id":"ce4bhi12rcd13ifvqfp0","pricing_plan_id":"cebpf4jnsgd1na2vs0mg"},{"bike_id":"82c8bb94-4297-403f-8d78-def69529c5a5","system_id":"levelo_inurba_marseille","lat":43.31326,"lon":5.39686,"is_reserved":false,"is_disabled":false,"rental_uris":{"android":"levelo://app?vid=82c8bb94-4297-403f-8d78-def69529c5a5","ios":"levelo://app?vid=82c8bb94-4297-403f-8d78-def69529c5a5"},"vehicle_type_id":"4","last_reported":1744103477,"current_range_meters":14800,"station_id":"ce4bgvp2rcd13ifvqcu0","pricing_plan_id":"cebpf4jnsgd1na2vs0mg"},{"bike_id":"48a4cca8-1dd5-4391-a558-629ff6e4728a","system_id":"levelo_inurba_marseille","lat":43.27371,"lon":5.36257,"is_reserved":false,"is_disabled":false,"rental_uris":{"android":"levelo://app?vid=48a4cca8-1dd5-4391-a558-629ff6e4728a","ios":"levelo://app?vid=48a4cca8-1dd5-4391-a558-629ff6e4728a"},"vehicle_type_id":"4","last_reported":1744103477,"current_range_meters":13600,"station_id":"ce4bhbh2rcd13ifvqeo0","pricing_plan_id":"cebpf4jnsgd1na2vs0mg"},{"bike_id":"af24e20d-cd14-47b0-8e42-24aa1cee57db","system_id":"levelo_inurba_marseille","lat":43.27494,"lon":5.42468,"is_reserved":false,"is_disabled":false,"rental_uris":{"android":"levelo://app?vid=af24e20d-cd14-47b0-8e42-24aa1cee57db","ios":"levelo://app?vid=af24e20d-cd14-47b0-8e42-24aa1cee57db"},"vehicle_type_id":"4","last_reported":1744103477,"current_range_meters":15200,"station_id":"ce4bhn92rcd13ifvqgrg","pricing_plan_id":"cebpf4jnsgd1na2vs0mg"},{"bike_id":"852819f8-8577-46de-b1fa-432b264e47e4","system_id":"levelo_inurba_marseille","lat":43.24173,"lon":5.397436,"is_reserved":false,"is_disabled":false,"rental_uris":{"android":"levelo://app?vid=852819f8-8577-46de-b1fa-432b264e47e4","ios":"levelo://app?vid=852819f8-8577-46de-b1fa-432b264e47e4"},"vehicle_type_id":"4","last_reported":1744103477,"current_range_meters":16000,"station_id":"ce4bhn12rcd13ifvqgpg","pricing_plan_id":"cebpf4jnsgd1na2vs0mg"},{"bike_id":"9f0c4a18-1162-41a4-8880-6f75f7158ba4","system_id":"levelo_inurba_marseille","lat":43.26554,"lon":5.37285,"is_reserved":false,"is_disabled":false,"rental_uris":{"android":"levelo://app?vid=9f0c4a18-1162-41a4-8880-6f75f7158ba4","ios":"levelo://app?vid=9f0c4a18-1162-41a4-8880-6f75f7158ba4"},"vehicle_type_id":"4","last_reported":1744103477,"current_range_meters":16000,"station_id":"ce4bhg12rcd13ifvqf70","pricing_plan_id":"cebpf4jnsgd1na2vs0mg"},{"bike_id":"2aff3da0-1529-4960-a86c-d64b02e2b8cd","system_id":"levelo_inurba_marseille","lat":43.23087,"lon":5.35525,"is_reserved":false,"is_disabled":false,"rental_uris":{"android":"levelo://app?vid=2aff3da0-1529-4960-a86c-d64b02e2b8cd","ios":"levelo://app?vid=2aff3da0-1529-4960-a86c-d64b02e2b8cd"},"vehicle_type_id":"4","last_reported":1744103477,"current_range_meters":16000,"station_id":"cpo3342slgdg3j2ifvpg","pricing_plan_id":"cebpf4jnsgd1na2vs0mg"},{"bike_id":"ad0d4453-2c58-4258-8e17-aa49c50e1a2a","system_id":"levelo_inurba_marseille","lat":43.3198,"lon":5.38124,"is_reserved":false,"is_disabled":false,"rental_uris":{"android":"levelo://app?vid=ad0d4453-2c58-4258-8e17-aa49c50e1a2a","ios":"levelo://app?vid=ad0d4453-2c58-4258-8e17-aa49c50e1a2a"},"vehicle_type_id":"4","last_reported":1744103477,"current_range_meters":16000,"station_id":"ce4bhr12rcd13ifvqhpg","pricing_plan_id":"cebpf4jnsgd1na2vs0mg"},{"bike_id":"9d538f4a-a126-401d-99e8-6c1fe8584fb4","system_id":"levelo_inurba_marseille","lat":43.28485,"lon":5.38543,"is_reserved":false,"is_disabled":false,"rental_uris":{"android":"levelo://app?vid=9d538f4a-a126-401d-99e8-6c1fe8584fb4","ios":"levelo://app?vid=9d538f4a-a126-401d-99e8-6c1fe8584fb4"},"vehicle_type_id":"4","last_reported":1744103477,"current_range_meters":15200,"station_id":"ce4bh8p2rcd13ifvqeb0","pricing_plan_id":"cebpf4jnsgd1na2vs0mg"},{"bike_id":"9de631d8-33cc-46a8-9c33-d43cd6133cfd","system_id":"levelo_inurba_marseille","lat":43.30423,"lon":5.41264,"is_reserved":false,"is_disabled":false,"rental_uris":{"android":"levelo://app?vid=9de631d8-33cc-46a8-9c33-d43cd6133cfd","ios":"levelo://app?vid=9de631d8-33cc-46a8-9c33-d43cd6133cfd"},"vehicle_type_id":"4","last_reported":1744103477,"current_range_meters":16000,"station_id":"ce4bhop2rcd13ifvqh8g","pricing_plan_id":"cebpf4jnsgd1na2vs0mg"},{"bike_id":"dcde5bb1-ef33-4c51-89c0-5544b5b56711","system_id":"levelo_inurba_marseille","lat":43.28368,"lon":5.38625,"is_reserved":false,"is_disabled":false,"rental_uris":{"android":"levelo://app?vid=dcde5bb1-ef33-4c51-89c0-5544b5b56711","ios":"levelo://app?vid=dcde5bb1-ef33-4c51-89c0-5544b5b56711"},"vehicle_type_id":"4","last_reported":1744103477,"current_range_meters":16000,"station_id":"ce4bh492rcd13ifvqdvg","pricing_plan_id":"cebpf4jnsgd1na2vs0mg"},{"bike_id":"833ef218-6145-4587-b948-74f2bb237d35","system_id":"levelo_inurba_marseille","lat":43.27376,"lon":5.36223,"is_reserved":false,"is_disabled":false,"rental_uris":{"android":"levelo://app?vid=833ef218-6145-4587-b948-74f2bb237d35","ios":"levelo://app?vid=833ef218-6145-4587-b948-74f2bb237d35"},"vehicle_type_id":"4","last_reported":1744103477,"current_range_meters":16400,"station_id":"ce4bhbh2rcd13ifvqeo0","pricing_plan_id":"cebpf4jnsgd1na2vs0mg"},{"bike_id":"963c8010-06b3-47b1-b07c-1d268ac3a111","system_id":"levelo_inurba_marseille","lat":43.30528,"lon":5.36718,"is_reserved":false,"is_disabled":false,"rental_uris":{"android":"levelo://app?vid=963c8010-06b3-47b1-b07c-1d268ac3a111","ios":"levelo://app?vid=963c8010-06b3-47b1-b07c-1d268ac3a111"},"vehicle_type_id":"4","last_reported":1744103477,"current_range_meters":16400,"station_id":"ce4bgrp2rcd13ifvqc9g","pricing_plan_id":"cebpf4jnsgd1na2vs0mg"},{"bike_id":"a2905b9f-4c92-4ffe-b595-17e3c8468bc5","system_id":"levelo_inurba_marseille","lat":43.30552,"lon":5.36525,"is_reserved":false,"is_disabled":false,"rental_uris":{"android":"levelo://app?vid=a2905b9f-4c92-4ffe-b595-17e3c8468bc5","ios":"levelo://app?vid=a2905b9f-4c92-4ffe-b595-17e3c8468bc5"},"vehicle_type_id":"4","last_reported":1744103477,"current_range_meters":16400,"station_id":"ce4bgs12rcd13ifvqcag","pricing_plan_id":"cebpf4jnsgd1na2vs0mg"},{"bike_id":"71aa604c-6491-403d-b6de-93549d709257","system_id":"levelo_inurba_marseille","lat":43.3056,"lon":5.36695,"is_reserved":false,"is_disabled":true,"rental_uris":{"android":"levelo://app?vid=71aa604c-6491-403d-b6de-93549d709257","ios":"levelo://app?vid=71aa604c-6491-403d-b6de-93549d709257"},"vehicle_type_id":"4","last_reported":1744103477,"current_range_meters":16400,"station_id":"ce4bgrp2rcd13ifvqc9g","pricing_plan_id":"cebpf4jnsgd1na2vs0mg"},{"bike_id":"b3eaef5b-dac9-4f1e-aa7e-dd808d1ba556","system_id":"levelo_inurba_marseille","lat":43.31376,"lon":5.367,"is_reserved":false,"is_disabled":false,"rental_uris":{"android":"levelo://app?vid=b3eaef5b-dac9-4f1e-aa7e-dd808d1ba556","ios":"levelo://app?vid=b3eaef5b-dac9-4f1e-aa7e-dd808d1ba556"},"vehicle_type_id":"4","last_reported":1744103477,"current_range_meters":16400,"station_id":"ce4bgr92rcd13ifvqc6g","pricing_plan_id":"cebpf4jnsgd1na2vs0mg"},{"bike_id":"d29d56e8-842f-4f6c-a38f-539b4ab08bde","system_id":"levelo_inurba_marseille","lat":43.23155,"lon":5.43708,"is_reserved":false,"is_disabled":false,"rental_uris":{"android":"levelo://app?vid=d29d56e8-842f-4f6c-a38f-539b4ab08bde","ios":"levelo://app?vid=d29d56e8-842f-4f6c-a38f-539b4ab08bde"},"vehicle_type_id":"4","last_reported":1744103477,"current_range_meters":16800,"station_id":"ce4bhmp2rcd13ifvqgog","pricing_plan_id":"cebpf4jnsgd1na2vs0mg"},{"bike_id":"a1674ea7-f4ee-4b2f-bae5-57133e8704ee","system_id":"levelo_inurba_marseille","lat":43.30922,"lon":5.36855,"is_reserved":false,"is_disabled":false,"rental_uris":{"android":"levelo://app?vid=a1674ea7-f4ee-4b2f-bae5-57133e8704ee","ios":"levelo://app?vid=a1674ea7-f4ee-4b2f-bae5-57133e8704ee"},"vehicle_type_id":"4","last_reported":1744103477,"current_range_meters":16800,"station_id":"ce4bgn92rcd13ifvqbvg","pricing_plan_id":"cebpf4jnsgd1na2vs0mg"},{"bike_id":"025c1710-b18d-4a19-acf5-e74bf0ffdbbb","system_id":"levelo_inurba_marseille","lat":43.30541,"lon":5.36558,"is_reserved":false,"is_disabled":false,"rental_uris":{"android":"levelo://app?vid=025c1710-b18d-4a19-acf5-e74bf0ffdbbb","ios":"levelo://app?vid=025c1710-b18d-4a19-acf5-e74bf0ffdbbb"},"vehicle_type_id":"4","last_reported":1744103477,"current_range_meters":16800,"station_id":"ce4bgs12rcd13ifvqcag","pricing_plan_id":"cebpf4jnsgd1na2vs0mg"},{"bike_id":"ffd23061-d90c-47a4-89fb-f1646bcdff1c","system_id":"levelo_inurba_marseille","lat":43.27093,"lon":5.42273,"is_reserved":false,"is_disabled":true,"rental_uris":{"android":"levelo://app?vid=ffd23061-d90c-47a4-89fb-f1646bcdff1c","ios":"levelo://app?vid=ffd23061-d90c-47a4-89fb-f1646bcdff1c"},"vehicle_type_id":"4","last_reported":1744103477,"current_range_meters":16800,"station_id":"ce4bhk92rcd13ifvqgb0","pricing_plan_id":"cebpf4jnsgd1na2vs0mg"},{"bike_id":"0d1d977b-703a-4fc7-b7aa-224e42d86162","system_id":"levelo_inurba_marseille","lat":43.29353,"lon":5.37826,"is_reserved":false,"is_disabled":false,"rental_uris":{"android":"levelo://app?vid=0d1d977b-703a-4fc7-b7aa-224e42d86162","ios":"levelo://app?vid=0d1d977b-703a-4fc7-b7aa-224e42d86162"},"vehicle_type_id":"4","last_reported":1744103477,"current_range_meters":16400,"station_id":"ce4bgjh2rcd13ifvqbf0","pricing_plan_id":"cebpf4jnsgd1na2vs0mg"},{"bike_id":"c1ab22c3-8480-4c80-a462-a754e71d457d","system_id":"levelo_inurba_marseille","lat":43.31506,"lon":5.37301,"is_reserved":false,"is_disabled":false,"rental_uris":{"android":"levelo://app?vid=c1ab22c3-8480-4c80-a462-a754e71d457d","ios":"levelo://app?vid=c1ab22c3-8480-4c80-a462-a754e71d457d"},"vehicle_type_id":"4","last_reported":1744103477,"current_range_meters":16800,"station_id":"ce4bgt12rcd13ifvqcd0","pricing_plan_id":"cebpf4jnsgd1na2vs0mg"},{"bike_id":"9d0194f2-e559-432d-883b-49926d8e1faf","system_id":"levelo_inurba_marseille","lat":43.3135,"lon":5.36715,"is_reserved":false,"is_disabled":false,"rental_uris":{"android":"levelo://app?vid=9d0194f2-e559-432d-883b-49926d8e1faf","ios":"levelo://app?vid=9d0194f2-e559-432d-883b-49926d8e1faf"},"vehicle_type_id":"4","last_reported":1744103477,"current_range_meters":16800,"station_id":"ce4bgr92rcd13ifvqc6g","pricing_plan_id":"cebpf4jnsgd1na2vs0mg"},{"bike_id":"549398b2-f056-45c7-a85d-b971f1655171","system_id":"levelo_inurba_marseille","lat":43.307279,"lon":5.424451,"is_reserved":false,"is_disabled":false,"rental_uris":{"android":"levelo://app?vid=549398b2-f056-45c7-a85d-b971f1655171","ios":"levelo://app?vid=549398b2-f056-45c7-a85d-b971f1655171"},"vehicle_type_id":"4","last_reported":1744103477,"current_range_meters":16800,"station_id":"ce4bhb12rcd13ifvqel0","pricing_plan_id":"cebpf4jnsgd1na2vs0mg"},{"bike_id":"da68898f-513e-4562-9685-4c6284864d89","system_id":"levelo_inurba_marseille","lat":43.27973,"lon":5.41049,"is_reserved":false,"is_disabled":true,"rental_uris":{"android":"levelo://app?vid=da68898f-513e-4562-9685-4c6284864d89","ios":"levelo://app?vid=da68898f-513e-4562-9685-4c6284864d89"},"vehicle_type_id":"4","last_reported":1744103477,"current_range_meters":16800,"station_id":"ce4bhnp2rcd13ifvqh0g","pricing_plan_id":"cebpf4jnsgd1na2vs0mg"},{"bike_id":"e41e3d45-5795-4963-8a5e-14be782be993","system_id":"levelo_inurba_marseille","lat":43.30558,"lon":5.36529,"is_reserved":false,"is_disabled":false,"rental_uris":{"android":"levelo://app?vid=e41e3d45-5795-4963-8a5e-14be782be993","ios":"levelo://app?vid=e41e3d45-5795-4963-8a5e-14be782be993"},"vehicle_type_id":"4","last_reported":1744103477,"current_range_meters":16800,"station_id":"ce4bgs12rcd13ifvqcag","pricing_plan_id":"cebpf4jnsgd1na2vs0mg"},{"bike_id":"b28003d2-5ba0-44fe-a365-da0f7f3150c2","system_id":"levelo_inurba_marseille","lat":43.26211,"lon":5.37435,"is_reserved":false,"is_disabled":false,"rental_uris":{"android":"levelo://app?vid=b28003d2-5ba0-44fe-a365-da0f7f3150c2","ios":"levelo://app?vid=b28003d2-5ba0-44fe-a365-da0f7f3150c2"},"vehicle_type_id":"4","last_reported":1744103477,"current_range_meters":16800,"station_id":"ce4bhgp2rcd13ifvqfc0","pricing_plan_id":"cebpf4jnsgd1na2vs0mg"},{"bike_id":"486607d2-83f1-40ec-be7e-bbb19553a2c2","system_id":"levelo_inurba_marseille","lat":43.30297,"lon":5.37707,"is_reserved":false,"is_disabled":false,"rental_uris":{"android":"levelo://app?vid=486607d2-83f1-40ec-be7e-bbb19553a2c2","ios":"levelo://app?vid=486607d2-83f1-40ec-be7e-bbb19553a2c2"},"vehicle_type_id":"4","last_reported":1744103477,"current_range_meters":16800,"station_id":"ce4bguh2rcd13ifvqcj0","pricing_plan_id":"cebpf4jnsgd1na2vs0mg"},{"bike_id":"8d89bd25-fe64-46bf-97e7-21e7950962a4","system_id":"levelo_inurba_marseille","lat":43.23186,"lon":5.39959,"is_reserved":false,"is_disabled":false,"rental_uris":{"android":"levelo://app?vid=8d89bd25-fe64-46bf-97e7-21e7950962a4","ios":"levelo://app?vid=8d89bd25-fe64-46bf-97e7-21e7950962a4"},"vehicle_type_id":"4","last_reported":1744103477,"current_range_meters":17200,"station_id":"ce4bhn12rcd13ifvqgqg","pricing_plan_id":"cebpf4jnsgd1na2vs0mg"},{"bike_id":"e550d74a-e830-4a4b-91fb-45079a405831","system_id":"levelo_inurba_marseille","lat":43.33024,"lon":5.39041,"is_reserved":false,"is_disabled":false,"rental_uris":{"android":"levelo://app?vid=e550d74a-e830-4a4b-91fb-45079a405831","ios":"levelo://app?vid=e550d74a-e830-4a4b-91fb-45079a405831"},"vehicle_type_id":"4","last_reported":1744103477,"current_range_meters":17200,"station_id":"ce4bhr92rcd13ifvqhrg","pricing_plan_id":"cebpf4jnsgd1na2vs0mg"},{"bike_id":"92c822fe-ff9f-4023-a7a2-fe479a6e58f0","system_id":"levelo_inurba_marseille","lat":43.30543,"lon":5.36553,"is_reserved":false,"is_disabled":false,"rental_uris":{"android":"levelo://app?vid=92c822fe-ff9f-4023-a7a2-fe479a6e58f0","ios":"levelo://app?vid=92c822fe-ff9f-4023-a7a2-fe479a6e58f0"},"vehicle_type_id":"4","last_reported":1744103477,"current_range_meters":17200,"station_id":"ce4bgs12rcd13ifvqcag","pricing_plan_id":"cebpf4jnsgd1na2vs0mg"},{"bike_id":"23168112-e0ba-45f6-a8a1-4db6ae464308","system_id":"levelo_inurba_marseille","lat":43.287177,"lon":5.360825,"is_reserved":false,"is_disabled":false,"rental_uris":{"android":"levelo://app?vid=23168112-e0ba-45f6-a8a1-4db6ae464308","ios":"levelo://app?vid=23168112-e0ba-45f6-a8a1-4db6ae464308"},"vehicle_type_id":"4","last_reported":1744103477,"current_range_meters":16800,"station_id":"cki0cbj6b192h4jlfktg","pricing_plan_id":"cebpf4jnsgd1na2vs0mg"},{"bike_id":"e24c6fd3-f9cb-40c7-9e57-dd2c20540e9b","system_id":"levelo_inurba_marseille","lat":43.33083,"lon":5.40818,"is_reserved":false,"is_disabled":true,"rental_uris":{"android":"levelo://app?vid=e24c6fd3-f9cb-40c7-9e57-dd2c20540e9b","ios":"levelo://app?vid=e24c6fd3-f9cb-40c7-9e57-dd2c20540e9b"},"vehicle_type_id":"4","last_reported":1744103477,"current_range_meters":17200,"station_id":"","pricing_plan_id":"cebpf4jnsgd1na2vs0mg"},{"bike_id":"ce641620-c7c1-4693-8c90-e4348aa1a019","system_id":"levelo_inurba_marseille","lat":43.30378,"lon":5.42494,"is_reserved":false,"is_disabled":false,"rental_uris":{"android":"levelo://app?vid=ce641620-c7c1-4693-8c90-e4348aa1a019","ios":"levelo://app?vid=ce641620-c7c1-4693-8c90-e4348aa1a019"},"vehicle_type_id":"4","last_reported":1744103477,"current_range_meters":17200,"station_id":"ce4bhoh2rcd13ifvqh6g","pricing_plan_id":"cebpf4jnsgd1na2vs0mg"},{"bike_id":"c9dd406b-0f36-4874-86ea-a33761d56b7f","system_id":"levelo_inurba_marseille","lat":43.28277,"lon":5.35069,"is_reserved":false,"is_disabled":false,"rental_uris":{"android":"levelo://app?vid=c9dd406b-0f36-4874-86ea-a33761d56b7f","ios":"levelo://app?vid=c9dd406b-0f36-4874-86ea-a33761d56b7f"},"vehicle_type_id":"4","last_reported":1744103477,"current_range_meters":16800,"station_id":"ce4bhbp2rcd13ifvqerg","pricing_plan_id":"cebpf4jnsgd1na2vs0mg"},{"bike_id":"9946a8ad-c048-4416-b961-10de541eb5dc","system_id":"levelo_inurba_marseille","lat":43.2583,"lon":5.39435,"is_reserved":false,"is_disabled":false,"rental_uris":{"android":"levelo://app?vid=9946a8ad-c048-4416-b961-10de541eb5dc","ios":"levelo://app?vid=9946a8ad-c048-4416-b961-10de541eb5dc"},"vehicle_type_id":"4","last_reported":1744103477,"current_range_meters":17200,"station_id":"ce4bhip2rcd13ifvqft0","pricing_plan_id":"cebpf4jnsgd1na2vs0mg"},{"bike_id":"be040bda-fc29-43d8-a246-9c808bf8b01f","system_id":"levelo_inurba_marseille","lat":43.3086,"lon":5.36791,"is_reserved":false,"is_disabled":false,"rental_uris":{"android":"levelo://app?vid=be040bda-fc29-43d8-a246-9c808bf8b01f","ios":"levelo://app?vid=be040bda-fc29-43d8-a246-9c808bf8b01f"},"vehicle_type_id":"4","last_reported":1744103477,"current_range_meters":17200,"station_id":"","pricing_plan_id":"cebpf4jnsgd1na2vs0mg"},{"bike_id":"3227e078-7ac3-478f-8b3d-149f1d862ce0","system_id":"levelo_inurba_marseille","lat":43.29023,"lon":5.37566,"is_reserved":false,"is_disabled":false,"rental_uris":{"android":"levelo://app?vid=3227e078-7ac3-478f-8b3d-149f1d862ce0","ios":"levelo://app?vid=3227e078-7ac3-478f-8b3d-149f1d862ce0"},"vehicle_type_id":"4","last_reported":1744103477,"current_range_meters":17600,"station_id":"ce4bh692rcd13ifvqe90","pricing_plan_id":"cebpf4jnsgd1na2vs0mg"},{"bike_id":"5273534c-3473-4abd-9c4b-e677a5c1499a","system_id":"levelo_inurba_marseille","lat":43.29082,"lon":5.36925,"is_reserved":false,"is_disabled":false,"rental_uris":{"android":"levelo://app?vid=5273534c-3473-4abd-9c4b-e677a5c1499a","ios":"levelo://app?vid=5273534c-3473-4abd-9c4b-e677a5c1499a"},"vehicle_type_id":"4","last_reported":1744103477,"current_range_meters":17600,"station_id":"","pricing_plan_id":"cebpf4jnsgd1na2vs0mg"},{"bike_id":"1e099cf5-9456-4ac3-8d36-9153ce8a87f2","system_id":"levelo_inurba_marseille","lat":43.2958,"lon":5.39947,"is_reserved":false,"is_disabled":true,"rental_uris":{"android":"levelo://app?vid=1e099cf5-9456-4ac3-8d36-9153ce8a87f2","ios":"levelo://app?vid=1e099cf5-9456-4ac3-8d36-9153ce8a87f2"},"vehicle_type_id":"4","last_reported":1744103477,"current_range_meters":18000,"station_id":"ce4bh312rcd13ifvqdj0","pricing_plan_id":"cebpf4jnsgd1na2vs0mg"},{"bike_id":"85184727-c66a-4e80-a87a-1dc90da0022f","system_id":"levelo_inurba_marseille","lat":43.29165,"lon":5.3715,"is_reserved":false,"is_disabled":false,"rental_uris":{"android":"levelo://app?vid=85184727-c66a-4e80-a87a-1dc90da0022f","ios":"levelo://app?vid=85184727-c66a-4e80-a87a-1dc90da0022f"},"vehicle_type_id":"4","last_reported":1744103477,"current_range_meters":18000,"station_id":"ce4bha92rcd13ifvqeh0","pricing_plan_id":"cebpf4jnsgd1na2vs0mg"},{"bike_id":"9389f907-78e2-4c8e-b008-de9739faa63f","system_id":"levelo_inurba_marseille","lat":43.33744,"lon":5.39169,"is_reserved":false,"is_disabled":false,"rental_uris":{"android":"levelo://app?vid=9389f907-78e2-4c8e-b008-de9739faa63f","ios":"levelo://app?vid=9389f907-78e2-4c8e-b008-de9739faa63f"},"vehicle_type_id":"4","last_reported":1744103477,"current_range_meters":18000,"station_id":"ce4bhr92rcd13ifvqhsg","pricing_plan_id":"cebpf4jnsgd1na2vs0mg"},{"bike_id":"3656c20c-eb1e-4ae4-9294-cf1933f151b7","system_id":"levelo_inurba_marseille","lat":43.24183,"lon":5.3973,"is_reserved":false,"is_disabled":false,"rental_uris":{"android":"levelo://app?vid=3656c20c-eb1e-4ae4-9294-cf1933f151b7","ios":"levelo://app?vid=3656c20c-eb1e-4ae4-9294-cf1933f151b7"},"vehicle_type_id":"4","last_reported":1744103477,"current_range_meters":18000,"station_id":"ce4bhn12rcd13ifvqgpg","pricing_plan_id":"cebpf4jnsgd1na2vs0mg"},{"bike_id":"ade192fc-124e-4719-a8c9-6ad17a39e7ab","system_id":"levelo_inurba_marseille","lat":43.30088,"lon":5.39061,"is_reserved":false,"is_disabled":false,"rental_uris":{"android":"levelo://app?vid=ade192fc-124e-4719-a8c9-6ad17a39e7ab","ios":"levelo://app?vid=ade192fc-124e-4719-a8c9-6ad17a39e7ab"},"vehicle_type_id":"4","last_reported":1744103477,"current_range_meters":18000,"station_id":"ce4bh192rcd13ifvqdb0","pricing_plan_id":"cebpf4jnsgd1na2vs0mg"},{"bike_id":"dbdf330c-309e-415d-b02d-906afe155010","system_id":"levelo_inurba_marseille","lat":43.30192,"lon":5.36627,"is_reserved":false,"is_disabled":false,"rental_uris":{"android":"levelo://app?vid=dbdf330c-309e-415d-b02d-906afe155010","ios":"levelo://app?vid=dbdf330c-309e-415d-b02d-906afe155010"},"vehicle_type_id":"4","last_reported":1744103477,"current_range_meters":12800,"station_id":"ce4bgrh2rcd13ifvqc8g","pricing_plan_id":"cebpf4jnsgd1na2vs0mg"},{"bike_id":"f006cfce-4b84-47e2-a5f5-ae56ef07e582","system_id":"levelo_inurba_marseille","lat":43.28448,"lon":5.39189,"is_reserved":false,"is_disabled":false,"rental_uris":{"android":"levelo://app?vid=f006cfce-4b84-47e2-a5f5-ae56ef07e582","ios":"levelo://app?vid=f006cfce-4b84-47e2-a5f5-ae56ef07e582"},"vehicle_type_id":"4","last_reported":1744103477,"current_range_meters":17600,"station_id":"ce4bhoh2rcd13ifvqh5g","pricing_plan_id":"cebpf4jnsgd1na2vs0mg"},{"bike_id":"5f434b04-e3fa-4a88-9489-020ea8c069ed","system_id":"levelo_inurba_marseille","lat":43.27822,"lon":5.40705,"is_reserved":false,"is_disabled":false,"rental_uris":{"android":"levelo://app?vid=5f434b04-e3fa-4a88-9489-020ea8c069ed","ios":"levelo://app?vid=5f434b04-e3fa-4a88-9489-020ea8c069ed"},"vehicle_type_id":"4","last_reported":1744103477,"current_range_meters":18000,"station_id":"ce4bhnh2rcd13ifvqgtg","pricing_plan_id":"cebpf4jnsgd1na2vs0mg"},{"bike_id":"70aa88b7-7f68-471b-bd02-4a9c305c6949","system_id":"levelo_inurba_marseille","lat":43.23073,"lon":5.35494,"is_reserved":false,"is_disabled":false,"rental_uris":{"android":"levelo://app?vid=70aa88b7-7f68-471b-bd02-4a9c305c6949","ios":"levelo://app?vid=70aa88b7-7f68-471b-bd02-4a9c305c6949"},"vehicle_type_id":"4","last_reported":1744103477,"current_range_meters":18800,"station_id":"cpo3342slgdg3j2ifvpg","pricing_plan_id":"cebpf4jnsgd1na2vs0mg"},{"bike_id":"f619c15e-1941-443d-8ef4-21a7cd257551","system_id":"levelo_inurba_marseille","lat":43.30537,"lon":5.36689,"is_reserved":false,"is_disabled":false,"rental_uris":{"android":"levelo://app?vid=f619c15e-1941-443d-8ef4-21a7cd257551","ios":"levelo://app?vid=f619c15e-1941-443d-8ef4-21a7cd257551"},"vehicle_type_id":"4","last_reported":1744103477,"current_range_meters":18800,"station_id":"ce4bgrp2rcd13ifvqc9g","pricing_plan_id":"cebpf4jnsgd1na2vs0mg"},{"bike_id":"b1d07fa2-22ad-4c7c-9a40-a6f39b2cacee","system_id":"levelo_inurba_marseille","lat":43.30923,"lon":5.36856,"is_reserved":false,"is_disabled":false,"rental_uris":{"android":"levelo://app?vid=b1d07fa2-22ad-4c7c-9a40-a6f39b2cacee","ios":"levelo://app?vid=b1d07fa2-22ad-4c7c-9a40-a6f39b2cacee"},"vehicle_type_id":"4","last_reported":1744103477,"current_range_meters":18800,"station_id":"ce4bgn92rcd13ifvqbvg","pricing_plan_id":"cebpf4jnsgd1na2vs0mg"},{"bike_id":"6b770536-e0ee-4074-a4d5-7fac1065bae9","system_id":"levelo_inurba_marseille","lat":43.33759,"lon":5.39174,"is_reserved":false,"is_disabled":false,"rental_uris":{"android":"levelo://app?vid=6b770536-e0ee-4074-a4d5-7fac1065bae9","ios":"levelo://app?vid=6b770536-e0ee-4074-a4d5-7fac1065bae9"},"vehicle_type_id":"4","last_reported":1744103477,"current_range_meters":18000,"station_id":"ce4bhr92rcd13ifvqhsg","pricing_plan_id":"cebpf4jnsgd1na2vs0mg"},{"bike_id":"27768073-dde6-48e9-bf13-e40e2934834a","system_id":"levelo_inurba_marseille","lat":43.24145,"lon":5.39725,"is_reserved":false,"is_disabled":false,"rental_uris":{"android":"levelo://app?vid=27768073-dde6-48e9-bf13-e40e2934834a","ios":"levelo://app?vid=27768073-dde6-48e9-bf13-e40e2934834a"},"vehicle_type_id":"4","last_reported":1744103477,"current_range_meters":18800,"station_id":"ce4bhn12rcd13ifvqgpg","pricing_plan_id":"cebpf4jnsgd1na2vs0mg"},{"bike_id":"52dfef30-eef0-4dd6-a138-a48c8dcc2c3a","system_id":"levelo_inurba_marseille","lat":43.30422,"lon":5.4277,"is_reserved":false,"is_disabled":true,"rental_uris":{"android":"levelo://app?vid=52dfef30-eef0-4dd6-a138-a48c8dcc2c3a","ios":"levelo://app?vid=52dfef30-eef0-4dd6-a138-a48c8dcc2c3a"},"vehicle_type_id":"4","last_reported":1744103477,"current_range_meters":18800,"station_id":"","pricing_plan_id":"cebpf4jnsgd1na2vs0mg"},{"bike_id":"1ceb6dc5-480f-44cd-b4b8-03aaf9a43aba","system_id":"levelo_inurba_marseille","lat":43.31484,"lon":5.37275,"is_reserved":false,"is_disabled":false,"rental_uris":{"android":"levelo://app?vid=1ceb6dc5-480f-44cd-b4b8-03aaf9a43aba","ios":"levelo://app?vid=1ceb6dc5-480f-44cd-b4b8-03aaf9a43aba"},"vehicle_type_id":"4","last_reported":1744103477,"current_range_meters":18800,"station_id":"ce4bgt12rcd13ifvqcd0","pricing_plan_id":"cebpf4jnsgd1na2vs0mg"},{"bike_id":"def7a375-fd3b-400c-a8c9-72399dccb8e1","system_id":"levelo_inurba_marseille","lat":43.295227,"lon":5.394095,"is_reserved":false,"is_disabled":false,"rental_uris":{"android":"levelo://app?vid=def7a375-fd3b-400c-a8c9-72399dccb8e1","ios":"levelo://app?vid=def7a375-fd3b-400c-a8c9-72399dccb8e1"},"vehicle_type_id":"4","last_reported":1744103477,"current_range_meters":18800,"station_id":"ce4bgjp2rcd13ifvqbh0","pricing_plan_id":"cebpf4jnsgd1na2vs0mg"},{"bike_id":"44177a0e-05fc-42ce-9fe6-f0c6eb6aee7a","system_id":"levelo_inurba_marseille","lat":43.28453,"lon":5.35899,"is_reserved":false,"is_disabled":true,"rental_uris":{"android":"levelo://app?vid=44177a0e-05fc-42ce-9fe6-f0c6eb6aee7a","ios":"levelo://app?vid=44177a0e-05fc-42ce-9fe6-f0c6eb6aee7a"},"vehicle_type_id":"4","last_reported":1744103477,"current_range_meters":18800,"station_id":"ce4bhah2rcd13ifvqei0","pricing_plan_id":"cebpf4jnsgd1na2vs0mg"},{"bike_id":"fc612322-de86-4313-9191-710d228f1db1","system_id":"levelo_inurba_marseille","lat":43.30532,"lon":5.36697,"is_reserved":false,"is_disabled":false,"rental_uris":{"android":"levelo://app?vid=fc612322-de86-4313-9191-710d228f1db1","ios":"levelo://app?vid=fc612322-de86-4313-9191-710d228f1db1"},"vehicle_type_id":"4","last_reported":1744103477,"current_range_meters":18800,"station_id":"ce4bgrp2rcd13ifvqc9g","pricing_plan_id":"cebpf4jnsgd1na2vs0mg"},{"bike_id":"98169039-9034-4fba-a990-56a868121d4d","system_id":"levelo_inurba_marseille","lat":43.30555,"lon":5.3654,"is_reserved":false,"is_disabled":false,"rental_uris":{"android":"levelo://app?vid=98169039-9034-4fba-a990-56a868121d4d","ios":"levelo://app?vid=98169039-9034-4fba-a990-56a868121d4d"},"vehicle_type_id":"4","last_reported":1744103477,"current_range_meters":18000,"station_id":"ce4bgs12rcd13ifvqcag","pricing_plan_id":"cebpf4jnsgd1na2vs0mg"},{"bike_id":"ebe58abd-e740-43ed-85e6-f6ed0fd536f4","system_id":"levelo_inurba_marseille","lat":43.30275,"lon":5.37705,"is_reserved":false,"is_disabled":false,"rental_uris":{"android":"levelo://app?vid=ebe58abd-e740-43ed-85e6-f6ed0fd536f4","ios":"levelo://app?vid=ebe58abd-e740-43ed-85e6-f6ed0fd536f4"},"vehicle_type_id":"4","last_reported":1744103477,"current_range_meters":18800,"station_id":"ce4bguh2rcd13ifvqcj0","pricing_plan_id":"cebpf4jnsgd1na2vs0mg"},{"bike_id":"04664d55-585a-4c42-bcc5-0aa6fa8aef45","system_id":"levelo_inurba_marseille","lat":43.24806,"lon":5.37454,"is_reserved":false,"is_disabled":false,"rental_uris":{"android":"levelo://app?vid=04664d55-585a-4c42-bcc5-0aa6fa8aef45","ios":"levelo://app?vid=04664d55-585a-4c42-bcc5-0aa6fa8aef45"},"vehicle_type_id":"4","last_reported":1744103477,"current_range_meters":18800,"station_id":"ce4bhgh2rcd13ifvqfb0","pricing_plan_id":"cebpf4jnsgd1na2vs0mg"},{"bike_id":"9b037c0e-68e8-413d-9e6f-c325a966579e","system_id":"levelo_inurba_marseille","lat":43.30543,"lon":5.36455,"is_reserved":false,"is_disabled":false,"rental_uris":{"android":"levelo://app?vid=9b037c0e-68e8-413d-9e6f-c325a966579e","ios":"levelo://app?vid=9b037c0e-68e8-413d-9e6f-c325a966579e"},"vehicle_type_id":"4","last_reported":1744103477,"current_range_meters":19200,"station_id":"ce4bgs12rcd13ifvqcag","pricing_plan_id":"cebpf4jnsgd1na2vs0mg"},{"bike_id":"ad3d268b-2e38-40a3-a379-09f585254b49","system_id":"levelo_inurba_marseille","lat":43.30141,"lon":5.374,"is_reserved":false,"is_disabled":false,"rental_uris":{"android":"levelo://app?vid=ad3d268b-2e38-40a3-a379-09f585254b49","ios":"levelo://app?vid=ad3d268b-2e38-40a3-a379-09f585254b49"},"vehicle_type_id":"4","last_reported":1744103477,"current_range_meters":19200,"station_id":"ce4bgs92rcd13ifvqcc0","pricing_plan_id":"cebpf4jnsgd1na2vs0mg"},{"bike_id":"b37944fb-f9c1-4c8e-ac3a-9da227afb433","system_id":"levelo_inurba_marseille","lat":43.30817,"lon":5.38148,"is_reserved":false,"is_disabled":true,"rental_uris":{"android":"levelo://app?vid=b37944fb-f9c1-4c8e-ac3a-9da227afb433","ios":"levelo://app?vid=b37944fb-f9c1-4c8e-ac3a-9da227afb433"},"vehicle_type_id":"4","last_reported":1744103477,"current_range_meters":19200,"station_id":"ce4bgt12rcd13ifvqce0","pricing_plan_id":"cebpf4jnsgd1na2vs0mg"},{"bike_id":"8dad24c5-897b-4eca-83a8-02a5fdb80025","system_id":"levelo_inurba_marseille","lat":43.23196,"lon":5.35548,"is_reserved":false,"is_disabled":false,"rental_uris":{"android":"levelo://app?vid=8dad24c5-897b-4eca-83a8-02a5fdb80025","ios":"levelo://app?vid=8dad24c5-897b-4eca-83a8-02a5fdb80025"},"vehicle_type_id":"4","last_reported":1744103477,"current_range_meters":19200,"station_id":"ce4bhu92rcd13ifvqi70","pricing_plan_id":"cebpf4jnsgd1na2vs0mg"},{"bike_id":"ef77e040-5293-494f-b7a1-c621326c4ce9","system_id":"levelo_inurba_marseille","lat":43.31328,"lon":5.36703,"is_reserved":false,"is_disabled":false,"rental_uris":{"android":"levelo://app?vid=ef77e040-5293-494f-b7a1-c621326c4ce9","ios":"levelo://app?vid=ef77e040-5293-494f-b7a1-c621326c4ce9"},"vehicle_type_id":"4","last_reported":1744103477,"current_range_meters":19600,"station_id":"ce4bgr92rcd13ifvqc6g","pricing_plan_id":"cebpf4jnsgd1na2vs0mg"},{"bike_id":"c504295f-c7a1-48f3-9672-ebf8b24d7456","system_id":"levelo_inurba_marseille","lat":43.2836,"lon":5.38628,"is_reserved":false,"is_disabled":false,"rental_uris":{"android":"levelo://app?vid=c504295f-c7a1-48f3-9672-ebf8b24d7456","ios":"levelo://app?vid=c504295f-c7a1-48f3-9672-ebf8b24d7456"},"vehicle_type_id":"4","last_reported":1744103477,"current_range_meters":19200,"station_id":"ce4bh492rcd13ifvqdvg","pricing_plan_id":"cebpf4jnsgd1na2vs0mg"},{"bike_id":"caa30c9d-d491-4581-b8c0-36334802b5a7","system_id":"levelo_inurba_marseille","lat":43.300871,"lon":5.390744,"is_reserved":false,"is_disabled":false,"rental_uris":{"android":"levelo://app?vid=caa30c9d-d491-4581-b8c0-36334802b5a7","ios":"levelo://app?vid=caa30c9d-d491-4581-b8c0-36334802b5a7"},"vehicle_type_id":"4","last_reported":1744103477,"current_range_meters":19600,"station_id":"ce4bh192rcd13ifvqdb0","pricing_plan_id":"cebpf4jnsgd1na2vs0mg"},{"bike_id":"d7b2134e-575c-40f1-9b3b-0ad40ab4b220","system_id":"levelo_inurba_marseille","lat":43.29837,"lon":5.43678,"is_reserved":false,"is_disabled":false,"rental_uris":{"android":"levelo://app?vid=d7b2134e-575c-40f1-9b3b-0ad40ab4b220","ios":"levelo://app?vid=d7b2134e-575c-40f1-9b3b-0ad40ab4b220"},"vehicle_type_id":"4","last_reported":1744103477,"current_range_meters":19600,"station_id":"","pricing_plan_id":"cebpf4jnsgd1na2vs0mg"},{"bike_id":"d1ab4a48-3ebf-4448-991f-741c70a9cfa1","system_id":"levelo_inurba_marseille","lat":43.28423,"lon":5.3497,"is_reserved":false,"is_disabled":false,"rental_uris":{"android":"levelo://app?vid=d1ab4a48-3ebf-4448-991f-741c70a9cfa1","ios":"levelo://app?vid=d1ab4a48-3ebf-4448-991f-741c70a9cfa1"},"vehicle_type_id":"4","last_reported":1744103477,"current_range_meters":19600,"station_id":"ce4bhbh2rcd13ifvqepg","pricing_plan_id":"cebpf4jnsgd1na2vs0mg"},{"bike_id":"8dc4969f-85e1-4c33-b506-69b8c1f0198a","system_id":"levelo_inurba_marseille","lat":43.29211,"lon":5.3599,"is_reserved":false,"is_disabled":false,"rental_uris":{"android":"levelo://app?vid=8dc4969f-85e1-4c33-b506-69b8c1f0198a","ios":"levelo://app?vid=8dc4969f-85e1-4c33-b506-69b8c1f0198a"},"vehicle_type_id":"4","last_reported":1744103477,"current_range_meters":20000,"station_id":"ce4bhb12rcd13ifvqel0","pricing_plan_id":"cebpf4jnsgd1na2vs0mg"},{"bike_id":"c1c63035-c83b-4419-8cbf-133778d95125","system_id":"levelo_inurba_marseille","lat":43.297871,"lon":5.393533,"is_reserved":false,"is_disabled":true,"rental_uris":{"android":"levelo://app?vid=c1c63035-c83b-4419-8cbf-133778d95125","ios":"levelo://app?vid=c1c63035-c83b-4419-8cbf-133778d95125"},"vehicle_type_id":"4","last_reported":1744103477,"current_range_meters":20000,"station_id":"chh1huq6cuj3fo74tm60","pricing_plan_id":"cebpf4jnsgd1na2vs0mg"},{"bike_id":"6278194a-3064-41bd-8565-b8ff44b1552d","system_id":"levelo_inurba_marseille","lat":43.29533,"lon":5.38564,"is_reserved":false,"is_disabled":true,"rental_uris":{"android":"levelo://app?vid=6278194a-3064-41bd-8565-b8ff44b1552d","ios":"levelo://app?vid=6278194a-3064-41bd-8565-b8ff44b1552d"},"vehicle_type_id":"4","last_reported":1744103477,"current_range_meters":20000,"station_id":"ce4bgih2rcd13ifvqba0","pricing_plan_id":"cebpf4jnsgd1na2vs0mg"},{"bike_id":"fd07d6de-a218-43d3-8caa-eaba2cec3dca","system_id":"levelo_inurba_marseille","lat":43.27948,"lon":5.41032,"is_reserved":false,"is_disabled":false,"rental_uris":{"android":"levelo://app?vid=fd07d6de-a218-43d3-8caa-eaba2cec3dca","ios":"levelo://app?vid=fd07d6de-a218-43d3-8caa-eaba2cec3dca"},"vehicle_type_id":"4","last_reported":1744103477,"current_range_meters":20000,"station_id":"ce4bhnp2rcd13ifvqh0g","pricing_plan_id":"cebpf4jnsgd1na2vs0mg"},{"bike_id":"39e79879-3514-46f1-ae55-e9d6ebd2e60f","system_id":"levelo_inurba_marseille","lat":43.27842,"lon":5.42149,"is_reserved":false,"is_disabled":true,"rental_uris":{"android":"levelo://app?vid=39e79879-3514-46f1-ae55-e9d6ebd2e60f","ios":"levelo://app?vid=39e79879-3514-46f1-ae55-e9d6ebd2e60f"},"vehicle_type_id":"4","last_reported":1744103477,"current_range_meters":20400,"station_id":"","pricing_plan_id":"cebpf4jnsgd1na2vs0mg"},{"bike_id":"a07abaad-280d-4717-b499-33ef636d5575","system_id":"levelo_inurba_marseille","lat":43.30375,"lon":5.42484,"is_reserved":false,"is_disabled":false,"rental_uris":{"android":"levelo://app?vid=a07abaad-280d-4717-b499-33ef636d5575","ios":"levelo://app?vid=a07abaad-280d-4717-b499-33ef636d5575"},"vehicle_type_id":"4","last_reported":1744103477,"current_range_meters":20400,"station_id":"ce4bhoh2rcd13ifvqh6g","pricing_plan_id":"cebpf4jnsgd1na2vs0mg"},{"bike_id":"be73290e-02a3-4f6d-9d74-8a2e284364b3","system_id":"levelo_inurba_marseille","lat":43.29886,"lon":5.43645,"is_reserved":false,"is_disabled":false,"rental_uris":{"android":"levelo://app?vid=be73290e-02a3-4f6d-9d74-8a2e284364b3","ios":"levelo://app?vid=be73290e-02a3-4f6d-9d74-8a2e284364b3"},"vehicle_type_id":"4","last_reported":1744103477,"current_range_meters":20400,"station_id":"ce4bhpp2rcd13ifvqhfg","pricing_plan_id":"cebpf4jnsgd1na2vs0mg"},{"bike_id":"83d71aae-c276-4581-b045-e01e481a11b6","system_id":"levelo_inurba_marseille","lat":43.21756,"lon":5.34595,"is_reserved":false,"is_disabled":false,"rental_uris":{"android":"levelo://app?vid=83d71aae-c276-4581-b045-e01e481a11b6","ios":"levelo://app?vid=83d71aae-c276-4581-b045-e01e481a11b6"},"vehicle_type_id":"4","last_reported":1744103477,"current_range_meters":20400,"station_id":"","pricing_plan_id":"cebpf4jnsgd1na2vs0mg"},{"bike_id":"4604e885-d425-4945-b907-2cf30b8ac3c1","system_id":"levelo_inurba_marseille","lat":43.28699,"lon":5.39985,"is_reserved":false,"is_disabled":false,"rental_uris":{"android":"levelo://app?vid=4604e885-d425-4945-b907-2cf30b8ac3c1","ios":"levelo://app?vid=4604e885-d425-4945-b907-2cf30b8ac3c1"},"vehicle_type_id":"4","last_reported":1744103477,"current_range_meters":20000,"station_id":"ce4bho92rcd13ifvqh3g","pricing_plan_id":"cebpf4jnsgd1na2vs0mg"},{"bike_id":"8859c1d2-5050-4675-9ca8-4628114a6403","system_id":"levelo_inurba_marseille","lat":43.29679,"lon":5.37292,"is_reserved":false,"is_disabled":false,"rental_uris":{"android":"levelo://app?vid=8859c1d2-5050-4675-9ca8-4628114a6403","ios":"levelo://app?vid=8859c1d2-5050-4675-9ca8-4628114a6403"},"vehicle_type_id":"4","last_reported":1744103477,"current_range_meters":20400,"station_id":"ce4bgk12rcd13ifvqbj0","pricing_plan_id":"cebpf4jnsgd1na2vs0mg"},{"bike_id":"833d0157-2025-4eea-b637-3b091d2e982d","system_id":"levelo_inurba_marseille","lat":43.29895,"lon":5.43669,"is_reserved":false,"is_disabled":false,"rental_uris":{"android":"levelo://app?vid=833d0157-2025-4eea-b637-3b091d2e982d","ios":"levelo://app?vid=833d0157-2025-4eea-b637-3b091d2e982d"},"vehicle_type_id":"4","last_reported":1744103477,"current_range_meters":20400,"station_id":"ce4bhpp2rcd13ifvqhfg","pricing_plan_id":"cebpf4jnsgd1na2vs0mg"},{"bike_id":"6e5ac126-c372-4a39-b836-bcab5ad1f2e7","system_id":"levelo_inurba_marseille","lat":43.2418,"lon":5.36405,"is_reserved":false,"is_disabled":false,"rental_uris":{"android":"levelo://app?vid=6e5ac126-c372-4a39-b836-bcab5ad1f2e7","ios":"levelo://app?vid=6e5ac126-c372-4a39-b836-bcab5ad1f2e7"},"vehicle_type_id":"4","last_reported":1744103477,"current_range_meters":20800,"station_id":"cpo36qri1sfpv3e86is0","pricing_plan_id":"cebpf4jnsgd1na2vs0mg"},{"bike_id":"ea17cff3-d70d-42f8-aa47-a008aa49abda","system_id":"levelo_inurba_marseille","lat":43.28156,"lon":5.42626,"is_reserved":false,"is_disabled":false,"rental_uris":{"android":"levelo://app?vid=ea17cff3-d70d-42f8-aa47-a008aa49abda","ios":"levelo://app?vid=ea17cff3-d70d-42f8-aa47-a008aa49abda"},"vehicle_type_id":"4","last_reported":1744103477,"current_range_meters":20800,"station_id":"ce4bhnh2rcd13ifvqgug","pricing_plan_id":"cebpf4jnsgd1na2vs0mg"},{"bike_id":"26046ee8-d592-4d5e-87fc-08375f4d5c73","system_id":"levelo_inurba_marseille","lat":43.309588,"lon":5.390059,"is_reserved":false,"is_disabled":false,"rental_uris":{"android":"levelo://app?vid=26046ee8-d592-4d5e-87fc-08375f4d5c73","ios":"levelo://app?vid=26046ee8-d592-4d5e-87fc-08375f4d5c73"},"vehicle_type_id":"4","last_reported":1744103477,"current_range_meters":20800,"station_id":"ce4bhbp2rcd13ifvqerg","pricing_plan_id":"cebpf4jnsgd1na2vs0mg"},{"bike_id":"7bf1376e-f550-4d85-8f2e-537462767f4a","system_id":"levelo_inurba_marseille","lat":43.27377,"lon":5.36253,"is_reserved":false,"is_disabled":false,"rental_uris":{"android":"levelo://app?vid=7bf1376e-f550-4d85-8f2e-537462767f4a","ios":"levelo://app?vid=7bf1376e-f550-4d85-8f2e-537462767f4a"},"vehicle_type_id":"4","last_reported":1744103477,"current_range_meters":20800,"station_id":"ce4bhbh2rcd13ifvqeo0","pricing_plan_id":"cebpf4jnsgd1na2vs0mg"},{"bike_id":"e8efedd4-b81d-461f-a3df-02e2e77cf831","system_id":"levelo_inurba_marseille","lat":43.2926,"lon":5.37639,"is_reserved":false,"is_disabled":false,"rental_uris":{"android":"levelo://app?vid=e8efedd4-b81d-461f-a3df-02e2e77cf831","ios":"levelo://app?vid=e8efedd4-b81d-461f-a3df-02e2e77cf831"},"vehicle_type_id":"4","last_reported":1744103477,"current_range_meters":21600,"station_id":"ce4bgi12rcd13ifvqb80","pricing_plan_id":"cebpf4jnsgd1na2vs0mg"},{"bike_id":"26f2e00c-6dee-4fa8-a424-98984173768d","system_id":"levelo_inurba_marseille","lat":43.30548,"lon":5.36525,"is_reserved":false,"is_disabled":false,"rental_uris":{"android":"levelo://app?vid=26f2e00c-6dee-4fa8-a424-98984173768d","ios":"levelo://app?vid=26f2e00c-6dee-4fa8-a424-98984173768d"},"vehicle_type_id":"4","last_reported":1744103477,"current_range_meters":21600,"station_id":"ce4bgs12rcd13ifvqcag","pricing_plan_id":"cebpf4jnsgd1na2vs0mg"},{"bike_id":"3fe165a2-155a-405e-b507-f27ab5424300","system_id":"levelo_inurba_marseille","lat":43.2319,"lon":5.35551,"is_reserved":false,"is_disabled":false,"rental_uris":{"android":"levelo://app?vid=3fe165a2-155a-405e-b507-f27ab5424300","ios":"levelo://app?vid=3fe165a2-155a-405e-b507-f27ab5424300"},"vehicle_type_id":"4","last_reported":1744103477,"current_range_meters":22000,"station_id":"ce4bhu92rcd13ifvqi70","pricing_plan_id":"cebpf4jnsgd1na2vs0mg"},{"bike_id":"2a6b8f0a-c50b-4819-a909-57bab4f4d2d6","system_id":"levelo_inurba_marseille","lat":43.33027,"lon":5.39045,"is_reserved":false,"is_disabled":false,"rental_uris":{"android":"levelo://app?vid=2a6b8f0a-c50b-4819-a909-57bab4f4d2d6","ios":"levelo://app?vid=2a6b8f0a-c50b-4819-a909-57bab4f4d2d6"},"vehicle_type_id":"4","last_reported":1744103477,"current_range_meters":21600,"station_id":"ce4bhr92rcd13ifvqhrg","pricing_plan_id":"cebpf4jnsgd1na2vs0mg"},{"bike_id":"ebd08e7e-a585-41aa-9cdc-8f045ec0578f","system_id":"levelo_inurba_marseille","lat":43.33036,"lon":5.39056,"is_reserved":false,"is_disabled":false,"rental_uris":{"android":"levelo://app?vid=ebd08e7e-a585-41aa-9cdc-8f045ec0578f","ios":"levelo://app?vid=ebd08e7e-a585-41aa-9cdc-8f045ec0578f"},"vehicle_type_id":"4","last_reported":1744103477,"current_range_meters":22000,"station_id":"ce4bhr92rcd13ifvqhrg","pricing_plan_id":"cebpf4jnsgd1na2vs0mg"},{"bike_id":"7603c6ac-d8c0-4d0b-bfeb-511cc8776aaa","system_id":"levelo_inurba_marseille","lat":43.29008,"lon":5.35605,"is_reserved":false,"is_disabled":false,"rental_uris":{"android":"levelo://app?vid=7603c6ac-d8c0-4d0b-bfeb-511cc8776aaa","ios":"levelo://app?vid=7603c6ac-d8c0-4d0b-bfeb-511cc8776aaa"},"vehicle_type_id":"4","last_reported":1744103477,"current_range_meters":22000,"station_id":"ce4bhb92rcd13ifvqen0","pricing_plan_id":"cebpf4jnsgd1na2vs0mg"},{"bike_id":"09bddc24-4c9d-460f-8967-e90ee5c88b43","system_id":"levelo_inurba_marseille","lat":43.31323,"lon":5.39692,"is_reserved":false,"is_disabled":true,"rental_uris":{"android":"levelo://app?vid=09bddc24-4c9d-460f-8967-e90ee5c88b43","ios":"levelo://app?vid=09bddc24-4c9d-460f-8967-e90ee5c88b43"},"vehicle_type_id":"4","last_reported":1744103477,"current_range_meters":22000,"station_id":"ce4bgvp2rcd13ifvqcu0","pricing_plan_id":"cebpf4jnsgd1na2vs0mg"},{"bike_id":"6679e582-e953-4fa0-93db-d6774f94b429","system_id":"levelo_inurba_marseille","lat":43.29177,"lon":5.3931,"is_reserved":false,"is_disabled":false,"rental_uris":{"android":"levelo://app?vid=6679e582-e953-4fa0-93db-d6774f94b429","ios":"levelo://app?vid=6679e582-e953-4fa0-93db-d6774f94b429"},"vehicle_type_id":"4","last_reported":1744103477,"current_range_meters":22000,"station_id":"ce4bh192rcd13ifvqdd0","pricing_plan_id":"cebpf4jnsgd1na2vs0mg"},{"bike_id":"6dfada21-b39c-4599-b258-8c48ee671eeb","system_id":"levelo_inurba_marseille","lat":43.24179,"lon":5.39723,"is_reserved":false,"is_disabled":false,"rental_uris":{"android":"levelo://app?vid=6dfada21-b39c-4599-b258-8c48ee671eeb","ios":"levelo://app?vid=6dfada21-b39c-4599-b258-8c48ee671eeb"},"vehicle_type_id":"4","last_reported":1744103477,"current_range_meters":22400,"station_id":"ce4bhn12rcd13ifvqgpg","pricing_plan_id":"cebpf4jnsgd1na2vs0mg"},{"bike_id":"5d2bd196-cb95-4da2-ab36-b53d98d05bd1","system_id":"levelo_inurba_marseille","lat":43.24163,"lon":5.36391,"is_reserved":false,"is_disabled":false,"rental_uris":{"android":"levelo://app?vid=5d2bd196-cb95-4da2-ab36-b53d98d05bd1","ios":"levelo://app?vid=5d2bd196-cb95-4da2-ab36-b53d98d05bd1"},"vehicle_type_id":"4","last_reported":1744103477,"current_range_meters":22400,"station_id":"cpo36qri1sfpv3e86is0","pricing_plan_id":"cebpf4jnsgd1na2vs0mg"},{"bike_id":"a5857b9b-0518-4428-bd48-7b7c0175adb3","system_id":"levelo_inurba_marseille","lat":43.29414,"lon":5.38618,"is_reserved":false,"is_disabled":false,"rental_uris":{"android":"levelo://app?vid=a5857b9b-0518-4428-bd48-7b7c0175adb3","ios":"levelo://app?vid=a5857b9b-0518-4428-bd48-7b7c0175adb3"},"vehicle_type_id":"4","last_reported":1744103477,"current_range_meters":20800,"station_id":"ce4bh2h2rcd13ifvqdh0","pricing_plan_id":"cebpf4jnsgd1na2vs0mg"},{"bike_id":"5fc85abb-68f9-4f32-a274-a80e70b85d15","system_id":"levelo_inurba_marseille","lat":43.26203,"lon":5.37457,"is_reserved":false,"is_disabled":false,"rental_uris":{"android":"levelo://app?vid=5fc85abb-68f9-4f32-a274-a80e70b85d15","ios":"levelo://app?vid=5fc85abb-68f9-4f32-a274-a80e70b85d15"},"vehicle_type_id":"4","last_reported":1744103477,"current_range_meters":22400,"station_id":"ce4bhgp2rcd13ifvqfc0","pricing_plan_id":"cebpf4jnsgd1na2vs0mg"},{"bike_id":"57461391-741d-40ce-bad9-30d4d28bb064","system_id":"levelo_inurba_marseille","lat":43.337444,"lon":5.374475,"is_reserved":false,"is_disabled":false,"rental_uris":{"android":"levelo://app?vid=57461391-741d-40ce-bad9-30d4d28bb064","ios":"levelo://app?vid=57461391-741d-40ce-bad9-30d4d28bb064"},"vehicle_type_id":"4","last_reported":1744103477,"current_range_meters":22800,"station_id":"","pricing_plan_id":"cebpf4jnsgd1na2vs0mg"},{"bike_id":"ad17673d-fd87-4094-9872-39e6c7a7b0d2","system_id":"levelo_inurba_marseille","lat":43.30195,"lon":5.36608,"is_reserved":false,"is_disabled":true,"rental_uris":{"android":"levelo://app?vid=ad17673d-fd87-4094-9872-39e6c7a7b0d2","ios":"levelo://app?vid=ad17673d-fd87-4094-9872-39e6c7a7b0d2"},"vehicle_type_id":"4","last_reported":1744103477,"current_range_meters":22800,"station_id":"ce4bgrh2rcd13ifvqc8g","pricing_plan_id":"cebpf4jnsgd1na2vs0mg"},{"bike_id":"6e253378-eb84-4e58-9cd2-6a43bf3ad4d2","system_id":"levelo_inurba_marseille","lat":43.284,"lon":5.3751,"is_reserved":false,"is_disabled":false,"rental_uris":{"android":"levelo://app?vid=6e253378-eb84-4e58-9cd2-6a43bf3ad4d2","ios":"levelo://app?vid=6e253378-eb84-4e58-9cd2-6a43bf3ad4d2"},"vehicle_type_id":"4","last_reported":1744103477,"current_range_meters":22400,"station_id":"ce4bh412rcd13ifvqds0","pricing_plan_id":"cebpf4jnsgd1na2vs0mg"},{"bike_id":"42c1fdc6-38af-4ea1-a910-702e15d5a9b4","system_id":"levelo_inurba_marseille","lat":43.30938,"lon":5.40165,"is_reserved":false,"is_disabled":true,"rental_uris":{"android":"levelo://app?vid=42c1fdc6-38af-4ea1-a910-702e15d5a9b4","ios":"levelo://app?vid=42c1fdc6-38af-4ea1-a910-702e15d5a9b4"},"vehicle_type_id":"4","last_reported":1744103477,"current_range_meters":22800,"station_id":"ce4bgvp2rcd13ifvqct0","pricing_plan_id":"cebpf4jnsgd1na2vs0mg"},{"bike_id":"23bc6f7b-7935-49fe-8aff-611329d9b56b","system_id":"levelo_inurba_marseille","lat":43.29268,"lon":5.37612,"is_reserved":false,"is_disabled":false,"rental_uris":{"android":"levelo://app?vid=23bc6f7b-7935-49fe-8aff-611329d9b56b","ios":"levelo://app?vid=23bc6f7b-7935-49fe-8aff-611329d9b56b"},"vehicle_type_id":"4","last_reported":1744103477,"current_range_meters":22800,"station_id":"ce4bgi12rcd13ifvqb80","pricing_plan_id":"cebpf4jnsgd1na2vs0mg"},