{"last_updated":1689102351,"ttl":30,"version":"2.2","data":{"bikes":[{"bike_id":"d916408c-123b-4d7c-a5ad-24c6b0791ca3","system_id":"levelo_inurba_marseille","lat":43.314811,"lon":5.373103,"is_reserved":false,"is_disabled":false,"rental_uris":{"android":"levelo://app?vid=d916408c-123b-4d7c-a5ad-24c6b0791ca3","ios":"levelo://app?vid=d916408c-123b-4d7c-a5ad-24c6b0791ca3"},"vehicle_type_id":"4","last_reported":1689102351,"current_range_meters":24000,"station_id":"ce4bgt12rcd13ifvqcd0","pricing_plan_id":"free"},{"bike_id":"a3e2b168-226a-46f6-a1a6-6af31debbfe4","system_id":"levelo_inurba_marseille","lat":43.31496,"lon":5.37309,"is_reserved":false,"is_disabled":false,"rental_uris":{"android":"levelo://app?vid=a3e2b168-226a-46f6-a1a6-6af31debbfe4","ios":"levelo://app?vid=a3e2b168-226a-46f6-a1a6-6af31debbfe4"},"vehicle_type_id":"4","last_reported":1689102351,"current_range_meters":20400,"station_id":"ce4bgt12rcd13ifvqcd0","pricing_plan_id":"free"},{"bike_id":"dc3e2fe5-abfe-4a2f-b390-611c379f6fb3","system_id":"levelo_inurba_marseille","lat":43.305706,"lon":5.365654,"is_reserved":false,"is_disabled":false,"rental_uris":{"android":"levelo://app?vid=dc3e2fe5-abfe-4a2f-b390-611c379f6fb3","ios":"levelo://app?vid=dc3e2fe5-abfe-4a2f-b390-611c379f6fb3"},"vehicle_type_id":"4","last_reported":1689102351,"current_range_meters":4800,"station_id":"ce4bgs12rcd13ifvqcag","pricing_plan_id":"free"},{"bike_id":"38df26a7-c216-447d-97d0-0a5dfba2e471","system_id":"levelo_inurba_marseille","lat":43.305368,"lon":5.367343,"is_reserved":false,"is_disabled":false,"rental_uris":{"android":"levelo://app?vid=38df26a7-c216-447d-97d0-0a5dfba2e471","ios":"levelo://app?vid=38df26a7-c216-447d-97d0-0a5dfba2e471"},"vehicle_type_id":"4","last_reported":1689102351,"current_range_meters":25200,"station_id":"ce4bgrp2rcd13ifvqc9g","pricing_plan_id":"free"},{"bike_id":"ce066b9c-b598-4134-8342-e8130fc300ab","system_id":"levelo_inurba_marseille","lat":43.305368,"lon":5.367343,"is_reserved":false,"is_disabled":false,"rental_uris":{"android":"levelo://app?vid=ce066b9c-b598-4134-8342-e8130fc300ab","ios":"levelo://app?vid=ce066b9c-b598-4134-8342-e8130fc300ab"},"vehicle_type_id":"4","last_reported":1689102351,"current_range_meters":22400,"station_id":"ce4bgrp2rcd13ifvqc9g","pricing_plan_id":"free"},{"bike_id":"13e1bfd0-08b0-461e-a65d-de1704e1ac1d","system_id":"levelo_inurba_marseille","lat":43.305368,"lon":5.367343,"is_reserved":false,"is_disabled":false,"rental_uris":{"android":"levelo://app?vid=13e1bfd0-08b0-461e-a65d-de1704e1ac1d","ios":"levelo://app?vid=13e1bfd0-08b0-461e-a65d-de1704e1ac1d"},"vehicle_type_id":"4","last_reported":1689102351,"current_range_meters":22400,"station_id":"ce4bgrp2rcd13ifvqc9g","pricing_plan_id":"free"},{"bike_id":"70213cea-8003-4b19-bd03-eab3382e11c9","system_id":"levelo_inurba_marseille","lat":43.305714,"lon":5.365633,"is_reserved":false,"is_disabled":false,"rental_uris":{"android":"levelo://app?vid=70213cea-8003-4b19-bd03-eab3382e11c9","ios":"levelo://app?vid=70213cea-8003-4b19-bd03-eab3382e11c9"},"vehicle_type_id":"4","last_reported":1689102351,"current_range_meters":4400,"station_id":"ce4bgs12rcd13ifvqcag","pricing_plan_id":"free"},{"bike_id":"6b5f27bc-2bc4-427b-827b-1db574b5d4c2","system_id":"levelo_inurba_marseille","lat":43.305368,"lon":5.367343,"is_reserved":false,"is_disabled":false,"rental_uris":{"android":"levelo://app?vid=6b5f27bc-2bc4-427b-827b-1db574b5d4c2","ios":"levelo://app?vid=6b5f27bc-2bc4-427b-827b-1db574b5d4c2"},"vehicle_type_id":"4","last_reported":1689102351,"current_range_meters":800,"station_id":"ce4bgrp2rcd13ifvqc9g","pricing_plan_id":"free"},{"bike_id":"3445c2e8-463a-4646-9cf4-346a19eedaca","system_id":"levelo_inurba_marseille","lat":43.305989,"lon":5.37225,"is_reserved":false,"is_disabled":false,"rental_uris":{"android":"levelo://app?vid=3445c2e8-463a-4646-9cf4-346a19eedaca","ios":"levelo://app?vid=3445c2e8-463a-4646-9cf4-346a19eedaca"},"vehicle_type_id":"4","last_reported":1689102351,"current_range_meters":14400,"station_id":"ce4bgqh2rcd13ifvqc4g","pricing_plan_id":"free"},{"bike_id":"96c68e04-8c17-4411-aa42-a9cbdf48f0dd","system_id":"levelo_inurba_marseille","lat":43.311131,"lon":5.377651,"is_reserved":false,"is_disabled":false,"rental_uris":{"android":"levelo://app?vid=96c68e04-8c17-4411-aa42-a9cbdf48f0dd","ios":"levelo://app?vid=96c68e04-8c17-4411-aa42-a9cbdf48f0dd"},"vehicle_type_id":"4","last_reported":1689102351,"current_range_meters":27200,"station_id":"ce4bgt92rcd13ifvqcg0","pricing_plan_id":"free"},{"bike_id":"253aaf58-ff4b-416e-8204-8e650e7e6d02","system_id":"levelo_inurba_marseille","lat":43.311131,"lon":5.377651,"is_reserved":false,"is_disabled":false,"rental_uris":{"android":"levelo://app?vid=253aaf58-ff4b-416e-8204-8e650e7e6d02","ios":"levelo://app?vid=253aaf58-ff4b-416e-8204-8e650e7e6d02"},"vehicle_type_id":"4","last_reported":1689102351,"current_range_meters":21200,"station_id":"ce4bgt92rcd13ifvqcg0","pricing_plan_id":"free"},{"bike_id":"b88350ee-8b4c-472e-b77b-ba019458b51e","system_id":"levelo_inurba_marseille","lat":43.317075,"lon":5.377367,"is_reserved":false,"is_disabled":false,"rental_uris":{"android":"levelo://app?vid=b88350ee-8b4c-472e-b77b-ba019458b51e","ios":"levelo://app?vid=b88350ee-8b4c-472e-b77b-ba019458b51e"},"vehicle_type_id":"4","last_reported":1689102351,"current_range_meters":30400,"station_id":"ce4bgth2rcd13ifvqch0","pricing_plan_id":"free"},{"bike_id":"8fb4a51c-7094-4e66-817c-71286d3bf540","system_id":"levelo_inurba_marseille","lat":43.317075,"lon":5.377367,"is_reserved":false,"is_disabled":false,"rental_uris":{"android":"levelo://app?vid=8fb4a51c-7094-4e66-817c-71286d3bf540","ios":"levelo://app?vid=8fb4a51c-7094-4e66-817c-71286d3bf540"},"vehicle_type_id":"4","last_reported":1689102351,"current_range_meters":24400,"station_id":"ce4bgth2rcd13ifvqch0","pricing_plan_id":"free"},{"bike_id":"c420a6a7-d13f-47d1-b813-39333ec90642","system_id":"levelo_inurba_marseille","lat":43.303046,"lon":5.368981,"is_reserved":false,"is_disabled":false,"rental_uris":{"android":"levelo://app?vid=c420a6a7-d13f-47d1-b813-39333ec90642","ios":"levelo://app?vid=c420a6a7-d13f-47d1-b813-39333ec90642"},"vehicle_type_id":"4","last_reported":1689102351,"current_range_meters":26000,"station_id":"ce4bgqh2rcd13ifvqc5g","pricing_plan_id":"free"},{"bike_id":"1a2e10de-7f31-4bc4-8099-5f3ff33a0633","system_id":"levelo_inurba_marseille","lat":43.31539,"lon":5.38024,"is_reserved":false,"is_disabled":false,"rental_uris":{"android":"levelo://app?vid=1a2e10de-7f31-4bc4-8099-5f3ff33a0633","ios":"levelo://app?vid=1a2e10de-7f31-4bc4-8099-5f3ff33a0633"},"vehicle_type_id":"4","last_reported":1689102351,"current_range_meters":6800,"station_id":"ce4bhsp2rcd13ifvqi50","pricing_plan_id":"free"},{"bike_id":"b34060d4-4505-48ce-b7b6-2e56eba06aa6","system_id":"levelo_inurba_marseille","lat":43.315293,"lon":5.380349,"is_reserved":false,"is_disabled":false,"rental_uris":{"android":"levelo://app?vid=b34060d4-4505-48ce-b7b6-2e56eba06aa6","ios":"levelo://app?vid=b34060d4-4505-48ce-b7b6-2e56eba06aa6"},"vehicle_type_id":"4","last_reported":1689102351,"current_range_meters":23200,"station_id":"ce4bhsp2rcd13ifvqi50","pricing_plan_id":"free"},{"bike_id":"e873c620-e79e-41f2-bd5a-d71b831eacef","system_id":"levelo_inurba_marseille","lat":43.315277,"lon":5.380372,"is_reserved":false,"is_disabled":false,"rental_uris":{"android":"levelo://app?vid=e873c620-e79e-41f2-bd5a-d71b831eacef","ios":"levelo://app?vid=e873c620-e79e-41f2-bd5a-d71b831eacef"},"vehicle_type_id":"4","last_reported":1689102351,"current_range_meters":16000,"station_id":"","pricing_plan_id":"free"},{"bike_id":"4ea5eff1-914d-4c0a-8f97-16098655b658","system_id":"levelo_inurba_marseille","lat":43.315293,"lon":5.380349,"is_reserved":false,"is_disabled":false,"rental_uris":{"android":"levelo://app?vid=4ea5eff1-914d-4c0a-8f97-16098655b658","ios":"levelo://app?vid=4ea5eff1-914d-4c0a-8f97-16098655b658"},"vehicle_type_id":"4","last_reported":1689102351,"current_range_meters":15600,"station_id":"ce4bhsp2rcd13ifvqi50","pricing_plan_id":"free"},{"bike_id":"f3343058-b746-4899-a1e1-e409d00a259d","system_id":"levelo_inurba_marseille","lat":43.315293,"lon":5.380349,"is_reserved":false,"is_disabled":false,"rental_uris":{"android":"levelo://app?vid=f3343058-b746-4899-a1e1-e409d00a259d","ios":"levelo://app?vid=f3343058-b746-4899-a1e1-e409d00a259d"},"vehicle_type_id":"4","last_reported":1689102351,"current_range_meters":20000,"station_id":"ce4bhsp2rcd13ifvqi50","pricing_plan_id":"free"},{"bike_id":"44354a85-2bb4-4f9d-b259-1b108e151ddf","system_id":"levelo_inurba_marseille","lat":43.31526,"lon":5.38043,"is_reserved":false,"is_disabled":false,"rental_uris":{"android":"levelo://app?vid=44354a85-2bb4-4f9d-b259-1b108e151ddf","ios":"levelo://app?vid=44354a85-2bb4-4f9d-b259-1b108e151ddf"},"vehicle_type_id":"4","last_reported":1689102351,"current_range_meters":0,"station_id":"ce4bhsp2rcd13ifvqi50","pricing_plan_id":"free"},{"bike_id":"72d37b22-f9be-4f86-8490-6ec277e85844","system_id":"levelo_inurba_marseille","lat":43.301939,"lon":5.366286,"is_reserved":false,"is_disabled":false,"rental_uris":{"android":"levelo://app?vid=72d37b22-f9be-4f86-8490-6ec277e85844","ios":"levelo://app?vid=72d37b22-f9be-4f86-8490-6ec277e85844"},"vehicle_type_id":"4","last_reported":1689102351,"current_range_meters":19200,"station_id":"ce4bgrh2rcd13ifvqc8g","pricing_plan_id":"free"},{"bike_id":"ea024392-eda5-41bf-a391-79dd53fe1568","system_id":"levelo_inurba_marseille","lat":43.301939,"lon":5.366286,"is_reserved":false,"is_disabled":false,"rental_uris":{"android":"levelo://app?vid=ea024392-eda5-41bf-a391-79dd53fe1568","ios":"levelo://app?vid=ea024392-eda5-41bf-a391-79dd53fe1568"},"vehicle_type_id":"4","last_reported":1689102351,"current_range_meters":24400,"station_id":"ce4bgrh2rcd13ifvqc8g","pricing_plan_id":"free"},{"bike_id":"1f6eec7c-d84e-4d98-b02a-7d21ac6c0192","system_id":"levelo_inurba_marseille","lat":43.301939,"lon":5.366286,"is_reserved":false,"is_disabled":false,"rental_uris":{"android":"levelo://app?vid=1f6eec7c-d84e-4d98-b02a-7d21ac6c0192","ios":"levelo://app?vid=1f6eec7c-d84e-4d98-b02a-7d21ac6c0192"},"vehicle_type_id":"4","last_reported":1689102351,"current_range_meters":24800,"station_id":"ce4bgrh2rcd13ifvqc8g","pricing_plan_id":"free"},{"bike_id":"dee5e94b-7c96-40f1-9397-ae41ca0a8b0d","system_id":"levelo_inurba_marseille","lat":43.301939,"lon":5.366286,"is_reserved":false,"is_disabled":false,"rental_uris":{"android":"levelo://app?vid=dee5e94b-7c96-40f1-9397-ae41ca0a8b0d","ios":"levelo://app?vid=dee5e94b-7c96-40f1-9397-ae41ca0a8b0d"},"vehicle_type_id":"4","last_reported":1689102351,"current_range_meters":23200,"station_id":"ce4bgrh2rcd13ifvqc8g","pricing_plan_id":"free"},{"bike_id":"40808a37-5e28-42fa-acda-95169036e5e0","system_id":"levelo_inurba_marseille","lat":43.301939,"lon":5.366286,"is_reserved":false,"is_disabled":false,"rental_uris":{"android":"levelo://app?vid=40808a37-5e28-42fa-acda-95169036e5e0","ios":"levelo://app?vid=40808a37-5e28-42fa-acda-95169036e5e0"},"vehicle_type_id":"4","last_reported":1689102351,"current_range_meters":0,"station_id":"ce4bgrh2rcd13ifvqc8g","pricing_plan_id":"free"},{"bike_id":"7b3bcb9c-2cf0-47f8-800f-b9e1c6a023e8","system_id":"levelo_inurba_marseille","lat":43.301939,"lon":5.366286,"is_reserved":false,"is_disabled":false,"rental_uris":{"android":"levelo://app?vid=7b3bcb9c-2cf0-47f8-800f-b9e1c6a023e8","ios":"levelo://app?vid=7b3bcb9c-2cf0-47f8-800f-b9e1c6a023e8"},"vehicle_type_id":"4","last_reported":1689102351,"current_range_meters":18800,"station_id":"ce4bgrh2rcd13ifvqc8g","pricing_plan_id":"free"},{"bike_id":"03381a52-8b42-4f43-8799-2410a4f3ac4d","system_id":"levelo_inurba_marseille","lat":43.301939,"lon":5.366286,"is_reserved":false,"is_disabled":false,"rental_uris":{"android":"levelo://app?vid=03381a52-8b42-4f43-8799-2410a4f3ac4d","ios":"levelo://app?vid=03381a52-8b42-4f43-8799-2410a4f3ac4d"},"vehicle_type_id":"4","last_reported":1689102351,"current_range_meters":5200,"station_id":"ce4bgrh2rcd13ifvqc8g","pricing_plan_id":"free"},{"bike_id":"be6becd5-1b85-4f3b-b724-f379218dc5ad","system_id":"levelo_inurba_marseille","lat":43.308012,"lon":5.381511,"is_reserved":false,"is_disabled":false,"rental_uris":{"android":"levelo://app?vid=be6becd5-1b85-4f3b-b724-f379218dc5ad","ios":"levelo://app?vid=be6becd5-1b85-4f3b-b724-f379218dc5ad"},"vehicle_type_id":"4","last_reported":1689102351,"current_range_meters":7600,"station_id":"ce4bgt12rcd13ifvqce0","pricing_plan_id":"free"},{"bike_id":"b641f20b-efa6-4807-bd60-946fa7ee0f66","system_id":"levelo_inurba_marseille","lat":43.308012,"lon":5.381511,"is_reserved":false,"is_disabled":false,"rental_uris":{"android":"levelo://app?vid=b641f20b-efa6-4807-bd60-946fa7ee0f66","ios":"levelo://app?vid=b641f20b-efa6-4807-bd60-946fa7ee0f66"},"vehicle_type_id":"4","last_reported":1689102351,"current_range_meters":0,"station_id":"ce4bgt12rcd13ifvqce0","pricing_plan_id":"free"},{"bike_id":"99a86e11-b02f-42a8-9e03-0383dce709a3","system_id":"levelo_inurba_marseille","lat":43.304606,"lon":5.379026,"is_reserved":false,"is_disabled":false,"rental_uris":{"android":"levelo://app?vid=99a86e11-b02f-42a8-9e03-0383dce709a3","ios":"levelo://app?vid=99a86e11-b02f-42a8-9e03-0383dce709a3"},"vehicle_type_id":"4","last_reported":1689102351,"current_range_meters":25200,"station_id":"ce4bgup2rcd13ifvqcn0","pricing_plan_id":"free"},{"bike_id":"2e336d56-af33-4c68-b50d-2de2fe01a10f","system_id":"levelo_inurba_marseille","lat":43.319935,"lon":5.381699,"is_reserved":false,"is_disabled":false,"rental_uris":{"android":"levelo://app?vid=2e336d56-af33-4c68-b50d-2de2fe01a10f","ios":"levelo://app?vid=2e336d56-af33-4c68-b50d-2de2fe01a10f"},"vehicle_type_id":"4","last_reported":1689102351,"current_range_meters":25200,"station_id":"ce4bhr12rcd13ifvqhpg","pricing_plan_id":"free"},{"bike_id":"c799b661-15e1-44d3-94b7-3b1dd858c869","system_id":"levelo_inurba_marseille","lat":43.319935,"lon":5.381699,"is_reserved":false,"is_disabled":false,"rental_uris":{"android":"levelo://app?vid=c799b661-15e1-44d3-94b7-3b1dd858c869","ios":"levelo://app?vid=c799b661-15e1-44d3-94b7-3b1dd858c869"},"vehicle_type_id":"4","last_reported":1689102351,"current_range_meters":18400,"station_id":"ce4bhr12rcd13ifvqhpg","pricing_plan_id":"free"},{"bike_id":"14c34846-37e4-4770-be76-9393ad06b814","system_id":"levelo_inurba_marseille","lat":43.319935,"lon":5.381699,"is_reserved":false,"is_disabled":false,"rental_uris":{"android":"levelo://app?vid=14c34846-37e4-4770-be76-9393ad06b814","ios":"levelo://app?vid=14c34846-37e4-4770-be76-9393ad06b814"},"vehicle_type_id":"4","last_reported":1689102351,"current_range_meters":25200,"station_id":"ce4bhr12rcd13ifvqhpg","pricing_plan_id":"free"},{"bike_id":"f61916fb-50af-4551-8893-5b9ccc500fb2","system_id":"levelo_inurba_marseille","lat":43.319935,"lon":5.381699,"is_reserved":false,"is_disabled":false,"rental_uris":{"android":"levelo://app?vid=f61916fb-50af-4551-8893-5b9ccc500fb2","ios":"levelo://app?vid=f61916fb-50af-4551-8893-5b9ccc500fb2"},"vehicle_type_id":"4","last_reported":1689102351,"current_range_meters":30800,"station_id":"ce4bhr12rcd13ifvqhpg","pricing_plan_id":"free"},{"bike_id":"20da19a1-51f4-4f7f-b13e-c936c2633e29","system_id":"levelo_inurba_marseille","lat":43.31994,"lon":5.38148,"is_reserved":false,"is_disabled":false,"rental_uris":{"android":"levelo://app?vid=20da19a1-51f4-4f7f-b13e-c936c2633e29","ios":"levelo://app?vid=20da19a1-51f4-4f7f-b13e-c936c2633e29"},"vehicle_type_id":"4","last_reported":1689102351,"current_range_meters":8800,"station_id":"ce4bhr12rcd13ifvqhpg","pricing_plan_id":"free"},{"bike_id":"593dd702-df39-4fb8-a370-781321b1b16d","system_id":"levelo_inurba_marseille","lat":43.319935,"lon":5.381699,"is_reserved":false,"is_disabled":false,"rental_uris":{"android":"levelo://app?vid=593dd702-df39-4fb8-a370-781321b1b16d","ios":"levelo://app?vid=593dd702-df39-4fb8-a370-781321b1b16d"},"vehicle_type_id":"4","last_reported":1689102351,"current_range_meters":24800,"station_id":"ce4bhr12rcd13ifvqhpg","pricing_plan_id":"free"},{"bike_id":"55998a11-4423-4004-9936-dc1ed0fc8271","system_id":"levelo_inurba_marseille","lat":43.319935,"lon":5.381699,"is_reserved":false,"is_disabled":false,"rental_uris":{"android":"levelo://app?vid=55998a11-4423-4004-9936-dc1ed0fc8271","ios":"levelo://app?vid=55998a11-4423-4004-9936-dc1ed0fc8271"},"vehicle_type_id":"4","last_reported":1689102351,"current_range_meters":25600,"station_id":"ce4bhr12rcd13ifvqhpg","pricing_plan_id":"free"},{"bike_id":"7bf3f968-df70-4a20-8fa3-b3af2a4e3dc3","system_id":"levelo_inurba_marseille","lat":43.319935,"lon":5.381699,"is_reserved":false,"is_disabled":false,"rental_uris":{"android":"levelo://app?vid=7bf3f968-df70-4a20-8fa3-b3af2a4e3dc3","ios":"levelo://app?vid=7bf3f968-df70-4a20-8fa3-b3af2a4e3dc3"},"vehicle_type_id":"4","last_reported":1689102351,"current_range_meters":24800,"station_id":"ce4bhr12rcd13ifvqhpg","pricing_plan_id":"free"},{"bike_id":"e00e3cc5-f997-485c-8b56-e530a479a988","system_id":"levelo_inurba_marseille","lat":43.319935,"lon":5.381699,"is_reserved":false,"is_disabled":false,"rental_uris":{"android":"levelo://app?vid=e00e3cc5-f997-485c-8b56-e530a479a988","ios":"levelo://app?vid=e00e3cc5-f997-485c-8b56-e530a479a988"},"vehicle_type_id":"4","last_reported":1689102351,"current_range_meters":23600,"station_id":"ce4bhr12rcd13ifvqhpg","pricing_plan_id":"free"},{"bike_id":"bb9249b0-2e94-411b-924f-7dea24d43fa1","system_id":"levelo_inurba_marseille","lat":43.319935,"lon":5.381699,"is_reserved":false,"is_disabled":false,"rental_uris":{"android":"levelo://app?vid=bb9249b0-2e94-411b-924f-7dea24d43fa1","ios":"levelo://app?vid=bb9249b0-2e94-411b-924f-7dea24d43fa1"},"vehicle_type_id":"4","last_reported":1689102351,"current_range_meters":21200,"station_id":"ce4bhr12rcd13ifvqhpg","pricing_plan_id":"free"},{"bike_id":"4960b54e-fec2-4738-b704-f08b50c0cd41","system_id":"levelo_inurba_marseille","lat":43.319935,"lon":5.381699,"is_reserved":false,"is_disabled":false,"rental_uris":{"android":"levelo://app?vid=4960b54e-fec2-4738-b704-f08b50c0cd41","ios":"levelo://app?vid=4960b54e-fec2-4738-b704-f08b50c0cd41"},"vehicle_type_id":"4","last_reported":1689102351,"current_range_meters":14400,"station_id":"ce4bhr12rcd13ifvqhpg","pricing_plan_id":"free"},{"bike_id":"bbdad6ee-24d3-4a24-a09d-63fdabcb37ed","system_id":"levelo_inurba_marseille","lat":43.313571,"lon":5.384829,"is_reserved":false,"is_disabled":false,"rental_uris":{"android":"levelo://app?vid=bbdad6ee-24d3-4a24-a09d-63fdabcb37ed","ios":"levelo://app?vid=bbdad6ee-24d3-4a24-a09d-63fdabcb37ed"},"vehicle_type_id":"4","last_reported":1689102351,"current_range_meters":11200,"station_id":"ce4bgt92rcd13ifvqcf0","pricing_plan_id":"free"},{"bike_id":"db9f235c-5b13-45a0-9c24-098107b5d447","system_id":"levelo_inurba_marseille","lat":43.31364,"lon":5.38492,"is_reserved":false,"is_disabled":false,"rental_uris":{"android":"levelo://app?vid=db9f235c-5b13-45a0-9c24-098107b5d447","ios":"levelo://app?vid=db9f235c-5b13-45a0-9c24-098107b5d447"},"vehicle_type_id":"4","last_reported":1689102351,"current_range_meters":16800,"station_id":"ce4bgt92rcd13ifvqcf0","pricing_plan_id":"free"},{"bike_id":"c7658932-7b18-49d1-bd2b-b6706fdf2aab","system_id":"levelo_inurba_marseille","lat":43.299222,"lon":5.365554,"is_reserved":false,"is_disabled":false,"rental_uris":{"android":"levelo://app?vid=c7658932-7b18-49d1-bd2b-b6706fdf2aab","ios":"levelo://app?vid=c7658932-7b18-49d1-bd2b-b6706fdf2aab"},"vehicle_type_id":"4","last_reported":1689102351,"current_range_meters":15200,"station_id":"ce4bgm92rcd13ifvqbr0","pricing_plan_id":"free"},{"bike_id":"f0668ec1-42ef-4f65-ab17-befc3fee374c","system_id":"levelo_inurba_marseille","lat":43.299222,"lon":5.365554,"is_reserved":false,"is_disabled":false,"rental_uris":{"android":"levelo://app?vid=f0668ec1-42ef-4f65-ab17-befc3fee374c","ios":"levelo://app?vid=f0668ec1-42ef-4f65-ab17-befc3fee374c"},"vehicle_type_id":"4","last_reported":1689102351,"current_range_meters":16000,"station_id":"ce4bgm92rcd13ifvqbr0","pricing_plan_id":"free"},{"bike_id":"28adfe04-f21c-454d-9159-c6d70db5c890","system_id":"levelo_inurba_marseille","lat":43.299222,"lon":5.365554,"is_reserved":false,"is_disabled":false,"rental_uris":{"android":"levelo://app?vid=28adfe04-f21c-454d-9159-c6d70db5c890","ios":"levelo://app?vid=28adfe04-f21c-454d-9159-c6d70db5c890"},"vehicle_type_id":"4","last_reported":1689102351,"current_range_meters":24400,"station_id":"ce4bgm92rcd13ifvqbr0","pricing_plan_id":"free"},{"bike_id":"893a8983-dfb3-46bb-878f-a7e500b30edb","system_id":"levelo_inurba_marseille","lat":43.298433,"lon":5.362774,"is_reserved":false,"is_disabled":false,"rental_uris":{"android":"levelo://app?vid=893a8983-dfb3-46bb-878f-a7e500b30edb","ios":"levelo://app?vid=893a8983-dfb3-46bb-878f-a7e500b30edb"},"vehicle_type_id":"4","last_reported":1689102351,"current_range_meters":23600,"station_id":"ce4bgpp2rcd13ifvqc3g","pricing_plan_id":"free"},{"bike_id":"057ede1f-247c-450e-bc18-51deb2f9c061","system_id":"levelo_inurba_marseille","lat":43.30254,"lon":5.38154,"is_reserved":false,"is_disabled":false,"rental_uris":{"android":"levelo://app?vid=057ede1f-247c-450e-bc18-51deb2f9c061","ios":"levelo://app?vid=057ede1f-247c-450e-bc18-51deb2f9c061"},"vehicle_type_id":"4","last_reported":1689102351,"current_range_meters":10400,"station_id":"","pricing_plan_id":"free"},{"bike_id":"3ebd437d-9892-45ce-88b6-a055b3f9a607","system_id":"levelo_inurba_marseille","lat":43.2981,"lon":5.37116,"is_reserved":false,"is_disabled":false,"rental_uris":{"android":"levelo://app?vid=3ebd437d-9892-45ce-88b6-a055b3f9a607","ios":"levelo://app?vid=3ebd437d-9892-45ce-88b6-a055b3f9a607"},"vehicle_type_id":"4","last_reported":1689102351,"current_range_meters":30800,"station_id":"","pricing_plan_id":"free"},{"bike_id":"d9eff74f-662a-441c-9aed-dfc933871cb3","system_id":"levelo_inurba_marseille","lat":43.297774,"lon":5.370875,"is_reserved":false,"is_disabled":false,"rental_uris":{"android":"levelo://app?vid=d9eff74f-662a-441c-9aed-dfc933871cb3","ios":"levelo://app?vid=d9eff74f-662a-441c-9aed-dfc933871cb3"},"vehicle_type_id":"4","last_reported":1689102351,"current_range_meters":15600,"station_id":"ce4bgop2rcd13ifvqc1g","pricing_plan_id":"free"},{"bike_id":"66dfa8e8-6787-4aa1-bd61-60cde053bdd6","system_id":"levelo_inurba_marseille","lat":43.29793,"lon":5.37093,"is_reserved":false,"is_disabled":false,"rental_uris":{"android":"levelo://app?vid=66dfa8e8-6787-4aa1-bd61-60cde053bdd6","ios":"levelo://app?vid=66dfa8e8-6787-4aa1-bd61-60cde053bdd6"},"vehicle_type_id":"4","last_reported":1689102351,"current_range_meters":30800,"station_id":"ce4bgop2rcd13ifvqc1g","pricing_plan_id":"free"},{"bike_id":"e058c753-b207-4daa-bee3-596d4b80dc99","system_id":"levelo_inurba_marseille","lat":43.29786,"lon":5.37095,"is_reserved":false,"is_disabled":false,"rental_uris":{"android":"levelo://app?vid=e058c753-b207-4daa-bee3-596d4b80dc99","ios":"levelo://app?vid=e058c753-b207-4daa-bee3-596d4b80dc99"},"vehicle_type_id":"4","last_reported":1689102351,"current_range_meters":18400,"station_id":"ce4bgop2rcd13ifvqc1g","pricing_plan_id":"free"},{"bike_id":"fdd17f7f-d58c-49ee-a33c-e95b2871a739","system_id":"levelo_inurba_marseille","lat":43.29786,"lon":5.37099,"is_reserved":false,"is_disabled":false,"rental_uris":{"android":"levelo://app?vid=fdd17f7f-d58c-49ee-a33c-e95b2871a739","ios":"levelo://app?vid=fdd17f7f-d58c-49ee-a33c-e95b2871a739"},"vehicle_type_id":"4","last_reported":1689102351,"current_range_meters":17600,"station_id":"ce4bgop2rcd13ifvqc1g","pricing_plan_id":"free"},{"bike_id":"c3cde0df-9f26-4f27-9888-e2ae91afb817","system_id":"levelo_inurba_marseille","lat":43.297774,"lon":5.370875,"is_reserved":false,"is_disabled":false,"rental_uris":{"android":"levelo://app?vid=c3cde0df-9f26-4f27-9888-e2ae91afb817","ios":"levelo://app?vid=c3cde0df-9f26-4f27-9888-e2ae91afb817"},"vehicle_type_id":"4","last_reported":1689102351,"current_range_meters":27200,"station_id":"ce4bgop2rcd13ifvqc1g","pricing_plan_id":"free"},{"bike_id":"9879ac14-a4c2-441d-8931-df89fe6ecd38","system_id":"levelo_inurba_marseille","lat":43.297857,"lon":5.371076,"is_reserved":false,"is_disabled":false,"rental_uris":{"android":"levelo://app?vid=9879ac14-a4c2-441d-8931-df89fe6ecd38","ios":"levelo://app?vid=9879ac14-a4c2-441d-8931-df89fe6ecd38"},"vehicle_type_id":"4","last_reported":1689102351,"current_range_meters":27600,"station_id":"ce4bgop2rcd13ifvqc1g","pricing_plan_id":"free"},{"bike_id":"07d209ff-47b1-4e6f-8280-cf1ef248b30a","system_id":"levelo_inurba_marseille","lat":43.29783,"lon":5.37091,"is_reserved":false,"is_disabled":false,"rental_uris":{"android":"levelo://app?vid=07d209ff-47b1-4e6f-8280-cf1ef248b30a","ios":"levelo://app?vid=07d209ff-47b1-4e6f-8280-cf1ef248b30a"},"vehicle_type_id":"4","last_reported":1689102351,"current_range_meters":31200,"station_id":"ce4bgop2rcd13ifvqc1g","pricing_plan_id":"free"},{"bike_id":"b83fafed-0f8c-414c-ae58-83086118ef50","system_id":"levelo_inurba_marseille","lat":43.29782,"lon":5.37098,"is_reserved":false,"is_disabled":false,"rental_uris":{"android":"levelo://app?vid=b83fafed-0f8c-414c-ae58-83086118ef50","ios":"levelo://app?vid=b83fafed-0f8c-414c-ae58-83086118ef50"},"vehicle_type_id":"4","last_reported":1689102351,"current_range_meters":400,"station_id":"ce4bgop2rcd13ifvqc1g","pricing_plan_id":"free"},{"bike_id":"3dc84dfd-a57a-4e9f-82cf-e7733b516571","system_id":"levelo_inurba_marseille","lat":43.297774,"lon":5.370875,"is_reserved":false,"is_disabled":false,"rental_uris":{"android":"levelo://app?vid=3dc84dfd-a57a-4e9f-82cf-e7733b516571","ios":"levelo://app?vid=3dc84dfd-a57a-4e9f-82cf-e7733b516571"},"vehicle_type_id":"4","last_reported":1689102351,"current_range_meters":20400,"station_id":"ce4bgop2rcd13ifvqc1g","pricing_plan_id":"free"},{"bike_id":"f7a14acd-c9ab-4a6b-b5c2-053aafc36b72","system_id":"levelo_inurba_marseille","lat":43.297774,"lon":5.370875,"is_reserved":false,"is_disabled":false,"rental_uris":{"android":"levelo://app?vid=f7a14acd-c9ab-4a6b-b5c2-053aafc36b72","ios":"levelo://app?vid=f7a14acd-c9ab-4a6b-b5c2-053aafc36b72"},"vehicle_type_id":"4","last_reported":1689102351,"current_range_meters":28800,"station_id":"ce4bgop2rcd13ifvqc1g","pricing_plan_id":"free"},{"bike_id":"9f52123d-3dad-4d9f-afc8-0f764df4c577","system_id":"levelo_inurba_marseille","lat":43.297774,"lon":5.370875,"is_reserved":false,"is_disabled":false,"rental_uris":{"android":"levelo://app?vid=9f52123d-3dad-4d9f-afc8-0f764df4c577","ios":"levelo://app?vid=9f52123d-3dad-4d9f-afc8-0f764df4c577"},"vehicle_type_id":"4","last_reported":1689102351,"current_range_meters":16400,"station_id":"ce4bgop2rcd13ifvqc1g","pricing_plan_id":"free"},{"bike_id":"cae28813-ebad-4735-a259-fe272120b61a","system_id":"levelo_inurba_marseille","lat":43.29777,"lon":5.37109,"is_reserved":false,"is_disabled":false,"rental_uris":{"android":"levelo://app?vid=cae28813-ebad-4735-a259-fe272120b61a","ios":"levelo://app?vid=cae28813-ebad-4735-a259-fe272120b61a"},"vehicle_type_id":"4","last_reported":1689102351,"current_range_meters":22000,"station_id":"ce4bgop2rcd13ifvqc1g","pricing_plan_id":"free"},{"bike_id":"35b68868-1277-4654-99f3-e3830defa965","system_id":"levelo_inurba_marseille","lat":43.297774,"lon":5.370875,"is_reserved":false,"is_disabled":false,"rental_uris":{"android":"levelo://app?vid=35b68868-1277-4654-99f3-e3830defa965","ios":"levelo://app?vid=35b68868-1277-4654-99f3-e3830defa965"},"vehicle_type_id":"4","last_reported":1689102351,"current_range_meters":18000,"station_id":"ce4bgop2rcd13ifvqc1g","pricing_plan_id":"free"},{"bike_id":"74407244-ba39-462d-88fc-a473c2c49845","system_id":"levelo_inurba_marseille","lat":43.328371,"lon":5.366909,"is_reserved":false,"is_disabled":false,"rental_uris":{"android":"levelo://app?vid=74407244-ba39-462d-88fc-a473c2c49845","ios":"levelo://app?vid=74407244-ba39-462d-88fc-a473c2c49845"},"vehicle_type_id":"4","last_reported":1689102351,"current_range_meters":20800,"station_id":"ce4bhs92rcd13ifvqi0g","pricing_plan_id":"free"},{"bike_id":"fe60ac76-0b1b-4d4f-b715-ae8878e61f90","system_id":"levelo_inurba_marseille","lat":43.328371,"lon":5.366909,"is_reserved":false,"is_disabled":false,"rental_uris":{"android":"levelo://app?vid=fe60ac76-0b1b-4d4f-b715-ae8878e61f90","ios":"levelo://app?vid=fe60ac76-0b1b-4d4f-b715-ae8878e61f90"},"vehicle_type_id":"4","last_reported":1689102351,"current_range_meters":6000,"station_id":"ce4bhs92rcd13ifvqi0g","pricing_plan_id":"free"},{"bike_id":"7cc51e05-826e-4bad-9cfe-c17287decf29","system_id":"levelo_inurba_marseille","lat":43.2972,"lon":5.36617,"is_reserved":false,"is_disabled":false,"rental_uris":{"android":"levelo://app?vid=7cc51e05-826e-4bad-9cfe-c17287decf29","ios":"levelo://app?vid=7cc51e05-826e-4bad-9cfe-c17287decf29"},"vehicle_type_id":"4","last_reported":1689102351,"current_range_meters":19600,"station_id":"ce4bgn12rcd13ifvqbt0","pricing_plan_id":"free"},{"bike_id":"82c0663d-b10b-41e9-a3f9-9ee62ea8c128","system_id":"levelo_inurba_marseille","lat":43.328371,"lon":5.366909,"is_reserved":false,"is_disabled":false,"rental_uris":{"android":"levelo://app?vid=82c0663d-b10b-41e9-a3f9-9ee62ea8c128","ios":"levelo://app?vid=82c0663d-b10b-41e9-a3f9-9ee62ea8c128"},"vehicle_type_id":"4","last_reported":1689102351,"current_range_meters":19600,"station_id":"ce4bhs92rcd13ifvqi0g","pricing_plan_id":"free"},{"bike_id":"dd3846f3-ff6b-4b88-92a4-1d7ff732aedf","system_id":"levelo_inurba_marseille","lat":43.328371,"lon":5.366909,"is_reserved":false,"is_disabled":false,"rental_uris":{"android":"levelo://app?vid=dd3846f3-ff6b-4b88-92a4-1d7ff732aedf","ios":"levelo://app?vid=dd3846f3-ff6b-4b88-92a4-1d7ff732aedf"},"vehicle_type_id":"4","last_reported":1689102351,"current_range_meters":19600,"station_id":"ce4bhs92rcd13ifvqi0g","pricing_plan_id":"free"},{"bike_id":"6e84172c-531f-4b24-a0a2-0973f54d26cc","system_id":"levelo_inurba_marseille","lat":43.32829,"lon":5.36681,"is_reserved":false,"is_disabled":false,"rental_uris":{"android":"levelo://app?vid=6e84172c-531f-4b24-a0a2-0973f54d26cc","ios":"levelo://app?vid=6e84172c-531f-4b24-a0a2-0973f54d26cc"},"vehicle_type_id":"4","last_reported":1689102351,"current_range_meters":28000,"station_id":"ce4bhs92rcd13ifvqi0g","pricing_plan_id":"free"},{"bike_id":"9ab6acd3-36c0-40d7-a8cb-2e2f800b400f","system_id":"levelo_inurba_marseille","lat":43.328371,"lon":5.366909,"is_reserved":false,"is_disabled":false,"rental_uris":{"android":"levelo://app?vid=9ab6acd3-36c0-40d7-a8cb-2e2f800b400f","ios":"levelo://app?vid=9ab6acd3-36c0-40d7-a8cb-2e2f800b400f"},"vehicle_type_id":"4","last_reported":1689102351,"current_range_meters":6000,"station_id":"ce4bhs92rcd13ifvqi0g","pricing_plan_id":"free"},{"bike_id":"71cff3a3-0a67-4159-8e0c-f10f8ae2b748","system_id":"levelo_inurba_marseille","lat":43.328371,"lon":5.366909,"is_reserved":false,"is_disabled":false,"rental_uris":{"android":"levelo://app?vid=71cff3a3-0a67-4159-8e0c-f10f8ae2b748","ios":"levelo://app?vid=71cff3a3-0a67-4159-8e0c-f10f8ae2b748"},"vehicle_type_id":"4","last_reported":1689102351,"current_range_meters":21200,"station_id":"ce4bhs92rcd13ifvqi0g","pricing_plan_id":"free"},{"bike_id":"c4f05027-afdf-4955-8415-7bbeb3c9b318","system_id":"levelo_inurba_marseille","lat":43.328371,"lon":5.366909,"is_reserved":false,"is_disabled":false,"rental_uris":{"android":"levelo://app?vid=c4f05027-afdf-4955-8415-7bbeb3c9b318","ios":"levelo://app?vid=c4f05027-afdf-4955-8415-7bbeb3c9b318"},"vehicle_type_id":"4","last_reported":1689102351,"current_range_meters":4800,"station_id":"ce4bhs92rcd13ifvqi0g","pricing_plan_id":"free"},{"bike_id":"a54240bd-886a-40d8-b179-983d41370a19","system_id":"levelo_inurba_marseille","lat":43.32832,"lon":5.3669,"is_reserved":false,"is_disabled":false,"rental_uris":{"android":"levelo://app?vid=a54240bd-886a-40d8-b179-983d41370a19","ios":"levelo://app?vid=a54240bd-886a-40d8-b179-983d41370a19"},"vehicle_type_id":"4","last_reported":1689102351,"current_range_meters":4800,"station_id":"ce4bhs92rcd13ifvqi0g","pricing_plan_id":"free"},{"bike_id":"ac0ab414-c38e-4625-b276-0d829fe79721","system_id":"levelo_inurba_marseille","lat":43.328371,"lon":5.366909,"is_reserved":false,"is_disabled":false,"rental_uris":{"android":"levelo://app?vid=ac0ab414-c38e-4625-b276-0d829fe79721","ios":"levelo://app?vid=ac0ab414-c38e-4625-b276-0d829fe79721"},"vehicle_type_id":"4","last_reported":1689102351,"current_range_meters":29600,"station_id":"ce4bhs92rcd13ifvqi0g","pricing_plan_id":"free"},{"bike_id":"74e091c8-36c9-4932-b52b-92a60f25a803","system_id":"levelo_inurba_marseille","lat":43.29717,"lon":5.36613,"is_reserved":false,"is_disabled":false,"rental_uris":{"android":"levelo://app?vid=74e091c8-36c9-4932-b52b-92a60f25a803","ios":"levelo://app?vid=74e091c8-36c9-4932-b52b-92a60f25a803"},"vehicle_type_id":"4","last_reported":1689102351,"current_range_meters":24000,"station_id":"ce4bgn12rcd13ifvqbt0","pricing_plan_id":"free"},{"bike_id":"11812485-737e-4775-a7b0-c1dbec57bd7f","system_id":"levelo_inurba_marseille","lat":43.297163,"lon":5.365866,"is_reserved":false,"is_disabled":false,"rental_uris":{"android":"levelo://app?vid=11812485-737e-4775-a7b0-c1dbec57bd7f","ios":"levelo://app?vid=11812485-737e-4775-a7b0-c1dbec57bd7f"},"vehicle_type_id":"4","last_reported":1689102351,"current_range_meters":31200,"station_id":"ce4bgn12rcd13ifvqbt0","pricing_plan_id":"free"},{"bike_id":"dae73537-ced7-481d-90e5-a224c0c7707b","system_id":"levelo_inurba_marseille","lat":43.32833,"lon":5.36687,"is_reserved":false,"is_disabled":false,"rental_uris":{"android":"levelo://app?vid=dae73537-ced7-481d-90e5-a224c0c7707b","ios":"levelo://app?vid=dae73537-ced7-481d-90e5-a224c0c7707b"},"vehicle_type_id":"4","last_reported":1689102351,"current_range_meters":9200,"station_id":"ce4bhs92rcd13ifvqi0g","pricing_plan_id":"free"},{"bike_id":"98be7db6-8143-41d3-9935-185fe9ab20f3","system_id":"levelo_inurba_marseille","lat":43.32834,"lon":5.36685,"is_reserved":false,"is_disabled":false,"rental_uris":{"android":"levelo://app?vid=98be7db6-8143-41d3-9935-185fe9ab20f3","ios":"levelo://app?vid=98be7db6-8143-41d3-9935-185fe9ab20f3"},"vehicle_type_id":"4","last_reported":1689102351,"current_range_meters":26000,"station_id":"ce4bhs92rcd13ifvqi0g","pricing_plan_id":"free"},{"bike_id":"952311b3-baa3-42e6-81a5-2b1fe857ca8c","system_id":"levelo_inurba_marseille","lat":43.32835,"lon":5.36689,"is_reserved":false,"is_disabled":false,"rental_uris":{"android":"levelo://app?vid=952311b3-baa3-42e6-81a5-2b1fe857ca8c","ios":"levelo://app?vid=952311b3-baa3-42e6-81a5-2b1fe857ca8c"},"vehicle_type_id":"4","last_reported":1689102351,"current_range_meters":18400,"station_id":"ce4bhs92rcd13ifvqi0g","pricing_plan_id":"free"},{"bike_id":"7026f680-b637-4c29-8ca8-3286106d6c68","system_id":"levelo_inurba_marseille","lat":43.32836,"lon":5.36685,"is_reserved":false,"is_disabled":false,"rental_uris":{"android":"levelo://app?vid=7026f680-b637-4c29-8ca8-3286106d6c68","ios":"levelo://app?vid=7026f680-b637-4c29-8ca8-3286106d6c68"},"vehicle_type_id":"4","last_reported":1689102351,"current_range_meters":22400,"station_id":"ce4bhs92rcd13ifvqi0g","pricing_plan_id":"free"},{"bike_id":"51f48678-26d4-4bbc-8f52-5e2b219eda87","system_id":"levelo_inurba_marseille","lat":43.297163,"lon":5.365866,"is_reserved":false,"is_disabled":false,"rental_uris":{"android":"levelo://app?vid=51f48678-26d4-4bbc-8f52-5e2b219eda87","ios":"levelo://app?vid=51f48678-26d4-4bbc-8f52-5e2b219eda87"},"vehicle_type_id":"4","last_reported":1689102351,"current_range_meters":30400,"station_id":"ce4bgn12rcd13ifvqbt0","pricing_plan_id":"free"},{"bike_id":"bb52540a-5452-40ba-a697-b012ab3b2089","system_id":"levelo_inurba_marseille","lat":43.297163,"lon":5.365866,"is_reserved":false,"is_disabled":false,"rental_uris":{"android":"levelo://app?vid=bb52540a-5452-40ba-a697-b012ab3b2089","ios":"levelo://app?vid=bb52540a-5452-40ba-a697-b012ab3b2089"},"vehicle_type_id":"4","last_reported":1689102351,"current_range_meters":27600,"station_id":"ce4bgn12rcd13ifvqbt0","pricing_plan_id":"free"},{"bike_id":"9f57cb93-34a4-469b-aa35-60194e34c25e","system_id":"levelo_inurba_marseille","lat":43.297163,"lon":5.365866,"is_reserved":false,"is_disabled":false,"rental_uris":{"android":"levelo://app?vid=9f57cb93-34a4-469b-aa35-60194e34c25e","ios":"levelo://app?vid=9f57cb93-34a4-469b-aa35-60194e34c25e"},"vehicle_type_id":"4","last_reported":1689102351,"current_range_meters":31600,"station_id":"ce4bgn12rcd13ifvqbt0","pricing_plan_id":"free"},{"bike_id":"671e6103-749a-44d5-9262-c0380ac8955e","system_id":"levelo_inurba_marseille","lat":43.297163,"lon":5.365866,"is_reserved":false,"is_disabled":false,"rental_uris":{"android":"levelo://app?vid=671e6103-749a-44d5-9262-c0380ac8955e","ios":"levelo://app?vid=671e6103-749a-44d5-9262-c0380ac8955e"},"vehicle_type_id":"4","last_reported":1689102351,"current_range_meters":31200,"station_id":"ce4bgn12rcd13ifvqbt0","pricing_plan_id":"free"},{"bike_id":"c0824d4a-9b63-4c22-b433-20b71f3da7b9","system_id":"levelo_inurba_marseille","lat":43.29709,"lon":5.36614,"is_reserved":false,"is_disabled":false,"rental_uris":{"android":"levelo://app?vid=c0824d4a-9b63-4c22-b433-20b71f3da7b9","ios":"levelo://app?vid=c0824d4a-9b63-4c22-b433-20b71f3da7b9"},"vehicle_type_id":"4","last_reported":1689102351,"current_range_meters":16000,"station_id":"ce4bgn12rcd13ifvqbt0","pricing_plan_id":"free"},{"bike_id":"99989ef4-2801-4c12-b473-d0070220e6c6","system_id":"levelo_inurba_marseille","lat":43.297163,"lon":5.365866,"is_reserved":false,"is_disabled":false,"rental_uris":{"android":"levelo://app?vid=99989ef4-2801-4c12-b473-d0070220e6c6","ios":"levelo://app?vid=99989ef4-2801-4c12-b473-d0070220e6c6"},"vehicle_type_id":"4","last_reported":1689102351,"current_range_meters":19200,"station_id":"ce4bgn12rcd13ifvqbt0","pricing_plan_id":"free"},{"bike_id":"69721170-6860-4950-a441-cae38fd34dd8","system_id":"levelo_inurba_marseille","lat":43.297163,"lon":5.365866,"is_reserved":false,"is_disabled":false,"rental_uris":{"android":"levelo://app?vid=69721170-6860-4950-a441-cae38fd34dd8","ios":"levelo://app?vid=69721170-6860-4950-a441-cae38fd34dd8"},"vehicle_type_id":"4","last_reported":1689102351,"current_range_meters":29600,"station_id":"ce4bgn12rcd13ifvqbt0","pricing_plan_id":"free"},{"bike_id":"9f2221e7-b787-46f9-a389-00005fa81751","system_id":"levelo_inurba_marseille","lat":43.29707,"lon":5.366057,"is_reserved":false,"is_disabled":false,"rental_uris":{"android":"levelo://app?vid=9f2221e7-b787-46f9-a389-00005fa81751","ios":"levelo://app?vid=9f2221e7-b787-46f9-a389-00005fa81751"},"vehicle_type_id":"4","last_reported":1689102351,"current_range_meters":31200,"station_id":"ce4bgn12rcd13ifvqbt0","pricing_plan_id":"free"},{"bike_id":"5ea73e21-dcac-447b-9e8f-3a8481eb4313","system_id":"levelo_inurba_marseille","lat":43.29705,"lon":5.36599,"is_reserved":false,"is_disabled":false,"rental_uris":{"android":"levelo://app?vid=5ea73e21-dcac-447b-9e8f-3a8481eb4313","ios":"levelo://app?vid=5ea73e21-dcac-447b-9e8f-3a8481eb4313"},"vehicle_type_id":"4","last_reported":1689102351,"current_range_meters":12800,"station_id":"ce4bgn12rcd13ifvqbt0","pricing_plan_id":"free"},{"bike_id":"cdf9e058-d514-4616-8e03-dea271f0e397","system_id":"levelo_inurba_marseille","lat":43.297163,"lon":5.365866,"is_reserved":false,"is_disabled":false,"rental_uris":{"android":"levelo://app?vid=cdf9e058-d514-4616-8e03-dea271f0e397","ios":"levelo://app?vid=cdf9e058-d514-4616-8e03-dea271f0e397"},"vehicle_type_id":"4","last_reported":1689102351,"current_range_meters":24400,"station_id":"ce4bgn12rcd13ifvqbt0","pricing_plan_id":"free"},{"bike_id":"c1029bca-9004-4560-bed4-b14ad531be6a","system_id":"levelo_inurba_marseille","lat":43.29929,"lon":5.3787,"is_reserved":false,"is_disabled":false,"rental_uris":{"android":"levelo://app?vid=c1029bca-9004-4560-bed4-b14ad531be6a","ios":"levelo://app?vid=c1029bca-9004-4560-bed4-b14ad531be6a"},"vehicle_type_id":"4","last_reported":1689102351,"current_range_meters":29600,"station_id":"","pricing_plan_id":"free"},{"bike_id":"6e5a3965-756c-4196-b3eb-25ce1a97f8d2","system_id":"levelo_inurba_marseille","lat":43.29573,"lon":5.367355,"is_reserved":false,"is_disabled":false,"rental_uris":{"android":"levelo://app?vid=6e5a3965-756c-4196-b3eb-25ce1a97f8d2","ios":"levelo://app?vid=6e5a3965-756c-4196-b3eb-25ce1a97f8d2"},"vehicle_type_id":"4","last_reported":1689102351,"current_range_meters":31200,"station_id":"ce4bgph2rcd13ifvqc2g","pricing_plan_id":"free"},{"bike_id":"8dfd6064-f84a-4f39-86fa-de2cf0eefb4b","system_id":"levelo_inurba_marseille","lat":43.2968,"lon":5.37291,"is_reserved":false,"is_disabled":false,"rental_uris":{"android":"levelo://app?vid=8dfd6064-f84a-4f39-86fa-de2cf0eefb4b","ios":"levelo://app?vid=8dfd6064-f84a-4f39-86fa-de2cf0eefb4b"},"vehicle_type_id":"4","last_reported":1689102351,"current_range_meters":5200,"station_id":"ce4bgk12rcd13ifvqbj0","pricing_plan_id":"free"},{"bike_id":"51f573f0-3d72-4cc1-8846-29374089a562","system_id":"levelo_inurba_marseille","lat":43.2968,"lon":5.37291,"is_reserved":false,"is_disabled":false,"rental_uris":{"android":"levelo://app?vid=51f573f0-3d72-4cc1-8846-29374089a562","ios":"levelo://app?vid=51f573f0-3d72-4cc1-8846-29374089a562"},"vehicle_type_id":"4","last_reported":1689102351,"current_range_meters":14000,"station_id":"ce4bgk12rcd13ifvqbj0","pricing_plan_id":"free"},{"bike_id":"10841edb-5145-4893-9d9b-e622a149dfc3","system_id":"levelo_inurba_marseille","lat":43.2968,"lon":5.37291,"is_reserved":false,"is_disabled":false,"rental_uris":{"android":"levelo://app?vid=10841edb-5145-4893-9d9b-e622a149dfc3","ios":"levelo://app?vid=10841edb-5145-4893-9d9b-e622a149dfc3"},"vehicle_type_id":"4","last_reported":1689102351,"current_range_meters":27600,"station_id":"ce4bgk12rcd13ifvqbj0","pricing_plan_id":"free"},{"bike_id":"a2432f80-a63d-4365-af9e-3331896d581e","system_id":"levelo_inurba_marseille","lat":43.2968,"lon":5.37291,"is_reserved":false,"is_disabled":false,"rental_uris":{"android":"levelo://app?vid=a2432f80-a63d-4365-af9e-3331896d581e","ios":"levelo://app?vid=a2432f80-a63d-4365-af9e-3331896d581e"},"vehicle_type_id":"4","last_reported":1689102351,"current_range_meters":10000,"station_id":"ce4bgk12rcd13ifvqbj0","pricing_plan_id":"free"},{"bike_id":"e5fd793d-fa6b-4515-9d26-90201b4d0383","system_id":"levelo_inurba_marseille","lat":43.2968,"lon":5.37291,"is_reserved":false,"is_disabled":false,"rental_uris":{"android":"levelo://app?vid=e5fd793d-fa6b-4515-9d26-90201b4d0383","ios":"levelo://app?vid=e5fd793d-fa6b-4515-9d26-90201b4d0383"},"vehicle_type_id":"4","last_reported":1689102351,"current_range_meters":8000,"station_id":"ce4bgk12rcd13ifvqbj0","pricing_plan_id":"free"},{"bike_id":"43aa2cee-5c56-4d93-b450-5ca9e68eed7c","system_id":"levelo_inurba_marseille","lat":43.2968,"lon":5.37291,"is_reserved":false,"is_disabled":false,"rental_uris":{"android":"levelo://app?vid=43aa2cee-5c56-4d93-b450-5ca9e68eed7c","ios":"levelo://app?vid=43aa2cee-5c56-4d93-b450-5ca9e68eed7c"},"vehicle_type_id":"4","last_reported":1689102351,"current_range_meters":15600,"station_id":"ce4bgk12rcd13ifvqbj0","pricing_plan_id":"free"},{"bike_id":"0c172088-9ee1-4599-b596-161a9a991215","system_id":"levelo_inurba_marseille","lat":43.2968,"lon":5.37291,"is_reserved":false,"is_disabled":false,"rental_uris":{"android":"levelo://app?vid=0c172088-9ee1-4599-b596-161a9a991215","ios":"levelo://app?vid=0c172088-9ee1-4599-b596-161a9a991215"},"vehicle_type_id":"4","last_reported":1689102351,"current_range_meters":10800,"station_id":"ce4bgk12rcd13ifvqbj0","pricing_plan_id":"free"},{"bike_id":"0bfaf400-fb4a-4a89-8c08-acec80e207aa","system_id":"levelo_inurba_marseille","lat":43.2968,"lon":5.37291,"is_reserved":false,"is_disabled":false,"rental_uris":{"android":"levelo://app?vid=0bfaf400-fb4a-4a89-8c08-acec80e207aa","ios":"levelo://app?vid=0bfaf400-fb4a-4a89-8c08-acec80e207aa"},"vehicle_type_id":"4","last_reported":1689102351,"current_range_meters":7200,"station_id":"ce4bgk12rcd13ifvqbj0","pricing_plan_id":"free"},{"bike_id":"e509e47a-0425-40fb-b0da-8b455abe858a","system_id":"levelo_inurba_marseille","lat":43.2968,"lon":5.37291,"is_reserved":false,"is_disabled":false,"rental_uris":{"android":"levelo://app?vid=e509e47a-0425-40fb-b0da-8b455abe858a","ios":"levelo://app?vid=e509e47a-0425-40fb-b0da-8b455abe858a"},"vehicle_type_id":"4","last_reported":1689102351,"current_range_meters":5200,"station_id":"ce4bgk12rcd13ifvqbj0","pricing_plan_id":"free"},{"bike_id":"4b3c936b-4bc0-4732-a765-1e7b7a81d788","system_id":"levelo_inurba_marseille","lat":43.2968,"lon":5.37291,"is_reserved":false,"is_disabled":false,"rental_uris":{"android":"levelo://app?vid=4b3c936b-4bc0-4732-a765-1e7b7a81d788","ios":"levelo://app?vid=4b3c936b-4bc0-4732-a765-1e7b7a81d788"},"vehicle_type_id":"4","last_reported":1689102351,"current_range_meters":29200,"station_id":"ce4bgk12rcd13ifvqbj0","pricing_plan_id":"free"},{"bike_id":"ef3292ac-4c17-4b7c-90d7-c5914dbb1f86","system_id":"levelo_inurba_marseille","lat":43.2968,"lon":5.37291,"is_reserved":false,"is_disabled":false,"rental_uris":{"android":"levelo://app?vid=ef3292ac-4c17-4b7c-90d7-c5914dbb1f86","ios":"levelo://app?vid=ef3292ac-4c17-4b7c-90d7-c5914dbb1f86"},"vehicle_type_id":"4","last_reported":1689102351,"current_range_meters":14000,"station_id":"ce4bgk12rcd13ifvqbj0","pricing_plan_id":"free"},{"bike_id":"1a7b82ad-325f-4515-9ff5-87076c13612e","system_id":"levelo_inurba_marseille","lat":43.29677,"lon":5.37299,"is_reserved":false,"is_disabled":false,"rental_uris":{"android":"levelo://app?vid=1a7b82ad-325f-4515-9ff5-87076c13612e","ios":"levelo://app?vid=1a7b82ad-325f-4515-9ff5-87076c13612e"},"vehicle_type_id":"4","last_reported":1689102351,"current_range_meters":21200,"station_id":"ce4bgk12rcd13ifvqbj0","pricing_plan_id":"free"},{"bike_id":"42c05e9b-1e04-49bd-9375-515bc6aef288","system_id":"levelo_inurba_marseille","lat":43.2968,"lon":5.37291,"is_reserved":false,"is_disabled":false,"rental_uris":{"android":"levelo://app?vid=42c05e9b-1e04-49bd-9375-515bc6aef288","ios":"levelo://app?vid=42c05e9b-1e04-49bd-9375-515bc6aef288"},"vehicle_type_id":"4","last_reported":1689102351,"current_range_meters":30400,"station_id":"ce4bgk12rcd13ifvqbj0","pricing_plan_id":"free"},{"bike_id":"a4a80885-e51f-4360-aed3-a687743870c2","system_id":"levelo_inurba_marseille","lat":43.29702,"lon":5.37428,"is_reserved":false,"is_disabled":false,"rental_uris":{"android":"levelo://app?vid=a4a80885-e51f-4360-aed3-a687743870c2","ios":"levelo://app?vid=a4a80885-e51f-4360-aed3-a687743870c2"},"vehicle_type_id":"4","last_reported":1689102351,"current_range_meters":8800,"station_id":"","pricing_plan_id":"free"},{"bike_id":"030b1bb8-490f-41c9-a250-b6dbf47e15f9","system_id":"levelo_inurba_marseille","lat":43.2968,"lon":5.37291,"is_reserved":false,"is_disabled":false,"rental_uris":{"android":"levelo://app?vid=030b1bb8-490f-41c9-a250-b6dbf47e15f9","ios":"levelo://app?vid=030b1bb8-490f-41c9-a250-b6dbf47e15f9"},"vehicle_type_id":"4","last_reported":1689102351,"current_range_meters":5600,"station_id":"ce4bgk12rcd13ifvqbj0","pricing_plan_id":"free"},{"bike_id":"045ebef0-f0f4-4de8-8670-2116adc6a767","system_id":"levelo_inurba_marseille","lat":43.2968,"lon":5.37291,"is_reserved":false,"is_disabled":false,"rental_uris":{"android":"levelo://app?vid=045ebef0-f0f4-4de8-8670-2116adc6a767","ios":"levelo://app?vid=045ebef0-f0f4-4de8-8670-2116adc6a767"},"vehicle_type_id":"4","last_reported":1689102351,"current_range_meters":28400,"station_id":"ce4bgk12rcd13ifvqbj0","pricing_plan_id":"free"},{"bike_id":"f499fae8-825f-4540-bf1f-3c0ac1245921","system_id":"levelo_inurba_marseille","lat":43.2968,"lon":5.37291,"is_reserved":false,"is_disabled":false,"rental_uris":{"android":"levelo://app?vid=f499fae8-825f-4540-bf1f-3c0ac1245921","ios":"levelo://app?vid=f499fae8-825f-4540-bf1f-3c0ac1245921"},"vehicle_type_id":"4","last_reported":1689102351,"current_range_meters":12400,"station_id":"ce4bgk12rcd13ifvqbj0","pricing_plan_id":"free"},{"bike_id":"7c5f9917-7534-4993-8949-a9548c67522e","system_id":"levelo_inurba_marseille","lat":43.2968,"lon":5.37291,"is_reserved":false,"is_disabled":false,"rental_uris":{"android":"levelo://app?vid=7c5f9917-7534-4993-8949-a9548c67522e","ios":"levelo://app?vid=7c5f9917-7534-4993-8949-a9548c67522e"},"vehicle_type_id":"4","last_reported":1689102351,"current_range_meters":13600,"station_id":"ce4bgk12rcd13ifvqbj0","pricing_plan_id":"free"},{"bike_id":"28dfd094-4f9b-4f7c-b715-141fb4f46062","system_id":"levelo_inurba_marseille","lat":43.297774,"lon":5.370875,"is_reserved":false,"is_disabled":false,"rental_uris":{"android":"levelo://app?vid=28dfd094-4f9b-4f7c-b715-141fb4f46062","ios":"levelo://app?vid=28dfd094-4f9b-4f7c-b715-141fb4f46062"},"vehicle_type_id":"4","last_reported":1689102351,"current_range_meters":20800,"station_id":"ce4bgop2rcd13ifvqc1g","pricing_plan_id":"free"},{"bike_id":"7f8d3a55-027d-49de-a32d-fac4824bd9b1","system_id":"levelo_inurba_marseille","lat":43.29629,"lon":5.37168,"is_reserved":false,"is_disabled":false,"rental_uris":{"android":"levelo://app?vid=7f8d3a55-027d-49de-a32d-fac4824bd9b1","ios":"levelo://app?vid=7f8d3a55-027d-49de-a32d-fac4824bd9b1"},"vehicle_type_id":"4","last_reported":1689102351,"current_range_meters":31200,"station_id":"ce4bgnh2rcd13ifvqc0g","pricing_plan_id":"free"},{"bike_id":"02b8081e-7b3b-4ef1-8c58-04de23d6bf05","system_id":"levelo_inurba_marseille","lat":43.29626,"lon":5.37158,"is_reserved":false,"is_disabled":false,"rental_uris":{"android":"levelo://app?vid=02b8081e-7b3b-4ef1-8c58-04de23d6bf05","ios":"levelo://app?vid=02b8081e-7b3b-4ef1-8c58-04de23d6bf05"},"vehicle_type_id":"4","last_reported":1689102351,"current_range_meters":19200,"station_id":"ce4bgnh2rcd13ifvqc0g","pricing_plan_id":"free"},{"bike_id":"ab9ce3a9-cc81-436f-8a8a-2156146ea28b","system_id":"levelo_inurba_marseille","lat":43.29627,"lon":5.37165,"is_reserved":false,"is_disabled":false,"rental_uris":{"android":"levelo://app?vid=ab9ce3a9-cc81-436f-8a8a-2156146ea28b","ios":"levelo://app?vid=ab9ce3a9-cc81-436f-8a8a-2156146ea28b"},"vehicle_type_id":"4","last_reported":1689102351,"current_range_meters":23600,"station_id":"ce4bgnh2rcd13ifvqc0g","pricing_plan_id":"free"},{"bike_id":"69816660-df87-4449-b8b9-3c3457eec62e","system_id":"levelo_inurba_marseille","lat":43.29625,"lon":5.37157,"is_reserved":false,"is_disabled":false,"rental_uris":{"android":"levelo://app?vid=69816660-df87-4449-b8b9-3c3457eec62e","ios":"levelo://app?vid=69816660-df87-4449-b8b9-3c3457eec62e"},"vehicle_type_id":"4","last_reported":1689102351,"current_range_meters":16800,"station_id":"ce4bgnh2rcd13ifvqc0g","pricing_plan_id":"free"},{"bike_id":"06389147-037e-41e6-83c6-6282b72c3bd6","system_id":"levelo_inurba_marseille","lat":43.29625,"lon":5.37163,"is_reserved":false,"is_disabled":false,"rental_uris":{"android":"levelo://app?vid=06389147-037e-41e6-83c6-6282b72c3bd6","ios":"levelo://app?vid=06389147-037e-41e6-83c6-6282b72c3bd6"},"vehicle_type_id":"4","last_reported":1689102351,"current_range_meters":10800,"station_id":"ce4bgnh2rcd13ifvqc0g","pricing_plan_id":"free"},{"bike_id":"55ddc4c6-a8c5-40a0-8744-c4984267304a","system_id":"levelo_inurba_marseille","lat":43.29624,"lon":5.3716,"is_reserved":false,"is_disabled":false,"rental_uris":{"android":"levelo://app?vid=55ddc4c6-a8c5-40a0-8744-c4984267304a","ios":"levelo://app?vid=55ddc4c6-a8c5-40a0-8744-c4984267304a"},"vehicle_type_id":"4","last_reported":1689102351,"current_range_meters":25200,"station_id":"ce4bgnh2rcd13ifvqc0g","pricing_plan_id":"free"},{"bike_id":"746ae8de-7461-4808-a3da-d7e1a9fab1ac","system_id":"levelo_inurba_marseille","lat":43.29622,"lon":5.37151,"is_reserved":false,"is_disabled":false,"rental_uris":{"android":"levelo://app?vid=746ae8de-7461-4808-a3da-d7e1a9fab1ac","ios":"levelo://app?vid=746ae8de-7461-4808-a3da-d7e1a9fab1ac"},"vehicle_type_id":"4","last_reported":1689102351,"current_range_meters":31200,"station_id":"ce4bgnh2rcd13ifvqc0g","pricing_plan_id":"free"},{"bike_id":"54be283b-1769-4957-9b4e-50d0a73916d8","system_id":"levelo_inurba_marseille","lat":43.29589,"lon":5.36742,"is_reserved":false,"is_disabled":false,"rental_uris":{"android":"levelo://app?vid=54be283b-1769-4957-9b4e-50d0a73916d8","ios":"levelo://app?vid=54be283b-1769-4957-9b4e-50d0a73916d8"},"vehicle_type_id":"4","last_reported":1689102351,"current_range_meters":18000,"station_id":"ce4bgph2rcd13ifvqc2g","pricing_plan_id":"free"},{"bike_id":"6e481d47-8bb8-4c5e-bc86-f31113972400","system_id":"levelo_inurba_marseille","lat":43.29624,"lon":5.37165,"is_reserved":false,"is_disabled":false,"rental_uris":{"android":"levelo://app?vid=6e481d47-8bb8-4c5e-bc86-f31113972400","ios":"levelo://app?vid=6e481d47-8bb8-4c5e-bc86-f31113972400"},"vehicle_type_id":"4","last_reported":1689102351,"current_range_meters":9600,"station_id":"ce4bgnh2rcd13ifvqc0g","pricing_plan_id":"free"},{"bike_id":"6e31cbfb-b833-42ba-b677-69362f3c4ba9","system_id":"levelo_inurba_marseille","lat":43.29624,"lon":5.37166,"is_reserved":false,"is_disabled":false,"rental_uris":{"android":"levelo://app?vid=6e31cbfb-b833-42ba-b677-69362f3c4ba9","ios":"levelo://app?vid=6e31cbfb-b833-42ba-b677-69362f3c4ba9"},"vehicle_type_id":"4","last_reported":1689102351,"current_range_meters":26800,"station_id":"ce4bgnh2rcd13ifvqc0g","pricing_plan_id":"free"},{"bike_id":"bcd8ef25-95ee-4d16-95c1-02c42bb4cf39","system_id":"levelo_inurba_marseille","lat":43.29622,"lon":5.37156,"is_reserved":false,"is_disabled":false,"rental_uris":{"android":"levelo://app?vid=bcd8ef25-95ee-4d16-95c1-02c42bb4cf39","ios":"levelo://app?vid=bcd8ef25-95ee-4d16-95c1-02c42bb4cf39"},"vehicle_type_id":"4","last_reported":1689102351,"current_range_meters":19200,"station_id":"ce4bgnh2rcd13ifvqc0g","pricing_plan_id":"free"},{"bike_id":"c4b44bed-1fda-4de9-8bc8-432d5923a0a9","system_id":"levelo_inurba_marseille","lat":43.29621,"lon":5.37152,"is_reserved":false,"is_disabled":false,"rental_uris":{"android":"levelo://app?vid=c4b44bed-1fda-4de9-8bc8-432d5923a0a9","ios":"levelo://app?vid=c4b44bed-1fda-4de9-8bc8-432d5923a0a9"},"vehicle_type_id":"4","last_reported":1689102351,"current_range_meters":30000,"station_id":"ce4bgnh2rcd13ifvqc0g","pricing_plan_id":"free"},{"bike_id":"e822fd72-a48b-4dab-8d12-65bafc91be05","system_id":"levelo_inurba_marseille","lat":43.29622,"lon":5.37159,"is_reserved":false,"is_disabled":false,"rental_uris":{"android":"levelo://app?vid=e822fd72-a48b-4dab-8d12-65bafc91be05","ios":"levelo://app?vid=e822fd72-a48b-4dab-8d12-65bafc91be05"},"vehicle_type_id":"4","last_reported":1689102351,"current_range_meters":24400,"station_id":"ce4bgnh2rcd13ifvqc0g","pricing_plan_id":"free"},{"bike_id":"5ab456e8-2700-4353-a542-22632c786a6e","system_id":"levelo_inurba_marseille","lat":43.29621,"lon":5.37154,"is_reserved":false,"is_disabled":false,"rental_uris":{"android":"levelo://app?vid=5ab456e8-2700-4353-a542-22632c786a6e","ios":"levelo://app?vid=5ab456e8-2700-4353-a542-22632c786a6e"},"vehicle_type_id":"4","last_reported":1689102351,"current_range_meters":6000,"station_id":"ce4bgnh2rcd13ifvqc0g","pricing_plan_id":"free"},{"bike_id":"918b8881-8ce6-4c2a-9774-bebc733caf4d","system_id":"levelo_inurba_marseille","lat":43.29622,"lon":5.37162,"is_reserved":false,"is_disabled":false,"rental_uris":{"android":"levelo://app?vid=918b8881-8ce6-4c2a-9774-bebc733caf4d","ios":"levelo://app?vid=918b8881-8ce6-4c2a-9774-bebc733caf4d"},"vehicle_type_id":"4","last_reported":1689102351,"current_range_meters":800,"station_id":"ce4bgnh2rcd13ifvqc0g","pricing_plan_id":"free"},{"bike_id":"e0e482bb-9a83-4ca6-8280-aed0e051ec9b","system_id":"levelo_inurba_marseille","lat":43.29621,"lon":5.37157,"is_reserved":false,"is_disabled":false,"rental_uris":{"android":"levelo://app?vid=e0e482bb-9a83-4ca6-8280-aed0e051ec9b","ios":"levelo://app?vid=e0e482bb-9a83-4ca6-8280-aed0e051ec9b"},"vehicle_type_id":"4","last_reported":1689102351,"current_range_meters":29600,"station_id":"ce4bgnh2rcd13ifvqc0g","pricing_plan_id":"free"},{"bike_id":"7065ec92-6110-4733-80c2-bad078394238","system_id":"levelo_inurba_marseille","lat":43.29621,"lon":5.37157,"is_reserved":false,"is_disabled":false,"rental_uris":{"android":"levelo://app?vid=7065ec92-6110-4733-80c2-bad078394238","ios":"levelo://app?vid=7065ec92-6110-4733-80c2-bad078394238"},"vehicle_type_id":"4","last_reported":1689102351,"current_range_meters":31200,"station_id":"ce4bgnh2rcd13ifvqc0g","pricing_plan_id":"free"},{"bike_id":"b51d4572-0b99-4c6f-8a2e-ba5cef78d4e2","system_id":"levelo_inurba_marseille","lat":43.29573,"lon":5.367355,"is_reserved":false,"is_disabled":false,"rental_uris":{"android":"levelo://app?vid=b51d4572-0b99-4c6f-8a2e-ba5cef78d4e2","ios":"levelo://app?vid=b51d4572-0b99-4c6f-8a2e-ba5cef78d4e2"},"vehicle_type_id":"4","last_reported":1689102351,"current_range_meters":20400,"station_id":"ce4bgph2rcd13ifvqc2g","pricing_plan_id":"free"},{"bike_id":"c3fb1054-f0dc-4f30-8f27-63f00e4dd5d9","system_id":"levelo_inurba_marseille","lat":43.29587,"lon":5.36737,"is_reserved":false,"is_disabled":false,"rental_uris":{"android":"levelo://app?vid=c3fb1054-f0dc-4f30-8f27-63f00e4dd5d9","ios":"levelo://app?vid=c3fb1054-f0dc-4f30-8f27-63f00e4dd5d9"},"vehicle_type_id":"4","last_reported":1689102351,"current_range_meters":29200,"station_id":"ce4bgph2rcd13ifvqc2g","pricing_plan_id":"free"},{"bike_id":"f5fe2613-2582-4a90-9b86-69a669f639f9","system_id":"levelo_inurba_marseille","lat":43.29573,"lon":5.367355,"is_reserved":false,"is_disabled":false,"rental_uris":{"android":"levelo://app?vid=f5fe2613-2582-4a90-9b86-69a669f639f9","ios":"levelo://app?vid=f5fe2613-2582-4a90-9b86-69a669f639f9"},"vehicle_type_id":"4","last_reported":1689102351,"current_range_meters":17600,"station_id":"ce4bgph2rcd13ifvqc2g","pricing_plan_id":"free"},{"bike_id":"0c038c15-8804-4a00-88f7-12aaff169756","system_id":"levelo_inurba_marseille","lat":43.29622,"lon":5.37166,"is_reserved":false,"is_disabled":false,"rental_uris":{"android":"levelo://app?vid=0c038c15-8804-4a00-88f7-12aaff169756","ios":"levelo://app?vid=0c038c15-8804-4a00-88f7-12aaff169756"},"vehicle_type_id":"4","last_reported":1689102351,"current_range_meters":20800,"station_id":"ce4bgnh2rcd13ifvqc0g","pricing_plan_id":"free"},{"bike_id":"b2c97c2a-d9ad-4943-be29-bd44f0909516","system_id":"levelo_inurba_marseille","lat":43.2962,"lon":5.37154,"is_reserved":false,"is_disabled":false,"rental_uris":{"android":"levelo://app?vid=b2c97c2a-d9ad-4943-be29-bd44f0909516","ios":"levelo://app?vid=b2c97c2a-d9ad-4943-be29-bd44f0909516"},"vehicle_type_id":"4","last_reported":1689102351,"current_range_meters":23200,"station_id":"ce4bgnh2rcd13ifvqc0g","pricing_plan_id":"free"},{"bike_id":"da69689e-729a-4026-80b3-3f0a5bc94228","system_id":"levelo_inurba_marseille","lat":43.29621,"lon":5.37162,"is_reserved":false,"is_disabled":false,"rental_uris":{"android":"levelo://app?vid=da69689e-729a-4026-80b3-3f0a5bc94228","ios":"levelo://app?vid=da69689e-729a-4026-80b3-3f0a5bc94228"},"vehicle_type_id":"4","last_reported":1689102351,"current_range_meters":22400,"station_id":"ce4bgnh2rcd13ifvqc0g","pricing_plan_id":"free"},{"bike_id":"0eac30cf-16d3-42df-b986-e795f24c3413","system_id":"levelo_inurba_marseille","lat":43.29586,"lon":5.36743,"is_reserved":false,"is_disabled":false,"rental_uris":{"android":"levelo://app?vid=0eac30cf-16d3-42df-b986-e795f24c3413","ios":"levelo://app?vid=0eac30cf-16d3-42df-b986-e795f24c3413"},"vehicle_type_id":"4","last_reported":1689102351,"current_range_meters":23600,"station_id":"ce4bgph2rcd13ifvqc2g","pricing_plan_id":"free"},{"bike_id":"ed2fac1a-337f-4f74-93a8-aa9b4e958d2a","system_id":"levelo_inurba_marseille","lat":43.29586,"lon":5.36746,"is_reserved":false,"is_disabled":false,"rental_uris":{"android":"levelo://app?vid=ed2fac1a-337f-4f74-93a8-aa9b4e958d2a","ios":"levelo://app?vid=ed2fac1a-337f-4f74-93a8-aa9b4e958d2a"},"vehicle_type_id":"4","last_reported":1689102351,"current_range_meters":25600,"station_id":"ce4bgph2rcd13ifvqc2g","pricing_plan_id":"free"},{"bike_id":"2221f8ba-9966-44ac-9367-ec38ad7f0e48","system_id":"levelo_inurba_marseille","lat":43.29619,"lon":5.37153,"is_reserved":false,"is_disabled":false,"rental_uris":{"android":"levelo://app?vid=2221f8ba-9966-44ac-9367-ec38ad7f0e48","ios":"levelo://app?vid=2221f8ba-9966-44ac-9367-ec38ad7f0e48"},"vehicle_type_id":"4","last_reported":1689102351,"current_range_meters":23600,"station_id":"ce4bgnh2rcd13ifvqc0g","pricing_plan_id":"free"},{"bike_id":"f231524d-2400-4fca-8027-534ba3e8db44","system_id":"levelo_inurba_marseille","lat":43.29619,"lon":5.37155,"is_reserved":false,"is_disabled":false,"rental_uris":{"android":"levelo://app?vid=f231524d-2400-4fca-8027-534ba3e8db44","ios":"levelo://app?vid=f231524d-2400-4fca-8027-534ba3e8db44"},"vehicle_type_id":"4","last_reported":1689102351,"current_range_meters":7200,"station_id":"ce4bgnh2rcd13ifvqc0g","pricing_plan_id":"free"},{"bike_id":"50ae40b8-e431-4ac2-a47f-6959c96c7181","system_id":"levelo_inurba_marseille","lat":43.29619,"lon":5.37157,"is_reserved":false,"is_disabled":false,"rental_uris":{"android":"levelo://app?vid=50ae40b8-e431-4ac2-a47f-6959c96c7181","ios":"levelo://app?vid=50ae40b8-e431-4ac2-a47f-6959c96c7181"},"vehicle_type_id":"4","last_reported":1689102351,"current_range_meters":9600,"station_id":"ce4bgnh2rcd13ifvqc0g","pricing_plan_id":"free"},{"bike_id":"06b050c1-f19b-4f51-89ee-190fb7b6f1ab","system_id":"levelo_inurba_marseille","lat":43.29573,"lon":5.367355,"is_reserved":false,"is_disabled":false,"rental_uris":{"android":"levelo://app?vid=06b050c1-f19b-4f51-89ee-190fb7b6f1ab","ios":"levelo://app?vid=06b050c1-f19b-4f51-89ee-190fb7b6f1ab"},"vehicle_type_id":"4","last_reported":1689102351,"current_range_meters":31200,"station_id":"ce4bgph2rcd13ifvqc2g","pricing_plan_id":"free"},{"bike_id":"8c13531d-2588-46a9-8c24-e61d835bed8e","system_id":"levelo_inurba_marseille","lat":43.29621,"lon":5.37174,"is_reserved":false,"is_disabled":false,"rental_uris":{"android":"levelo://app?vid=8c13531d-2588-46a9-8c24-e61d835bed8e","ios":"levelo://app?vid=8c13531d-2588-46a9-8c24-e61d835bed8e"},"vehicle_type_id":"4","last_reported":1689102351,"current_range_meters":22400,"station_id":"ce4bgnh2rcd13ifvqc0g","pricing_plan_id":"free"},{"bike_id":"b0cb3b9b-5fb6-47e4-8c8f-c976075f1daa","system_id":"levelo_inurba_marseille","lat":43.29618,"lon":5.37164,"is_reserved":false,"is_disabled":false,"rental_uris":{"android":"levelo://app?vid=b0cb3b9b-5fb6-47e4-8c8f-c976075f1daa","ios":"levelo://app?vid=b0cb3b9b-5fb6-47e4-8c8f-c976075f1daa"},"vehicle_type_id":"4","last_reported":1689102351,"current_range_meters":8000,"station_id":"ce4bgnh2rcd13ifvqc0g","pricing_plan_id":"free"},{"bike_id":"c432d4b5-6585-4c11-9ab9-9b5d71540516","system_id":"levelo_inurba_marseille","lat":43.29573,"lon":5.367355,"is_reserved":false,"is_disabled":false,"rental_uris":{"android":"levelo://app?vid=c432d4b5-6585-4c11-9ab9-9b5d71540516","ios":"levelo://app?vid=c432d4b5-6585-4c11-9ab9-9b5d71540516"},"vehicle_type_id":"4","last_reported":1689102351,"current_range_meters":30400,"station_id":"ce4bgph2rcd13ifvqc2g","pricing_plan_id":"free"},{"bike_id":"75638656-7879-443f-affa-9b9cfb37f0fe","system_id":"levelo_inurba_marseille","lat":43.295825,"lon":5.367442,"is_reserved":false,"is_disabled":false,"rental_uris":{"android":"levelo://app?vid=75638656-7879-443f-affa-9b9cfb37f0fe","ios":"levelo://app?vid=75638656-7879-443f-affa-9b9cfb37f0fe"},"vehicle_type_id":"4","last_reported":1689102351,"current_range_meters":24400,"station_id":"ce4bgph2rcd13ifvqc2g","pricing_plan_id":"free"},{"bike_id":"4b90bd69-67ad-4e93-82e5-4f6226bbc9af","system_id":"levelo_inurba_marseille","lat":43.295823,"lon":5.36744,"is_reserved":false,"is_disabled":false,"rental_uris":{"android":"levelo://app?vid=4b90bd69-67ad-4e93-82e5-4f6226bbc9af","ios":"levelo://app?vid=4b90bd69-67ad-4e93-82e5-4f6226bbc9af"},"vehicle_type_id":"4","last_reported":1689102351,"current_range_meters":26000,"station_id":"ce4bgph2rcd13ifvqc2g","pricing_plan_id":"free"},{"bike_id":"e3a8a43d-cb13-49f6-b16f-aaa3841605ed","system_id":"levelo_inurba_marseille","lat":43.295822,"lon":5.367442,"is_reserved":false,"is_disabled":false,"rental_uris":{"android":"levelo://app?vid=e3a8a43d-cb13-49f6-b16f-aaa3841605ed","ios":"levelo://app?vid=e3a8a43d-cb13-49f6-b16f-aaa3841605ed"},"vehicle_type_id":"4","last_reported":1689102351,"current_range_meters":7200,"station_id":"","pricing_plan_id":"free"},{"bike_id":"4fb240b2-7871-4791-8cfb-062ec580be6b","system_id":"levelo_inurba_marseille","lat":43.295822,"lon":5.367446,"is_reserved":false,"is_disabled":false,"rental_uris":{"android":"levelo://app?vid=4fb240b2-7871-4791-8cfb-062ec580be6b","ios":"levelo://app?vid=4fb240b2-7871-4791-8cfb-062ec580be6b"},"vehicle_type_id":"4","last_reported":1689102351,"current_range_meters":7200,"station_id":"ce4bgph2rcd13ifvqc2g","pricing_plan_id":"free"},{"bike_id":"4d069a9d-add7-412e-ab05-ed268995fee9","system_id":"levelo_inurba_marseille","lat":43.29573,"lon":5.367355,"is_reserved":false,"is_disabled":false,"rental_uris":{"android":"levelo://app?vid=4d069a9d-add7-412e-ab05-ed268995fee9","ios":"levelo://app?vid=4d069a9d-add7-412e-ab05-ed268995fee9"},"vehicle_type_id":"4","last_reported":1689102351,"current_range_meters":12400,"station_id":"ce4bgph2rcd13ifvqc2g","pricing_plan_id":"free"},{"bike_id":"66530ef5-eccb-4efa-94d1-24b8d8ee43de","system_id":"levelo_inurba_marseille","lat":43.29573,"lon":5.367355,"is_reserved":false,"is_disabled":false,"rental_uris":{"android":"levelo://app?vid=66530ef5-eccb-4efa-94d1-24b8d8ee43de","ios":"levelo://app?vid=66530ef5-eccb-4efa-94d1-24b8d8ee43de"},"vehicle_type_id":"4","last_reported":1689102351,"current_range_meters":4400,"station_id":"ce4bgph2rcd13ifvqc2g","pricing_plan_id":"free"},{"bike_id":"e53b0f13-a54a-46cc-a9c7-9b7c10dbb0a6","system_id":"levelo_inurba_marseille","lat":43.29582,"lon":5.36745,"is_reserved":false,"is_disabled":false,"rental_uris":{"android":"levelo://app?vid=e53b0f13-a54a-46cc-a9c7-9b7c10dbb0a6","ios":"levelo://app?vid=e53b0f13-a54a-46cc-a9c7-9b7c10dbb0a6"},"vehicle_type_id":"4","last_reported":1689102351,"current_range_meters":12800,"station_id":"ce4bgph2rcd13ifvqc2g","pricing_plan_id":"free"},{"bike_id":"478408bf-2483-4233-9ba2-d6fb524285f2","system_id":"levelo_inurba_marseille","lat":43.29573,"lon":5.367355,"is_reserved":false,"is_disabled":false,"rental_uris":{"android":"levelo://app?vid=478408bf-2483-4233-9ba2-d6fb524285f2","ios":"levelo://app?vid=478408bf-2483-4233-9ba2-d6fb524285f2"},"vehicle_type_id":"4","last_reported":1689102351,"current_range_meters":30800,"station_id":"ce4bgph2rcd13ifvqc2g","pricing_plan_id":"free"},{"bike_id":"3ff50c47-93cd-435d-88ef-fc29d06cb836","system_id":"levelo_inurba_marseille","lat":43.295813,"lon":5.367432,"is_reserved":false,"is_disabled":false,"rental_uris":{"android":"levelo://app?vid=3ff50c47-93cd-435d-88ef-fc29d06cb836","ios":"levelo://app?vid=3ff50c47-93cd-435d-88ef-fc29d06cb836"},"vehicle_type_id":"4","last_reported":1689102351,"current_range_meters":13600,"station_id":"ce4bgph2rcd13ifvqc2g","pricing_plan_id":"free"},{"bike_id":"6444affe-da48-46ce-9e14-d910d47ccf74","system_id":"levelo_inurba_marseille","lat":43.29573,"lon":5.367355,"is_reserved":false,"is_disabled":false,"rental_uris":{"android":"levelo://app?vid=6444affe-da48-46ce-9e14-d910d47ccf74","ios":"levelo://app?vid=6444affe-da48-46ce-9e14-d910d47ccf74"},"vehicle_type_id":"4","last_reported":1689102351,"current_range_meters":8800,"station_id":"ce4bgph2rcd13ifvqc2g","pricing_plan_id":"free"},{"bike_id":"100a4d0b-94f0-4d96-a01c-c9cb165d40c1","system_id":"levelo_inurba_marseille","lat":43.29573,"lon":5.367355,"is_reserved":false,"is_disabled":false,"rental_uris":{"android":"levelo://app?vid=100a4d0b-94f0-4d96-a01c-c9cb165d40c1","ios":"levelo://app?vid=100a4d0b-94f0-4d96-a01c-c9cb165d40c1"},"vehicle_type_id":"4","last_reported":1689102351,"current_range_meters":6000,"station_id":"ce4bgph2rcd13ifvqc2g","pricing_plan_id":"free"},{"bike_id":"cbd0f99c-7556-496a-a8a1-7e3cfa419cf9","system_id":"levelo_inurba_marseille","lat":43.29573,"lon":5.367355,"is_reserved":false,"is_disabled":false,"rental_uris":{"android":"levelo://app?vid=cbd0f99c-7556-496a-a8a1-7e3cfa419cf9","ios":"levelo://app?vid=cbd0f99c-7556-496a-a8a1-7e3cfa419cf9"},"vehicle_type_id":"4","last_reported":1689102351,"current_range_meters":26800,"station_id":"ce4bgph2rcd13ifvqc2g","pricing_plan_id":"free"},{"bike_id":"7c1f223b-a9bf-4d2f-889d-60badc516ac7","system_id":"levelo_inurba_marseille","lat":43.295809,"lon":5.367432,"is_reserved":false,"is_disabled":false,"rental_uris":{"android":"levelo://app?vid=7c1f223b-a9bf-4d2f-889d-60badc516ac7","ios":"levelo://app?vid=7c1f223b-a9bf-4d2f-889d-60badc516ac7"},"vehicle_type_id":"4","last_reported":1689102351,"current_range_meters":29200,"station_id":"ce4bgph2rcd13ifvqc2g","pricing_plan_id":"free"},{"bike_id":"24dc73fe-01c5-4539-ae6a-a93dd222eee6","system_id":"levelo_inurba_marseille","lat":43.29581,"lon":5.36748,"is_reserved":false,"is_disabled":false,"rental_uris":{"android":"levelo://app?vid=24dc73fe-01c5-4539-ae6a-a93dd222eee6","ios":"levelo://app?vid=24dc73fe-01c5-4539-ae6a-a93dd222eee6"},"vehicle_type_id":"4","last_reported":1689102351,"current_range_meters":14400,"station_id":"ce4bgph2rcd13ifvqc2g","pricing_plan_id":"free"},{"bike_id":"8ede39fa-56c4-4058-92e2-a61f06a9122b","system_id":"levelo_inurba_marseille","lat":43.29581,"lon":5.36752,"is_reserved":false,"is_disabled":false,"rental_uris":{"android":"levelo://app?vid=8ede39fa-56c4-4058-92e2-a61f06a9122b","ios":"levelo://app?vid=8ede39fa-56c4-4058-92e2-a61f06a9122b"},"vehicle_type_id":"4","last_reported":1689102351,"current_range_meters":17600,"station_id":"ce4bgph2rcd13ifvqc2g","pricing_plan_id":"free"},{"bike_id":"a6816788-b487-4f37-a45e-a8d5253c3dcc","system_id":"levelo_inurba_marseille","lat":43.29573,"lon":5.367355,"is_reserved":false,"is_disabled":false,"rental_uris":{"android":"levelo://app?vid=a6816788-b487-4f37-a45e-a8d5253c3dcc","ios":"levelo://app?vid=a6816788-b487-4f37-a45e-a8d5253c3dcc"},"vehicle_type_id":"4","last_reported":1689102351,"current_range_meters":13600,"station_id":"ce4bgph2rcd13ifvqc2g","pricing_plan_id":"free"},{"bike_id":"6da12b32-8763-477f-8f71-a7953dec56d6","system_id":"levelo_inurba_marseille","lat":43.29573,"lon":5.367355,"is_reserved":false,"is_disabled":false,"rental_uris":{"android":"levelo://app?vid=6da12b32-8763-477f-8f71-a7953dec56d6","ios":"levelo://app?vid=6da12b32-8763-477f-8f71-a7953dec56d6"},"vehicle_type_id":"4","last_reported":1689102351,"current_range_meters":22000,"station_id":"ce4bgph2rcd13ifvqc2g","pricing_plan_id":"free"},{"bike_id":"9febabb4-de2c-4630-9611-dcefee142a43","system_id":"levelo_inurba_marseille","lat":43.29573,"lon":5.367355,"is_reserved":false,"is_disabled":false,"rental_uris":{"android":"levelo://app?vid=9febabb4-de2c-4630-9611-dcefee142a43","ios":"levelo://app?vid=9febabb4-de2c-4630-9611-dcefee142a43"},"vehicle_type_id":"4","last_reported":1689102351,"current_range_meters":12800,"station_id":"ce4bgph2rcd13ifvqc2g","pricing_plan_id":"free"},{"bike_id":"edb05402-0369-48fb-9e75-576501dbcd90","system_id":"levelo_inurba_marseille","lat":43.29573,"lon":5.367355,"is_reserved":false,"is_disabled":false,"rental_uris":{"android":"levelo://app?vid=edb05402-0369-48fb-9e75-576501dbcd90","ios":"levelo://app?vid=edb05402-0369-48fb-9e75-576501dbcd90"},"vehicle_type_id":"4","last_reported":1689102351,"current_range_meters":23200,"station_id":"ce4bgph2rcd13ifvqc2g","pricing_plan_id":"free"},{"bike_id":"aafb5165-fe71-419c-9fd9-c94d84f8bc36","system_id":"levelo_inurba_marseille","lat":43.29621,"lon":5.37306,"is_reserved":false,"is_disabled":false,"rental_uris":{"android":"levelo://app?vid=aafb5165-fe71-419c-9fd9-c94d84f8bc36","ios":"levelo://app?vid=aafb5165-fe71-419c-9fd9-c94d84f8bc36"},"vehicle_type_id":"4","last_reported":1689102351,"current_range_meters":28000,"station_id":"ce4bgnh2rcd13ifvqc0g","pricing_plan_id":"free"},{"bike_id":"8c61f9ce-bf65-4deb-b624-0867bc7a7907","system_id":"levelo_inurba_marseille","lat":43.317557,"lon":5.390173,"is_reserved":false,"is_disabled":false,"rental_uris":{"android":"levelo://app?vid=8c61f9ce-bf65-4deb-b624-0867bc7a7907","ios":"levelo://app?vid=8c61f9ce-bf65-4deb-b624-0867bc7a7907"},"vehicle_type_id":"4","last_reported":1689102351,"current_range_meters":30000,"station_id":"ce4bhqp2rcd13ifvqhng","pricing_plan_id":"free"},{"bike_id":"0b94d718-c38b-4f0f-82d3-55a93b41ddee","system_id":"levelo_inurba_marseille","lat":43.31755,"lon":5.3902,"is_reserved":false,"is_disabled":false,"rental_uris":{"android":"levelo://app?vid=0b94d718-c38b-4f0f-82d3-55a93b41ddee","ios":"levelo://app?vid=0b94d718-c38b-4f0f-82d3-55a93b41ddee"},"vehicle_type_id":"4","last_reported":1689102351,"current_range_meters":24400,"station_id":"ce4bhqp2rcd13ifvqhng","pricing_plan_id":"free"},{"bike_id":"d5723717-8f36-4514-bcde-f753dfeebd28","system_id":"levelo_inurba_marseille","lat":43.31763,"lon":5.39017,"is_reserved":false,"is_disabled":false,"rental_uris":{"android":"levelo://app?vid=d5723717-8f36-4514-bcde-f753dfeebd28","ios":"levelo://app?vid=d5723717-8f36-4514-bcde-f753dfeebd28"},"vehicle_type_id":"4","last_reported":1689102351,"current_range_meters":28000,"station_id":"ce4bhqp2rcd13ifvqhng","pricing_plan_id":"free"},{"bike_id":"eb698611-807b-4517-b542-dfac4519c2e4","system_id":"levelo_inurba_marseille","lat":43.317557,"lon":5.390173,"is_reserved":false,"is_disabled":false,"rental_uris":{"android":"levelo://app?vid=eb698611-807b-4517-b542-dfac4519c2e4","ios":"levelo://app?vid=eb698611-807b-4517-b542-dfac4519c2e4"},"vehicle_type_id":"4","last_reported":1689102351,"current_range_meters":30000,"station_id":"ce4bhqp2rcd13ifvqhng","pricing_plan_id":"free"},{"bike_id":"d4f7cd59-0c2e-4cd9-acc0-d2db61240575","system_id":"levelo_inurba_marseille","lat":43.31874,"lon":5.38984,"is_reserved":false,"is_disabled":false,"rental_uris":{"android":"levelo://app?vid=d4f7cd59-0c2e-4cd9-acc0-d2db61240575","ios":"levelo://app?vid=d4f7cd59-0c2e-4cd9-acc0-d2db61240575"},"vehicle_type_id":"4","last_reported":1689102351,"current_range_meters":23600,"station_id":"","pricing_plan_id":"free"},{"bike_id":"35749122-89ff-4637-9f06-8026c4c27502","system_id":"levelo_inurba_marseille","lat":43.29591,"lon":5.37511,"is_reserved":false,"is_disabled":false,"rental_uris":{"android":"levelo://app?vid=35749122-89ff-4637-9f06-8026c4c27502","ios":"levelo://app?vid=35749122-89ff-4637-9f06-8026c4c27502"},"vehicle_type_id":"4","last_reported":1689102351,"current_range_meters":27200,"station_id":"ce4bgh92rcd13ifvqb50","pricing_plan_id":"free"},{"bike_id":"c5716ce8-88ab-4b90-bd14-e95e4749b3e8","system_id":"levelo_inurba_marseille","lat":43.298037,"lon":5.381066,"is_reserved":false,"is_disabled":false,"rental_uris":{"android":"levelo://app?vid=c5716ce8-88ab-4b90-bd14-e95e4749b3e8","ios":"levelo://app?vid=c5716ce8-88ab-4b90-bd14-e95e4749b3e8"},"vehicle_type_id":"4","last_reported":1689102351,"current_range_meters":8800,"station_id":"ce4bgip2rcd13ifvqbb0","pricing_plan_id":"free"},{"bike_id":"ec1d9844-7a37-4d35-8b5d-b0972791ae39","system_id":"levelo_inurba_marseille","lat":43.295748,"lon":5.37522,"is_reserved":false,"is_disabled":false,"rental_uris":{"android":"levelo://app?vid=ec1d9844-7a37-4d35-8b5d-b0972791ae39","ios":"levelo://app?vid=ec1d9844-7a37-4d35-8b5d-b0972791ae39"},"vehicle_type_id":"4","last_reported":1689102351,"current_range_meters":10000,"station_id":"ce4bgh92rcd13ifvqb50","pricing_plan_id":"free"},{"bike_id":"8997151d-1d53-4c45-a603-149de549a5a5","system_id":"levelo_inurba_marseille","lat":43.295853,"lon":5.374997,"is_reserved":false,"is_disabled":false,"rental_uris":{"android":"levelo://app?vid=8997151d-1d53-4c45-a603-149de549a5a5","ios":"levelo://app?vid=8997151d-1d53-4c45-a603-149de549a5a5"},"vehicle_type_id":"4","last_reported":1689102351,"current_range_meters":28400,"station_id":"ce4bgh92rcd13ifvqb50","pricing_plan_id":"free"},{"bike_id":"8612e090-a16c-4352-a896-7f8fdcc31f8b","system_id":"levelo_inurba_marseille","lat":43.298037,"lon":5.381066,"is_reserved":false,"is_disabled":false,"rental_uris":{"android":"levelo://app?vid=8612e090-a16c-4352-a896-7f8fdcc31f8b","ios":"levelo://app?vid=8612e090-a16c-4352-a896-7f8fdcc31f8b"},"vehicle_type_id":"4","last_reported":1689102351,"current_range_meters":30800,"station_id":"ce4bgip2rcd13ifvqbb0","pricing_plan_id":"free"},{"bike_id":"c607a672-7661-4fd5-bf8d-f3a982ea2269","system_id":"levelo_inurba_marseille","lat":43.295854,"lon":5.375107,"is_reserved":false,"is_disabled":false,"rental_uris":{"android":"levelo://app?vid=c607a672-7661-4fd5-bf8d-f3a982ea2269","ios":"levelo://app?vid=c607a672-7661-4fd5-bf8d-f3a982ea2269"},"vehicle_type_id":"4","last_reported":1689102351,"current_range_meters":23200,"station_id":"ce4bgh92rcd13ifvqb50","pricing_plan_id":"free"},{"bike_id":"3a437345-e32b-4513-9cee-f8523b12d2d4","system_id":"levelo_inurba_marseille","lat":43.29578,"lon":5.37509,"is_reserved":false,"is_disabled":false,"rental_uris":{"android":"levelo://app?vid=3a437345-e32b-4513-9cee-f8523b12d2d4","ios":"levelo://app?vid=3a437345-e32b-4513-9cee-f8523b12d2d4"},"vehicle_type_id":"4","last_reported":1689102351,"current_range_meters":11600,"station_id":"ce4bgh92rcd13ifvqb50","pricing_plan_id":"free"},{"bike_id":"0e6b225a-51c0-4161-92d8-e6bf899abf42","system_id":"levelo_inurba_marseille","lat":43.29581,"lon":5.37525,"is_reserved":false,"is_disabled":false,"rental_uris":{"android":"levelo://app?vid=0e6b225a-51c0-4161-92d8-e6bf899abf42","ios":"levelo://app?vid=0e6b225a-51c0-4161-92d8-e6bf899abf42"},"vehicle_type_id":"4","last_reported":1689102351,"current_range_meters":0,"station_id":"ce4bgh92rcd13ifvqb50","pricing_plan_id":"free"},{"bike_id":"983f1070-0da8-4ec9-89e1-ee48bd261ab3","system_id":"levelo_inurba_marseille","lat":43.298037,"lon":5.381066,"is_reserved":false,"is_disabled":false,"rental_uris":{"android":"levelo://app?vid=983f1070-0da8-4ec9-89e1-ee48bd261ab3","ios":"levelo://app?vid=983f1070-0da8-4ec9-89e1-ee48bd261ab3"},"vehicle_type_id":"4","last_reported":1689102351,"current_range_meters":13200,"station_id":"ce4bgip2rcd13ifvqbb0","pricing_plan_id":"free"},{"bike_id":"6c577582-8f48-4ca1-aec0-dbf2861cf49b","system_id":"levelo_inurba_marseille","lat":43.295787,"lon":5.375196,"is_reserved":false,"is_disabled":false,"rental_uris":{"android":"levelo://app?vid=6c577582-8f48-4ca1-aec0-dbf2861cf49b","ios":"levelo://app?vid=6c577582-8f48-4ca1-aec0-dbf2861cf49b"},"vehicle_type_id":"4","last_reported":1689102351,"current_range_meters":1200,"station_id":"","pricing_plan_id":"free"},{"bike_id":"f617e6f1-af80-4190-a28d-264c7426bd8e","system_id":"levelo_inurba_marseille","lat":43.29575,"lon":5.37507,"is_reserved":false,"is_disabled":false,"rental_uris":{"android":"levelo://app?vid=f617e6f1-af80-4190-a28d-264c7426bd8e","ios":"levelo://app?vid=f617e6f1-af80-4190-a28d-264c7426bd8e"},"vehicle_type_id":"4","last_reported":1689102351,"current_range_meters":15600,"station_id":"ce4bgh92rcd13ifvqb50","pricing_plan_id":"free"},{"bike_id":"c30a5099-f455-4c0c-92e7-1cbd97d71391","system_id":"levelo_inurba_marseille","lat":43.295748,"lon":5.37522,"is_reserved":false,"is_disabled":false,"rental_uris":{"android":"levelo://app?vid=c30a5099-f455-4c0c-92e7-1cbd97d71391","ios":"levelo://app?vid=c30a5099-f455-4c0c-92e7-1cbd97d71391"},"vehicle_type_id":"4","last_reported":1689102351,"current_range_meters":3600,"station_id":"ce4bgh92rcd13ifvqb50","pricing_plan_id":"free"},{"bike_id":"872e3c61-2ed5-46be-a5fa-8e6647a0d2b1","system_id":"levelo_inurba_marseille","lat":43.295748,"lon":5.37522,"is_reserved":false,"is_disabled":false,"rental_uris":{"android":"levelo://app?vid=872e3c61-2ed5-46be-a5fa-8e6647a0d2b1","ios":"levelo://app?vid=872e3c61-2ed5-46be-a5fa-8e6647a0d2b1"},"vehicle_type_id":"4","last_reported":1689102351,"current_range_meters":19600,"station_id":"ce4bgh92rcd13ifvqb50","pricing_plan_id":"free"},{"bike_id":"326782fa-ef64-445d-9eef-340a40c68045","system_id":"levelo_inurba_marseille","lat":43.29574,"lon":5.3751,"is_reserved":false,"is_disabled":false,"rental_uris":{"android":"levelo://app?vid=326782fa-ef64-445d-9eef-340a40c68045","ios":"levelo://app?vid=326782fa-ef64-445d-9eef-340a40c68045"},"vehicle_type_id":"4","last_reported":1689102351,"current_range_meters":20800,"station_id":"ce4bgh92rcd13ifvqb50","pricing_plan_id":"free"},{"bike_id":"2f66300e-0a6a-4b65-9cdd-cf693a5ee17b","system_id":"levelo_inurba_marseille","lat":43.295748,"lon":5.37522,"is_reserved":false,"is_disabled":false,"rental_uris":{"android":"levelo://app?vid=2f66300e-0a6a-4b65-9cdd-cf693a5ee17b","ios":"levelo://app?vid=2f66300e-0a6a-4b65-9cdd-cf693a5ee17b"},"vehicle_type_id":"4","last_reported":1689102351,"current_range_meters":5600,"station_id":"ce4bgh92rcd13ifvqb50","pricing_plan_id":"free"},{"bike_id":"c8425d0c-7114-4064-9029-e55c27da147d","system_id":"levelo_inurba_marseille","lat":43.29576,"lon":5.37519,"is_reserved":false,"is_disabled":false,"rental_uris":{"android":"levelo://app?vid=c8425d0c-7114-4064-9029-e55c27da147d","ios":"levelo://app?vid=c8425d0c-7114-4064-9029-e55c27da147d"},"vehicle_type_id":"4","last_reported":1689102351,"current_range_meters":800,"station_id":"ce4bgh92rcd13ifvqb50","pricing_plan_id":"free"},{"bike_id":"25927939-00bd-4057-9df4-71dd2f22ba7e","system_id":"levelo_inurba_marseille","lat":43.29574,"lon":5.37512,"is_reserved":false,"is_disabled":false,"rental_uris":{"android":"levelo://app?vid=25927939-00bd-4057-9df4-71dd2f22ba7e","ios":"levelo://app?vid=25927939-00bd-4057-9df4-71dd2f22ba7e"},"vehicle_type_id":"4","last_reported":1689102351,"current_range_meters":10800,"station_id":"ce4bgh92rcd13ifvqb50","pricing_plan_id":"free"},{"bike_id":"d06997f3-9bfc-408e-941b-727d7b8ca80a","system_id":"levelo_inurba_marseille","lat":43.295748,"lon":5.37522,"is_reserved":false,"is_disabled":false,"rental_uris":{"android":"levelo://app?vid=d06997f3-9bfc-408e-941b-727d7b8ca80a","ios":"levelo://app?vid=d06997f3-9bfc-408e-941b-727d7b8ca80a"},"vehicle_type_id":"4","last_reported":1689102351,"current_range_meters":19200,"station_id":"ce4bgh92rcd13ifvqb50","pricing_plan_id":"free"},{"bike_id":"87ac4ae8-27df-4db4-9de2-3033c0378ea9","system_id":"levelo_inurba_marseille","lat":43.304278,"lon":5.388868,"is_reserved":false,"is_disabled":false,"rental_uris":{"android":"levelo://app?vid=87ac4ae8-27df-4db4-9de2-3033c0378ea9","ios":"levelo://app?vid=87ac4ae8-27df-4db4-9de2-3033c0378ea9"},"vehicle_type_id":"4","last_reported":1689102351,"current_range_meters":6400,"station_id":"ce4bgk12rcd13ifvqbi0","pricing_plan_id":"free"},{"bike_id":"d5b8186f-af0d-4df9-a17f-28b78edbb50e","system_id":"levelo_inurba_marseille","lat":43.295748,"lon":5.37522,"is_reserved":false,"is_disabled":false,"rental_uris":{"android":"levelo://app?vid=d5b8186f-af0d-4df9-a17f-28b78edbb50e","ios":"levelo://app?vid=d5b8186f-af0d-4df9-a17f-28b78edbb50e"},"vehicle_type_id":"4","last_reported":1689102351,"current_range_meters":28000,"station_id":"ce4bgh92rcd13ifvqb50","pricing_plan_id":"free"},{"bike_id":"566487d9-4e8b-4d5e-831b-ba9d29cb4f06","system_id":"levelo_inurba_marseille","lat":43.29575,"lon":5.37523,"is_reserved":false,"is_disabled":false,"rental_uris":{"android":"levelo://app?vid=566487d9-4e8b-4d5e-831b-ba9d29cb4f06","ios":"levelo://app?vid=566487d9-4e8b-4d5e-831b-ba9d29cb4f06"},"vehicle_type_id":"4","last_reported":1689102351,"current_range_meters":17600,"station_id":"ce4bgh92rcd13ifvqb50","pricing_plan_id":"free"},{"bike_id":"cb59f6c4-3d75-42f2-a11a-9044f032dc96","system_id":"levelo_inurba_marseille","lat":43.2957,"lon":5.37504,"is_reserved":false,"is_disabled":false,"rental_uris":{"android":"levelo://app?vid=cb59f6c4-3d75-42f2-a11a-9044f032dc96","ios":"levelo://app?vid=cb59f6c4-3d75-42f2-a11a-9044f032dc96"},"vehicle_type_id":"4","last_reported":1689102351,"current_range_meters":2800,"station_id":"ce4bgh92rcd13ifvqb50","pricing_plan_id":"free"},{"bike_id":"fb47f922-a92c-411c-9f21-04a4220e4ef3","system_id":"levelo_inurba_marseille","lat":43.29574,"lon":5.3752,"is_reserved":false,"is_disabled":false,"rental_uris":{"android":"levelo://app?vid=fb47f922-a92c-411c-9f21-04a4220e4ef3","ios":"levelo://app?vid=fb47f922-a92c-411c-9f21-04a4220e4ef3"},"vehicle_type_id":"4","last_reported":1689102351,"current_range_meters":14000,"station_id":"ce4bgh92rcd13ifvqb50","pricing_plan_id":"free"},{"bike_id":"e64a59d8-4f3d-43e3-8d2c-d7e57d8d3a32","system_id":"levelo_inurba_marseille","lat":43.29793,"lon":5.38107,"is_reserved":false,"is_disabled":false,"rental_uris":{"android":"levelo://app?vid=e64a59d8-4f3d-43e3-8d2c-d7e57d8d3a32","ios":"levelo://app?vid=e64a59d8-4f3d-43e3-8d2c-d7e57d8d3a32"},"vehicle_type_id":"4","last_reported":1689102351,"current_range_meters":6400,"station_id":"ce4bgip2rcd13ifvqbb0","pricing_plan_id":"free"},{"bike_id":"502a9c9c-0c3f-4b09-bfa6-b942c93d45b2","system_id":"levelo_inurba_marseille","lat":43.295748,"lon":5.37522,"is_reserved":false,"is_disabled":false,"rental_uris":{"android":"levelo://app?vid=502a9c9c-0c3f-4b09-bfa6-b942c93d45b2","ios":"levelo://app?vid=502a9c9c-0c3f-4b09-bfa6-b942c93d45b2"},"vehicle_type_id":"4","last_reported":1689102351,"current_range_meters":8400,"station_id":"ce4bgh92rcd13ifvqb50","pricing_plan_id":"free"},{"bike_id":"5e432b83-d829-4a28-83f4-e5165619d44a","system_id":"levelo_inurba_marseille","lat":43.29573,"lon":5.37521,"is_reserved":false,"is_disabled":false,"rental_uris":{"android":"levelo://app?vid=5e432b83-d829-4a28-83f4-e5165619d44a","ios":"levelo://app?vid=5e432b83-d829-4a28-83f4-e5165619d44a"},"vehicle_type_id":"4","last_reported":1689102351,"current_range_meters":3600,"station_id":"ce4bgh92rcd13ifvqb50","pricing_plan_id":"free"},{"bike_id":"140d16a1-3e11-4649-8124-21d9e743c87f","system_id":"levelo_inurba_marseille","lat":43.295748,"lon":5.37522,"is_reserved":false,"is_disabled":false,"rental_uris":{"android":"levelo://app?vid=140d16a1-3e11-4649-8124-21d9e743c87f","ios":"levelo://app?vid=140d16a1-3e11-4649-8124-21d9e743c87f"},"vehicle_type_id":"4","last_reported":1689102351,"current_range_meters":22800,"station_id":"ce4bgh92rcd13ifvqb50","pricing_plan_id":"free"},{"bike_id":"9c4cc360-45d0-416a-9da3-d95f6bae58e8","system_id":"levelo_inurba_marseille","lat":43.295748,"lon":5.37522,"is_reserved":false,"is_disabled":false,"rental_uris":{"android":"levelo://app?vid=9c4cc360-45d0-416a-9da3-d95f6bae58e8","ios":"levelo://app?vid=9c4cc360-45d0-416a-9da3-d95f6bae58e8"},"vehicle_type_id":"4","last_reported":1689102351,"current_range_meters":20400,"station_id":"ce4bgh92rcd13ifvqb50","pricing_plan_id":"free"},{"bike_id":"6bb4066b-dfcc-4449-aee9-b32b06aa7d19","system_id":"levelo_inurba_marseille","lat":43.304278,"lon":5.388868,"is_reserved":false,"is_disabled":false,"rental_uris":{"android":"levelo://app?vid=6bb4066b-dfcc-4449-aee9-b32b06aa7d19","ios":"levelo://app?vid=6bb4066b-dfcc-4449-aee9-b32b06aa7d19"},"vehicle_type_id":"4","last_reported":1689102351,"current_range_meters":4400,"station_id":"ce4bgk12rcd13ifvqbi0","pricing_plan_id":"free"},{"bike_id":"44a8a6f1-cf09-4740-a531-1454c9e562da","system_id":"levelo_inurba_marseille","lat":43.29571,"lon":5.3752,"is_reserved":false,"is_disabled":false,"rental_uris":{"android":"levelo://app?vid=44a8a6f1-cf09-4740-a531-1454c9e562da","ios":"levelo://app?vid=44a8a6f1-cf09-4740-a531-1454c9e562da"},"vehicle_type_id":"4","last_reported":1689102351,"current_range_meters":22800,"station_id":"ce4bgh92rcd13ifvqb50","pricing_plan_id":"free"},{"bike_id":"16f46379-202f-4ac4-a1d5-b369c901a401","system_id":"levelo_inurba_marseille","lat":43.298037,"lon":5.381066,"is_reserved":false,"is_disabled":false,"rental_uris":{"android":"levelo://app?vid=16f46379-202f-4ac4-a1d5-b369c901a401","ios":"levelo://app?vid=16f46379-202f-4ac4-a1d5-b369c901a401"},"vehicle_type_id":"4","last_reported":1689102351,"current_range_meters":12400,"station_id":"ce4bgip2rcd13ifvqbb0","pricing_plan_id":"free"},{"bike_id":"ca6d3886-fd9e-4a91-97ff-8fc49b7daf8d","system_id":"levelo_inurba_marseille","lat":43.29571,"lon":5.37521,"is_reserved":false,"is_disabled":false,"rental_uris":{"android":"levelo://app?vid=ca6d3886-fd9e-4a91-97ff-8fc49b7daf8d","ios":"levelo://app?vid=ca6d3886-fd9e-4a91-97ff-8fc49b7daf8d"},"vehicle_type_id":"4","last_reported":1689102351,"current_range_meters":0,"station_id":"ce4bgh92rcd13ifvqb50","pricing_plan_id":"free"},{"bike_id":"466bd481-e332-48a3-97fe-18c498902fb2","system_id":"levelo_inurba_marseille","lat":43.295748,"lon":5.37522,"is_reserved":false,"is_disabled":false,"rental_uris":{"android":"levelo://app?vid=466bd481-e332-48a3-97fe-18c498902fb2","ios":"levelo://app?vid=466bd481-e332-48a3-97fe-18c498902fb2"},"vehicle_type_id":"4","last_reported":1689102351,"current_range_meters":11200,"station_id":"ce4bgh92rcd13ifvqb50","pricing_plan_id":"free"},{"bike_id":"d62b4710-bb91-4715-b497-7fd81cdf7ffb","system_id":"levelo_inurba_marseille","lat":43.295748,"lon":5.37522,"is_reserved":false,"is_disabled":false,"rental_uris":{"android":"levelo://app?vid=d62b4710-bb91-4715-b497-7fd81cdf7ffb","ios":"levelo://app?vid=d62b4710-bb91-4715-b497-7fd81cdf7ffb"},"vehicle_type_id":"4","last_reported":1689102351,"current_range_meters":20000,"station_id":"ce4bgh92rcd13ifvqb50","pricing_plan_id":"free"},{"bike_id":"3303166f-18ba-472e-8140-896d24b9d03f","system_id":"levelo_inurba_marseille","lat":43.29564,"lon":5.37514,"is_reserved":false,"is_disabled":false,"rental_uris":{"android":"levelo://app?vid=3303166f-18ba-472e-8140-896d24b9d03f","ios":"levelo://app?vid=3303166f-18ba-472e-8140-896d24b9d03f"},"vehicle_type_id":"4","last_reported":1689102351,"current_range_meters":28400,"station_id":"ce4bgh92rcd13ifvqb50","pricing_plan_id":"free"},{"bike_id":"f82dec41-e918-4bdf-af40-e998a3f93627","system_id":"levelo_inurba_marseille","lat":43.29787,"lon":5.38115,"is_reserved":false,"is_disabled":false,"rental_uris":{"android":"levelo://app?vid=f82dec41-e918-4bdf-af40-e998a3f93627","ios":"levelo://app?vid=f82dec41-e918-4bdf-af40-e998a3f93627"},"vehicle_type_id":"4","last_reported":1689102351,"current_range_meters":12800,"station_id":"ce4bgip2rcd13ifvqbb0","pricing_plan_id":"free"},{"bike_id":"e7b17de6-058b-4b7d-a0f7-ea138c25ac4b","system_id":"levelo_inurba_marseille","lat":43.29567,"lon":5.37529,"is_reserved":false,"is_disabled":false,"rental_uris":{"android":"levelo://app?vid=e7b17de6-058b-4b7d-a0f7-ea138c25ac4b","ios":"levelo://app?vid=e7b17de6-058b-4b7d-a0f7-ea138c25ac4b"},"vehicle_type_id":"4","last_reported":1689102351,"current_range_meters":31200,"station_id":"ce4bgh92rcd13ifvqb50","pricing_plan_id":"free"},{"bike_id":"cda30c9e-6047-49f2-a468-5c3cec2168e3","system_id":"levelo_inurba_marseille","lat":43.2962,"lon":5.37711,"is_reserved":false,"is_disabled":false,"rental_uris":{"android":"levelo://app?vid=cda30c9e-6047-49f2-a468-5c3cec2168e3","ios":"levelo://app?vid=cda30c9e-6047-49f2-a468-5c3cec2168e3"},"vehicle_type_id":"4","last_reported":1689102351,"current_range_meters":8000,"station_id":"ce4bgi92rcd13ifvqb90","pricing_plan_id":"free"},{"bike_id":"e4463e2c-5300-4c4c-973a-362563a1bc81","system_id":"levelo_inurba_marseille","lat":43.30426,"lon":5.38894,"is_reserved":false,"is_disabled":false,"rental_uris":{"android":"levelo://app?vid=e4463e2c-5300-4c4c-973a-362563a1bc81","ios":"levelo://app?vid=e4463e2c-5300-4c4c-973a-362563a1bc81"},"vehicle_type_id":"4","last_reported":1689102351,"current_range_meters":12000,"station_id":"ce4bgk12rcd13ifvqbi0","pricing_plan_id":"free"},{"bike_id":"64273741-244f-47c7-b14b-978977c67b73","system_id":"levelo_inurba_marseille","lat":43.304278,"lon":5.388868,"is_reserved":false,"is_disabled":false,"rental_uris":{"android":"levelo://app?vid=64273741-244f-47c7-b14b-978977c67b73","ios":"levelo://app?vid=64273741-244f-47c7-b14b-978977c67b73"},"vehicle_type_id":"4","last_reported":1689102351,"current_range_meters":18800,"station_id":"ce4bgk12rcd13ifvqbi0","pricing_plan_id":"free"},{"bike_id":"76c90632-779c-4055-85a7-686623a53727","system_id":"levelo_inurba_marseille","lat":43.295748,"lon":5.37522,"is_reserved":false,"is_disabled":false,"rental_uris":{"android":"levelo://app?vid=76c90632-779c-4055-85a7-686623a53727","ios":"levelo://app?vid=76c90632-779c-4055-85a7-686623a53727"},"vehicle_type_id":"4","last_reported":1689102351,"current_range_meters":400,"station_id":"ce4bgh92rcd13ifvqb50","pricing_plan_id":"free"},{"bike_id":"5ac646bb-8101-4dee-9238-45f12a31471b","system_id":"levelo_inurba_marseille","lat":43.296263,"lon":5.377094,"is_reserved":false,"is_disabled":false,"rental_uris":{"android":"levelo://app?vid=5ac646bb-8101-4dee-9238-45f12a31471b","ios":"levelo://app?vid=5ac646bb-8101-4dee-9238-45f12a31471b"},"vehicle_type_id":"4","last_reported":1689102351,"current_range_meters":18400,"station_id":"ce4bgi92rcd13ifvqb90","pricing_plan_id":"free"},{"bike_id":"6f4f26d0-210f-4b65-b563-1467bc61677b","system_id":"levelo_inurba_marseille","lat":43.296263,"lon":5.377094,"is_reserved":false,"is_disabled":false,"rental_uris":{"android":"levelo://app?vid=6f4f26d0-210f-4b65-b563-1467bc61677b","ios":"levelo://app?vid=6f4f26d0-210f-4b65-b563-1467bc61677b"},"vehicle_type_id":"4","last_reported":1689102351,"current_range_meters":23200,"station_id":"ce4bgi92rcd13ifvqb90","pricing_plan_id":"free"},{"bike_id":"22ecf1ab-b48d-40c6-8573-c3bf1ae04a32","system_id":"levelo_inurba_marseille","lat":43.295748,"lon":5.37522,"is_reserved":false,"is_disabled":false,"rental_uris":{"android":"levelo://app?vid=22ecf1ab-b48d-40c6-8573-c3bf1ae04a32","ios":"levelo://app?vid=22ecf1ab-b48d-40c6-8573-c3bf1ae04a32"},"vehicle_type_id":"4","last_reported":1689102351,"current_range_meters":5600,"station_id":"ce4bgh92rcd13ifvqb50","pricing_plan_id":"free"},{"bike_id":"00779fde-d4ec-4d12-a6cd-bb9afca57ed0","system_id":"levelo_inurba_marseille","lat":43.296263,"lon":5.377094,"is_reserved":false,"is_disabled":false,"rental_uris":{"android":"levelo://app?vid=00779fde-d4ec-4d12-a6cd-bb9afca57ed0","ios":"levelo://app?vid=00779fde-d4ec-4d12-a6cd-bb9afca57ed0"},"vehicle_type_id":"4","last_reported":1689102351,"current_range_meters":12000,"station_id":"ce4bgi92rcd13ifvqb90","pricing_plan_id":"free"},{"bike_id":"e36b3354-8fa5-4930-b321-34e95f4f527e","system_id":"levelo_inurba_marseille","lat":43.295279,"lon":5.375048,"is_reserved":false,"is_disabled":false,"rental_uris":{"android":"levelo://app?vid=e36b3354-8fa5-4930-b321-34e95f4f527e","ios":"levelo://app?vid=e36b3354-8fa5-4930-b321-34e95f4f527e"},"vehicle_type_id":"4","last_reported":1689102351,"current_range_meters":6000,"station_id":"ce4bgkp2rcd13ifvqbmg","pricing_plan_id":"free"},{"bike_id":"51dc2f00-9638-4c96-b8d1-1e9513e0300f","system_id":"levelo_inurba_marseille","lat":43.295279,"lon":5.375048,"is_reserved":false,"is_disabled":false,"rental_uris":{"android":"levelo://app?vid=51dc2f00-9638-4c96-b8d1-1e9513e0300f","ios":"levelo://app?vid=51dc2f00-9638-4c96-b8d1-1e9513e0300f"},"vehicle_type_id":"4","last_reported":1689102351,"current_range_meters":12000,"station_id":"ce4bgkp2rcd13ifvqbmg","pricing_plan_id":"free"},{"bike_id":"1b9b31a4-06ff-4509-ba00-33e57d5dcca6","system_id":"levelo_inurba_marseille","lat":43.296277,"lon":5.377108,"is_reserved":false,"is_disabled":false,"rental_uris":{"android":"levelo://app?vid=1b9b31a4-06ff-4509-ba00-33e57d5dcca6","ios":"levelo://app?vid=1b9b31a4-06ff-4509-ba00-33e57d5dcca6"},"vehicle_type_id":"4","last_reported":1689102351,"current_range_meters":11200,"station_id":"ce4bgi92rcd13ifvqb90","pricing_plan_id":"free"},{"bike_id":"205a5d5f-0db1-49db-8151-75c6e4fec953","system_id":"levelo_inurba_marseille","lat":43.295279,"lon":5.375048,"is_reserved":false,"is_disabled":false,"rental_uris":{"android":"levelo://app?vid=205a5d5f-0db1-49db-8151-75c6e4fec953","ios":"levelo://app?vid=205a5d5f-0db1-49db-8151-75c6e4fec953"},"vehicle_type_id":"4","last_reported":1689102351,"current_range_meters":26000,"station_id":"ce4bgkp2rcd13ifvqbmg","pricing_plan_id":"free"},{"bike_id":"b0ae19dd-43db-46a6-b90f-1f0683a98942","system_id":"levelo_inurba_marseille","lat":43.295279,"lon":5.375048,"is_reserved":false,"is_disabled":false,"rental_uris":{"android":"levelo://app?vid=b0ae19dd-43db-46a6-b90f-1f0683a98942","ios":"levelo://app?vid=b0ae19dd-43db-46a6-b90f-1f0683a98942"},"vehicle_type_id":"4","last_reported":1689102351,"current_range_meters":19600,"station_id":"ce4bgkp2rcd13ifvqbmg","pricing_plan_id":"free"},{"bike_id":"5c93a960-93d0-47a0-9e75-18c79a1ede65","system_id":"levelo_inurba_marseille","lat":43.295279,"lon":5.375048,"is_reserved":false,"is_disabled":false,"rental_uris":{"android":"levelo://app?vid=5c93a960-93d0-47a0-9e75-18c79a1ede65","ios":"levelo://app?vid=5c93a960-93d0-47a0-9e75-18c79a1ede65"},"vehicle_type_id":"4","last_reported":1689102351,"current_range_meters":28800,"station_id":"ce4bgkp2rcd13ifvqbmg","pricing_plan_id":"free"},{"bike_id":"b3fcf93a-9145-4663-ac31-c2b3d5f68630","system_id":"levelo_inurba_marseille","lat":43.295279,"lon":5.375048,"is_reserved":false,"is_disabled":false,"rental_uris":{"android":"levelo://app?vid=b3fcf93a-9145-4663-ac31-c2b3d5f68630","ios":"levelo://app?vid=b3fcf93a-9145-4663-ac31-c2b3d5f68630"},"vehicle_type_id":"4","last_reported":1689102351,"current_range_meters":12800,"station_id":"ce4bgkp2rcd13ifvqbmg","pricing_plan_id":"free"},{"bike_id":"cfb0823a-ab27-446b-a245-1605f2476bb1","system_id":"levelo_inurba_marseille","lat":43.295279,"lon":5.375048,"is_reserved":false,"is_disabled":false,"rental_uris":{"android":"levelo://app?vid=cfb0823a-ab27-446b-a245-1605f2476bb1","ios":"levelo://app?vid=cfb0823a-ab27-446b-a245-1605f2476bb1"},"vehicle_type_id":"4","last_reported":1689102351,"current_range_meters":23600,"station_id":"ce4bgkp2rcd13ifvqbmg","pricing_plan_id":"free"},{"bike_id":"1bc3ef6c-502e-4fe1-b94c-c1d4fc6ad821","system_id":"levelo_inurba_marseille","lat":43.295279,"lon":5.375048,"is_reserved":false,"is_disabled":false,"rental_uris":{"android":"levelo://app?vid=1bc3ef6c-502e-4fe1-b94c-c1d4fc6ad821","ios":"levelo://app?vid=1bc3ef6c-502e-4fe1-b94c-c1d4fc6ad821"},"vehicle_type_id":"4","last_reported":1689102351,"current_range_meters":15600,"station_id":"ce4bgkp2rcd13ifvqbmg","pricing_plan_id":"free"},{"bike_id":"b8ec00c8-0fbc-41a7-9817-5ad3b5686676","system_id":"levelo_inurba_marseille","lat":43.29495,"lon":5.37422,"is_reserved":false,"is_disabled":false,"rental_uris":{"android":"levelo://app?vid=b8ec00c8-0fbc-41a7-9817-5ad3b5686676","ios":"levelo://app?vid=b8ec00c8-0fbc-41a7-9817-5ad3b5686676"},"vehicle_type_id":"4","last_reported":1689102351,"current_range_meters":13600,"station_id":"ce4bgnh2rcd13ifvqc0g","pricing_plan_id":"free"},{"bike_id":"fb433df1-2a84-46fb-aeb4-1753c42c0bd6","system_id":"levelo_inurba_marseille","lat":43.295279,"lon":5.375048,"is_reserved":false,"is_disabled":false,"rental_uris":{"android":"levelo://app?vid=fb433df1-2a84-46fb-aeb4-1753c42c0bd6","ios":"levelo://app?vid=fb433df1-2a84-46fb-aeb4-1753c42c0bd6"},"vehicle_type_id":"4","last_reported":1689102351,"current_range_meters":9600,"station_id":"ce4bgkp2rcd13ifvqbmg","pricing_plan_id":"free"},{"bike_id":"ba91b8f6-68a9-4eb9-b228-9e9b3e3c2561","system_id":"levelo_inurba_marseille","lat":43.29462,"lon":5.37448,"is_reserved":false,"is_disabled":false,"rental_uris":{"android":"levelo://app?vid=ba91b8f6-68a9-4eb9-b228-9e9b3e3c2561","ios":"levelo://app?vid=ba91b8f6-68a9-4eb9-b228-9e9b3e3c2561"},"vehicle_type_id":"4","last_reported":1689102351,"current_range_meters":14800,"station_id":"","pricing_plan_id":"free"},{"bike_id":"e7a214e7-e874-4cd1-9dd0-9349e66bb712","system_id":"levelo_inurba_marseille","lat":43.32365,"lon":5.38884,"is_reserved":false,"is_disabled":false,"rental_uris":{"android":"levelo://app?vid=e7a214e7-e874-4cd1-9dd0-9349e66bb712","ios":"levelo://app?vid=e7a214e7-e874-4cd1-9dd0-9349e66bb712"},"vehicle_type_id":"4","last_reported":1689102351,"current_range_meters":20800,"station_id":"ce4bhqp2rcd13ifvqhog","pricing_plan_id":"free"},{"bike_id":"d4a21e6a-fb36-4b76-a953-da76a8bc5cd0","system_id":"levelo_inurba_marseille","lat":43.32366,"lon":5.38885,"is_reserved":false,"is_disabled":false,"rental_uris":{"android":"levelo://app?vid=d4a21e6a-fb36-4b76-a953-da76a8bc5cd0","ios":"levelo://app?vid=d4a21e6a-fb36-4b76-a953-da76a8bc5cd0"},"vehicle_type_id":"4","last_reported":1689102351,"current_range_meters":20800,"station_id":"ce4bhqp2rcd13ifvqhog","pricing_plan_id":"free"},{"bike_id":"ce67efb7-7bd9-4278-8dde-4a18585b5692","system_id":"levelo_inurba_marseille","lat":43.32367,"lon":5.388836,"is_reserved":false,"is_disabled":false,"rental_uris":{"android":"levelo://app?vid=ce67efb7-7bd9-4278-8dde-4a18585b5692","ios":"levelo://app?vid=ce67efb7-7bd9-4278-8dde-4a18585b5692"},