{"last_updated":1731276446,"ttl":60,"version":"2.2","data":{"bikes":[{"bike_id":"5cccdad3-9b8d-4a72-bdfd-b1daf1dc0d4d","system_id":"levelo_inurba_marseille","lat":43.27814,"lon":5.40713,"is_reserved":false,"is_disabled":false,"rental_uris":{"android":"levelo://app?vid=5cccdad3-9b8d-4a72-bdfd-b1daf1dc0d4d","ios":"levelo://app?vid=5cccdad3-9b8d-4a72-bdfd-b1daf1dc0d4d"},"vehicle_type_id":"4","last_reported":1731276446,"current_range_meters":39200,"station_id":"ce4bhnh2rcd13ifvqgtg","pricing_plan_id":"cebpf4jnsgd1na2vs0mg"},{"bike_id":"55f338da-564d-4339-bcb5-5d0a4b68c4e6","system_id":"levelo_inurba_marseille","lat":43.31064,"lon":5.40116,"is_reserved":false,"is_disabled":false,"rental_uris":{"android":"levelo://app?vid=55f338da-564d-4339-bcb5-5d0a4b68c4e6","ios":"levelo://app?vid=55f338da-564d-4339-bcb5-5d0a4b68c4e6"},"vehicle_type_id":"4","last_reported":1731276446,"current_range_meters":6400,"station_id":"","pricing_plan_id":"cebpf4jnsgd1na2vs0mg"},{"bike_id":"4a9b720d-8670-4831-85df-c88003ccc28b","system_id":"levelo_inurba_marseille","lat":43.30445,"lon":5.389,"is_reserved":false,"is_disabled":false,"rental_uris":{"android":"levelo://app?vid=4a9b720d-8670-4831-85df-c88003ccc28b","ios":"levelo://app?vid=4a9b720d-8670-4831-85df-c88003ccc28b"},"vehicle_type_id":"4","last_reported":1731276446,"current_range_meters":38800,"station_id":"ce4bgk12rcd13ifvqbi0","pricing_plan_id":"cebpf4jnsgd1na2vs0mg"},{"bike_id":"b8309c71-4c83-49a8-8581-d0b2d6e71481","system_id":"levelo_inurba_marseille","lat":43.30211,"lon":5.39474,"is_reserved":false,"is_disabled":false,"rental_uris":{"android":"levelo://app?vid=b8309c71-4c83-49a8-8581-d0b2d6e71481","ios":"levelo://app?vid=b8309c71-4c83-49a8-8581-d0b2d6e71481"},"vehicle_type_id":"4","last_reported":1731276446,"current_range_meters":28000,"station_id":"ce4bh0p2rcd13ifvqd70","pricing_plan_id":"cebpf4jnsgd1na2vs0mg"},{"bike_id":"f903ea29-30fe-46ae-8eeb-7a1975d030a7","system_id":"levelo_inurba_marseille","lat":43.31643,"lon":5.37682,"is_reserved":false,"is_disabled":false,"rental_uris":{"android":"levelo://app?vid=f903ea29-30fe-46ae-8eeb-7a1975d030a7","ios":"levelo://app?vid=f903ea29-30fe-46ae-8eeb-7a1975d030a7"},"vehicle_type_id":"4","last_reported":1731276446,"current_range_meters":22800,"station_id":"ce4bgth2rcd13ifvqch0","pricing_plan_id":"cebpf4jnsgd1na2vs0mg"},{"bike_id":"6fe6b32f-11af-4595-87a6-3b78335d8002","system_id":"levelo_inurba_marseille","lat":43.29304,"lon":5.37453,"is_reserved":false,"is_disabled":false,"rental_uris":{"android":"levelo://app?vid=6fe6b32f-11af-4595-87a6-3b78335d8002","ios":"levelo://app?vid=6fe6b32f-11af-4595-87a6-3b78335d8002"},"vehicle_type_id":"4","last_reported":1731276446,"current_range_meters":33200,"station_id":"ce4bgi12rcd13ifvqb70","pricing_plan_id":"cebpf4jnsgd1na2vs0mg"},{"bike_id":"5daf7e81-adca-4c69-ac49-7439dac41928","system_id":"levelo_inurba_marseille","lat":43.29558,"lon":5.42291,"is_reserved":false,"is_disabled":false,"rental_uris":{"android":"levelo://app?vid=5daf7e81-adca-4c69-ac49-7439dac41928","ios":"levelo://app?vid=5daf7e81-adca-4c69-ac49-7439dac41928"},"vehicle_type_id":"4","last_reported":1731276446,"current_range_meters":38800,"station_id":"ce4bhph2rcd13ifvqhdg","pricing_plan_id":"cebpf4jnsgd1na2vs0mg"},{"bike_id":"83df5554-02f7-42a9-8c5e-d00b9ca8b73e","system_id":"levelo_inurba_marseille","lat":43.295297,"lon":5.385433,"is_reserved":false,"is_disabled":false,"rental_uris":{"android":"levelo://app?vid=83df5554-02f7-42a9-8c5e-d00b9ca8b73e","ios":"levelo://app?vid=83df5554-02f7-42a9-8c5e-d00b9ca8b73e"},"vehicle_type_id":"4","last_reported":1731276446,"current_range_meters":35600,"station_id":"ce4bgih2rcd13ifvqba0","pricing_plan_id":"cebpf4jnsgd1na2vs0mg"},{"bike_id":"1adc8eee-5455-40de-beaf-9dc42987d8ee","system_id":"levelo_inurba_marseille","lat":43.24799,"lon":5.37447,"is_reserved":false,"is_disabled":false,"rental_uris":{"android":"levelo://app?vid=1adc8eee-5455-40de-beaf-9dc42987d8ee","ios":"levelo://app?vid=1adc8eee-5455-40de-beaf-9dc42987d8ee"},"vehicle_type_id":"4","last_reported":1731276446,"current_range_meters":5600,"station_id":"ce4bhgh2rcd13ifvqfb0","pricing_plan_id":"cebpf4jnsgd1na2vs0mg"},{"bike_id":"2300ca5b-3406-4406-93d4-bb2eafdfc83d","system_id":"levelo_inurba_marseille","lat":43.28359,"lon":5.386293,"is_reserved":false,"is_disabled":false,"rental_uris":{"android":"levelo://app?vid=2300ca5b-3406-4406-93d4-bb2eafdfc83d","ios":"levelo://app?vid=2300ca5b-3406-4406-93d4-bb2eafdfc83d"},"vehicle_type_id":"4","last_reported":1731276446,"current_range_meters":38800,"station_id":"ce4bh492rcd13ifvqdvg","pricing_plan_id":"cebpf4jnsgd1na2vs0mg"},{"bike_id":"f3d63f4d-eadc-455d-b402-115d199e3de1","system_id":"levelo_inurba_marseille","lat":43.31082,"lon":5.42427,"is_reserved":false,"is_disabled":false,"rental_uris":{"android":"levelo://app?vid=f3d63f4d-eadc-455d-b402-115d199e3de1","ios":"levelo://app?vid=f3d63f4d-eadc-455d-b402-115d199e3de1"},"vehicle_type_id":"4","last_reported":1731276446,"current_range_meters":36800,"station_id":"ce4bhp92rcd13ifvqhag","pricing_plan_id":"cebpf4jnsgd1na2vs0mg"},{"bike_id":"921708b5-acdf-4387-81df-b8a3576276ae","system_id":"levelo_inurba_marseille","lat":43.26488,"lon":5.39547,"is_reserved":false,"is_disabled":false,"rental_uris":{"android":"levelo://app?vid=921708b5-acdf-4387-81df-b8a3576276ae","ios":"levelo://app?vid=921708b5-acdf-4387-81df-b8a3576276ae"},"vehicle_type_id":"4","last_reported":1731276446,"current_range_meters":8800,"station_id":"ce4bhi12rcd13ifvqfq0","pricing_plan_id":"cebpf4jnsgd1na2vs0mg"},{"bike_id":"0080f361-a5a8-4cc0-b53e-3db12f55c105","system_id":"levelo_inurba_marseille","lat":43.25648,"lon":5.40424,"is_reserved":false,"is_disabled":false,"rental_uris":{"android":"levelo://app?vid=0080f361-a5a8-4cc0-b53e-3db12f55c105","ios":"levelo://app?vid=0080f361-a5a8-4cc0-b53e-3db12f55c105"},"vehicle_type_id":"4","last_reported":1731276446,"current_range_meters":36000,"station_id":"","pricing_plan_id":"cebpf4jnsgd1na2vs0mg"},{"bike_id":"f89d3613-8002-46d6-8a93-1bc029531b76","system_id":"levelo_inurba_marseille","lat":43.24807,"lon":5.37457,"is_reserved":false,"is_disabled":false,"rental_uris":{"android":"levelo://app?vid=f89d3613-8002-46d6-8a93-1bc029531b76","ios":"levelo://app?vid=f89d3613-8002-46d6-8a93-1bc029531b76"},"vehicle_type_id":"4","last_reported":1731276446,"current_range_meters":38800,"station_id":"ce4bhgh2rcd13ifvqfb0","pricing_plan_id":"cebpf4jnsgd1na2vs0mg"},{"bike_id":"0127d6b2-e8ca-44ea-a042-e15f538e1c04","system_id":"levelo_inurba_marseille","lat":43.28457,"lon":5.35878,"is_reserved":false,"is_disabled":false,"rental_uris":{"android":"levelo://app?vid=0127d6b2-e8ca-44ea-a042-e15f538e1c04","ios":"levelo://app?vid=0127d6b2-e8ca-44ea-a042-e15f538e1c04"},"vehicle_type_id":"4","last_reported":1731276446,"current_range_meters":29600,"station_id":"ce4bhah2rcd13ifvqei0","pricing_plan_id":"cebpf4jnsgd1na2vs0mg"},{"bike_id":"56787d84-a549-4d99-a053-5f0579c51891","system_id":"levelo_inurba_marseille","lat":43.24657,"lon":5.38888,"is_reserved":false,"is_disabled":false,"rental_uris":{"android":"levelo://app?vid=56787d84-a549-4d99-a053-5f0579c51891","ios":"levelo://app?vid=56787d84-a549-4d99-a053-5f0579c51891"},"vehicle_type_id":"4","last_reported":1731276446,"current_range_meters":4000,"station_id":"ce4bhg12rcd13ifvqf60","pricing_plan_id":"cebpf4jnsgd1na2vs0mg"},{"bike_id":"5719d243-7942-4995-81c5-200664071e56","system_id":"levelo_inurba_marseille","lat":43.30458,"lon":5.37901,"is_reserved":false,"is_disabled":false,"rental_uris":{"android":"levelo://app?vid=5719d243-7942-4995-81c5-200664071e56","ios":"levelo://app?vid=5719d243-7942-4995-81c5-200664071e56"},"vehicle_type_id":"4","last_reported":1731276446,"current_range_meters":6000,"station_id":"ce4bgup2rcd13ifvqcn0","pricing_plan_id":"cebpf4jnsgd1na2vs0mg"},{"bike_id":"cbfbcf32-f215-413a-bd6d-8c8cf9b22078","system_id":"levelo_inurba_marseille","lat":43.28854,"lon":5.35846,"is_reserved":false,"is_disabled":false,"rental_uris":{"android":"levelo://app?vid=cbfbcf32-f215-413a-bd6d-8c8cf9b22078","ios":"levelo://app?vid=cbfbcf32-f215-413a-bd6d-8c8cf9b22078"},"vehicle_type_id":"4","last_reported":1731276446,"current_range_meters":38800,"station_id":"ce4bhb12rcd13ifvqem0","pricing_plan_id":"cebpf4jnsgd1na2vs0mg"},{"bike_id":"294704fb-8f95-4b35-8862-e42d43f15506","system_id":"levelo_inurba_marseille","lat":43.2872,"lon":5.37943,"is_reserved":false,"is_disabled":false,"rental_uris":{"android":"levelo://app?vid=294704fb-8f95-4b35-8862-e42d43f15506","ios":"levelo://app?vid=294704fb-8f95-4b35-8862-e42d43f15506"},"vehicle_type_id":"4","last_reported":1731276446,"current_range_meters":38800,"station_id":"ce4bh9p2rcd13ifvqec0","pricing_plan_id":"cebpf4jnsgd1na2vs0mg"},{"bike_id":"9919db7a-8b4f-4220-becb-f54e10b5b1b8","system_id":"levelo_inurba_marseille","lat":43.23058,"lon":5.35489,"is_reserved":false,"is_disabled":false,"rental_uris":{"android":"levelo://app?vid=9919db7a-8b4f-4220-becb-f54e10b5b1b8","ios":"levelo://app?vid=9919db7a-8b4f-4220-becb-f54e10b5b1b8"},"vehicle_type_id":"4","last_reported":1731276446,"current_range_meters":38400,"station_id":"cpo3342slgdg3j2ifvpg","pricing_plan_id":"cebpf4jnsgd1na2vs0mg"},{"bike_id":"c7cb2f21-73cd-4e84-90c1-167ec62f1347","system_id":"levelo_inurba_marseille","lat":43.29071,"lon":5.37166,"is_reserved":false,"is_disabled":false,"rental_uris":{"android":"levelo://app?vid=c7cb2f21-73cd-4e84-90c1-167ec62f1347","ios":"levelo://app?vid=c7cb2f21-73cd-4e84-90c1-167ec62f1347"},"vehicle_type_id":"4","last_reported":1731276446,"current_range_meters":38800,"station_id":"ce4bh5p2rcd13ifvqe4g","pricing_plan_id":"cebpf4jnsgd1na2vs0mg"},{"bike_id":"bb785616-26a0-4eb0-931b-17957df5cea3","system_id":"levelo_inurba_marseille","lat":43.29553,"lon":5.42286,"is_reserved":false,"is_disabled":false,"rental_uris":{"android":"levelo://app?vid=bb785616-26a0-4eb0-931b-17957df5cea3","ios":"levelo://app?vid=bb785616-26a0-4eb0-931b-17957df5cea3"},"vehicle_type_id":"4","last_reported":1731276446,"current_range_meters":29600,"station_id":"ce4bhph2rcd13ifvqhdg","pricing_plan_id":"cebpf4jnsgd1na2vs0mg"},{"bike_id":"3b87dcfb-1a59-4717-86a1-4f8b3263c521","system_id":"levelo_inurba_marseille","lat":43.30595,"lon":5.39346,"is_reserved":false,"is_disabled":false,"rental_uris":{"android":"levelo://app?vid=3b87dcfb-1a59-4717-86a1-4f8b3263c521","ios":"levelo://app?vid=3b87dcfb-1a59-4717-86a1-4f8b3263c521"},"vehicle_type_id":"4","last_reported":1731276446,"current_range_meters":38800,"station_id":"ce4bh0p2rcd13ifvqd80","pricing_plan_id":"cebpf4jnsgd1na2vs0mg"},{"bike_id":"2cfd6c68-b0ed-4ae3-9fae-dfd166b591a0","system_id":"levelo_inurba_marseille","lat":43.30795,"lon":5.38159,"is_reserved":false,"is_disabled":false,"rental_uris":{"android":"levelo://app?vid=2cfd6c68-b0ed-4ae3-9fae-dfd166b591a0","ios":"levelo://app?vid=2cfd6c68-b0ed-4ae3-9fae-dfd166b591a0"},"vehicle_type_id":"4","last_reported":1731276446,"current_range_meters":20800,"station_id":"","pricing_plan_id":"cebpf4jnsgd1na2vs0mg"},{"bike_id":"eaaacc17-7be0-4ec8-8e84-a2919196b9a7","system_id":"levelo_inurba_marseille","lat":43.31708,"lon":5.43681,"is_reserved":false,"is_disabled":false,"rental_uris":{"android":"levelo://app?vid=eaaacc17-7be0-4ec8-8e84-a2919196b9a7","ios":"levelo://app?vid=eaaacc17-7be0-4ec8-8e84-a2919196b9a7"},"vehicle_type_id":"4","last_reported":1731276446,"current_range_meters":12400,"station_id":"ce4bhp92rcd13ifvqhcg","pricing_plan_id":"cebpf4jnsgd1na2vs0mg"},{"bike_id":"d00a89cf-7850-41a3-a4e8-b8a440e30704","system_id":"levelo_inurba_marseille","lat":43.29693,"lon":5.37292,"is_reserved":false,"is_disabled":false,"rental_uris":{"android":"levelo://app?vid=d00a89cf-7850-41a3-a4e8-b8a440e30704","ios":"levelo://app?vid=d00a89cf-7850-41a3-a4e8-b8a440e30704"},"vehicle_type_id":"4","last_reported":1731276446,"current_range_meters":38000,"station_id":"ce4bgk12rcd13ifvqbj0","pricing_plan_id":"cebpf4jnsgd1na2vs0mg"},{"bike_id":"8b949a42-149c-4b95-8499-b2f5cd111d1a","system_id":"levelo_inurba_marseille","lat":43.32346,"lon":5.40617,"is_reserved":false,"is_disabled":false,"rental_uris":{"android":"levelo://app?vid=8b949a42-149c-4b95-8499-b2f5cd111d1a","ios":"levelo://app?vid=8b949a42-149c-4b95-8499-b2f5cd111d1a"},"vehicle_type_id":"4","last_reported":1731276446,"current_range_meters":9200,"station_id":"ce4bhq92rcd13ifvqhjg","pricing_plan_id":"cebpf4jnsgd1na2vs0mg"},{"bike_id":"721ffa07-5205-4352-bf52-79247567bace","system_id":"levelo_inurba_marseille","lat":43.24819,"lon":5.37461,"is_reserved":false,"is_disabled":false,"rental_uris":{"android":"levelo://app?vid=721ffa07-5205-4352-bf52-79247567bace","ios":"levelo://app?vid=721ffa07-5205-4352-bf52-79247567bace"},"vehicle_type_id":"4","last_reported":1731276446,"current_range_meters":38400,"station_id":"ce4bhgh2rcd13ifvqfb0","pricing_plan_id":"cebpf4jnsgd1na2vs0mg"},{"bike_id":"34a5fde8-445c-4f90-85a6-17329cc7b136","system_id":"levelo_inurba_marseille","lat":43.300842,"lon":5.370388,"is_reserved":false,"is_disabled":false,"rental_uris":{"android":"levelo://app?vid=34a5fde8-445c-4f90-85a6-17329cc7b136","ios":"levelo://app?vid=34a5fde8-445c-4f90-85a6-17329cc7b136"},"vehicle_type_id":"4","last_reported":1731276446,"current_range_meters":16800,"station_id":"ce4bhi12rcd13ifvqfo0","pricing_plan_id":"cebpf4jnsgd1na2vs0mg"},{"bike_id":"53842b0b-662f-45de-89f4-2ac07b1eadcf","system_id":"levelo_inurba_marseille","lat":43.28107,"lon":5.37838,"is_reserved":false,"is_disabled":false,"rental_uris":{"android":"levelo://app?vid=53842b0b-662f-45de-89f4-2ac07b1eadcf","ios":"levelo://app?vid=53842b0b-662f-45de-89f4-2ac07b1eadcf"},"vehicle_type_id":"4","last_reported":1731276446,"current_range_meters":23200,"station_id":"ce4bha12rcd13ifvqee0","pricing_plan_id":"cebpf4jnsgd1na2vs0mg"},{"bike_id":"1a2c9b95-65a9-4781-8632-0abb90bf3d26","system_id":"levelo_inurba_marseille","lat":43.27906,"lon":5.39583,"is_reserved":false,"is_disabled":false,"rental_uris":{"android":"levelo://app?vid=1a2c9b95-65a9-4781-8632-0abb90bf3d26","ios":"levelo://app?vid=1a2c9b95-65a9-4781-8632-0abb90bf3d26"},"vehicle_type_id":"4","last_reported":1731276446,"current_range_meters":38800,"station_id":"ce4bhf92rcd13ifvqf40","pricing_plan_id":"cebpf4jnsgd1na2vs0mg"},{"bike_id":"dbed0d05-d1e5-4ee1-97b8-68820b8e3455","system_id":"levelo_inurba_marseille","lat":43.28852,"lon":5.39303,"is_reserved":false,"is_disabled":false,"rental_uris":{"android":"levelo://app?vid=dbed0d05-d1e5-4ee1-97b8-68820b8e3455","ios":"levelo://app?vid=dbed0d05-d1e5-4ee1-97b8-68820b8e3455"},"vehicle_type_id":"4","last_reported":1731276446,"current_range_meters":35200,"station_id":"ce4bh2p2rcd13ifvqdi0","pricing_plan_id":"cebpf4jnsgd1na2vs0mg"},{"bike_id":"30e346e6-71d5-4935-973d-c9a61e3a2f99","system_id":"levelo_inurba_marseille","lat":43.30339,"lon":5.43501,"is_reserved":false,"is_disabled":false,"rental_uris":{"android":"levelo://app?vid=30e346e6-71d5-4935-973d-c9a61e3a2f99","ios":"levelo://app?vid=30e346e6-71d5-4935-973d-c9a61e3a2f99"},"vehicle_type_id":"4","last_reported":1731276446,"current_range_meters":18000,"station_id":"","pricing_plan_id":"cebpf4jnsgd1na2vs0mg"},{"bike_id":"b101c052-f815-4d93-a3a9-fa872f005f65","system_id":"levelo_inurba_marseille","lat":43.30531,"lon":5.38437,"is_reserved":false,"is_disabled":false,"rental_uris":{"android":"levelo://app?vid=b101c052-f815-4d93-a3a9-fa872f005f65","ios":"levelo://app?vid=b101c052-f815-4d93-a3a9-fa872f005f65"},"vehicle_type_id":"4","last_reported":1731276446,"current_range_meters":38800,"station_id":"ce4bgg92rcd13ifvqb30","pricing_plan_id":"cebpf4jnsgd1na2vs0mg"},{"bike_id":"f3d00c04-ef69-40fc-a4d6-2239e4af165d","system_id":"levelo_inurba_marseille","lat":43.29058,"lon":5.35913,"is_reserved":false,"is_disabled":false,"rental_uris":{"android":"levelo://app?vid=f3d00c04-ef69-40fc-a4d6-2239e4af165d","ios":"levelo://app?vid=f3d00c04-ef69-40fc-a4d6-2239e4af165d"},"vehicle_type_id":"4","last_reported":1731276446,"current_range_meters":29600,"station_id":"ce4bha92rcd13ifvqeg0","pricing_plan_id":"cebpf4jnsgd1na2vs0mg"},{"bike_id":"867636cb-415b-4174-bd20-2a0b238ace46","system_id":"levelo_inurba_marseille","lat":43.29793,"lon":5.38102,"is_reserved":false,"is_disabled":false,"rental_uris":{"android":"levelo://app?vid=867636cb-415b-4174-bd20-2a0b238ace46","ios":"levelo://app?vid=867636cb-415b-4174-bd20-2a0b238ace46"},"vehicle_type_id":"4","last_reported":1731276446,"current_range_meters":16800,"station_id":"ce4bgip2rcd13ifvqbb0","pricing_plan_id":"cebpf4jnsgd1na2vs0mg"},{"bike_id":"d62be267-852e-4474-97ce-007bc90b5db1","system_id":"levelo_inurba_marseille","lat":43.28149,"lon":5.42648,"is_reserved":false,"is_disabled":false,"rental_uris":{"android":"levelo://app?vid=d62be267-852e-4474-97ce-007bc90b5db1","ios":"levelo://app?vid=d62be267-852e-4474-97ce-007bc90b5db1"},"vehicle_type_id":"4","last_reported":1731276446,"current_range_meters":8400,"station_id":"ce4bhnh2rcd13ifvqgug","pricing_plan_id":"cebpf4jnsgd1na2vs0mg"},{"bike_id":"c221efe7-efcb-49b8-a1b0-1dd8d171a453","system_id":"levelo_inurba_marseille","lat":43.33715,"lon":5.39189,"is_reserved":false,"is_disabled":false,"rental_uris":{"android":"levelo://app?vid=c221efe7-efcb-49b8-a1b0-1dd8d171a453","ios":"levelo://app?vid=c221efe7-efcb-49b8-a1b0-1dd8d171a453"},"vehicle_type_id":"4","last_reported":1731276446,"current_range_meters":38800,"station_id":"ce4bhr92rcd13ifvqhsg","pricing_plan_id":"cebpf4jnsgd1na2vs0mg"},{"bike_id":"69b05dc1-5376-472f-a35d-b50c76a10800","system_id":"levelo_inurba_marseille","lat":43.24811,"lon":5.37458,"is_reserved":false,"is_disabled":false,"rental_uris":{"android":"levelo://app?vid=69b05dc1-5376-472f-a35d-b50c76a10800","ios":"levelo://app?vid=69b05dc1-5376-472f-a35d-b50c76a10800"},"vehicle_type_id":"4","last_reported":1731276446,"current_range_meters":39200,"station_id":"ce4bhgh2rcd13ifvqfb0","pricing_plan_id":"cebpf4jnsgd1na2vs0mg"},{"bike_id":"1bf2372b-a93d-4486-9e26-7b3eb15b2634","system_id":"levelo_inurba_marseille","lat":43.2481,"lon":5.37454,"is_reserved":false,"is_disabled":false,"rental_uris":{"android":"levelo://app?vid=1bf2372b-a93d-4486-9e26-7b3eb15b2634","ios":"levelo://app?vid=1bf2372b-a93d-4486-9e26-7b3eb15b2634"},"vehicle_type_id":"4","last_reported":1731276446,"current_range_meters":38800,"station_id":"ce4bhgh2rcd13ifvqfb0","pricing_plan_id":"cebpf4jnsgd1na2vs0mg"},{"bike_id":"0a1e1833-7109-4e98-a0b0-0b28aceee637","system_id":"levelo_inurba_marseille","lat":43.30328,"lon":5.40445,"is_reserved":false,"is_disabled":false,"rental_uris":{"android":"levelo://app?vid=0a1e1833-7109-4e98-a0b0-0b28aceee637","ios":"levelo://app?vid=0a1e1833-7109-4e98-a0b0-0b28aceee637"},"vehicle_type_id":"4","last_reported":1731276446,"current_range_meters":37600,"station_id":"ce4bh012rcd13ifvqd10","pricing_plan_id":"cebpf4jnsgd1na2vs0mg"},{"bike_id":"2fe64070-675b-46be-9d93-6c8ed825cc13","system_id":"levelo_inurba_marseille","lat":43.31322,"lon":5.39687,"is_reserved":false,"is_disabled":false,"rental_uris":{"android":"levelo://app?vid=2fe64070-675b-46be-9d93-6c8ed825cc13","ios":"levelo://app?vid=2fe64070-675b-46be-9d93-6c8ed825cc13"},"vehicle_type_id":"4","last_reported":1731276446,"current_range_meters":26800,"station_id":"ce4bgvp2rcd13ifvqcu0","pricing_plan_id":"cebpf4jnsgd1na2vs0mg"},{"bike_id":"e5a50779-767b-4ff2-9bfe-e2c8addca67e","system_id":"levelo_inurba_marseille","lat":43.2997,"lon":5.38495,"is_reserved":false,"is_disabled":false,"rental_uris":{"android":"levelo://app?vid=e5a50779-767b-4ff2-9bfe-e2c8addca67e","ios":"levelo://app?vid=e5a50779-767b-4ff2-9bfe-e2c8addca67e"},"vehicle_type_id":"4","last_reported":1731276446,"current_range_meters":20800,"station_id":"ce4bgj92rcd13ifvqbd0","pricing_plan_id":"cebpf4jnsgd1na2vs0mg"},{"bike_id":"fa354d50-4f6e-4224-8245-120d417d3a1b","system_id":"levelo_inurba_marseille","lat":43.28485,"lon":5.38421,"is_reserved":false,"is_disabled":false,"rental_uris":{"android":"levelo://app?vid=fa354d50-4f6e-4224-8245-120d417d3a1b","ios":"levelo://app?vid=fa354d50-4f6e-4224-8245-120d417d3a1b"},"vehicle_type_id":"4","last_reported":1731276446,"current_range_meters":4800,"station_id":"ce4bh512rcd13ifvqe3g","pricing_plan_id":"cebpf4jnsgd1na2vs0mg"},{"bike_id":"2972f759-c98e-4fe7-9758-85d215895273","system_id":"levelo_inurba_marseille","lat":43.23964,"lon":5.3662,"is_reserved":false,"is_disabled":false,"rental_uris":{"android":"levelo://app?vid=2972f759-c98e-4fe7-9758-85d215895273","ios":"levelo://app?vid=2972f759-c98e-4fe7-9758-85d215895273"},"vehicle_type_id":"4","last_reported":1731276446,"current_range_meters":34000,"station_id":"ce4bhi12rcd13ifvqfp0","pricing_plan_id":"cebpf4jnsgd1na2vs0mg"},{"bike_id":"e760937c-84fb-45b7-a500-463bd870cd74","system_id":"levelo_inurba_marseille","lat":43.2872,"lon":5.37939,"is_reserved":false,"is_disabled":false,"rental_uris":{"android":"levelo://app?vid=e760937c-84fb-45b7-a500-463bd870cd74","ios":"levelo://app?vid=e760937c-84fb-45b7-a500-463bd870cd74"},"vehicle_type_id":"4","last_reported":1731276446,"current_range_meters":26000,"station_id":"ce4bh9p2rcd13ifvqec0","pricing_plan_id":"cebpf4jnsgd1na2vs0mg"},{"bike_id":"3d39d653-d82e-4af0-985c-58f52d4e35ce","system_id":"levelo_inurba_marseille","lat":43.31225,"lon":5.36857,"is_reserved":false,"is_disabled":false,"rental_uris":{"android":"levelo://app?vid=3d39d653-d82e-4af0-985c-58f52d4e35ce","ios":"levelo://app?vid=3d39d653-d82e-4af0-985c-58f52d4e35ce"},"vehicle_type_id":"4","last_reported":1731276446,"current_range_meters":38800,"station_id":"ce4bgl92rcd13ifvqbq0","pricing_plan_id":"cebpf4jnsgd1na2vs0mg"},{"bike_id":"4769bc6f-dec8-41e8-9b0a-570d8bc7583c","system_id":"levelo_inurba_marseille","lat":43.31354,"lon":5.36708,"is_reserved":false,"is_disabled":false,"rental_uris":{"android":"levelo://app?vid=4769bc6f-dec8-41e8-9b0a-570d8bc7583c","ios":"levelo://app?vid=4769bc6f-dec8-41e8-9b0a-570d8bc7583c"},"vehicle_type_id":"4","last_reported":1731276446,"current_range_meters":4400,"station_id":"ce4bgr92rcd13ifvqc6g","pricing_plan_id":"cebpf4jnsgd1na2vs0mg"},{"bike_id":"9330ba64-e8ac-48b5-95c4-35c2d0e50f70","system_id":"levelo_inurba_marseille","lat":43.25116,"lon":5.40319,"is_reserved":false,"is_disabled":false,"rental_uris":{"android":"levelo://app?vid=9330ba64-e8ac-48b5-95c4-35c2d0e50f70","ios":"levelo://app?vid=9330ba64-e8ac-48b5-95c4-35c2d0e50f70"},"vehicle_type_id":"4","last_reported":1731276446,"current_range_meters":28400,"station_id":"ce4bhlh2rcd13ifvqgig","pricing_plan_id":"cebpf4jnsgd1na2vs0mg"},{"bike_id":"bd5b97a3-9472-4d45-8221-1ab0cb6e803b","system_id":"levelo_inurba_marseille","lat":43.27569,"lon":5.38421,"is_reserved":false,"is_disabled":false,"rental_uris":{"android":"levelo://app?vid=bd5b97a3-9472-4d45-8221-1ab0cb6e803b","ios":"levelo://app?vid=bd5b97a3-9472-4d45-8221-1ab0cb6e803b"},"vehicle_type_id":"4","last_reported":1731276446,"current_range_meters":28800,"station_id":"ce4bhh92rcd13ifvqfi0","pricing_plan_id":"cebpf4jnsgd1na2vs0mg"},{"bike_id":"f0810896-1e05-418a-bfdf-2350a695cef6","system_id":"levelo_inurba_marseille","lat":43.27619,"lon":5.36118,"is_reserved":false,"is_disabled":false,"rental_uris":{"android":"levelo://app?vid=f0810896-1e05-418a-bfdf-2350a695cef6","ios":"levelo://app?vid=f0810896-1e05-418a-bfdf-2350a695cef6"},"vehicle_type_id":"4","last_reported":1731276446,"current_range_meters":4000,"station_id":"ce4bgj92rcd13ifvqbe0","pricing_plan_id":"cebpf4jnsgd1na2vs0mg"},{"bike_id":"10dbd38b-1598-4db5-82f8-224c526f7a15","system_id":"levelo_inurba_marseille","lat":43.31072,"lon":5.3835,"is_reserved":false,"is_disabled":false,"rental_uris":{"android":"levelo://app?vid=10dbd38b-1598-4db5-82f8-224c526f7a15","ios":"levelo://app?vid=10dbd38b-1598-4db5-82f8-224c526f7a15"},"vehicle_type_id":"4","last_reported":1731276446,"current_range_meters":23200,"station_id":"ce4bgv92rcd13ifvqcr0","pricing_plan_id":"cebpf4jnsgd1na2vs0mg"},{"bike_id":"122ba007-c432-460b-903a-c781747ee80e","system_id":"levelo_inurba_marseille","lat":43.29369,"lon":5.37841,"is_reserved":false,"is_disabled":false,"rental_uris":{"android":"levelo://app?vid=122ba007-c432-460b-903a-c781747ee80e","ios":"levelo://app?vid=122ba007-c432-460b-903a-c781747ee80e"},"vehicle_type_id":"4","last_reported":1731276446,"current_range_meters":38000,"station_id":"ce4bgjh2rcd13ifvqbf0","pricing_plan_id":"cebpf4jnsgd1na2vs0mg"},{"bike_id":"73ea8c1e-fe4d-4c2d-9439-97425d5c2202","system_id":"levelo_inurba_marseille","lat":43.30176,"lon":5.36611,"is_reserved":false,"is_disabled":false,"rental_uris":{"android":"levelo://app?vid=73ea8c1e-fe4d-4c2d-9439-97425d5c2202","ios":"levelo://app?vid=73ea8c1e-fe4d-4c2d-9439-97425d5c2202"},"vehicle_type_id":"4","last_reported":1731276446,"current_range_meters":32800,"station_id":"ce4bgrh2rcd13ifvqc8g","pricing_plan_id":"cebpf4jnsgd1na2vs0mg"},{"bike_id":"1a981603-4cfd-4ee0-ab63-1a1a4edc7ebf","system_id":"levelo_inurba_marseille","lat":43.29079,"lon":5.37172,"is_reserved":false,"is_disabled":false,"rental_uris":{"android":"levelo://app?vid=1a981603-4cfd-4ee0-ab63-1a1a4edc7ebf","ios":"levelo://app?vid=1a981603-4cfd-4ee0-ab63-1a1a4edc7ebf"},"vehicle_type_id":"4","last_reported":1731276446,"current_range_meters":31200,"station_id":"ce4bh5p2rcd13ifvqe4g","pricing_plan_id":"cebpf4jnsgd1na2vs0mg"},{"bike_id":"f5e15a2f-e8a2-4d92-b750-56640dcc1ec0","system_id":"levelo_inurba_marseille","lat":43.33025,"lon":5.39041,"is_reserved":false,"is_disabled":false,"rental_uris":{"android":"levelo://app?vid=f5e15a2f-e8a2-4d92-b750-56640dcc1ec0","ios":"levelo://app?vid=f5e15a2f-e8a2-4d92-b750-56640dcc1ec0"},"vehicle_type_id":"4","last_reported":1731276446,"current_range_meters":18000,"station_id":"ce4bhr92rcd13ifvqhrg","pricing_plan_id":"cebpf4jnsgd1na2vs0mg"},{"bike_id":"c3d64d8b-5404-496b-83b4-e5beb18492b7","system_id":"levelo_inurba_marseille","lat":43.28418,"lon":5.37516,"is_reserved":false,"is_disabled":false,"rental_uris":{"android":"levelo://app?vid=c3d64d8b-5404-496b-83b4-e5beb18492b7","ios":"levelo://app?vid=c3d64d8b-5404-496b-83b4-e5beb18492b7"},"vehicle_type_id":"4","last_reported":1731276446,"current_range_meters":36000,"station_id":"ce4bh412rcd13ifvqds0","pricing_plan_id":"cebpf4jnsgd1na2vs0mg"},{"bike_id":"a2e5ddff-4ce0-4b50-a41b-da32cbe547d2","system_id":"levelo_inurba_marseille","lat":43.29413,"lon":5.38628,"is_reserved":false,"is_disabled":false,"rental_uris":{"android":"levelo://app?vid=a2e5ddff-4ce0-4b50-a41b-da32cbe547d2","ios":"levelo://app?vid=a2e5ddff-4ce0-4b50-a41b-da32cbe547d2"},"vehicle_type_id":"4","last_reported":1731276446,"current_range_meters":16400,"station_id":"ce4bh2h2rcd13ifvqdh0","pricing_plan_id":"cebpf4jnsgd1na2vs0mg"},{"bike_id":"b9478b1d-79e3-44c9-ae60-496dd5151f62","system_id":"levelo_inurba_marseille","lat":43.29168,"lon":5.37149,"is_reserved":false,"is_disabled":false,"rental_uris":{"android":"levelo://app?vid=b9478b1d-79e3-44c9-ae60-496dd5151f62","ios":"levelo://app?vid=b9478b1d-79e3-44c9-ae60-496dd5151f62"},"vehicle_type_id":"4","last_reported":1731276446,"current_range_meters":28800,"station_id":"ce4bha92rcd13ifvqeh0","pricing_plan_id":"cebpf4jnsgd1na2vs0mg"},{"bike_id":"5664a216-e412-4df3-a7fb-b1e39e7bf9b6","system_id":"levelo_inurba_marseille","lat":43.24677,"lon":5.3816,"is_reserved":false,"is_disabled":false,"rental_uris":{"android":"levelo://app?vid=5664a216-e412-4df3-a7fb-b1e39e7bf9b6","ios":"levelo://app?vid=5664a216-e412-4df3-a7fb-b1e39e7bf9b6"},"vehicle_type_id":"4","last_reported":1731276446,"current_range_meters":32000,"station_id":"ce4bhih2rcd13ifvqfr0","pricing_plan_id":"cebpf4jnsgd1na2vs0mg"},{"bike_id":"eb7f2906-b458-476c-9daa-9e60c1ee4455","system_id":"levelo_inurba_marseille","lat":43.28152,"lon":5.42638,"is_reserved":false,"is_disabled":false,"rental_uris":{"android":"levelo://app?vid=eb7f2906-b458-476c-9daa-9e60c1ee4455","ios":"levelo://app?vid=eb7f2906-b458-476c-9daa-9e60c1ee4455"},"vehicle_type_id":"4","last_reported":1731276446,"current_range_meters":3600,"station_id":"ce4bhnh2rcd13ifvqgug","pricing_plan_id":"cebpf4jnsgd1na2vs0mg"},{"bike_id":"eac51d77-7bf7-43cd-96f4-7bf37e90a22d","system_id":"levelo_inurba_marseille","lat":43.32116,"lon":5.36766,"is_reserved":false,"is_disabled":false,"rental_uris":{"android":"levelo://app?vid=eac51d77-7bf7-43cd-96f4-7bf37e90a22d","ios":"levelo://app?vid=eac51d77-7bf7-43cd-96f4-7bf37e90a22d"},"vehicle_type_id":"4","last_reported":1731276446,"current_range_meters":7200,"station_id":"ce4bhrh2rcd13ifvqhug","pricing_plan_id":"cebpf4jnsgd1na2vs0mg"},{"bike_id":"1c4c16bf-baaa-4155-8353-86d5ba0cc6fa","system_id":"levelo_inurba_marseille","lat":43.2843,"lon":5.39199,"is_reserved":false,"is_disabled":false,"rental_uris":{"android":"levelo://app?vid=1c4c16bf-baaa-4155-8353-86d5ba0cc6fa","ios":"levelo://app?vid=1c4c16bf-baaa-4155-8353-86d5ba0cc6fa"},"vehicle_type_id":"4","last_reported":1731276446,"current_range_meters":38800,"station_id":"ce4bhoh2rcd13ifvqh5g","pricing_plan_id":"cebpf4jnsgd1na2vs0mg"},{"bike_id":"f32c9343-b753-4b4c-9313-033fb01441d1","system_id":"levelo_inurba_marseille","lat":43.29763,"lon":5.37798,"is_reserved":false,"is_disabled":false,"rental_uris":{"android":"levelo://app?vid=f32c9343-b753-4b4c-9313-033fb01441d1","ios":"levelo://app?vid=f32c9343-b753-4b4c-9313-033fb01441d1"},"vehicle_type_id":"4","last_reported":1731276446,"current_range_meters":19200,"station_id":"","pricing_plan_id":"cebpf4jnsgd1na2vs0mg"},{"bike_id":"33285ff8-d72b-41c2-9cba-25a4b7e6e9b5","system_id":"levelo_inurba_marseille","lat":43.29633,"lon":5.40604,"is_reserved":false,"is_disabled":false,"rental_uris":{"android":"levelo://app?vid=33285ff8-d72b-41c2-9cba-25a4b7e6e9b5","ios":"levelo://app?vid=33285ff8-d72b-41c2-9cba-25a4b7e6e9b5"},"vehicle_type_id":"4","last_reported":1731276446,"current_range_meters":27200,"station_id":"ce4bh0h2rcd13ifvqd60","pricing_plan_id":"cebpf4jnsgd1na2vs0mg"},{"bike_id":"c853d64b-97bb-4172-a6fa-f2cf9b1d8cd6","system_id":"levelo_inurba_marseille","lat":43.29518,"lon":5.385919,"is_reserved":false,"is_disabled":false,"rental_uris":{"android":"levelo://app?vid=c853d64b-97bb-4172-a6fa-f2cf9b1d8cd6","ios":"levelo://app?vid=c853d64b-97bb-4172-a6fa-f2cf9b1d8cd6"},"vehicle_type_id":"4","last_reported":1731276446,"current_range_meters":17600,"station_id":"ce4bh092rcd13ifvqd20","pricing_plan_id":"cebpf4jnsgd1na2vs0mg"},{"bike_id":"84032cfd-f507-4ffb-bfcd-2961831b6f3d","system_id":"levelo_inurba_marseille","lat":43.28718,"lon":5.37938,"is_reserved":false,"is_disabled":false,"rental_uris":{"android":"levelo://app?vid=84032cfd-f507-4ffb-bfcd-2961831b6f3d","ios":"levelo://app?vid=84032cfd-f507-4ffb-bfcd-2961831b6f3d"},"vehicle_type_id":"4","last_reported":1731276446,"current_range_meters":34000,"station_id":"ce4bh9p2rcd13ifvqec0","pricing_plan_id":"cebpf4jnsgd1na2vs0mg"},{"bike_id":"b16aa225-e7e1-49f5-9191-4c436fc72638","system_id":"levelo_inurba_marseille","lat":43.23965,"lon":5.36618,"is_reserved":false,"is_disabled":false,"rental_uris":{"android":"levelo://app?vid=b16aa225-e7e1-49f5-9191-4c436fc72638","ios":"levelo://app?vid=b16aa225-e7e1-49f5-9191-4c436fc72638"},"vehicle_type_id":"4","last_reported":1731276446,"current_range_meters":2000,"station_id":"ce4bhi12rcd13ifvqfp0","pricing_plan_id":"cebpf4jnsgd1na2vs0mg"},{"bike_id":"ca629b3c-5d08-4f3a-96bf-1acb80743f1e","system_id":"levelo_inurba_marseille","lat":43.29263,"lon":5.40895,"is_reserved":false,"is_disabled":false,"rental_uris":{"android":"levelo://app?vid=ca629b3c-5d08-4f3a-96bf-1acb80743f1e","ios":"levelo://app?vid=ca629b3c-5d08-4f3a-96bf-1acb80743f1e"},"vehicle_type_id":"4","last_reported":1731276446,"current_range_meters":33600,"station_id":"ce4bh192rcd13ifvqdc0","pricing_plan_id":"cebpf4jnsgd1na2vs0mg"},{"bike_id":"489b672c-9f71-4c7e-abe4-e6dc15515dd7","system_id":"levelo_inurba_marseille","lat":43.31327,"lon":5.39689,"is_reserved":false,"is_disabled":false,"rental_uris":{"android":"levelo://app?vid=489b672c-9f71-4c7e-abe4-e6dc15515dd7","ios":"levelo://app?vid=489b672c-9f71-4c7e-abe4-e6dc15515dd7"},"vehicle_type_id":"4","last_reported":1731276446,"current_range_meters":34000,"station_id":"ce4bgvp2rcd13ifvqcu0","pricing_plan_id":"cebpf4jnsgd1na2vs0mg"},{"bike_id":"465ef657-63c6-4af2-8920-28c4dcb4d943","system_id":"levelo_inurba_marseille","lat":43.29039,"lon":5.39964,"is_reserved":false,"is_disabled":false,"rental_uris":{"android":"levelo://app?vid=465ef657-63c6-4af2-8920-28c4dcb4d943","ios":"levelo://app?vid=465ef657-63c6-4af2-8920-28c4dcb4d943"},"vehicle_type_id":"4","last_reported":1731276446,"current_range_meters":38400,"station_id":"ce4bh392rcd13ifvqdm0","pricing_plan_id":"cebpf4jnsgd1na2vs0mg"},{"bike_id":"63d7048d-abab-4c3f-ab4b-2279844d411e","system_id":"levelo_inurba_marseille","lat":43.31482,"lon":5.37298,"is_reserved":false,"is_disabled":false,"rental_uris":{"android":"levelo://app?vid=63d7048d-abab-4c3f-ab4b-2279844d411e","ios":"levelo://app?vid=63d7048d-abab-4c3f-ab4b-2279844d411e"},"vehicle_type_id":"4","last_reported":1731276446,"current_range_meters":38800,"station_id":"ce4bgt12rcd13ifvqcd0","pricing_plan_id":"cebpf4jnsgd1na2vs0mg"},{"bike_id":"85e2f4f3-6aa2-4c02-8cb0-3f10017cc61a","system_id":"levelo_inurba_marseille","lat":43.25085,"lon":5.39517,"is_reserved":false,"is_disabled":false,"rental_uris":{"android":"levelo://app?vid=85e2f4f3-6aa2-4c02-8cb0-3f10017cc61a","ios":"levelo://app?vid=85e2f4f3-6aa2-4c02-8cb0-3f10017cc61a"},"vehicle_type_id":"4","last_reported":1731276446,"current_range_meters":39200,"station_id":"ce4bhm12rcd13ifvqgkg","pricing_plan_id":"cebpf4jnsgd1na2vs0mg"},{"bike_id":"010f34fa-5fe4-441f-a433-65d10dd050db","system_id":"levelo_inurba_marseille","lat":43.29554,"lon":5.4229,"is_reserved":false,"is_disabled":false,"rental_uris":{"android":"levelo://app?vid=010f34fa-5fe4-441f-a433-65d10dd050db","ios":"levelo://app?vid=010f34fa-5fe4-441f-a433-65d10dd050db"},"vehicle_type_id":"4","last_reported":1731276446,"current_range_meters":25600,"station_id":"ce4bhph2rcd13ifvqhdg","pricing_plan_id":"cebpf4jnsgd1na2vs0mg"},{"bike_id":"02e5dafe-fcef-4405-9cf5-47651341713d","system_id":"levelo_inurba_marseille","lat":43.24171,"lon":5.36395,"is_reserved":false,"is_disabled":false,"rental_uris":{"android":"levelo://app?vid=02e5dafe-fcef-4405-9cf5-47651341713d","ios":"levelo://app?vid=02e5dafe-fcef-4405-9cf5-47651341713d"},"vehicle_type_id":"4","last_reported":1731276446,"current_range_meters":6800,"station_id":"cpo36qri1sfpv3e86is0","pricing_plan_id":"cebpf4jnsgd1na2vs0mg"},{"bike_id":"8993c22b-262e-40d3-81a6-0c0dc6b7edf7","system_id":"levelo_inurba_marseille","lat":43.28934,"lon":5.36631,"is_reserved":false,"is_disabled":false,"rental_uris":{"android":"levelo://app?vid=8993c22b-262e-40d3-81a6-0c0dc6b7edf7","ios":"levelo://app?vid=8993c22b-262e-40d3-81a6-0c0dc6b7edf7"},"vehicle_type_id":"4","last_reported":1731276446,"current_range_meters":38000,"station_id":"ce4bhap2rcd13ifvqek0","pricing_plan_id":"cebpf4jnsgd1na2vs0mg"},{"bike_id":"f8cfdd82-8d04-4431-ab55-2f120a65a0f5","system_id":"levelo_inurba_marseille","lat":43.2987,"lon":5.3973,"is_reserved":false,"is_disabled":false,"rental_uris":{"android":"levelo://app?vid=f8cfdd82-8d04-4431-ab55-2f120a65a0f5","ios":"levelo://app?vid=f8cfdd82-8d04-4431-ab55-2f120a65a0f5"},"vehicle_type_id":"4","last_reported":1731276446,"current_range_meters":26000,"station_id":"ce4bh0h2rcd13ifvqd50","pricing_plan_id":"cebpf4jnsgd1na2vs0mg"},{"bike_id":"cbbf72bb-7106-410a-baec-4c97b8ecaa3c","system_id":"levelo_inurba_marseille","lat":43.31531,"lon":5.37305,"is_reserved":false,"is_disabled":false,"rental_uris":{"android":"levelo://app?vid=cbbf72bb-7106-410a-baec-4c97b8ecaa3c","ios":"levelo://app?vid=cbbf72bb-7106-410a-baec-4c97b8ecaa3c"},"vehicle_type_id":"4","last_reported":1731276446,"current_range_meters":38800,"station_id":"","pricing_plan_id":"cebpf4jnsgd1na2vs0mg"},{"bike_id":"29474779-dc90-4ba2-b48c-911f6e0c5c08","system_id":"levelo_inurba_marseille","lat":43.30433,"lon":5.38887,"is_reserved":false,"is_disabled":false,"rental_uris":{"android":"levelo://app?vid=29474779-dc90-4ba2-b48c-911f6e0c5c08","ios":"levelo://app?vid=29474779-dc90-4ba2-b48c-911f6e0c5c08"},"vehicle_type_id":"4","last_reported":1731276446,"current_range_meters":12000,"station_id":"ce4bgk12rcd13ifvqbi0","pricing_plan_id":"cebpf4jnsgd1na2vs0mg"},{"bike_id":"47c8651c-41a7-4b07-b3d0-de53e215e982","system_id":"levelo_inurba_marseille","lat":43.33604,"lon":5.41024,"is_reserved":false,"is_disabled":false,"rental_uris":{"android":"levelo://app?vid=47c8651c-41a7-4b07-b3d0-de53e215e982","ios":"levelo://app?vid=47c8651c-41a7-4b07-b3d0-de53e215e982"},"vehicle_type_id":"4","last_reported":1731276446,"current_range_meters":16000,"station_id":"ce4bhqh2rcd13ifvqhmg","pricing_plan_id":"cebpf4jnsgd1na2vs0mg"},{"bike_id":"8bac9053-3887-4a8c-beaf-c9a3ca84e1f9","system_id":"levelo_inurba_marseille","lat":43.29911,"lon":5.37439,"is_reserved":false,"is_disabled":false,"rental_uris":{"android":"levelo://app?vid=8bac9053-3887-4a8c-beaf-c9a3ca84e1f9","ios":"levelo://app?vid=8bac9053-3887-4a8c-beaf-c9a3ca84e1f9"},"vehicle_type_id":"4","last_reported":1731276446,"current_range_meters":37600,"station_id":"ce4bgjh2rcd13ifvqbg0","pricing_plan_id":"cebpf4jnsgd1na2vs0mg"},{"bike_id":"7c4f5f1c-61d2-4950-845d-ba73306a290c","system_id":"levelo_inurba_marseille","lat":43.28462,"lon":5.35877,"is_reserved":false,"is_disabled":false,"rental_uris":{"android":"levelo://app?vid=7c4f5f1c-61d2-4950-845d-ba73306a290c","ios":"levelo://app?vid=7c4f5f1c-61d2-4950-845d-ba73306a290c"},"vehicle_type_id":"4","last_reported":1731276446,"current_range_meters":28400,"station_id":"ce4bhah2rcd13ifvqei0","pricing_plan_id":"cebpf4jnsgd1na2vs0mg"},{"bike_id":"828e709c-f470-4ce4-a337-9e3ef482e353","system_id":"levelo_inurba_marseille","lat":43.24806,"lon":5.37457,"is_reserved":false,"is_disabled":false,"rental_uris":{"android":"levelo://app?vid=828e709c-f470-4ce4-a337-9e3ef482e353","ios":"levelo://app?vid=828e709c-f470-4ce4-a337-9e3ef482e353"},"vehicle_type_id":"4","last_reported":1731276446,"current_range_meters":9200,"station_id":"ce4bhgh2rcd13ifvqfb0","pricing_plan_id":"cebpf4jnsgd1na2vs0mg"},{"bike_id":"61ebae1e-7e43-4156-bc77-b929042392dc","system_id":"levelo_inurba_marseille","lat":43.29163,"lon":5.37149,"is_reserved":false,"is_disabled":false,"rental_uris":{"android":"levelo://app?vid=61ebae1e-7e43-4156-bc77-b929042392dc","ios":"levelo://app?vid=61ebae1e-7e43-4156-bc77-b929042392dc"},"vehicle_type_id":"4","last_reported":1731276446,"current_range_meters":36800,"station_id":"ce4bha92rcd13ifvqeh0","pricing_plan_id":"cebpf4jnsgd1na2vs0mg"},{"bike_id":"88d3f98d-5593-457e-b86b-279db7794a34","system_id":"levelo_inurba_marseille","lat":43.33026,"lon":5.39041,"is_reserved":false,"is_disabled":false,"rental_uris":{"android":"levelo://app?vid=88d3f98d-5593-457e-b86b-279db7794a34","ios":"levelo://app?vid=88d3f98d-5593-457e-b86b-279db7794a34"},"vehicle_type_id":"4","last_reported":1731276446,"current_range_meters":37600,"station_id":"ce4bhr92rcd13ifvqhrg","pricing_plan_id":"cebpf4jnsgd1na2vs0mg"},{"bike_id":"ea1c39cc-6666-4ec8-8bcb-eb2ccb0663a6","system_id":"levelo_inurba_marseille","lat":43.2954,"lon":5.38535,"is_reserved":false,"is_disabled":false,"rental_uris":{"android":"levelo://app?vid=ea1c39cc-6666-4ec8-8bcb-eb2ccb0663a6","ios":"levelo://app?vid=ea1c39cc-6666-4ec8-8bcb-eb2ccb0663a6"},"vehicle_type_id":"4","last_reported":1731276446,"current_range_meters":34800,"station_id":"ce4bgih2rcd13ifvqba0","pricing_plan_id":"cebpf4jnsgd1na2vs0mg"},{"bike_id":"ed37fa80-e203-4ce9-a4e7-5ed188b31a8b","system_id":"levelo_inurba_marseille","lat":43.27205,"lon":5.39186,"is_reserved":false,"is_disabled":false,"rental_uris":{"android":"levelo://app?vid=ed37fa80-e203-4ce9-a4e7-5ed188b31a8b","ios":"levelo://app?vid=ed37fa80-e203-4ce9-a4e7-5ed188b31a8b"},"vehicle_type_id":"4","last_reported":1731276446,"current_range_meters":38800,"station_id":"ce4bhhp2rcd13ifvqfm0","pricing_plan_id":"cebpf4jnsgd1na2vs0mg"},{"bike_id":"25f2aab5-1c14-47cc-acc5-4aeebede3bf6","system_id":"levelo_inurba_marseille","lat":43.29257,"lon":5.40908,"is_reserved":false,"is_disabled":false,"rental_uris":{"android":"levelo://app?vid=25f2aab5-1c14-47cc-acc5-4aeebede3bf6","ios":"levelo://app?vid=25f2aab5-1c14-47cc-acc5-4aeebede3bf6"},"vehicle_type_id":"4","last_reported":1731276446,"current_range_meters":32400,"station_id":"ce4bh192rcd13ifvqdc0","pricing_plan_id":"cebpf4jnsgd1na2vs0mg"},{"bike_id":"d787b3cb-d8f4-49d7-83f5-7326dbc3a76b","system_id":"levelo_inurba_marseille","lat":43.2844,"lon":5.39175,"is_reserved":false,"is_disabled":false,"rental_uris":{"android":"levelo://app?vid=d787b3cb-d8f4-49d7-83f5-7326dbc3a76b","ios":"levelo://app?vid=d787b3cb-d8f4-49d7-83f5-7326dbc3a76b"},"vehicle_type_id":"4","last_reported":1731276446,"current_range_meters":33200,"station_id":"ce4bhoh2rcd13ifvqh5g","pricing_plan_id":"cebpf4jnsgd1na2vs0mg"},{"bike_id":"1ee9f643-eb82-4de4-8408-716174a84576","system_id":"levelo_inurba_marseille","lat":43.31073,"lon":5.38357,"is_reserved":false,"is_disabled":false,"rental_uris":{"android":"levelo://app?vid=1ee9f643-eb82-4de4-8408-716174a84576","ios":"levelo://app?vid=1ee9f643-eb82-4de4-8408-716174a84576"},"vehicle_type_id":"4","last_reported":1731276446,"current_range_meters":23200,"station_id":"ce4bgv92rcd13ifvqcr0","pricing_plan_id":"cebpf4jnsgd1na2vs0mg"},{"bike_id":"ca6bc757-afb2-47ae-8348-d50290e625d2","system_id":"levelo_inurba_marseille","lat":43.24811,"lon":5.37462,"is_reserved":false,"is_disabled":false,"rental_uris":{"android":"levelo://app?vid=ca6bc757-afb2-47ae-8348-d50290e625d2","ios":"levelo://app?vid=ca6bc757-afb2-47ae-8348-d50290e625d2"},"vehicle_type_id":"4","last_reported":1731276446,"current_range_meters":32800,"station_id":"ce4bhgh2rcd13ifvqfb0","pricing_plan_id":"cebpf4jnsgd1na2vs0mg"},{"bike_id":"da77c34d-7889-4891-a3fb-3bbc62c64651","system_id":"levelo_inurba_marseille","lat":43.25112,"lon":5.40328,"is_reserved":false,"is_disabled":false,"rental_uris":{"android":"levelo://app?vid=da77c34d-7889-4891-a3fb-3bbc62c64651","ios":"levelo://app?vid=da77c34d-7889-4891-a3fb-3bbc62c64651"},"vehicle_type_id":"4","last_reported":1731276446,"current_range_meters":8400,"station_id":"ce4bhlh2rcd13ifvqgig","pricing_plan_id":"cebpf4jnsgd1na2vs0mg"},{"bike_id":"7c0cb028-e14a-4ce8-9521-fd167b9559e4","system_id":"levelo_inurba_marseille","lat":43.29252,"lon":5.40907,"is_reserved":false,"is_disabled":false,"rental_uris":{"android":"levelo://app?vid=7c0cb028-e14a-4ce8-9521-fd167b9559e4","ios":"levelo://app?vid=7c0cb028-e14a-4ce8-9521-fd167b9559e4"},"vehicle_type_id":"4","last_reported":1731276446,"current_range_meters":30000,"station_id":"ce4bh192rcd13ifvqdc0","pricing_plan_id":"cebpf4jnsgd1na2vs0mg"},{"bike_id":"39c77ac4-2f02-4845-ab2d-b02e9144afb0","system_id":"levelo_inurba_marseille","lat":43.27201,"lon":5.39193,"is_reserved":false,"is_disabled":false,"rental_uris":{"android":"levelo://app?vid=39c77ac4-2f02-4845-ab2d-b02e9144afb0","ios":"levelo://app?vid=39c77ac4-2f02-4845-ab2d-b02e9144afb0"},"vehicle_type_id":"4","last_reported":1731276446,"current_range_meters":38400,"station_id":"ce4bhhp2rcd13ifvqfm0","pricing_plan_id":"cebpf4jnsgd1na2vs0mg"},{"bike_id":"c248e6ea-a25f-4c63-bbcb-77234e8dbe04","system_id":"levelo_inurba_marseille","lat":43.28722,"lon":5.37941,"is_reserved":false,"is_disabled":false,"rental_uris":{"android":"levelo://app?vid=c248e6ea-a25f-4c63-bbcb-77234e8dbe04","ios":"levelo://app?vid=c248e6ea-a25f-4c63-bbcb-77234e8dbe04"},"vehicle_type_id":"4","last_reported":1731276446,"current_range_meters":18000,"station_id":"ce4bh9p2rcd13ifvqec0","pricing_plan_id":"cebpf4jnsgd1na2vs0mg"},{"bike_id":"d5349297-e0f7-440a-abba-c2504a87c7b8","system_id":"levelo_inurba_marseille","lat":43.30931,"lon":5.40146,"is_reserved":false,"is_disabled":false,"rental_uris":{"android":"levelo://app?vid=d5349297-e0f7-440a-abba-c2504a87c7b8","ios":"levelo://app?vid=d5349297-e0f7-440a-abba-c2504a87c7b8"},"vehicle_type_id":"4","last_reported":1731276446,"current_range_meters":38800,"station_id":"ce4bgvp2rcd13ifvqct0","pricing_plan_id":"cebpf4jnsgd1na2vs0mg"},{"bike_id":"f14e9aa6-6b4e-4d6b-8267-db1c692225ee","system_id":"levelo_inurba_marseille","lat":43.31218,"lon":5.3685,"is_reserved":false,"is_disabled":false,"rental_uris":{"android":"levelo://app?vid=f14e9aa6-6b4e-4d6b-8267-db1c692225ee","ios":"levelo://app?vid=f14e9aa6-6b4e-4d6b-8267-db1c692225ee"},"vehicle_type_id":"4","last_reported":1731276446,"current_range_meters":8400,"station_id":"ce4bgl92rcd13ifvqbq0","pricing_plan_id":"cebpf4jnsgd1na2vs0mg"},{"bike_id":"f204905c-7b94-45eb-bd5e-9b72157ae1f2","system_id":"levelo_inurba_marseille","lat":43.23191,"lon":5.39971,"is_reserved":false,"is_disabled":false,"rental_uris":{"android":"levelo://app?vid=f204905c-7b94-45eb-bd5e-9b72157ae1f2","ios":"levelo://app?vid=f204905c-7b94-45eb-bd5e-9b72157ae1f2"},"vehicle_type_id":"4","last_reported":1731276446,"current_range_meters":38400,"station_id":"ce4bhn12rcd13ifvqgqg","pricing_plan_id":"cebpf4jnsgd1na2vs0mg"},{"bike_id":"91b740ca-dbb7-4cd3-96e5-13c11d695e93","system_id":"levelo_inurba_marseille","lat":43.28699,"lon":5.39983,"is_reserved":false,"is_disabled":false,"rental_uris":{"android":"levelo://app?vid=91b740ca-dbb7-4cd3-96e5-13c11d695e93","ios":"levelo://app?vid=91b740ca-dbb7-4cd3-96e5-13c11d695e93"},"vehicle_type_id":"4","last_reported":1731276446,"current_range_meters":38800,"station_id":"ce4bho92rcd13ifvqh3g","pricing_plan_id":"cebpf4jnsgd1na2vs0mg"},{"bike_id":"58ceec2c-27a7-4167-830d-1db21b70846c","system_id":"levelo_inurba_marseille","lat":43.31758,"lon":5.39017,"is_reserved":false,"is_disabled":false,"rental_uris":{"android":"levelo://app?vid=58ceec2c-27a7-4167-830d-1db21b70846c","ios":"levelo://app?vid=58ceec2c-27a7-4167-830d-1db21b70846c"},"vehicle_type_id":"4","last_reported":1731276446,"current_range_meters":38800,"station_id":"ce4bhqp2rcd13ifvqhng","pricing_plan_id":"cebpf4jnsgd1na2vs0mg"},{"bike_id":"dfef71e5-d7a5-48f1-ab36-2cc15550dff9","system_id":"levelo_inurba_marseille","lat":43.28109,"lon":5.37834,"is_reserved":false,"is_disabled":false,"rental_uris":{"android":"levelo://app?vid=dfef71e5-d7a5-48f1-ab36-2cc15550dff9","ios":"levelo://app?vid=dfef71e5-d7a5-48f1-ab36-2cc15550dff9"},"vehicle_type_id":"4","last_reported":1731276446,"current_range_meters":14000,"station_id":"ce4bha12rcd13ifvqee0","pricing_plan_id":"cebpf4jnsgd1na2vs0mg"},{"bike_id":"7c040458-0d9d-4dba-8be9-eb133f22a51b","system_id":"levelo_inurba_marseille","lat":43.31167,"lon":5.38717,"is_reserved":false,"is_disabled":false,"rental_uris":{"android":"levelo://app?vid=7c040458-0d9d-4dba-8be9-eb133f22a51b","ios":"levelo://app?vid=7c040458-0d9d-4dba-8be9-eb133f22a51b"},"vehicle_type_id":"4","last_reported":1731276446,"current_range_meters":38800,"station_id":"ce4bgv12rcd13ifvqcp0","pricing_plan_id":"cebpf4jnsgd1na2vs0mg"},{"bike_id":"820a30a6-4b5c-45ec-9763-3d0da061e275","system_id":"levelo_inurba_marseille","lat":43.30803,"lon":5.38157,"is_reserved":false,"is_disabled":false,"rental_uris":{"android":"levelo://app?vid=820a30a6-4b5c-45ec-9763-3d0da061e275","ios":"levelo://app?vid=820a30a6-4b5c-45ec-9763-3d0da061e275"},"vehicle_type_id":"4","last_reported":1731276446,"current_range_meters":30400,"station_id":"ce4bgt12rcd13ifvqce0","pricing_plan_id":"cebpf4jnsgd1na2vs0mg"},{"bike_id":"181fa628-fd06-4339-88f4-5d411c857699","system_id":"levelo_inurba_marseille","lat":43.27073,"lon":5.42277,"is_reserved":false,"is_disabled":false,"rental_uris":{"android":"levelo://app?vid=181fa628-fd06-4339-88f4-5d411c857699","ios":"levelo://app?vid=181fa628-fd06-4339-88f4-5d411c857699"},"vehicle_type_id":"4","last_reported":1731276446,"current_range_meters":7200,"station_id":"ce4bhk92rcd13ifvqgb0","pricing_plan_id":"cebpf4jnsgd1na2vs0mg"},{"bike_id":"f054ca35-33b8-4b86-b110-2f02434cfd09","system_id":"levelo_inurba_marseille","lat":43.29636,"lon":5.40598,"is_reserved":false,"is_disabled":false,"rental_uris":{"android":"levelo://app?vid=f054ca35-33b8-4b86-b110-2f02434cfd09","ios":"levelo://app?vid=f054ca35-33b8-4b86-b110-2f02434cfd09"},"vehicle_type_id":"4","last_reported":1731276446,"current_range_meters":28000,"station_id":"ce4bh0h2rcd13ifvqd60","pricing_plan_id":"cebpf4jnsgd1na2vs0mg"},{"bike_id":"92a5c258-ca2d-4100-b1fe-788c222ff11b","system_id":"levelo_inurba_marseille","lat":43.26492,"lon":5.39539,"is_reserved":false,"is_disabled":false,"rental_uris":{"android":"levelo://app?vid=92a5c258-ca2d-4100-b1fe-788c222ff11b","ios":"levelo://app?vid=92a5c258-ca2d-4100-b1fe-788c222ff11b"},"vehicle_type_id":"4","last_reported":1731276446,"current_range_meters":28400,"station_id":"ce4bhi12rcd13ifvqfq0","pricing_plan_id":"cebpf4jnsgd1na2vs0mg"},{"bike_id":"e193da84-3188-45b5-9fe0-86924a122ac2","system_id":"levelo_inurba_marseille","lat":43.25121,"lon":5.40318,"is_reserved":false,"is_disabled":false,"rental_uris":{"android":"levelo://app?vid=e193da84-3188-45b5-9fe0-86924a122ac2","ios":"levelo://app?vid=e193da84-3188-45b5-9fe0-86924a122ac2"},"vehicle_type_id":"4","last_reported":1731276446,"current_range_meters":38800,"station_id":"ce4bhlh2rcd13ifvqgig","pricing_plan_id":"cebpf4jnsgd1na2vs0mg"},{"bike_id":"9a5eb101-92a2-4eeb-93bd-8d070d90c1ea","system_id":"levelo_inurba_marseille","lat":43.30433,"lon":5.42528,"is_reserved":false,"is_disabled":false,"rental_uris":{"android":"levelo://app?vid=9a5eb101-92a2-4eeb-93bd-8d070d90c1ea","ios":"levelo://app?vid=9a5eb101-92a2-4eeb-93bd-8d070d90c1ea"},"vehicle_type_id":"4","last_reported":1731276446,"current_range_meters":9600,"station_id":"","pricing_plan_id":"cebpf4jnsgd1na2vs0mg"},{"bike_id":"4de74ec0-48a2-4451-a65d-5ac6f613a308","system_id":"levelo_inurba_marseille","lat":43.24816,"lon":5.37464,"is_reserved":false,"is_disabled":false,"rental_uris":{"android":"levelo://app?vid=4de74ec0-48a2-4451-a65d-5ac6f613a308","ios":"levelo://app?vid=4de74ec0-48a2-4451-a65d-5ac6f613a308"},"vehicle_type_id":"4","last_reported":1731276446,"current_range_meters":38000,"station_id":"ce4bhgh2rcd13ifvqfb0","pricing_plan_id":"cebpf4jnsgd1na2vs0mg"},{"bike_id":"c1eb7a5c-e8eb-4c69-84ff-f962a28a03e7","system_id":"levelo_inurba_marseille","lat":43.281281,"lon":5.405336,"is_reserved":false,"is_disabled":false,"rental_uris":{"android":"levelo://app?vid=c1eb7a5c-e8eb-4c69-84ff-f962a28a03e7","ios":"levelo://app?vid=c1eb7a5c-e8eb-4c69-84ff-f962a28a03e7"},"vehicle_type_id":"4","last_reported":1731276446,"current_range_meters":34000,"station_id":"","pricing_plan_id":"cebpf4jnsgd1na2vs0mg"},{"bike_id":"478f7092-220a-4c15-b688-f80ac7eea75f","system_id":"levelo_inurba_marseille","lat":43.2997,"lon":5.38491,"is_reserved":false,"is_disabled":false,"rental_uris":{"android":"levelo://app?vid=478f7092-220a-4c15-b688-f80ac7eea75f","ios":"levelo://app?vid=478f7092-220a-4c15-b688-f80ac7eea75f"},"vehicle_type_id":"4","last_reported":1731276446,"current_range_meters":37600,"station_id":"ce4bgj92rcd13ifvqbd0","pricing_plan_id":"cebpf4jnsgd1na2vs0mg"},{"bike_id":"ac2acb69-6c44-475b-bb7b-8b0814e1fd5b","system_id":"levelo_inurba_marseille","lat":43.29377,"lon":5.37847,"is_reserved":false,"is_disabled":false,"rental_uris":{"android":"levelo://app?vid=ac2acb69-6c44-475b-bb7b-8b0814e1fd5b","ios":"levelo://app?vid=ac2acb69-6c44-475b-bb7b-8b0814e1fd5b"},"vehicle_type_id":"4","last_reported":1731276446,"current_range_meters":36800,"station_id":"ce4bgjh2rcd13ifvqbf0","pricing_plan_id":"cebpf4jnsgd1na2vs0mg"},{"bike_id":"4c39aa19-0c48-4846-ae4a-17bcc31d5e1d","system_id":"levelo_inurba_marseille","lat":43.32366,"lon":5.38879,"is_reserved":false,"is_disabled":false,"rental_uris":{"android":"levelo://app?vid=4c39aa19-0c48-4846-ae4a-17bcc31d5e1d","ios":"levelo://app?vid=4c39aa19-0c48-4846-ae4a-17bcc31d5e1d"},"vehicle_type_id":"4","last_reported":1731276446,"current_range_meters":10800,"station_id":"ce4bhqp2rcd13ifvqhog","pricing_plan_id":"cebpf4jnsgd1na2vs0mg"},{"bike_id":"7aed7d18-f422-442e-a36e-6f60682f6903","system_id":"levelo_inurba_marseille","lat":43.28441,"lon":5.39187,"is_reserved":false,"is_disabled":false,"rental_uris":{"android":"levelo://app?vid=7aed7d18-f422-442e-a36e-6f60682f6903","ios":"levelo://app?vid=7aed7d18-f422-442e-a36e-6f60682f6903"},"vehicle_type_id":"4","last_reported":1731276446,"current_range_meters":38800,"station_id":"ce4bhoh2rcd13ifvqh5g","pricing_plan_id":"cebpf4jnsgd1na2vs0mg"},{"bike_id":"a15cb0d6-eba5-4c14-bb10-aacc856e94f0","system_id":"levelo_inurba_marseille","lat":43.29712,"lon":5.36607,"is_reserved":false,"is_disabled":false,"rental_uris":{"android":"levelo://app?vid=a15cb0d6-eba5-4c14-bb10-aacc856e94f0","ios":"levelo://app?vid=a15cb0d6-eba5-4c14-bb10-aacc856e94f0"},"vehicle_type_id":"4","last_reported":1731276446,"current_range_meters":30800,"station_id":"ce4bgn12rcd13ifvqbt0","pricing_plan_id":"cebpf4jnsgd1na2vs0mg"},{"bike_id":"1e7fd650-28c5-42ee-9922-4070c0acdb85","system_id":"levelo_inurba_marseille","lat":43.27492,"lon":5.42454,"is_reserved":false,"is_disabled":false,"rental_uris":{"android":"levelo://app?vid=1e7fd650-28c5-42ee-9922-4070c0acdb85","ios":"levelo://app?vid=1e7fd650-28c5-42ee-9922-4070c0acdb85"},"vehicle_type_id":"4","last_reported":1731276446,"current_range_meters":37600,"station_id":"ce4bhn92rcd13ifvqgrg","pricing_plan_id":"cebpf4jnsgd1na2vs0mg"},{"bike_id":"c36b9d47-5968-445e-8a08-b22bd383465f","system_id":"levelo_inurba_marseille","lat":43.31276,"lon":5.40162,"is_reserved":false,"is_disabled":false,"rental_uris":{"android":"levelo://app?vid=c36b9d47-5968-445e-8a08-b22bd383465f","ios":"levelo://app?vid=c36b9d47-5968-445e-8a08-b22bd383465f"},"vehicle_type_id":"4","last_reported":1731276446,"current_range_meters":38800,"station_id":"ce4bh092rcd13ifvqd30","pricing_plan_id":"cebpf4jnsgd1na2vs0mg"},{"bike_id":"a0c7ccd2-4ee1-482d-96e8-0a58feb4eeb1","system_id":"levelo_inurba_marseille","lat":43.25121,"lon":5.40314,"is_reserved":false,"is_disabled":false,"rental_uris":{"android":"levelo://app?vid=a0c7ccd2-4ee1-482d-96e8-0a58feb4eeb1","ios":"levelo://app?vid=a0c7ccd2-4ee1-482d-96e8-0a58feb4eeb1"},"vehicle_type_id":"4","last_reported":1731276446,"current_range_meters":38800,"station_id":"ce4bhlh2rcd13ifvqgig","pricing_plan_id":"cebpf4jnsgd1na2vs0mg"},{"bike_id":"a83a36a4-9bfa-4d89-b35d-a4d64766c566","system_id":"levelo_inurba_marseille","lat":43.2945,"lon":5.39737,"is_reserved":false,"is_disabled":false,"rental_uris":{"android":"levelo://app?vid=a83a36a4-9bfa-4d89-b35d-a4d64766c566","ios":"levelo://app?vid=a83a36a4-9bfa-4d89-b35d-a4d64766c566"},"vehicle_type_id":"4","last_reported":1731276446,"current_range_meters":38800,"station_id":"ce4bh3h2rcd13ifvqdo0","pricing_plan_id":"cebpf4jnsgd1na2vs0mg"},{"bike_id":"4bf8c72e-6765-4a50-ba21-fb7b3b22f49b","system_id":"levelo_inurba_marseille","lat":43.29421,"lon":5.38607,"is_reserved":false,"is_disabled":false,"rental_uris":{"android":"levelo://app?vid=4bf8c72e-6765-4a50-ba21-fb7b3b22f49b","ios":"levelo://app?vid=4bf8c72e-6765-4a50-ba21-fb7b3b22f49b"},"vehicle_type_id":"4","last_reported":1731276446,"current_range_meters":16400,"station_id":"ce4bh2h2rcd13ifvqdh0","pricing_plan_id":"cebpf4jnsgd1na2vs0mg"},{"bike_id":"c86f9753-23bf-4b0b-99f7-a3303d896d97","system_id":"levelo_inurba_marseille","lat":43.23186,"lon":5.39985,"is_reserved":false,"is_disabled":false,"rental_uris":{"android":"levelo://app?vid=c86f9753-23bf-4b0b-99f7-a3303d896d97","ios":"levelo://app?vid=c86f9753-23bf-4b0b-99f7-a3303d896d97"},"vehicle_type_id":"4","last_reported":1731276446,"current_range_meters":8000,"station_id":"ce4bhn12rcd13ifvqgqg","pricing_plan_id":"cebpf4jnsgd1na2vs0mg"},{"bike_id":"5ab9d430-3d2b-4a66-870b-567fac89b27f","system_id":"levelo_inurba_marseille","lat":43.31326,"lon":5.3969,"is_reserved":false,"is_disabled":false,"rental_uris":{"android":"levelo://app?vid=5ab9d430-3d2b-4a66-870b-567fac89b27f","ios":"levelo://app?vid=5ab9d430-3d2b-4a66-870b-567fac89b27f"},"vehicle_type_id":"4","last_reported":1731276446,"current_range_meters":39200,"station_id":"ce4bgvp2rcd13ifvqcu0","pricing_plan_id":"cebpf4jnsgd1na2vs0mg"},{"bike_id":"28e54028-7741-493c-b6a5-e0c4509a4229","system_id":"levelo_inurba_marseille","lat":43.31225,"lon":5.36859,"is_reserved":false,"is_disabled":false,"rental_uris":{"android":"levelo://app?vid=28e54028-7741-493c-b6a5-e0c4509a4229","ios":"levelo://app?vid=28e54028-7741-493c-b6a5-e0c4509a4229"},"vehicle_type_id":"4","last_reported":1731276446,"current_range_meters":20000,"station_id":"ce4bgl92rcd13ifvqbq0","pricing_plan_id":"cebpf4jnsgd1na2vs0mg"},{"bike_id":"7aa80756-10e7-47f1-9768-cbe28a9c0202","system_id":"levelo_inurba_marseille","lat":43.28722,"lon":5.37942,"is_reserved":false,"is_disabled":false,"rental_uris":{"android":"levelo://app?vid=7aa80756-10e7-47f1-9768-cbe28a9c0202","ios":"levelo://app?vid=7aa80756-10e7-47f1-9768-cbe28a9c0202"},"vehicle_type_id":"4","last_reported":1731276446,"current_range_meters":28800,"station_id":"ce4bh9p2rcd13ifvqec0","pricing_plan_id":"cebpf4jnsgd1na2vs0mg"},{"bike_id":"07704a86-dbed-425a-854d-11b1a4e3d84c","system_id":"levelo_inurba_marseille","lat":43.3376,"lon":5.37446,"is_reserved":false,"is_disabled":false,"rental_uris":{"android":"levelo://app?vid=07704a86-dbed-425a-854d-11b1a4e3d84c","ios":"levelo://app?vid=07704a86-dbed-425a-854d-11b1a4e3d84c"},"vehicle_type_id":"4","last_reported":1731276446,"current_range_meters":28400,"station_id":"","pricing_plan_id":"cebpf4jnsgd1na2vs0mg"},{"bike_id":"bcdb1c87-7f56-4df1-b332-98b270625764","system_id":"levelo_inurba_marseille","lat":43.29305,"lon":5.37167,"is_reserved":false,"is_disabled":false,"rental_uris":{"android":"levelo://app?vid=bcdb1c87-7f56-4df1-b332-98b270625764","ios":"levelo://app?vid=bcdb1c87-7f56-4df1-b332-98b270625764"},"vehicle_type_id":"4","last_reported":1731276446,"current_range_meters":38800,"station_id":"ce4bgh92rcd13ifvqb40","pricing_plan_id":"cebpf4jnsgd1na2vs0mg"},{"bike_id":"0b74ce83-e6b1-4485-8ca6-3897f29a426e","system_id":"levelo_inurba_marseille","lat":43.23962,"lon":5.36625,"is_reserved":false,"is_disabled":false,"rental_uris":{"android":"levelo://app?vid=0b74ce83-e6b1-4485-8ca6-3897f29a426e","ios":"levelo://app?vid=0b74ce83-e6b1-4485-8ca6-3897f29a426e"},"vehicle_type_id":"4","last_reported":1731276446,"current_range_meters":7200,"station_id":"ce4bhi12rcd13ifvqfp0","pricing_plan_id":"cebpf4jnsgd1na2vs0mg"},{"bike_id":"3dc2ccdd-c129-42a6-bc41-18b3a8940c22","system_id":"levelo_inurba_marseille","lat":43.30911,"lon":5.37879,"is_reserved":false,"is_disabled":false,"rental_uris":{"android":"levelo://app?vid=3dc2ccdd-c129-42a6-bc41-18b3a8940c22","ios":"levelo://app?vid=3dc2ccdd-c129-42a6-bc41-18b3a8940c22"},"vehicle_type_id":"4","last_reported":1731276446,"current_range_meters":3600,"station_id":"","pricing_plan_id":"cebpf4jnsgd1na2vs0mg"},{"bike_id":"6a1a5935-385d-4baa-b1a0-aaf8e0d922fa","system_id":"levelo_inurba_marseille","lat":43.23188,"lon":5.39964,"is_reserved":false,"is_disabled":false,"rental_uris":{"android":"levelo://app?vid=6a1a5935-385d-4baa-b1a0-aaf8e0d922fa","ios":"levelo://app?vid=6a1a5935-385d-4baa-b1a0-aaf8e0d922fa"},"vehicle_type_id":"4","last_reported":1731276446,"current_range_meters":11200,"station_id":"ce4bhn12rcd13ifvqgqg","pricing_plan_id":"cebpf4jnsgd1na2vs0mg"},{"bike_id":"a956de5b-2e14-4509-95b0-696e0250f86c","system_id":"levelo_inurba_marseille","lat":43.25618,"lon":5.41172,"is_reserved":false,"is_disabled":false,"rental_uris":{"android":"levelo://app?vid=a956de5b-2e14-4509-95b0-696e0250f86c","ios":"levelo://app?vid=a956de5b-2e14-4509-95b0-696e0250f86c"},"vehicle_type_id":"4","last_reported":1731276446,"current_range_meters":14000,"station_id":"ce4bhkp2rcd13ifvqgd0","pricing_plan_id":"cebpf4jnsgd1na2vs0mg"},{"bike_id":"e8ba0b51-9b96-4e09-bf52-7a0da55cd7db","system_id":"levelo_inurba_marseille","lat":43.31994,"lon":5.38157,"is_reserved":false,"is_disabled":false,"rental_uris":{"android":"levelo://app?vid=e8ba0b51-9b96-4e09-bf52-7a0da55cd7db","ios":"levelo://app?vid=e8ba0b51-9b96-4e09-bf52-7a0da55cd7db"},"vehicle_type_id":"4","last_reported":1731276446,"current_range_meters":27200,"station_id":"ce4bhr12rcd13ifvqhpg","pricing_plan_id":"cebpf4jnsgd1na2vs0mg"},{"bike_id":"d0cd6b5f-bfa6-4889-b4e6-57ee1ebe82be","system_id":"levelo_inurba_marseille","lat":43.29533,"lon":5.38539,"is_reserved":false,"is_disabled":false,"rental_uris":{"android":"levelo://app?vid=d0cd6b5f-bfa6-4889-b4e6-57ee1ebe82be","ios":"levelo://app?vid=d0cd6b5f-bfa6-4889-b4e6-57ee1ebe82be"},"vehicle_type_id":"4","last_reported":1731276446,"current_range_meters":13600,"station_id":"ce4bgih2rcd13ifvqba0","pricing_plan_id":"cebpf4jnsgd1na2vs0mg"},{"bike_id":"1d6bcd65-e2f5-41ed-9e17-e2bd8ea8ab13","system_id":"levelo_inurba_marseille","lat":43.28346,"lon":5.3811,"is_reserved":false,"is_disabled":false,"rental_uris":{"android":"levelo://app?vid=1d6bcd65-e2f5-41ed-9e17-e2bd8ea8ab13","ios":"levelo://app?vid=1d6bcd65-e2f5-41ed-9e17-e2bd8ea8ab13"},"vehicle_type_id":"4","last_reported":1731276446,"current_range_meters":27600,"station_id":"ce4bh412rcd13ifvqdr0","pricing_plan_id":"cebpf4jnsgd1na2vs0mg"},{"bike_id":"90bf0c32-42b2-41e0-96ea-a94b4fee54a4","system_id":"levelo_inurba_marseille","lat":43.30596,"lon":5.37225,"is_reserved":false,"is_disabled":false,"rental_uris":{"android":"levelo://app?vid=90bf0c32-42b2-41e0-96ea-a94b4fee54a4","ios":"levelo://app?vid=90bf0c32-42b2-41e0-96ea-a94b4fee54a4"},"vehicle_type_id":"4","last_reported":1731276446,"current_range_meters":32000,"station_id":"ce4bgqh2rcd13ifvqc4g","pricing_plan_id":"cebpf4jnsgd1na2vs0mg"},{"bike_id":"baac3be3-010c-4ab7-b814-2af962c842f8","system_id":"levelo_inurba_marseille","lat":43.28366,"lon":5.37523,"is_reserved":false,"is_disabled":false,"rental_uris":{"android":"levelo://app?vid=baac3be3-010c-4ab7-b814-2af962c842f8","ios":"levelo://app?vid=baac3be3-010c-4ab7-b814-2af962c842f8"},"vehicle_type_id":"4","last_reported":1731276446,"current_range_meters":24800,"station_id":"ce4bh412rcd13ifvqds0","pricing_plan_id":"cebpf4jnsgd1na2vs0mg"},{"bike_id":"fa2f4cf2-fb97-44fa-9d9f-a88432e2306d","system_id":"levelo_inurba_marseille","lat":43.31222,"lon":5.36854,"is_reserved":false,"is_disabled":false,"rental_uris":{"android":"levelo://app?vid=fa2f4cf2-fb97-44fa-9d9f-a88432e2306d","ios":"levelo://app?vid=fa2f4cf2-fb97-44fa-9d9f-a88432e2306d"},"vehicle_type_id":"4","last_reported":1731276446,"current_range_meters":21600,"station_id":"ce4bgl92rcd13ifvqbq0","pricing_plan_id":"cebpf4jnsgd1na2vs0mg"},{"bike_id":"969227a2-98bf-4ab5-b6d3-e479d8b3607b","system_id":"levelo_inurba_marseille","lat":43.31528,"lon":5.38028,"is_reserved":false,"is_disabled":false,"rental_uris":{"android":"levelo://app?vid=969227a2-98bf-4ab5-b6d3-e479d8b3607b","ios":"levelo://app?vid=969227a2-98bf-4ab5-b6d3-e479d8b3607b"},"vehicle_type_id":"4","last_reported":1731276446,"current_range_meters":25600,"station_id":"ce4bhsp2rcd13ifvqi50","pricing_plan_id":"cebpf4jnsgd1na2vs0mg"},{"bike_id":"e0c4eed6-2d61-4c53-9dab-5057e7e49b7f","system_id":"levelo_inurba_marseille","lat":43.28709,"lon":5.39975,"is_reserved":false,"is_disabled":false,"rental_uris":{"android":"levelo://app?vid=e0c4eed6-2d61-4c53-9dab-5057e7e49b7f","ios":"levelo://app?vid=e0c4eed6-2d61-4c53-9dab-5057e7e49b7f"},"vehicle_type_id":"4","last_reported":1731276446,"current_range_meters":15200,"station_id":"ce4bho92rcd13ifvqh3g","pricing_plan_id":"cebpf4jnsgd1na2vs0mg"},{"bike_id":"c7991350-f502-47da-856b-da455b7bdad1","system_id":"levelo_inurba_marseille","lat":43.23155,"lon":5.43721,"is_reserved":false,"is_disabled":false,"rental_uris":{"android":"levelo://app?vid=c7991350-f502-47da-856b-da455b7bdad1","ios":"levelo://app?vid=c7991350-f502-47da-856b-da455b7bdad1"},"vehicle_type_id":"4","last_reported":1731276446,"current_range_meters":38800,"station_id":"ce4bhmp2rcd13ifvqgog","pricing_plan_id":"cebpf4jnsgd1na2vs0mg"},{"bike_id":"6cde4c04-b0af-4388-b53d-81ed2ec25717","system_id":"levelo_inurba_marseille","lat":43.31761,"lon":5.39005,"is_reserved":false,"is_disabled":false,"rental_uris":{"android":"levelo://app?vid=6cde4c04-b0af-4388-b53d-81ed2ec25717","ios":"levelo://app?vid=6cde4c04-b0af-4388-b53d-81ed2ec25717"},"vehicle_type_id":"4","last_reported":1731276446,"current_range_meters":38400,"station_id":"ce4bhq12rcd13ifvqhig","pricing_plan_id":"cebpf4jnsgd1na2vs0mg"},{"bike_id":"8bc1e43e-b37b-49c8-8367-5379902b4936","system_id":"levelo_inurba_marseille","lat":43.30927,"lon":5.40137,"is_reserved":false,"is_disabled":false,"rental_uris":{"android":"levelo://app?vid=8bc1e43e-b37b-49c8-8367-5379902b4936","ios":"levelo://app?vid=8bc1e43e-b37b-49c8-8367-5379902b4936"},"vehicle_type_id":"4","last_reported":1731276446,"current_range_meters":38800,"station_id":"ce4bgvp2rcd13ifvqct0","pricing_plan_id":"cebpf4jnsgd1na2vs0mg"},{"bike_id":"7c59c113-339d-4f9b-b12b-18190bdaf895","system_id":"levelo_inurba_marseille","lat":43.25088,"lon":5.39517,"is_reserved":false,"is_disabled":false,"rental_uris":{"android":"levelo://app?vid=7c59c113-339d-4f9b-b12b-18190bdaf895","ios":"levelo://app?vid=7c59c113-339d-4f9b-b12b-18190bdaf895"},"vehicle_type_id":"4","last_reported":1731276446,"current_range_meters":39200,"station_id":"ce4bhm12rcd13ifvqgkg","pricing_plan_id":"cebpf4jnsgd1na2vs0mg"},{"bike_id":"5e97f007-3090-4cfe-8ade-5899ee790082","system_id":"levelo_inurba_marseille","lat":43.288147,"lon":5.391796,"is_reserved":false,"is_disabled":false,"rental_uris":{"android":"levelo://app?vid=5e97f007-3090-4cfe-8ade-5899ee790082","ios":"levelo://app?vid=5e97f007-3090-4cfe-8ade-5899ee790082"},"vehicle_type_id":"4","last_reported":1731276446,"current_range_meters":37600,"station_id":"ce4bh2p2rcd13ifvqdi0","pricing_plan_id":"cebpf4jnsgd1na2vs0mg"},{"bike_id":"3d7d5d6d-c6a7-4c5e-94fd-d628aecdce64","system_id":"levelo_inurba_marseille","lat":43.30417,"lon":5.36705,"is_reserved":false,"is_disabled":false,"rental_uris":{"android":"levelo://app?vid=3d7d5d6d-c6a7-4c5e-94fd-d628aecdce64","ios":"levelo://app?vid=3d7d5d6d-c6a7-4c5e-94fd-d628aecdce64"},"vehicle_type_id":"4","last_reported":1731276446,"current_range_meters":15200,"station_id":"","pricing_plan_id":"cebpf4jnsgd1na2vs0mg"},{"bike_id":"2247684c-edc2-405a-aa03-95b9e51392c0","system_id":"levelo_inurba_marseille","lat":43.29263,"lon":5.40913,"is_reserved":false,"is_disabled":false,"rental_uris":{"android":"levelo://app?vid=2247684c-edc2-405a-aa03-95b9e51392c0","ios":"levelo://app?vid=2247684c-edc2-405a-aa03-95b9e51392c0"},"vehicle_type_id":"4","last_reported":1731276446,"current_range_meters":38800,"station_id":"ce4bh192rcd13ifvqdc0","pricing_plan_id":"cebpf4jnsgd1na2vs0mg"},{"bike_id":"c51379d8-4ea9-46bf-a61b-9108abbdf7d2","system_id":"levelo_inurba_marseille","lat":43.28371,"lon":5.38638,"is_reserved":false,"is_disabled":false,"rental_uris":{"android":"levelo://app?vid=c51379d8-4ea9-46bf-a61b-9108abbdf7d2","ios":"levelo://app?vid=c51379d8-4ea9-46bf-a61b-9108abbdf7d2"},"vehicle_type_id":"4","last_reported":1731276446,"current_range_meters":11600,"station_id":"ce4bh492rcd13ifvqdvg","pricing_plan_id":"cebpf4jnsgd1na2vs0mg"},{"bike_id":"e550835f-6ecd-4a76-9b7c-29cc81fd1c2e","system_id":"levelo_inurba_marseille","lat":43.287,"lon":5.37397,"is_reserved":false,"is_disabled":false,"rental_uris":{"android":"levelo://app?vid=e550835f-6ecd-4a76-9b7c-29cc81fd1c2e","ios":"levelo://app?vid=e550835f-6ecd-4a76-9b7c-29cc81fd1c2e"},"vehicle_type_id":"4","last_reported":1731276446,"current_range_meters":36400,"station_id":"ce4bh3p2rcd13ifvqdq0","pricing_plan_id":"cebpf4jnsgd1na2vs0mg"},{"bike_id":"535315bd-f4b8-4681-a177-2ce7f57c3f0b","system_id":"levelo_inurba_marseille","lat":43.29801,"lon":5.404,"is_reserved":false,"is_disabled":false,"rental_uris":{"android":"levelo://app?vid=535315bd-f4b8-4681-a177-2ce7f57c3f0b","ios":"levelo://app?vid=535315bd-f4b8-4681-a177-2ce7f57c3f0b"},"vehicle_type_id":"4","last_reported":1731276446,"current_range_meters":36800,"station_id":"ce4bh112rcd13ifvqd90","pricing_plan_id":"cebpf4jnsgd1na2vs0mg"},{"bike_id":"b05974d8-55c0-4722-af52-f013cf518cb9","system_id":"levelo_inurba_marseille","lat":43.29017,"lon":5.38616,"is_reserved":false,"is_disabled":false,"rental_uris":{"android":"levelo://app?vid=b05974d8-55c0-4722-af52-f013cf518cb9","ios":"levelo://app?vid=b05974d8-55c0-4722-af52-f013cf518cb9"},"vehicle_type_id":"4","last_reported":1731276446,"current_range_meters":26000,"station_id":"ce4bh4p2rcd13ifvqe0g","pricing_plan_id":"cebpf4jnsgd1na2vs0mg"},{"bike_id":"70361384-6385-4337-9222-6090aea0c082","system_id":"levelo_inurba_marseille","lat":43.29309,"lon":5.37179,"is_reserved":false,"is_disabled":false,"rental_uris":{"android":"levelo://app?vid=70361384-6385-4337-9222-6090aea0c082","ios":"levelo://app?vid=70361384-6385-4337-9222-6090aea0c082"},"vehicle_type_id":"4","last_reported":1731276446,"current_range_meters":32800,"station_id":"ce4bgh92rcd13ifvqb40","pricing_plan_id":"cebpf4jnsgd1na2vs0mg"},{"bike_id":"d9fab163-f046-46fc-8eef-b2da3d4968f2","system_id":"levelo_inurba_marseille","lat":43.2975,"lon":5.36981,"is_reserved":false,"is_disabled":false,"rental_uris":{"android":"levelo://app?vid=d9fab163-f046-46fc-8eef-b2da3d4968f2","ios":"levelo://app?vid=d9fab163-f046-46fc-8eef-b2da3d4968f2"},"vehicle_type_id":"4","last_reported":1731276446,"current_range_meters":22400,"station_id":"ce4bgop2rcd13ifvqc1g","pricing_plan_id":"cebpf4jnsgd1na2vs0mg"},{"bike_id":"605298e6-60c5-4e5b-8e05-85137d5e7e9d","system_id":"levelo_inurba_marseille","lat":43.27998,"lon":5.41662,"is_reserved":false,"is_disabled":false,"rental_uris":{"android":"levelo://app?vid=605298e6-60c5-4e5b-8e05-85137d5e7e9d","ios":"levelo://app?vid=605298e6-60c5-4e5b-8e05-85137d5e7e9d"},"vehicle_type_id":"4","last_reported":1731276446,"current_range_meters":10800,"station_id":"ce4bho12rcd13ifvqh1g","pricing_plan_id":"cebpf4jnsgd1na2vs0mg"},{"bike_id":"bc1f8083-69e6-4682-ac5c-20386c9ae2ee","system_id":"levelo_inurba_marseille","lat":43.25723,"lon":5.4111,"is_reserved":false,"is_disabled":false,"rental_uris":{"android":"levelo://app?vid=bc1f8083-69e6-4682-ac5c-20386c9ae2ee","ios":"levelo://app?vid=bc1f8083-69e6-4682-ac5c-20386c9ae2ee"},"vehicle_type_id":"4","last_reported":1731276446,"current_range_meters":4400,"station_id":"ce4bhkp2rcd13ifvqgd0","pricing_plan_id":"cebpf4jnsgd1na2vs0mg"},{"bike_id":"6da06f85-e08e-4d62-b03d-37391773fb47","system_id":"levelo_inurba_marseille","lat":43.32493,"lon":5.36564,"is_reserved":false,"is_disabled":false,"rental_uris":{"android":"levelo://app?vid=6da06f85-e08e-4d62-b03d-37391773fb47","ios":"levelo://app?vid=6da06f85-e08e-4d62-b03d-37391773fb47"},"vehicle_type_id":"4","last_reported":1731276446,"current_range_meters":38800,"station_id":"ce4bhs12rcd13ifvqhvg","pricing_plan_id":"cebpf4jnsgd1na2vs0mg"},{"bike_id":"76cb7de1-c6cf-46f4-817f-a13daaf098d0","system_id":"levelo_inurba_marseille","lat":43.31529,"lon":5.38032,"is_reserved":false,"is_disabled":false,"rental_uris":{"android":"levelo://app?vid=76cb7de1-c6cf-46f4-817f-a13daaf098d0","ios":"levelo://app?vid=76cb7de1-c6cf-46f4-817f-a13daaf098d0"},"vehicle_type_id":"4","last_reported":1731276446,"current_range_meters":4000,"station_id":"ce4bhsp2rcd13ifvqi50","pricing_plan_id":"cebpf4jnsgd1na2vs0mg"},{"bike_id":"3696d86c-204f-4a62-8547-c6be32ea280c","system_id":"levelo_inurba_marseille","lat":43.28848,"lon":5.39309,"is_reserved":false,"is_disabled":false,"rental_uris":{"android":"levelo://app?vid=3696d86c-204f-4a62-8547-c6be32ea280c","ios":"levelo://app?vid=3696d86c-204f-4a62-8547-c6be32ea280c"},"vehicle_type_id":"4","last_reported":1731276446,"current_range_meters":18800,"station_id":"ce4bh2p2rcd13ifvqdi0","pricing_plan_id":"cebpf4jnsgd1na2vs0mg"},{"bike_id":"b085bf05-4012-4af0-91c2-493e112ef1f8","system_id":"levelo_inurba_marseille","lat":43.28403,"lon":5.37524,"is_reserved":false,"is_disabled":false,"rental_uris":{"android":"levelo://app?vid=b085bf05-4012-4af0-91c2-493e112ef1f8","ios":"levelo://app?vid=b085bf05-4012-4af0-91c2-493e112ef1f8"},"vehicle_type_id":"4","last_reported":1731276446,"current_range_meters":27600,"station_id":"ce4bh412rcd13ifvqds0","pricing_plan_id":"cebpf4jnsgd1na2vs0mg"},{"bike_id":"f0d1a8d1-b1b2-4b4f-8f56-62c142ccc163","system_id":"levelo_inurba_marseille","lat":43.30598,"lon":5.39362,"is_reserved":false,"is_disabled":false,"rental_uris":{"android":"levelo://app?vid=f0d1a8d1-b1b2-4b4f-8f56-62c142ccc163","ios":"levelo://app?vid=f0d1a8d1-b1b2-4b4f-8f56-62c142ccc163"},"vehicle_type_id":"4","last_reported":1731276446,"current_range_meters":26000,"station_id":"ce4bh0p2rcd13ifvqd80","pricing_plan_id":"cebpf4jnsgd1na2vs0mg"},{"bike_id":"86bdd961-7e21-4ecf-8d0a-f23b6116b73e","system_id":"levelo_inurba_marseille","lat":43.29063,"lon":5.35902,"is_reserved":false,"is_disabled":false,"rental_uris":{"android":"levelo://app?vid=86bdd961-7e21-4ecf-8d0a-f23b6116b73e","ios":"levelo://app?vid=86bdd961-7e21-4ecf-8d0a-f23b6116b73e"},"vehicle_type_id":"4","last_reported":1731276446,"current_range_meters":18800,"station_id":"ce4bha92rcd13ifvqeg0","pricing_plan_id":"cebpf4jnsgd1na2vs0mg"},{"bike_id":"67ffc1e7-b9f0-4355-84e9-ce9125ee48de","system_id":"levelo_inurba_marseille","lat":43.31996,"lon":5.38152,"is_reserved":false,"is_disabled":false,"rental_uris":{"android":"levelo://app?vid=67ffc1e7-b9f0-4355-84e9-ce9125ee48de","ios":"levelo://app?vid=67ffc1e7-b9f0-4355-84e9-ce9125ee48de"},"vehicle_type_id":"4","last_reported":1731276446,"current_range_meters":38800,"station_id":"ce4bhr12rcd13ifvqhpg","pricing_plan_id":"cebpf4jnsgd1na2vs0mg"},{"bike_id":"f0e4b1eb-5e02-4e01-8c40-3d251e64deec","system_id":"levelo_inurba_marseille","lat":43.29309,"lon":5.37176,"is_reserved":false,"is_disabled":false,"rental_uris":{"android":"levelo://app?vid=f0e4b1eb-5e02-4e01-8c40-3d251e64deec","ios":"levelo://app?vid=f0e4b1eb-5e02-4e01-8c40-3d251e64deec"},"vehicle_type_id":"4","last_reported":1731276446,"current_range_meters":35600,"station_id":"ce4bgh92rcd13ifvqb40","pricing_plan_id":"cebpf4jnsgd1na2vs0mg"},{"bike_id":"1c7bac6c-9ac2-436e-b1c8-10804abd6e65","system_id":"levelo_inurba_marseille","lat":43.34064,"lon":5.40972,"is_reserved":false,"is_disabled":false,"rental_uris":{"android":"levelo://app?vid=1c7bac6c-9ac2-436e-b1c8-10804abd6e65","ios":"levelo://app?vid=1c7bac6c-9ac2-436e-b1c8-10804abd6e65"},"vehicle_type_id":"4","last_reported":1731276446,"current_range_meters":38400,"station_id":"","pricing_plan_id":"cebpf4jnsgd1na2vs0mg"},{"bike_id":"a4a63e3d-ff54-4ff1-abba-5e07e77c0f6e","system_id":"levelo_inurba_marseille","lat":43.30803,"lon":5.38158,"is_reserved":false,"is_disabled":false,"rental_uris":{"android":"levelo://app?vid=a4a63e3d-ff54-4ff1-abba-5e07e77c0f6e","ios":"levelo://app?vid=a4a63e3d-ff54-4ff1-abba-5e07e77c0f6e"},"vehicle_type_id":"4","last_reported":1731276446,"current_range_meters":38800,"station_id":"ce4bgt12rcd13ifvqce0","pricing_plan_id":"cebpf4jnsgd1na2vs0mg"},{"bike_id":"7db66915-9929-4e75-aae2-23421bd47868","system_id":"levelo_inurba_marseille","lat":43.26027,"lon":5.37548,"is_reserved":false,"is_disabled":false,"rental_uris":{"android":"levelo://app?vid=7db66915-9929-4e75-aae2-23421bd47868","ios":"levelo://app?vid=7db66915-9929-4e75-aae2-23421bd47868"},"vehicle_type_id":"4","last_reported":1731276446,"current_range_meters":37600,"station_id":"ce4bhgh2rcd13ifvqfa0","pricing_plan_id":"cebpf4jnsgd1na2vs0mg"},{"bike_id":"15126981-6d35-42cb-954b-f5f1f52e3d20","system_id":"levelo_inurba_marseille","lat":43.30196,"lon":5.38941,"is_reserved":false,"is_disabled":false,"rental_uris":{"android":"levelo://app?vid=15126981-6d35-42cb-954b-f5f1f52e3d20","ios":"levelo://app?vid=15126981-6d35-42cb-954b-f5f1f52e3d20"},"vehicle_type_id":"4","last_reported":1731276446,"current_range_meters":34000,"station_id":"","pricing_plan_id":"cebpf4jnsgd1na2vs0mg"},{"bike_id":"203a15c9-60df-4940-9b77-9de40b0c35c9","system_id":"levelo_inurba_marseille","lat":43.28724,"lon":5.37942,"is_reserved":false,"is_disabled":false,"rental_uris":{"android":"levelo://app?vid=203a15c9-60df-4940-9b77-9de40b0c35c9","ios":"levelo://app?vid=203a15c9-60df-4940-9b77-9de40b0c35c9"},"vehicle_type_id":"4","last_reported":1731276446,"current_range_meters":36400,"station_id":"ce4bh9p2rcd13ifvqec0","pricing_plan_id":"cebpf4jnsgd1na2vs0mg"},{"bike_id":"ecb2a974-e4b0-4ec6-9a12-c0201c9679b2","system_id":"levelo_inurba_marseille","lat":43.24653,"lon":5.38888,"is_reserved":false,"is_disabled":false,"rental_uris":{"android":"levelo://app?vid=ecb2a974-e4b0-4ec6-9a12-c0201c9679b2","ios":"levelo://app?vid=ecb2a974-e4b0-4ec6-9a12-c0201c9679b2"},"vehicle_type_id":"4","last_reported":1731276446,"current_range_meters":13600,"station_id":"ce4bhg12rcd13ifvqf60","pricing_plan_id":"cebpf4jnsgd1na2vs0mg"},{"bike_id":"170f9e2d-c67b-40fd-932d-5dcf242be3f1","system_id":"levelo_inurba_marseille","lat":43.29537,"lon":5.38543,"is_reserved":false,"is_disabled":false,"rental_uris":{"android":"levelo://app?vid=170f9e2d-c67b-40fd-932d-5dcf242be3f1","ios":"levelo://app?vid=170f9e2d-c67b-40fd-932d-5dcf242be3f1"},"vehicle_type_id":"4","last_reported":1731276446,"current_range_meters":9600,"station_id":"ce4bgih2rcd13ifvqba0","pricing_plan_id":"cebpf4jnsgd1na2vs0mg"},{"bike_id":"9ab3b81e-4cd0-44e1-aa28-4461d425e0c0","system_id":"levelo_inurba_marseille","lat":43.32657,"lon":5.4098,"is_reserved":false,"is_disabled":false,"rental_uris":{"android":"levelo://app?vid=9ab3b81e-4cd0-44e1-aa28-4461d425e0c0","ios":"levelo://app?vid=9ab3b81e-4cd0-44e1-aa28-4461d425e0c0"},"vehicle_type_id":"4","last_reported":1731276446,"current_range_meters":36400,"station_id":"ce4bhpp2rcd13ifvqhgg","pricing_plan_id":"cebpf4jnsgd1na2vs0mg"},{"bike_id":"1f445bdb-6cba-4bc4-a07e-aa67ee26774c","system_id":"levelo_inurba_marseille","lat":43.30887,"lon":5.39656,"is_reserved":false,"is_disabled":false,"rental_uris":{"android":"levelo://app?vid=1f445bdb-6cba-4bc4-a07e-aa67ee26774c","ios":"levelo://app?vid=1f445bdb-6cba-4bc4-a07e-aa67ee26774c"},"vehicle_type_id":"4","last_reported":1731276446,"current_range_meters":34000,"station_id":"ce4bh012rcd13ifvqcv0","pricing_plan_id":"cebpf4jnsgd1na2vs0mg"},{"bike_id":"bedfe257-ec8e-44aa-a6ac-c456d43815ff","system_id":"levelo_inurba_marseille","lat":43.33607,"lon":5.41022,"is_reserved":false,"is_disabled":false,"rental_uris":{"android":"levelo://app?vid=bedfe257-ec8e-44aa-a6ac-c456d43815ff","ios":"levelo://app?vid=bedfe257-ec8e-44aa-a6ac-c456d43815ff"},"vehicle_type_id":"4","last_reported":1731276446,"current_range_meters":17600,"station_id":"ce4bhqh2rcd13ifvqhmg","pricing_plan_id":"cebpf4jnsgd1na2vs0mg"},{"bike_id":"ac659186-70a1-4190-99a4-216b54d87779","system_id":"levelo_inurba_marseille","lat":43.23152,"lon":5.437,"is_reserved":false,"is_disabled":false,"rental_uris":{"android":"levelo://app?vid=ac659186-70a1-4190-99a4-216b54d87779","ios":"levelo://app?vid=ac659186-70a1-4190-99a4-216b54d87779"},"vehicle_type_id":"4","last_reported":1731276446,"current_range_meters":38800,"station_id":"ce4bhmp2rcd13ifvqgog","pricing_plan_id":"cebpf4jnsgd1na2vs0mg"},{"bike_id":"147e98c8-cfbc-409b-b1d4-630c22736e97","system_id":"levelo_inurba_marseille","lat":43.27997,"lon":5.41668,"is_reserved":false,"is_disabled":false,"rental_uris":{"android":"levelo://app?vid=147e98c8-cfbc-409b-b1d4-630c22736e97","ios":"levelo://app?vid=147e98c8-cfbc-409b-b1d4-630c22736e97"},"vehicle_type_id":"4","last_reported":1731276446,"current_range_meters":28800,"station_id":"ce4bho12rcd13ifvqh1g","pricing_plan_id":"cebpf4jnsgd1na2vs0mg"},{"bike_id":"b72ca6e7-47e9-42be-9a97-b74e22acdc0e","system_id":"levelo_inurba_marseille","lat":43.32107,"lon":5.3678,"is_reserved":false,"is_disabled":false,"rental_uris":{"android":"levelo://app?vid=b72ca6e7-47e9-42be-9a97-b74e22acdc0e","ios":"levelo://app?vid=b72ca6e7-47e9-42be-9a97-b74e22acdc0e"},"vehicle_type_id":"4","last_reported":1731276446,"current_range_meters":35600,"station_id":"ce4bhrh2rcd13ifvqhug","pricing_plan_id":"cebpf4jnsgd1na2vs0mg"},{"bike_id":"cba560a9-225e-4f01-8c18-fb95478c098b","system_id":"levelo_inurba_marseille","lat":43.264636,"lon":5.380511,"is_reserved":false,"is_disabled":false,"rental_uris":{"android":"levelo://app?vid=cba560a9-225e-4f01-8c18-fb95478c098b","ios":"levelo://app?vid=cba560a9-225e-4f01-8c18-fb95478c098b"},"vehicle_type_id":"4","last_reported":1731276446,"current_range_meters":32800,"station_id":"","pricing_plan_id":"cebpf4jnsgd1na2vs0mg"},{"bike_id":"293a36bf-54a5-4d24-979e-5fcee2691167","system_id":"levelo_inurba_marseille","lat":43.27951,"lon":5.41046,"is_reserved":false,"is_disabled":false,"rental_uris":{"android":"levelo://app?vid=293a36bf-54a5-4d24-979e-5fcee2691167","ios":"levelo://app?vid=293a36bf-54a5-4d24-979e-5fcee2691167"},"vehicle_type_id":"4","last_reported":1731276446,"current_range_meters":20400,"station_id":"ce4bhnp2rcd13ifvqh0g","pricing_plan_id":"cebpf4jnsgd1na2vs0mg"},{"bike_id":"97c3055f-a428-4187-89cd-58052564d04c","system_id":"levelo_inurba_marseille","lat":43.30596,"lon":5.39361,"is_reserved":false,"is_disabled":false,"rental_uris":{"android":"levelo://app?vid=97c3055f-a428-4187-89cd-58052564d04c","ios":"levelo://app?vid=97c3055f-a428-4187-89cd-58052564d04c"},"vehicle_type_id":"4","last_reported":1731276446,"current_range_meters":31200,"station_id":"ce4bh0p2rcd13ifvqd80","pricing_plan_id":"cebpf4jnsgd1na2vs0mg"},{"bike_id":"c0adf7cc-ad53-4b30-988f-c0e3f3eb38b8","system_id":"levelo_inurba_marseille","lat":43.2811,"lon":5.3784,"is_reserved":false,"is_disabled":false,"rental_uris":{"android":"levelo://app?vid=c0adf7cc-ad53-4b30-988f-c0e3f3eb38b8","ios":"levelo://app?vid=c0adf7cc-ad53-4b30-988f-c0e3f3eb38b8"},"vehicle_type_id":"4","last_reported":1731276446,"current_range_meters":39200,"station_id":"ce4bha12rcd13ifvqee0","pricing_plan_id":"cebpf4jnsgd1na2vs0mg"},{"bike_id":"3bc699be-d107-4989-8d28-d8ecfe5f1c37","system_id":"levelo_inurba_marseille","lat":43.27814,"lon":5.40713,"is_reserved":false,"is_disabled":false,"rental_uris":{"android":"levelo://app?vid=3bc699be-d107-4989-8d28-d8ecfe5f1c37","ios":"levelo://app?vid=3bc699be-d107-4989-8d28-d8ecfe5f1c37"},"vehicle_type_id":"4","last_reported":1731276446,"current_range_meters":12000,"station_id":"ce4bhnh2rcd13ifvqgtg","pricing_plan_id":"cebpf4jnsgd1na2vs0mg"},{"bike_id":"db2e6139-0551-4de2-8e50-fffa4eceeafd","system_id":"levelo_inurba_marseille","lat":43.29265,"lon":5.36845,"is_reserved":false,"is_disabled":false,"rental_uris":{"android":"levelo://app?vid=db2e6139-0551-4de2-8e50-fffa4eceeafd","ios":"levelo://app?vid=db2e6139-0551-4de2-8e50-fffa4eceeafd"},"vehicle_type_id":"4","last_reported":1731276446,"current_range_meters":27600,"station_id":"ce4bhbp2rcd13ifvqesg","pricing_plan_id":"cebpf4jnsgd1na2vs0mg"},{"bike_id":"ecf991fb-272f-48ac-bfd3-028c5c875379","system_id":"levelo_inurba_marseille","lat":43.32661,"lon":5.40993,"is_reserved":false,"is_disabled":false,"rental_uris":{"android":"levelo://app?vid=ecf991fb-272f-48ac-bfd3-028c5c875379","ios":"levelo://app?vid=ecf991fb-272f-48ac-bfd3-028c5c875379"},"vehicle_type_id":"4","last_reported":1731276446,"current_range_meters":24000,"station_id":"ce4bhpp2rcd13ifvqhgg","pricing_plan_id":"cebpf4jnsgd1na2vs0mg"},{"bike_id":"55302ba4-d239-435d-94d1-81cde6bca075","system_id":"levelo_inurba_marseille","lat":43.29794,"lon":5.38105,"is_reserved":false,"is_disabled":false,"rental_uris":{"android":"levelo://app?vid=55302ba4-d239-435d-94d1-81cde6bca075","ios":"levelo://app?vid=55302ba4-d239-435d-94d1-81cde6bca075"},"vehicle_type_id":"4","last_reported":1731276446,"current_range_meters":36800,"station_id":"ce4bgip2rcd13ifvqbb0","pricing_plan_id":"cebpf4jnsgd1na2vs0mg"},{"bike_id":"901a8ee9-a86a-49aa-b9b0-44d3ae03326a","system_id":"levelo_inurba_marseille","lat":43.31718,"lon":5.43706,"is_reserved":false,"is_disabled":false,"rental_uris":{"android":"levelo://app?vid=901a8ee9-a86a-49aa-b9b0-44d3ae03326a","ios":"levelo://app?vid=901a8ee9-a86a-49aa-b9b0-44d3ae03326a"},"vehicle_type_id":"4","last_reported":1731276446,"current_range_meters":18000,"station_id":"ce4bhp92rcd13ifvqhcg","pricing_plan_id":"cebpf4jnsgd1na2vs0mg"},{"bike_id":"52a71ef5-8ef7-4a13-9edb-b931936b8cfb","system_id":"levelo_inurba_marseille","lat":43.33722,"lon":5.39186,"is_reserved":false,"is_disabled":false,"rental_uris":{"android":"levelo://app?vid=52a71ef5-8ef7-4a13-9edb-b931936b8cfb","ios":"levelo://app?vid=52a71ef5-8ef7-4a13-9edb-b931936b8cfb"},"vehicle_type_id":"4","last_reported":1731276446,"current_range_meters":33600,"station_id":"ce4bhr92rcd13ifvqhsg","pricing_plan_id":"cebpf4jnsgd1na2vs0mg"},{"bike_id":"f23d7e81-bd37-43fe-a9a9-a09f7a4dfad6","system_id":"levelo_inurba_marseille","lat":43.30092,"lon":5.39077,"is_reserved":false,"is_disabled":false,"rental_uris":{"android":"levelo://app?vid=f23d7e81-bd37-43fe-a9a9-a09f7a4dfad6","ios":"levelo://app?vid=f23d7e81-bd37-43fe-a9a9-a09f7a4dfad6"},"vehicle_type_id":"4","last_reported":1731276446,"current_range_meters":17200,"station_id":"ce4bh192rcd13ifvqdb0","pricing_plan_id":"cebpf4jnsgd1na2vs0mg"},{"bike_id":"ad086397-534f-4a0c-bc69-75a241990385","system_id":"levelo_inurba_marseille","lat":43.29166,"lon":5.3716,"is_reserved":false,"is_disabled":false,"rental_uris":{"android":"levelo://app?vid=ad086397-534f-4a0c-bc69-75a241990385","ios":"levelo://app?vid=ad086397-534f-4a0c-bc69-75a241990385"},"vehicle_type_id":"4","last_reported":1731276446,"current_range_meters":27200,"station_id":"ce4bha92rcd13ifvqeh0","pricing_plan_id":"cebpf4jnsgd1na2vs0mg"},{"bike_id":"cf678ceb-3446-4937-b2e7-921edbcce60b","system_id":"levelo_inurba_marseille","lat":43.32292,"lon":5.38266,"is_reserved":false,"is_disabled":false,"rental_uris":{"android":"levelo://app?vid=cf678ceb-3446-4937-b2e7-921edbcce60b","ios":"levelo://app?vid=cf678ceb-3446-4937-b2e7-921edbcce60b"},"vehicle_type_id":"4","last_reported":1731276446,"current_range_meters":32400,"station_id":"ce4bhr12rcd13ifvqhqg","pricing_plan_id":"cebpf4jnsgd1na2vs0mg"},{"bike_id":"c606c8ab-ae1e-4e0c-8e55-8a9ba495616e","system_id":"levelo_inurba_marseille","lat":43.25724,"lon":5.41108,"is_reserved":false,"is_disabled":false,"rental_uris":{"android":"levelo://app?vid=c606c8ab-ae1e-4e0c-8e55-8a9ba495616e","ios":"levelo://app?vid=c606c8ab-ae1e-4e0c-8e55-8a9ba495616e"},"vehicle_type_id":"4","last_reported":1731276446,"current_range_meters":8400,"station_id":"ce4bhkp2rcd13ifvqgd0","pricing_plan_id":"cebpf4jnsgd1na2vs0mg"},{"bike_id":"ac0c247f-afb1-4fde-8602-a85a4e1a48cc","system_id":"levelo_inurba_marseille","lat":43.32656,"lon":5.40994,"is_reserved":false,"is_disabled":false,"rental_uris":{"android":"levelo://app?vid=ac0c247f-afb1-4fde-8602-a85a4e1a48cc","ios":"levelo://app?vid=ac0c247f-afb1-4fde-8602-a85a4e1a48cc"},"vehicle_type_id":"4","last_reported":1731276446,"current_range_meters":38800,"station_id":"ce4bhpp2rcd13ifvqhgg","pricing_plan_id":"cebpf4jnsgd1na2vs0mg"},{"bike_id":"c74a236a-3f2a-4617-8ca8-47c166434983","system_id":"levelo_inurba_marseille","lat":43.28152,"lon":5.42642,"is_reserved":false,"is_disabled":false,"rental_uris":{"android":"levelo://app?vid=c74a236a-3f2a-4617-8ca8-47c166434983","ios":"levelo://app?vid=c74a236a-3f2a-4617-8ca8-47c166434983"},"vehicle_type_id":"4","last_reported":1731276446,"current_range_meters":21600,"station_id":"ce4bhnh2rcd13ifvqgug","pricing_plan_id":"cebpf4jnsgd1na2vs0mg"},{"bike_id":"33f8cbe8-3988-480f-835e-df40843b76b7","system_id":"levelo_inurba_marseille","lat":43.24807,"lon":5.37455,"is_reserved":false,"is_disabled":false,"rental_uris":{"android":"levelo://app?vid=33f8cbe8-3988-480f-835e-df40843b76b7","ios":"levelo://app?vid=33f8cbe8-3988-480f-835e-df40843b76b7"},"vehicle_type_id":"4","last_reported":1731276446,"current_range_meters":6000,"station_id":"ce4bhgh2rcd13ifvqfb0","pricing_plan_id":"cebpf4jnsgd1na2vs0mg"},{"bike_id":"81c3c706-55d5-4515-bcda-e2c7ffc6d53f","system_id":"levelo_inurba_marseille","lat":43.30401,"lon":5.4348,"is_reserved":false,"is_disabled":false,"rental_uris":{"android":"levelo://app?vid=81c3c706-55d5-4515-bcda-e2c7ffc6d53f","ios":"levelo://app?vid=81c3c706-55d5-4515-bcda-e2c7ffc6d53f"},"vehicle_type_id":"4","last_reported":1731276446,"current_range_meters":19600,"station_id":"ce4bhph2rcd13ifvqheg","pricing_plan_id":"cebpf4jnsgd1na2vs0mg"},{"bike_id":"e88b95ba-3b50-479e-a4fb-1ef1bbfecace","system_id":"levelo_inurba_marseille","lat":43.31328,"lon":5.39688,"is_reserved":false,"is_disabled":false,"rental_uris":{"android":"levelo://app?vid=e88b95ba-3b50-479e-a4fb-1ef1bbfecace","ios":"levelo://app?vid=e88b95ba-3b50-479e-a4fb-1ef1bbfecace"},"vehicle_type_id":"4","last_reported":1731276446,"current_range_meters":30000,"station_id":"ce4bgvp2rcd13ifvqcu0","pricing_plan_id":"cebpf4jnsgd1na2vs0mg"},{"bike_id":"16edd5e5-0497-4831-bb6b-d18eb7e92293","system_id":"levelo_inurba_marseille","lat":43.24812,"lon":5.37457,"is_reserved":false,"is_disabled":false,"rental_uris":{"android":"levelo://app?vid=16edd5e5-0497-4831-bb6b-d18eb7e92293","ios":"levelo://app?vid=16edd5e5-0497-4831-bb6b-d18eb7e92293"},"vehicle_type_id":"4","last_reported":1731276446,"current_range_meters":28000,"station_id":"ce4bhgh2rcd13ifvqfb0","pricing_plan_id":"cebpf4jnsgd1na2vs0mg"},{"bike_id":"feb86f62-2c80-4064-8e38-33c5534046da","system_id":"levelo_inurba_marseille","lat":43.2819,"lon":5.39891,"is_reserved":false,"is_disabled":false,"rental_uris":{"android":"levelo://app?vid=feb86f62-2c80-4064-8e38-33c5534046da","ios":"levelo://app?vid=feb86f62-2c80-4064-8e38-33c5534046da"},"vehicle_type_id":"4","last_reported":1731276446,"current_range_meters":19600,"station_id":"","pricing_plan_id":"cebpf4jnsgd1na2vs0mg"},{"bike_id":"a2e0dbd8-6bb6-4f58-81e6-a5bb2ebfdca4","system_id":"levelo_inurba_marseille","lat":43.23198,"lon":5.35559,"is_reserved":false,"is_disabled":false,"rental_uris":{"android":"levelo://app?vid=a2e0dbd8-6bb6-4f58-81e6-a5bb2ebfdca4","ios":"levelo://app?vid=a2e0dbd8-6bb6-4f58-81e6-a5bb2ebfdca4"},"vehicle_type_id":"4","last_reported":1731276446,"current_range_meters":38800,"station_id":"ce4bhu92rcd13ifvqi70","pricing_plan_id":"cebpf4jnsgd1na2vs0mg"},{"bike_id":"1f80f70e-3019-44b8-acec-ff0a3264baf6","system_id":"levelo_inurba_marseille","lat":43.33027,"lon":5.39041,"is_reserved":false,"is_disabled":false,"rental_uris":{"android":"levelo://app?vid=1f80f70e-3019-44b8-acec-ff0a3264baf6","ios":"levelo://app?vid=1f80f70e-3019-44b8-acec-ff0a3264baf6"},"vehicle_type_id":"4","last_reported":1731276446,"current_range_meters":27600,"station_id":"ce4bhr92rcd13ifvqhrg","pricing_plan_id":"cebpf4jnsgd1na2vs0mg"},{"bike_id":"4fdb6a3e-1fcb-4c2d-9bdd-e5bceb193938","system_id":"levelo_inurba_marseille","lat":43.28923,"lon":5.38406,"is_reserved":false,"is_disabled":false,"rental_uris":{"android":"levelo://app?vid=4fdb6a3e-1fcb-4c2d-9bdd-e5bceb193938","ios":"levelo://app?vid=4fdb6a3e-1fcb-4c2d-9bdd-e5bceb193938"},"vehicle_type_id":"4","last_reported":1731276446,"current_range_meters":38800,"station_id":"ce4bh612rcd13ifvqe6g","pricing_plan_id":"cebpf4jnsgd1na2vs0mg"},{"bike_id":"2253a08e-c630-4fea-a5bd-7d0c33c01446","system_id":"levelo_inurba_marseille","lat":43.26673,"lon":5.38255,"is_reserved":false,"is_disabled":false,"rental_uris":{"android":"levelo://app?vid=2253a08e-c630-4fea-a5bd-7d0c33c01446","ios":"levelo://app?vid=2253a08e-c630-4fea-a5bd-7d0c33c01446"},"vehicle_type_id":"4","last_reported":1731276446,"current_range_meters":30800,"station_id":"","pricing_plan_id":"cebpf4jnsgd1na2vs0mg"},{"bike_id":"aa9f8549-1b7b-4bf9-8974-4b5f5335949b","system_id":"levelo_inurba_marseille","lat":43.28036,"lon":5.36953,"is_reserved":false,"is_disabled":false,"rental_uris":{"android":"levelo://app?vid=aa9f8549-1b7b-4bf9-8974-4b5f5335949b","ios":"levelo://app?vid=aa9f8549-1b7b-4bf9-8974-4b5f5335949b"},"vehicle_type_id":"4","last_reported":1731276446,"current_range_meters":34800,"station_id":"ce4bha12rcd13ifvqef0","pricing_plan_id":"cebpf4jnsgd1na2vs0mg"},{"bike_id":"792a3234-7943-43e5-8b51-9fa2b9be4d1d","system_id":"levelo_inurba_marseille","lat":43.30602,"lon":5.37236,"is_reserved":false,"is_disabled":false,"rental_uris":{"android":"levelo://app?vid=792a3234-7943-43e5-8b51-9fa2b9be4d1d","ios":"levelo://app?vid=792a3234-7943-43e5-8b51-9fa2b9be4d1d"},"vehicle_type_id":"4","last_reported":1731276446,"current_range_meters":38400,"station_id":"ce4bgqh2rcd13ifvqc4g","pricing_plan_id":"cebpf4jnsgd1na2vs0mg"},{"bike_id":"636a8945-6b80-481a-9376-561ae044e41d","system_id":"levelo_inurba_marseille","lat":43.28575,"lon":5.39492,"is_reserved":false,"is_disabled":false,"rental_uris":{"android":"levelo://app?vid=636a8945-6b80-481a-9376-561ae044e41d","ios":"levelo://app?vid=636a8945-6b80-481a-9376-561ae044e41d"},"vehicle_type_id":"4","last_reported":1731276446,"current_range_meters":24400,"station_id":"ce4bh292rcd13ifvqdg0","pricing_plan_id":"cebpf4jnsgd1na2vs0mg"},{"bike_id":"404b7870-5608-4a31-9f96-59b607026637","system_id":"levelo_inurba_marseille","lat":43.28405,"lon":5.37521,"is_reserved":false,"is_disabled":false,"rental_uris":{"android":"levelo://app?vid=404b7870-5608-4a31-9f96-59b607026637","ios":"levelo://app?vid=404b7870-5608-4a31-9f96-59b607026637"},"vehicle_type_id":"4","last_reported":1731276446,"current_range_meters":38800,"station_id":"ce4bh412rcd13ifvqds0","pricing_plan_id":"cebpf4jnsgd1na2vs0mg"},{"bike_id":"71d04bf7-3099-4526-8f04-dc3d4afa54d8","system_id":"levelo_inurba_marseille","lat":43.29304,"lon":5.37168,"is_reserved":false,"is_disabled":false,"rental_uris":{"android":"levelo://app?vid=71d04bf7-3099-4526-8f04-dc3d4afa54d8","ios":"levelo://app?vid=71d04bf7-3099-4526-8f04-dc3d4afa54d8"},"vehicle_type_id":"4","last_reported":1731276446,"current_range_meters":38800,"station_id":"ce4bgh92rcd13ifvqb40","pricing_plan_id":"cebpf4jnsgd1na2vs0mg"},{"bike_id":"5c91adf0-ee2c-4ae6-8882-91ad0f428980","system_id":"levelo_inurba_marseille","lat":43.30879,"lon":5.39644,"is_reserved":false,"is_disabled":false,"rental_uris":{"android":"levelo://app?vid=5c91adf0-ee2c-4ae6-8882-91ad0f428980","ios":"levelo://app?vid=5c91adf0-ee2c-4ae6-8882-91ad0f428980"},"vehicle_type_id":"4","last_reported":1731276446,"current_range_meters":24800,"station_id":"ce4bh012rcd13ifvqcv0","pricing_plan_id":"cebpf4jnsgd1na2vs0mg"},{"bike_id":"7ca74166-6ab5-495b-9696-584d02466e1d","system_id":"levelo_inurba_marseille","lat":43.33601,"lon":5.41031,"is_reserved":false,"is_disabled":false,"rental_uris":{"android":"levelo://app?vid=7ca74166-6ab5-495b-9696-584d02466e1d","ios":"levelo://app?vid=7ca74166-6ab5-495b-9696-584d02466e1d"},"vehicle_type_id":"4","last_reported":1731276446,"current_range_meters":17600,"station_id":"ce4bhqh2rcd13ifvqhmg","pricing_plan_id":"cebpf4jnsgd1na2vs0mg"},{"bike_id":"902a81a5-71b3-4090-bcf8-18764e410782","system_id":"levelo_inurba_marseille","lat":43.28263,"lon":5.35064,"is_reserved":false,"is_disabled":false,"rental_uris":{"android":"levelo://app?vid=902a81a5-71b3-4090-bcf8-18764e410782","ios":"levelo://app?vid=902a81a5-71b3-4090-bcf8-18764e410782"},"vehicle_type_id":"4","last_reported":1731276446,"current_range_meters":12800,"station_id":"ce4bhbp2rcd13ifvqerg","pricing_plan_id":"cebpf4jnsgd1na2vs0mg"},{"bike_id":"8ab97c9e-4e13-4d1f-b39d-051294a35ddd","system_id":"levelo_inurba_marseille","lat":43.284607,"lon":5.384271,"is_reserved":false,"is_disabled":false,"rental_uris":{"android":"levelo://app?vid=8ab97c9e-4e13-4d1f-b39d-051294a35ddd","ios":"levelo://app?vid=8ab97c9e-4e13-4d1f-b39d-051294a35ddd"},"vehicle_type_id":"4","last_reported":1731276446,"current_range_meters":17600,"station_id":"ce4bh512rcd13ifvqe3g","pricing_plan_id":"cebpf4jnsgd1na2vs0mg"},{"bike_id":"336ec9ff-9474-4a7a-a0d4-dc55ef8c98dd","system_id":"levelo_inurba_marseille","lat":43.33022,"lon":5.39042,"is_reserved":false,"is_disabled":false,"rental_uris":{"android":"levelo://app?vid=336ec9ff-9474-4a7a-a0d4-dc55ef8c98dd","ios":"levelo://app?vid=336ec9ff-9474-4a7a-a0d4-dc55ef8c98dd"},"vehicle_type_id":"4","last_reported":1731276446,"current_range_meters":36000,"station_id":"ce4bhr92rcd13ifvqhrg","pricing_plan_id":"cebpf4jnsgd1na2vs0mg"},{"bike_id":"b16943e1-6e4b-4767-8789-7da828786277","system_id":"levelo_inurba_marseille","lat":43.34177,"lon":5.38604,"is_reserved":false,"is_disabled":false,"rental_uris":{"android":"levelo://app?vid=b16943e1-6e4b-4767-8789-7da828786277","ios":"levelo://app?vid=b16943e1-6e4b-4767-8789-7da828786277"},"vehicle_type_id":"4","last_reported":1731276446,"current_range_meters":17200,"station_id":"","pricing_plan_id":"cebpf4jnsgd1na2vs0mg"},{"bike_id":"3f629cc3-99b5-464f-8f7f-443a9cd73806","system_id":"levelo_inurba_marseille","lat":43.28416,"lon":5.37518,"is_reserved":false,"is_disabled":false,"rental_uris":{"android":"levelo://app?vid=3f629cc3-99b5-464f-8f7f-443a9cd73806","ios":"levelo://app?vid=3f629cc3-99b5-464f-8f7f-443a9cd73806"},"vehicle_type_id":"4","last_reported":1731276446,"current_range_meters":8800,"station_id":"ce4bh412rcd13ifvqds0","pricing_plan_id":"cebpf4jnsgd1na2vs0mg"},{"bike_id":"cf42513f-e59a-4dad-980e-6f2a10f4ab8c","system_id":"levelo_inurba_marseille","lat":43.3117,"lon":5.387,"is_reserved":false,"is_disabled":false,"rental_uris":{"android":"levelo://app?vid=cf42513f-e59a-4dad-980e-6f2a10f4ab8c","ios":"levelo://app?vid=cf42513f-e59a-4dad-980e-6f2a10f4ab8c"},"vehicle_type_id":"4","last_reported":1731276446,"current_range_meters":37600,"station_id":"ce4bgv12rcd13ifvqcp0","pricing_plan_id":"cebpf4jnsgd1na2vs0mg"},{"bike_id":"9dc49127-682d-431d-987f-d55974f32dfd","system_id":"levelo_inurba_marseille","lat":43.28457,"lon":5.35893,"is_reserved":false,"is_disabled":false,"rental_uris":{"android":"levelo://app?vid=9dc49127-682d-431d-987f-d55974f32dfd","ios":"levelo://app?vid=9dc49127-682d-431d-987f-d55974f32dfd"},"vehicle_type_id":"4","last_reported":1731276446,"current_range_meters":30000,"station_id":"ce4bhah2rcd13ifvqei0","pricing_plan_id":"cebpf4jnsgd1na2vs0mg"},{"bike_id":"0acccacb-5c5e-4293-af73-a3ca4b76801a","system_id":"levelo_inurba_marseille","lat":43.27948,"lon":5.41043,"is_reserved":false,"is_disabled":false,"rental_uris":{"android":"levelo://app?vid=0acccacb-5c5e-4293-af73-a3ca4b76801a","ios":"levelo://app?vid=0acccacb-5c5e-4293-af73-a3ca4b76801a"},"vehicle_type_id":"4","last_reported":1731276446,"current_range_meters":10800,"station_id":"ce4bhnp2rcd13ifvqh0g","pricing_plan_id":"cebpf4jnsgd1na2vs0mg"},{"bike_id":"034ba016-6715-4249-a358-5d5a5d22db28","system_id":"levelo_inurba_marseille","lat":43.2795,"lon":5.41045,"is_reserved":false,"is_disabled":false,"rental_uris":{"android":"levelo://app?vid=034ba016-6715-4249-a358-5d5a5d22db28","ios":"levelo://app?vid=034ba016-6715-4249-a358-5d5a5d22db28"},"vehicle_type_id":"4","last_reported":1731276446,"current_range_meters":24000,"station_id":"ce4bhnp2rcd13ifvqh0g","pricing_plan_id":"cebpf4jnsgd1na2vs0mg"},{"bike_id":"e7d0aa3b-63b9-4bdc-a314-0ca326a13c45","system_id":"levelo_inurba_marseille","lat":43.32337,"lon":5.40621,"is_reserved":false,"is_disabled":false,"rental_uris":{"android":"levelo://app?vid=e7d0aa3b-63b9-4bdc-a314-0ca326a13c45","ios":"levelo://app?vid=e7d0aa3b-63b9-4bdc-a314-0ca326a13c45"},"vehicle_type_id":"4","last_reported":1731276446,"current_range_meters":13600,"station_id":"ce4bhq92rcd13ifvqhjg","pricing_plan_id":"cebpf4jnsgd1na2vs0mg"},{"bike_id":"83afddec-c1a0-4d5a-a9f3-d52e05581f98","system_id":"levelo_inurba_marseille","lat":43.29409,"lon":5.38606,"is_reserved":false,"is_disabled":false,"rental_uris":{"android":"levelo://app?vid=83afddec-c1a0-4d5a-a9f3-d52e05581f98","ios":"levelo://app?vid=83afddec-c1a0-4d5a-a9f3-d52e05581f98"},"vehicle_type_id":"4","last_reported":1731276446,"current_range_meters":38000,"station_id":"ce4bh2h2rcd13ifvqdh0","pricing_plan_id":"cebpf4jnsgd1na2vs0mg"},{"bike_id":"6cb682fb-9aa9-4912-8624-25d5fc8e69ee","system_id":"levelo_inurba_marseille","lat":43.28719,"lon":5.37941,"is_reserved":false,"is_disabled":false,"rental_uris":{"android":"levelo://app?vid=6cb682fb-9aa9-4912-8624-25d5fc8e69ee","ios":"levelo://app?vid=6cb682fb-9aa9-4912-8624-25d5fc8e69ee"},"vehicle_type_id":"4","last_reported":1731276446,"current_range_meters":20400,"station_id":"ce4bh9p2rcd13ifvqec0","pricing_plan_id":"cebpf4jnsgd1na2vs0mg"},{"bike_id":"099b4713-533f-4885-990d-46711f582187","system_id":"levelo_inurba_marseille","lat":43.31338,"lon":5.41288,"is_reserved":false,"is_disabled":false,"rental_uris":{"android":"levelo://app?vid=099b4713-533f-4885-990d-46711f582187","ios":"levelo://app?vid=099b4713-533f-4885-990d-46711f582187"},"vehicle_type_id":"4","last_reported":1731276446,"current_range_meters":30400,"station_id":"ce4bhp92rcd13ifvqhbg","pricing_plan_id":"cebpf4jnsgd1na2vs0mg"},