{"last_updated":1745158097,"ttl":60,"version":"2.2","data":{"bikes":[{"bike_id":"942be465-b5e8-4eba-9ebc-062be7e1a0c4","system_id":"levelo_inurba_marseille","lat":43.28615,"lon":5.35096,"is_reserved":false,"is_disabled":true,"rental_uris":{"android":"levelo://app?vid=942be465-b5e8-4eba-9ebc-062be7e1a0c4","ios":"levelo://app?vid=942be465-b5e8-4eba-9ebc-062be7e1a0c4"},"vehicle_type_id":"4","last_reported":1745158097,"current_range_meters":2800,"station_id":"ce4bhch2rcd13ifvqeug","pricing_plan_id":"cebpf4jnsgd1na2vs0mg"},{"bike_id":"6f6f0c20-73ff-4ac6-a2d1-111fecfe9e26","system_id":"levelo_inurba_marseille","lat":43.27899,"lon":5.3801,"is_reserved":false,"is_disabled":false,"rental_uris":{"android":"levelo://app?vid=6f6f0c20-73ff-4ac6-a2d1-111fecfe9e26","ios":"levelo://app?vid=6f6f0c20-73ff-4ac6-a2d1-111fecfe9e26"},"vehicle_type_id":"4","last_reported":1745158097,"current_range_meters":2000,"station_id":"ce4bhf92rcd13ifvqf50","pricing_plan_id":"cebpf4jnsgd1na2vs0mg"},{"bike_id":"28ce2661-4035-4e7f-af1f-83da95f8ea2c","system_id":"levelo_inurba_marseille","lat":43.27367,"lon":5.36247,"is_reserved":false,"is_disabled":false,"rental_uris":{"android":"levelo://app?vid=28ce2661-4035-4e7f-af1f-83da95f8ea2c","ios":"levelo://app?vid=28ce2661-4035-4e7f-af1f-83da95f8ea2c"},"vehicle_type_id":"4","last_reported":1745158097,"current_range_meters":2800,"station_id":"ce4bhbh2rcd13ifvqeo0","pricing_plan_id":"cebpf4jnsgd1na2vs0mg"},{"bike_id":"276d94a9-b91a-47b5-b4e8-19ed1fdcca68","system_id":"levelo_inurba_marseille","lat":43.29555,"lon":5.423,"is_reserved":false,"is_disabled":true,"rental_uris":{"android":"levelo://app?vid=276d94a9-b91a-47b5-b4e8-19ed1fdcca68","ios":"levelo://app?vid=276d94a9-b91a-47b5-b4e8-19ed1fdcca68"},"vehicle_type_id":"4","last_reported":1745158097,"current_range_meters":2800,"station_id":"ce4bhph2rcd13ifvqhdg","pricing_plan_id":"cebpf4jnsgd1na2vs0mg"},{"bike_id":"bb29ebab-a3be-4809-a5b0-ac9f82a400f3","system_id":"levelo_inurba_marseille","lat":43.28833,"lon":5.39292,"is_reserved":false,"is_disabled":false,"rental_uris":{"android":"levelo://app?vid=bb29ebab-a3be-4809-a5b0-ac9f82a400f3","ios":"levelo://app?vid=bb29ebab-a3be-4809-a5b0-ac9f82a400f3"},"vehicle_type_id":"4","last_reported":1745158097,"current_range_meters":2000,"station_id":"ce4bh2p2rcd13ifvqdi0","pricing_plan_id":"cebpf4jnsgd1na2vs0mg"},{"bike_id":"0eb8208f-f6d7-414e-b0de-15a4f32dde1e","system_id":"levelo_inurba_marseille","lat":43.2174,"lon":5.34605,"is_reserved":false,"is_disabled":false,"rental_uris":{"android":"levelo://app?vid=0eb8208f-f6d7-414e-b0de-15a4f32dde1e","ios":"levelo://app?vid=0eb8208f-f6d7-414e-b0de-15a4f32dde1e"},"vehicle_type_id":"4","last_reported":1745158097,"current_range_meters":2800,"station_id":"st_cvj6r9ubvosntc0bgbag","pricing_plan_id":"cebpf4jnsgd1na2vs0mg"},{"bike_id":"a6a59253-9318-4945-93ec-91c6177478ea","system_id":"levelo_inurba_marseille","lat":43.21191,"lon":5.35081,"is_reserved":false,"is_disabled":false,"rental_uris":{"android":"levelo://app?vid=a6a59253-9318-4945-93ec-91c6177478ea","ios":"levelo://app?vid=a6a59253-9318-4945-93ec-91c6177478ea"},"vehicle_type_id":"4","last_reported":1745158097,"current_range_meters":2800,"station_id":"st_cvj6sg6p6f1abm77japg","pricing_plan_id":"cebpf4jnsgd1na2vs0mg"},{"bike_id":"71f4fd17-bc5e-4b11-820b-353e6fa540cf","system_id":"levelo_inurba_marseille","lat":43.284127,"lon":5.349852,"is_reserved":false,"is_disabled":false,"rental_uris":{"android":"levelo://app?vid=71f4fd17-bc5e-4b11-820b-353e6fa540cf","ios":"levelo://app?vid=71f4fd17-bc5e-4b11-820b-353e6fa540cf"},"vehicle_type_id":"4","last_reported":1745158097,"current_range_meters":3200,"station_id":"ce4bhbh2rcd13ifvqepg","pricing_plan_id":"cebpf4jnsgd1na2vs0mg"},{"bike_id":"7fe97a2e-24e9-40ab-bc26-83beee6ab47c","system_id":"levelo_inurba_marseille","lat":43.23151,"lon":5.43717,"is_reserved":false,"is_disabled":false,"rental_uris":{"android":"levelo://app?vid=7fe97a2e-24e9-40ab-bc26-83beee6ab47c","ios":"levelo://app?vid=7fe97a2e-24e9-40ab-bc26-83beee6ab47c"},"vehicle_type_id":"4","last_reported":1745158097,"current_range_meters":3200,"station_id":"ce4bhmp2rcd13ifvqgog","pricing_plan_id":"cebpf4jnsgd1na2vs0mg"},{"bike_id":"c42c97dc-851b-476d-ba23-67d0582febc0","system_id":"levelo_inurba_marseille","lat":43.30322,"lon":5.40441,"is_reserved":false,"is_disabled":true,"rental_uris":{"android":"levelo://app?vid=c42c97dc-851b-476d-ba23-67d0582febc0","ios":"levelo://app?vid=c42c97dc-851b-476d-ba23-67d0582febc0"},"vehicle_type_id":"4","last_reported":1745158097,"current_range_meters":3200,"station_id":"ce4bh012rcd13ifvqd10","pricing_plan_id":"cebpf4jnsgd1na2vs0mg"},{"bike_id":"19ada103-4cbd-4062-a809-34f5987a7a6d","system_id":"levelo_inurba_marseille","lat":43.26804,"lon":5.38912,"is_reserved":false,"is_disabled":false,"rental_uris":{"android":"levelo://app?vid=19ada103-4cbd-4062-a809-34f5987a7a6d","ios":"levelo://app?vid=19ada103-4cbd-4062-a809-34f5987a7a6d"},"vehicle_type_id":"4","last_reported":1745158097,"current_range_meters":3200,"station_id":"","pricing_plan_id":"cebpf4jnsgd1na2vs0mg"},{"bike_id":"e5742fa4-70e8-4125-ae29-d4ca4b44857d","system_id":"levelo_inurba_marseille","lat":43.25502,"lon":5.37651,"is_reserved":false,"is_disabled":false,"rental_uris":{"android":"levelo://app?vid=e5742fa4-70e8-4125-ae29-d4ca4b44857d","ios":"levelo://app?vid=e5742fa4-70e8-4125-ae29-d4ca4b44857d"},"vehicle_type_id":"4","last_reported":1745158097,"current_range_meters":3200,"station_id":"ce4bhh12rcd13ifvqff0","pricing_plan_id":"cebpf4jnsgd1na2vs0mg"},{"bike_id":"4a86d0f8-ff65-4446-9521-1002867a3da0","system_id":"levelo_inurba_marseille","lat":43.245346,"lon":5.395166,"is_reserved":false,"is_disabled":true,"rental_uris":{"android":"levelo://app?vid=4a86d0f8-ff65-4446-9521-1002867a3da0","ios":"levelo://app?vid=4a86d0f8-ff65-4446-9521-1002867a3da0"},"vehicle_type_id":"4","last_reported":1745158097,"current_range_meters":3200,"station_id":"ce4bhlp2rcd13ifvqgjg","pricing_plan_id":"cebpf4jnsgd1na2vs0mg"},{"bike_id":"9555dbbc-2e96-4eb3-8459-fcb323e4d682","system_id":"levelo_inurba_marseille","lat":43.290073,"lon":5.356134,"is_reserved":false,"is_disabled":false,"rental_uris":{"android":"levelo://app?vid=9555dbbc-2e96-4eb3-8459-fcb323e4d682","ios":"levelo://app?vid=9555dbbc-2e96-4eb3-8459-fcb323e4d682"},"vehicle_type_id":"4","last_reported":1745158097,"current_range_meters":3200,"station_id":"ce4bh692rcd13ifvqe90","pricing_plan_id":"cebpf4jnsgd1na2vs0mg"},{"bike_id":"37bb3587-b194-474f-bc21-dae0feabb186","system_id":"levelo_inurba_marseille","lat":43.303009,"lon":5.392206,"is_reserved":false,"is_disabled":false,"rental_uris":{"android":"levelo://app?vid=37bb3587-b194-474f-bc21-dae0feabb186","ios":"levelo://app?vid=37bb3587-b194-474f-bc21-dae0feabb186"},"vehicle_type_id":"4","last_reported":1745158097,"current_range_meters":3200,"station_id":"ce4bgkh2rcd13ifvqbk0","pricing_plan_id":"cebpf4jnsgd1na2vs0mg"},{"bike_id":"dc9fb74e-a03e-43c2-8d6f-f9180da3139b","system_id":"levelo_inurba_marseille","lat":43.2942,"lon":5.38623,"is_reserved":false,"is_disabled":false,"rental_uris":{"android":"levelo://app?vid=dc9fb74e-a03e-43c2-8d6f-f9180da3139b","ios":"levelo://app?vid=dc9fb74e-a03e-43c2-8d6f-f9180da3139b"},"vehicle_type_id":"4","last_reported":1745158097,"current_range_meters":3200,"station_id":"ce4bh2h2rcd13ifvqdh0","pricing_plan_id":"cebpf4jnsgd1na2vs0mg"},{"bike_id":"8d015a2b-4362-4be4-a9f6-efc44718a61d","system_id":"levelo_inurba_marseille","lat":43.27376,"lon":5.36256,"is_reserved":false,"is_disabled":false,"rental_uris":{"android":"levelo://app?vid=8d015a2b-4362-4be4-a9f6-efc44718a61d","ios":"levelo://app?vid=8d015a2b-4362-4be4-a9f6-efc44718a61d"},"vehicle_type_id":"4","last_reported":1745158097,"current_range_meters":3600,"station_id":"ce4bhbh2rcd13ifvqeo0","pricing_plan_id":"cebpf4jnsgd1na2vs0mg"},{"bike_id":"066f1a3f-2f55-42ac-aa57-b561bb82f13e","system_id":"levelo_inurba_marseille","lat":43.309,"lon":5.37235,"is_reserved":false,"is_disabled":false,"rental_uris":{"android":"levelo://app?vid=066f1a3f-2f55-42ac-aa57-b561bb82f13e","ios":"levelo://app?vid=066f1a3f-2f55-42ac-aa57-b561bb82f13e"},"vehicle_type_id":"4","last_reported":1745158097,"current_range_meters":3600,"station_id":"ce4bguh2rcd13ifvqckg","pricing_plan_id":"cebpf4jnsgd1na2vs0mg"},{"bike_id":"45bf5733-342f-4ac4-80a4-ad2640aded4c","system_id":"levelo_inurba_marseille","lat":43.21754,"lon":5.34601,"is_reserved":false,"is_disabled":false,"rental_uris":{"android":"levelo://app?vid=45bf5733-342f-4ac4-80a4-ad2640aded4c","ios":"levelo://app?vid=45bf5733-342f-4ac4-80a4-ad2640aded4c"},"vehicle_type_id":"4","last_reported":1745158097,"current_range_meters":3600,"station_id":"st_cvj6r9ubvosntc0bgbag","pricing_plan_id":"cebpf4jnsgd1na2vs0mg"},{"bike_id":"cb0bb277-8404-4416-8218-27c5c620092e","system_id":"levelo_inurba_marseille","lat":43.2572,"lon":5.41115,"is_reserved":false,"is_disabled":false,"rental_uris":{"android":"levelo://app?vid=cb0bb277-8404-4416-8218-27c5c620092e","ios":"levelo://app?vid=cb0bb277-8404-4416-8218-27c5c620092e"},"vehicle_type_id":"4","last_reported":1745158097,"current_range_meters":3200,"station_id":"ce4bhkp2rcd13ifvqgd0","pricing_plan_id":"cebpf4jnsgd1na2vs0mg"},{"bike_id":"d03eb967-434d-4f21-8d5b-4afdc09d0e98","system_id":"levelo_inurba_marseille","lat":43.30201,"lon":5.39468,"is_reserved":false,"is_disabled":false,"rental_uris":{"android":"levelo://app?vid=d03eb967-434d-4f21-8d5b-4afdc09d0e98","ios":"levelo://app?vid=d03eb967-434d-4f21-8d5b-4afdc09d0e98"},"vehicle_type_id":"4","last_reported":1745158097,"current_range_meters":3600,"station_id":"ce4bh0p2rcd13ifvqd70","pricing_plan_id":"cebpf4jnsgd1na2vs0mg"},{"bike_id":"86d00f49-2e89-4a29-b32c-89a791d774b7","system_id":"levelo_inurba_marseille","lat":43.26194,"lon":5.37444,"is_reserved":false,"is_disabled":false,"rental_uris":{"android":"levelo://app?vid=86d00f49-2e89-4a29-b32c-89a791d774b7","ios":"levelo://app?vid=86d00f49-2e89-4a29-b32c-89a791d774b7"},"vehicle_type_id":"4","last_reported":1745158097,"current_range_meters":3600,"station_id":"ce4bhgp2rcd13ifvqfc0","pricing_plan_id":"cebpf4jnsgd1na2vs0mg"},{"bike_id":"4cdb0a0f-6366-43af-85c7-3c43d75a4386","system_id":"levelo_inurba_marseille","lat":43.31524,"lon":5.36537,"is_reserved":false,"is_disabled":false,"rental_uris":{"android":"levelo://app?vid=4cdb0a0f-6366-43af-85c7-3c43d75a4386","ios":"levelo://app?vid=4cdb0a0f-6366-43af-85c7-3c43d75a4386"},"vehicle_type_id":"4","last_reported":1745158097,"current_range_meters":3600,"station_id":"","pricing_plan_id":"cebpf4jnsgd1na2vs0mg"},{"bike_id":"a0ddb0a5-f7f0-4281-aa27-9e82747cc573","system_id":"levelo_inurba_marseille","lat":43.33754,"lon":5.37491,"is_reserved":false,"is_disabled":false,"rental_uris":{"android":"levelo://app?vid=a0ddb0a5-f7f0-4281-aa27-9e82747cc573","ios":"levelo://app?vid=a0ddb0a5-f7f0-4281-aa27-9e82747cc573"},"vehicle_type_id":"4","last_reported":1745158097,"current_range_meters":3600,"station_id":"","pricing_plan_id":"cebpf4jnsgd1na2vs0mg"},{"bike_id":"d3a8d843-381b-4957-a22a-097da290d159","system_id":"levelo_inurba_marseille","lat":43.27213,"lon":5.3918,"is_reserved":false,"is_disabled":false,"rental_uris":{"android":"levelo://app?vid=d3a8d843-381b-4957-a22a-097da290d159","ios":"levelo://app?vid=d3a8d843-381b-4957-a22a-097da290d159"},"vehicle_type_id":"4","last_reported":1745158097,"current_range_meters":4000,"station_id":"ce4bhhp2rcd13ifvqfm0","pricing_plan_id":"cebpf4jnsgd1na2vs0mg"},{"bike_id":"9fe8c14c-2d24-41b2-9662-956cdf9f075c","system_id":"levelo_inurba_marseille","lat":43.24472,"lon":5.36923,"is_reserved":false,"is_disabled":false,"rental_uris":{"android":"levelo://app?vid=9fe8c14c-2d24-41b2-9662-956cdf9f075c","ios":"levelo://app?vid=9fe8c14c-2d24-41b2-9662-956cdf9f075c"},"vehicle_type_id":"4","last_reported":1745158097,"current_range_meters":4000,"station_id":"","pricing_plan_id":"cebpf4jnsgd1na2vs0mg"},{"bike_id":"d34dfdc8-bed0-4933-941f-a98db5f026c4","system_id":"levelo_inurba_marseille","lat":43.21741,"lon":5.34603,"is_reserved":false,"is_disabled":false,"rental_uris":{"android":"levelo://app?vid=d34dfdc8-bed0-4933-941f-a98db5f026c4","ios":"levelo://app?vid=d34dfdc8-bed0-4933-941f-a98db5f026c4"},"vehicle_type_id":"4","last_reported":1745158097,"current_range_meters":4000,"station_id":"st_cvj6r9ubvosntc0bgbag","pricing_plan_id":"cebpf4jnsgd1na2vs0mg"},{"bike_id":"2e17db2a-5cd0-46a7-a180-587ed08e67b4","system_id":"levelo_inurba_marseille","lat":43.28446,"lon":5.39205,"is_reserved":false,"is_disabled":false,"rental_uris":{"android":"levelo://app?vid=2e17db2a-5cd0-46a7-a180-587ed08e67b4","ios":"levelo://app?vid=2e17db2a-5cd0-46a7-a180-587ed08e67b4"},"vehicle_type_id":"4","last_reported":1745158097,"current_range_meters":3600,"station_id":"ce4bhoh2rcd13ifvqh5g","pricing_plan_id":"cebpf4jnsgd1na2vs0mg"},{"bike_id":"07ac1f1d-85ef-406a-bc8a-cee4eb2f4491","system_id":"levelo_inurba_marseille","lat":43.31325,"lon":5.39687,"is_reserved":false,"is_disabled":false,"rental_uris":{"android":"levelo://app?vid=07ac1f1d-85ef-406a-bc8a-cee4eb2f4491","ios":"levelo://app?vid=07ac1f1d-85ef-406a-bc8a-cee4eb2f4491"},"vehicle_type_id":"4","last_reported":1745158097,"current_range_meters":4000,"station_id":"ce4bgvp2rcd13ifvqcu0","pricing_plan_id":"cebpf4jnsgd1na2vs0mg"},{"bike_id":"e3224750-ec92-4cd9-8d8b-c70fc45f9081","system_id":"levelo_inurba_marseille","lat":43.25576,"lon":5.3824,"is_reserved":false,"is_disabled":false,"rental_uris":{"android":"levelo://app?vid=e3224750-ec92-4cd9-8d8b-c70fc45f9081","ios":"levelo://app?vid=e3224750-ec92-4cd9-8d8b-c70fc45f9081"},"vehicle_type_id":"4","last_reported":1745158097,"current_range_meters":4000,"station_id":"ce4bhih2rcd13ifvqfs0","pricing_plan_id":"cebpf4jnsgd1na2vs0mg"},{"bike_id":"6accaa12-1d48-4656-b35c-9fb753810fff","system_id":"levelo_inurba_marseille","lat":43.23196,"lon":5.3555,"is_reserved":false,"is_disabled":true,"rental_uris":{"android":"levelo://app?vid=6accaa12-1d48-4656-b35c-9fb753810fff","ios":"levelo://app?vid=6accaa12-1d48-4656-b35c-9fb753810fff"},"vehicle_type_id":"4","last_reported":1745158097,"current_range_meters":4000,"station_id":"ce4bhu92rcd13ifvqi70","pricing_plan_id":"cebpf4jnsgd1na2vs0mg"},{"bike_id":"a27a9b82-cd75-4acd-9509-7dbd85e8d403","system_id":"levelo_inurba_marseille","lat":43.30891,"lon":5.39657,"is_reserved":false,"is_disabled":false,"rental_uris":{"android":"levelo://app?vid=a27a9b82-cd75-4acd-9509-7dbd85e8d403","ios":"levelo://app?vid=a27a9b82-cd75-4acd-9509-7dbd85e8d403"},"vehicle_type_id":"4","last_reported":1745158097,"current_range_meters":4400,"station_id":"ce4bh012rcd13ifvqcv0","pricing_plan_id":"cebpf4jnsgd1na2vs0mg"},{"bike_id":"35f0a6e1-f9a9-47ee-bab6-2641cdd8ae57","system_id":"levelo_inurba_marseille","lat":43.27323,"lon":5.39073,"is_reserved":false,"is_disabled":true,"rental_uris":{"android":"levelo://app?vid=35f0a6e1-f9a9-47ee-bab6-2641cdd8ae57","ios":"levelo://app?vid=35f0a6e1-f9a9-47ee-bab6-2641cdd8ae57"},"vehicle_type_id":"4","last_reported":1745158097,"current_range_meters":4400,"station_id":"ce4bhgp2rcd13ifvqfe0","pricing_plan_id":"cebpf4jnsgd1na2vs0mg"},{"bike_id":"362e2e8f-c00a-4a59-bc05-bf732da51e85","system_id":"levelo_inurba_marseille","lat":43.25502,"lon":5.37656,"is_reserved":false,"is_disabled":false,"rental_uris":{"android":"levelo://app?vid=362e2e8f-c00a-4a59-bc05-bf732da51e85","ios":"levelo://app?vid=362e2e8f-c00a-4a59-bc05-bf732da51e85"},"vehicle_type_id":"4","last_reported":1745158097,"current_range_meters":4400,"station_id":"ce4bhh12rcd13ifvqff0","pricing_plan_id":"cebpf4jnsgd1na2vs0mg"},{"bike_id":"7919eff9-1f32-4e6c-8a42-1fea05cfe983","system_id":"levelo_inurba_marseille","lat":43.27364,"lon":5.36246,"is_reserved":false,"is_disabled":false,"rental_uris":{"android":"levelo://app?vid=7919eff9-1f32-4e6c-8a42-1fea05cfe983","ios":"levelo://app?vid=7919eff9-1f32-4e6c-8a42-1fea05cfe983"},"vehicle_type_id":"4","last_reported":1745158097,"current_range_meters":4800,"station_id":"ce4bhbh2rcd13ifvqeo0","pricing_plan_id":"cebpf4jnsgd1na2vs0mg"},{"bike_id":"9ba4454f-c1ac-4a86-894a-f1f3741175b2","system_id":"levelo_inurba_marseille","lat":43.301453,"lon":5.380767,"is_reserved":false,"is_disabled":false,"rental_uris":{"android":"levelo://app?vid=9ba4454f-c1ac-4a86-894a-f1f3741175b2","ios":"levelo://app?vid=9ba4454f-c1ac-4a86-894a-f1f3741175b2"},"vehicle_type_id":"4","last_reported":1745158097,"current_range_meters":4800,"station_id":"ce4bgjp2rcd13ifvqbh0","pricing_plan_id":"cebpf4jnsgd1na2vs0mg"},{"bike_id":"cdb40323-1597-4ce8-bbe9-9bae544f3769","system_id":"levelo_inurba_marseille","lat":43.21748,"lon":5.34593,"is_reserved":false,"is_disabled":false,"rental_uris":{"android":"levelo://app?vid=cdb40323-1597-4ce8-bbe9-9bae544f3769","ios":"levelo://app?vid=cdb40323-1597-4ce8-bbe9-9bae544f3769"},"vehicle_type_id":"4","last_reported":1745158097,"current_range_meters":4800,"station_id":"st_cvj6r9ubvosntc0bgbag","pricing_plan_id":"cebpf4jnsgd1na2vs0mg"},{"bike_id":"22583896-a653-48d4-8b37-6cfca0e7be93","system_id":"levelo_inurba_marseille","lat":43.21203,"lon":5.35087,"is_reserved":false,"is_disabled":false,"rental_uris":{"android":"levelo://app?vid=22583896-a653-48d4-8b37-6cfca0e7be93","ios":"levelo://app?vid=22583896-a653-48d4-8b37-6cfca0e7be93"},"vehicle_type_id":"4","last_reported":1745158097,"current_range_meters":4800,"station_id":"st_cvj6sg6p6f1abm77japg","pricing_plan_id":"cebpf4jnsgd1na2vs0mg"},{"bike_id":"e36eee3f-e899-4919-a402-21704daa28c5","system_id":"levelo_inurba_marseille","lat":43.21189,"lon":5.35068,"is_reserved":false,"is_disabled":false,"rental_uris":{"android":"levelo://app?vid=e36eee3f-e899-4919-a402-21704daa28c5","ios":"levelo://app?vid=e36eee3f-e899-4919-a402-21704daa28c5"},"vehicle_type_id":"4","last_reported":1745158097,"current_range_meters":5600,"station_id":"st_cvj6sg6p6f1abm77japg","pricing_plan_id":"cebpf4jnsgd1na2vs0mg"},{"bike_id":"80e399c6-ea35-4e48-b798-aa559a4f8c6d","system_id":"levelo_inurba_marseille","lat":43.27378,"lon":5.36254,"is_reserved":false,"is_disabled":false,"rental_uris":{"android":"levelo://app?vid=80e399c6-ea35-4e48-b798-aa559a4f8c6d","ios":"levelo://app?vid=80e399c6-ea35-4e48-b798-aa559a4f8c6d"},"vehicle_type_id":"4","last_reported":1745158097,"current_range_meters":5600,"station_id":"ce4bhbh2rcd13ifvqeo0","pricing_plan_id":"cebpf4jnsgd1na2vs0mg"},{"bike_id":"1e3eef59-d224-437c-9c57-5259e2d85ec3","system_id":"levelo_inurba_marseille","lat":43.24797,"lon":5.37448,"is_reserved":false,"is_disabled":false,"rental_uris":{"android":"levelo://app?vid=1e3eef59-d224-437c-9c57-5259e2d85ec3","ios":"levelo://app?vid=1e3eef59-d224-437c-9c57-5259e2d85ec3"},"vehicle_type_id":"4","last_reported":1745158097,"current_range_meters":5600,"station_id":"ce4bhgh2rcd13ifvqfb0","pricing_plan_id":"cebpf4jnsgd1na2vs0mg"},{"bike_id":"b52a1751-28c1-4412-9819-bb1cff38059d","system_id":"levelo_inurba_marseille","lat":43.25551,"lon":5.40636,"is_reserved":false,"is_disabled":false,"rental_uris":{"android":"levelo://app?vid=b52a1751-28c1-4412-9819-bb1cff38059d","ios":"levelo://app?vid=b52a1751-28c1-4412-9819-bb1cff38059d"},"vehicle_type_id":"4","last_reported":1745158097,"current_range_meters":6000,"station_id":"","pricing_plan_id":"cebpf4jnsgd1na2vs0mg"},{"bike_id":"a4b2f251-0055-473d-bd5a-576322559380","system_id":"levelo_inurba_marseille","lat":43.26553,"lon":5.37279,"is_reserved":false,"is_disabled":false,"rental_uris":{"android":"levelo://app?vid=a4b2f251-0055-473d-bd5a-576322559380","ios":"levelo://app?vid=a4b2f251-0055-473d-bd5a-576322559380"},"vehicle_type_id":"4","last_reported":1745158097,"current_range_meters":5600,"station_id":"ce4bhg12rcd13ifvqf70","pricing_plan_id":"cebpf4jnsgd1na2vs0mg"},{"bike_id":"20e71098-bd45-42a3-b765-5c8d9566a8fb","system_id":"levelo_inurba_marseille","lat":43.30215,"lon":5.38997,"is_reserved":false,"is_disabled":false,"rental_uris":{"android":"levelo://app?vid=20e71098-bd45-42a3-b765-5c8d9566a8fb","ios":"levelo://app?vid=20e71098-bd45-42a3-b765-5c8d9566a8fb"},"vehicle_type_id":"4","last_reported":1745158097,"current_range_meters":5600,"station_id":"","pricing_plan_id":"cebpf4jnsgd1na2vs0mg"},{"bike_id":"7b40a440-a34a-4c11-8d0d-fb320480f7a4","system_id":"levelo_inurba_marseille","lat":43.29437,"lon":5.39758,"is_reserved":false,"is_disabled":false,"rental_uris":{"android":"levelo://app?vid=7b40a440-a34a-4c11-8d0d-fb320480f7a4","ios":"levelo://app?vid=7b40a440-a34a-4c11-8d0d-fb320480f7a4"},"vehicle_type_id":"4","last_reported":1745158097,"current_range_meters":6000,"station_id":"ce4bh3h2rcd13ifvqdo0","pricing_plan_id":"cebpf4jnsgd1na2vs0mg"},{"bike_id":"3b03b009-295e-422e-8993-dee6c33a459c","system_id":"levelo_inurba_marseille","lat":43.21745,"lon":5.34603,"is_reserved":false,"is_disabled":false,"rental_uris":{"android":"levelo://app?vid=3b03b009-295e-422e-8993-dee6c33a459c","ios":"levelo://app?vid=3b03b009-295e-422e-8993-dee6c33a459c"},"vehicle_type_id":"4","last_reported":1745158097,"current_range_meters":6000,"station_id":"st_cvj6r9ubvosntc0bgbag","pricing_plan_id":"cebpf4jnsgd1na2vs0mg"},{"bike_id":"e99fb905-7813-4d4d-9980-0670daa84d69","system_id":"levelo_inurba_marseille","lat":43.26194,"lon":5.37449,"is_reserved":false,"is_disabled":false,"rental_uris":{"android":"levelo://app?vid=e99fb905-7813-4d4d-9980-0670daa84d69","ios":"levelo://app?vid=e99fb905-7813-4d4d-9980-0670daa84d69"},"vehicle_type_id":"4","last_reported":1745158097,"current_range_meters":6000,"station_id":"ce4bhgp2rcd13ifvqfc0","pricing_plan_id":"cebpf4jnsgd1na2vs0mg"},{"bike_id":"10901109-dd8b-4da9-9837-2ccd5b1c4427","system_id":"levelo_inurba_marseille","lat":43.23202,"lon":5.39964,"is_reserved":false,"is_disabled":false,"rental_uris":{"android":"levelo://app?vid=10901109-dd8b-4da9-9837-2ccd5b1c4427","ios":"levelo://app?vid=10901109-dd8b-4da9-9837-2ccd5b1c4427"},"vehicle_type_id":"4","last_reported":1745158097,"current_range_meters":6000,"station_id":"ce4bhn12rcd13ifvqgqg","pricing_plan_id":"cebpf4jnsgd1na2vs0mg"},{"bike_id":"23ce463e-fd11-4348-af9f-a3846d298a6f","system_id":"levelo_inurba_marseille","lat":43.21751,"lon":5.34591,"is_reserved":false,"is_disabled":false,"rental_uris":{"android":"levelo://app?vid=23ce463e-fd11-4348-af9f-a3846d298a6f","ios":"levelo://app?vid=23ce463e-fd11-4348-af9f-a3846d298a6f"},"vehicle_type_id":"4","last_reported":1745158097,"current_range_meters":6400,"station_id":"st_cvj6r9ubvosntc0bgbag","pricing_plan_id":"cebpf4jnsgd1na2vs0mg"},{"bike_id":"acde2c5a-9f11-474e-9f0c-6b87f0eefc97","system_id":"levelo_inurba_marseille","lat":43.28441,"lon":5.39195,"is_reserved":false,"is_disabled":false,"rental_uris":{"android":"levelo://app?vid=acde2c5a-9f11-474e-9f0c-6b87f0eefc97","ios":"levelo://app?vid=acde2c5a-9f11-474e-9f0c-6b87f0eefc97"},"vehicle_type_id":"4","last_reported":1745158097,"current_range_meters":6000,"station_id":"ce4bhoh2rcd13ifvqh5g","pricing_plan_id":"cebpf4jnsgd1na2vs0mg"},{"bike_id":"e45737d8-4e0b-4db0-a45b-0b9936d251c2","system_id":"levelo_inurba_marseille","lat":43.27366,"lon":5.36246,"is_reserved":false,"is_disabled":false,"rental_uris":{"android":"levelo://app?vid=e45737d8-4e0b-4db0-a45b-0b9936d251c2","ios":"levelo://app?vid=e45737d8-4e0b-4db0-a45b-0b9936d251c2"},"vehicle_type_id":"4","last_reported":1745158097,"current_range_meters":6400,"station_id":"ce4bhbh2rcd13ifvqeo0","pricing_plan_id":"cebpf4jnsgd1na2vs0mg"},{"bike_id":"ed31bf60-28a9-4aa9-b1aa-0dafeec55598","system_id":"levelo_inurba_marseille","lat":43.2737,"lon":5.36256,"is_reserved":false,"is_disabled":false,"rental_uris":{"android":"levelo://app?vid=ed31bf60-28a9-4aa9-b1aa-0dafeec55598","ios":"levelo://app?vid=ed31bf60-28a9-4aa9-b1aa-0dafeec55598"},"vehicle_type_id":"4","last_reported":1745158097,"current_range_meters":6400,"station_id":"ce4bhbh2rcd13ifvqeo0","pricing_plan_id":"cebpf4jnsgd1na2vs0mg"},{"bike_id":"186380b9-3dab-457b-b648-71d123fa0368","system_id":"levelo_inurba_marseille","lat":43.25109,"lon":5.40314,"is_reserved":false,"is_disabled":true,"rental_uris":{"android":"levelo://app?vid=186380b9-3dab-457b-b648-71d123fa0368","ios":"levelo://app?vid=186380b9-3dab-457b-b648-71d123fa0368"},"vehicle_type_id":"4","last_reported":1745158097,"current_range_meters":6400,"station_id":"ce4bhlh2rcd13ifvqgig","pricing_plan_id":"cebpf4jnsgd1na2vs0mg"},{"bike_id":"d670f322-c36b-42e2-af90-5389682beb17","system_id":"levelo_inurba_marseille","lat":43.211897,"lon":5.350722,"is_reserved":false,"is_disabled":false,"rental_uris":{"android":"levelo://app?vid=d670f322-c36b-42e2-af90-5389682beb17","ios":"levelo://app?vid=d670f322-c36b-42e2-af90-5389682beb17"},"vehicle_type_id":"4","last_reported":1745158097,"current_range_meters":6400,"station_id":"st_cvj6sg6p6f1abm77japg","pricing_plan_id":"cebpf4jnsgd1na2vs0mg"},{"bike_id":"1e0e5d8d-33bc-4979-bc7e-9520f24e6714","system_id":"levelo_inurba_marseille","lat":43.24812,"lon":5.37447,"is_reserved":false,"is_disabled":false,"rental_uris":{"android":"levelo://app?vid=1e0e5d8d-33bc-4979-bc7e-9520f24e6714","ios":"levelo://app?vid=1e0e5d8d-33bc-4979-bc7e-9520f24e6714"},"vehicle_type_id":"4","last_reported":1745158097,"current_range_meters":6400,"station_id":"ce4bhgh2rcd13ifvqfb0","pricing_plan_id":"cebpf4jnsgd1na2vs0mg"},{"bike_id":"beb0d3c0-549a-4a90-8320-da73ac782083","system_id":"levelo_inurba_marseille","lat":43.23053,"lon":5.354871,"is_reserved":false,"is_disabled":false,"rental_uris":{"android":"levelo://app?vid=beb0d3c0-549a-4a90-8320-da73ac782083","ios":"levelo://app?vid=beb0d3c0-549a-4a90-8320-da73ac782083"},"vehicle_type_id":"4","last_reported":1745158097,"current_range_meters":6800,"station_id":"cpo3342slgdg3j2ifvpg","pricing_plan_id":"cebpf4jnsgd1na2vs0mg"},{"bike_id":"656ac081-c121-4824-81a4-fa92b7720ed4","system_id":"levelo_inurba_marseille","lat":43.23188,"lon":5.35559,"is_reserved":false,"is_disabled":false,"rental_uris":{"android":"levelo://app?vid=656ac081-c121-4824-81a4-fa92b7720ed4","ios":"levelo://app?vid=656ac081-c121-4824-81a4-fa92b7720ed4"},"vehicle_type_id":"4","last_reported":1745158097,"current_range_meters":6800,"station_id":"ce4bhu92rcd13ifvqi70","pricing_plan_id":"cebpf4jnsgd1na2vs0mg"},{"bike_id":"1eaca8f5-0017-418a-9bfc-52185bf67513","system_id":"levelo_inurba_marseille","lat":43.337326,"lon":5.391825,"is_reserved":false,"is_disabled":false,"rental_uris":{"android":"levelo://app?vid=1eaca8f5-0017-418a-9bfc-52185bf67513","ios":"levelo://app?vid=1eaca8f5-0017-418a-9bfc-52185bf67513"},"vehicle_type_id":"4","last_reported":1745158097,"current_range_meters":6800,"station_id":"ce4bhr92rcd13ifvqhsg","pricing_plan_id":"cebpf4jnsgd1na2vs0mg"},{"bike_id":"065840ce-8f53-4b21-8716-8b1ed5d25669","system_id":"levelo_inurba_marseille","lat":43.24073,"lon":5.37753,"is_reserved":false,"is_disabled":false,"rental_uris":{"android":"levelo://app?vid=065840ce-8f53-4b21-8716-8b1ed5d25669","ios":"levelo://app?vid=065840ce-8f53-4b21-8716-8b1ed5d25669"},"vehicle_type_id":"4","last_reported":1745158097,"current_range_meters":6800,"station_id":"ce4bhnp2rcd13ifvqgvg","pricing_plan_id":"cebpf4jnsgd1na2vs0mg"},{"bike_id":"9b0ec8eb-f454-4089-a408-904efbf07130","system_id":"levelo_inurba_marseille","lat":43.23195,"lon":5.35551,"is_reserved":false,"is_disabled":false,"rental_uris":{"android":"levelo://app?vid=9b0ec8eb-f454-4089-a408-904efbf07130","ios":"levelo://app?vid=9b0ec8eb-f454-4089-a408-904efbf07130"},"vehicle_type_id":"4","last_reported":1745158097,"current_range_meters":6800,"station_id":"ce4bhu92rcd13ifvqi70","pricing_plan_id":"cebpf4jnsgd1na2vs0mg"},{"bike_id":"225e3526-8097-487c-8166-39f04b762f21","system_id":"levelo_inurba_marseille","lat":43.23958,"lon":5.36633,"is_reserved":false,"is_disabled":false,"rental_uris":{"android":"levelo://app?vid=225e3526-8097-487c-8166-39f04b762f21","ios":"levelo://app?vid=225e3526-8097-487c-8166-39f04b762f21"},"vehicle_type_id":"4","last_reported":1745158097,"current_range_meters":6800,"station_id":"ce4bhi12rcd13ifvqfp0","pricing_plan_id":"cebpf4jnsgd1na2vs0mg"},{"bike_id":"83737fdd-005d-403e-8fa2-1644fc83261a","system_id":"levelo_inurba_marseille","lat":43.309513,"lon":5.390391,"is_reserved":false,"is_disabled":false,"rental_uris":{"android":"levelo://app?vid=83737fdd-005d-403e-8fa2-1644fc83261a","ios":"levelo://app?vid=83737fdd-005d-403e-8fa2-1644fc83261a"},"vehicle_type_id":"4","last_reported":1745158097,"current_range_meters":6800,"station_id":"","pricing_plan_id":"cebpf4jnsgd1na2vs0mg"},{"bike_id":"448ee928-9c64-409d-a14f-a917d05204a9","system_id":"levelo_inurba_marseille","lat":43.33605,"lon":5.41026,"is_reserved":false,"is_disabled":false,"rental_uris":{"android":"levelo://app?vid=448ee928-9c64-409d-a14f-a917d05204a9","ios":"levelo://app?vid=448ee928-9c64-409d-a14f-a917d05204a9"},"vehicle_type_id":"4","last_reported":1745158097,"current_range_meters":6800,"station_id":"ce4bhqh2rcd13ifvqhmg","pricing_plan_id":"cebpf4jnsgd1na2vs0mg"},{"bike_id":"d2ba4413-c35f-41b1-8baf-f83e6001a359","system_id":"levelo_inurba_marseille","lat":43.29021,"lon":5.38636,"is_reserved":false,"is_disabled":true,"rental_uris":{"android":"levelo://app?vid=d2ba4413-c35f-41b1-8baf-f83e6001a359","ios":"levelo://app?vid=d2ba4413-c35f-41b1-8baf-f83e6001a359"},"vehicle_type_id":"4","last_reported":1745158097,"current_range_meters":6800,"station_id":"ce4bh4p2rcd13ifvqe0g","pricing_plan_id":"cebpf4jnsgd1na2vs0mg"},{"bike_id":"4f7d7a48-9ed4-49ae-98c3-6d5ae3d0a41a","system_id":"levelo_inurba_marseille","lat":43.229154,"lon":5.353921,"is_reserved":false,"is_disabled":false,"rental_uris":{"android":"levelo://app?vid=4f7d7a48-9ed4-49ae-98c3-6d5ae3d0a41a","ios":"levelo://app?vid=4f7d7a48-9ed4-49ae-98c3-6d5ae3d0a41a"},"vehicle_type_id":"4","last_reported":1745158097,"current_range_meters":6800,"station_id":"cpo3532slgdg3j2ikp40","pricing_plan_id":"cebpf4jnsgd1na2vs0mg"},{"bike_id":"6c30e091-3528-44fd-8a69-703e2e6ecfc4","system_id":"levelo_inurba_marseille","lat":43.23963,"lon":5.36633,"is_reserved":false,"is_disabled":false,"rental_uris":{"android":"levelo://app?vid=6c30e091-3528-44fd-8a69-703e2e6ecfc4","ios":"levelo://app?vid=6c30e091-3528-44fd-8a69-703e2e6ecfc4"},"vehicle_type_id":"4","last_reported":1745158097,"current_range_meters":7200,"station_id":"ce4bhi12rcd13ifvqfp0","pricing_plan_id":"cebpf4jnsgd1na2vs0mg"},{"bike_id":"0c982fa3-e4b2-4d46-b78a-b1fc3d0e15d1","system_id":"levelo_inurba_marseille","lat":43.29713,"lon":5.36612,"is_reserved":false,"is_disabled":false,"rental_uris":{"android":"levelo://app?vid=0c982fa3-e4b2-4d46-b78a-b1fc3d0e15d1","ios":"levelo://app?vid=0c982fa3-e4b2-4d46-b78a-b1fc3d0e15d1"},"vehicle_type_id":"4","last_reported":1745158097,"current_range_meters":6800,"station_id":"ce4bgn12rcd13ifvqbt0","pricing_plan_id":"cebpf4jnsgd1na2vs0mg"},{"bike_id":"7a780f65-e454-4675-960f-92f7ccd08057","system_id":"levelo_inurba_marseille","lat":43.2119,"lon":5.35078,"is_reserved":false,"is_disabled":false,"rental_uris":{"android":"levelo://app?vid=7a780f65-e454-4675-960f-92f7ccd08057","ios":"levelo://app?vid=7a780f65-e454-4675-960f-92f7ccd08057"},"vehicle_type_id":"4","last_reported":1745158097,"current_range_meters":7200,"station_id":"st_cvj6sg6p6f1abm77japg","pricing_plan_id":"cebpf4jnsgd1na2vs0mg"},{"bike_id":"f8266a8e-1bd9-4182-b247-939bdafbb72c","system_id":"levelo_inurba_marseille","lat":43.30457,"lon":5.37894,"is_reserved":false,"is_disabled":true,"rental_uris":{"android":"levelo://app?vid=f8266a8e-1bd9-4182-b247-939bdafbb72c","ios":"levelo://app?vid=f8266a8e-1bd9-4182-b247-939bdafbb72c"},"vehicle_type_id":"4","last_reported":1745158097,"current_range_meters":7200,"station_id":"ce4bgup2rcd13ifvqcn0","pricing_plan_id":"cebpf4jnsgd1na2vs0mg"},{"bike_id":"1965f819-3778-4654-96e5-aaaf9c36cc08","system_id":"levelo_inurba_marseille","lat":43.30382,"lon":5.42474,"is_reserved":false,"is_disabled":false,"rental_uris":{"android":"levelo://app?vid=1965f819-3778-4654-96e5-aaaf9c36cc08","ios":"levelo://app?vid=1965f819-3778-4654-96e5-aaaf9c36cc08"},"vehicle_type_id":"4","last_reported":1745158097,"current_range_meters":7200,"station_id":"ce4bhoh2rcd13ifvqh6g","pricing_plan_id":"cebpf4jnsgd1na2vs0mg"},{"bike_id":"358e1f20-d875-48ca-9d8c-02d4bc4fc797","system_id":"levelo_inurba_marseille","lat":43.33736,"lon":5.39187,"is_reserved":false,"is_disabled":false,"rental_uris":{"android":"levelo://app?vid=358e1f20-d875-48ca-9d8c-02d4bc4fc797","ios":"levelo://app?vid=358e1f20-d875-48ca-9d8c-02d4bc4fc797"},"vehicle_type_id":"4","last_reported":1745158097,"current_range_meters":7200,"station_id":"ce4bhr92rcd13ifvqhsg","pricing_plan_id":"cebpf4jnsgd1na2vs0mg"},{"bike_id":"a969d1ed-77d3-4189-b5a7-0bf8cf90d349","system_id":"levelo_inurba_marseille","lat":43.231885,"lon":5.35554,"is_reserved":false,"is_disabled":false,"rental_uris":{"android":"levelo://app?vid=a969d1ed-77d3-4189-b5a7-0bf8cf90d349","ios":"levelo://app?vid=a969d1ed-77d3-4189-b5a7-0bf8cf90d349"},"vehicle_type_id":"4","last_reported":1745158097,"current_range_meters":7200,"station_id":"ce4bhu92rcd13ifvqi70","pricing_plan_id":"cebpf4jnsgd1na2vs0mg"},{"bike_id":"e970a77c-97b4-4b75-8155-7044bacc8b02","system_id":"levelo_inurba_marseille","lat":43.25112,"lon":5.40318,"is_reserved":false,"is_disabled":false,"rental_uris":{"android":"levelo://app?vid=e970a77c-97b4-4b75-8155-7044bacc8b02","ios":"levelo://app?vid=e970a77c-97b4-4b75-8155-7044bacc8b02"},"vehicle_type_id":"4","last_reported":1745158097,"current_range_meters":8000,"station_id":"ce4bhlh2rcd13ifvqgig","pricing_plan_id":"cebpf4jnsgd1na2vs0mg"},{"bike_id":"b752f033-daa4-4b12-ae9f-eb0188f62ca1","system_id":"levelo_inurba_marseille","lat":43.24181,"lon":5.39734,"is_reserved":false,"is_disabled":false,"rental_uris":{"android":"levelo://app?vid=b752f033-daa4-4b12-ae9f-eb0188f62ca1","ios":"levelo://app?vid=b752f033-daa4-4b12-ae9f-eb0188f62ca1"},"vehicle_type_id":"4","last_reported":1745158097,"current_range_meters":8000,"station_id":"ce4bhn12rcd13ifvqgpg","pricing_plan_id":"cebpf4jnsgd1na2vs0mg"},{"bike_id":"6b2a2f68-fd74-4a24-a495-23dd8d3467f4","system_id":"levelo_inurba_marseille","lat":43.21194,"lon":5.35083,"is_reserved":false,"is_disabled":false,"rental_uris":{"android":"levelo://app?vid=6b2a2f68-fd74-4a24-a495-23dd8d3467f4","ios":"levelo://app?vid=6b2a2f68-fd74-4a24-a495-23dd8d3467f4"},"vehicle_type_id":"4","last_reported":1745158097,"current_range_meters":8000,"station_id":"st_cvj6sg6p6f1abm77japg","pricing_plan_id":"cebpf4jnsgd1na2vs0mg"},{"bike_id":"bb67c96f-4e51-4829-af34-07fdb4a73af6","system_id":"levelo_inurba_marseille","lat":43.22932,"lon":5.35377,"is_reserved":false,"is_disabled":false,"rental_uris":{"android":"levelo://app?vid=bb67c96f-4e51-4829-af34-07fdb4a73af6","ios":"levelo://app?vid=bb67c96f-4e51-4829-af34-07fdb4a73af6"},"vehicle_type_id":"4","last_reported":1745158097,"current_range_meters":8000,"station_id":"cpo3532slgdg3j2ikp40","pricing_plan_id":"cebpf4jnsgd1na2vs0mg"},{"bike_id":"967fc5c2-2d8c-40dc-b0d8-39b0debd9469","system_id":"levelo_inurba_marseille","lat":43.23066,"lon":5.35498,"is_reserved":false,"is_disabled":false,"rental_uris":{"android":"levelo://app?vid=967fc5c2-2d8c-40dc-b0d8-39b0debd9469","ios":"levelo://app?vid=967fc5c2-2d8c-40dc-b0d8-39b0debd9469"},"vehicle_type_id":"4","last_reported":1745158097,"current_range_meters":8000,"station_id":"cpo3342slgdg3j2ifvpg","pricing_plan_id":"cebpf4jnsgd1na2vs0mg"},{"bike_id":"931800f0-f5ae-42dc-9401-5ef75e1edc12","system_id":"levelo_inurba_marseille","lat":43.27395,"lon":5.4142,"is_reserved":false,"is_disabled":false,"rental_uris":{"android":"levelo://app?vid=931800f0-f5ae-42dc-9401-5ef75e1edc12","ios":"levelo://app?vid=931800f0-f5ae-42dc-9401-5ef75e1edc12"},"vehicle_type_id":"4","last_reported":1745158097,"current_range_meters":8000,"station_id":"","pricing_plan_id":"cebpf4jnsgd1na2vs0mg"},{"bike_id":"28dc7f47-8ab8-4419-ad97-a9a42cee2b96","system_id":"levelo_inurba_marseille","lat":43.23059,"lon":5.35491,"is_reserved":false,"is_disabled":false,"rental_uris":{"android":"levelo://app?vid=28dc7f47-8ab8-4419-ad97-a9a42cee2b96","ios":"levelo://app?vid=28dc7f47-8ab8-4419-ad97-a9a42cee2b96"},"vehicle_type_id":"4","last_reported":1745158097,"current_range_meters":8400,"station_id":"cpo3342slgdg3j2ifvpg","pricing_plan_id":"cebpf4jnsgd1na2vs0mg"},{"bike_id":"8add90be-7694-4829-ba13-0c5919aef581","system_id":"levelo_inurba_marseille","lat":43.29529,"lon":5.37415,"is_reserved":false,"is_disabled":false,"rental_uris":{"android":"levelo://app?vid=8add90be-7694-4829-ba13-0c5919aef581","ios":"levelo://app?vid=8add90be-7694-4829-ba13-0c5919aef581"},"vehicle_type_id":"4","last_reported":1745158097,"current_range_meters":8400,"station_id":"","pricing_plan_id":"cebpf4jnsgd1na2vs0mg"},{"bike_id":"c050b6dc-b25c-4a8f-ac90-ed3871ad725f","system_id":"levelo_inurba_marseille","lat":43.28267,"lon":5.35064,"is_reserved":false,"is_disabled":false,"rental_uris":{"android":"levelo://app?vid=c050b6dc-b25c-4a8f-ac90-ed3871ad725f","ios":"levelo://app?vid=c050b6dc-b25c-4a8f-ac90-ed3871ad725f"},"vehicle_type_id":"4","last_reported":1745158097,"current_range_meters":8400,"station_id":"ce4bhbp2rcd13ifvqerg","pricing_plan_id":"cebpf4jnsgd1na2vs0mg"},{"bike_id":"ab9be9a2-b412-4e12-b774-0ac14e1c75f2","system_id":"levelo_inurba_marseille","lat":43.23182,"lon":5.35547,"is_reserved":false,"is_disabled":false,"rental_uris":{"android":"levelo://app?vid=ab9be9a2-b412-4e12-b774-0ac14e1c75f2","ios":"levelo://app?vid=ab9be9a2-b412-4e12-b774-0ac14e1c75f2"},"vehicle_type_id":"4","last_reported":1745158097,"current_range_meters":8400,"station_id":"ce4bhu92rcd13ifvqi70","pricing_plan_id":"cebpf4jnsgd1na2vs0mg"},{"bike_id":"6df1d7ed-a891-4ac4-8c00-6a253ba703c7","system_id":"levelo_inurba_marseille","lat":43.21192,"lon":5.35076,"is_reserved":false,"is_disabled":false,"rental_uris":{"android":"levelo://app?vid=6df1d7ed-a891-4ac4-8c00-6a253ba703c7","ios":"levelo://app?vid=6df1d7ed-a891-4ac4-8c00-6a253ba703c7"},"vehicle_type_id":"4","last_reported":1745158097,"current_range_meters":8400,"station_id":"st_cvj6sg6p6f1abm77japg","pricing_plan_id":"cebpf4jnsgd1na2vs0mg"},{"bike_id":"1749884b-1bf2-4d79-a80a-0ac8597f8c9a","system_id":"levelo_inurba_marseille","lat":43.275535,"lon":5.359773,"is_reserved":false,"is_disabled":false,"rental_uris":{"android":"levelo://app?vid=1749884b-1bf2-4d79-a80a-0ac8597f8c9a","ios":"levelo://app?vid=1749884b-1bf2-4d79-a80a-0ac8597f8c9a"},"vehicle_type_id":"4","last_reported":1745158097,"current_range_meters":8000,"station_id":"ce4bgj92rcd13ifvqbe0","pricing_plan_id":"cebpf4jnsgd1na2vs0mg"},{"bike_id":"f0b6af0d-1cbf-47a3-af07-dab09fabbbf0","system_id":"levelo_inurba_marseille","lat":43.231951,"lon":5.35564,"is_reserved":false,"is_disabled":false,"rental_uris":{"android":"levelo://app?vid=f0b6af0d-1cbf-47a3-af07-dab09fabbbf0","ios":"levelo://app?vid=f0b6af0d-1cbf-47a3-af07-dab09fabbbf0"},"vehicle_type_id":"4","last_reported":1745158097,"current_range_meters":8400,"station_id":"ce4bhu92rcd13ifvqi70","pricing_plan_id":"cebpf4jnsgd1na2vs0mg"},{"bike_id":"954c0ac0-1f5a-4f75-9237-6b98acc0aa2a","system_id":"levelo_inurba_marseille","lat":43.22928,"lon":5.35383,"is_reserved":false,"is_disabled":false,"rental_uris":{"android":"levelo://app?vid=954c0ac0-1f5a-4f75-9237-6b98acc0aa2a","ios":"levelo://app?vid=954c0ac0-1f5a-4f75-9237-6b98acc0aa2a"},"vehicle_type_id":"4","last_reported":1745158097,"current_range_meters":8400,"station_id":"cpo3532slgdg3j2ikp40","pricing_plan_id":"cebpf4jnsgd1na2vs0mg"},{"bike_id":"97e50bb0-9a70-481b-b370-e509345e710a","system_id":"levelo_inurba_marseille","lat":43.28025,"lon":5.36936,"is_reserved":false,"is_disabled":true,"rental_uris":{"android":"levelo://app?vid=97e50bb0-9a70-481b-b370-e509345e710a","ios":"levelo://app?vid=97e50bb0-9a70-481b-b370-e509345e710a"},"vehicle_type_id":"4","last_reported":1745158097,"current_range_meters":8800,"station_id":"ce4bha12rcd13ifvqef0","pricing_plan_id":"cebpf4jnsgd1na2vs0mg"},{"bike_id":"a22bb51d-efdb-45db-b265-a23e7975af7d","system_id":"levelo_inurba_marseille","lat":43.24692,"lon":5.3814,"is_reserved":false,"is_disabled":false,"rental_uris":{"android":"levelo://app?vid=a22bb51d-efdb-45db-b265-a23e7975af7d","ios":"levelo://app?vid=a22bb51d-efdb-45db-b265-a23e7975af7d"},"vehicle_type_id":"4","last_reported":1745158097,"current_range_meters":8800,"station_id":"ce4bhih2rcd13ifvqfr0","pricing_plan_id":"cebpf4jnsgd1na2vs0mg"},{"bike_id":"3c939ddb-8cbc-4849-9c02-c27a74e01dee","system_id":"levelo_inurba_marseille","lat":43.21747,"lon":5.346,"is_reserved":false,"is_disabled":false,"rental_uris":{"android":"levelo://app?vid=3c939ddb-8cbc-4849-9c02-c27a74e01dee","ios":"levelo://app?vid=3c939ddb-8cbc-4849-9c02-c27a74e01dee"},"vehicle_type_id":"4","last_reported":1745158097,"current_range_meters":8800,"station_id":"","pricing_plan_id":"cebpf4jnsgd1na2vs0mg"},{"bike_id":"8a3401e6-5f82-46ee-bdf2-d36c21e1ff2f","system_id":"levelo_inurba_marseille","lat":43.21191,"lon":5.35072,"is_reserved":false,"is_disabled":false,"rental_uris":{"android":"levelo://app?vid=8a3401e6-5f82-46ee-bdf2-d36c21e1ff2f","ios":"levelo://app?vid=8a3401e6-5f82-46ee-bdf2-d36c21e1ff2f"},"vehicle_type_id":"4","last_reported":1745158097,"current_range_meters":8800,"station_id":"st_cvj6sg6p6f1abm77japg","pricing_plan_id":"cebpf4jnsgd1na2vs0mg"},{"bike_id":"6565ca44-2e63-4f42-a847-09fa2bdb37f3","system_id":"levelo_inurba_marseille","lat":43.31999,"lon":5.38146,"is_reserved":false,"is_disabled":true,"rental_uris":{"android":"levelo://app?vid=6565ca44-2e63-4f42-a847-09fa2bdb37f3","ios":"levelo://app?vid=6565ca44-2e63-4f42-a847-09fa2bdb37f3"},"vehicle_type_id":"4","last_reported":1745158097,"current_range_meters":8800,"station_id":"ce4bhr12rcd13ifvqhpg","pricing_plan_id":"cebpf4jnsgd1na2vs0mg"},{"bike_id":"152543a7-d9c2-46de-be6a-7877281318bf","system_id":"levelo_inurba_marseille","lat":43.28033,"lon":5.36944,"is_reserved":false,"is_disabled":false,"rental_uris":{"android":"levelo://app?vid=152543a7-d9c2-46de-be6a-7877281318bf","ios":"levelo://app?vid=152543a7-d9c2-46de-be6a-7877281318bf"},"vehicle_type_id":"4","last_reported":1745158097,"current_range_meters":8800,"station_id":"ce4bha12rcd13ifvqef0","pricing_plan_id":"cebpf4jnsgd1na2vs0mg"},{"bike_id":"44fed244-f31b-45be-84ce-748891659821","system_id":"levelo_inurba_marseille","lat":43.21206,"lon":5.35065,"is_reserved":false,"is_disabled":false,"rental_uris":{"android":"levelo://app?vid=44fed244-f31b-45be-84ce-748891659821","ios":"levelo://app?vid=44fed244-f31b-45be-84ce-748891659821"},"vehicle_type_id":"4","last_reported":1745158097,"current_range_meters":8800,"station_id":"st_cvj6sg6p6f1abm77japg","pricing_plan_id":"cebpf4jnsgd1na2vs0mg"},{"bike_id":"138d6608-886e-4863-a664-7df6e5cc9a47","system_id":"levelo_inurba_marseille","lat":43.326488,"lon":5.421963,"is_reserved":false,"is_disabled":false,"rental_uris":{"android":"levelo://app?vid=138d6608-886e-4863-a664-7df6e5cc9a47","ios":"levelo://app?vid=138d6608-886e-4863-a664-7df6e5cc9a47"},"vehicle_type_id":"4","last_reported":1745158097,"current_range_meters":8800,"station_id":"","pricing_plan_id":"cebpf4jnsgd1na2vs0mg"},{"bike_id":"36ac02ba-2835-48d7-9d54-047188b88f77","system_id":"levelo_inurba_marseille","lat":43.2418,"lon":5.39705,"is_reserved":false,"is_disabled":false,"rental_uris":{"android":"levelo://app?vid=36ac02ba-2835-48d7-9d54-047188b88f77","ios":"levelo://app?vid=36ac02ba-2835-48d7-9d54-047188b88f77"},"vehicle_type_id":"4","last_reported":1745158097,"current_range_meters":9200,"station_id":"ce4bhn12rcd13ifvqgpg","pricing_plan_id":"cebpf4jnsgd1na2vs0mg"},{"bike_id":"2bb99097-c26f-4681-bb95-3fe5a7ff6560","system_id":"levelo_inurba_marseille","lat":43.25502,"lon":5.37653,"is_reserved":false,"is_disabled":false,"rental_uris":{"android":"levelo://app?vid=2bb99097-c26f-4681-bb95-3fe5a7ff6560","ios":"levelo://app?vid=2bb99097-c26f-4681-bb95-3fe5a7ff6560"},"vehicle_type_id":"4","last_reported":1745158097,"current_range_meters":9200,"station_id":"ce4bhh12rcd13ifvqff0","pricing_plan_id":"cebpf4jnsgd1na2vs0mg"},{"bike_id":"24213b37-b766-4d9c-a174-f6bf34920497","system_id":"levelo_inurba_marseille","lat":43.28469,"lon":5.384178,"is_reserved":false,"is_disabled":false,"rental_uris":{"android":"levelo://app?vid=24213b37-b766-4d9c-a174-f6bf34920497","ios":"levelo://app?vid=24213b37-b766-4d9c-a174-f6bf34920497"},"vehicle_type_id":"4","last_reported":1745158097,"current_range_meters":9200,"station_id":"ce4bh512rcd13ifvqe3g","pricing_plan_id":"cebpf4jnsgd1na2vs0mg"},{"bike_id":"ee77508c-6f9d-400c-9442-6494c8451c48","system_id":"levelo_inurba_marseille","lat":43.25114,"lon":5.40317,"is_reserved":false,"is_disabled":false,"rental_uris":{"android":"levelo://app?vid=ee77508c-6f9d-400c-9442-6494c8451c48","ios":"levelo://app?vid=ee77508c-6f9d-400c-9442-6494c8451c48"},"vehicle_type_id":"4","last_reported":1745158097,"current_range_meters":9200,"station_id":"ce4bhlh2rcd13ifvqgig","pricing_plan_id":"cebpf4jnsgd1na2vs0mg"},{"bike_id":"8de88ebe-197d-4d7e-b00e-817916f526d5","system_id":"levelo_inurba_marseille","lat":43.2799,"lon":5.41653,"is_reserved":false,"is_disabled":false,"rental_uris":{"android":"levelo://app?vid=8de88ebe-197d-4d7e-b00e-817916f526d5","ios":"levelo://app?vid=8de88ebe-197d-4d7e-b00e-817916f526d5"},"vehicle_type_id":"4","last_reported":1745158097,"current_range_meters":9200,"station_id":"ce4bho12rcd13ifvqh1g","pricing_plan_id":"cebpf4jnsgd1na2vs0mg"},{"bike_id":"64b78ca4-8302-44ad-8210-686aa3be1d4e","system_id":"levelo_inurba_marseille","lat":43.29886,"lon":5.38904,"is_reserved":false,"is_disabled":false,"rental_uris":{"android":"levelo://app?vid=64b78ca4-8302-44ad-8210-686aa3be1d4e","ios":"levelo://app?vid=64b78ca4-8302-44ad-8210-686aa3be1d4e"},"vehicle_type_id":"4","last_reported":1745158097,"current_range_meters":8800,"station_id":"ce4bh392rcd13ifvqdl0","pricing_plan_id":"cebpf4jnsgd1na2vs0mg"},{"bike_id":"70b6b29a-6d83-460b-bd27-e86a3209e93e","system_id":"levelo_inurba_marseille","lat":43.26562,"lon":5.37293,"is_reserved":false,"is_disabled":false,"rental_uris":{"android":"levelo://app?vid=70b6b29a-6d83-460b-bd27-e86a3209e93e","ios":"levelo://app?vid=70b6b29a-6d83-460b-bd27-e86a3209e93e"},"vehicle_type_id":"4","last_reported":1745158097,"current_range_meters":9200,"station_id":"ce4bhg12rcd13ifvqf70","pricing_plan_id":"cebpf4jnsgd1na2vs0mg"},{"bike_id":"126553b9-40d1-4883-a41d-140aec70f9f3","system_id":"levelo_inurba_marseille","lat":43.21215,"lon":5.3507,"is_reserved":false,"is_disabled":false,"rental_uris":{"android":"levelo://app?vid=126553b9-40d1-4883-a41d-140aec70f9f3","ios":"levelo://app?vid=126553b9-40d1-4883-a41d-140aec70f9f3"},"vehicle_type_id":"4","last_reported":1745158097,"current_range_meters":9200,"station_id":"st_cvj6sg6p6f1abm77japg","pricing_plan_id":"cebpf4jnsgd1na2vs0mg"},{"bike_id":"63ba8a6e-e947-47bd-960d-8e95a600c26e","system_id":"levelo_inurba_marseille","lat":43.21193,"lon":5.35073,"is_reserved":false,"is_disabled":false,"rental_uris":{"android":"levelo://app?vid=63ba8a6e-e947-47bd-960d-8e95a600c26e","ios":"levelo://app?vid=63ba8a6e-e947-47bd-960d-8e95a600c26e"},"vehicle_type_id":"4","last_reported":1745158097,"current_range_meters":9200,"station_id":"st_cvj6sg6p6f1abm77japg","pricing_plan_id":"cebpf4jnsgd1na2vs0mg"},{"bike_id":"d0395819-ea40-46d3-acfe-3a01d6c396c0","system_id":"levelo_inurba_marseille","lat":43.23189,"lon":5.39982,"is_reserved":false,"is_disabled":true,"rental_uris":{"android":"levelo://app?vid=d0395819-ea40-46d3-acfe-3a01d6c396c0","ios":"levelo://app?vid=d0395819-ea40-46d3-acfe-3a01d6c396c0"},"vehicle_type_id":"4","last_reported":1745158097,"current_range_meters":9200,"station_id":"ce4bhn12rcd13ifvqgqg","pricing_plan_id":"cebpf4jnsgd1na2vs0mg"},{"bike_id":"4e6892ef-dbe3-43e4-bc69-b2da5d802c90","system_id":"levelo_inurba_marseille","lat":43.27382,"lon":5.36249,"is_reserved":false,"is_disabled":true,"rental_uris":{"android":"levelo://app?vid=4e6892ef-dbe3-43e4-bc69-b2da5d802c90","ios":"levelo://app?vid=4e6892ef-dbe3-43e4-bc69-b2da5d802c90"},"vehicle_type_id":"4","last_reported":1745158097,"current_range_meters":9600,"station_id":"ce4bhbh2rcd13ifvqeo0","pricing_plan_id":"cebpf4jnsgd1na2vs0mg"},{"bike_id":"7f545bbc-a0a7-4368-8a07-6a6863048111","system_id":"levelo_inurba_marseille","lat":43.22933,"lon":5.35377,"is_reserved":false,"is_disabled":false,"rental_uris":{"android":"levelo://app?vid=7f545bbc-a0a7-4368-8a07-6a6863048111","ios":"levelo://app?vid=7f545bbc-a0a7-4368-8a07-6a6863048111"},"vehicle_type_id":"4","last_reported":1745158097,"current_range_meters":9600,"station_id":"cpo3532slgdg3j2ikp40","pricing_plan_id":"cebpf4jnsgd1na2vs0mg"},{"bike_id":"527fac75-0783-4b2c-bd4e-07f2f2fee902","system_id":"levelo_inurba_marseille","lat":43.3113,"lon":5.37791,"is_reserved":false,"is_disabled":true,"rental_uris":{"android":"levelo://app?vid=527fac75-0783-4b2c-bd4e-07f2f2fee902","ios":"levelo://app?vid=527fac75-0783-4b2c-bd4e-07f2f2fee902"},"vehicle_type_id":"4","last_reported":1745158097,"current_range_meters":9600,"station_id":"ce4bgt92rcd13ifvqcg0","pricing_plan_id":"cebpf4jnsgd1na2vs0mg"},{"bike_id":"1b64a06c-8c3f-4044-b435-0c5447524fd5","system_id":"levelo_inurba_marseille","lat":43.28716,"lon":5.37406,"is_reserved":false,"is_disabled":true,"rental_uris":{"android":"levelo://app?vid=1b64a06c-8c3f-4044-b435-0c5447524fd5","ios":"levelo://app?vid=1b64a06c-8c3f-4044-b435-0c5447524fd5"},"vehicle_type_id":"4","last_reported":1745158097,"current_range_meters":9600,"station_id":"ce4bh3p2rcd13ifvqdq0","pricing_plan_id":"cebpf4jnsgd1na2vs0mg"},{"bike_id":"05b3d330-0c2d-464f-925c-8f172d906042","system_id":"levelo_inurba_marseille","lat":43.26215,"lon":5.37445,"is_reserved":false,"is_disabled":false,"rental_uris":{"android":"levelo://app?vid=05b3d330-0c2d-464f-925c-8f172d906042","ios":"levelo://app?vid=05b3d330-0c2d-464f-925c-8f172d906042"},"vehicle_type_id":"4","last_reported":1745158097,"current_range_meters":9600,"station_id":"ce4bhgp2rcd13ifvqfc0","pricing_plan_id":"cebpf4jnsgd1na2vs0mg"},{"bike_id":"bd3afca0-6bff-4714-94e2-33133b2ddb99","system_id":"levelo_inurba_marseille","lat":43.24638,"lon":5.38899,"is_reserved":false,"is_disabled":false,"rental_uris":{"android":"levelo://app?vid=bd3afca0-6bff-4714-94e2-33133b2ddb99","ios":"levelo://app?vid=bd3afca0-6bff-4714-94e2-33133b2ddb99"},"vehicle_type_id":"4","last_reported":1745158097,"current_range_meters":10000,"station_id":"ce4bhg12rcd13ifvqf60","pricing_plan_id":"cebpf4jnsgd1na2vs0mg"},{"bike_id":"24faed42-179b-4a3b-9e0a-7cb750512a5b","system_id":"levelo_inurba_marseille","lat":43.21756,"lon":5.34602,"is_reserved":false,"is_disabled":false,"rental_uris":{"android":"levelo://app?vid=24faed42-179b-4a3b-9e0a-7cb750512a5b","ios":"levelo://app?vid=24faed42-179b-4a3b-9e0a-7cb750512a5b"},"vehicle_type_id":"4","last_reported":1745158097,"current_range_meters":10000,"station_id":"st_cvj6r9ubvosntc0bgbag","pricing_plan_id":"cebpf4jnsgd1na2vs0mg"},{"bike_id":"c6eb518d-f8e2-4c5c-8098-b5d751548fcd","system_id":"levelo_inurba_marseille","lat":43.25897,"lon":5.40891,"is_reserved":false,"is_disabled":false,"rental_uris":{"android":"levelo://app?vid=c6eb518d-f8e2-4c5c-8098-b5d751548fcd","ios":"levelo://app?vid=c6eb518d-f8e2-4c5c-8098-b5d751548fcd"},"vehicle_type_id":"4","last_reported":1745158097,"current_range_meters":10000,"station_id":"ce4bhm92rcd13ifvqglg","pricing_plan_id":"cebpf4jnsgd1na2vs0mg"},{"bike_id":"f8d86b22-e4f9-4308-84bb-70f08ccb4488","system_id":"levelo_inurba_marseille","lat":43.24814,"lon":5.37441,"is_reserved":false,"is_disabled":false,"rental_uris":{"android":"levelo://app?vid=f8d86b22-e4f9-4308-84bb-70f08ccb4488","ios":"levelo://app?vid=f8d86b22-e4f9-4308-84bb-70f08ccb4488"},"vehicle_type_id":"4","last_reported":1745158097,"current_range_meters":10000,"station_id":"ce4bhgh2rcd13ifvqfb0","pricing_plan_id":"cebpf4jnsgd1na2vs0mg"},{"bike_id":"bfe8f3c7-32be-4d0c-a87c-8251b95cb4b9","system_id":"levelo_inurba_marseille","lat":43.21743,"lon":5.34606,"is_reserved":false,"is_disabled":false,"rental_uris":{"android":"levelo://app?vid=bfe8f3c7-32be-4d0c-a87c-8251b95cb4b9","ios":"levelo://app?vid=bfe8f3c7-32be-4d0c-a87c-8251b95cb4b9"},"vehicle_type_id":"4","last_reported":1745158097,"current_range_meters":10000,"station_id":"st_cvj6r9ubvosntc0bgbag","pricing_plan_id":"cebpf4jnsgd1na2vs0mg"},{"bike_id":"9faf9371-4f59-415a-aba9-2ea6ef269914","system_id":"levelo_inurba_marseille","lat":43.30526,"lon":5.38427,"is_reserved":false,"is_disabled":false,"rental_uris":{"android":"levelo://app?vid=9faf9371-4f59-415a-aba9-2ea6ef269914","ios":"levelo://app?vid=9faf9371-4f59-415a-aba9-2ea6ef269914"},"vehicle_type_id":"4","last_reported":1745158097,"current_range_meters":10000,"station_id":"ce4bgg92rcd13ifvqb30","pricing_plan_id":"cebpf4jnsgd1na2vs0mg"},{"bike_id":"ba86c072-0fc8-455b-a1ef-b36591e4ba5b","system_id":"levelo_inurba_marseille","lat":43.31717,"lon":5.42394,"is_reserved":false,"is_disabled":false,"rental_uris":{"android":"levelo://app?vid=ba86c072-0fc8-455b-a1ef-b36591e4ba5b","ios":"levelo://app?vid=ba86c072-0fc8-455b-a1ef-b36591e4ba5b"},"vehicle_type_id":"4","last_reported":1745158097,"current_range_meters":9600,"station_id":"ce4bhp92rcd13ifvqhbg","pricing_plan_id":"cebpf4jnsgd1na2vs0mg"},{"bike_id":"c2ed0848-8612-4fc0-999f-ed47d71ad2d9","system_id":"levelo_inurba_marseille","lat":43.21742,"lon":5.34608,"is_reserved":false,"is_disabled":false,"rental_uris":{"android":"levelo://app?vid=c2ed0848-8612-4fc0-999f-ed47d71ad2d9","ios":"levelo://app?vid=c2ed0848-8612-4fc0-999f-ed47d71ad2d9"},"vehicle_type_id":"4","last_reported":1745158097,"current_range_meters":10000,"station_id":"st_cvj6r9ubvosntc0bgbag","pricing_plan_id":"cebpf4jnsgd1na2vs0mg"},{"bike_id":"d227ea9c-7792-4463-9253-d38241da3c72","system_id":"levelo_inurba_marseille","lat":43.21748,"lon":5.34605,"is_reserved":false,"is_disabled":false,"rental_uris":{"android":"levelo://app?vid=d227ea9c-7792-4463-9253-d38241da3c72","ios":"levelo://app?vid=d227ea9c-7792-4463-9253-d38241da3c72"},"vehicle_type_id":"4","last_reported":1745158097,"current_range_meters":10000,"station_id":"st_cvj6r9ubvosntc0bgbag","pricing_plan_id":"cebpf4jnsgd1na2vs0mg"},{"bike_id":"b5bb1ad9-1ebf-4c32-9dc7-05c6cd2aa855","system_id":"levelo_inurba_marseille","lat":43.30557,"lon":5.38435,"is_reserved":false,"is_disabled":false,"rental_uris":{"android":"levelo://app?vid=b5bb1ad9-1ebf-4c32-9dc7-05c6cd2aa855","ios":"levelo://app?vid=b5bb1ad9-1ebf-4c32-9dc7-05c6cd2aa855"},"vehicle_type_id":"4","last_reported":1745158097,"current_range_meters":10000,"station_id":"ce4bgg92rcd13ifvqb30","pricing_plan_id":"cebpf4jnsgd1na2vs0mg"},{"bike_id":"224f62fb-9aac-4b43-930a-04aff7ddb5fd","system_id":"levelo_inurba_marseille","lat":43.28096,"lon":5.39632,"is_reserved":false,"is_disabled":false,"rental_uris":{"android":"levelo://app?vid=224f62fb-9aac-4b43-930a-04aff7ddb5fd","ios":"levelo://app?vid=224f62fb-9aac-4b43-930a-04aff7ddb5fd"},"vehicle_type_id":"4","last_reported":1745158097,"current_range_meters":9600,"station_id":"ce4bho12rcd13ifvqh2g","pricing_plan_id":"cebpf4jnsgd1na2vs0mg"},{"bike_id":"1886fb80-2895-40f7-844d-7933f5d904dc","system_id":"levelo_inurba_marseille","lat":43.27862,"lon":5.39308,"is_reserved":false,"is_disabled":false,"rental_uris":{"android":"levelo://app?vid=1886fb80-2895-40f7-844d-7933f5d904dc","ios":"levelo://app?vid=1886fb80-2895-40f7-844d-7933f5d904dc"},"vehicle_type_id":"4","last_reported":1745158097,"current_range_meters":10000,"station_id":"","pricing_plan_id":"cebpf4jnsgd1na2vs0mg"},{"bike_id":"b4c249da-d6dd-4540-91d6-347c27006746","system_id":"levelo_inurba_marseille","lat":43.28617,"lon":5.35106,"is_reserved":false,"is_disabled":false,"rental_uris":{"android":"levelo://app?vid=b4c249da-d6dd-4540-91d6-347c27006746","ios":"levelo://app?vid=b4c249da-d6dd-4540-91d6-347c27006746"},"vehicle_type_id":"4","last_reported":1745158097,"current_range_meters":10800,"station_id":"ce4bhch2rcd13ifvqeug","pricing_plan_id":"cebpf4jnsgd1na2vs0mg"},{"bike_id":"6276c712-dc71-4137-9a44-e63299fa20b2","system_id":"levelo_inurba_marseille","lat":43.28605,"lon":5.37061,"is_reserved":false,"is_disabled":false,"rental_uris":{"android":"levelo://app?vid=6276c712-dc71-4137-9a44-e63299fa20b2","ios":"levelo://app?vid=6276c712-dc71-4137-9a44-e63299fa20b2"},"vehicle_type_id":"4","last_reported":1745158097,"current_range_meters":10800,"station_id":"ce4bht12rcd13ifvqi60","pricing_plan_id":"cebpf4jnsgd1na2vs0mg"},{"bike_id":"d177bdcb-ba4d-4c2e-8899-f6b0f9af395c","system_id":"levelo_inurba_marseille","lat":43.25866,"lon":5.40921,"is_reserved":false,"is_disabled":false,"rental_uris":{"android":"levelo://app?vid=d177bdcb-ba4d-4c2e-8899-f6b0f9af395c","ios":"levelo://app?vid=d177bdcb-ba4d-4c2e-8899-f6b0f9af395c"},"vehicle_type_id":"4","last_reported":1745158097,"current_range_meters":10800,"station_id":"ce4bhm92rcd13ifvqglg","pricing_plan_id":"cebpf4jnsgd1na2vs0mg"},{"bike_id":"d8754dce-3ce6-4f68-ba47-f64cfc8b26ab","system_id":"levelo_inurba_marseille","lat":43.23183,"lon":5.35567,"is_reserved":false,"is_disabled":false,"rental_uris":{"android":"levelo://app?vid=d8754dce-3ce6-4f68-ba47-f64cfc8b26ab","ios":"levelo://app?vid=d8754dce-3ce6-4f68-ba47-f64cfc8b26ab"},"vehicle_type_id":"4","last_reported":1745158097,"current_range_meters":10800,"station_id":"ce4bhu92rcd13ifvqi70","pricing_plan_id":"cebpf4jnsgd1na2vs0mg"},{"bike_id":"33399c5a-7b71-4ae2-a964-55b2f2e618d0","system_id":"levelo_inurba_marseille","lat":43.30222,"lon":5.36564,"is_reserved":false,"is_disabled":true,"rental_uris":{"android":"levelo://app?vid=33399c5a-7b71-4ae2-a964-55b2f2e618d0","ios":"levelo://app?vid=33399c5a-7b71-4ae2-a964-55b2f2e618d0"},"vehicle_type_id":"4","last_reported":1745158097,"current_range_meters":10800,"station_id":"","pricing_plan_id":"cebpf4jnsgd1na2vs0mg"},{"bike_id":"f46d59ed-78df-47f2-82b1-9daf990beefb","system_id":"levelo_inurba_marseille","lat":43.21756,"lon":5.34607,"is_reserved":false,"is_disabled":false,"rental_uris":{"android":"levelo://app?vid=f46d59ed-78df-47f2-82b1-9daf990beefb","ios":"levelo://app?vid=f46d59ed-78df-47f2-82b1-9daf990beefb"},"vehicle_type_id":"4","last_reported":1745158097,"current_range_meters":10800,"station_id":"st_cvj6r9ubvosntc0bgbag","pricing_plan_id":"cebpf4jnsgd1na2vs0mg"},{"bike_id":"9119f5e8-5717-4ae5-905f-121f81a193a4","system_id":"levelo_inurba_marseille","lat":43.21751,"lon":5.34597,"is_reserved":false,"is_disabled":false,"rental_uris":{"android":"levelo://app?vid=9119f5e8-5717-4ae5-905f-121f81a193a4","ios":"levelo://app?vid=9119f5e8-5717-4ae5-905f-121f81a193a4"},"vehicle_type_id":"4","last_reported":1745158097,"current_range_meters":10800,"station_id":"st_cvj6r9ubvosntc0bgbag","pricing_plan_id":"cebpf4jnsgd1na2vs0mg"},{"bike_id":"6019b3a9-be6c-4063-92bb-dfdce576086f","system_id":"levelo_inurba_marseille","lat":43.23064,"lon":5.35496,"is_reserved":false,"is_disabled":false,"rental_uris":{"android":"levelo://app?vid=6019b3a9-be6c-4063-92bb-dfdce576086f","ios":"levelo://app?vid=6019b3a9-be6c-4063-92bb-dfdce576086f"},"vehicle_type_id":"4","last_reported":1745158097,"current_range_meters":10800,"station_id":"cpo3342slgdg3j2ifvpg","pricing_plan_id":"cebpf4jnsgd1na2vs0mg"},{"bike_id":"b97ce828-3921-4096-9ec4-e15abd2f92c0","system_id":"levelo_inurba_marseille","lat":43.25581,"lon":5.38226,"is_reserved":false,"is_disabled":false,"rental_uris":{"android":"levelo://app?vid=b97ce828-3921-4096-9ec4-e15abd2f92c0","ios":"levelo://app?vid=b97ce828-3921-4096-9ec4-e15abd2f92c0"},"vehicle_type_id":"4","last_reported":1745158097,"current_range_meters":10800,"station_id":"ce4bhih2rcd13ifvqfs0","pricing_plan_id":"cebpf4jnsgd1na2vs0mg"},{"bike_id":"cdf28283-7887-43c2-8fa8-20b32cc01248","system_id":"levelo_inurba_marseille","lat":43.31084,"lon":5.4243,"is_reserved":false,"is_disabled":false,"rental_uris":{"android":"levelo://app?vid=cdf28283-7887-43c2-8fa8-20b32cc01248","ios":"levelo://app?vid=cdf28283-7887-43c2-8fa8-20b32cc01248"},"vehicle_type_id":"4","last_reported":1745158097,"current_range_meters":10800,"station_id":"ce4bhp92rcd13ifvqhag","pricing_plan_id":"cebpf4jnsgd1na2vs0mg"},{"bike_id":"d5ef647d-00ca-43ce-8de2-a9826ded3f15","system_id":"levelo_inurba_marseille","lat":43.21194,"lon":5.35075,"is_reserved":false,"is_disabled":false,"rental_uris":{"android":"levelo://app?vid=d5ef647d-00ca-43ce-8de2-a9826ded3f15","ios":"levelo://app?vid=d5ef647d-00ca-43ce-8de2-a9826ded3f15"},"vehicle_type_id":"4","last_reported":1745158097,"current_range_meters":11200,"station_id":"st_cvj6sg6p6f1abm77japg","pricing_plan_id":"cebpf4jnsgd1na2vs0mg"},{"bike_id":"d5731d37-c9bb-4373-ad82-0da55aa414c8","system_id":"levelo_inurba_marseille","lat":43.29591,"lon":5.37736,"is_reserved":false,"is_disabled":false,"rental_uris":{"android":"levelo://app?vid=d5731d37-c9bb-4373-ad82-0da55aa414c8","ios":"levelo://app?vid=d5731d37-c9bb-4373-ad82-0da55aa414c8"},"vehicle_type_id":"4","last_reported":1745158097,"current_range_meters":11600,"station_id":"ce4bgvp2rcd13ifvqcu0","pricing_plan_id":"cebpf4jnsgd1na2vs0mg"},{"bike_id":"d64c3fc5-3b20-424d-a9df-83c170571095","system_id":"levelo_inurba_marseille","lat":43.23061,"lon":5.35498,"is_reserved":false,"is_disabled":false,"rental_uris":{"android":"levelo://app?vid=d64c3fc5-3b20-424d-a9df-83c170571095","ios":"levelo://app?vid=d64c3fc5-3b20-424d-a9df-83c170571095"},"vehicle_type_id":"4","last_reported":1745158097,"current_range_meters":11600,"station_id":"cpo3342slgdg3j2ifvpg","pricing_plan_id":"cebpf4jnsgd1na2vs0mg"},{"bike_id":"2b843171-b4df-4c49-9232-768ff583915c","system_id":"levelo_inurba_marseille","lat":43.26217,"lon":5.37447,"is_reserved":false,"is_disabled":false,"rental_uris":{"android":"levelo://app?vid=2b843171-b4df-4c49-9232-768ff583915c","ios":"levelo://app?vid=2b843171-b4df-4c49-9232-768ff583915c"},"vehicle_type_id":"4","last_reported":1745158097,"current_range_meters":11600,"station_id":"ce4bhgp2rcd13ifvqfc0","pricing_plan_id":"cebpf4jnsgd1na2vs0mg"},{"bike_id":"cc4e8daf-8846-4035-942b-a36b9137d061","system_id":"levelo_inurba_marseille","lat":43.25494,"lon":5.37644,"is_reserved":false,"is_disabled":true,"rental_uris":{"android":"levelo://app?vid=cc4e8daf-8846-4035-942b-a36b9137d061","ios":"levelo://app?vid=cc4e8daf-8846-4035-942b-a36b9137d061"},"vehicle_type_id":"4","last_reported":1745158097,"current_range_meters":11600,"station_id":"ce4bhh12rcd13ifvqff0","pricing_plan_id":"cebpf4jnsgd1na2vs0mg"},{"bike_id":"19127d2f-b41a-4717-b6aa-87544acdafaa","system_id":"levelo_inurba_marseille","lat":43.21761,"lon":5.34595,"is_reserved":false,"is_disabled":false,"rental_uris":{"android":"levelo://app?vid=19127d2f-b41a-4717-b6aa-87544acdafaa","ios":"levelo://app?vid=19127d2f-b41a-4717-b6aa-87544acdafaa"},"vehicle_type_id":"4","last_reported":1745158097,"current_range_meters":12000,"station_id":"st_cvj6r9ubvosntc0bgbag","pricing_plan_id":"cebpf4jnsgd1na2vs0mg"},{"bike_id":"3c68d4af-f244-4d5b-a673-170645748e37","system_id":"levelo_inurba_marseille","lat":43.276794,"lon":5.397976,"is_reserved":false,"is_disabled":false,"rental_uris":{"android":"levelo://app?vid=3c68d4af-f244-4d5b-a673-170645748e37","ios":"levelo://app?vid=3c68d4af-f244-4d5b-a673-170645748e37"},"vehicle_type_id":"4","last_reported":1745158097,"current_range_meters":12000,"station_id":"","pricing_plan_id":"cebpf4jnsgd1na2vs0mg"},{"bike_id":"2b2bf086-506e-4472-9661-7a3a43d97969","system_id":"levelo_inurba_marseille","lat":43.26059,"lon":5.39397,"is_reserved":false,"is_disabled":false,"rental_uris":{"android":"levelo://app?vid=2b2bf086-506e-4472-9661-7a3a43d97969","ios":"levelo://app?vid=2b2bf086-506e-4472-9661-7a3a43d97969"},"vehicle_type_id":"4","last_reported":1745158097,"current_range_meters":11600,"station_id":"ce4bhh92rcd13ifvqfj0","pricing_plan_id":"cebpf4jnsgd1na2vs0mg"},{"bike_id":"83d961c9-8f51-4fad-ad5e-3e05010590cf","system_id":"levelo_inurba_marseille","lat":43.310744,"lon":5.366879,"is_reserved":false,"is_disabled":false,"rental_uris":{"android":"levelo://app?vid=83d961c9-8f51-4fad-ad5e-3e05010590cf","ios":"levelo://app?vid=83d961c9-8f51-4fad-ad5e-3e05010590cf"},"vehicle_type_id":"4","last_reported":1745158097,"current_range_meters":12000,"station_id":"ce4bgs12rcd13ifvqcag","pricing_plan_id":"cebpf4jnsgd1na2vs0mg"},{"bike_id":"4e6709bc-093a-4453-af05-5da0575f140e","system_id":"levelo_inurba_marseille","lat":43.25869,"lon":5.39896,"is_reserved":false,"is_disabled":false,"rental_uris":{"android":"levelo://app?vid=4e6709bc-093a-4453-af05-5da0575f140e","ios":"levelo://app?vid=4e6709bc-093a-4453-af05-5da0575f140e"},"vehicle_type_id":"4","last_reported":1745158097,"current_range_meters":12000,"station_id":"ce4bhl92rcd13ifvqghg","pricing_plan_id":"cebpf4jnsgd1na2vs0mg"},{"bike_id":"76678597-c23c-47ef-be2d-dc8ee6c4aa59","system_id":"levelo_inurba_marseille","lat":43.274951,"lon":5.42449,"is_reserved":false,"is_disabled":false,"rental_uris":{"android":"levelo://app?vid=76678597-c23c-47ef-be2d-dc8ee6c4aa59","ios":"levelo://app?vid=76678597-c23c-47ef-be2d-dc8ee6c4aa59"},"vehicle_type_id":"4","last_reported":1745158097,"current_range_meters":12400,"station_id":"ce4bhn92rcd13ifvqgrg","pricing_plan_id":"cebpf4jnsgd1na2vs0mg"},{"bike_id":"df17b4f8-0c12-4935-bba9-6dbb813d1b61","system_id":"levelo_inurba_marseille","lat":43.24397,"lon":5.3705,"is_reserved":false,"is_disabled":false,"rental_uris":{"android":"levelo://app?vid=df17b4f8-0c12-4935-bba9-6dbb813d1b61","ios":"levelo://app?vid=df17b4f8-0c12-4935-bba9-6dbb813d1b61"},"vehicle_type_id":"4","last_reported":1745158097,"current_range_meters":12400,"station_id":"ce4bhhh2rcd13ifvqfk0","pricing_plan_id":"cebpf4jnsgd1na2vs0mg"},{"bike_id":"34d39898-074f-46f2-b570-8976f8ac3852","system_id":"levelo_inurba_marseille","lat":43.30539,"lon":5.36547,"is_reserved":false,"is_disabled":false,"rental_uris":{"android":"levelo://app?vid=34d39898-074f-46f2-b570-8976f8ac3852","ios":"levelo://app?vid=34d39898-074f-46f2-b570-8976f8ac3852"},"vehicle_type_id":"4","last_reported":1745158097,"current_range_meters":12000,"station_id":"ce4bgs12rcd13ifvqcag","pricing_plan_id":"cebpf4jnsgd1na2vs0mg"},{"bike_id":"4a4da0c4-5cb2-4d65-9b08-fc8a5e3d2d45","system_id":"levelo_inurba_marseille","lat":43.245094,"lon":5.395053,"is_reserved":false,"is_disabled":false,"rental_uris":{"android":"levelo://app?vid=4a4da0c4-5cb2-4d65-9b08-fc8a5e3d2d45","ios":"levelo://app?vid=4a4da0c4-5cb2-4d65-9b08-fc8a5e3d2d45"},"vehicle_type_id":"4","last_reported":1745158097,"current_range_meters":12000,"station_id":"ce4bhlp2rcd13ifvqgjg","pricing_plan_id":"cebpf4jnsgd1na2vs0mg"},{"bike_id":"59216526-d01c-4d77-b6e3-a6c766976571","system_id":"levelo_inurba_marseille","lat":43.22513,"lon":5.34785,"is_reserved":false,"is_disabled":false,"rental_uris":{"android":"levelo://app?vid=59216526-d01c-4d77-b6e3-a6c766976571","ios":"levelo://app?vid=59216526-d01c-4d77-b6e3-a6c766976571"},"vehicle_type_id":"4","last_reported":1745158097,"current_range_meters":12400,"station_id":"st_cvj5dfep6f1abm77gieg","pricing_plan_id":"cebpf4jnsgd1na2vs0mg"},{"bike_id":"f6b06603-46d7-458b-9dc9-fbc0bce785af","system_id":"levelo_inurba_marseille","lat":43.25112,"lon":5.40319,"is_reserved":false,"is_disabled":false,"rental_uris":{"android":"levelo://app?vid=f6b06603-46d7-458b-9dc9-fbc0bce785af","ios":"levelo://app?vid=f6b06603-46d7-458b-9dc9-fbc0bce785af"},"vehicle_type_id":"4","last_reported":1745158097,"current_range_meters":12400,"station_id":"ce4bhlh2rcd13ifvqgig","pricing_plan_id":"cebpf4jnsgd1na2vs0mg"},{"bike_id":"f2e0c79c-d093-4f21-a3f4-edb54404b132","system_id":"levelo_inurba_marseille","lat":43.290383,"lon":5.375618,"is_reserved":false,"is_disabled":false,"rental_uris":{"android":"levelo://app?vid=f2e0c79c-d093-4f21-a3f4-edb54404b132","ios":"levelo://app?vid=f2e0c79c-d093-4f21-a3f4-edb54404b132"},"vehicle_type_id":"4","last_reported":1745158097,"current_range_meters":12400,"station_id":"ce4bho92rcd13ifvqh3g","pricing_plan_id":"cebpf4jnsgd1na2vs0mg"},{"bike_id":"88326d05-dbbe-4efe-875d-cf1564e0f533","system_id":"levelo_inurba_marseille","lat":43.3032,"lon":5.3689,"is_reserved":false,"is_disabled":false,"rental_uris":{"android":"levelo://app?vid=88326d05-dbbe-4efe-875d-cf1564e0f533","ios":"levelo://app?vid=88326d05-dbbe-4efe-875d-cf1564e0f533"},"vehicle_type_id":"4","last_reported":1745158097,"current_range_meters":12000,"station_id":"ce4bgqh2rcd13ifvqc5g","pricing_plan_id":"cebpf4jnsgd1na2vs0mg"},{"bike_id":"9f1246a7-6121-4dfb-b19d-be14127ddd08","system_id":"levelo_inurba_marseille","lat":43.23063,"lon":5.35495,"is_reserved":false,"is_disabled":false,"rental_uris":{"android":"levelo://app?vid=9f1246a7-6121-4dfb-b19d-be14127ddd08","ios":"levelo://app?vid=9f1246a7-6121-4dfb-b19d-be14127ddd08"},"vehicle_type_id":"4","last_reported":1745158097,"current_range_meters":12800,"station_id":"cpo3342slgdg3j2ifvpg","pricing_plan_id":"cebpf4jnsgd1na2vs0mg"},{"bike_id":"9511acf8-8e93-4f88-8b9a-0be44f8e783c","system_id":"levelo_inurba_marseille","lat":43.30544,"lon":5.38436,"is_reserved":false,"is_disabled":false,"rental_uris":{"android":"levelo://app?vid=9511acf8-8e93-4f88-8b9a-0be44f8e783c","ios":"levelo://app?vid=9511acf8-8e93-4f88-8b9a-0be44f8e783c"},"vehicle_type_id":"4","last_reported":1745158097,"current_range_meters":12400,"station_id":"ce4bgg92rcd13ifvqb30","pricing_plan_id":"cebpf4jnsgd1na2vs0mg"},{"bike_id":"a8b46fb4-0b67-45e1-a864-2ff3fa6e1522","system_id":"levelo_inurba_marseille","lat":43.25494,"lon":5.37648,"is_reserved":false,"is_disabled":false,"rental_uris":{"android":"levelo://app?vid=a8b46fb4-0b67-45e1-a864-2ff3fa6e1522","ios":"levelo://app?vid=a8b46fb4-0b67-45e1-a864-2ff3fa6e1522"},"vehicle_type_id":"4","last_reported":1745158097,"current_range_meters":12800,"station_id":"ce4bhh12rcd13ifvqff0","pricing_plan_id":"cebpf4jnsgd1na2vs0mg"},{"bike_id":"4dca463f-666e-454b-b5ff-6a603be1df50","system_id":"levelo_inurba_marseille","lat":43.29299,"lon":5.37461,"is_reserved":false,"is_disabled":false,"rental_uris":{"android":"levelo://app?vid=4dca463f-666e-454b-b5ff-6a603be1df50","ios":"levelo://app?vid=4dca463f-666e-454b-b5ff-6a603be1df50"},"vehicle_type_id":"4","last_reported":1745158097,"current_range_meters":12400,"station_id":"ce4bgi12rcd13ifvqb70","pricing_plan_id":"cebpf4jnsgd1na2vs0mg"},{"bike_id":"cab64969-2640-47ee-abb9-f11afb1f3a59","system_id":"levelo_inurba_marseille","lat":43.28607,"lon":5.35117,"is_reserved":false,"is_disabled":true,"rental_uris":{"android":"levelo://app?vid=cab64969-2640-47ee-abb9-f11afb1f3a59","ios":"levelo://app?vid=cab64969-2640-47ee-abb9-f11afb1f3a59"},"vehicle_type_id":"4","last_reported":1745158097,"current_range_meters":13600,"station_id":"ce4bhch2rcd13ifvqeug","pricing_plan_id":"cebpf4jnsgd1na2vs0mg"},{"bike_id":"5801a3ca-80c0-4f04-85da-122046aa79e1","system_id":"levelo_inurba_marseille","lat":43.28987,"lon":5.43835,"is_reserved":false,"is_disabled":false,"rental_uris":{"android":"levelo://app?vid=5801a3ca-80c0-4f04-85da-122046aa79e1","ios":"levelo://app?vid=5801a3ca-80c0-4f04-85da-122046aa79e1"},"vehicle_type_id":"4","last_reported":1745158097,"current_range_meters":13600,"station_id":"","pricing_plan_id":"cebpf4jnsgd1na2vs0mg"},{"bike_id":"8791819b-3cea-4f57-bb6a-cf9e074dfed7","system_id":"levelo_inurba_marseille","lat":43.23057,"lon":5.3549,"is_reserved":false,"is_disabled":false,"rental_uris":{"android":"levelo://app?vid=8791819b-3cea-4f57-bb6a-cf9e074dfed7","ios":"levelo://app?vid=8791819b-3cea-4f57-bb6a-cf9e074dfed7"},"vehicle_type_id":"4","last_reported":1745158097,"current_range_meters":13600,"station_id":"cpo3342slgdg3j2ifvpg","pricing_plan_id":"cebpf4jnsgd1na2vs0mg"},{"bike_id":"d5bf3e51-83b4-419b-b784-58ab0f4a9ad2","system_id":"levelo_inurba_marseille","lat":43.21203,"lon":5.35052,"is_reserved":false,"is_disabled":false,"rental_uris":{"android":"levelo://app?vid=d5bf3e51-83b4-419b-b784-58ab0f4a9ad2","ios":"levelo://app?vid=d5bf3e51-83b4-419b-b784-58ab0f4a9ad2"},"vehicle_type_id":"4","last_reported":1745158097,"current_range_meters":13600,"station_id":"st_cvj6sg6p6f1abm77japg","pricing_plan_id":"cebpf4jnsgd1na2vs0mg"},{"bike_id":"14726bda-85cc-425d-a557-d79450b59b17","system_id":"levelo_inurba_marseille","lat":43.27377,"lon":5.36253,"is_reserved":false,"is_disabled":false,"rental_uris":{"android":"levelo://app?vid=14726bda-85cc-425d-a557-d79450b59b17","ios":"levelo://app?vid=14726bda-85cc-425d-a557-d79450b59b17"},"vehicle_type_id":"4","last_reported":1745158097,"current_range_meters":13600,"station_id":"ce4bhbh2rcd13ifvqeo0","pricing_plan_id":"cebpf4jnsgd1na2vs0mg"},{"bike_id":"d9bb9515-bff5-4815-bcf3-a45b6ef408b1","system_id":"levelo_inurba_marseille","lat":43.261444,"lon":5.396118,"is_reserved":false,"is_disabled":false,"rental_uris":{"android":"levelo://app?vid=d9bb9515-bff5-4815-bcf3-a45b6ef408b1","ios":"levelo://app?vid=d9bb9515-bff5-4815-bcf3-a45b6ef408b1"},"vehicle_type_id":"4","last_reported":1745158097,"current_range_meters":12800,"station_id":"ce4bhah2rcd13ifvqei0","pricing_plan_id":"cebpf4jnsgd1na2vs0mg"},{"bike_id":"f01fc261-033f-49c7-b09e-b9967362bd76","system_id":"levelo_inurba_marseille","lat":43.28858,"lon":5.35828,"is_reserved":false,"is_disabled":true,"rental_uris":{"android":"levelo://app?vid=f01fc261-033f-49c7-b09e-b9967362bd76","ios":"levelo://app?vid=f01fc261-033f-49c7-b09e-b9967362bd76"},"vehicle_type_id":"4","last_reported":1745158097,"current_range_meters":13600,"station_id":"ce4bhb12rcd13ifvqem0","pricing_plan_id":"cebpf4jnsgd1na2vs0mg"},{"bike_id":"a3dd9a0b-1e95-49bd-9b52-a761b312f104","system_id":"levelo_inurba_marseille","lat":43.2558,"lon":5.38237,"is_reserved":false,"is_disabled":false,"rental_uris":{"android":"levelo://app?vid=a3dd9a0b-1e95-49bd-9b52-a761b312f104","ios":"levelo://app?vid=a3dd9a0b-1e95-49bd-9b52-a761b312f104"},"vehicle_type_id":"4","last_reported":1745158097,"current_range_meters":14000,"station_id":"ce4bhih2rcd13ifvqfs0","pricing_plan_id":"cebpf4jnsgd1na2vs0mg"},{"bike_id":"6019390b-7088-4c04-b80b-2acf1cb29041","system_id":"levelo_inurba_marseille","lat":43.29409,"lon":5.41226,"is_reserved":false,"is_disabled":false,"rental_uris":{"android":"levelo://app?vid=6019390b-7088-4c04-b80b-2acf1cb29041","ios":"levelo://app?vid=6019390b-7088-4c04-b80b-2acf1cb29041"},"vehicle_type_id":"4","last_reported":1745158097,"current_range_meters":14000,"station_id":"","pricing_plan_id":"cebpf4jnsgd1na2vs0mg"},{"bike_id":"de9c76e9-5b34-44dc-89d9-de6e318e6be4","system_id":"levelo_inurba_marseille","lat":43.282195,"lon":5.385847,"is_reserved":false,"is_disabled":false,"rental_uris":{"android":"levelo://app?vid=de9c76e9-5b34-44dc-89d9-de6e318e6be4","ios":"levelo://app?vid=de9c76e9-5b34-44dc-89d9-de6e318e6be4"},"vehicle_type_id":"4","last_reported":1745158097,"current_range_meters":14000,"station_id":"","pricing_plan_id":"cebpf4jnsgd1na2vs0mg"},{"bike_id":"4fd87317-4923-494a-a05e-56c3cadf7c8e","system_id":"levelo_inurba_marseille","lat":43.22495,"lon":5.34786,"is_reserved":false,"is_disabled":false,"rental_uris":{"android":"levelo://app?vid=4fd87317-4923-494a-a05e-56c3cadf7c8e","ios":"levelo://app?vid=4fd87317-4923-494a-a05e-56c3cadf7c8e"},"vehicle_type_id":"4","last_reported":1745158097,"current_range_meters":14000,"station_id":"","pricing_plan_id":"cebpf4jnsgd1na2vs0mg"},{"bike_id":"635327bc-d280-4676-9818-c1af3e76102c","system_id":"levelo_inurba_marseille","lat":43.21193,"lon":5.35074,"is_reserved":false,"is_disabled":false,"rental_uris":{"android":"levelo://app?vid=635327bc-d280-4676-9818-c1af3e76102c","ios":"levelo://app?vid=635327bc-d280-4676-9818-c1af3e76102c"},"vehicle_type_id":"4","last_reported":1745158097,"current_range_meters":14000,"station_id":"st_cvj6sg6p6f1abm77japg","pricing_plan_id":"cebpf4jnsgd1na2vs0mg"},{"bike_id":"ce034b4a-bb67-4c72-856c-a0c7ed4c8b8f","system_id":"levelo_inurba_marseille","lat":43.23441,"lon":5.35929,"is_reserved":false,"is_disabled":false,"rental_uris":{"android":"levelo://app?vid=ce034b4a-bb67-4c72-856c-a0c7ed4c8b8f","ios":"levelo://app?vid=ce034b4a-bb67-4c72-856c-a0c7ed4c8b8f"},"vehicle_type_id":"4","last_reported":1745158097,"current_range_meters":14000,"station_id":"","pricing_plan_id":"cebpf4jnsgd1na2vs0mg"},{"bike_id":"50720bbe-5512-41d7-86e0-3df313b565c6","system_id":"levelo_inurba_marseille","lat":43.32365,"lon":5.38899,"is_reserved":false,"is_disabled":true,"rental_uris":{"android":"levelo://app?vid=50720bbe-5512-41d7-86e0-3df313b565c6","ios":"levelo://app?vid=50720bbe-5512-41d7-86e0-3df313b565c6"},"vehicle_type_id":"4","last_reported":1745158097,"current_range_meters":14000,"station_id":"ce4bhqp2rcd13ifvqhog","pricing_plan_id":"cebpf4jnsgd1na2vs0mg"},{"bike_id":"8c1ce0f6-05e4-49bc-8157-62ed93222abf","system_id":"levelo_inurba_marseille","lat":43.29938,"lon":5.36551,"is_reserved":false,"is_disabled":false,"rental_uris":{"android":"levelo://app?vid=8c1ce0f6-05e4-49bc-8157-62ed93222abf","ios":"levelo://app?vid=8c1ce0f6-05e4-49bc-8157-62ed93222abf"},"vehicle_type_id":"4","last_reported":1745158097,"current_range_meters":14000,"station_id":"","pricing_plan_id":"cebpf4jnsgd1na2vs0mg"},{"bike_id":"4e0feb4b-9af5-4c5c-a215-eabded87c4f9","system_id":"levelo_inurba_marseille","lat":43.23189,"lon":5.35558,"is_reserved":false,"is_disabled":false,"rental_uris":{"android":"levelo://app?vid=4e0feb4b-9af5-4c5c-a215-eabded87c4f9","ios":"levelo://app?vid=4e0feb4b-9af5-4c5c-a215-eabded87c4f9"},"vehicle_type_id":"4","last_reported":1745158097,"current_range_meters":14000,"station_id":"ce4bhu92rcd13ifvqi70","pricing_plan_id":"cebpf4jnsgd1na2vs0mg"},{"bike_id":"37a9c36a-0642-4a20-abeb-e7b4f1cbdbfd","system_id":"levelo_inurba_marseille","lat":43.295005,"lon":5.379953,"is_reserved":false,"is_disabled":false,"rental_uris":{"android":"levelo://app?vid=37a9c36a-0642-4a20-abeb-e7b4f1cbdbfd","ios":"levelo://app?vid=37a9c36a-0642-4a20-abeb-e7b4f1cbdbfd"},"vehicle_type_id":"4","last_reported":1745158097,"current_range_meters":14400,"station_id":"ce4bh9p2rcd13ifvqec0","pricing_plan_id":"cebpf4jnsgd1na2vs0mg"},{"bike_id":"80b55b8f-4b91-4662-b23c-f0419d420337","system_id":"levelo_inurba_marseille","lat":43.23069,"lon":5.35496,"is_reserved":false,"is_disabled":false,"rental_uris":{"android":"levelo://app?vid=80b55b8f-4b91-4662-b23c-f0419d420337","ios":"levelo://app?vid=80b55b8f-4b91-4662-b23c-f0419d420337"},"vehicle_type_id":"4","last_reported":1745158097,"current_range_meters":14400,"station_id":"cpo3342slgdg3j2ifvpg","pricing_plan_id":"cebpf4jnsgd1na2vs0mg"},{"bike_id":"f7027e6a-48d2-4cae-b50c-97b01f670552","system_id":"levelo_inurba_marseille","lat":43.23968,"lon":5.36617,"is_reserved":false,"is_disabled":false,"rental_uris":{"android":"levelo://app?vid=f7027e6a-48d2-4cae-b50c-97b01f670552","ios":"levelo://app?vid=f7027e6a-48d2-4cae-b50c-97b01f670552"},"vehicle_type_id":"4","last_reported":1745158097,"current_range_meters":14400,"station_id":"ce4bhi12rcd13ifvqfp0","pricing_plan_id":"cebpf4jnsgd1na2vs0mg"},{"bike_id":"d53e964c-f934-484c-a259-3e8f23cdd819","system_id":"levelo_inurba_marseille","lat":43.33741,"lon":5.39186,"is_reserved":false,"is_disabled":false,"rental_uris":{"android":"levelo://app?vid=d53e964c-f934-484c-a259-3e8f23cdd819","ios":"levelo://app?vid=d53e964c-f934-484c-a259-3e8f23cdd819"},"vehicle_type_id":"4","last_reported":1745158097,"current_range_meters":14800,"station_id":"ce4bhr92rcd13ifvqhsg","pricing_plan_id":"cebpf4jnsgd1na2vs0mg"},{"bike_id":"aa4956c6-6845-4783-8776-ee4b88f920ec","system_id":"levelo_inurba_marseille","lat":43.28633,"lon":5.37073,"is_reserved":false,"is_disabled":true,"rental_uris":{"android":"levelo://app?vid=aa4956c6-6845-4783-8776-ee4b88f920ec","ios":"levelo://app?vid=aa4956c6-6845-4783-8776-ee4b88f920ec"},"vehicle_type_id":"4","last_reported":1745158097,"current_range_meters":14800,"station_id":"ce4bht12rcd13ifvqi60","pricing_plan_id":"cebpf4jnsgd1na2vs0mg"},{"bike_id":"cc015b0e-d256-409b-bfae-d243633a1e3e","system_id":"levelo_inurba_marseille","lat":43.22932,"lon":5.35382,"is_reserved":false,"is_disabled":false,"rental_uris":{"android":"levelo://app?vid=cc015b0e-d256-409b-bfae-d243633a1e3e","ios":"levelo://app?vid=cc015b0e-d256-409b-bfae-d243633a1e3e"},"vehicle_type_id":"4","last_reported":1745158097,"current_range_meters":14800,"station_id":"cpo3532slgdg3j2ikp40","pricing_plan_id":"cebpf4jnsgd1na2vs0mg"},{"bike_id":"f9666433-d431-4240-ab4e-23b4ae2a9ae4","system_id":"levelo_inurba_marseille","lat":43.295654,"lon":5.37539,"is_reserved":false,"is_disabled":false,"rental_uris":{"android":"levelo://app?vid=f9666433-d431-4240-ab4e-23b4ae2a9ae4","ios":"levelo://app?vid=f9666433-d431-4240-ab4e-23b4ae2a9ae4"},"vehicle_type_id":"4","last_reported":1745158097,"current_range_meters":14800,"station_id":"ce4bgh92rcd13ifvqb50","pricing_plan_id":"cebpf4jnsgd1na2vs0mg"},{"bike_id":"7c391b87-e8cd-460a-a114-d9781e084d94","system_id":"levelo_inurba_marseille","lat":43.241786,"lon":5.397376,"is_reserved":false,"is_disabled":false,"rental_uris":{"android":"levelo://app?vid=7c391b87-e8cd-460a-a114-d9781e084d94","ios":"levelo://app?vid=7c391b87-e8cd-460a-a114-d9781e084d94"},"vehicle_type_id":"4","last_reported":1745158097,"current_range_meters":14800,"station_id":"ce4bhn12rcd13ifvqgpg","pricing_plan_id":"cebpf4jnsgd1na2vs0mg"},{"bike_id":"3f2fccb2-46ab-4328-aef6-4dfa413c0518","system_id":"levelo_inurba_marseille","lat":43.26211,"lon":5.37451,"is_reserved":false,"is_disabled":false,"rental_uris":{"android":"levelo://app?vid=3f2fccb2-46ab-4328-aef6-4dfa413c0518","ios":"levelo://app?vid=3f2fccb2-46ab-4328-aef6-4dfa413c0518"},"vehicle_type_id":"4","last_reported":1745158097,"current_range_meters":15200,"station_id":"ce4bhgp2rcd13ifvqfc0","pricing_plan_id":"cebpf4jnsgd1na2vs0mg"},{"bike_id":"c299dc9e-5a14-4947-ae3f-28b3be5e4f74","system_id":"levelo_inurba_marseille","lat":43.21746,"lon":5.34603,"is_reserved":false,"is_disabled":false,"rental_uris":{"android":"levelo://app?vid=c299dc9e-5a14-4947-ae3f-28b3be5e4f74","ios":"levelo://app?vid=c299dc9e-5a14-4947-ae3f-28b3be5e4f74"},"vehicle_type_id":"4","last_reported":1745158097,"current_range_meters":15200,"station_id":"st_cvj6r9ubvosntc0bgbag","pricing_plan_id":"cebpf4jnsgd1na2vs0mg"},{"bike_id":"3bf87c6d-4d41-4e05-8008-9e2a8d48933e","system_id":"levelo_inurba_marseille","lat":43.25609,"lon":5.38231,"is_reserved":false,"is_disabled":false,"rental_uris":{"android":"levelo://app?vid=3bf87c6d-4d41-4e05-8008-9e2a8d48933e","ios":"levelo://app?vid=3bf87c6d-4d41-4e05-8008-9e2a8d48933e"},"vehicle_type_id":"4","last_reported":1745158097,"current_range_meters":15200,"station_id":"ce4bhih2rcd13ifvqfs0","pricing_plan_id":"cebpf4jnsgd1na2vs0mg"},{"bike_id":"e653e066-2807-4514-8a61-d3a7d53ac289","system_id":"levelo_inurba_marseille","lat":43.225028,"lon":5.347872,"is_reserved":false,"is_disabled":false,"rental_uris":{"android":"levelo://app?vid=e653e066-2807-4514-8a61-d3a7d53ac289","ios":"levelo://app?vid=e653e066-2807-4514-8a61-d3a7d53ac289"},"vehicle_type_id":"4","last_reported":1745158097,"current_range_meters":15200,"station_id":"","pricing_plan_id":"cebpf4jnsgd1na2vs0mg"},{"bike_id":"46985086-a927-4820-acf1-d2141f37d7d6","system_id":"levelo_inurba_marseille","lat":43.304195,"lon":5.412819,"is_reserved":false,"is_disabled":false,"rental_uris":{"android":"levelo://app?vid=46985086-a927-4820-acf1-d2141f37d7d6","ios":"levelo://app?vid=46985086-a927-4820-acf1-d2141f37d7d6"},"vehicle_type_id":"4","last_reported":1745158097,"current_range_meters":16000,"station_id":"ce4bhop2rcd13ifvqh8g","pricing_plan_id":"cebpf4jnsgd1na2vs0mg"},{"bike_id":"386c0466-92a0-4b14-84ad-ceae0ada9e40","system_id":"levelo_inurba_marseille","lat":43.30895,"lon":5.36845,"is_reserved":false,"is_disabled":true,"rental_uris":{"android":"levelo://app?vid=386c0466-92a0-4b14-84ad-ceae0ada9e40","ios":"levelo://app?vid=386c0466-92a0-4b14-84ad-ceae0ada9e40"},"vehicle_type_id":"4","last_reported":1745158097,"current_range_meters":16000,"station_id":"ce4bgn92rcd13ifvqbvg","pricing_plan_id":"cebpf4jnsgd1na2vs0mg"},{"bike_id":"e8e26fa5-632e-4970-be3a-295d2fbfaee9","system_id":"levelo_inurba_marseille","lat":43.26024,"lon":5.37546,"is_reserved":false,"is_disabled":false,"rental_uris":{"android":"levelo://app?vid=e8e26fa5-632e-4970-be3a-295d2fbfaee9","ios":"levelo://app?vid=e8e26fa5-632e-4970-be3a-295d2fbfaee9"},"vehicle_type_id":"4","last_reported":1745158097,"current_range_meters":16000,"station_id":"ce4bhgh2rcd13ifvqfa0","pricing_plan_id":"cebpf4jnsgd1na2vs0mg"},{"bike_id":"2147583a-6aeb-4422-bcfc-70512bd60fea","system_id":"levelo_inurba_marseille","lat":43.21743,"lon":5.34613,"is_reserved":false,"is_disabled":false,"rental_uris":{"android":"levelo://app?vid=2147583a-6aeb-4422-bcfc-70512bd60fea","ios":"levelo://app?vid=2147583a-6aeb-4422-bcfc-70512bd60fea"},"vehicle_type_id":"4","last_reported":1745158097,"current_range_meters":16000,"station_id":"st_cvj6r9ubvosntc0bgbag","pricing_plan_id":"cebpf4jnsgd1na2vs0mg"},{"bike_id":"54333f71-3852-4e7b-b374-b14e492e4962","system_id":"levelo_inurba_marseille","lat":43.30405,"lon":5.41272,"is_reserved":false,"is_disabled":true,"rental_uris":{"android":"levelo://app?vid=54333f71-3852-4e7b-b374-b14e492e4962","ios":"levelo://app?vid=54333f71-3852-4e7b-b374-b14e492e4962"},"vehicle_type_id":"4","last_reported":1745158097,"current_range_meters":16000,"station_id":"ce4bhop2rcd13ifvqh8g","pricing_plan_id":"cebpf4jnsgd1na2vs0mg"},{"bike_id":"cb04d036-524e-497d-b1e8-d53251979b05","system_id":"levelo_inurba_marseille","lat":43.29883,"lon":5.39745,"is_reserved":false,"is_disabled":true,"rental_uris":{"android":"levelo://app?vid=cb04d036-524e-497d-b1e8-d53251979b05","ios":"levelo://app?vid=cb04d036-524e-497d-b1e8-d53251979b05"},"vehicle_type_id":"4","last_reported":1745158097,"current_range_meters":16000,"station_id":"ce4bh0h2rcd13ifvqd50","pricing_plan_id":"cebpf4jnsgd1na2vs0mg"},{"bike_id":"fa1ef2a0-fc93-4ee5-98c9-cb6fce94f030","system_id":"levelo_inurba_marseille","lat":43.26788,"lon":5.39411,"is_reserved":false,"is_disabled":false,"rental_uris":{"android":"levelo://app?vid=fa1ef2a0-fc93-4ee5-98c9-cb6fce94f030","ios":"levelo://app?vid=fa1ef2a0-fc93-4ee5-98c9-cb6fce94f030"},"vehicle_type_id":"4","last_reported":1745158097,"current_range_meters":16000,"station_id":"ce4bhh12rcd13ifvqfg0","pricing_plan_id":"cebpf4jnsgd1na2vs0mg"},{"bike_id":"4f3459a0-6c98-40ac-9364-5741ee6332a5","system_id":"levelo_inurba_marseille","lat":43.21743,"lon":5.34607,"is_reserved":false,"is_disabled":false,"rental_uris":{"android":"levelo://app?vid=4f3459a0-6c98-40ac-9364-5741ee6332a5","ios":"levelo://app?vid=4f3459a0-6c98-40ac-9364-5741ee6332a5"},"vehicle_type_id":"4","last_reported":1745158097,"current_range_meters":16000,"station_id":"st_cvj6r9ubvosntc0bgbag","pricing_plan_id":"cebpf4jnsgd1na2vs0mg"},{"bike_id":"d66f2fbf-84c1-4006-a003-d92ef3aa9479","system_id":"levelo_inurba_marseille","lat":43.23193,"lon":5.35541,"is_reserved":false,"is_disabled":false,"rental_uris":{"android":"levelo://app?vid=d66f2fbf-84c1-4006-a003-d92ef3aa9479","ios":"levelo://app?vid=d66f2fbf-84c1-4006-a003-d92ef3aa9479"},"vehicle_type_id":"4","last_reported":1745158097,"current_range_meters":16000,"station_id":"ce4bhu92rcd13ifvqi70","pricing_plan_id":"cebpf4jnsgd1na2vs0mg"},{"bike_id":"8605282b-b417-44ef-b921-2c93f06b4d14","system_id":"levelo_inurba_marseille","lat":43.25115,"lon":5.4033,"is_reserved":false,"is_disabled":false,"rental_uris":{"android":"levelo://app?vid=8605282b-b417-44ef-b921-2c93f06b4d14","ios":"levelo://app?vid=8605282b-b417-44ef-b921-2c93f06b4d14"},"vehicle_type_id":"4","last_reported":1745158097,"current_range_meters":16000,"station_id":"ce4bhlh2rcd13ifvqgig","pricing_plan_id":"cebpf4jnsgd1na2vs0mg"},{"bike_id":"75b004cc-df23-4188-9f75-8b16dd6403d0","system_id":"levelo_inurba_marseille","lat":43.21194,"lon":5.35071,"is_reserved":false,"is_disabled":false,"rental_uris":{"android":"levelo://app?vid=75b004cc-df23-4188-9f75-8b16dd6403d0","ios":"levelo://app?vid=75b004cc-df23-4188-9f75-8b16dd6403d0"},"vehicle_type_id":"4","last_reported":1745158097,"current_range_meters":16400,"station_id":"st_cvj6sg6p6f1abm77japg","pricing_plan_id":"cebpf4jnsgd1na2vs0mg"},{"bike_id":"b6510aa5-96c6-4c1a-826c-20bc1ab5e651","system_id":"levelo_inurba_marseille","lat":43.30219,"lon":5.39458,"is_reserved":false,"is_disabled":false,"rental_uris":{"android":"levelo://app?vid=b6510aa5-96c6-4c1a-826c-20bc1ab5e651","ios":"levelo://app?vid=b6510aa5-96c6-4c1a-826c-20bc1ab5e651"},"vehicle_type_id":"4","last_reported":1745158097,"current_range_meters":16400,"station_id":"ce4bh0p2rcd13ifvqd70","pricing_plan_id":"cebpf4jnsgd1na2vs0mg"},{"bike_id":"169c7ea6-9529-4ef3-a905-b96c60a015ea","system_id":"levelo_inurba_marseille","lat":43.29048,"lon":5.3591,"is_reserved":false,"is_disabled":false,"rental_uris":{"android":"levelo://app?vid=169c7ea6-9529-4ef3-a905-b96c60a015ea","ios":"levelo://app?vid=169c7ea6-9529-4ef3-a905-b96c60a015ea"},"vehicle_type_id":"4","last_reported":1745158097,"current_range_meters":16000,"station_id":"ce4bha92rcd13ifvqeg0","pricing_plan_id":"cebpf4jnsgd1na2vs0mg"},{"bike_id":"7d29063e-cc47-43de-9fe3-33b900004d65","system_id":"levelo_inurba_marseille","lat":43.2119,"lon":5.35065,"is_reserved":false,"is_disabled":false,"rental_uris":{"android":"levelo://app?vid=7d29063e-cc47-43de-9fe3-33b900004d65","ios":"levelo://app?vid=7d29063e-cc47-43de-9fe3-33b900004d65"},"vehicle_type_id":"4","last_reported":1745158097,"current_range_meters":16400,"station_id":"st_cvj6sg6p6f1abm77japg","pricing_plan_id":"cebpf4jnsgd1na2vs0mg"},{"bike_id":"9cd66f20-0974-44a3-a00c-3af08e74ebf2","system_id":"levelo_inurba_marseille","lat":43.26022,"lon":5.41736,"is_reserved":false,"is_disabled":false,"rental_uris":{"android":"levelo://app?vid=9cd66f20-0974-44a3-a00c-3af08e74ebf2","ios":"levelo://app?vid=9cd66f20-0974-44a3-a00c-3af08e74ebf2"},"vehicle_type_id":"4","last_reported":1745158097,"current_range_meters":16400,"station_id":"","pricing_plan_id":"cebpf4jnsgd1na2vs0mg"},{"bike_id":"63e30265-6db9-420a-bbfd-6737f0a35194","system_id":"levelo_inurba_marseille","lat":43.30296,"lon":5.396779,"is_reserved":false,"is_disabled":false,"rental_uris":{"android":"levelo://app?vid=63e30265-6db9-420a-bbfd-6737f0a35194","ios":"levelo://app?vid=63e30265-6db9-420a-bbfd-6737f0a35194"},"vehicle_type_id":"4","last_reported":1745158097,"current_range_meters":16400,"station_id":"ce4bh0h2rcd13ifvqd50","pricing_plan_id":"cebpf4jnsgd1na2vs0mg"},{"bike_id":"6cb32928-af13-438c-897b-314f762f58e9","system_id":"levelo_inurba_marseille","lat":43.24652,"lon":5.38895,"is_reserved":false,"is_disabled":false,"rental_uris":{"android":"levelo://app?vid=6cb32928-af13-438c-897b-314f762f58e9","ios":"levelo://app?vid=6cb32928-af13-438c-897b-314f762f58e9"},"vehicle_type_id":"4","last_reported":1745158097,"current_range_meters":16800,"station_id":"ce4bhg12rcd13ifvqf60","pricing_plan_id":"cebpf4jnsgd1na2vs0mg"},{"bike_id":"6849084f-c018-412d-8453-48b9ef5c6ac3","system_id":"levelo_inurba_marseille","lat":43.26552,"lon":5.37279,"is_reserved":false,"is_disabled":false,"rental_uris":{"android":"levelo://app?vid=6849084f-c018-412d-8453-48b9ef5c6ac3","ios":"levelo://app?vid=6849084f-c018-412d-8453-48b9ef5c6ac3"},"vehicle_type_id":"4","last_reported":1745158097,"current_range_meters":16800,"station_id":"ce4bhg12rcd13ifvqf70","pricing_plan_id":"cebpf4jnsgd1na2vs0mg"},{"bike_id":"721f595d-f057-44ac-ac8d-4aec1bc01567","system_id":"levelo_inurba_marseille","lat":43.25106,"lon":5.40322,"is_reserved":false,"is_disabled":false,"rental_uris":{"android":"levelo://app?vid=721f595d-f057-44ac-ac8d-4aec1bc01567","ios":"levelo://app?vid=721f595d-f057-44ac-ac8d-4aec1bc01567"},"vehicle_type_id":"4","last_reported":1745158097,"current_range_meters":16800,"station_id":"ce4bhlh2rcd13ifvqgig","pricing_plan_id":"cebpf4jnsgd1na2vs0mg"},{"bike_id":"69c71d2a-ee10-4dc3-86b0-dabffcea50d9","system_id":"levelo_inurba_marseille","lat":43.308772,"lon":5.381873,"is_reserved":false,"is_disabled":false,"rental_uris":{"android":"levelo://app?vid=69c71d2a-ee10-4dc3-86b0-dabffcea50d9","ios":"levelo://app?vid=69c71d2a-ee10-4dc3-86b0-dabffcea50d9"},"vehicle_type_id":"4","last_reported":1745158097,"current_range_meters":16400,"station_id":"ce4bgvh2rcd13ifvqcs0","pricing_plan_id":"cebpf4jnsgd1na2vs0mg"},{"bike_id":"f36c50e9-99a2-48ac-ba24-bbee1a1c2a9b","system_id":"levelo_inurba_marseille","lat":43.23187,"lon":5.39986,"is_reserved":false,"is_disabled":false,"rental_uris":{"android":"levelo://app?vid=f36c50e9-99a2-48ac-ba24-bbee1a1c2a9b","ios":"levelo://app?vid=f36c50e9-99a2-48ac-ba24-bbee1a1c2a9b"},"vehicle_type_id":"4","last_reported":1745158097,"current_range_meters":16800,"station_id":"ce4bhn12rcd13ifvqgqg","pricing_plan_id":"cebpf4jnsgd1na2vs0mg"},{"bike_id":"57332b25-e487-4c64-b4bc-c9ac655171cf","system_id":"levelo_inurba_marseille","lat":43.27373,"lon":5.3625,"is_reserved":false,"is_disabled":false,"rental_uris":{"android":"levelo://app?vid=57332b25-e487-4c64-b4bc-c9ac655171cf","ios":"levelo://app?vid=57332b25-e487-4c64-b4bc-c9ac655171cf"},"vehicle_type_id":"4","last_reported":1745158097,"current_range_meters":16800,"station_id":"ce4bhbh2rcd13ifvqeo0","pricing_plan_id":"cebpf4jnsgd1na2vs0mg"},{"bike_id":"1a5f2cec-6354-428d-a667-d2081b30c7f2","system_id":"levelo_inurba_marseille","lat":43.27686,"lon":5.39783,"is_reserved":false,"is_disabled":false,"rental_uris":{"android":"levelo://app?vid=1a5f2cec-6354-428d-a667-d2081b30c7f2","ios":"levelo://app?vid=1a5f2cec-6354-428d-a667-d2081b30c7f2"},"vehicle_type_id":"4","last_reported":1745158097,"current_range_meters":16800,"station_id":"","pricing_plan_id":"cebpf4jnsgd1na2vs0mg"},{"bike_id":"0d37e1cd-ec51-42a3-8f78-cea0ea105fe4","system_id":"levelo_inurba_marseille","lat":43.28368,"lon":5.38627,"is_reserved":false,"is_disabled":false,"rental_uris":{"android":"levelo://app?vid=0d37e1cd-ec51-42a3-8f78-cea0ea105fe4","ios":"levelo://app?vid=0d37e1cd-ec51-42a3-8f78-cea0ea105fe4"},"vehicle_type_id":"4","last_reported":1745158097,"current_range_meters":16800,"station_id":"ce4bh492rcd13ifvqdvg","pricing_plan_id":"cebpf4jnsgd1na2vs0mg"},{"bike_id":"7ec0fce2-6c90-4831-b2d2-fadbbebc0278","system_id":"levelo_inurba_marseille","lat":43.26209,"lon":5.37437,"is_reserved":false,"is_disabled":false,"rental_uris":{"android":"levelo://app?vid=7ec0fce2-6c90-4831-b2d2-fadbbebc0278","ios":"levelo://app?vid=7ec0fce2-6c90-4831-b2d2-fadbbebc0278"},"vehicle_type_id":"4","last_reported":1745158097,"current_range_meters":16800,"station_id":"ce4bhgp2rcd13ifvqfc0","pricing_plan_id":"cebpf4jnsgd1na2vs0mg"},{"bike_id":"ae59e7d6-513e-428d-b1d4-232c78630aa8","system_id":"levelo_inurba_marseille","lat":43.3089,"lon":5.39657,"is_reserved":false,"is_disabled":false,"rental_uris":{"android":"levelo://app?vid=ae59e7d6-513e-428d-b1d4-232c78630aa8","ios":"levelo://app?vid=ae59e7d6-513e-428d-b1d4-232c78630aa8"},"vehicle_type_id":"4","last_reported":1745158097,"current_range_meters":17200,"station_id":"ce4bh012rcd13ifvqcv0","pricing_plan_id":"cebpf4jnsgd1na2vs0mg"},{"bike_id":"0de80fe7-f9ac-4f62-a4bb-d2d3e2f66040","system_id":"levelo_inurba_marseille","lat":43.21745,"lon":5.34595,"is_reserved":false,"is_disabled":false,"rental_uris":{"android":"levelo://app?vid=0de80fe7-f9ac-4f62-a4bb-d2d3e2f66040","ios":"levelo://app?vid=0de80fe7-f9ac-4f62-a4bb-d2d3e2f66040"},"vehicle_type_id":"4","last_reported":1745158097,"current_range_meters":17200,"station_id":"","pricing_plan_id":"cebpf4jnsgd1na2vs0mg"},{"bike_id":"d90f2f1b-9566-4660-a9ea-fd663efd0a48","system_id":"levelo_inurba_marseille","lat":43.29197,"lon":5.39336,"is_reserved":false,"is_disabled":false,"rental_uris":{"android":"levelo://app?vid=d90f2f1b-9566-4660-a9ea-fd663efd0a48","ios":"levelo://app?vid=d90f2f1b-9566-4660-a9ea-fd663efd0a48"},"vehicle_type_id":"4","last_reported":1745158097,"current_range_meters":17200,"station_id":"ce4bh192rcd13ifvqdd0","pricing_plan_id":"cebpf4jnsgd1na2vs0mg"},{"bike_id":"b157dc81-51c5-45f3-a677-9e9c3cf6283b","system_id":"levelo_inurba_marseille","lat":43.30602,"lon":5.37167,"is_reserved":false,"is_disabled":false,"rental_uris":{"android":"levelo://app?vid=b157dc81-51c5-45f3-a677-9e9c3cf6283b","ios":"levelo://app?vid=b157dc81-51c5-45f3-a677-9e9c3cf6283b"},"vehicle_type_id":"4","last_reported":1745158097,"current_range_meters":17200,"station_id":"ce4bgqh2rcd13ifvqc4g","pricing_plan_id":"cebpf4jnsgd1na2vs0mg"},{"bike_id":"14aa5634-cccd-46db-a638-6f36ff4f4d85","system_id":"levelo_inurba_marseille","lat":43.22928,"lon":5.35369,"is_reserved":false,"is_disabled":false,"rental_uris":{"android":"levelo://app?vid=14aa5634-cccd-46db-a638-6f36ff4f4d85","ios":"levelo://app?vid=14aa5634-cccd-46db-a638-6f36ff4f4d85"},"vehicle_type_id":"4","last_reported":1745158097,"current_range_meters":17200,"station_id":"cpo3532slgdg3j2ikp40","pricing_plan_id":"cebpf4jnsgd1na2vs0mg"},{"bike_id":"fe8643f6-8fbe-4fe9-94e5-00399d3b2757","system_id":"levelo_inurba_marseille","lat":43.21194,"lon":5.35071,"is_reserved":false,"is_disabled":false,"rental_uris":{"android":"levelo://app?vid=fe8643f6-8fbe-4fe9-94e5-00399d3b2757","ios":"levelo://app?vid=fe8643f6-8fbe-4fe9-94e5-00399d3b2757"},"vehicle_type_id":"4","last_reported":1745158097,"current_range_meters":17200,"station_id":"st_cvj6sg6p6f1abm77japg","pricing_plan_id":"cebpf4jnsgd1na2vs0mg"},{"bike_id":"417fad51-71ac-4397-9e58-354b9650ace1","system_id":"levelo_inurba_marseille","lat":43.30215,"lon":5.39465,"is_reserved":false,"is_disabled":false,"rental_uris":{"android":"levelo://app?vid=417fad51-71ac-4397-9e58-354b9650ace1","ios":"levelo://app?vid=417fad51-71ac-4397-9e58-354b9650ace1"},"vehicle_type_id":"4","last_reported":1745158097,"current_range_meters":17200,"station_id":"ce4bh0p2rcd13ifvqd70","pricing_plan_id":"cebpf4jnsgd1na2vs0mg"},{"bike_id":"fa0e2da6-a784-405b-a63a-e123918df129","system_id":"levelo_inurba_marseille","lat":43.27379,"lon":5.36249,"is_reserved":false,"is_disabled":false,"rental_uris":{"android":"levelo://app?vid=fa0e2da6-a784-405b-a63a-e123918df129","ios":"levelo://app?vid=fa0e2da6-a784-405b-a63a-e123918df129"},"vehicle_type_id":"4","last_reported":1745158097,"current_range_meters":17200,"station_id":"ce4bhbh2rcd13ifvqeo0","pricing_plan_id":"cebpf4jnsgd1na2vs0mg"},{"bike_id":"d1fbbc7d-a0cf-46d2-b4ea-8f4db83444de","system_id":"levelo_inurba_marseille","lat":43.27173,"lon":5.40998,"is_reserved":false,"is_disabled":false,"rental_uris":{"android":"levelo://app?vid=d1fbbc7d-a0cf-46d2-b4ea-8f4db83444de","ios":"levelo://app?vid=d1fbbc7d-a0cf-46d2-b4ea-8f4db83444de"},"vehicle_type_id":"4","last_reported":1745158097,"current_range_meters":17200,"station_id":"ce4bhl12rcd13ifvqgf0","pricing_plan_id":"cebpf4jnsgd1na2vs0mg"},{"bike_id":"bbfd1c7d-9e4c-4288-9919-ff9fa7a14056","system_id":"levelo_inurba_marseille","lat":43.21741,"lon":5.34601,"is_reserved":false,"is_disabled":true,"rental_uris":{"android":"levelo://app?vid=bbfd1c7d-9e4c-4288-9919-ff9fa7a14056","ios":"levelo://app?vid=bbfd1c7d-9e4c-4288-9919-ff9fa7a14056"},"vehicle_type_id":"4","last_reported":1745158097,"current_range_meters":17200,"station_id":"st_cvj6r9ubvosntc0bgbag","pricing_plan_id":"cebpf4jnsgd1na2vs0mg"},{"bike_id":"0634ab8f-4bc2-4bc1-bab2-60f860ed18e5","system_id":"levelo_inurba_marseille","lat":43.26564,"lon":5.37282,"is_reserved":false,"is_disabled":false,"rental_uris":{"android":"levelo://app?vid=0634ab8f-4bc2-4bc1-bab2-60f860ed18e5","ios":"levelo://app?vid=0634ab8f-4bc2-4bc1-bab2-60f860ed18e5"},"vehicle_type_id":"4","last_reported":1745158097,"current_range_meters":17600,"station_id":"ce4bhg12rcd13ifvqf70","pricing_plan_id":"cebpf4jnsgd1na2vs0mg"},{"bike_id":"850c3a0f-8b1b-4da7-a90e-39f84611eb5e","system_id":"levelo_inurba_marseille","lat":43.29539,"lon":5.375,"is_reserved":false,"is_disabled":false,"rental_uris":{"android":"levelo://app?vid=850c3a0f-8b1b-4da7-a90e-39f84611eb5e","ios":"levelo://app?vid=850c3a0f-8b1b-4da7-a90e-39f84611eb5e"},"vehicle_type_id":"4","last_reported":1745158097,"current_range_meters":17600,"station_id":"ce4bgkp2rcd13ifvqbmg","pricing_plan_id":"cebpf4jnsgd1na2vs0mg"},{"bike_id":"7c69a94c-3d74-4d94-bd4f-3fdcc848be7e","system_id":"levelo_inurba_marseille","lat":43.21743,"lon":5.34609,"is_reserved":false,"is_disabled":false,"rental_uris":{"android":"levelo://app?vid=7c69a94c-3d74-4d94-bd4f-3fdcc848be7e","ios":"levelo://app?vid=7c69a94c-3d74-4d94-bd4f-3fdcc848be7e"},"vehicle_type_id":"4","last_reported":1745158097,"current_range_meters":17600,"station_id":"st_cvj6r9ubvosntc0bgbag","pricing_plan_id":"cebpf4jnsgd1na2vs0mg"},{"bike_id":"a141e1e5-c1b4-43ca-8955-20e468ae0dc4","system_id":"levelo_inurba_marseille","lat":43.31189,"lon":5.38719,"is_reserved":false,"is_disabled":false,"rental_uris":{"android":"levelo://app?vid=a141e1e5-c1b4-43ca-8955-20e468ae0dc4","ios":"levelo://app?vid=a141e1e5-c1b4-43ca-8955-20e468ae0dc4"},