{"last_updated":1767132666,"ttl":60,"version":"2.2","data":{"bikes":[{"bike_id":"93238dbe-7e18-4ff9-acc5-cf08ef47ac5a","system_id":"levelo_inurba_marseille","lat":43.27396,"lon":5.41539,"is_reserved":false,"is_disabled":false,"rental_uris":{"android":"levelo://app?vid=93238dbe-7e18-4ff9-acc5-cf08ef47ac5a","ios":"levelo://app?vid=93238dbe-7e18-4ff9-acc5-cf08ef47ac5a"},"vehicle_type_id":"4","last_reported":1767132666,"current_range_meters":3200,"station_id":"","pricing_plan_id":"cebpf4jnsgd1na2vs0mg"},{"bike_id":"b0fecc2b-ec8f-4434-ba08-eaae921361a2","system_id":"levelo_inurba_marseille","lat":43.24148,"lon":5.40896,"is_reserved":false,"is_disabled":false,"rental_uris":{"android":"levelo://app?vid=b0fecc2b-ec8f-4434-ba08-eaae921361a2","ios":"levelo://app?vid=b0fecc2b-ec8f-4434-ba08-eaae921361a2"},"vehicle_type_id":"4","last_reported":1767132666,"current_range_meters":3200,"station_id":"","pricing_plan_id":"cebpf4jnsgd1na2vs0mg"},{"bike_id":"bd5a2086-9c2c-4ae0-97e8-4a52b0f9cc25","system_id":"levelo_inurba_marseille","lat":43.27068,"lon":5.42268,"is_reserved":false,"is_disabled":false,"rental_uris":{"android":"levelo://app?vid=bd5a2086-9c2c-4ae0-97e8-4a52b0f9cc25","ios":"levelo://app?vid=bd5a2086-9c2c-4ae0-97e8-4a52b0f9cc25"},"vehicle_type_id":"4","last_reported":1767132666,"current_range_meters":3200,"station_id":"ce4bhk92rcd13ifvqgb0","pricing_plan_id":"cebpf4jnsgd1na2vs0mg"},{"bike_id":"5766aee7-e26e-494b-957d-dab3e11fa74a","system_id":"levelo_inurba_marseille","lat":43.29023,"lon":5.38634,"is_reserved":false,"is_disabled":false,"rental_uris":{"android":"levelo://app?vid=5766aee7-e26e-494b-957d-dab3e11fa74a","ios":"levelo://app?vid=5766aee7-e26e-494b-957d-dab3e11fa74a"},"vehicle_type_id":"4","last_reported":1767132666,"current_range_meters":3200,"station_id":"","pricing_plan_id":"cebpf4jnsgd1na2vs0mg"},{"bike_id":"2d160c4a-ca16-4ada-8110-5ac791163e67","system_id":"levelo_inurba_marseille","lat":43.28607,"lon":5.3706,"is_reserved":false,"is_disabled":false,"rental_uris":{"android":"levelo://app?vid=2d160c4a-ca16-4ada-8110-5ac791163e67","ios":"levelo://app?vid=2d160c4a-ca16-4ada-8110-5ac791163e67"},"vehicle_type_id":"4","last_reported":1767132666,"current_range_meters":3200,"station_id":"ce4bht12rcd13ifvqi60","pricing_plan_id":"cebpf4jnsgd1na2vs0mg"},{"bike_id":"49166d3a-7d57-41ae-b5e6-9a6cbabce031","system_id":"levelo_inurba_marseille","lat":43.29686,"lon":5.36771,"is_reserved":false,"is_disabled":false,"rental_uris":{"android":"levelo://app?vid=49166d3a-7d57-41ae-b5e6-9a6cbabce031","ios":"levelo://app?vid=49166d3a-7d57-41ae-b5e6-9a6cbabce031"},"vehicle_type_id":"4","last_reported":1767132666,"current_range_meters":3600,"station_id":"","pricing_plan_id":"cebpf4jnsgd1na2vs0mg"},{"bike_id":"1aa9bfd4-e184-4d89-bd48-3948ff7a38dd","system_id":"levelo_inurba_marseille","lat":43.29032,"lon":5.37563,"is_reserved":false,"is_disabled":false,"rental_uris":{"android":"levelo://app?vid=1aa9bfd4-e184-4d89-bd48-3948ff7a38dd","ios":"levelo://app?vid=1aa9bfd4-e184-4d89-bd48-3948ff7a38dd"},"vehicle_type_id":"4","last_reported":1767132666,"current_range_meters":4000,"station_id":"ce4bh692rcd13ifvqe90","pricing_plan_id":"cebpf4jnsgd1na2vs0mg"},{"bike_id":"b042021c-9ced-457b-8a11-dc9ac3802903","system_id":"levelo_inurba_marseille","lat":43.3042,"lon":5.39739,"is_reserved":false,"is_disabled":true,"rental_uris":{"android":"levelo://app?vid=b042021c-9ced-457b-8a11-dc9ac3802903","ios":"levelo://app?vid=b042021c-9ced-457b-8a11-dc9ac3802903"},"vehicle_type_id":"4","last_reported":1767132666,"current_range_meters":4000,"station_id":"ce4bh092rcd13ifvqd20","pricing_plan_id":"cebpf4jnsgd1na2vs0mg"},{"bike_id":"056109e4-7d33-4f55-bed7-22f13c21b637","system_id":"levelo_inurba_marseille","lat":43.337444,"lon":5.374475,"is_reserved":false,"is_disabled":true,"rental_uris":{"android":"levelo://app?vid=056109e4-7d33-4f55-bed7-22f13c21b637","ios":"levelo://app?vid=056109e4-7d33-4f55-bed7-22f13c21b637"},"vehicle_type_id":"4","last_reported":1767132666,"current_range_meters":4400,"station_id":"","pricing_plan_id":"cebpf4jnsgd1na2vs0mg"},{"bike_id":"ad306d0c-1a48-471b-8a10-55b1befe9745","system_id":"levelo_inurba_marseille","lat":43.31125,"lon":5.36776,"is_reserved":false,"is_disabled":false,"rental_uris":{"android":"levelo://app?vid=ad306d0c-1a48-471b-8a10-55b1befe9745","ios":"levelo://app?vid=ad306d0c-1a48-471b-8a10-55b1befe9745"},"vehicle_type_id":"4","last_reported":1767132666,"current_range_meters":4800,"station_id":"","pricing_plan_id":"cebpf4jnsgd1na2vs0mg"},{"bike_id":"3606b848-c1a6-441c-b3ed-f4bfb2b2d28f","system_id":"levelo_inurba_marseille","lat":43.280856,"lon":5.396539,"is_reserved":false,"is_disabled":false,"rental_uris":{"android":"levelo://app?vid=3606b848-c1a6-441c-b3ed-f4bfb2b2d28f","ios":"levelo://app?vid=3606b848-c1a6-441c-b3ed-f4bfb2b2d28f"},"vehicle_type_id":"4","last_reported":1767132666,"current_range_meters":4800,"station_id":"ce4bho12rcd13ifvqh2g","pricing_plan_id":"cebpf4jnsgd1na2vs0mg"},{"bike_id":"85f80c36-b01d-4148-8a0f-5ed00798dda8","system_id":"levelo_inurba_marseille","lat":43.30095,"lon":5.3644,"is_reserved":false,"is_disabled":false,"rental_uris":{"android":"levelo://app?vid=85f80c36-b01d-4148-8a0f-5ed00798dda8","ios":"levelo://app?vid=85f80c36-b01d-4148-8a0f-5ed00798dda8"},"vehicle_type_id":"4","last_reported":1767132666,"current_range_meters":4800,"station_id":"","pricing_plan_id":"cebpf4jnsgd1na2vs0mg"},{"bike_id":"32541f6a-1d2c-44c2-a392-06055eaf1598","system_id":"levelo_inurba_marseille","lat":43.26222,"lon":5.41637,"is_reserved":false,"is_disabled":true,"rental_uris":{"android":"levelo://app?vid=32541f6a-1d2c-44c2-a392-06055eaf1598","ios":"levelo://app?vid=32541f6a-1d2c-44c2-a392-06055eaf1598"},"vehicle_type_id":"4","last_reported":1767132666,"current_range_meters":4800,"station_id":"","pricing_plan_id":"cebpf4jnsgd1na2vs0mg"},{"bike_id":"fd3ef554-d521-46e5-9b5b-e4920fea09bb","system_id":"levelo_inurba_marseille","lat":43.26213,"lon":5.37471,"is_reserved":false,"is_disabled":true,"rental_uris":{"android":"levelo://app?vid=fd3ef554-d521-46e5-9b5b-e4920fea09bb","ios":"levelo://app?vid=fd3ef554-d521-46e5-9b5b-e4920fea09bb"},"vehicle_type_id":"4","last_reported":1767132666,"current_range_meters":4800,"station_id":"ce4bhgp2rcd13ifvqfc0","pricing_plan_id":"cebpf4jnsgd1na2vs0mg"},{"bike_id":"78aac755-db0d-47de-83fb-31652b1d951b","system_id":"levelo_inurba_marseille","lat":43.26223,"lon":5.4045,"is_reserved":false,"is_disabled":false,"rental_uris":{"android":"levelo://app?vid=78aac755-db0d-47de-83fb-31652b1d951b","ios":"levelo://app?vid=78aac755-db0d-47de-83fb-31652b1d951b"},"vehicle_type_id":"4","last_reported":1767132666,"current_range_meters":5600,"station_id":"ce4bhmh2rcd13ifvqgmg","pricing_plan_id":"cebpf4jnsgd1na2vs0mg"},{"bike_id":"c7f2e718-38b8-44a7-a0b2-c8eaa34f58b5","system_id":"levelo_inurba_marseille","lat":43.32377,"lon":5.38886,"is_reserved":false,"is_disabled":false,"rental_uris":{"android":"levelo://app?vid=c7f2e718-38b8-44a7-a0b2-c8eaa34f58b5","ios":"levelo://app?vid=c7f2e718-38b8-44a7-a0b2-c8eaa34f58b5"},"vehicle_type_id":"4","last_reported":1767132666,"current_range_meters":6000,"station_id":"ce4bhqp2rcd13ifvqhog","pricing_plan_id":"cebpf4jnsgd1na2vs0mg"},{"bike_id":"633e093e-7aba-4e4b-a5fe-b1e5d042f33b","system_id":"levelo_inurba_marseille","lat":43.28491,"lon":5.48407,"is_reserved":false,"is_disabled":false,"rental_uris":{"android":"levelo://app?vid=633e093e-7aba-4e4b-a5fe-b1e5d042f33b","ios":"levelo://app?vid=633e093e-7aba-4e4b-a5fe-b1e5d042f33b"},"vehicle_type_id":"4","last_reported":1767132666,"current_range_meters":6000,"station_id":"st_d3svhcjqgbts73a3dn0g","pricing_plan_id":"cebpf4jnsgd1na2vs0mg"},{"bike_id":"87e55b29-3d17-4e51-89de-832847e8bae3","system_id":"levelo_inurba_marseille","lat":43.302542,"lon":5.40064,"is_reserved":false,"is_disabled":false,"rental_uris":{"android":"levelo://app?vid=87e55b29-3d17-4e51-89de-832847e8bae3","ios":"levelo://app?vid=87e55b29-3d17-4e51-89de-832847e8bae3"},"vehicle_type_id":"4","last_reported":1767132666,"current_range_meters":6400,"station_id":"","pricing_plan_id":"cebpf4jnsgd1na2vs0mg"},{"bike_id":"11fdc4f9-4289-494f-a7f4-2a62d36e4d59","system_id":"levelo_inurba_marseille","lat":43.23176,"lon":5.39988,"is_reserved":false,"is_disabled":false,"rental_uris":{"android":"levelo://app?vid=11fdc4f9-4289-494f-a7f4-2a62d36e4d59","ios":"levelo://app?vid=11fdc4f9-4289-494f-a7f4-2a62d36e4d59"},"vehicle_type_id":"4","last_reported":1767132666,"current_range_meters":6400,"station_id":"ce4bhn12rcd13ifvqgqg","pricing_plan_id":"cebpf4jnsgd1na2vs0mg"},{"bike_id":"96e40cbe-7715-476d-b51d-1ebd212c1ada","system_id":"levelo_inurba_marseille","lat":43.29241,"lon":5.40906,"is_reserved":false,"is_disabled":false,"rental_uris":{"android":"levelo://app?vid=96e40cbe-7715-476d-b51d-1ebd212c1ada","ios":"levelo://app?vid=96e40cbe-7715-476d-b51d-1ebd212c1ada"},"vehicle_type_id":"4","last_reported":1767132666,"current_range_meters":6800,"station_id":"ce4bh192rcd13ifvqdc0","pricing_plan_id":"cebpf4jnsgd1na2vs0mg"},{"bike_id":"464569fc-a43a-48ef-b591-1e6b480fbfde","system_id":"levelo_inurba_marseille","lat":43.24458,"lon":5.42537,"is_reserved":false,"is_disabled":true,"rental_uris":{"android":"levelo://app?vid=464569fc-a43a-48ef-b591-1e6b480fbfde","ios":"levelo://app?vid=464569fc-a43a-48ef-b591-1e6b480fbfde"},"vehicle_type_id":"4","last_reported":1767132666,"current_range_meters":6800,"station_id":"st_d4a3vfp97mjs738cd8kg","pricing_plan_id":"cebpf4jnsgd1na2vs0mg"},{"bike_id":"12c38b32-5974-4311-910a-572392b8079a","system_id":"levelo_inurba_marseille","lat":43.280422,"lon":5.350876,"is_reserved":false,"is_disabled":false,"rental_uris":{"android":"levelo://app?vid=12c38b32-5974-4311-910a-572392b8079a","ios":"levelo://app?vid=12c38b32-5974-4311-910a-572392b8079a"},"vehicle_type_id":"4","last_reported":1767132666,"current_range_meters":6800,"station_id":"","pricing_plan_id":"cebpf4jnsgd1na2vs0mg"},{"bike_id":"7451e2f1-97cc-4a6a-824e-1c725c74e9d6","system_id":"levelo_inurba_marseille","lat":43.29366,"lon":5.38104,"is_reserved":false,"is_disabled":false,"rental_uris":{"android":"levelo://app?vid=7451e2f1-97cc-4a6a-824e-1c725c74e9d6","ios":"levelo://app?vid=7451e2f1-97cc-4a6a-824e-1c725c74e9d6"},"vehicle_type_id":"4","last_reported":1767132666,"current_range_meters":7200,"station_id":"","pricing_plan_id":"cebpf4jnsgd1na2vs0mg"},{"bike_id":"1dd2c077-d7fa-43b2-a55d-f6335f7bc478","system_id":"levelo_inurba_marseille","lat":43.29697,"lon":5.3731,"is_reserved":false,"is_disabled":false,"rental_uris":{"android":"levelo://app?vid=1dd2c077-d7fa-43b2-a55d-f6335f7bc478","ios":"levelo://app?vid=1dd2c077-d7fa-43b2-a55d-f6335f7bc478"},"vehicle_type_id":"4","last_reported":1767132666,"current_range_meters":7200,"station_id":"ce4bgk12rcd13ifvqbj0","pricing_plan_id":"cebpf4jnsgd1na2vs0mg"},{"bike_id":"3129393a-6661-4dee-9f01-623c94670254","system_id":"levelo_inurba_marseille","lat":43.282658,"lon":5.350713,"is_reserved":false,"is_disabled":false,"rental_uris":{"android":"levelo://app?vid=3129393a-6661-4dee-9f01-623c94670254","ios":"levelo://app?vid=3129393a-6661-4dee-9f01-623c94670254"},"vehicle_type_id":"4","last_reported":1767132666,"current_range_meters":8000,"station_id":"ce4bhbp2rcd13ifvqerg","pricing_plan_id":"cebpf4jnsgd1na2vs0mg"},{"bike_id":"1f986bde-e823-4547-a8eb-43be952db802","system_id":"levelo_inurba_marseille","lat":43.29442,"lon":5.37288,"is_reserved":false,"is_disabled":false,"rental_uris":{"android":"levelo://app?vid=1f986bde-e823-4547-a8eb-43be952db802","ios":"levelo://app?vid=1f986bde-e823-4547-a8eb-43be952db802"},"vehicle_type_id":"4","last_reported":1767132666,"current_range_meters":8000,"station_id":"","pricing_plan_id":"cebpf4jnsgd1na2vs0mg"},{"bike_id":"73e7bf24-ec8e-44c4-9ab0-d530c59cf203","system_id":"levelo_inurba_marseille","lat":43.28368,"lon":5.38619,"is_reserved":false,"is_disabled":false,"rental_uris":{"android":"levelo://app?vid=73e7bf24-ec8e-44c4-9ab0-d530c59cf203","ios":"levelo://app?vid=73e7bf24-ec8e-44c4-9ab0-d530c59cf203"},"vehicle_type_id":"4","last_reported":1767132666,"current_range_meters":8400,"station_id":"ce4bh492rcd13ifvqdvg","pricing_plan_id":"cebpf4jnsgd1na2vs0mg"},{"bike_id":"b05640fc-cf78-4e6b-bafb-c8aa2abc6f80","system_id":"levelo_inurba_marseille","lat":43.273975,"lon":5.390468,"is_reserved":false,"is_disabled":false,"rental_uris":{"android":"levelo://app?vid=b05640fc-cf78-4e6b-bafb-c8aa2abc6f80","ios":"levelo://app?vid=b05640fc-cf78-4e6b-bafb-c8aa2abc6f80"},"vehicle_type_id":"4","last_reported":1767132666,"current_range_meters":8400,"station_id":"","pricing_plan_id":"cebpf4jnsgd1na2vs0mg"},{"bike_id":"6169f9cc-3650-4253-b599-be9a6ccfdeac","system_id":"levelo_inurba_marseille","lat":43.29718,"lon":5.37686,"is_reserved":false,"is_disabled":false,"rental_uris":{"android":"levelo://app?vid=6169f9cc-3650-4253-b599-be9a6ccfdeac","ios":"levelo://app?vid=6169f9cc-3650-4253-b599-be9a6ccfdeac"},"vehicle_type_id":"4","last_reported":1767132666,"current_range_meters":8400,"station_id":"ce4bgkh2rcd13ifvqbl0","pricing_plan_id":"cebpf4jnsgd1na2vs0mg"},{"bike_id":"69da50b5-8453-4456-83ff-47832623feb3","system_id":"levelo_inurba_marseille","lat":43.31199,"lon":5.3694,"is_reserved":false,"is_disabled":false,"rental_uris":{"android":"levelo://app?vid=69da50b5-8453-4456-83ff-47832623feb3","ios":"levelo://app?vid=69da50b5-8453-4456-83ff-47832623feb3"},"vehicle_type_id":"4","last_reported":1767132666,"current_range_meters":8400,"station_id":"ce4bgl92rcd13ifvqbq0","pricing_plan_id":"cebpf4jnsgd1na2vs0mg"},{"bike_id":"2703b803-944c-4f90-b5fc-f9ddd565456b","system_id":"levelo_inurba_marseille","lat":43.27934,"lon":5.39573,"is_reserved":false,"is_disabled":true,"rental_uris":{"android":"levelo://app?vid=2703b803-944c-4f90-b5fc-f9ddd565456b","ios":"levelo://app?vid=2703b803-944c-4f90-b5fc-f9ddd565456b"},"vehicle_type_id":"4","last_reported":1767132666,"current_range_meters":8800,"station_id":"ce4bhf92rcd13ifvqf40","pricing_plan_id":"cebpf4jnsgd1na2vs0mg"},{"bike_id":"ead416e4-7a96-4d00-8992-cdf1d0154b3d","system_id":"levelo_inurba_marseille","lat":43.31691,"lon":5.43689,"is_reserved":false,"is_disabled":false,"rental_uris":{"android":"levelo://app?vid=ead416e4-7a96-4d00-8992-cdf1d0154b3d","ios":"levelo://app?vid=ead416e4-7a96-4d00-8992-cdf1d0154b3d"},"vehicle_type_id":"4","last_reported":1767132666,"current_range_meters":8800,"station_id":"ce4bhp92rcd13ifvqhcg","pricing_plan_id":"cebpf4jnsgd1na2vs0mg"},{"bike_id":"f38609f5-d55f-469d-a4b8-10a21493fcaa","system_id":"levelo_inurba_marseille","lat":43.27497,"lon":5.42445,"is_reserved":false,"is_disabled":false,"rental_uris":{"android":"levelo://app?vid=f38609f5-d55f-469d-a4b8-10a21493fcaa","ios":"levelo://app?vid=f38609f5-d55f-469d-a4b8-10a21493fcaa"},"vehicle_type_id":"4","last_reported":1767132666,"current_range_meters":8800,"station_id":"ce4bhn92rcd13ifvqgrg","pricing_plan_id":"cebpf4jnsgd1na2vs0mg"},{"bike_id":"a0bf0471-4956-40cb-809b-9570fd9ecd6e","system_id":"levelo_inurba_marseille","lat":43.24471,"lon":5.42536,"is_reserved":false,"is_disabled":false,"rental_uris":{"android":"levelo://app?vid=a0bf0471-4956-40cb-809b-9570fd9ecd6e","ios":"levelo://app?vid=a0bf0471-4956-40cb-809b-9570fd9ecd6e"},"vehicle_type_id":"4","last_reported":1767132666,"current_range_meters":8800,"station_id":"st_d4a3vfp97mjs738cd8kg","pricing_plan_id":"cebpf4jnsgd1na2vs0mg"},{"bike_id":"3400d737-a32e-4dca-a00a-47ca201c9735","system_id":"levelo_inurba_marseille","lat":43.29556,"lon":5.42282,"is_reserved":false,"is_disabled":true,"rental_uris":{"android":"levelo://app?vid=3400d737-a32e-4dca-a00a-47ca201c9735","ios":"levelo://app?vid=3400d737-a32e-4dca-a00a-47ca201c9735"},"vehicle_type_id":"4","last_reported":1767132666,"current_range_meters":8800,"station_id":"ce4bhph2rcd13ifvqhdg","pricing_plan_id":"cebpf4jnsgd1na2vs0mg"},{"bike_id":"4d61e909-e176-4d31-b5c2-2b8c8bf1a892","system_id":"levelo_inurba_marseille","lat":43.29494,"lon":5.43311,"is_reserved":false,"is_disabled":false,"rental_uris":{"android":"levelo://app?vid=4d61e909-e176-4d31-b5c2-2b8c8bf1a892","ios":"levelo://app?vid=4d61e909-e176-4d31-b5c2-2b8c8bf1a892"},"vehicle_type_id":"4","last_reported":1767132666,"current_range_meters":8800,"station_id":"st_d3j5ugp08ojc73fj9d10","pricing_plan_id":"cebpf4jnsgd1na2vs0mg"},{"bike_id":"2fd0e0d9-94cd-46c0-a68c-75e6fab259c5","system_id":"levelo_inurba_marseille","lat":43.28403,"lon":5.37524,"is_reserved":false,"is_disabled":false,"rental_uris":{"android":"levelo://app?vid=2fd0e0d9-94cd-46c0-a68c-75e6fab259c5","ios":"levelo://app?vid=2fd0e0d9-94cd-46c0-a68c-75e6fab259c5"},"vehicle_type_id":"4","last_reported":1767132666,"current_range_meters":9200,"station_id":"ce4bh412rcd13ifvqds0","pricing_plan_id":"cebpf4jnsgd1na2vs0mg"},{"bike_id":"df59638d-d2ce-46c9-8792-19c18967ee40","system_id":"levelo_inurba_marseille","lat":43.23783,"lon":5.3665,"is_reserved":false,"is_disabled":false,"rental_uris":{"android":"levelo://app?vid=df59638d-d2ce-46c9-8792-19c18967ee40","ios":"levelo://app?vid=df59638d-d2ce-46c9-8792-19c18967ee40"},"vehicle_type_id":"4","last_reported":1767132666,"current_range_meters":9600,"station_id":"st_d3nk18o9ro0c73en2l3g","pricing_plan_id":"cebpf4jnsgd1na2vs0mg"},{"bike_id":"c91ac6fb-8af2-4c76-bc7b-f9b59038cbbd","system_id":"levelo_inurba_marseille","lat":43.29845,"lon":5.36264,"is_reserved":false,"is_disabled":false,"rental_uris":{"android":"levelo://app?vid=c91ac6fb-8af2-4c76-bc7b-f9b59038cbbd","ios":"levelo://app?vid=c91ac6fb-8af2-4c76-bc7b-f9b59038cbbd"},"vehicle_type_id":"4","last_reported":1767132666,"current_range_meters":9600,"station_id":"ce4bgpp2rcd13ifvqc3g","pricing_plan_id":"cebpf4jnsgd1na2vs0mg"},{"bike_id":"742f1e99-972a-4415-9c07-2696da1383a1","system_id":"levelo_inurba_marseille","lat":43.29646,"lon":5.40587,"is_reserved":false,"is_disabled":false,"rental_uris":{"android":"levelo://app?vid=742f1e99-972a-4415-9c07-2696da1383a1","ios":"levelo://app?vid=742f1e99-972a-4415-9c07-2696da1383a1"},"vehicle_type_id":"4","last_reported":1767132666,"current_range_meters":10000,"station_id":"","pricing_plan_id":"cebpf4jnsgd1na2vs0mg"},{"bike_id":"dce28840-1b59-4930-917a-12d88071d00f","system_id":"levelo_inurba_marseille","lat":43.28543,"lon":5.44121,"is_reserved":false,"is_disabled":false,"rental_uris":{"android":"levelo://app?vid=dce28840-1b59-4930-917a-12d88071d00f","ios":"levelo://app?vid=dce28840-1b59-4930-917a-12d88071d00f"},"vehicle_type_id":"4","last_reported":1767132666,"current_range_meters":10000,"station_id":"st_d3j3df2ikq2c7380ej80","pricing_plan_id":"cebpf4jnsgd1na2vs0mg"},{"bike_id":"970f6c1d-f464-4249-baad-9d8636c41627","system_id":"levelo_inurba_marseille","lat":43.29171,"lon":5.37536,"is_reserved":false,"is_disabled":false,"rental_uris":{"android":"levelo://app?vid=970f6c1d-f464-4249-baad-9d8636c41627","ios":"levelo://app?vid=970f6c1d-f464-4249-baad-9d8636c41627"},"vehicle_type_id":"4","last_reported":1767132666,"current_range_meters":10000,"station_id":"","pricing_plan_id":"cebpf4jnsgd1na2vs0mg"},{"bike_id":"1abf22f6-320a-4930-83d8-c732448c0c49","system_id":"levelo_inurba_marseille","lat":43.266826,"lon":5.38275,"is_reserved":false,"is_disabled":false,"rental_uris":{"android":"levelo://app?vid=1abf22f6-320a-4930-83d8-c732448c0c49","ios":"levelo://app?vid=1abf22f6-320a-4930-83d8-c732448c0c49"},"vehicle_type_id":"4","last_reported":1767132666,"current_range_meters":10000,"station_id":"ce4bhg92rcd13ifvqf90","pricing_plan_id":"cebpf4jnsgd1na2vs0mg"},{"bike_id":"e11cae9b-6016-4da3-a887-f5715a91d397","system_id":"levelo_inurba_marseille","lat":43.31673,"lon":5.40474,"is_reserved":false,"is_disabled":false,"rental_uris":{"android":"levelo://app?vid=e11cae9b-6016-4da3-a887-f5715a91d397","ios":"levelo://app?vid=e11cae9b-6016-4da3-a887-f5715a91d397"},"vehicle_type_id":"4","last_reported":1767132666,"current_range_meters":10000,"station_id":"ce4bh012rcd13ifvqd00","pricing_plan_id":"cebpf4jnsgd1na2vs0mg"},{"bike_id":"ec5fae6d-47b5-4030-bf64-4af050af9ecb","system_id":"levelo_inurba_marseille","lat":43.30953,"lon":5.37813,"is_reserved":false,"is_disabled":false,"rental_uris":{"android":"levelo://app?vid=ec5fae6d-47b5-4030-bf64-4af050af9ecb","ios":"levelo://app?vid=ec5fae6d-47b5-4030-bf64-4af050af9ecb"},"vehicle_type_id":"4","last_reported":1767132666,"current_range_meters":10000,"station_id":"","pricing_plan_id":"cebpf4jnsgd1na2vs0mg"},{"bike_id":"3486b79f-5d37-4ced-ac26-f2e90a6034f3","system_id":"levelo_inurba_marseille","lat":43.23195,"lon":5.35563,"is_reserved":false,"is_disabled":false,"rental_uris":{"android":"levelo://app?vid=3486b79f-5d37-4ced-ac26-f2e90a6034f3","ios":"levelo://app?vid=3486b79f-5d37-4ced-ac26-f2e90a6034f3"},"vehicle_type_id":"4","last_reported":1767132666,"current_range_meters":10000,"station_id":"ce4bhu92rcd13ifvqi70","pricing_plan_id":"cebpf4jnsgd1na2vs0mg"},{"bike_id":"1b06f3b3-8d63-492e-a9d5-e07af5a33cb4","system_id":"levelo_inurba_marseille","lat":43.31165,"lon":5.38727,"is_reserved":false,"is_disabled":false,"rental_uris":{"android":"levelo://app?vid=1b06f3b3-8d63-492e-a9d5-e07af5a33cb4","ios":"levelo://app?vid=1b06f3b3-8d63-492e-a9d5-e07af5a33cb4"},"vehicle_type_id":"4","last_reported":1767132666,"current_range_meters":10000,"station_id":"ce4bgv12rcd13ifvqcp0","pricing_plan_id":"cebpf4jnsgd1na2vs0mg"},{"bike_id":"b6a370be-8d43-455b-be94-d1664f3c5dc2","system_id":"levelo_inurba_marseille","lat":43.29284,"lon":5.40118,"is_reserved":false,"is_disabled":false,"rental_uris":{"android":"levelo://app?vid=b6a370be-8d43-455b-be94-d1664f3c5dc2","ios":"levelo://app?vid=b6a370be-8d43-455b-be94-d1664f3c5dc2"},"vehicle_type_id":"4","last_reported":1767132666,"current_range_meters":10000,"station_id":"ce4bh312rcd13ifvqdk0","pricing_plan_id":"cebpf4jnsgd1na2vs0mg"},{"bike_id":"dacc1bc0-eec9-4219-9225-c37f13cfc222","system_id":"levelo_inurba_marseille","lat":43.28535,"lon":5.44102,"is_reserved":false,"is_disabled":false,"rental_uris":{"android":"levelo://app?vid=dacc1bc0-eec9-4219-9225-c37f13cfc222","ios":"levelo://app?vid=dacc1bc0-eec9-4219-9225-c37f13cfc222"},"vehicle_type_id":"4","last_reported":1767132666,"current_range_meters":10000,"station_id":"st_d3j3df2ikq2c7380ej80","pricing_plan_id":"cebpf4jnsgd1na2vs0mg"},{"bike_id":"6027709e-52d4-4588-9b43-0e3e723c3755","system_id":"levelo_inurba_marseille","lat":43.29974,"lon":5.37177,"is_reserved":false,"is_disabled":false,"rental_uris":{"android":"levelo://app?vid=6027709e-52d4-4588-9b43-0e3e723c3755","ios":"levelo://app?vid=6027709e-52d4-4588-9b43-0e3e723c3755"},"vehicle_type_id":"4","last_reported":1767132666,"current_range_meters":10800,"station_id":"ce4bgr92rcd13ifvqc7g","pricing_plan_id":"cebpf4jnsgd1na2vs0mg"},{"bike_id":"32655115-f0be-43e4-84f3-56128ca16ef4","system_id":"levelo_inurba_marseille","lat":43.29275,"lon":5.4013,"is_reserved":false,"is_disabled":false,"rental_uris":{"android":"levelo://app?vid=32655115-f0be-43e4-84f3-56128ca16ef4","ios":"levelo://app?vid=32655115-f0be-43e4-84f3-56128ca16ef4"},"vehicle_type_id":"4","last_reported":1767132666,"current_range_meters":10800,"station_id":"ce4bh312rcd13ifvqdk0","pricing_plan_id":"cebpf4jnsgd1na2vs0mg"},{"bike_id":"1fbb4f5b-62d1-49b7-9fa0-3f5e6fd22ef0","system_id":"levelo_inurba_marseille","lat":43.28101,"lon":5.37847,"is_reserved":false,"is_disabled":false,"rental_uris":{"android":"levelo://app?vid=1fbb4f5b-62d1-49b7-9fa0-3f5e6fd22ef0","ios":"levelo://app?vid=1fbb4f5b-62d1-49b7-9fa0-3f5e6fd22ef0"},"vehicle_type_id":"4","last_reported":1767132666,"current_range_meters":10800,"station_id":"ce4bha12rcd13ifvqee0","pricing_plan_id":"cebpf4jnsgd1na2vs0mg"},{"bike_id":"3e1726cc-a224-4e67-91d1-ca6dabf3c460","system_id":"levelo_inurba_marseille","lat":43.27221,"lon":5.39189,"is_reserved":false,"is_disabled":false,"rental_uris":{"android":"levelo://app?vid=3e1726cc-a224-4e67-91d1-ca6dabf3c460","ios":"levelo://app?vid=3e1726cc-a224-4e67-91d1-ca6dabf3c460"},"vehicle_type_id":"4","last_reported":1767132666,"current_range_meters":10800,"station_id":"ce4bhhp2rcd13ifvqfm0","pricing_plan_id":"cebpf4jnsgd1na2vs0mg"},{"bike_id":"d4834f7c-8cec-4643-b38e-33ed31e9b71c","system_id":"levelo_inurba_marseille","lat":43.29563,"lon":5.37867,"is_reserved":false,"is_disabled":false,"rental_uris":{"android":"levelo://app?vid=d4834f7c-8cec-4643-b38e-33ed31e9b71c","ios":"levelo://app?vid=d4834f7c-8cec-4643-b38e-33ed31e9b71c"},"vehicle_type_id":"4","last_reported":1767132666,"current_range_meters":10800,"station_id":"","pricing_plan_id":"cebpf4jnsgd1na2vs0mg"},{"bike_id":"078e302f-16bb-4bbb-876d-2f82cfb35608","system_id":"levelo_inurba_marseille","lat":43.28714,"lon":5.37906,"is_reserved":false,"is_disabled":false,"rental_uris":{"android":"levelo://app?vid=078e302f-16bb-4bbb-876d-2f82cfb35608","ios":"levelo://app?vid=078e302f-16bb-4bbb-876d-2f82cfb35608"},"vehicle_type_id":"4","last_reported":1767132666,"current_range_meters":10800,"station_id":"ce4bh9p2rcd13ifvqec0","pricing_plan_id":"cebpf4jnsgd1na2vs0mg"},{"bike_id":"3ae180a1-ad81-4fbd-8d8e-5122c1af76f4","system_id":"levelo_inurba_marseille","lat":43.337444,"lon":5.374475,"is_reserved":false,"is_disabled":false,"rental_uris":{"android":"levelo://app?vid=3ae180a1-ad81-4fbd-8d8e-5122c1af76f4","ios":"levelo://app?vid=3ae180a1-ad81-4fbd-8d8e-5122c1af76f4"},"vehicle_type_id":"4","last_reported":1767132666,"current_range_meters":10800,"station_id":"","pricing_plan_id":"cebpf4jnsgd1na2vs0mg"},{"bike_id":"7c20e148-2a07-439c-8007-95ff3dd732b8","system_id":"levelo_inurba_marseille","lat":43.21185,"lon":5.35102,"is_reserved":false,"is_disabled":false,"rental_uris":{"android":"levelo://app?vid=7c20e148-2a07-439c-8007-95ff3dd732b8","ios":"levelo://app?vid=7c20e148-2a07-439c-8007-95ff3dd732b8"},"vehicle_type_id":"4","last_reported":1767132666,"current_range_meters":10800,"station_id":"st_cvj6sg6p6f1abm77japg","pricing_plan_id":"cebpf4jnsgd1na2vs0mg"},{"bike_id":"0035a49f-c924-43b0-93d3-43f42dc9e160","system_id":"levelo_inurba_marseille","lat":43.28497,"lon":5.38427,"is_reserved":false,"is_disabled":false,"rental_uris":{"android":"levelo://app?vid=0035a49f-c924-43b0-93d3-43f42dc9e160","ios":"levelo://app?vid=0035a49f-c924-43b0-93d3-43f42dc9e160"},"vehicle_type_id":"4","last_reported":1767132666,"current_range_meters":10800,"station_id":"ce4bh512rcd13ifvqe3g","pricing_plan_id":"cebpf4jnsgd1na2vs0mg"},{"bike_id":"2dff8587-48e0-4416-89ff-81e5782bfef7","system_id":"levelo_inurba_marseille","lat":43.2306,"lon":5.35506,"is_reserved":false,"is_disabled":false,"rental_uris":{"android":"levelo://app?vid=2dff8587-48e0-4416-89ff-81e5782bfef7","ios":"levelo://app?vid=2dff8587-48e0-4416-89ff-81e5782bfef7"},"vehicle_type_id":"4","last_reported":1767132666,"current_range_meters":10800,"station_id":"cpo3342slgdg3j2ifvpg","pricing_plan_id":"cebpf4jnsgd1na2vs0mg"},{"bike_id":"0fa76090-b264-4d7f-a0bc-7de1e50f19da","system_id":"levelo_inurba_marseille","lat":43.28011,"lon":5.4042,"is_reserved":false,"is_disabled":false,"rental_uris":{"android":"levelo://app?vid=0fa76090-b264-4d7f-a0bc-7de1e50f19da","ios":"levelo://app?vid=0fa76090-b264-4d7f-a0bc-7de1e50f19da"},"vehicle_type_id":"4","last_reported":1767132666,"current_range_meters":10800,"station_id":"","pricing_plan_id":"cebpf4jnsgd1na2vs0mg"},{"bike_id":"fd730288-95bc-4682-8dc4-a5ea5fa11f2b","system_id":"levelo_inurba_marseille","lat":43.32554,"lon":5.41437,"is_reserved":false,"is_disabled":false,"rental_uris":{"android":"levelo://app?vid=fd730288-95bc-4682-8dc4-a5ea5fa11f2b","ios":"levelo://app?vid=fd730288-95bc-4682-8dc4-a5ea5fa11f2b"},"vehicle_type_id":"4","last_reported":1767132666,"current_range_meters":10800,"station_id":"ce4bhq12rcd13ifvqhhg","pricing_plan_id":"cebpf4jnsgd1na2vs0mg"},{"bike_id":"26aaa4c3-ca27-43bc-a11f-345371d00b8a","system_id":"levelo_inurba_marseille","lat":43.28698,"lon":5.37422,"is_reserved":false,"is_disabled":true,"rental_uris":{"android":"levelo://app?vid=26aaa4c3-ca27-43bc-a11f-345371d00b8a","ios":"levelo://app?vid=26aaa4c3-ca27-43bc-a11f-345371d00b8a"},"vehicle_type_id":"4","last_reported":1767132666,"current_range_meters":10800,"station_id":"ce4bh3p2rcd13ifvqdq0","pricing_plan_id":"cebpf4jnsgd1na2vs0mg"},{"bike_id":"9d8179f0-087f-4914-9a44-21807e29eddf","system_id":"levelo_inurba_marseille","lat":43.30732,"lon":5.42441,"is_reserved":false,"is_disabled":false,"rental_uris":{"android":"levelo://app?vid=9d8179f0-087f-4914-9a44-21807e29eddf","ios":"levelo://app?vid=9d8179f0-087f-4914-9a44-21807e29eddf"},"vehicle_type_id":"4","last_reported":1767132666,"current_range_meters":10800,"station_id":"st_cvj6ca6bvosntc0bfgr0","pricing_plan_id":"cebpf4jnsgd1na2vs0mg"},{"bike_id":"ccec8baf-8de3-4f76-b969-55b0b35b8975","system_id":"levelo_inurba_marseille","lat":43.29603,"lon":5.37146,"is_reserved":false,"is_disabled":false,"rental_uris":{"android":"levelo://app?vid=ccec8baf-8de3-4f76-b969-55b0b35b8975","ios":"levelo://app?vid=ccec8baf-8de3-4f76-b969-55b0b35b8975"},"vehicle_type_id":"4","last_reported":1767132666,"current_range_meters":10800,"station_id":"ce4bgnh2rcd13ifvqc0g","pricing_plan_id":"cebpf4jnsgd1na2vs0mg"},{"bike_id":"fb08e76d-b247-46f4-b590-62b2a27f82ce","system_id":"levelo_inurba_marseille","lat":43.29265,"lon":5.36845,"is_reserved":false,"is_disabled":false,"rental_uris":{"android":"levelo://app?vid=fb08e76d-b247-46f4-b590-62b2a27f82ce","ios":"levelo://app?vid=fb08e76d-b247-46f4-b590-62b2a27f82ce"},"vehicle_type_id":"4","last_reported":1767132666,"current_range_meters":10800,"station_id":"ce4bhbp2rcd13ifvqesg","pricing_plan_id":"cebpf4jnsgd1na2vs0mg"},{"bike_id":"07735fbf-d529-4ec7-a3e7-0323418555f7","system_id":"levelo_inurba_marseille","lat":43.31738,"lon":5.43098,"is_reserved":false,"is_disabled":false,"rental_uris":{"android":"levelo://app?vid=07735fbf-d529-4ec7-a3e7-0323418555f7","ios":"levelo://app?vid=07735fbf-d529-4ec7-a3e7-0323418555f7"},"vehicle_type_id":"4","last_reported":1767132666,"current_range_meters":11200,"station_id":"","pricing_plan_id":"cebpf4jnsgd1na2vs0mg"},{"bike_id":"f79561d9-a9e3-4480-bd30-e533c5f19aef","system_id":"levelo_inurba_marseille","lat":43.307803,"lon":5.37649,"is_reserved":false,"is_disabled":false,"rental_uris":{"android":"levelo://app?vid=f79561d9-a9e3-4480-bd30-e533c5f19aef","ios":"levelo://app?vid=f79561d9-a9e3-4480-bd30-e533c5f19aef"},"vehicle_type_id":"4","last_reported":1767132666,"current_range_meters":11200,"station_id":"ce4bgv92rcd13ifvqcq0","pricing_plan_id":"cebpf4jnsgd1na2vs0mg"},{"bike_id":"13c6f779-0fa7-435d-8f91-e79ded009d19","system_id":"levelo_inurba_marseille","lat":43.29246,"lon":5.36853,"is_reserved":false,"is_disabled":false,"rental_uris":{"android":"levelo://app?vid=13c6f779-0fa7-435d-8f91-e79ded009d19","ios":"levelo://app?vid=13c6f779-0fa7-435d-8f91-e79ded009d19"},"vehicle_type_id":"4","last_reported":1767132666,"current_range_meters":11200,"station_id":"ce4bhbp2rcd13ifvqesg","pricing_plan_id":"cebpf4jnsgd1na2vs0mg"},{"bike_id":"ff2a9260-98fd-4327-a921-2b433595e5d8","system_id":"levelo_inurba_marseille","lat":43.26952,"lon":5.40236,"is_reserved":false,"is_disabled":false,"rental_uris":{"android":"levelo://app?vid=ff2a9260-98fd-4327-a921-2b433595e5d8","ios":"levelo://app?vid=ff2a9260-98fd-4327-a921-2b433595e5d8"},"vehicle_type_id":"4","last_reported":1767132666,"current_range_meters":11200,"station_id":"cjm6bp8fraef2m0cb0m0","pricing_plan_id":"cebpf4jnsgd1na2vs0mg"},{"bike_id":"574b516f-cfa1-48d8-81a0-36f592b48b86","system_id":"levelo_inurba_marseille","lat":43.27515,"lon":5.42469,"is_reserved":false,"is_disabled":false,"rental_uris":{"android":"levelo://app?vid=574b516f-cfa1-48d8-81a0-36f592b48b86","ios":"levelo://app?vid=574b516f-cfa1-48d8-81a0-36f592b48b86"},"vehicle_type_id":"4","last_reported":1767132666,"current_range_meters":11200,"station_id":"ce4bhn92rcd13ifvqgrg","pricing_plan_id":"cebpf4jnsgd1na2vs0mg"},{"bike_id":"f9defe05-4ff2-4d1f-b650-c0894d9ee537","system_id":"levelo_inurba_marseille","lat":43.28526,"lon":5.44116,"is_reserved":false,"is_disabled":false,"rental_uris":{"android":"levelo://app?vid=f9defe05-4ff2-4d1f-b650-c0894d9ee537","ios":"levelo://app?vid=f9defe05-4ff2-4d1f-b650-c0894d9ee537"},"vehicle_type_id":"4","last_reported":1767132666,"current_range_meters":11600,"station_id":"st_d3j3df2ikq2c7380ej80","pricing_plan_id":"cebpf4jnsgd1na2vs0mg"},{"bike_id":"63cec596-df19-4b92-b7bd-6594842ccfb1","system_id":"levelo_inurba_marseille","lat":43.29782,"lon":5.38076,"is_reserved":false,"is_disabled":false,"rental_uris":{"android":"levelo://app?vid=63cec596-df19-4b92-b7bd-6594842ccfb1","ios":"levelo://app?vid=63cec596-df19-4b92-b7bd-6594842ccfb1"},"vehicle_type_id":"4","last_reported":1767132666,"current_range_meters":11600,"station_id":"ce4bgip2rcd13ifvqbb0","pricing_plan_id":"cebpf4jnsgd1na2vs0mg"},{"bike_id":"78ed77cb-47f0-4c82-bf8a-f958576ec953","system_id":"levelo_inurba_marseille","lat":43.28164,"lon":5.42629,"is_reserved":false,"is_disabled":false,"rental_uris":{"android":"levelo://app?vid=78ed77cb-47f0-4c82-bf8a-f958576ec953","ios":"levelo://app?vid=78ed77cb-47f0-4c82-bf8a-f958576ec953"},"vehicle_type_id":"4","last_reported":1767132666,"current_range_meters":11600,"station_id":"ce4bhnh2rcd13ifvqgug","pricing_plan_id":"cebpf4jnsgd1na2vs0mg"},{"bike_id":"d1028c8d-4c1a-4ce3-bb87-06b106258967","system_id":"levelo_inurba_marseille","lat":43.30082,"lon":5.37073,"is_reserved":false,"is_disabled":false,"rental_uris":{"android":"levelo://app?vid=d1028c8d-4c1a-4ce3-bb87-06b106258967","ios":"levelo://app?vid=d1028c8d-4c1a-4ce3-bb87-06b106258967"},"vehicle_type_id":"4","last_reported":1767132666,"current_range_meters":11600,"station_id":"","pricing_plan_id":"cebpf4jnsgd1na2vs0mg"},{"bike_id":"b6bb0504-7fba-4e3c-b400-2a1d155bf674","system_id":"levelo_inurba_marseille","lat":43.24159,"lon":5.36409,"is_reserved":false,"is_disabled":false,"rental_uris":{"android":"levelo://app?vid=b6bb0504-7fba-4e3c-b400-2a1d155bf674","ios":"levelo://app?vid=b6bb0504-7fba-4e3c-b400-2a1d155bf674"},"vehicle_type_id":"4","last_reported":1767132666,"current_range_meters":11600,"station_id":"cpo36qri1sfpv3e86is0","pricing_plan_id":"cebpf4jnsgd1na2vs0mg"},{"bike_id":"5b7b9627-7763-4fa8-83b2-cad94b4f3bda","system_id":"levelo_inurba_marseille","lat":43.29577,"lon":5.37494,"is_reserved":false,"is_disabled":false,"rental_uris":{"android":"levelo://app?vid=5b7b9627-7763-4fa8-83b2-cad94b4f3bda","ios":"levelo://app?vid=5b7b9627-7763-4fa8-83b2-cad94b4f3bda"},"vehicle_type_id":"4","last_reported":1767132666,"current_range_meters":11600,"station_id":"ce4bgh92rcd13ifvqb50","pricing_plan_id":"cebpf4jnsgd1na2vs0mg"},{"bike_id":"f8454e07-5b19-4a16-bdb5-ba46f59bdc3d","system_id":"levelo_inurba_marseille","lat":43.26029,"lon":5.37561,"is_reserved":false,"is_disabled":false,"rental_uris":{"android":"levelo://app?vid=f8454e07-5b19-4a16-bdb5-ba46f59bdc3d","ios":"levelo://app?vid=f8454e07-5b19-4a16-bdb5-ba46f59bdc3d"},"vehicle_type_id":"4","last_reported":1767132666,"current_range_meters":11600,"station_id":"ce4bhgh2rcd13ifvqfa0","pricing_plan_id":"cebpf4jnsgd1na2vs0mg"},{"bike_id":"149a94e7-8065-4440-a1ab-1ba416a8f181","system_id":"levelo_inurba_marseille","lat":43.28482,"lon":5.48392,"is_reserved":false,"is_disabled":false,"rental_uris":{"android":"levelo://app?vid=149a94e7-8065-4440-a1ab-1ba416a8f181","ios":"levelo://app?vid=149a94e7-8065-4440-a1ab-1ba416a8f181"},"vehicle_type_id":"4","last_reported":1767132666,"current_range_meters":11600,"station_id":"","pricing_plan_id":"cebpf4jnsgd1na2vs0mg"},{"bike_id":"b30c6014-a175-4bb9-ad78-49f058f742ef","system_id":"levelo_inurba_marseille","lat":43.26484,"lon":5.3957,"is_reserved":false,"is_disabled":false,"rental_uris":{"android":"levelo://app?vid=b30c6014-a175-4bb9-ad78-49f058f742ef","ios":"levelo://app?vid=b30c6014-a175-4bb9-ad78-49f058f742ef"},"vehicle_type_id":"4","last_reported":1767132666,"current_range_meters":11600,"station_id":"ce4bhi12rcd13ifvqfq0","pricing_plan_id":"cebpf4jnsgd1na2vs0mg"},{"bike_id":"22eef0a3-17fe-44b8-b64f-6f944c8af2a7","system_id":"levelo_inurba_marseille","lat":43.24652,"lon":5.38921,"is_reserved":false,"is_disabled":false,"rental_uris":{"android":"levelo://app?vid=22eef0a3-17fe-44b8-b64f-6f944c8af2a7","ios":"levelo://app?vid=22eef0a3-17fe-44b8-b64f-6f944c8af2a7"},"vehicle_type_id":"4","last_reported":1767132666,"current_range_meters":11600,"station_id":"ce4bhg12rcd13ifvqf60","pricing_plan_id":"cebpf4jnsgd1na2vs0mg"},{"bike_id":"e51ebfdf-4f79-4261-94ae-3346e074bfe1","system_id":"levelo_inurba_marseille","lat":43.28567,"lon":5.39487,"is_reserved":false,"is_disabled":false,"rental_uris":{"android":"levelo://app?vid=e51ebfdf-4f79-4261-94ae-3346e074bfe1","ios":"levelo://app?vid=e51ebfdf-4f79-4261-94ae-3346e074bfe1"},"vehicle_type_id":"4","last_reported":1767132666,"current_range_meters":11600,"station_id":"ce4bh292rcd13ifvqdg0","pricing_plan_id":"cebpf4jnsgd1na2vs0mg"},{"bike_id":"332c58eb-eed1-487e-afe2-b65da9208ee9","system_id":"levelo_inurba_marseille","lat":43.23195,"lon":5.35546,"is_reserved":false,"is_disabled":false,"rental_uris":{"android":"levelo://app?vid=332c58eb-eed1-487e-afe2-b65da9208ee9","ios":"levelo://app?vid=332c58eb-eed1-487e-afe2-b65da9208ee9"},"vehicle_type_id":"4","last_reported":1767132666,"current_range_meters":12000,"station_id":"ce4bhu92rcd13ifvqi70","pricing_plan_id":"cebpf4jnsgd1na2vs0mg"},{"bike_id":"d948a684-06dc-494d-aec4-1784ea94a56c","system_id":"levelo_inurba_marseille","lat":43.29011,"lon":5.3568,"is_reserved":false,"is_disabled":false,"rental_uris":{"android":"levelo://app?vid=d948a684-06dc-494d-aec4-1784ea94a56c","ios":"levelo://app?vid=d948a684-06dc-494d-aec4-1784ea94a56c"},"vehicle_type_id":"4","last_reported":1767132666,"current_range_meters":12000,"station_id":"","pricing_plan_id":"cebpf4jnsgd1na2vs0mg"},{"bike_id":"b3b8c28f-a4a2-4a54-a0d7-bca6b407c06b","system_id":"levelo_inurba_marseille","lat":43.28515,"lon":5.38435,"is_reserved":false,"is_disabled":false,"rental_uris":{"android":"levelo://app?vid=b3b8c28f-a4a2-4a54-a0d7-bca6b407c06b","ios":"levelo://app?vid=b3b8c28f-a4a2-4a54-a0d7-bca6b407c06b"},"vehicle_type_id":"4","last_reported":1767132666,"current_range_meters":12000,"station_id":"ce4bh512rcd13ifvqe3g","pricing_plan_id":"cebpf4jnsgd1na2vs0mg"},{"bike_id":"fc01654f-2593-4295-8309-447493a7010a","system_id":"levelo_inurba_marseille","lat":43.27181,"lon":5.390489,"is_reserved":false,"is_disabled":false,"rental_uris":{"android":"levelo://app?vid=fc01654f-2593-4295-8309-447493a7010a","ios":"levelo://app?vid=fc01654f-2593-4295-8309-447493a7010a"},"vehicle_type_id":"4","last_reported":1767132666,"current_range_meters":12000,"station_id":"","pricing_plan_id":"cebpf4jnsgd1na2vs0mg"},{"bike_id":"a9ca0334-3198-48d6-b1ea-de3a6c9cf163","system_id":"levelo_inurba_marseille","lat":43.24543,"lon":5.39525,"is_reserved":false,"is_disabled":false,"rental_uris":{"android":"levelo://app?vid=a9ca0334-3198-48d6-b1ea-de3a6c9cf163","ios":"levelo://app?vid=a9ca0334-3198-48d6-b1ea-de3a6c9cf163"},"vehicle_type_id":"4","last_reported":1767132666,"current_range_meters":12000,"station_id":"ce4bhlp2rcd13ifvqgjg","pricing_plan_id":"cebpf4jnsgd1na2vs0mg"},{"bike_id":"2736b34b-98dd-4ca9-b701-f4278e5f6e64","system_id":"levelo_inurba_marseille","lat":43.32369,"lon":5.36716,"is_reserved":false,"is_disabled":false,"rental_uris":{"android":"levelo://app?vid=2736b34b-98dd-4ca9-b701-f4278e5f6e64","ios":"levelo://app?vid=2736b34b-98dd-4ca9-b701-f4278e5f6e64"},"vehicle_type_id":"4","last_reported":1767132666,"current_range_meters":12000,"station_id":"","pricing_plan_id":"cebpf4jnsgd1na2vs0mg"},{"bike_id":"755bf6cc-bb18-41b8-9223-a84ca4092288","system_id":"levelo_inurba_marseille","lat":43.28218,"lon":5.39036,"is_reserved":false,"is_disabled":false,"rental_uris":{"android":"levelo://app?vid=755bf6cc-bb18-41b8-9223-a84ca4092288","ios":"levelo://app?vid=755bf6cc-bb18-41b8-9223-a84ca4092288"},"vehicle_type_id":"4","last_reported":1767132666,"current_range_meters":12000,"station_id":"ce4bhn92rcd13ifvqgsg","pricing_plan_id":"cebpf4jnsgd1na2vs0mg"},{"bike_id":"d250a799-5d35-48b4-8052-313c992efcb5","system_id":"levelo_inurba_marseille","lat":43.28568,"lon":5.39501,"is_reserved":false,"is_disabled":false,"rental_uris":{"android":"levelo://app?vid=d250a799-5d35-48b4-8052-313c992efcb5","ios":"levelo://app?vid=d250a799-5d35-48b4-8052-313c992efcb5"},"vehicle_type_id":"4","last_reported":1767132666,"current_range_meters":12400,"station_id":"ce4bh292rcd13ifvqdg0","pricing_plan_id":"cebpf4jnsgd1na2vs0mg"},{"bike_id":"42cb129a-fab6-4abc-bef3-23a2b710dec9","system_id":"levelo_inurba_marseille","lat":43.288387,"lon":5.35844,"is_reserved":false,"is_disabled":false,"rental_uris":{"android":"levelo://app?vid=42cb129a-fab6-4abc-bef3-23a2b710dec9","ios":"levelo://app?vid=42cb129a-fab6-4abc-bef3-23a2b710dec9"},"vehicle_type_id":"4","last_reported":1767132666,"current_range_meters":12400,"station_id":"ce4bhb12rcd13ifvqem0","pricing_plan_id":"cebpf4jnsgd1na2vs0mg"},{"bike_id":"4cf8c2c1-78ee-47e7-9637-07180f58b843","system_id":"levelo_inurba_marseille","lat":43.306031,"lon":5.372293,"is_reserved":false,"is_disabled":false,"rental_uris":{"android":"levelo://app?vid=4cf8c2c1-78ee-47e7-9637-07180f58b843","ios":"levelo://app?vid=4cf8c2c1-78ee-47e7-9637-07180f58b843"},"vehicle_type_id":"4","last_reported":1767132666,"current_range_meters":12400,"station_id":"ce4bgqh2rcd13ifvqc4g","pricing_plan_id":"cebpf4jnsgd1na2vs0mg"},{"bike_id":"e925a0dc-e1d9-4cea-afb3-e1809cd17c3c","system_id":"levelo_inurba_marseille","lat":43.28734,"lon":5.360801,"is_reserved":false,"is_disabled":false,"rental_uris":{"android":"levelo://app?vid=e925a0dc-e1d9-4cea-afb3-e1809cd17c3c","ios":"levelo://app?vid=e925a0dc-e1d9-4cea-afb3-e1809cd17c3c"},"vehicle_type_id":"4","last_reported":1767132666,"current_range_meters":12400,"station_id":"cki0cbj6b192h4jlfktg","pricing_plan_id":"cebpf4jnsgd1na2vs0mg"},{"bike_id":"8148e9d6-5a49-4f8b-922c-7b760bb29b89","system_id":"levelo_inurba_marseille","lat":43.30634,"lon":5.40092,"is_reserved":false,"is_disabled":false,"rental_uris":{"android":"levelo://app?vid=8148e9d6-5a49-4f8b-922c-7b760bb29b89","ios":"levelo://app?vid=8148e9d6-5a49-4f8b-922c-7b760bb29b89"},"vehicle_type_id":"4","last_reported":1767132666,"current_range_meters":12400,"station_id":"ce4bh112rcd13ifvqda0","pricing_plan_id":"cebpf4jnsgd1na2vs0mg"},{"bike_id":"9f6044aa-9e0a-4415-9278-85df5233b201","system_id":"levelo_inurba_marseille","lat":43.2843,"lon":5.3499,"is_reserved":false,"is_disabled":false,"rental_uris":{"android":"levelo://app?vid=9f6044aa-9e0a-4415-9278-85df5233b201","ios":"levelo://app?vid=9f6044aa-9e0a-4415-9278-85df5233b201"},"vehicle_type_id":"4","last_reported":1767132666,"current_range_meters":12400,"station_id":"ce4bhbh2rcd13ifvqepg","pricing_plan_id":"cebpf4jnsgd1na2vs0mg"},{"bike_id":"9a2077a2-cebc-468c-82f9-fecda68a9ec3","system_id":"levelo_inurba_marseille","lat":43.2948,"lon":5.40888,"is_reserved":false,"is_disabled":false,"rental_uris":{"android":"levelo://app?vid=9a2077a2-cebc-468c-82f9-fecda68a9ec3","ios":"levelo://app?vid=9a2077a2-cebc-468c-82f9-fecda68a9ec3"},"vehicle_type_id":"4","last_reported":1767132666,"current_range_meters":12400,"station_id":"","pricing_plan_id":"cebpf4jnsgd1na2vs0mg"},{"bike_id":"efd33062-2cef-445f-af98-648f578e9c2a","system_id":"levelo_inurba_marseille","lat":43.3202,"lon":5.41607,"is_reserved":false,"is_disabled":false,"rental_uris":{"android":"levelo://app?vid=efd33062-2cef-445f-af98-648f578e9c2a","ios":"levelo://app?vid=efd33062-2cef-445f-af98-648f578e9c2a"},"vehicle_type_id":"4","last_reported":1767132666,"current_range_meters":12800,"station_id":"ce4bhq92rcd13ifvqhkg","pricing_plan_id":"cebpf4jnsgd1na2vs0mg"},{"bike_id":"581a6ab3-180f-44bd-a4a1-a92ae04d5d4e","system_id":"levelo_inurba_marseille","lat":43.21745,"lon":5.34613,"is_reserved":false,"is_disabled":false,"rental_uris":{"android":"levelo://app?vid=581a6ab3-180f-44bd-a4a1-a92ae04d5d4e","ios":"levelo://app?vid=581a6ab3-180f-44bd-a4a1-a92ae04d5d4e"},"vehicle_type_id":"4","last_reported":1767132666,"current_range_meters":12800,"station_id":"st_cvj6r9ubvosntc0bgbag","pricing_plan_id":"cebpf4jnsgd1na2vs0mg"},{"bike_id":"34abb72c-cebc-488b-92ab-8c95dfbf7fdd","system_id":"levelo_inurba_marseille","lat":43.23793,"lon":5.3663,"is_reserved":false,"is_disabled":false,"rental_uris":{"android":"levelo://app?vid=34abb72c-cebc-488b-92ab-8c95dfbf7fdd","ios":"levelo://app?vid=34abb72c-cebc-488b-92ab-8c95dfbf7fdd"},"vehicle_type_id":"4","last_reported":1767132666,"current_range_meters":12800,"station_id":"st_d3nk18o9ro0c73en2l3g","pricing_plan_id":"cebpf4jnsgd1na2vs0mg"},{"bike_id":"ef4d8662-1154-4710-8bf5-ed7e73ba85b1","system_id":"levelo_inurba_marseille","lat":43.27948,"lon":5.41065,"is_reserved":false,"is_disabled":false,"rental_uris":{"android":"levelo://app?vid=ef4d8662-1154-4710-8bf5-ed7e73ba85b1","ios":"levelo://app?vid=ef4d8662-1154-4710-8bf5-ed7e73ba85b1"},"vehicle_type_id":"4","last_reported":1767132666,"current_range_meters":12800,"station_id":"ce4bhnp2rcd13ifvqh0g","pricing_plan_id":"cebpf4jnsgd1na2vs0mg"},{"bike_id":"9cb5ae99-5884-40a4-9c3b-7a9c989d5f03","system_id":"levelo_inurba_marseille","lat":43.28486,"lon":5.3843,"is_reserved":false,"is_disabled":false,"rental_uris":{"android":"levelo://app?vid=9cb5ae99-5884-40a4-9c3b-7a9c989d5f03","ios":"levelo://app?vid=9cb5ae99-5884-40a4-9c3b-7a9c989d5f03"},"vehicle_type_id":"4","last_reported":1767132666,"current_range_meters":12800,"station_id":"ce4bh512rcd13ifvqe3g","pricing_plan_id":"cebpf4jnsgd1na2vs0mg"},{"bike_id":"bdd9ac40-7e02-40a7-815c-13bf865b0107","system_id":"levelo_inurba_marseille","lat":43.301,"lon":5.39077,"is_reserved":false,"is_disabled":false,"rental_uris":{"android":"levelo://app?vid=bdd9ac40-7e02-40a7-815c-13bf865b0107","ios":"levelo://app?vid=bdd9ac40-7e02-40a7-815c-13bf865b0107"},"vehicle_type_id":"4","last_reported":1767132666,"current_range_meters":12800,"station_id":"ce4bh192rcd13ifvqdb0","pricing_plan_id":"cebpf4jnsgd1na2vs0mg"},{"bike_id":"7be19a66-044f-4223-8a5e-aa464921726b","system_id":"levelo_inurba_marseille","lat":43.23945,"lon":5.36626,"is_reserved":false,"is_disabled":false,"rental_uris":{"android":"levelo://app?vid=7be19a66-044f-4223-8a5e-aa464921726b","ios":"levelo://app?vid=7be19a66-044f-4223-8a5e-aa464921726b"},"vehicle_type_id":"4","last_reported":1767132666,"current_range_meters":12800,"station_id":"ce4bhi12rcd13ifvqfp0","pricing_plan_id":"cebpf4jnsgd1na2vs0mg"},{"bike_id":"83f2ee75-d6e7-4ff4-a51e-2f515ab5871a","system_id":"levelo_inurba_marseille","lat":43.29203,"lon":5.35824,"is_reserved":false,"is_disabled":false,"rental_uris":{"android":"levelo://app?vid=83f2ee75-d6e7-4ff4-a51e-2f515ab5871a","ios":"levelo://app?vid=83f2ee75-d6e7-4ff4-a51e-2f515ab5871a"},"vehicle_type_id":"4","last_reported":1767132666,"current_range_meters":12800,"station_id":"ce4bhb12rcd13ifvqel0","pricing_plan_id":"cebpf4jnsgd1na2vs0mg"},{"bike_id":"b904aaae-3b2e-4ecd-8151-745f0b56c117","system_id":"levelo_inurba_marseille","lat":43.29265,"lon":5.40913,"is_reserved":false,"is_disabled":false,"rental_uris":{"android":"levelo://app?vid=b904aaae-3b2e-4ecd-8151-745f0b56c117","ios":"levelo://app?vid=b904aaae-3b2e-4ecd-8151-745f0b56c117"},"vehicle_type_id":"4","last_reported":1767132666,"current_range_meters":12800,"station_id":"ce4bh192rcd13ifvqdc0","pricing_plan_id":"cebpf4jnsgd1na2vs0mg"},{"bike_id":"9cab92db-7f7f-4151-a094-ee06daf730ef","system_id":"levelo_inurba_marseille","lat":43.284187,"lon":5.375105,"is_reserved":false,"is_disabled":false,"rental_uris":{"android":"levelo://app?vid=9cab92db-7f7f-4151-a094-ee06daf730ef","ios":"levelo://app?vid=9cab92db-7f7f-4151-a094-ee06daf730ef"},"vehicle_type_id":"4","last_reported":1767132666,"current_range_meters":12800,"station_id":"ce4bh412rcd13ifvqds0","pricing_plan_id":"cebpf4jnsgd1na2vs0mg"},{"bike_id":"c6990927-f112-43dc-993b-cc97e862332f","system_id":"levelo_inurba_marseille","lat":43.275714,"lon":5.384313,"is_reserved":false,"is_disabled":false,"rental_uris":{"android":"levelo://app?vid=c6990927-f112-43dc-993b-cc97e862332f","ios":"levelo://app?vid=c6990927-f112-43dc-993b-cc97e862332f"},"vehicle_type_id":"4","last_reported":1767132666,"current_range_meters":12800,"station_id":"ce4bhh92rcd13ifvqfi0","pricing_plan_id":"cebpf4jnsgd1na2vs0mg"},{"bike_id":"672255b0-9018-47de-9e5e-68b5e865095f","system_id":"levelo_inurba_marseille","lat":43.24963,"lon":5.40494,"is_reserved":false,"is_disabled":false,"rental_uris":{"android":"levelo://app?vid=672255b0-9018-47de-9e5e-68b5e865095f","ios":"levelo://app?vid=672255b0-9018-47de-9e5e-68b5e865095f"},"vehicle_type_id":"4","last_reported":1767132666,"current_range_meters":12800,"station_id":"st_d2ngiaodas8pm72gd1h0","pricing_plan_id":"cebpf4jnsgd1na2vs0mg"},{"bike_id":"5f6b2483-fb4d-42c1-ac9e-b3b4d04b81be","system_id":"levelo_inurba_marseille","lat":43.257471,"lon":5.409584,"is_reserved":false,"is_disabled":false,"rental_uris":{"android":"levelo://app?vid=5f6b2483-fb4d-42c1-ac9e-b3b4d04b81be","ios":"levelo://app?vid=5f6b2483-fb4d-42c1-ac9e-b3b4d04b81be"},"vehicle_type_id":"4","last_reported":1767132666,"current_range_meters":12800,"station_id":"","pricing_plan_id":"cebpf4jnsgd1na2vs0mg"},{"bike_id":"5265762e-9468-4f8e-963d-e1d647f4d72d","system_id":"levelo_inurba_marseille","lat":43.337444,"lon":5.374475,"is_reserved":false,"is_disabled":false,"rental_uris":{"android":"levelo://app?vid=5265762e-9468-4f8e-963d-e1d647f4d72d","ios":"levelo://app?vid=5265762e-9468-4f8e-963d-e1d647f4d72d"},"vehicle_type_id":"4","last_reported":1767132666,"current_range_meters":13600,"station_id":"","pricing_plan_id":"cebpf4jnsgd1na2vs0mg"},{"bike_id":"e93c83d5-bafc-41ab-b80f-422d8d8d6d2a","system_id":"levelo_inurba_marseille","lat":43.26848,"lon":5.40078,"is_reserved":false,"is_disabled":false,"rental_uris":{"android":"levelo://app?vid=e93c83d5-bafc-41ab-b80f-422d8d8d6d2a","ios":"levelo://app?vid=e93c83d5-bafc-41ab-b80f-422d8d8d6d2a"},"vehicle_type_id":"4","last_reported":1767132666,"current_range_meters":13600,"station_id":"","pricing_plan_id":"cebpf4jnsgd1na2vs0mg"},{"bike_id":"4bc57557-a1ff-4445-8883-a2ab5098f534","system_id":"levelo_inurba_marseille","lat":43.32817,"lon":5.35928,"is_reserved":false,"is_disabled":false,"rental_uris":{"android":"levelo://app?vid=4bc57557-a1ff-4445-8883-a2ab5098f534","ios":"levelo://app?vid=4bc57557-a1ff-4445-8883-a2ab5098f534"},"vehicle_type_id":"4","last_reported":1767132666,"current_range_meters":13600,"station_id":"","pricing_plan_id":"cebpf4jnsgd1na2vs0mg"},{"bike_id":"c78b7752-9cb7-4b06-a8ef-1f65d9ce20cf","system_id":"levelo_inurba_marseille","lat":43.31648,"lon":5.38807,"is_reserved":false,"is_disabled":false,"rental_uris":{"android":"levelo://app?vid=c78b7752-9cb7-4b06-a8ef-1f65d9ce20cf","ios":"levelo://app?vid=c78b7752-9cb7-4b06-a8ef-1f65d9ce20cf"},"vehicle_type_id":"4","last_reported":1767132666,"current_range_meters":13600,"station_id":"","pricing_plan_id":"cebpf4jnsgd1na2vs0mg"},{"bike_id":"e051914e-ee11-460f-9614-a6565268badf","system_id":"levelo_inurba_marseille","lat":43.29844,"lon":5.3626,"is_reserved":false,"is_disabled":false,"rental_uris":{"android":"levelo://app?vid=e051914e-ee11-460f-9614-a6565268badf","ios":"levelo://app?vid=e051914e-ee11-460f-9614-a6565268badf"},"vehicle_type_id":"4","last_reported":1767132666,"current_range_meters":13600,"station_id":"ce4bgpp2rcd13ifvqc3g","pricing_plan_id":"cebpf4jnsgd1na2vs0mg"},{"bike_id":"518272f7-3e73-4db3-92cd-481d148d7361","system_id":"levelo_inurba_marseille","lat":43.24165,"lon":5.36429,"is_reserved":false,"is_disabled":false,"rental_uris":{"android":"levelo://app?vid=518272f7-3e73-4db3-92cd-481d148d7361","ios":"levelo://app?vid=518272f7-3e73-4db3-92cd-481d148d7361"},"vehicle_type_id":"4","last_reported":1767132666,"current_range_meters":13600,"station_id":"cpo36qri1sfpv3e86is0","pricing_plan_id":"cebpf4jnsgd1na2vs0mg"},{"bike_id":"79fda2c3-d85a-402b-9c3b-0dceb91a8171","system_id":"levelo_inurba_marseille","lat":43.29778,"lon":5.37102,"is_reserved":false,"is_disabled":false,"rental_uris":{"android":"levelo://app?vid=79fda2c3-d85a-402b-9c3b-0dceb91a8171","ios":"levelo://app?vid=79fda2c3-d85a-402b-9c3b-0dceb91a8171"},"vehicle_type_id":"4","last_reported":1767132666,"current_range_meters":13600,"station_id":"","pricing_plan_id":"cebpf4jnsgd1na2vs0mg"},{"bike_id":"8c27f8dd-49de-48cb-b4c0-2c146ce86148","system_id":"levelo_inurba_marseille","lat":43.29865,"lon":5.38062,"is_reserved":false,"is_disabled":false,"rental_uris":{"android":"levelo://app?vid=8c27f8dd-49de-48cb-b4c0-2c146ce86148","ios":"levelo://app?vid=8c27f8dd-49de-48cb-b4c0-2c146ce86148"},"vehicle_type_id":"4","last_reported":1767132666,"current_range_meters":13600,"station_id":"","pricing_plan_id":"cebpf4jnsgd1na2vs0mg"},{"bike_id":"b9f5bb9a-d9aa-4714-a9ae-ceaed3ab533e","system_id":"levelo_inurba_marseille","lat":43.29631,"lon":5.38043,"is_reserved":false,"is_disabled":false,"rental_uris":{"android":"levelo://app?vid=b9f5bb9a-d9aa-4714-a9ae-ceaed3ab533e","ios":"levelo://app?vid=b9f5bb9a-d9aa-4714-a9ae-ceaed3ab533e"},"vehicle_type_id":"4","last_reported":1767132666,"current_range_meters":13600,"station_id":"","pricing_plan_id":"cebpf4jnsgd1na2vs0mg"},{"bike_id":"327d4f41-6547-4f60-817f-dce8f7739b45","system_id":"levelo_inurba_marseille","lat":43.24394,"lon":5.37068,"is_reserved":false,"is_disabled":false,"rental_uris":{"android":"levelo://app?vid=327d4f41-6547-4f60-817f-dce8f7739b45","ios":"levelo://app?vid=327d4f41-6547-4f60-817f-dce8f7739b45"},"vehicle_type_id":"4","last_reported":1767132666,"current_range_meters":13600,"station_id":"ce4bhhh2rcd13ifvqfk0","pricing_plan_id":"cebpf4jnsgd1na2vs0mg"},{"bike_id":"b4cf7106-73c2-4109-b6f1-be10e1ccce58","system_id":"levelo_inurba_marseille","lat":43.295949,"lon":5.381055,"is_reserved":false,"is_disabled":false,"rental_uris":{"android":"levelo://app?vid=b4cf7106-73c2-4109-b6f1-be10e1ccce58","ios":"levelo://app?vid=b4cf7106-73c2-4109-b6f1-be10e1ccce58"},"vehicle_type_id":"4","last_reported":1767132666,"current_range_meters":13600,"station_id":"ce4bgl12rcd13ifvqbo0","pricing_plan_id":"cebpf4jnsgd1na2vs0mg"},{"bike_id":"90dac6f2-4e58-4623-b929-4f8d06ec1c31","system_id":"levelo_inurba_marseille","lat":43.28503,"lon":5.42539,"is_reserved":false,"is_disabled":false,"rental_uris":{"android":"levelo://app?vid=90dac6f2-4e58-4623-b929-4f8d06ec1c31","ios":"levelo://app?vid=90dac6f2-4e58-4623-b929-4f8d06ec1c31"},"vehicle_type_id":"4","last_reported":1767132666,"current_range_meters":14000,"station_id":"","pricing_plan_id":"cebpf4jnsgd1na2vs0mg"},{"bike_id":"789d72be-8f05-408e-a2a3-cd5269a54261","system_id":"levelo_inurba_marseille","lat":43.23781,"lon":5.36638,"is_reserved":false,"is_disabled":false,"rental_uris":{"android":"levelo://app?vid=789d72be-8f05-408e-a2a3-cd5269a54261","ios":"levelo://app?vid=789d72be-8f05-408e-a2a3-cd5269a54261"},"vehicle_type_id":"4","last_reported":1767132666,"current_range_meters":14000,"station_id":"st_d3nk18o9ro0c73en2l3g","pricing_plan_id":"cebpf4jnsgd1na2vs0mg"},{"bike_id":"e6dbe591-2fd4-4b2d-aa25-179a088493ea","system_id":"levelo_inurba_marseille","lat":43.225353,"lon":5.348308,"is_reserved":false,"is_disabled":false,"rental_uris":{"android":"levelo://app?vid=e6dbe591-2fd4-4b2d-aa25-179a088493ea","ios":"levelo://app?vid=e6dbe591-2fd4-4b2d-aa25-179a088493ea"},"vehicle_type_id":"4","last_reported":1767132666,"current_range_meters":14000,"station_id":"","pricing_plan_id":"cebpf4jnsgd1na2vs0mg"},{"bike_id":"4ead0183-1449-429b-8c37-b92467e494be","system_id":"levelo_inurba_marseille","lat":43.28473,"lon":5.3843,"is_reserved":false,"is_disabled":false,"rental_uris":{"android":"levelo://app?vid=4ead0183-1449-429b-8c37-b92467e494be","ios":"levelo://app?vid=4ead0183-1449-429b-8c37-b92467e494be"},"vehicle_type_id":"4","last_reported":1767132666,"current_range_meters":14000,"station_id":"ce4bh512rcd13ifvqe3g","pricing_plan_id":"cebpf4jnsgd1na2vs0mg"},{"bike_id":"4dd2279e-ba48-4f3b-b6c2-c6a46b94d1bc","system_id":"levelo_inurba_marseille","lat":43.27956,"lon":5.38713,"is_reserved":false,"is_disabled":false,"rental_uris":{"android":"levelo://app?vid=4dd2279e-ba48-4f3b-b6c2-c6a46b94d1bc","ios":"levelo://app?vid=4dd2279e-ba48-4f3b-b6c2-c6a46b94d1bc"},"vehicle_type_id":"4","last_reported":1767132666,"current_range_meters":14000,"station_id":"ce4bhg12rcd13ifvqf80","pricing_plan_id":"cebpf4jnsgd1na2vs0mg"},{"bike_id":"21a27d68-c627-474d-9080-e06ba81259e5","system_id":"levelo_inurba_marseille","lat":43.29556,"lon":5.3853,"is_reserved":false,"is_disabled":false,"rental_uris":{"android":"levelo://app?vid=21a27d68-c627-474d-9080-e06ba81259e5","ios":"levelo://app?vid=21a27d68-c627-474d-9080-e06ba81259e5"},"vehicle_type_id":"4","last_reported":1767132666,"current_range_meters":14000,"station_id":"ce4bgih2rcd13ifvqba0","pricing_plan_id":"cebpf4jnsgd1na2vs0mg"},{"bike_id":"431b11ed-8b9a-46a5-a4f6-0d6052da73e2","system_id":"levelo_inurba_marseille","lat":43.24683,"lon":5.38913,"is_reserved":false,"is_disabled":false,"rental_uris":{"android":"levelo://app?vid=431b11ed-8b9a-46a5-a4f6-0d6052da73e2","ios":"levelo://app?vid=431b11ed-8b9a-46a5-a4f6-0d6052da73e2"},"vehicle_type_id":"4","last_reported":1767132666,"current_range_meters":14000,"station_id":"ce4bhg12rcd13ifvqf60","pricing_plan_id":"cebpf4jnsgd1na2vs0mg"},{"bike_id":"eb33853a-99e6-4a64-b402-a98a4eae2241","system_id":"levelo_inurba_marseille","lat":43.29647,"lon":5.3803,"is_reserved":false,"is_disabled":false,"rental_uris":{"android":"levelo://app?vid=eb33853a-99e6-4a64-b402-a98a4eae2241","ios":"levelo://app?vid=eb33853a-99e6-4a64-b402-a98a4eae2241"},"vehicle_type_id":"4","last_reported":1767132666,"current_range_meters":14000,"station_id":"","pricing_plan_id":"cebpf4jnsgd1na2vs0mg"},{"bike_id":"d49fd2c9-dca5-4864-87e0-359520dd27b8","system_id":"levelo_inurba_marseille","lat":43.261304,"lon":5.39732,"is_reserved":false,"is_disabled":false,"rental_uris":{"android":"levelo://app?vid=d49fd2c9-dca5-4864-87e0-359520dd27b8","ios":"levelo://app?vid=d49fd2c9-dca5-4864-87e0-359520dd27b8"},"vehicle_type_id":"4","last_reported":1767132666,"current_range_meters":14000,"station_id":"","pricing_plan_id":"cebpf4jnsgd1na2vs0mg"},{"bike_id":"a1cf72d5-0cf6-4234-b37b-d7debc7b6d45","system_id":"levelo_inurba_marseille","lat":43.23784,"lon":5.36627,"is_reserved":false,"is_disabled":false,"rental_uris":{"android":"levelo://app?vid=a1cf72d5-0cf6-4234-b37b-d7debc7b6d45","ios":"levelo://app?vid=a1cf72d5-0cf6-4234-b37b-d7debc7b6d45"},"vehicle_type_id":"4","last_reported":1767132666,"current_range_meters":14000,"station_id":"st_d3nk18o9ro0c73en2l3g","pricing_plan_id":"cebpf4jnsgd1na2vs0mg"},{"bike_id":"b7f64a09-e08d-43c0-8d6c-41a911e26a35","system_id":"levelo_inurba_marseille","lat":43.26705,"lon":5.38276,"is_reserved":false,"is_disabled":false,"rental_uris":{"android":"levelo://app?vid=b7f64a09-e08d-43c0-8d6c-41a911e26a35","ios":"levelo://app?vid=b7f64a09-e08d-43c0-8d6c-41a911e26a35"},"vehicle_type_id":"4","last_reported":1767132666,"current_range_meters":14000,"station_id":"ce4bhg92rcd13ifvqf90","pricing_plan_id":"cebpf4jnsgd1na2vs0mg"},{"bike_id":"d8196cf8-2f9e-4fc6-a13e-9853e843aed7","system_id":"levelo_inurba_marseille","lat":43.2861,"lon":5.37066,"is_reserved":false,"is_disabled":false,"rental_uris":{"android":"levelo://app?vid=d8196cf8-2f9e-4fc6-a13e-9853e843aed7","ios":"levelo://app?vid=d8196cf8-2f9e-4fc6-a13e-9853e843aed7"},"vehicle_type_id":"4","last_reported":1767132666,"current_range_meters":14000,"station_id":"ce4bht12rcd13ifvqi60","pricing_plan_id":"cebpf4jnsgd1na2vs0mg"},{"bike_id":"a7df6d51-aeb4-4f6e-a38b-46dae1f38f36","system_id":"levelo_inurba_marseille","lat":43.21752,"lon":5.34616,"is_reserved":false,"is_disabled":false,"rental_uris":{"android":"levelo://app?vid=a7df6d51-aeb4-4f6e-a38b-46dae1f38f36","ios":"levelo://app?vid=a7df6d51-aeb4-4f6e-a38b-46dae1f38f36"},"vehicle_type_id":"4","last_reported":1767132666,"current_range_meters":14000,"station_id":"st_cvj6r9ubvosntc0bgbag","pricing_plan_id":"cebpf4jnsgd1na2vs0mg"},{"bike_id":"d0fc4675-d8e2-48a2-9a6f-52947554cf89","system_id":"levelo_inurba_marseille","lat":43.27621,"lon":5.36113,"is_reserved":false,"is_disabled":false,"rental_uris":{"android":"levelo://app?vid=d0fc4675-d8e2-48a2-9a6f-52947554cf89","ios":"levelo://app?vid=d0fc4675-d8e2-48a2-9a6f-52947554cf89"},"vehicle_type_id":"4","last_reported":1767132666,"current_range_meters":14400,"station_id":"ce4bgj92rcd13ifvqbe0","pricing_plan_id":"cebpf4jnsgd1na2vs0mg"},{"bike_id":"10590227-3134-42ff-a7cd-7942821336b8","system_id":"levelo_inurba_marseille","lat":43.29944,"lon":5.36553,"is_reserved":false,"is_disabled":false,"rental_uris":{"android":"levelo://app?vid=10590227-3134-42ff-a7cd-7942821336b8","ios":"levelo://app?vid=10590227-3134-42ff-a7cd-7942821336b8"},"vehicle_type_id":"4","last_reported":1767132666,"current_range_meters":14400,"station_id":"ce4bgm92rcd13ifvqbr0","pricing_plan_id":"cebpf4jnsgd1na2vs0mg"},{"bike_id":"090deb3c-b463-4496-9a6a-019b5e498763","system_id":"levelo_inurba_marseille","lat":43.32357,"lon":5.3671,"is_reserved":false,"is_disabled":false,"rental_uris":{"android":"levelo://app?vid=090deb3c-b463-4496-9a6a-019b5e498763","ios":"levelo://app?vid=090deb3c-b463-4496-9a6a-019b5e498763"},"vehicle_type_id":"4","last_reported":1767132666,"current_range_meters":14400,"station_id":"ce4bhsh2rcd13ifvqi2g","pricing_plan_id":"cebpf4jnsgd1na2vs0mg"},{"bike_id":"56b3cb2c-fe2c-4c18-b6b1-c11f318965ea","system_id":"levelo_inurba_marseille","lat":43.29615,"lon":5.38096,"is_reserved":false,"is_disabled":false,"rental_uris":{"android":"levelo://app?vid=56b3cb2c-fe2c-4c18-b6b1-c11f318965ea","ios":"levelo://app?vid=56b3cb2c-fe2c-4c18-b6b1-c11f318965ea"},"vehicle_type_id":"4","last_reported":1767132666,"current_range_meters":14400,"station_id":"ce4bgl12rcd13ifvqbo0","pricing_plan_id":"cebpf4jnsgd1na2vs0mg"},{"bike_id":"4372a42a-b334-4e8f-9141-9b6d15dd3e03","system_id":"levelo_inurba_marseille","lat":43.28484,"lon":5.48383,"is_reserved":false,"is_disabled":false,"rental_uris":{"android":"levelo://app?vid=4372a42a-b334-4e8f-9141-9b6d15dd3e03","ios":"levelo://app?vid=4372a42a-b334-4e8f-9141-9b6d15dd3e03"},"vehicle_type_id":"4","last_reported":1767132666,"current_range_meters":14400,"station_id":"","pricing_plan_id":"cebpf4jnsgd1na2vs0mg"},{"bike_id":"a5b560d3-4f15-4e74-8c2f-0061e91a7b04","system_id":"levelo_inurba_marseille","lat":43.291978,"lon":5.35796,"is_reserved":false,"is_disabled":false,"rental_uris":{"android":"levelo://app?vid=a5b560d3-4f15-4e74-8c2f-0061e91a7b04","ios":"levelo://app?vid=a5b560d3-4f15-4e74-8c2f-0061e91a7b04"},"vehicle_type_id":"4","last_reported":1767132666,"current_range_meters":14400,"station_id":"ce4bh9p2rcd13ifvqed0","pricing_plan_id":"cebpf4jnsgd1na2vs0mg"},{"bike_id":"96657df9-7d68-4cd8-9f06-a5e501866c49","system_id":"levelo_inurba_marseille","lat":43.29305,"lon":5.37515,"is_reserved":false,"is_disabled":false,"rental_uris":{"android":"levelo://app?vid=96657df9-7d68-4cd8-9f06-a5e501866c49","ios":"levelo://app?vid=96657df9-7d68-4cd8-9f06-a5e501866c49"},"vehicle_type_id":"4","last_reported":1767132666,"current_range_meters":14400,"station_id":"ce4bgi12rcd13ifvqb70","pricing_plan_id":"cebpf4jnsgd1na2vs0mg"},{"bike_id":"fa419d40-02db-4ed5-a194-1a3bfde5b56d","system_id":"levelo_inurba_marseille","lat":43.26373,"lon":5.41051,"is_reserved":false,"is_disabled":false,"rental_uris":{"android":"levelo://app?vid=fa419d40-02db-4ed5-a194-1a3bfde5b56d","ios":"levelo://app?vid=fa419d40-02db-4ed5-a194-1a3bfde5b56d"},"vehicle_type_id":"4","last_reported":1767132666,"current_range_meters":14400,"station_id":"st_d4e5ca6na9uc73bfl5fg","pricing_plan_id":"cebpf4jnsgd1na2vs0mg"},{"bike_id":"cf61d156-dac6-4f0e-b382-70446db78ff3","system_id":"levelo_inurba_marseille","lat":43.32344,"lon":5.36705,"is_reserved":false,"is_disabled":false,"rental_uris":{"android":"levelo://app?vid=cf61d156-dac6-4f0e-b382-70446db78ff3","ios":"levelo://app?vid=cf61d156-dac6-4f0e-b382-70446db78ff3"},"vehicle_type_id":"4","last_reported":1767132666,"current_range_meters":14400,"station_id":"","pricing_plan_id":"cebpf4jnsgd1na2vs0mg"},{"bike_id":"650cf425-f87e-4c30-9156-354d5fef94cd","system_id":"levelo_inurba_marseille","lat":43.30125,"lon":5.36732,"is_reserved":false,"is_disabled":false,"rental_uris":{"android":"levelo://app?vid=650cf425-f87e-4c30-9156-354d5fef94cd","ios":"levelo://app?vid=650cf425-f87e-4c30-9156-354d5fef94cd"},"vehicle_type_id":"4","last_reported":1767132666,"current_range_meters":14400,"station_id":"","pricing_plan_id":"cebpf4jnsgd1na2vs0mg"},{"bike_id":"b665ea36-bb99-4c82-9dd0-86ffdf91d10c","system_id":"levelo_inurba_marseille","lat":43.28479,"lon":5.38408,"is_reserved":false,"is_disabled":false,"rental_uris":{"android":"levelo://app?vid=b665ea36-bb99-4c82-9dd0-86ffdf91d10c","ios":"levelo://app?vid=b665ea36-bb99-4c82-9dd0-86ffdf91d10c"},"vehicle_type_id":"4","last_reported":1767132666,"current_range_meters":14800,"station_id":"ce4bh512rcd13ifvqe3g","pricing_plan_id":"cebpf4jnsgd1na2vs0mg"},{"bike_id":"950fba6c-3836-4c90-bfac-bbf501bf08ff","system_id":"levelo_inurba_marseille","lat":43.29176,"lon":5.37156,"is_reserved":false,"is_disabled":true,"rental_uris":{"android":"levelo://app?vid=950fba6c-3836-4c90-bfac-bbf501bf08ff","ios":"levelo://app?vid=950fba6c-3836-4c90-bfac-bbf501bf08ff"},"vehicle_type_id":"4","last_reported":1767132666,"current_range_meters":14800,"station_id":"ce4bha92rcd13ifvqeh0","pricing_plan_id":"cebpf4jnsgd1na2vs0mg"},{"bike_id":"8fa53ddb-80a9-4b81-a17d-6b07554edef4","system_id":"levelo_inurba_marseille","lat":43.2847,"lon":5.48395,"is_reserved":false,"is_disabled":false,"rental_uris":{"android":"levelo://app?vid=8fa53ddb-80a9-4b81-a17d-6b07554edef4","ios":"levelo://app?vid=8fa53ddb-80a9-4b81-a17d-6b07554edef4"},"vehicle_type_id":"4","last_reported":1767132666,"current_range_meters":14800,"station_id":"st_d3svhcjqgbts73a3dn0g","pricing_plan_id":"cebpf4jnsgd1na2vs0mg"},{"bike_id":"f1c6d68f-f9d3-4e50-9c33-50830b5803db","system_id":"levelo_inurba_marseille","lat":43.29675,"lon":5.37296,"is_reserved":false,"is_disabled":false,"rental_uris":{"android":"levelo://app?vid=f1c6d68f-f9d3-4e50-9c33-50830b5803db","ios":"levelo://app?vid=f1c6d68f-f9d3-4e50-9c33-50830b5803db"},"vehicle_type_id":"4","last_reported":1767132666,"current_range_meters":14800,"station_id":"ce4bgk12rcd13ifvqbj0","pricing_plan_id":"cebpf4jnsgd1na2vs0mg"},{"bike_id":"a80e4f3f-379a-4af0-b1dd-9beb2db34c0a","system_id":"levelo_inurba_marseille","lat":43.29566,"lon":5.37492,"is_reserved":false,"is_disabled":false,"rental_uris":{"android":"levelo://app?vid=a80e4f3f-379a-4af0-b1dd-9beb2db34c0a","ios":"levelo://app?vid=a80e4f3f-379a-4af0-b1dd-9beb2db34c0a"},"vehicle_type_id":"4","last_reported":1767132666,"current_range_meters":14800,"station_id":"ce4bgh92rcd13ifvqb50","pricing_plan_id":"cebpf4jnsgd1na2vs0mg"},{"bike_id":"7cc08dd6-826c-4451-a490-86ca460ba99b","system_id":"levelo_inurba_marseille","lat":43.32142,"lon":5.368,"is_reserved":false,"is_disabled":false,"rental_uris":{"android":"levelo://app?vid=7cc08dd6-826c-4451-a490-86ca460ba99b","ios":"levelo://app?vid=7cc08dd6-826c-4451-a490-86ca460ba99b"},"vehicle_type_id":"4","last_reported":1767132666,"current_range_meters":14800,"station_id":"ce4bhrh2rcd13ifvqhug","pricing_plan_id":"cebpf4jnsgd1na2vs0mg"},{"bike_id":"17b1101e-e68f-4d8f-a772-39bb18a0d2bc","system_id":"levelo_inurba_marseille","lat":43.29871,"lon":5.37624,"is_reserved":false,"is_disabled":false,"rental_uris":{"android":"levelo://app?vid=17b1101e-e68f-4d8f-a772-39bb18a0d2bc","ios":"levelo://app?vid=17b1101e-e68f-4d8f-a772-39bb18a0d2bc"},"vehicle_type_id":"4","last_reported":1767132666,"current_range_meters":14800,"station_id":"","pricing_plan_id":"cebpf4jnsgd1na2vs0mg"},{"bike_id":"af2a7b74-bf32-4aad-9dcb-4218a2af624c","system_id":"levelo_inurba_marseille","lat":43.272322,"lon":5.391751,"is_reserved":false,"is_disabled":false,"rental_uris":{"android":"levelo://app?vid=af2a7b74-bf32-4aad-9dcb-4218a2af624c","ios":"levelo://app?vid=af2a7b74-bf32-4aad-9dcb-4218a2af624c"},"vehicle_type_id":"4","last_reported":1767132666,"current_range_meters":15200,"station_id":"ce4bhhp2rcd13ifvqfm0","pricing_plan_id":"cebpf4jnsgd1na2vs0mg"},{"bike_id":"c52ed117-cd51-4abc-aaba-cb1e81397c10","system_id":"levelo_inurba_marseille","lat":43.29865,"lon":5.36275,"is_reserved":false,"is_disabled":false,"rental_uris":{"android":"levelo://app?vid=c52ed117-cd51-4abc-aaba-cb1e81397c10","ios":"levelo://app?vid=c52ed117-cd51-4abc-aaba-cb1e81397c10"},"vehicle_type_id":"4","last_reported":1767132666,"current_range_meters":15200,"station_id":"ce4bgpp2rcd13ifvqc3g","pricing_plan_id":"cebpf4jnsgd1na2vs0mg"},{"bike_id":"a827215d-ae9a-42fa-b1c6-77e2c3b6fa6a","system_id":"levelo_inurba_marseille","lat":43.28445,"lon":5.39182,"is_reserved":false,"is_disabled":false,"rental_uris":{"android":"levelo://app?vid=a827215d-ae9a-42fa-b1c6-77e2c3b6fa6a","ios":"levelo://app?vid=a827215d-ae9a-42fa-b1c6-77e2c3b6fa6a"},"vehicle_type_id":"4","last_reported":1767132666,"current_range_meters":15200,"station_id":"ce4bhoh2rcd13ifvqh5g","pricing_plan_id":"cebpf4jnsgd1na2vs0mg"},{"bike_id":"c4a185e6-f333-4cba-b9c5-e12c0b69b01d","system_id":"levelo_inurba_marseille","lat":43.28093,"lon":5.3966,"is_reserved":false,"is_disabled":false,"rental_uris":{"android":"levelo://app?vid=c4a185e6-f333-4cba-b9c5-e12c0b69b01d","ios":"levelo://app?vid=c4a185e6-f333-4cba-b9c5-e12c0b69b01d"},"vehicle_type_id":"4","last_reported":1767132666,"current_range_meters":15200,"station_id":"ce4bho12rcd13ifvqh2g","pricing_plan_id":"cebpf4jnsgd1na2vs0mg"},{"bike_id":"aea303b5-11de-4320-87ef-78caaeda377d","system_id":"levelo_inurba_marseille","lat":43.27063,"lon":5.38305,"is_reserved":false,"is_disabled":false,"rental_uris":{"android":"levelo://app?vid=aea303b5-11de-4320-87ef-78caaeda377d","ios":"levelo://app?vid=aea303b5-11de-4320-87ef-78caaeda377d"},"vehicle_type_id":"4","last_reported":1767132666,"current_range_meters":15200,"station_id":"st_d3n2fo6cfp8s73cte1j0","pricing_plan_id":"cebpf4jnsgd1na2vs0mg"},{"bike_id":"9e5dafc7-f2da-4d0b-b668-e32cc043ceb4","system_id":"levelo_inurba_marseille","lat":43.28047,"lon":5.40073,"is_reserved":false,"is_disabled":false,"rental_uris":{"android":"levelo://app?vid=9e5dafc7-f2da-4d0b-b668-e32cc043ceb4","ios":"levelo://app?vid=9e5dafc7-f2da-4d0b-b668-e32cc043ceb4"},"vehicle_type_id":"4","last_reported":1767132666,"current_range_meters":15200,"station_id":"","pricing_plan_id":"cebpf4jnsgd1na2vs0mg"},{"bike_id":"d59e7b95-06d1-490f-ae32-f5d5c93174f7","system_id":"levelo_inurba_marseille","lat":43.21754,"lon":5.34606,"is_reserved":false,"is_disabled":false,"rental_uris":{"android":"levelo://app?vid=d59e7b95-06d1-490f-ae32-f5d5c93174f7","ios":"levelo://app?vid=d59e7b95-06d1-490f-ae32-f5d5c93174f7"},"vehicle_type_id":"4","last_reported":1767132666,"current_range_meters":15200,"station_id":"st_cvj6r9ubvosntc0bgbag","pricing_plan_id":"cebpf4jnsgd1na2vs0mg"},{"bike_id":"17ed143c-c6a8-4d0a-bc59-6cc80ba2c7cb","system_id":"levelo_inurba_marseille","lat":43.32086,"lon":5.3686,"is_reserved":false,"is_disabled":false,"rental_uris":{"android":"levelo://app?vid=17ed143c-c6a8-4d0a-bc59-6cc80ba2c7cb","ios":"levelo://app?vid=17ed143c-c6a8-4d0a-bc59-6cc80ba2c7cb"},"vehicle_type_id":"4","last_reported":1767132666,"current_range_meters":15200,"station_id":"ce4bhrh2rcd13ifvqhug","pricing_plan_id":"cebpf4jnsgd1na2vs0mg"},{"bike_id":"1e979309-d823-4aaf-b851-f1be8461cefe","system_id":"levelo_inurba_marseille","lat":43.28481,"lon":5.48394,"is_reserved":false,"is_disabled":false,"rental_uris":{"android":"levelo://app?vid=1e979309-d823-4aaf-b851-f1be8461cefe","ios":"levelo://app?vid=1e979309-d823-4aaf-b851-f1be8461cefe"},"vehicle_type_id":"4","last_reported":1767132666,"current_range_meters":15200,"station_id":"st_d3svhcjqgbts73a3dn0g","pricing_plan_id":"cebpf4jnsgd1na2vs0mg"},{"bike_id":"80d3a7c8-59ff-42f3-8823-f0ffde6c1bc1","system_id":"levelo_inurba_marseille","lat":43.259315,"lon":5.40915,"is_reserved":false,"is_disabled":false,"rental_uris":{"android":"levelo://app?vid=80d3a7c8-59ff-42f3-8823-f0ffde6c1bc1","ios":"levelo://app?vid=80d3a7c8-59ff-42f3-8823-f0ffde6c1bc1"},"vehicle_type_id":"4","last_reported":1767132666,"current_range_meters":15200,"station_id":"ce4bhm92rcd13ifvqglg","pricing_plan_id":"cebpf4jnsgd1na2vs0mg"},{"bike_id":"f297e1d0-d6d1-470d-832a-7cfd1d704b5f","system_id":"levelo_inurba_marseille","lat":43.26945,"lon":5.39324,"is_reserved":false,"is_disabled":false,"rental_uris":{"android":"levelo://app?vid=f297e1d0-d6d1-470d-832a-7cfd1d704b5f","ios":"levelo://app?vid=f297e1d0-d6d1-470d-832a-7cfd1d704b5f"},"vehicle_type_id":"4","last_reported":1767132666,"current_range_meters":15200,"station_id":"","pricing_plan_id":"cebpf4jnsgd1na2vs0mg"},{"bike_id":"34a0b96e-9418-4a8b-a5f1-b6059f519e59","system_id":"levelo_inurba_marseille","lat":43.29922,"lon":5.37505,"is_reserved":false,"is_disabled":false,"rental_uris":{"android":"levelo://app?vid=34a0b96e-9418-4a8b-a5f1-b6059f519e59","ios":"levelo://app?vid=34a0b96e-9418-4a8b-a5f1-b6059f519e59"},"vehicle_type_id":"4","last_reported":1767132666,"current_range_meters":15200,"station_id":"ce4bgjh2rcd13ifvqbg0","pricing_plan_id":"cebpf4jnsgd1na2vs0mg"},{"bike_id":"44a5e87c-07a6-426b-bffa-bb2ab3182059","system_id":"levelo_inurba_marseille","lat":43.31749,"lon":5.39023,"is_reserved":false,"is_disabled":false,"rental_uris":{"android":"levelo://app?vid=44a5e87c-07a6-426b-bffa-bb2ab3182059","ios":"levelo://app?vid=44a5e87c-07a6-426b-bffa-bb2ab3182059"},"vehicle_type_id":"4","last_reported":1767132666,"current_range_meters":15200,"station_id":"ce4bhqp2rcd13ifvqhng","pricing_plan_id":"cebpf4jnsgd1na2vs0mg"},{"bike_id":"b42867a7-20ab-45bb-b25b-6428a15ddf1c","system_id":"levelo_inurba_marseille","lat":43.26517,"lon":5.37956,"is_reserved":false,"is_disabled":false,"rental_uris":{"android":"levelo://app?vid=b42867a7-20ab-45bb-b25b-6428a15ddf1c","ios":"levelo://app?vid=b42867a7-20ab-45bb-b25b-6428a15ddf1c"},"vehicle_type_id":"4","last_reported":1767132666,"current_range_meters":16000,"station_id":"","pricing_plan_id":"cebpf4jnsgd1na2vs0mg"},{"bike_id":"c4187726-6d2f-4571-955e-214ecb50e0dd","system_id":"levelo_inurba_marseille","lat":43.28476,"lon":5.38423,"is_reserved":false,"is_disabled":false,"rental_uris":{"android":"levelo://app?vid=c4187726-6d2f-4571-955e-214ecb50e0dd","ios":"levelo://app?vid=c4187726-6d2f-4571-955e-214ecb50e0dd"},"vehicle_type_id":"4","last_reported":1767132666,"current_range_meters":16000,"station_id":"ce4bh512rcd13ifvqe3g","pricing_plan_id":"cebpf4jnsgd1na2vs0mg"},{"bike_id":"3c554b37-3b38-4c8a-be17-815a87aa6e42","system_id":"levelo_inurba_marseille","lat":43.29791,"lon":5.38084,"is_reserved":false,"is_disabled":false,"rental_uris":{"android":"levelo://app?vid=3c554b37-3b38-4c8a-be17-815a87aa6e42","ios":"levelo://app?vid=3c554b37-3b38-4c8a-be17-815a87aa6e42"},"vehicle_type_id":"4","last_reported":1767132666,"current_range_meters":16000,"station_id":"ce4bgip2rcd13ifvqbb0","pricing_plan_id":"cebpf4jnsgd1na2vs0mg"},{"bike_id":"eb87c023-366e-46cf-9b32-bbf4676ca280","system_id":"levelo_inurba_marseille","lat":43.28467,"lon":5.38412,"is_reserved":false,"is_disabled":false,"rental_uris":{"android":"levelo://app?vid=eb87c023-366e-46cf-9b32-bbf4676ca280","ios":"levelo://app?vid=eb87c023-366e-46cf-9b32-bbf4676ca280"},"vehicle_type_id":"4","last_reported":1767132666,"current_range_meters":16000,"station_id":"ce4bh512rcd13ifvqe3g","pricing_plan_id":"cebpf4jnsgd1na2vs0mg"},{"bike_id":"21ffd6b1-2bb2-4cd5-a114-97468b121c40","system_id":"levelo_inurba_marseille","lat":43.29518,"lon":5.39038,"is_reserved":false,"is_disabled":false,"rental_uris":{"android":"levelo://app?vid=21ffd6b1-2bb2-4cd5-a114-97468b121c40","ios":"levelo://app?vid=21ffd6b1-2bb2-4cd5-a114-97468b121c40"},"vehicle_type_id":"4","last_reported":1767132666,"current_range_meters":16000,"station_id":"ce4bh3p2rcd13ifvqdp0","pricing_plan_id":"cebpf4jnsgd1na2vs0mg"},{"bike_id":"6d34a40a-3c31-4e57-aba7-ad6f30894876","system_id":"levelo_inurba_marseille","lat":43.29933,"lon":5.37436,"is_reserved":false,"is_disabled":false,"rental_uris":{"android":"levelo://app?vid=6d34a40a-3c31-4e57-aba7-ad6f30894876","ios":"levelo://app?vid=6d34a40a-3c31-4e57-aba7-ad6f30894876"},"vehicle_type_id":"4","last_reported":1767132666,"current_range_meters":16000,"station_id":"ce4bgjh2rcd13ifvqbg0","pricing_plan_id":"cebpf4jnsgd1na2vs0mg"},{"bike_id":"5bdd84a1-17d5-4bbd-86b1-b2f015f89d54","system_id":"levelo_inurba_marseille","lat":43.26816,"lon":5.40256,"is_reserved":false,"is_disabled":false,"rental_uris":{"android":"levelo://app?vid=5bdd84a1-17d5-4bbd-86b1-b2f015f89d54","ios":"levelo://app?vid=5bdd84a1-17d5-4bbd-86b1-b2f015f89d54"},"vehicle_type_id":"4","last_reported":1767132666,"current_range_meters":16000,"station_id":"ce501612rcd8frsf0b60","pricing_plan_id":"cebpf4jnsgd1na2vs0mg"},{"bike_id":"6c1151f0-0b27-4fc9-9cbd-910a520a44cf","system_id":"levelo_inurba_marseille","lat":43.24077,"lon":5.37767,"is_reserved":false,"is_disabled":false,"rental_uris":{"android":"levelo://app?vid=6c1151f0-0b27-4fc9-9cbd-910a520a44cf","ios":"levelo://app?vid=6c1151f0-0b27-4fc9-9cbd-910a520a44cf"},"vehicle_type_id":"4","last_reported":1767132666,"current_range_meters":16000,"station_id":"ce4bhnp2rcd13ifvqgvg","pricing_plan_id":"cebpf4jnsgd1na2vs0mg"},{"bike_id":"36fc440a-33a3-4913-a0d8-b4b76e46bd70","system_id":"levelo_inurba_marseille","lat":43.32218,"lon":5.39434,"is_reserved":false,"is_disabled":false,"rental_uris":{"android":"levelo://app?vid=36fc440a-33a3-4913-a0d8-b4b76e46bd70","ios":"levelo://app?vid=36fc440a-33a3-4913-a0d8-b4b76e46bd70"},"vehicle_type_id":"4","last_reported":1767132666,"current_range_meters":16000,"station_id":"","pricing_plan_id":"cebpf4jnsgd1na2vs0mg"},{"bike_id":"f489c472-ee6d-42dd-8be8-3a531cfd3f02","system_id":"levelo_inurba_marseille","lat":43.286623,"lon":5.455151,"is_reserved":false,"is_disabled":false,"rental_uris":{"android":"levelo://app?vid=f489c472-ee6d-42dd-8be8-3a531cfd3f02","ios":"levelo://app?vid=f489c472-ee6d-42dd-8be8-3a531cfd3f02"},"vehicle_type_id":"4","last_reported":1767132666,"current_range_meters":16000,"station_id":"","pricing_plan_id":"cebpf4jnsgd1na2vs0mg"},{"bike_id":"2bb4d2d9-73cd-43c6-8fe2-a13856c29ad8","system_id":"levelo_inurba_marseille","lat":43.2958,"lon":5.37736,"is_reserved":false,"is_disabled":false,"rental_uris":{"android":"levelo://app?vid=2bb4d2d9-73cd-43c6-8fe2-a13856c29ad8","ios":"levelo://app?vid=2bb4d2d9-73cd-43c6-8fe2-a13856c29ad8"},"vehicle_type_id":"4","last_reported":1767132666,"current_range_meters":16000,"station_id":"ce4bgi92rcd13ifvqb90","pricing_plan_id":"cebpf4jnsgd1na2vs0mg"},{"bike_id":"7d677b46-9134-44da-9348-78ad536c0048","system_id":"levelo_inurba_marseille","lat":43.27336,"lon":5.39098,"is_reserved":false,"is_disabled":false,"rental_uris":{"android":"levelo://app?vid=7d677b46-9134-44da-9348-78ad536c0048","ios":"levelo://app?vid=7d677b46-9134-44da-9348-78ad536c0048"},"vehicle_type_id":"4","last_reported":1767132666,"current_range_meters":16000,"station_id":"ce4bhgp2rcd13ifvqfe0","pricing_plan_id":"cebpf4jnsgd1na2vs0mg"},{"bike_id":"4eb984c0-cff5-47bc-8a26-322fcbc1459a","system_id":"levelo_inurba_marseille","lat":43.28422,"lon":5.34989,"is_reserved":false,"is_disabled":false,"rental_uris":{"android":"levelo://app?vid=4eb984c0-cff5-47bc-8a26-322fcbc1459a","ios":"levelo://app?vid=4eb984c0-cff5-47bc-8a26-322fcbc1459a"},"vehicle_type_id":"4","last_reported":1767132666,"current_range_meters":16000,"station_id":"ce4bhbh2rcd13ifvqepg","pricing_plan_id":"cebpf4jnsgd1na2vs0mg"},{"bike_id":"f7907c1c-af28-49fc-9bf1-6ea5c9b9576d","system_id":"levelo_inurba_marseille","lat":43.281533,"lon":5.426376,"is_reserved":false,"is_disabled":true,"rental_uris":{"android":"levelo://app?vid=f7907c1c-af28-49fc-9bf1-6ea5c9b9576d","ios":"levelo://app?vid=f7907c1c-af28-49fc-9bf1-6ea5c9b9576d"},"vehicle_type_id":"4","last_reported":1767132666,"current_range_meters":16400,"station_id":"ce4bhnh2rcd13ifvqgug","pricing_plan_id":"cebpf4jnsgd1na2vs0mg"},{"bike_id":"d884c4a6-0be1-44d1-a381-33637463734c","system_id":"levelo_inurba_marseille","lat":43.29614,"lon":5.37736,"is_reserved":false,"is_disabled":false,"rental_uris":{"android":"levelo://app?vid=d884c4a6-0be1-44d1-a381-33637463734c","ios":"levelo://app?vid=d884c4a6-0be1-44d1-a381-33637463734c"},"vehicle_type_id":"4","last_reported":1767132666,"current_range_meters":16400,"station_id":"ce4bgi92rcd13ifvqb90","pricing_plan_id":"cebpf4jnsgd1na2vs0mg"},{"bike_id":"c6843b6b-bae9-4688-a6d9-09198d1fb1ac","system_id":"levelo_inurba_marseille","lat":43.30195,"lon":5.36631,"is_reserved":false,"is_disabled":false,"rental_uris":{"android":"levelo://app?vid=c6843b6b-bae9-4688-a6d9-09198d1fb1ac","ios":"levelo://app?vid=c6843b6b-bae9-4688-a6d9-09198d1fb1ac"},"vehicle_type_id":"4","last_reported":1767132666,"current_range_meters":16400,"station_id":"ce4bgrh2rcd13ifvqc8g","pricing_plan_id":"cebpf4jnsgd1na2vs0mg"},{"bike_id":"950c0338-ee03-4bb1-82b4-c4470bbb4acc","system_id":"levelo_inurba_marseille","lat":43.31253,"lon":5.36824,"is_reserved":false,"is_disabled":false,"rental_uris":{"android":"levelo://app?vid=950c0338-ee03-4bb1-82b4-c4470bbb4acc","ios":"levelo://app?vid=950c0338-ee03-4bb1-82b4-c4470bbb4acc"},"vehicle_type_id":"4","last_reported":1767132666,"current_range_meters":16400,"station_id":"ce4bgl92rcd13ifvqbq0","pricing_plan_id":"cebpf4jnsgd1na2vs0mg"},{"bike_id":"1ebd2a0c-42a1-4a60-8730-e1ef90962935","system_id":"levelo_inurba_marseille","lat":43.32368,"lon":5.36756,"is_reserved":false,"is_disabled":false,"rental_uris":{"android":"levelo://app?vid=1ebd2a0c-42a1-4a60-8730-e1ef90962935","ios":"levelo://app?vid=1ebd2a0c-42a1-4a60-8730-e1ef90962935"},"vehicle_type_id":"4","last_reported":1767132666,"current_range_meters":16400,"station_id":"ce4bhsh2rcd13ifvqi2g","pricing_plan_id":"cebpf4jnsgd1na2vs0mg"},{"bike_id":"25cb8ff7-2ab5-4460-8123-c85a0c1337ce","system_id":"levelo_inurba_marseille","lat":43.30208,"lon":5.39471,"is_reserved":false,"is_disabled":false,"rental_uris":{"android":"levelo://app?vid=25cb8ff7-2ab5-4460-8123-c85a0c1337ce","ios":"levelo://app?vid=25cb8ff7-2ab5-4460-8123-c85a0c1337ce"},"vehicle_type_id":"4","last_reported":1767132666,"current_range_meters":16400,"station_id":"ce4bh0p2rcd13ifvqd70","pricing_plan_id":"cebpf4jnsgd1na2vs0mg"},{"bike_id":"4e4be9e7-7142-4461-ad04-34a9693b261f","system_id":"levelo_inurba_marseille","lat":43.27058,"lon":5.42291,"is_reserved":false,"is_disabled":true,"rental_uris":{"android":"levelo://app?vid=4e4be9e7-7142-4461-ad04-34a9693b261f","ios":"levelo://app?vid=4e4be9e7-7142-4461-ad04-34a9693b261f"},"vehicle_type_id":"4","last_reported":1767132666,"current_range_meters":16400,"station_id":"ce4bhk92rcd13ifvqgb0","pricing_plan_id":"cebpf4jnsgd1na2vs0mg"},{"bike_id":"5a24ebdf-e074-4fad-9347-7af5dcf172a0","system_id":"levelo_inurba_marseille","lat":43.29336,"lon":5.37183,"is_reserved":false,"is_disabled":false,"rental_uris":{"android":"levelo://app?vid=5a24ebdf-e074-4fad-9347-7af5dcf172a0","ios":"levelo://app?vid=5a24ebdf-e074-4fad-9347-7af5dcf172a0"},"vehicle_type_id":"4","last_reported":1767132666,"current_range_meters":16400,"station_id":"ce4bgh92rcd13ifvqb40","pricing_plan_id":"cebpf4jnsgd1na2vs0mg"},{"bike_id":"79b5f154-7cc7-44e6-a387-d261a3ea65b3","system_id":"levelo_inurba_marseille","lat":43.29848,"lon":5.362912,"is_reserved":false,"is_disabled":false,"rental_uris":{"android":"levelo://app?vid=79b5f154-7cc7-44e6-a387-d261a3ea65b3","ios":"levelo://app?vid=79b5f154-7cc7-44e6-a387-d261a3ea65b3"},"vehicle_type_id":"4","last_reported":1767132666,"current_range_meters":16400,"station_id":"ce4bgpp2rcd13ifvqc3g","pricing_plan_id":"cebpf4jnsgd1na2vs0mg"},{"bike_id":"e422d1e6-989b-48c2-be56-4107da9ba332","system_id":"levelo_inurba_marseille","lat":43.32104,"lon":5.3683,"is_reserved":false,"is_disabled":false,"rental_uris":{"android":"levelo://app?vid=e422d1e6-989b-48c2-be56-4107da9ba332","ios":"levelo://app?vid=e422d1e6-989b-48c2-be56-4107da9ba332"},"vehicle_type_id":"4","last_reported":1767132666,"current_range_meters":16400,"station_id":"ce4bhrh2rcd13ifvqhug","pricing_plan_id":"cebpf4jnsgd1na2vs0mg"},{"bike_id":"13685f43-1754-483c-bb4a-6ca7a26a0572","system_id":"levelo_inurba_marseille","lat":43.27066,"lon":5.38304,"is_reserved":false,"is_disabled":false,"rental_uris":{"android":"levelo://app?vid=13685f43-1754-483c-bb4a-6ca7a26a0572","ios":"levelo://app?vid=13685f43-1754-483c-bb4a-6ca7a26a0572"},"vehicle_type_id":"4","last_reported":1767132666,"current_range_meters":16400,"station_id":"st_d3n2fo6cfp8s73cte1j0","pricing_plan_id":"cebpf4jnsgd1na2vs0mg"},{"bike_id":"6c79615e-7c83-42c4-a9b0-fc804106b119","system_id":"levelo_inurba_marseille","lat":43.3055,"lon":5.36532,"is_reserved":false,"is_disabled":false,"rental_uris":{"android":"levelo://app?vid=6c79615e-7c83-42c4-a9b0-fc804106b119","ios":"levelo://app?vid=6c79615e-7c83-42c4-a9b0-fc804106b119"},"vehicle_type_id":"4","last_reported":1767132666,"current_range_meters":16400,"station_id":"ce4bgs12rcd13ifvqcag","pricing_plan_id":"cebpf4jnsgd1na2vs0mg"},{"bike_id":"a8bf7206-098c-478f-955b-acfde0129a73","system_id":"levelo_inurba_marseille","lat":43.29999,"lon":5.37166,"is_reserved":false,"is_disabled":false,"rental_uris":{"android":"levelo://app?vid=a8bf7206-098c-478f-955b-acfde0129a73","ios":"levelo://app?vid=a8bf7206-098c-478f-955b-acfde0129a73"},"vehicle_type_id":"4","last_reported":1767132666,"current_range_meters":16400,"station_id":"ce4bgr92rcd13ifvqc7g","pricing_plan_id":"cebpf4jnsgd1na2vs0mg"},{"bike_id":"a770eb5f-2a92-46a3-b6fe-450aef9acb4a","system_id":"levelo_inurba_marseille","lat":43.301268,"lon":5.431129,"is_reserved":false,"is_disabled":false,"rental_uris":{"android":"levelo://app?vid=a770eb5f-2a92-46a3-b6fe-450aef9acb4a","ios":"levelo://app?vid=a770eb5f-2a92-46a3-b6fe-450aef9acb4a"},"vehicle_type_id":"4","last_reported":1767132666,"current_range_meters":16400,"station_id":"st_d3js3co5814s73ftftug","pricing_plan_id":"cebpf4jnsgd1na2vs0mg"},{"bike_id":"b5f80a1c-7345-44ae-9c2d-843287ace1f8","system_id":"levelo_inurba_marseille","lat":43.27441,"lon":5.42408,"is_reserved":false,"is_disabled":false,"rental_uris":{"android":"levelo://app?vid=b5f80a1c-7345-44ae-9c2d-843287ace1f8","ios":"levelo://app?vid=b5f80a1c-7345-44ae-9c2d-843287ace1f8"},"vehicle_type_id":"4","last_reported":1767132666,"current_range_meters":16400,"station_id":"","pricing_plan_id":"cebpf4jnsgd1na2vs0mg"},{"bike_id":"6bc1b359-3312-46fe-b4be-74e585c45cbe","system_id":"levelo_inurba_marseille","lat":43.28618,"lon":5.351018,"is_reserved":false,"is_disabled":false,"rental_uris":{"android":"levelo://app?vid=6bc1b359-3312-46fe-b4be-74e585c45cbe","ios":"levelo://app?vid=6bc1b359-3312-46fe-b4be-74e585c45cbe"},"vehicle_type_id":"4","last_reported":1767132666,"current_range_meters":16400,"station_id":"ce4bhch2rcd13ifvqeug","pricing_plan_id":"cebpf4jnsgd1na2vs0mg"},{"bike_id":"35d1fc62-8dbc-44dc-8aaa-debb1f53ad2c","system_id":"levelo_inurba_marseille","lat":43.25101,"lon":5.40323,"is_reserved":false,"is_disabled":false,"rental_uris":{"android":"levelo://app?vid=35d1fc62-8dbc-44dc-8aaa-debb1f53ad2c","ios":"levelo://app?vid=35d1fc62-8dbc-44dc-8aaa-debb1f53ad2c"},"vehicle_type_id":"4","last_reported":1767132666,"current_range_meters":16400,"station_id":"ce4bhlh2rcd13ifvqgig","pricing_plan_id":"cebpf4jnsgd1na2vs0mg"},{"bike_id":"94e16f28-7dcf-4273-940d-294336091110","system_id":"levelo_inurba_marseille","lat":43.2954,"lon":5.38135,"is_reserved":false,"is_disabled":false,"rental_uris":{"android":"levelo://app?vid=94e16f28-7dcf-4273-940d-294336091110","ios":"levelo://app?vid=94e16f28-7dcf-4273-940d-294336091110"},"vehicle_type_id":"4","last_reported":1767132666,"current_range_meters":16400,"station_id":"","pricing_plan_id":"cebpf4jnsgd1na2vs0mg"},{"bike_id":"de5bb8d4-30b7-4421-b0c8-9ea20109ca1c","system_id":"levelo_inurba_marseille","lat":43.24648,"lon":5.38909,"is_reserved":false,"is_disabled":false,"rental_uris":{"android":"levelo://app?vid=de5bb8d4-30b7-4421-b0c8-9ea20109ca1c","ios":"levelo://app?vid=de5bb8d4-30b7-4421-b0c8-9ea20109ca1c"},"vehicle_type_id":"4","last_reported":1767132666,"current_range_meters":16400,"station_id":"ce4bhg12rcd13ifvqf60","pricing_plan_id":"cebpf4jnsgd1na2vs0mg"},{"bike_id":"2992a21e-a04a-49aa-9b5e-a58333e978d9","system_id":"levelo_inurba_marseille","lat":43.23815,"lon":5.36651,"is_reserved":false,"is_disabled":false,"rental_uris":{"android":"levelo://app?vid=2992a21e-a04a-49aa-9b5e-a58333e978d9","ios":"levelo://app?vid=2992a21e-a04a-49aa-9b5e-a58333e978d9"},"vehicle_type_id":"4","last_reported":1767132666,"current_range_meters":16400,"station_id":"st_d3nk18o9ro0c73en2l3g","pricing_plan_id":"cebpf4jnsgd1na2vs0mg"},{"bike_id":"a84afd0a-908a-4157-8314-d7fd13e08fd8","system_id":"levelo_inurba_marseille","lat":43.28889,"lon":5.42522,"is_reserved":false,"is_disabled":false,"rental_uris":{"android":"levelo://app?vid=a84afd0a-908a-4157-8314-d7fd13e08fd8","ios":"levelo://app?vid=a84afd0a-908a-4157-8314-d7fd13e08fd8"},"vehicle_type_id":"4","last_reported":1767132666,"current_range_meters":16400,"station_id":"st_d3b462108ojc7389ooeg","pricing_plan_id":"cebpf4jnsgd1na2vs0mg"},{"bike_id":"db6d28d9-a96d-4c87-9186-bc8fab9306f5","system_id":"levelo_inurba_marseille","lat":43.28085,"lon":5.40665,"is_reserved":false,"is_disabled":false,"rental_uris":{"android":"levelo://app?vid=db6d28d9-a96d-4c87-9186-bc8fab9306f5","ios":"levelo://app?vid=db6d28d9-a96d-4c87-9186-bc8fab9306f5"},"vehicle_type_id":"4","last_reported":1767132666,"current_range_meters":16400,"station_id":"","pricing_plan_id":"cebpf4jnsgd1na2vs0mg"},{"bike_id":"d6ce17ed-76cf-4a7d-94d0-756c8e660812","system_id":"levelo_inurba_marseille","lat":43.29273,"lon":5.40141,"is_reserved":false,"is_disabled":false,"rental_uris":{"android":"levelo://app?vid=d6ce17ed-76cf-4a7d-94d0-756c8e660812","ios":"levelo://app?vid=d6ce17ed-76cf-4a7d-94d0-756c8e660812"},"vehicle_type_id":"4","last_reported":1767132666,"current_range_meters":16400,"station_id":"ce4bh312rcd13ifvqdk0","pricing_plan_id":"cebpf4jnsgd1na2vs0mg"},{"bike_id":"6895ecdd-1253-423c-93ba-1d2572fa6898","system_id":"levelo_inurba_marseille","lat":43.27047,"lon":5.38289,"is_reserved":false,"is_disabled":false,"rental_uris":{"android":"levelo://app?vid=6895ecdd-1253-423c-93ba-1d2572fa6898","ios":"levelo://app?vid=6895ecdd-1253-423c-93ba-1d2572fa6898"},"vehicle_type_id":"4","last_reported":1767132666,"current_range_meters":16800,"station_id":"st_d3n2fo6cfp8s73cte1j0","pricing_plan_id":"cebpf4jnsgd1na2vs0mg"},{"bike_id":"14d851ab-a12d-4956-a0aa-19036330573c","system_id":"levelo_inurba_marseille","lat":43.31113,"lon":5.3674,"is_reserved":false,"is_disabled":false,"rental_uris":{"android":"levelo://app?vid=14d851ab-a12d-4956-a0aa-19036330573c","ios":"levelo://app?vid=14d851ab-a12d-4956-a0aa-19036330573c"},"vehicle_type_id":"4","last_reported":1767132666,"current_range_meters":16800,"station_id":"ce4bgl92rcd13ifvqbq0","pricing_plan_id":"cebpf4jnsgd1na2vs0mg"},{"bike_id":"ff8864c8-a009-4638-8215-25cbc945ccbf","system_id":"levelo_inurba_marseille","lat":43.31379,"lon":5.36759,"is_reserved":false,"is_disabled":false,"rental_uris":{"android":"levelo://app?vid=ff8864c8-a009-4638-8215-25cbc945ccbf","ios":"levelo://app?vid=ff8864c8-a009-4638-8215-25cbc945ccbf"},"vehicle_type_id":"4","last_reported":1767132666,"current_range_meters":16800,"station_id":"","pricing_plan_id":"cebpf4jnsgd1na2vs0mg"},{"bike_id":"29c0e820-a6f7-4fcd-ba20-c0308f003eb5","system_id":"levelo_inurba_marseille","lat":43.28725,"lon":5.36083,"is_reserved":false,"is_disabled":false,"rental_uris":{"android":"levelo://app?vid=29c0e820-a6f7-4fcd-ba20-c0308f003eb5","ios":"levelo://app?vid=29c0e820-a6f7-4fcd-ba20-c0308f003eb5"},"vehicle_type_id":"4","last_reported":1767132666,"current_range_meters":16800,"station_id":"cki0cbj6b192h4jlfktg","pricing_plan_id":"cebpf4jnsgd1na2vs0mg"},{"bike_id":"6adf5b20-6c8e-4364-8581-e798da9b4570","system_id":"levelo_inurba_marseille","lat":43.28531,"lon":5.4412,"is_reserved":false,"is_disabled":false,"rental_uris":{"android":"levelo://app?vid=6adf5b20-6c8e-4364-8581-e798da9b4570","ios":"levelo://app?vid=6adf5b20-6c8e-4364-8581-e798da9b4570"},"vehicle_type_id":"4","last_reported":1767132666,"current_range_meters":16800,"station_id":"st_d3j3df2ikq2c7380ej80","pricing_plan_id":"cebpf4jnsgd1na2vs0mg"},{"bike_id":"7c57049e-83de-47ce-ba02-437a95b3ba3a","system_id":"levelo_inurba_marseille","lat":43.30533,"lon":5.36559,"is_reserved":false,"is_disabled":false,"rental_uris":{"android":"levelo://app?vid=7c57049e-83de-47ce-ba02-437a95b3ba3a","ios":"levelo://app?vid=7c57049e-83de-47ce-ba02-437a95b3ba3a"},"vehicle_type_id":"4","last_reported":1767132666,"current_range_meters":16800,"station_id":"ce4bgs12rcd13ifvqcag","pricing_plan_id":"cebpf4jnsgd1na2vs0mg"},{"bike_id":"4b33b5cb-7bec-4712-9fcc-36239248ffed","system_id":"levelo_inurba_marseille","lat":43.27115,"lon":5.39215,"is_reserved":false,"is_disabled":false,"rental_uris":{"android":"levelo://app?vid=4b33b5cb-7bec-4712-9fcc-36239248ffed","ios":"levelo://app?vid=4b33b5cb-7bec-4712-9fcc-36239248ffed"},"vehicle_type_id":"4","last_reported":1767132666,"current_range_meters":16800,"station_id":"","pricing_plan_id":"cebpf4jnsgd1na2vs0mg"},{"bike_id":"0788e991-1623-4154-b614-e1261a941949","system_id":"levelo_inurba_marseille","lat":43.31291,"lon":5.37398,"is_reserved":false,"is_disabled":false,"rental_uris":{"android":"levelo://app?vid=0788e991-1623-4154-b614-e1261a941949","ios":"levelo://app?vid=0788e991-1623-4154-b614-e1261a941949"},"vehicle_type_id":"4","last_reported":1767132666,"current_range_meters":16800,"station_id":"","pricing_plan_id":"cebpf4jnsgd1na2vs0mg"},{"bike_id":"b1887274-97d2-4826-a892-fa322fd96cd4","system_id":"levelo_inurba_marseille","lat":43.27066,"lon":5.40259,"is_reserved":false,"is_disabled":false,"rental_uris":{"android":"levelo://app?vid=b1887274-97d2-4826-a892-fa322fd96cd4","ios":"levelo://app?vid=b1887274-97d2-4826-a892-fa322fd96cd4"},"vehicle_type_id":"4","last_reported":1767132666,"current_range_meters":16800,"station_id":"ce4bhk92rcd13ifvqgc0","pricing_plan_id":"cebpf4jnsgd1na2vs0mg"},{"bike_id":"a02fb672-5bdf-46c8-9fc1-e8fcbc8dc4d2","system_id":"levelo_inurba_marseille","lat":43.30325,"lon":5.38644,"is_reserved":false,"is_disabled":false,"rental_uris":{"android":"levelo://app?vid=a02fb672-5bdf-46c8-9fc1-e8fcbc8dc4d2","ios":"levelo://app?vid=a02fb672-5bdf-46c8-9fc1-e8fcbc8dc4d2"},"vehicle_type_id":"4","last_reported":1767132666,"current_range_meters":16800,"station_id":"","pricing_plan_id":"cebpf4jnsgd1na2vs0mg"},{"bike_id":"188c4151-53dd-4bab-95bc-e5bcb3b9b1d7","system_id":"levelo_inurba_marseille","lat":43.28847,"lon":5.35876,"is_reserved":false,"is_disabled":false,"rental_uris":{"android":"levelo://app?vid=188c4151-53dd-4bab-95bc-e5bcb3b9b1d7","ios":"levelo://app?vid=188c4151-53dd-4bab-95bc-e5bcb3b9b1d7"},"vehicle_type_id":"4","last_reported":1767132666,"current_range_meters":16800,"station_id":"ce4bhb12rcd13ifvqem0","pricing_plan_id":"cebpf4jnsgd1na2vs0mg"},{"bike_id":"cda1f6ab-e0ee-4786-9e08-c7bcb481ee5b","system_id":"levelo_inurba_marseille","lat":43.29605,"lon":5.38105,"is_reserved":false,"is_disabled":false,"rental_uris":{"android":"levelo://app?vid=cda1f6ab-e0ee-4786-9e08-c7bcb481ee5b","ios":"levelo://app?vid=cda1f6ab-e0ee-4786-9e08-c7bcb481ee5b"},"vehicle_type_id":"4","last_reported":1767132666,"current_range_meters":16800,"station_id":"ce4bgl12rcd13ifvqbo0","pricing_plan_id":"cebpf4jnsgd1na2vs0mg"},{"bike_id":"2e432000-19e4-474b-acb8-4742408d8ecf","system_id":"levelo_inurba_marseille","lat":43.29664,"lon":5.37965,"is_reserved":false,"is_disabled":false,"rental_uris":{"android":"levelo://app?vid=2e432000-19e4-474b-acb8-4742408d8ecf","ios":"levelo://app?vid=2e432000-19e4-474b-acb8-4742408d8ecf"},"vehicle_type_id":"4","last_reported":1767132666,"current_range_meters":16800,"station_id":"","pricing_plan_id":"cebpf4jnsgd1na2vs0mg"},{"bike_id":"26094f9b-f215-4a98-835e-c1de06abce2d","system_id":"levelo_inurba_marseille","lat":43.28351,"lon":5.38106,"is_reserved":false,"is_disabled":false,"rental_uris":{"android":"levelo://app?vid=26094f9b-f215-4a98-835e-c1de06abce2d","ios":"levelo://app?vid=26094f9b-f215-4a98-835e-c1de06abce2d"},"vehicle_type_id":"4","last_reported":1767132666,"current_range_meters":16800,"station_id":"ce4bh412rcd13ifvqdr0","pricing_plan_id":"cebpf4jnsgd1na2vs0mg"},{"bike_id":"6f9bc252-0b2a-4d1f-adab-77840c8cb67c","system_id":"levelo_inurba_marseille","lat":43.29296,"lon":5.37493,"is_reserved":false,"is_disabled":false,"rental_uris":{"android":"levelo://app?vid=6f9bc252-0b2a-4d1f-adab-77840c8cb67c","ios":"levelo://app?vid=6f9bc252-0b2a-4d1f-adab-77840c8cb67c"},"vehicle_type_id":"4","last_reported":1767132666,"current_range_meters":16800,"station_id":"ce4bgi12rcd13ifvqb70","pricing_plan_id":"cebpf4jnsgd1na2vs0mg"},{"bike_id":"71feabac-18bb-4c38-9f1c-553d18ed10d6","system_id":"levelo_inurba_marseille","lat":43.29603,"lon":5.37178,"is_reserved":false,"is_disabled":false,"rental_uris":{"android":"levelo://app?vid=71feabac-18bb-4c38-9f1c-553d18ed10d6","ios":"levelo://app?vid=71feabac-18bb-4c38-9f1c-553d18ed10d6"},"vehicle_type_id":"4","last_reported":1767132666,"current_range_meters":16800,"station_id":"ce4bgnh2rcd13ifvqc0g","pricing_plan_id":"cebpf4jnsgd1na2vs0mg"},{"bike_id":"12b51be5-14c8-42aa-8e8a-9b4b05e28707","system_id":"levelo_inurba_marseille","lat":43.2795,"lon":5.41035,"is_reserved":false,"is_disabled":false,"rental_uris":{"android":"levelo://app?vid=12b51be5-14c8-42aa-8e8a-9b4b05e28707","ios":"levelo://app?vid=12b51be5-14c8-42aa-8e8a-9b4b05e28707"},"vehicle_type_id":"4","last_reported":1767132666,"current_range_meters":16800,"station_id":"ce4bhnp2rcd13ifvqh0g","pricing_plan_id":"cebpf4jnsgd1na2vs0mg"},{"bike_id":"cb58c1f9-8932-4f07-924e-e72dc919481d","system_id":"levelo_inurba_marseille","lat":43.3056,"lon":5.3654,"is_reserved":false,"is_disabled":false,"rental_uris":{"android":"levelo://app?vid=cb58c1f9-8932-4f07-924e-e72dc919481d","ios":"levelo://app?vid=cb58c1f9-8932-4f07-924e-e72dc919481d"},"vehicle_type_id":"4","last_reported":1767132666,"current_range_meters":16800,"station_id":"ce4bgs12rcd13ifvqcag","pricing_plan_id":"cebpf4jnsgd1na2vs0mg"},{"bike_id":"f387d21b-fc36-4917-b561-7d2bfcf6e9fb","system_id":"levelo_inurba_marseille","lat":43.29617,"lon":5.37713,"is_reserved":false,"is_disabled":false,"rental_uris":{"android":"levelo://app?vid=f387d21b-fc36-4917-b561-7d2bfcf6e9fb","ios":"levelo://app?vid=f387d21b-fc36-4917-b561-7d2bfcf6e9fb"},"vehicle_type_id":"4","last_reported":1767132666,"current_range_meters":16800,"station_id":"ce4bgi92rcd13ifvqb90","pricing_plan_id":"cebpf4jnsgd1na2vs0mg"},{"bike_id":"5282cfb6-e073-406b-b158-1f02eb8df396","system_id":"levelo_inurba_marseille","lat":43.31322,"lon":5.39722,"is_reserved":false,"is_disabled":false,"rental_uris":{"android":"levelo://app?vid=5282cfb6-e073-406b-b158-1f02eb8df396","ios":"levelo://app?vid=5282cfb6-e073-406b-b158-1f02eb8df396"},"vehicle_type_id":"4","last_reported":1767132666,"current_range_meters":16800,"station_id":"ce4bgvp2rcd13ifvqcu0","pricing_plan_id":"cebpf4jnsgd1na2vs0mg"},{"bike_id":"734cfc50-a822-4d00-870d-4782939034f5","system_id":"levelo_inurba_marseille","lat":43.30765,"lon":5.37653,"is_reserved":false,"is_disabled":false,"rental_uris":{"android":"levelo://app?vid=734cfc50-a822-4d00-870d-4782939034f5","ios":"levelo://app?vid=734cfc50-a822-4d00-870d-4782939034f5"},"vehicle_type_id":"4","last_reported":1767132666,"current_range_meters":17200,"station_id":"ce4bgv92rcd13ifvqcq0","pricing_plan_id":"cebpf4jnsgd1na2vs0mg"},{"bike_id":"5ec5f671-59c3-4ecd-9999-1ced96b35817","system_id":"levelo_inurba_marseille","lat":43.24174,"lon":5.36429,"is_reserved":false,"is_disabled":false,"rental_uris":{"android":"levelo://app?vid=5ec5f671-59c3-4ecd-9999-1ced96b35817","ios":"levelo://app?vid=5ec5f671-59c3-4ecd-9999-1ced96b35817"},"vehicle_type_id":"4","last_reported":1767132666,"current_range_meters":17200,"station_id":"cpo36qri1sfpv3e86is0","pricing_plan_id":"cebpf4jnsgd1na2vs0mg"},{"bike_id":"6c187ac8-3b81-45f9-b830-d0ae3b36e5ab","system_id":"levelo_inurba_marseille","lat":43.24484,"lon":5.42533,"is_reserved":false,"is_disabled":false,"rental_uris":{"android":"levelo://app?vid=6c187ac8-3b81-45f9-b830-d0ae3b36e5ab","ios":"levelo://app?vid=6c187ac8-3b81-45f9-b830-d0ae3b36e5ab"},