{"last_updated":1701007538,"ttl":30,"version":"2.2","data":{"bikes":[{"bike_id":"9b2805a4-3569-401a-b80e-08642aefdc93","system_id":"levelo_inurba_marseille","lat":43.309039,"lon":5.371797,"is_reserved":false,"is_disabled":false,"rental_uris":{"android":"levelo://app?vid=9b2805a4-3569-401a-b80e-08642aefdc93","ios":"levelo://app?vid=9b2805a4-3569-401a-b80e-08642aefdc93"},"vehicle_type_id":"4","last_reported":1701007538,"current_range_meters":28800,"station_id":"ce4bguh2rcd13ifvqckg","pricing_plan_id":"free"},{"bike_id":"9241c95e-e1c5-4741-8f65-626b44be5f5b","system_id":"levelo_inurba_marseille","lat":43.30549,"lon":5.36558,"is_reserved":false,"is_disabled":false,"rental_uris":{"android":"levelo://app?vid=9241c95e-e1c5-4741-8f65-626b44be5f5b","ios":"levelo://app?vid=9241c95e-e1c5-4741-8f65-626b44be5f5b"},"vehicle_type_id":"4","last_reported":1701007538,"current_range_meters":18000,"station_id":"ce4bgs12rcd13ifvqcag","pricing_plan_id":"free"},{"bike_id":"74b395fc-2efa-4fab-b8b8-55392545e26d","system_id":"levelo_inurba_marseille","lat":43.305714,"lon":5.365633,"is_reserved":false,"is_disabled":false,"rental_uris":{"android":"levelo://app?vid=74b395fc-2efa-4fab-b8b8-55392545e26d","ios":"levelo://app?vid=74b395fc-2efa-4fab-b8b8-55392545e26d"},"vehicle_type_id":"4","last_reported":1701007538,"current_range_meters":11200,"station_id":"ce4bgs12rcd13ifvqcag","pricing_plan_id":"free"},{"bike_id":"7804473a-f1d7-4d55-9fcc-84372a3d787c","system_id":"levelo_inurba_marseille","lat":43.30545,"lon":5.365389,"is_reserved":false,"is_disabled":false,"rental_uris":{"android":"levelo://app?vid=7804473a-f1d7-4d55-9fcc-84372a3d787c","ios":"levelo://app?vid=7804473a-f1d7-4d55-9fcc-84372a3d787c"},"vehicle_type_id":"4","last_reported":1701007538,"current_range_meters":17200,"station_id":"","pricing_plan_id":"free"},{"bike_id":"1224a1d6-507f-4c85-aa84-5333711b002e","system_id":"levelo_inurba_marseille","lat":43.305714,"lon":5.365633,"is_reserved":false,"is_disabled":false,"rental_uris":{"android":"levelo://app?vid=1224a1d6-507f-4c85-aa84-5333711b002e","ios":"levelo://app?vid=1224a1d6-507f-4c85-aa84-5333711b002e"},"vehicle_type_id":"4","last_reported":1701007538,"current_range_meters":18800,"station_id":"ce4bgs12rcd13ifvqcag","pricing_plan_id":"free"},{"bike_id":"c288b535-f2f8-433c-87a0-50283cc5cc81","system_id":"levelo_inurba_marseille","lat":43.30585,"lon":5.37229,"is_reserved":false,"is_disabled":false,"rental_uris":{"android":"levelo://app?vid=c288b535-f2f8-433c-87a0-50283cc5cc81","ios":"levelo://app?vid=c288b535-f2f8-433c-87a0-50283cc5cc81"},"vehicle_type_id":"4","last_reported":1701007538,"current_range_meters":16000,"station_id":"ce4bgqh2rcd13ifvqc4g","pricing_plan_id":"free"},{"bike_id":"573a870a-b6c4-429d-8587-8103772b84bc","system_id":"levelo_inurba_marseille","lat":43.308199,"lon":5.376602,"is_reserved":false,"is_disabled":false,"rental_uris":{"android":"levelo://app?vid=573a870a-b6c4-429d-8587-8103772b84bc","ios":"levelo://app?vid=573a870a-b6c4-429d-8587-8103772b84bc"},"vehicle_type_id":"4","last_reported":1701007538,"current_range_meters":400,"station_id":"ce4bgv92rcd13ifvqcq0","pricing_plan_id":"free"},{"bike_id":"f427a2c3-6e4a-446b-ae2f-9be8aa7f4122","system_id":"levelo_inurba_marseille","lat":43.31719,"lon":5.376813,"is_reserved":false,"is_disabled":false,"rental_uris":{"android":"levelo://app?vid=f427a2c3-6e4a-446b-ae2f-9be8aa7f4122","ios":"levelo://app?vid=f427a2c3-6e4a-446b-ae2f-9be8aa7f4122"},"vehicle_type_id":"4","last_reported":1701007538,"current_range_meters":20800,"station_id":"ce4bgth2rcd13ifvqch0","pricing_plan_id":"free"},{"bike_id":"b898b018-f57d-4901-bab2-fdd15d391de9","system_id":"levelo_inurba_marseille","lat":43.317168,"lon":5.376883,"is_reserved":false,"is_disabled":false,"rental_uris":{"android":"levelo://app?vid=b898b018-f57d-4901-bab2-fdd15d391de9","ios":"levelo://app?vid=b898b018-f57d-4901-bab2-fdd15d391de9"},"vehicle_type_id":"4","last_reported":1701007538,"current_range_meters":23200,"station_id":"ce4bgth2rcd13ifvqch0","pricing_plan_id":"free"},{"bike_id":"4bdacffb-3018-4dde-b2fa-66b23f09e7ce","system_id":"levelo_inurba_marseille","lat":43.30776,"lon":5.37658,"is_reserved":false,"is_disabled":false,"rental_uris":{"android":"levelo://app?vid=4bdacffb-3018-4dde-b2fa-66b23f09e7ce","ios":"levelo://app?vid=4bdacffb-3018-4dde-b2fa-66b23f09e7ce"},"vehicle_type_id":"4","last_reported":1701007538,"current_range_meters":6800,"station_id":"ce4bgv92rcd13ifvqcq0","pricing_plan_id":"free"},{"bike_id":"abd62971-3c7a-4496-b9c3-a6946caf96dc","system_id":"levelo_inurba_marseille","lat":43.30136,"lon":5.3741,"is_reserved":false,"is_disabled":false,"rental_uris":{"android":"levelo://app?vid=abd62971-3c7a-4496-b9c3-a6946caf96dc","ios":"levelo://app?vid=abd62971-3c7a-4496-b9c3-a6946caf96dc"},"vehicle_type_id":"4","last_reported":1701007538,"current_range_meters":800,"station_id":"ce4bgs92rcd13ifvqcc0","pricing_plan_id":"free"},{"bike_id":"37b33645-89d7-4706-ad67-8561aeaa3082","system_id":"levelo_inurba_marseille","lat":43.31361,"lon":5.38501,"is_reserved":false,"is_disabled":false,"rental_uris":{"android":"levelo://app?vid=37b33645-89d7-4706-ad67-8561aeaa3082","ios":"levelo://app?vid=37b33645-89d7-4706-ad67-8561aeaa3082"},"vehicle_type_id":"4","last_reported":1701007538,"current_range_meters":0,"station_id":"ce4bgt92rcd13ifvqcf0","pricing_plan_id":"free"},{"bike_id":"940589ea-bc29-4175-9576-f538f32aa29e","system_id":"levelo_inurba_marseille","lat":43.299222,"lon":5.365554,"is_reserved":false,"is_disabled":false,"rental_uris":{"android":"levelo://app?vid=940589ea-bc29-4175-9576-f538f32aa29e","ios":"levelo://app?vid=940589ea-bc29-4175-9576-f538f32aa29e"},"vehicle_type_id":"4","last_reported":1701007538,"current_range_meters":18800,"station_id":"ce4bgm92rcd13ifvqbr0","pricing_plan_id":"free"},{"bike_id":"33999002-3c6e-442a-9b9f-15b0836ea8f8","system_id":"levelo_inurba_marseille","lat":43.298433,"lon":5.362774,"is_reserved":false,"is_disabled":false,"rental_uris":{"android":"levelo://app?vid=33999002-3c6e-442a-9b9f-15b0836ea8f8","ios":"levelo://app?vid=33999002-3c6e-442a-9b9f-15b0836ea8f8"},"vehicle_type_id":"4","last_reported":1701007538,"current_range_meters":12000,"station_id":"ce4bgpp2rcd13ifvqc3g","pricing_plan_id":"free"},{"bike_id":"b6d48f0a-6202-4c2a-a380-08bf07564281","system_id":"levelo_inurba_marseille","lat":43.299243,"lon":5.374807,"is_reserved":false,"is_disabled":false,"rental_uris":{"android":"levelo://app?vid=b6d48f0a-6202-4c2a-a380-08bf07564281","ios":"levelo://app?vid=b6d48f0a-6202-4c2a-a380-08bf07564281"},"vehicle_type_id":"4","last_reported":1701007538,"current_range_meters":20400,"station_id":"ce4bgjh2rcd13ifvqbg0","pricing_plan_id":"free"},{"bike_id":"96c40cce-8777-45d0-8c71-2e3356166b08","system_id":"levelo_inurba_marseille","lat":43.298433,"lon":5.362774,"is_reserved":false,"is_disabled":false,"rental_uris":{"android":"levelo://app?vid=96c40cce-8777-45d0-8c71-2e3356166b08","ios":"levelo://app?vid=96c40cce-8777-45d0-8c71-2e3356166b08"},"vehicle_type_id":"4","last_reported":1701007538,"current_range_meters":2000,"station_id":"ce4bgpp2rcd13ifvqc3g","pricing_plan_id":"free"},{"bike_id":"c913ac7b-37b8-443f-a6f0-16a5216bb6f8","system_id":"levelo_inurba_marseille","lat":43.311722,"lon":5.387247,"is_reserved":false,"is_disabled":false,"rental_uris":{"android":"levelo://app?vid=c913ac7b-37b8-443f-a6f0-16a5216bb6f8","ios":"levelo://app?vid=c913ac7b-37b8-443f-a6f0-16a5216bb6f8"},"vehicle_type_id":"4","last_reported":1701007538,"current_range_meters":19600,"station_id":"ce4bgv12rcd13ifvqcp0","pricing_plan_id":"free"},{"bike_id":"1dae25d5-4149-42e4-be97-a93d9293de7a","system_id":"levelo_inurba_marseille","lat":43.297794,"lon":5.370888,"is_reserved":false,"is_disabled":false,"rental_uris":{"android":"levelo://app?vid=1dae25d5-4149-42e4-be97-a93d9293de7a","ios":"levelo://app?vid=1dae25d5-4149-42e4-be97-a93d9293de7a"},"vehicle_type_id":"4","last_reported":1701007538,"current_range_meters":17600,"station_id":"ce4bgop2rcd13ifvqc1g","pricing_plan_id":"free"},{"bike_id":"34164f7c-69e1-4fd5-a41f-1a3410a64f2c","system_id":"levelo_inurba_marseille","lat":43.297794,"lon":5.370888,"is_reserved":false,"is_disabled":false,"rental_uris":{"android":"levelo://app?vid=34164f7c-69e1-4fd5-a41f-1a3410a64f2c","ios":"levelo://app?vid=34164f7c-69e1-4fd5-a41f-1a3410a64f2c"},"vehicle_type_id":"4","last_reported":1701007538,"current_range_meters":14400,"station_id":"ce4bgop2rcd13ifvqc1g","pricing_plan_id":"free"},{"bike_id":"558c3349-e1f3-465d-a235-73e7a8148c3c","system_id":"levelo_inurba_marseille","lat":43.297774,"lon":5.370875,"is_reserved":false,"is_disabled":false,"rental_uris":{"android":"levelo://app?vid=558c3349-e1f3-465d-a235-73e7a8148c3c","ios":"levelo://app?vid=558c3349-e1f3-465d-a235-73e7a8148c3c"},"vehicle_type_id":"4","last_reported":1701007538,"current_range_meters":3600,"station_id":"ce4bgop2rcd13ifvqc1g","pricing_plan_id":"free"},{"bike_id":"4a85baf9-a7b8-4491-a6d2-88419e091764","system_id":"levelo_inurba_marseille","lat":43.297163,"lon":5.365866,"is_reserved":false,"is_disabled":false,"rental_uris":{"android":"levelo://app?vid=4a85baf9-a7b8-4491-a6d2-88419e091764","ios":"levelo://app?vid=4a85baf9-a7b8-4491-a6d2-88419e091764"},"vehicle_type_id":"4","last_reported":1701007538,"current_range_meters":2800,"station_id":"ce4bgn12rcd13ifvqbt0","pricing_plan_id":"free"},{"bike_id":"95553aa8-c7f6-4f2a-a549-8e20097217b3","system_id":"levelo_inurba_marseille","lat":43.2968,"lon":5.37291,"is_reserved":false,"is_disabled":false,"rental_uris":{"android":"levelo://app?vid=95553aa8-c7f6-4f2a-a549-8e20097217b3","ios":"levelo://app?vid=95553aa8-c7f6-4f2a-a549-8e20097217b3"},"vehicle_type_id":"4","last_reported":1701007538,"current_range_meters":0,"station_id":"ce4bgk12rcd13ifvqbj0","pricing_plan_id":"free"},{"bike_id":"3f7a6e41-ede6-4f72-9bb1-b77c081a8e55","system_id":"levelo_inurba_marseille","lat":43.30948,"lon":5.39025,"is_reserved":false,"is_disabled":false,"rental_uris":{"android":"levelo://app?vid=3f7a6e41-ede6-4f72-9bb1-b77c081a8e55","ios":"levelo://app?vid=3f7a6e41-ede6-4f72-9bb1-b77c081a8e55"},"vehicle_type_id":"4","last_reported":1701007538,"current_range_meters":19200,"station_id":"ce4bgv92rcd13ifvqcq0","pricing_plan_id":"free"},{"bike_id":"d093bd50-5391-42fd-bbab-ebc3818c1d82","system_id":"levelo_inurba_marseille","lat":43.301117,"lon":5.398795,"is_reserved":false,"is_disabled":false,"rental_uris":{"android":"levelo://app?vid=d093bd50-5391-42fd-bbab-ebc3818c1d82","ios":"levelo://app?vid=d093bd50-5391-42fd-bbab-ebc3818c1d82"},"vehicle_type_id":"4","last_reported":1701007538,"current_range_meters":21200,"station_id":"ce4bh0h2rcd13ifvqd40","pricing_plan_id":"free"},{"bike_id":"72e5da74-178a-42b2-8b4b-e0c181738341","system_id":"levelo_inurba_marseille","lat":43.295748,"lon":5.37522,"is_reserved":false,"is_disabled":false,"rental_uris":{"android":"levelo://app?vid=72e5da74-178a-42b2-8b4b-e0c181738341","ios":"levelo://app?vid=72e5da74-178a-42b2-8b4b-e0c181738341"},"vehicle_type_id":"4","last_reported":1701007538,"current_range_meters":800,"station_id":"ce4bgh92rcd13ifvqb50","pricing_plan_id":"free"},{"bike_id":"248ccf32-6b80-4407-a28a-f614d336a6b5","system_id":"levelo_inurba_marseille","lat":43.295748,"lon":5.37522,"is_reserved":false,"is_disabled":false,"rental_uris":{"android":"levelo://app?vid=248ccf32-6b80-4407-a28a-f614d336a6b5","ios":"levelo://app?vid=248ccf32-6b80-4407-a28a-f614d336a6b5"},"vehicle_type_id":"4","last_reported":1701007538,"current_range_meters":0,"station_id":"ce4bgh92rcd13ifvqb50","pricing_plan_id":"free"},{"bike_id":"0d17aa47-aca9-4979-872c-d26bc53f85f7","system_id":"levelo_inurba_marseille","lat":43.295748,"lon":5.37522,"is_reserved":false,"is_disabled":false,"rental_uris":{"android":"levelo://app?vid=0d17aa47-aca9-4979-872c-d26bc53f85f7","ios":"levelo://app?vid=0d17aa47-aca9-4979-872c-d26bc53f85f7"},"vehicle_type_id":"4","last_reported":1701007538,"current_range_meters":8800,"station_id":"ce4bgh92rcd13ifvqb50","pricing_plan_id":"free"},{"bike_id":"8ef002c7-2520-4afd-b1c8-3f9272fa8af1","system_id":"levelo_inurba_marseille","lat":43.295748,"lon":5.37522,"is_reserved":false,"is_disabled":false,"rental_uris":{"android":"levelo://app?vid=8ef002c7-2520-4afd-b1c8-3f9272fa8af1","ios":"levelo://app?vid=8ef002c7-2520-4afd-b1c8-3f9272fa8af1"},"vehicle_type_id":"4","last_reported":1701007538,"current_range_meters":0,"station_id":"ce4bgh92rcd13ifvqb50","pricing_plan_id":"free"},{"bike_id":"eb339425-7113-4db6-8ef8-9fb9bbd268cf","system_id":"levelo_inurba_marseille","lat":43.299707,"lon":5.384859,"is_reserved":false,"is_disabled":false,"rental_uris":{"android":"levelo://app?vid=eb339425-7113-4db6-8ef8-9fb9bbd268cf","ios":"levelo://app?vid=eb339425-7113-4db6-8ef8-9fb9bbd268cf"},"vehicle_type_id":"4","last_reported":1701007538,"current_range_meters":800,"station_id":"ce4bgj92rcd13ifvqbd0","pricing_plan_id":"free"},{"bike_id":"d6a50057-8a7d-49f6-846a-d88460b5023d","system_id":"levelo_inurba_marseille","lat":43.299717,"lon":5.384845,"is_reserved":false,"is_disabled":false,"rental_uris":{"android":"levelo://app?vid=d6a50057-8a7d-49f6-846a-d88460b5023d","ios":"levelo://app?vid=d6a50057-8a7d-49f6-846a-d88460b5023d"},"vehicle_type_id":"4","last_reported":1701007538,"current_range_meters":10800,"station_id":"ce4bgj92rcd13ifvqbd0","pricing_plan_id":"free"},{"bike_id":"6b621983-5e9e-42f7-990d-ad5a093820d2","system_id":"levelo_inurba_marseille","lat":43.293801,"lon":5.363066,"is_reserved":false,"is_disabled":false,"rental_uris":{"android":"levelo://app?vid=6b621983-5e9e-42f7-990d-ad5a093820d2","ios":"levelo://app?vid=6b621983-5e9e-42f7-990d-ad5a093820d2"},"vehicle_type_id":"4","last_reported":1701007538,"current_range_meters":0,"station_id":"","pricing_plan_id":"free"},{"bike_id":"cf924556-1edc-4b52-a356-c26e1273116b","system_id":"levelo_inurba_marseille","lat":43.29601,"lon":5.381084,"is_reserved":false,"is_disabled":false,"rental_uris":{"android":"levelo://app?vid=cf924556-1edc-4b52-a356-c26e1273116b","ios":"levelo://app?vid=cf924556-1edc-4b52-a356-c26e1273116b"},"vehicle_type_id":"4","last_reported":1701007538,"current_range_meters":1600,"station_id":"ce4bgl12rcd13ifvqbo0","pricing_plan_id":"free"},{"bike_id":"340f225f-a958-4fac-9849-99aa08e996b9","system_id":"levelo_inurba_marseille","lat":43.292749,"lon":5.368402,"is_reserved":false,"is_disabled":false,"rental_uris":{"android":"levelo://app?vid=340f225f-a958-4fac-9849-99aa08e996b9","ios":"levelo://app?vid=340f225f-a958-4fac-9849-99aa08e996b9"},"vehicle_type_id":"4","last_reported":1701007538,"current_range_meters":18000,"station_id":"ce4bhbp2rcd13ifvqesg","pricing_plan_id":"free"},{"bike_id":"9bf414bb-17ab-43a8-b98a-c3c35d2cb84f","system_id":"levelo_inurba_marseille","lat":43.293259,"lon":5.371586,"is_reserved":false,"is_disabled":false,"rental_uris":{"android":"levelo://app?vid=9bf414bb-17ab-43a8-b98a-c3c35d2cb84f","ios":"levelo://app?vid=9bf414bb-17ab-43a8-b98a-c3c35d2cb84f"},"vehicle_type_id":"4","last_reported":1701007538,"current_range_meters":9600,"station_id":"ce4bgh92rcd13ifvqb40","pricing_plan_id":"free"},{"bike_id":"b1e38288-48a4-44bc-b451-e444aa913e0e","system_id":"levelo_inurba_marseille","lat":43.292749,"lon":5.368402,"is_reserved":false,"is_disabled":false,"rental_uris":{"android":"levelo://app?vid=b1e38288-48a4-44bc-b451-e444aa913e0e","ios":"levelo://app?vid=b1e38288-48a4-44bc-b451-e444aa913e0e"},"vehicle_type_id":"4","last_reported":1701007538,"current_range_meters":30000,"station_id":"ce4bhbp2rcd13ifvqesg","pricing_plan_id":"free"},{"bike_id":"33759bf0-1301-440f-bfea-1c09d24b1e90","system_id":"levelo_inurba_marseille","lat":43.293009,"lon":5.374584,"is_reserved":false,"is_disabled":false,"rental_uris":{"android":"levelo://app?vid=33759bf0-1301-440f-bfea-1c09d24b1e90","ios":"levelo://app?vid=33759bf0-1301-440f-bfea-1c09d24b1e90"},"vehicle_type_id":"4","last_reported":1701007538,"current_range_meters":7600,"station_id":"ce4bgi12rcd13ifvqb70","pricing_plan_id":"free"},{"bike_id":"2ef0032b-b171-45b3-94e8-85b67cd43123","system_id":"levelo_inurba_marseille","lat":43.305994,"lon":5.393687,"is_reserved":false,"is_disabled":false,"rental_uris":{"android":"levelo://app?vid=2ef0032b-b171-45b3-94e8-85b67cd43123","ios":"levelo://app?vid=2ef0032b-b171-45b3-94e8-85b67cd43123"},"vehicle_type_id":"4","last_reported":1701007538,"current_range_meters":24400,"station_id":"ce4bh0p2rcd13ifvqd80","pricing_plan_id":"free"},{"bike_id":"2557e4e4-e7f8-4ca6-afa9-32c6d83482e1","system_id":"levelo_inurba_marseille","lat":43.2936,"lon":5.37835,"is_reserved":false,"is_disabled":false,"rental_uris":{"android":"levelo://app?vid=2557e4e4-e7f8-4ca6-afa9-32c6d83482e1","ios":"levelo://app?vid=2557e4e4-e7f8-4ca6-afa9-32c6d83482e1"},"vehicle_type_id":"4","last_reported":1701007538,"current_range_meters":20400,"station_id":"ce4bgjh2rcd13ifvqbf0","pricing_plan_id":"free"},{"bike_id":"b9b25b84-bf27-4328-a0d8-1668eb5d0bd5","system_id":"levelo_inurba_marseille","lat":43.300852,"lon":5.390859,"is_reserved":false,"is_disabled":false,"rental_uris":{"android":"levelo://app?vid=b9b25b84-bf27-4328-a0d8-1668eb5d0bd5","ios":"levelo://app?vid=b9b25b84-bf27-4328-a0d8-1668eb5d0bd5"},"vehicle_type_id":"4","last_reported":1701007538,"current_range_meters":20000,"station_id":"ce4bh192rcd13ifvqdb0","pricing_plan_id":"free"},{"bike_id":"e100b2da-acd7-442a-996c-32ec66579328","system_id":"levelo_inurba_marseille","lat":43.292126,"lon":5.36049,"is_reserved":false,"is_disabled":false,"rental_uris":{"android":"levelo://app?vid=e100b2da-acd7-442a-996c-32ec66579328","ios":"levelo://app?vid=e100b2da-acd7-442a-996c-32ec66579328"},"vehicle_type_id":"4","last_reported":1701007538,"current_range_meters":30400,"station_id":"ce4bhbh2rcd13ifvqeqg","pricing_plan_id":"free"},{"bike_id":"b10bc20a-6076-4db4-9d18-fa1222231583","system_id":"levelo_inurba_marseille","lat":43.298764,"lon":5.388973,"is_reserved":false,"is_disabled":false,"rental_uris":{"android":"levelo://app?vid=b10bc20a-6076-4db4-9d18-fa1222231583","ios":"levelo://app?vid=b10bc20a-6076-4db4-9d18-fa1222231583"},"vehicle_type_id":"4","last_reported":1701007538,"current_range_meters":30400,"station_id":"ce4bh392rcd13ifvqdl0","pricing_plan_id":"free"},{"bike_id":"c91caa24-ccd9-44a0-a7dc-ef3dd0691d85","system_id":"levelo_inurba_marseille","lat":43.293053,"lon":5.379767,"is_reserved":false,"is_disabled":false,"rental_uris":{"android":"levelo://app?vid=c91caa24-ccd9-44a0-a7dc-ef3dd0691d85","ios":"levelo://app?vid=c91caa24-ccd9-44a0-a7dc-ef3dd0691d85"},"vehicle_type_id":"4","last_reported":1701007538,"current_range_meters":16000,"station_id":"","pricing_plan_id":"free"},{"bike_id":"0fdd430c-cf70-45a5-8522-9035c8e28c5e","system_id":"levelo_inurba_marseille","lat":43.3133,"lon":5.39691,"is_reserved":false,"is_disabled":false,"rental_uris":{"android":"levelo://app?vid=0fdd430c-cf70-45a5-8522-9035c8e28c5e","ios":"levelo://app?vid=0fdd430c-cf70-45a5-8522-9035c8e28c5e"},"vehicle_type_id":"4","last_reported":1701007538,"current_range_meters":7200,"station_id":"ce4bgvp2rcd13ifvqcu0","pricing_plan_id":"free"},{"bike_id":"d004a540-b451-4f1f-a4b2-16e4213cc9bc","system_id":"levelo_inurba_marseille","lat":43.291873,"lon":5.357957,"is_reserved":false,"is_disabled":false,"rental_uris":{"android":"levelo://app?vid=d004a540-b451-4f1f-a4b2-16e4213cc9bc","ios":"levelo://app?vid=d004a540-b451-4f1f-a4b2-16e4213cc9bc"},"vehicle_type_id":"4","last_reported":1701007538,"current_range_meters":28400,"station_id":"ce4bhb12rcd13ifvqel0","pricing_plan_id":"free"},{"bike_id":"d35ae0f3-1c09-466f-82c7-f0ddaf897400","system_id":"levelo_inurba_marseille","lat":43.290631,"lon":5.359244,"is_reserved":false,"is_disabled":false,"rental_uris":{"android":"levelo://app?vid=d35ae0f3-1c09-466f-82c7-f0ddaf897400","ios":"levelo://app?vid=d35ae0f3-1c09-466f-82c7-f0ddaf897400"},"vehicle_type_id":"4","last_reported":1701007538,"current_range_meters":24800,"station_id":"ce4bha92rcd13ifvqeg0","pricing_plan_id":"free"},{"bike_id":"ff6bb0ae-fb61-4ea1-b8c6-9b226b192918","system_id":"levelo_inurba_marseille","lat":43.28946,"lon":5.36626,"is_reserved":false,"is_disabled":false,"rental_uris":{"android":"levelo://app?vid=ff6bb0ae-fb61-4ea1-b8c6-9b226b192918","ios":"levelo://app?vid=ff6bb0ae-fb61-4ea1-b8c6-9b226b192918"},"vehicle_type_id":"4","last_reported":1701007538,"current_range_meters":0,"station_id":"ce4bhap2rcd13ifvqek0","pricing_plan_id":"free"},{"bike_id":"ff01fa3d-4311-4313-b234-44baf7abddef","system_id":"levelo_inurba_marseille","lat":43.289184,"lon":5.366408,"is_reserved":false,"is_disabled":false,"rental_uris":{"android":"levelo://app?vid=ff01fa3d-4311-4313-b234-44baf7abddef","ios":"levelo://app?vid=ff01fa3d-4311-4313-b234-44baf7abddef"},"vehicle_type_id":"4","last_reported":1701007538,"current_range_meters":19600,"station_id":"ce4bhap2rcd13ifvqek0","pricing_plan_id":"free"},{"bike_id":"beab9963-a69b-4617-bac4-91ecf745a365","system_id":"levelo_inurba_marseille","lat":43.28945,"lon":5.36405,"is_reserved":false,"is_disabled":false,"rental_uris":{"android":"levelo://app?vid=beab9963-a69b-4617-bac4-91ecf745a365","ios":"levelo://app?vid=beab9963-a69b-4617-bac4-91ecf745a365"},"vehicle_type_id":"4","last_reported":1701007538,"current_range_meters":15600,"station_id":"ce4bhc92rcd13ifvqetg","pricing_plan_id":"free"},{"bike_id":"4b9d8d65-f275-49b5-93a1-fc7cc9276990","system_id":"levelo_inurba_marseille","lat":43.289184,"lon":5.366408,"is_reserved":false,"is_disabled":false,"rental_uris":{"android":"levelo://app?vid=4b9d8d65-f275-49b5-93a1-fc7cc9276990","ios":"levelo://app?vid=4b9d8d65-f275-49b5-93a1-fc7cc9276990"},"vehicle_type_id":"4","last_reported":1701007538,"current_range_meters":29200,"station_id":"ce4bhap2rcd13ifvqek0","pricing_plan_id":"free"},{"bike_id":"e525618c-80ff-4418-9198-5dd449580313","system_id":"levelo_inurba_marseille","lat":43.289385,"lon":5.363915,"is_reserved":false,"is_disabled":false,"rental_uris":{"android":"levelo://app?vid=e525618c-80ff-4418-9198-5dd449580313","ios":"levelo://app?vid=e525618c-80ff-4418-9198-5dd449580313"},"vehicle_type_id":"4","last_reported":1701007538,"current_range_meters":30400,"station_id":"ce4bhc92rcd13ifvqetg","pricing_plan_id":"free"},{"bike_id":"8af0cef7-91ce-4c12-9595-36522c887385","system_id":"levelo_inurba_marseille","lat":43.292644,"lon":5.384257,"is_reserved":false,"is_disabled":false,"rental_uris":{"android":"levelo://app?vid=8af0cef7-91ce-4c12-9595-36522c887385","ios":"levelo://app?vid=8af0cef7-91ce-4c12-9595-36522c887385"},"vehicle_type_id":"4","last_reported":1701007538,"current_range_meters":9200,"station_id":"ce4bh692rcd13ifvqea0","pricing_plan_id":"free"},{"bike_id":"b1ae0b5c-e2f9-4341-990e-00a7b9bb3be7","system_id":"levelo_inurba_marseille","lat":43.290103,"lon":5.356114,"is_reserved":false,"is_disabled":false,"rental_uris":{"android":"levelo://app?vid=b1ae0b5c-e2f9-4341-990e-00a7b9bb3be7","ios":"levelo://app?vid=b1ae0b5c-e2f9-4341-990e-00a7b9bb3be7"},"vehicle_type_id":"4","last_reported":1701007538,"current_range_meters":28400,"station_id":"ce4bhb92rcd13ifvqen0","pricing_plan_id":"free"},{"bike_id":"8b1194fa-4277-4ff6-83b0-117082c58f3f","system_id":"levelo_inurba_marseille","lat":43.28999,"lon":5.3561,"is_reserved":false,"is_disabled":false,"rental_uris":{"android":"levelo://app?vid=8b1194fa-4277-4ff6-83b0-117082c58f3f","ios":"levelo://app?vid=8b1194fa-4277-4ff6-83b0-117082c58f3f"},"vehicle_type_id":"4","last_reported":1701007538,"current_range_meters":22400,"station_id":"ce4bhb92rcd13ifvqen0","pricing_plan_id":"free"},{"bike_id":"5b182a41-6718-44b9-a410-207da1a14870","system_id":"levelo_inurba_marseille","lat":43.29782,"lon":5.39341,"is_reserved":false,"is_disabled":false,"rental_uris":{"android":"levelo://app?vid=5b182a41-6718-44b9-a410-207da1a14870","ios":"levelo://app?vid=5b182a41-6718-44b9-a410-207da1a14870"},"vehicle_type_id":"4","last_reported":1701007538,"current_range_meters":10400,"station_id":"chh1huq6cuj3fo74tm60","pricing_plan_id":"free"},{"bike_id":"d6482000-bf8b-4b30-a4b1-850654cbd144","system_id":"levelo_inurba_marseille","lat":43.289743,"lon":5.378304,"is_reserved":false,"is_disabled":false,"rental_uris":{"android":"levelo://app?vid=d6482000-bf8b-4b30-a4b1-850654cbd144","ios":"levelo://app?vid=d6482000-bf8b-4b30-a4b1-850654cbd144"},"vehicle_type_id":"4","last_reported":1701007538,"current_range_meters":8800,"station_id":"ce4bh9p2rcd13ifvqed0","pricing_plan_id":"free"},{"bike_id":"862c13ac-118d-48af-8f0e-ea7a4abe9921","system_id":"levelo_inurba_marseille","lat":43.297815,"lon":5.393548,"is_reserved":false,"is_disabled":false,"rental_uris":{"android":"levelo://app?vid=862c13ac-118d-48af-8f0e-ea7a4abe9921","ios":"levelo://app?vid=862c13ac-118d-48af-8f0e-ea7a4abe9921"},"vehicle_type_id":"4","last_reported":1701007538,"current_range_meters":16800,"station_id":"chh1huq6cuj3fo74tm60","pricing_plan_id":"free"},{"bike_id":"c11e0969-1eff-4d09-9af2-3d9a34d21000","system_id":"levelo_inurba_marseille","lat":43.289741,"lon":5.378306,"is_reserved":false,"is_disabled":false,"rental_uris":{"android":"levelo://app?vid=c11e0969-1eff-4d09-9af2-3d9a34d21000","ios":"levelo://app?vid=c11e0969-1eff-4d09-9af2-3d9a34d21000"},"vehicle_type_id":"4","last_reported":1701007538,"current_range_meters":27600,"station_id":"ce4bh9p2rcd13ifvqed0","pricing_plan_id":"free"},{"bike_id":"73faf6ef-04e0-4484-985f-cf9e38fea080","system_id":"levelo_inurba_marseille","lat":43.302759,"lon":5.400793,"is_reserved":false,"is_disabled":false,"rental_uris":{"android":"levelo://app?vid=73faf6ef-04e0-4484-985f-cf9e38fea080","ios":"levelo://app?vid=73faf6ef-04e0-4484-985f-cf9e38fea080"},"vehicle_type_id":"4","last_reported":1701007538,"current_range_meters":27600,"station_id":"ce4bgvh2rcd13ifvqcs0","pricing_plan_id":"free"},{"bike_id":"03f52899-de89-4c91-b068-c191312430ee","system_id":"levelo_inurba_marseille","lat":43.286039,"lon":5.370679,"is_reserved":false,"is_disabled":false,"rental_uris":{"android":"levelo://app?vid=03f52899-de89-4c91-b068-c191312430ee","ios":"levelo://app?vid=03f52899-de89-4c91-b068-c191312430ee"},"vehicle_type_id":"4","last_reported":1701007538,"current_range_meters":28800,"station_id":"ce4bht12rcd13ifvqi60","pricing_plan_id":"free"},{"bike_id":"5b5f61b4-b77b-4311-9d47-e2336d8cfbd3","system_id":"levelo_inurba_marseille","lat":43.286039,"lon":5.370679,"is_reserved":false,"is_disabled":false,"rental_uris":{"android":"levelo://app?vid=5b5f61b4-b77b-4311-9d47-e2336d8cfbd3","ios":"levelo://app?vid=5b5f61b4-b77b-4311-9d47-e2336d8cfbd3"},"vehicle_type_id":"4","last_reported":1701007538,"current_range_meters":27200,"station_id":"ce4bht12rcd13ifvqi60","pricing_plan_id":"free"},{"bike_id":"d0cc9fe1-c65d-427d-b65a-80c2d15e8427","system_id":"levelo_inurba_marseille","lat":43.286039,"lon":5.370681,"is_reserved":false,"is_disabled":false,"rental_uris":{"android":"levelo://app?vid=d0cc9fe1-c65d-427d-b65a-80c2d15e8427","ios":"levelo://app?vid=d0cc9fe1-c65d-427d-b65a-80c2d15e8427"},"vehicle_type_id":"4","last_reported":1701007538,"current_range_meters":26000,"station_id":"ce4bht12rcd13ifvqi60","pricing_plan_id":"free"},{"bike_id":"ace7c625-5abe-4c7c-a465-583b3a280c9c","system_id":"levelo_inurba_marseille","lat":43.287185,"lon":5.379373,"is_reserved":false,"is_disabled":false,"rental_uris":{"android":"levelo://app?vid=ace7c625-5abe-4c7c-a465-583b3a280c9c","ios":"levelo://app?vid=ace7c625-5abe-4c7c-a465-583b3a280c9c"},"vehicle_type_id":"4","last_reported":1701007538,"current_range_meters":23600,"station_id":"ce4bh9p2rcd13ifvqec0","pricing_plan_id":"free"},{"bike_id":"ca5dc3da-39b7-4135-b10c-c965bace5b06","system_id":"levelo_inurba_marseille","lat":43.283998,"lon":5.375062,"is_reserved":false,"is_disabled":false,"rental_uris":{"android":"levelo://app?vid=ca5dc3da-39b7-4135-b10c-c965bace5b06","ios":"levelo://app?vid=ca5dc3da-39b7-4135-b10c-c965bace5b06"},"vehicle_type_id":"4","last_reported":1701007538,"current_range_meters":20400,"station_id":"ce4bh412rcd13ifvqds0","pricing_plan_id":"free"},{"bike_id":"64bf72e6-6463-4d96-9ad3-b39dffc4f4c5","system_id":"levelo_inurba_marseille","lat":43.283998,"lon":5.375062,"is_reserved":false,"is_disabled":false,"rental_uris":{"android":"levelo://app?vid=64bf72e6-6463-4d96-9ad3-b39dffc4f4c5","ios":"levelo://app?vid=64bf72e6-6463-4d96-9ad3-b39dffc4f4c5"},"vehicle_type_id":"4","last_reported":1701007538,"current_range_meters":18400,"station_id":"ce4bh412rcd13ifvqds0","pricing_plan_id":"free"},{"bike_id":"3088027d-a82f-409a-94de-9f5ed993ee44","system_id":"levelo_inurba_marseille","lat":43.2841,"lon":5.3751,"is_reserved":false,"is_disabled":false,"rental_uris":{"android":"levelo://app?vid=3088027d-a82f-409a-94de-9f5ed993ee44","ios":"levelo://app?vid=3088027d-a82f-409a-94de-9f5ed993ee44"},"vehicle_type_id":"4","last_reported":1701007538,"current_range_meters":14800,"station_id":"ce4bh412rcd13ifvqds0","pricing_plan_id":"free"},{"bike_id":"2732c6e1-ba9b-4728-bc9c-416cbfa3834a","system_id":"levelo_inurba_marseille","lat":43.28406,"lon":5.37504,"is_reserved":false,"is_disabled":false,"rental_uris":{"android":"levelo://app?vid=2732c6e1-ba9b-4728-bc9c-416cbfa3834a","ios":"levelo://app?vid=2732c6e1-ba9b-4728-bc9c-416cbfa3834a"},"vehicle_type_id":"4","last_reported":1701007538,"current_range_meters":19200,"station_id":"ce4bh412rcd13ifvqds0","pricing_plan_id":"free"},{"bike_id":"c0bb1689-027a-4fbe-8685-c02cb3db2d9e","system_id":"levelo_inurba_marseille","lat":43.295713,"lon":5.399639,"is_reserved":false,"is_disabled":false,"rental_uris":{"android":"levelo://app?vid=c0bb1689-027a-4fbe-8685-c02cb3db2d9e","ios":"levelo://app?vid=c0bb1689-027a-4fbe-8685-c02cb3db2d9e"},"vehicle_type_id":"4","last_reported":1701007538,"current_range_meters":28000,"station_id":"ce4bh312rcd13ifvqdj0","pricing_plan_id":"free"},{"bike_id":"c2417e52-a32c-4a65-bd3d-3e855ea3529c","system_id":"levelo_inurba_marseille","lat":43.283998,"lon":5.375062,"is_reserved":false,"is_disabled":false,"rental_uris":{"android":"levelo://app?vid=c2417e52-a32c-4a65-bd3d-3e855ea3529c","ios":"levelo://app?vid=c2417e52-a32c-4a65-bd3d-3e855ea3529c"},"vehicle_type_id":"4","last_reported":1701007538,"current_range_meters":12400,"station_id":"ce4bh412rcd13ifvqds0","pricing_plan_id":"free"},{"bike_id":"d7291cda-b47c-4b21-ad1d-adea30d670c7","system_id":"levelo_inurba_marseille","lat":43.319179,"lon":5.407725,"is_reserved":false,"is_disabled":false,"rental_uris":{"android":"levelo://app?vid=d7291cda-b47c-4b21-ad1d-adea30d670c7","ios":"levelo://app?vid=d7291cda-b47c-4b21-ad1d-adea30d670c7"},"vehicle_type_id":"4","last_reported":1701007538,"current_range_meters":9200,"station_id":"ce4bhq12rcd13ifvqhig","pricing_plan_id":"free"},{"bike_id":"83836176-a908-47c5-8647-c5704777b3bf","system_id":"levelo_inurba_marseille","lat":43.297946,"lon":5.404063,"is_reserved":false,"is_disabled":false,"rental_uris":{"android":"levelo://app?vid=83836176-a908-47c5-8647-c5704777b3bf","ios":"levelo://app?vid=83836176-a908-47c5-8647-c5704777b3bf"},"vehicle_type_id":"4","last_reported":1701007538,"current_range_meters":28400,"station_id":"ce4bh112rcd13ifvqd90","pricing_plan_id":"free"},{"bike_id":"dc644ba6-e548-41de-9d44-a6ebf4902797","system_id":"levelo_inurba_marseille","lat":43.283494,"lon":5.380945,"is_reserved":false,"is_disabled":false,"rental_uris":{"android":"levelo://app?vid=dc644ba6-e548-41de-9d44-a6ebf4902797","ios":"levelo://app?vid=dc644ba6-e548-41de-9d44-a6ebf4902797"},"vehicle_type_id":"4","last_reported":1701007538,"current_range_meters":26400,"station_id":"ce4bh412rcd13ifvqdr0","pricing_plan_id":"free"},{"bike_id":"5db3641a-0f13-4fd8-8530-0cbaa5d3dd19","system_id":"levelo_inurba_marseille","lat":43.283498,"lon":5.380948,"is_reserved":false,"is_disabled":false,"rental_uris":{"android":"levelo://app?vid=5db3641a-0f13-4fd8-8530-0cbaa5d3dd19","ios":"levelo://app?vid=5db3641a-0f13-4fd8-8530-0cbaa5d3dd19"},"vehicle_type_id":"4","last_reported":1701007538,"current_range_meters":30000,"station_id":"ce4bh412rcd13ifvqdr0","pricing_plan_id":"free"},{"bike_id":"8e519d63-6661-4bc5-b16a-2ee951a654a9","system_id":"levelo_inurba_marseille","lat":43.284217,"lon":5.349697,"is_reserved":false,"is_disabled":false,"rental_uris":{"android":"levelo://app?vid=8e519d63-6661-4bc5-b16a-2ee951a654a9","ios":"levelo://app?vid=8e519d63-6661-4bc5-b16a-2ee951a654a9"},"vehicle_type_id":"4","last_reported":1701007538,"current_range_meters":400,"station_id":"ce4bhbh2rcd13ifvqepg","pricing_plan_id":"free"},{"bike_id":"3caab24a-d0a9-46ce-a9a6-3cbe3c610d4c","system_id":"levelo_inurba_marseille","lat":43.284217,"lon":5.349697,"is_reserved":false,"is_disabled":false,"rental_uris":{"android":"levelo://app?vid=3caab24a-d0a9-46ce-a9a6-3cbe3c610d4c","ios":"levelo://app?vid=3caab24a-d0a9-46ce-a9a6-3cbe3c610d4c"},"vehicle_type_id":"4","last_reported":1701007538,"current_range_meters":31600,"station_id":"ce4bhbh2rcd13ifvqepg","pricing_plan_id":"free"},{"bike_id":"a2d8da56-bf23-4a89-ac4d-0a7d6ccccfe6","system_id":"levelo_inurba_marseille","lat":43.284219,"lon":5.3497,"is_reserved":false,"is_disabled":false,"rental_uris":{"android":"levelo://app?vid=a2d8da56-bf23-4a89-ac4d-0a7d6ccccfe6","ios":"levelo://app?vid=a2d8da56-bf23-4a89-ac4d-0a7d6ccccfe6"},"vehicle_type_id":"4","last_reported":1701007538,"current_range_meters":26000,"station_id":"ce4bhbh2rcd13ifvqepg","pricing_plan_id":"free"},{"bike_id":"3280003d-dad7-4d1b-b03f-73bd8b3951df","system_id":"levelo_inurba_marseille","lat":43.284217,"lon":5.349697,"is_reserved":false,"is_disabled":false,"rental_uris":{"android":"levelo://app?vid=3280003d-dad7-4d1b-b03f-73bd8b3951df","ios":"levelo://app?vid=3280003d-dad7-4d1b-b03f-73bd8b3951df"},"vehicle_type_id":"4","last_reported":1701007538,"current_range_meters":14800,"station_id":"ce4bhbh2rcd13ifvqepg","pricing_plan_id":"free"},{"bike_id":"121d48b7-fd86-46bc-b467-87e635fee642","system_id":"levelo_inurba_marseille","lat":43.284217,"lon":5.349697,"is_reserved":false,"is_disabled":false,"rental_uris":{"android":"levelo://app?vid=121d48b7-fd86-46bc-b467-87e635fee642","ios":"levelo://app?vid=121d48b7-fd86-46bc-b467-87e635fee642"},"vehicle_type_id":"4","last_reported":1701007538,"current_range_meters":30000,"station_id":"ce4bhbh2rcd13ifvqepg","pricing_plan_id":"free"},{"bike_id":"e2284003-4e46-4e0a-93e7-73d05c3666d9","system_id":"levelo_inurba_marseille","lat":43.33508,"lon":5.397755,"is_reserved":false,"is_disabled":false,"rental_uris":{"android":"levelo://app?vid=e2284003-4e46-4e0a-93e7-73d05c3666d9","ios":"levelo://app?vid=e2284003-4e46-4e0a-93e7-73d05c3666d9"},"vehicle_type_id":"4","last_reported":1701007538,"current_range_meters":18400,"station_id":"","pricing_plan_id":"free"},{"bike_id":"3505e85b-c1a5-46d8-9c11-8b1c41d98950","system_id":"levelo_inurba_marseille","lat":43.292724,"lon":5.401131,"is_reserved":false,"is_disabled":false,"rental_uris":{"android":"levelo://app?vid=3505e85b-c1a5-46d8-9c11-8b1c41d98950","ios":"levelo://app?vid=3505e85b-c1a5-46d8-9c11-8b1c41d98950"},"vehicle_type_id":"4","last_reported":1701007538,"current_range_meters":27600,"station_id":"ce4bh312rcd13ifvqdk0","pricing_plan_id":"free"},{"bike_id":"db9334a0-0093-411c-aac9-d2c04233863c","system_id":"levelo_inurba_marseille","lat":43.28039,"lon":5.369297,"is_reserved":false,"is_disabled":false,"rental_uris":{"android":"levelo://app?vid=db9334a0-0093-411c-aac9-d2c04233863c","ios":"levelo://app?vid=db9334a0-0093-411c-aac9-d2c04233863c"},"vehicle_type_id":"4","last_reported":1701007538,"current_range_meters":30400,"station_id":"ce4bha12rcd13ifvqef0","pricing_plan_id":"free"},{"bike_id":"5a94cb42-355d-4c5d-9716-f35425d0270c","system_id":"levelo_inurba_marseille","lat":43.28039,"lon":5.369297,"is_reserved":false,"is_disabled":false,"rental_uris":{"android":"levelo://app?vid=5a94cb42-355d-4c5d-9716-f35425d0270c","ios":"levelo://app?vid=5a94cb42-355d-4c5d-9716-f35425d0270c"},"vehicle_type_id":"4","last_reported":1701007538,"current_range_meters":28400,"station_id":"ce4bha12rcd13ifvqef0","pricing_plan_id":"free"},{"bike_id":"d7fbb553-a196-4087-a6fe-5c6cf3a7c03f","system_id":"levelo_inurba_marseille","lat":43.283502,"lon":5.386471,"is_reserved":false,"is_disabled":false,"rental_uris":{"android":"levelo://app?vid=d7fbb553-a196-4087-a6fe-5c6cf3a7c03f","ios":"levelo://app?vid=d7fbb553-a196-4087-a6fe-5c6cf3a7c03f"},"vehicle_type_id":"4","last_reported":1701007538,"current_range_meters":12400,"station_id":"ce4bh492rcd13ifvqdvg","pricing_plan_id":"free"},{"bike_id":"bcd500b3-23bc-4e91-bb16-1c1d37a048b8","system_id":"levelo_inurba_marseille","lat":43.28039,"lon":5.369297,"is_reserved":false,"is_disabled":false,"rental_uris":{"android":"levelo://app?vid=bcd500b3-23bc-4e91-bb16-1c1d37a048b8","ios":"levelo://app?vid=bcd500b3-23bc-4e91-bb16-1c1d37a048b8"},"vehicle_type_id":"4","last_reported":1701007538,"current_range_meters":18000,"station_id":"ce4bha12rcd13ifvqef0","pricing_plan_id":"free"},{"bike_id":"a770b8c9-a36a-47d9-b762-eabb8b429d49","system_id":"levelo_inurba_marseille","lat":43.28352,"lon":5.3864,"is_reserved":false,"is_disabled":false,"rental_uris":{"android":"levelo://app?vid=a770b8c9-a36a-47d9-b762-eabb8b429d49","ios":"levelo://app?vid=a770b8c9-a36a-47d9-b762-eabb8b429d49"},"vehicle_type_id":"4","last_reported":1701007538,"current_range_meters":0,"station_id":"ce4bh492rcd13ifvqdvg","pricing_plan_id":"free"},{"bike_id":"590f26cb-4a23-4cbc-932c-c59bd3497aa8","system_id":"levelo_inurba_marseille","lat":43.281044,"lon":5.378308,"is_reserved":false,"is_disabled":false,"rental_uris":{"android":"levelo://app?vid=590f26cb-4a23-4cbc-932c-c59bd3497aa8","ios":"levelo://app?vid=590f26cb-4a23-4cbc-932c-c59bd3497aa8"},"vehicle_type_id":"4","last_reported":1701007538,"current_range_meters":8800,"station_id":"ce4bha12rcd13ifvqee0","pricing_plan_id":"free"},{"bike_id":"eb605792-d946-497e-b37e-cfe2f8246013","system_id":"levelo_inurba_marseille","lat":43.279087,"lon":5.380114,"is_reserved":false,"is_disabled":false,"rental_uris":{"android":"levelo://app?vid=eb605792-d946-497e-b37e-cfe2f8246013","ios":"levelo://app?vid=eb605792-d946-497e-b37e-cfe2f8246013"},"vehicle_type_id":"4","last_reported":1701007538,"current_range_meters":29600,"station_id":"ce4bhf92rcd13ifvqf50","pricing_plan_id":"free"},{"bike_id":"477cd6b7-d75d-4002-97a5-e825498e7490","system_id":"levelo_inurba_marseille","lat":43.279087,"lon":5.380114,"is_reserved":false,"is_disabled":false,"rental_uris":{"android":"levelo://app?vid=477cd6b7-d75d-4002-97a5-e825498e7490","ios":"levelo://app?vid=477cd6b7-d75d-4002-97a5-e825498e7490"},"vehicle_type_id":"4","last_reported":1701007538,"current_range_meters":24000,"station_id":"ce4bhf92rcd13ifvqf50","pricing_plan_id":"free"},{"bike_id":"4db68ac9-b6b9-4c87-b371-b6a4db57b5ac","system_id":"levelo_inurba_marseille","lat":43.279087,"lon":5.380114,"is_reserved":false,"is_disabled":false,"rental_uris":{"android":"levelo://app?vid=4db68ac9-b6b9-4c87-b371-b6a4db57b5ac","ios":"levelo://app?vid=4db68ac9-b6b9-4c87-b371-b6a4db57b5ac"},"vehicle_type_id":"4","last_reported":1701007538,"current_range_meters":30800,"station_id":"ce4bhf92rcd13ifvqf50","pricing_plan_id":"free"},{"bike_id":"2532c679-1cc7-4268-a49d-9e7b00df2495","system_id":"levelo_inurba_marseille","lat":43.279087,"lon":5.380114,"is_reserved":false,"is_disabled":false,"rental_uris":{"android":"levelo://app?vid=2532c679-1cc7-4268-a49d-9e7b00df2495","ios":"levelo://app?vid=2532c679-1cc7-4268-a49d-9e7b00df2495"},"vehicle_type_id":"4","last_reported":1701007538,"current_range_meters":28400,"station_id":"ce4bhf92rcd13ifvqf50","pricing_plan_id":"free"},{"bike_id":"36364efd-195d-4de2-9328-79a7e7435160","system_id":"levelo_inurba_marseille","lat":43.287154,"lon":5.399979,"is_reserved":false,"is_disabled":false,"rental_uris":{"android":"levelo://app?vid=36364efd-195d-4de2-9328-79a7e7435160","ios":"levelo://app?vid=36364efd-195d-4de2-9328-79a7e7435160"},"vehicle_type_id":"4","last_reported":1701007538,"current_range_meters":14000,"station_id":"ce4bho92rcd13ifvqh3g","pricing_plan_id":"free"},{"bike_id":"6526cad1-2f4b-4db1-8d6b-ce04bc407b31","system_id":"levelo_inurba_marseille","lat":43.34883,"lon":5.37501,"is_reserved":false,"is_disabled":false,"rental_uris":{"android":"levelo://app?vid=6526cad1-2f4b-4db1-8d6b-ce04bc407b31","ios":"levelo://app?vid=6526cad1-2f4b-4db1-8d6b-ce04bc407b31"},"vehicle_type_id":"4","last_reported":1701007538,"current_range_meters":0,"station_id":"","pricing_plan_id":"free"},{"bike_id":"220b6fb6-c871-47d0-90c6-501b34e7ff62","system_id":"levelo_inurba_marseille","lat":43.29258,"lon":5.40902,"is_reserved":false,"is_disabled":false,"rental_uris":{"android":"levelo://app?vid=220b6fb6-c871-47d0-90c6-501b34e7ff62","ios":"levelo://app?vid=220b6fb6-c871-47d0-90c6-501b34e7ff62"},"vehicle_type_id":"4","last_reported":1701007538,"current_range_meters":0,"station_id":"ce4bh192rcd13ifvqdc0","pricing_plan_id":"free"},{"bike_id":"ecc2a98d-651a-4e61-85c0-b786d8e4a5ce","system_id":"levelo_inurba_marseille","lat":43.29255,"lon":5.40909,"is_reserved":false,"is_disabled":false,"rental_uris":{"android":"levelo://app?vid=ecc2a98d-651a-4e61-85c0-b786d8e4a5ce","ios":"levelo://app?vid=ecc2a98d-651a-4e61-85c0-b786d8e4a5ce"},"vehicle_type_id":"4","last_reported":1701007538,"current_range_meters":0,"station_id":"ce4bh192rcd13ifvqdc0","pricing_plan_id":"free"},{"bike_id":"72ada52b-df59-4cf8-8731-337d1eed0205","system_id":"levelo_inurba_marseille","lat":43.2762,"lon":5.3611,"is_reserved":false,"is_disabled":false,"rental_uris":{"android":"levelo://app?vid=72ada52b-df59-4cf8-8731-337d1eed0205","ios":"levelo://app?vid=72ada52b-df59-4cf8-8731-337d1eed0205"},"vehicle_type_id":"4","last_reported":1701007538,"current_range_meters":7200,"station_id":"ce4bgj92rcd13ifvqbe0","pricing_plan_id":"free"},{"bike_id":"b5338767-b784-437a-8eca-a869323394dd","system_id":"levelo_inurba_marseille","lat":43.276196,"lon":5.361065,"is_reserved":false,"is_disabled":false,"rental_uris":{"android":"levelo://app?vid=b5338767-b784-437a-8eca-a869323394dd","ios":"levelo://app?vid=b5338767-b784-437a-8eca-a869323394dd"},"vehicle_type_id":"4","last_reported":1701007538,"current_range_meters":26800,"station_id":"","pricing_plan_id":"free"},{"bike_id":"c25ea147-e804-4786-9d25-91f61a8ed59a","system_id":"levelo_inurba_marseille","lat":43.293651,"lon":5.41268,"is_reserved":false,"is_disabled":false,"rental_uris":{"android":"levelo://app?vid=c25ea147-e804-4786-9d25-91f61a8ed59a","ios":"levelo://app?vid=c25ea147-e804-4786-9d25-91f61a8ed59a"},"vehicle_type_id":"4","last_reported":1701007538,"current_range_meters":0,"station_id":"","pricing_plan_id":"free"},{"bike_id":"b0ed4a91-f4d2-43e8-b684-e4e09d3127b8","system_id":"levelo_inurba_marseille","lat":43.303837,"lon":5.418724,"is_reserved":false,"is_disabled":false,"rental_uris":{"android":"levelo://app?vid=b0ed4a91-f4d2-43e8-b684-e4e09d3127b8","ios":"levelo://app?vid=b0ed4a91-f4d2-43e8-b684-e4e09d3127b8"},"vehicle_type_id":"4","last_reported":1701007538,"current_range_meters":2000,"station_id":"ce4bhop2rcd13ifvqh7g","pricing_plan_id":"free"},{"bike_id":"320ec9ba-aaf9-4921-ae04-77b5f2811607","system_id":"levelo_inurba_marseille","lat":43.30357,"lon":5.41878,"is_reserved":false,"is_disabled":false,"rental_uris":{"android":"levelo://app?vid=320ec9ba-aaf9-4921-ae04-77b5f2811607","ios":"levelo://app?vid=320ec9ba-aaf9-4921-ae04-77b5f2811607"},"vehicle_type_id":"4","last_reported":1701007538,"current_range_meters":23200,"station_id":"ce4bhop2rcd13ifvqh7g","pricing_plan_id":"free"},{"bike_id":"d7d5ad38-a706-46bf-a9f7-837653392e36","system_id":"levelo_inurba_marseille","lat":43.303837,"lon":5.418724,"is_reserved":false,"is_disabled":false,"rental_uris":{"android":"levelo://app?vid=d7d5ad38-a706-46bf-a9f7-837653392e36","ios":"levelo://app?vid=d7d5ad38-a706-46bf-a9f7-837653392e36"},"vehicle_type_id":"4","last_reported":1701007538,"current_range_meters":16400,"station_id":"ce4bhop2rcd13ifvqh7g","pricing_plan_id":"free"},{"bike_id":"5ee57155-df57-4962-9544-56ad6c09b1e3","system_id":"levelo_inurba_marseille","lat":43.303837,"lon":5.418724,"is_reserved":false,"is_disabled":false,"rental_uris":{"android":"levelo://app?vid=5ee57155-df57-4962-9544-56ad6c09b1e3","ios":"levelo://app?vid=5ee57155-df57-4962-9544-56ad6c09b1e3"},"vehicle_type_id":"4","last_reported":1701007538,"current_range_meters":20800,"station_id":"ce4bhop2rcd13ifvqh7g","pricing_plan_id":"free"},{"bike_id":"36c25c0c-8bc8-4e70-99a4-791be69bddf3","system_id":"levelo_inurba_marseille","lat":43.278399,"lon":5.392139,"is_reserved":false,"is_disabled":false,"rental_uris":{"android":"levelo://app?vid=36c25c0c-8bc8-4e70-99a4-791be69bddf3","ios":"levelo://app?vid=36c25c0c-8bc8-4e70-99a4-791be69bddf3"},"vehicle_type_id":"4","last_reported":1701007538,"current_range_meters":14000,"station_id":"ce4bhjp2rcd13ifvqga0","pricing_plan_id":"free"},{"bike_id":"88f024f8-65a8-4a81-b170-bf4b6f93ddb6","system_id":"levelo_inurba_marseille","lat":43.278401,"lon":5.392152,"is_reserved":false,"is_disabled":false,"rental_uris":{"android":"levelo://app?vid=88f024f8-65a8-4a81-b170-bf4b6f93ddb6","ios":"levelo://app?vid=88f024f8-65a8-4a81-b170-bf4b6f93ddb6"},"vehicle_type_id":"4","last_reported":1701007538,"current_range_meters":28000,"station_id":"ce4bhjp2rcd13ifvqga0","pricing_plan_id":"free"},{"bike_id":"5f3c0b65-41dc-485d-a906-5ed61ab3d3fe","system_id":"levelo_inurba_marseille","lat":43.275625,"lon":5.384392,"is_reserved":false,"is_disabled":false,"rental_uris":{"android":"levelo://app?vid=5f3c0b65-41dc-485d-a906-5ed61ab3d3fe","ios":"levelo://app?vid=5f3c0b65-41dc-485d-a906-5ed61ab3d3fe"},"vehicle_type_id":"4","last_reported":1701007538,"current_range_meters":28800,"station_id":"ce4bhh92rcd13ifvqfi0","pricing_plan_id":"free"},{"bike_id":"12898eb4-4874-47bf-875a-52c2bc03bf82","system_id":"levelo_inurba_marseille","lat":43.273613,"lon":5.362705,"is_reserved":false,"is_disabled":false,"rental_uris":{"android":"levelo://app?vid=12898eb4-4874-47bf-875a-52c2bc03bf82","ios":"levelo://app?vid=12898eb4-4874-47bf-875a-52c2bc03bf82"},"vehicle_type_id":"4","last_reported":1701007538,"current_range_meters":17200,"station_id":"ce4bhbh2rcd13ifvqeo0","pricing_plan_id":"free"},{"bike_id":"cf93a547-72ab-4c59-b43e-567be6b48c3b","system_id":"levelo_inurba_marseille","lat":43.273747,"lon":5.362463,"is_reserved":false,"is_disabled":false,"rental_uris":{"android":"levelo://app?vid=cf93a547-72ab-4c59-b43e-567be6b48c3b","ios":"levelo://app?vid=cf93a547-72ab-4c59-b43e-567be6b48c3b"},"vehicle_type_id":"4","last_reported":1701007538,"current_range_meters":26000,"station_id":"ce4bhbh2rcd13ifvqeo0","pricing_plan_id":"free"},{"bike_id":"764f2788-42bd-4966-86ae-52a0376f0e43","system_id":"levelo_inurba_marseille","lat":43.273613,"lon":5.362705,"is_reserved":false,"is_disabled":false,"rental_uris":{"android":"levelo://app?vid=764f2788-42bd-4966-86ae-52a0376f0e43","ios":"levelo://app?vid=764f2788-42bd-4966-86ae-52a0376f0e43"},"vehicle_type_id":"4","last_reported":1701007538,"current_range_meters":0,"station_id":"ce4bhbh2rcd13ifvqeo0","pricing_plan_id":"free"},{"bike_id":"b4b11cdb-2e51-458e-9412-ead9ff401a46","system_id":"levelo_inurba_marseille","lat":43.273613,"lon":5.362705,"is_reserved":false,"is_disabled":false,"rental_uris":{"android":"levelo://app?vid=b4b11cdb-2e51-458e-9412-ead9ff401a46","ios":"levelo://app?vid=b4b11cdb-2e51-458e-9412-ead9ff401a46"},"vehicle_type_id":"4","last_reported":1701007538,"current_range_meters":4800,"station_id":"ce4bhbh2rcd13ifvqeo0","pricing_plan_id":"free"},{"bike_id":"371ec043-76f0-4fc3-813f-7320997bb6d2","system_id":"levelo_inurba_marseille","lat":43.33612,"lon":5.410321,"is_reserved":false,"is_disabled":false,"rental_uris":{"android":"levelo://app?vid=371ec043-76f0-4fc3-813f-7320997bb6d2","ios":"levelo://app?vid=371ec043-76f0-4fc3-813f-7320997bb6d2"},"vehicle_type_id":"4","last_reported":1701007538,"current_range_meters":28400,"station_id":"ce4bhqh2rcd13ifvqhmg","pricing_plan_id":"free"},{"bike_id":"fcce2709-641d-401e-a568-a549bacb6339","system_id":"levelo_inurba_marseille","lat":43.273609,"lon":5.362708,"is_reserved":false,"is_disabled":false,"rental_uris":{"android":"levelo://app?vid=fcce2709-641d-401e-a568-a549bacb6339","ios":"levelo://app?vid=fcce2709-641d-401e-a568-a549bacb6339"},"vehicle_type_id":"4","last_reported":1701007538,"current_range_meters":14800,"station_id":"ce4bhbh2rcd13ifvqeo0","pricing_plan_id":"free"},{"bike_id":"06a01118-a64b-4598-b5b7-6c85bf932f82","system_id":"levelo_inurba_marseille","lat":43.273609,"lon":5.362708,"is_reserved":false,"is_disabled":false,"rental_uris":{"android":"levelo://app?vid=06a01118-a64b-4598-b5b7-6c85bf932f82","ios":"levelo://app?vid=06a01118-a64b-4598-b5b7-6c85bf932f82"},"vehicle_type_id":"4","last_reported":1701007538,"current_range_meters":31200,"station_id":"ce4bhbh2rcd13ifvqeo0","pricing_plan_id":"free"},{"bike_id":"1de1779f-b7d8-44eb-9f73-68cb06aaa9e3","system_id":"levelo_inurba_marseille","lat":43.273609,"lon":5.362708,"is_reserved":false,"is_disabled":false,"rental_uris":{"android":"levelo://app?vid=1de1779f-b7d8-44eb-9f73-68cb06aaa9e3","ios":"levelo://app?vid=1de1779f-b7d8-44eb-9f73-68cb06aaa9e3"},"vehicle_type_id":"4","last_reported":1701007538,"current_range_meters":31200,"station_id":"ce4bhbh2rcd13ifvqeo0","pricing_plan_id":"free"},{"bike_id":"ce057962-e1f9-49c9-a466-b058d35d1eb2","system_id":"levelo_inurba_marseille","lat":43.336148,"lon":5.410349,"is_reserved":false,"is_disabled":false,"rental_uris":{"android":"levelo://app?vid=ce057962-e1f9-49c9-a466-b058d35d1eb2","ios":"levelo://app?vid=ce057962-e1f9-49c9-a466-b058d35d1eb2"},"vehicle_type_id":"4","last_reported":1701007538,"current_range_meters":16000,"station_id":"ce4bhqh2rcd13ifvqhmg","pricing_plan_id":"free"},{"bike_id":"6e3756e9-fa7d-4701-8d80-d2e79303d962","system_id":"levelo_inurba_marseille","lat":43.276769,"lon":5.388787,"is_reserved":false,"is_disabled":false,"rental_uris":{"android":"levelo://app?vid=6e3756e9-fa7d-4701-8d80-d2e79303d962","ios":"levelo://app?vid=6e3756e9-fa7d-4701-8d80-d2e79303d962"},"vehicle_type_id":"4","last_reported":1701007538,"current_range_meters":28000,"station_id":"ce4bhi12rcd13ifvqfo0","pricing_plan_id":"free"},{"bike_id":"79e4c134-72f3-4e82-9e01-ced1ef6a60d4","system_id":"levelo_inurba_marseille","lat":43.336134,"lon":5.410341,"is_reserved":false,"is_disabled":false,"rental_uris":{"android":"levelo://app?vid=79e4c134-72f3-4e82-9e01-ced1ef6a60d4","ios":"levelo://app?vid=79e4c134-72f3-4e82-9e01-ced1ef6a60d4"},"vehicle_type_id":"4","last_reported":1701007538,"current_range_meters":21200,"station_id":"ce4bhqh2rcd13ifvqhmg","pricing_plan_id":"free"},{"bike_id":"35e6a62f-52a2-481d-8c01-e2ef3a718a77","system_id":"levelo_inurba_marseille","lat":43.279952,"lon":5.400085,"is_reserved":false,"is_disabled":false,"rental_uris":{"android":"levelo://app?vid=35e6a62f-52a2-481d-8c01-e2ef3a718a77","ios":"levelo://app?vid=35e6a62f-52a2-481d-8c01-e2ef3a718a77"},"vehicle_type_id":"4","last_reported":1701007538,"current_range_meters":14400,"station_id":"ce4bho92rcd13ifvqh4g","pricing_plan_id":"free"},{"bike_id":"b17013e8-0b4c-43b6-a4bd-3e9acc0427b5","system_id":"levelo_inurba_marseille","lat":43.279952,"lon":5.400085,"is_reserved":false,"is_disabled":false,"rental_uris":{"android":"levelo://app?vid=b17013e8-0b4c-43b6-a4bd-3e9acc0427b5","ios":"levelo://app?vid=b17013e8-0b4c-43b6-a4bd-3e9acc0427b5"},"vehicle_type_id":"4","last_reported":1701007538,"current_range_meters":12000,"station_id":"ce4bho92rcd13ifvqh4g","pricing_plan_id":"free"},{"bike_id":"2bac63be-2248-4f83-9913-6fa6e719b914","system_id":"levelo_inurba_marseille","lat":43.31082,"lon":5.42427,"is_reserved":false,"is_disabled":false,"rental_uris":{"android":"levelo://app?vid=2bac63be-2248-4f83-9913-6fa6e719b914","ios":"levelo://app?vid=2bac63be-2248-4f83-9913-6fa6e719b914"},"vehicle_type_id":"4","last_reported":1701007538,"current_range_meters":12800,"station_id":"ce4bhp92rcd13ifvqhag","pricing_plan_id":"free"},{"bike_id":"8eb5bdb0-5c9b-4999-93c3-a1a499ccf536","system_id":"levelo_inurba_marseille","lat":43.310785,"lon":5.424305,"is_reserved":false,"is_disabled":false,"rental_uris":{"android":"levelo://app?vid=8eb5bdb0-5c9b-4999-93c3-a1a499ccf536","ios":"levelo://app?vid=8eb5bdb0-5c9b-4999-93c3-a1a499ccf536"},"vehicle_type_id":"4","last_reported":1701007538,"current_range_meters":30800,"station_id":"ce4bhp92rcd13ifvqhag","pricing_plan_id":"free"},{"bike_id":"4a840da3-fdbc-4633-9cc0-12e811d835c6","system_id":"levelo_inurba_marseille","lat":43.304088,"lon":5.425388,"is_reserved":false,"is_disabled":false,"rental_uris":{"android":"levelo://app?vid=4a840da3-fdbc-4633-9cc0-12e811d835c6","ios":"levelo://app?vid=4a840da3-fdbc-4633-9cc0-12e811d835c6"},"vehicle_type_id":"4","last_reported":1701007538,"current_range_meters":20000,"station_id":"ce4bhoh2rcd13ifvqh6g","pricing_plan_id":"free"},{"bike_id":"ce9f8bef-be75-42a4-a53c-1be64df297ab","system_id":"levelo_inurba_marseille","lat":43.30412,"lon":5.42549,"is_reserved":false,"is_disabled":false,"rental_uris":{"android":"levelo://app?vid=ce9f8bef-be75-42a4-a53c-1be64df297ab","ios":"levelo://app?vid=ce9f8bef-be75-42a4-a53c-1be64df297ab"},"vehicle_type_id":"4","last_reported":1701007538,"current_range_meters":12400,"station_id":"ce4bhoh2rcd13ifvqh6g","pricing_plan_id":"free"},{"bike_id":"70360c44-7f15-4d73-a1b4-78f1f432b724","system_id":"levelo_inurba_marseille","lat":43.295523,"lon":5.422926,"is_reserved":false,"is_disabled":false,"rental_uris":{"android":"levelo://app?vid=70360c44-7f15-4d73-a1b4-78f1f432b724","ios":"levelo://app?vid=70360c44-7f15-4d73-a1b4-78f1f432b724"},"vehicle_type_id":"4","last_reported":1701007538,"current_range_meters":30000,"station_id":"ce4bhph2rcd13ifvqhdg","pricing_plan_id":"free"},{"bike_id":"dfbe7ccb-60b5-4ede-8244-bb94470c5d84","system_id":"levelo_inurba_marseille","lat":43.272458,"lon":5.392162,"is_reserved":false,"is_disabled":false,"rental_uris":{"android":"levelo://app?vid=dfbe7ccb-60b5-4ede-8244-bb94470c5d84","ios":"levelo://app?vid=dfbe7ccb-60b5-4ede-8244-bb94470c5d84"},"vehicle_type_id":"4","last_reported":1701007538,"current_range_meters":30000,"station_id":"ce4bhhp2rcd13ifvqfm0","pricing_plan_id":"free"},{"bike_id":"d53f32a6-814f-4f07-94f0-385ab9644adc","system_id":"levelo_inurba_marseille","lat":43.272204,"lon":5.39241,"is_reserved":false,"is_disabled":false,"rental_uris":{"android":"levelo://app?vid=d53f32a6-814f-4f07-94f0-385ab9644adc","ios":"levelo://app?vid=d53f32a6-814f-4f07-94f0-385ab9644adc"},"vehicle_type_id":"4","last_reported":1701007538,"current_range_meters":22000,"station_id":"","pricing_plan_id":"free"},{"bike_id":"c3afbfcd-267b-4a59-bbb8-0902ee509aed","system_id":"levelo_inurba_marseille","lat":43.26955,"lon":5.38624,"is_reserved":false,"is_disabled":false,"rental_uris":{"android":"levelo://app?vid=c3afbfcd-267b-4a59-bbb8-0902ee509aed","ios":"levelo://app?vid=c3afbfcd-267b-4a59-bbb8-0902ee509aed"},"vehicle_type_id":"4","last_reported":1701007538,"current_range_meters":21200,"station_id":"ce4bhh92rcd13ifvqfh0","pricing_plan_id":"free"},{"bike_id":"58eb8a06-6d28-4ec6-a188-66edf966b964","system_id":"levelo_inurba_marseille","lat":43.266788,"lon":5.38268,"is_reserved":false,"is_disabled":false,"rental_uris":{"android":"levelo://app?vid=58eb8a06-6d28-4ec6-a188-66edf966b964","ios":"levelo://app?vid=58eb8a06-6d28-4ec6-a188-66edf966b964"},"vehicle_type_id":"4","last_reported":1701007538,"current_range_meters":30800,"station_id":"ce4bhg92rcd13ifvqf90","pricing_plan_id":"free"},{"bike_id":"26d14a1a-c2cf-45e3-b7e1-ebb25b082a52","system_id":"levelo_inurba_marseille","lat":43.26681,"lon":5.382694,"is_reserved":false,"is_disabled":false,"rental_uris":{"android":"levelo://app?vid=26d14a1a-c2cf-45e3-b7e1-ebb25b082a52","ios":"levelo://app?vid=26d14a1a-c2cf-45e3-b7e1-ebb25b082a52"},"vehicle_type_id":"4","last_reported":1701007538,"current_range_meters":9600,"station_id":"ce4bhg92rcd13ifvqf90","pricing_plan_id":"free"},{"bike_id":"f23d8119-b478-4639-98c5-6883279f9f84","system_id":"levelo_inurba_marseille","lat":43.32592,"lon":5.43067,"is_reserved":false,"is_disabled":false,"rental_uris":{"android":"levelo://app?vid=f23d8119-b478-4639-98c5-6883279f9f84","ios":"levelo://app?vid=f23d8119-b478-4639-98c5-6883279f9f84"},"vehicle_type_id":"4","last_reported":1701007538,"current_range_meters":22800,"station_id":"","pricing_plan_id":"free"},{"bike_id":"ed30d6a1-b23a-49e5-9c83-5546be72a734","system_id":"levelo_inurba_marseille","lat":43.3259,"lon":5.43075,"is_reserved":false,"is_disabled":false,"rental_uris":{"android":"levelo://app?vid=ed30d6a1-b23a-49e5-9c83-5546be72a734","ios":"levelo://app?vid=ed30d6a1-b23a-49e5-9c83-5546be72a734"},"vehicle_type_id":"4","last_reported":1701007538,"current_range_meters":17600,"station_id":"","pricing_plan_id":"free"},{"bike_id":"d67469ee-5362-4610-a163-fe05ae3cf4f7","system_id":"levelo_inurba_marseille","lat":43.32604,"lon":5.430817,"is_reserved":false,"is_disabled":false,"rental_uris":{"android":"levelo://app?vid=d67469ee-5362-4610-a163-fe05ae3cf4f7","ios":"levelo://app?vid=d67469ee-5362-4610-a163-fe05ae3cf4f7"},"vehicle_type_id":"4","last_reported":1701007538,"current_range_meters":6000,"station_id":"","pricing_plan_id":"free"},{"bike_id":"bd37935e-3154-4a66-9bc1-301bafdd6138","system_id":"levelo_inurba_marseille","lat":43.27996,"lon":5.416624,"is_reserved":false,"is_disabled":false,"rental_uris":{"android":"levelo://app?vid=bd37935e-3154-4a66-9bc1-301bafdd6138","ios":"levelo://app?vid=bd37935e-3154-4a66-9bc1-301bafdd6138"},"vehicle_type_id":"4","last_reported":1701007538,"current_range_meters":15600,"station_id":"ce4bho12rcd13ifvqh1g","pricing_plan_id":"free"},{"bike_id":"a0ce5efb-71f1-449a-874e-e0c313a210f0","system_id":"levelo_inurba_marseille","lat":43.267966,"lon":5.393976,"is_reserved":false,"is_disabled":false,"rental_uris":{"android":"levelo://app?vid=a0ce5efb-71f1-449a-874e-e0c313a210f0","ios":"levelo://app?vid=a0ce5efb-71f1-449a-874e-e0c313a210f0"},"vehicle_type_id":"4","last_reported":1701007538,"current_range_meters":2800,"station_id":"ce4bhh12rcd13ifvqfg0","pricing_plan_id":"free"},{"bike_id":"8c3d0c68-a3fb-4485-8f31-c489ae8ea108","system_id":"levelo_inurba_marseille","lat":43.267966,"lon":5.393976,"is_reserved":false,"is_disabled":false,"rental_uris":{"android":"levelo://app?vid=8c3d0c68-a3fb-4485-8f31-c489ae8ea108","ios":"levelo://app?vid=8c3d0c68-a3fb-4485-8f31-c489ae8ea108"},"vehicle_type_id":"4","last_reported":1701007538,"current_range_meters":24800,"station_id":"ce4bhh12rcd13ifvqfg0","pricing_plan_id":"free"},{"bike_id":"0e62170d-9e16-4cab-84d4-f2daa0a18118","system_id":"levelo_inurba_marseille","lat":43.267966,"lon":5.393976,"is_reserved":false,"is_disabled":false,"rental_uris":{"android":"levelo://app?vid=0e62170d-9e16-4cab-84d4-f2daa0a18118","ios":"levelo://app?vid=0e62170d-9e16-4cab-84d4-f2daa0a18118"},"vehicle_type_id":"4","last_reported":1701007538,"current_range_meters":26400,"station_id":"ce4bhh12rcd13ifvqfg0","pricing_plan_id":"free"},{"bike_id":"2b5f0b27-ae58-4e9e-bd76-c585f78e8a73","system_id":"levelo_inurba_marseille","lat":43.26386,"lon":5.37454,"is_reserved":false,"is_disabled":false,"rental_uris":{"android":"levelo://app?vid=2b5f0b27-ae58-4e9e-bd76-c585f78e8a73","ios":"levelo://app?vid=2b5f0b27-ae58-4e9e-bd76-c585f78e8a73"},"vehicle_type_id":"4","last_reported":1701007538,"current_range_meters":6800,"station_id":"","pricing_plan_id":"free"},{"bike_id":"ca8c4cab-2425-47a8-8501-9ea253c74603","system_id":"levelo_inurba_marseille","lat":43.265571,"lon":5.390032,"is_reserved":false,"is_disabled":false,"rental_uris":{"android":"levelo://app?vid=ca8c4cab-2425-47a8-8501-9ea253c74603","ios":"levelo://app?vid=ca8c4cab-2425-47a8-8501-9ea253c74603"},"vehicle_type_id":"4","last_reported":1701007538,"current_range_meters":20800,"station_id":"ce4bhe12rcd13ifvqf30","pricing_plan_id":"free"},{"bike_id":"e2925046-5f67-46e3-b53c-98109654e0f7","system_id":"levelo_inurba_marseille","lat":43.26199,"lon":5.37434,"is_reserved":false,"is_disabled":false,"rental_uris":{"android":"levelo://app?vid=e2925046-5f67-46e3-b53c-98109654e0f7","ios":"levelo://app?vid=e2925046-5f67-46e3-b53c-98109654e0f7"},"vehicle_type_id":"4","last_reported":1701007538,"current_range_meters":23200,"station_id":"ce4bhgp2rcd13ifvqfc0","pricing_plan_id":"free"},{"bike_id":"5b5cf634-965d-45d5-a599-cbba55b66ba4","system_id":"levelo_inurba_marseille","lat":43.26189,"lon":5.37444,"is_reserved":false,"is_disabled":false,"rental_uris":{"android":"levelo://app?vid=5b5cf634-965d-45d5-a599-cbba55b66ba4","ios":"levelo://app?vid=5b5cf634-965d-45d5-a599-cbba55b66ba4"},"vehicle_type_id":"4","last_reported":1701007538,"current_range_meters":12000,"station_id":"ce4bhgp2rcd13ifvqfc0","pricing_plan_id":"free"},{"bike_id":"34fb03c5-1575-4ab2-9ec7-ddc97067a93e","system_id":"levelo_inurba_marseille","lat":43.261782,"lon":5.374515,"is_reserved":false,"is_disabled":false,"rental_uris":{"android":"levelo://app?vid=34fb03c5-1575-4ab2-9ec7-ddc97067a93e","ios":"levelo://app?vid=34fb03c5-1575-4ab2-9ec7-ddc97067a93e"},"vehicle_type_id":"4","last_reported":1701007538,"current_range_meters":25200,"station_id":"ce4bhgp2rcd13ifvqfc0","pricing_plan_id":"free"},{"bike_id":"34e9d94a-a716-4b0c-93f4-cd00b136e1d7","system_id":"levelo_inurba_marseille","lat":43.31716,"lon":5.43704,"is_reserved":false,"is_disabled":false,"rental_uris":{"android":"levelo://app?vid=34e9d94a-a716-4b0c-93f4-cd00b136e1d7","ios":"levelo://app?vid=34e9d94a-a716-4b0c-93f4-cd00b136e1d7"},"vehicle_type_id":"4","last_reported":1701007538,"current_range_meters":0,"station_id":"ce4bhp92rcd13ifvqhcg","pricing_plan_id":"free"},{"bike_id":"ec593df7-85d2-4a7c-a892-75fec147bf75","system_id":"levelo_inurba_marseille","lat":43.317104,"lon":5.436818,"is_reserved":false,"is_disabled":false,"rental_uris":{"android":"levelo://app?vid=ec593df7-85d2-4a7c-a892-75fec147bf75","ios":"levelo://app?vid=ec593df7-85d2-4a7c-a892-75fec147bf75"},"vehicle_type_id":"4","last_reported":1701007538,"current_range_meters":31200,"station_id":"ce4bhp92rcd13ifvqhcg","pricing_plan_id":"free"},{"bike_id":"ecae9f30-3a68-4752-a7b3-c87aa77ed442","system_id":"levelo_inurba_marseille","lat":43.262012,"lon":5.379307,"is_reserved":false,"is_disabled":false,"rental_uris":{"android":"levelo://app?vid=ecae9f30-3a68-4752-a7b3-c87aa77ed442","ios":"levelo://app?vid=ecae9f30-3a68-4752-a7b3-c87aa77ed442"},"vehicle_type_id":"4","last_reported":1701007538,"current_range_meters":14000,"station_id":"ce4bhjp2rcd13ifvqg90","pricing_plan_id":"free"},{"bike_id":"3b0d8a85-757d-4e5a-8804-f98915973b25","system_id":"levelo_inurba_marseille","lat":43.267959,"lon":5.402687,"is_reserved":false,"is_disabled":false,"rental_uris":{"android":"levelo://app?vid=3b0d8a85-757d-4e5a-8804-f98915973b25","ios":"levelo://app?vid=3b0d8a85-757d-4e5a-8804-f98915973b25"},"vehicle_type_id":"4","last_reported":1701007538,"current_range_meters":24000,"station_id":"ce501612rcd8frsf0b60","pricing_plan_id":"free"},{"bike_id":"13efbc1c-d5e6-4098-8f82-49cd483b6f29","system_id":"levelo_inurba_marseille","lat":43.267959,"lon":5.402687,"is_reserved":false,"is_disabled":false,"rental_uris":{"android":"levelo://app?vid=13efbc1c-d5e6-4098-8f82-49cd483b6f29","ios":"levelo://app?vid=13efbc1c-d5e6-4098-8f82-49cd483b6f29"},"vehicle_type_id":"4","last_reported":1701007538,"current_range_meters":26400,"station_id":"ce501612rcd8frsf0b60","pricing_plan_id":"free"},{"bike_id":"7c5a83ac-336c-4b91-a5ea-82b3c6d6127d","system_id":"levelo_inurba_marseille","lat":43.298768,"lon":5.43643,"is_reserved":false,"is_disabled":false,"rental_uris":{"android":"levelo://app?vid=7c5a83ac-336c-4b91-a5ea-82b3c6d6127d","ios":"levelo://app?vid=7c5a83ac-336c-4b91-a5ea-82b3c6d6127d"},"vehicle_type_id":"4","last_reported":1701007538,"current_range_meters":31200,"station_id":"ce4bhpp2rcd13ifvqhfg","pricing_plan_id":"free"},{"bike_id":"f4f2e1d5-dafa-412d-9b3a-3611814786ce","system_id":"levelo_inurba_marseille","lat":43.298768,"lon":5.43643,"is_reserved":false,"is_disabled":false,"rental_uris":{"android":"levelo://app?vid=f4f2e1d5-dafa-412d-9b3a-3611814786ce","ios":"levelo://app?vid=f4f2e1d5-dafa-412d-9b3a-3611814786ce"},"vehicle_type_id":"4","last_reported":1701007538,"current_range_meters":31200,"station_id":"ce4bhpp2rcd13ifvqhfg","pricing_plan_id":"free"},{"bike_id":"8af0d2ed-93d1-485d-9803-40c71e52d0d9","system_id":"levelo_inurba_marseille","lat":43.298768,"lon":5.43643,"is_reserved":false,"is_disabled":false,"rental_uris":{"android":"levelo://app?vid=8af0d2ed-93d1-485d-9803-40c71e52d0d9","ios":"levelo://app?vid=8af0d2ed-93d1-485d-9803-40c71e52d0d9"},"vehicle_type_id":"4","last_reported":1701007538,"current_range_meters":30400,"station_id":"ce4bhpp2rcd13ifvqhfg","pricing_plan_id":"free"},{"bike_id":"67f1551c-1d0a-4c03-9029-9e36d4249c0b","system_id":"levelo_inurba_marseille","lat":43.260225,"lon":5.375455,"is_reserved":false,"is_disabled":false,"rental_uris":{"android":"levelo://app?vid=67f1551c-1d0a-4c03-9029-9e36d4249c0b","ios":"levelo://app?vid=67f1551c-1d0a-4c03-9029-9e36d4249c0b"},"vehicle_type_id":"4","last_reported":1701007538,"current_range_meters":8400,"station_id":"ce4bhgh2rcd13ifvqfa0","pricing_plan_id":"free"},{"bike_id":"e432cd42-2f6f-4059-97cc-006dbdfe5fb7","system_id":"levelo_inurba_marseille","lat":43.260219,"lon":5.37546,"is_reserved":false,"is_disabled":false,"rental_uris":{"android":"levelo://app?vid=e432cd42-2f6f-4059-97cc-006dbdfe5fb7","ios":"levelo://app?vid=e432cd42-2f6f-4059-97cc-006dbdfe5fb7"},"vehicle_type_id":"4","last_reported":1701007538,"current_range_meters":11600,"station_id":"ce4bhgh2rcd13ifvqfa0","pricing_plan_id":"free"},{"bike_id":"d340848e-2b0d-4d5f-92e2-96390e01b29d","system_id":"levelo_inurba_marseille","lat":43.260219,"lon":5.37546,"is_reserved":false,"is_disabled":false,"rental_uris":{"android":"levelo://app?vid=d340848e-2b0d-4d5f-92e2-96390e01b29d","ios":"levelo://app?vid=d340848e-2b0d-4d5f-92e2-96390e01b29d"},"vehicle_type_id":"4","last_reported":1701007538,"current_range_meters":19200,"station_id":"ce4bhgh2rcd13ifvqfa0","pricing_plan_id":"free"},{"bike_id":"ed4af0ef-9412-4371-87bb-771f1096cb79","system_id":"levelo_inurba_marseille","lat":43.260219,"lon":5.37546,"is_reserved":false,"is_disabled":false,"rental_uris":{"android":"levelo://app?vid=ed4af0ef-9412-4371-87bb-771f1096cb79","ios":"levelo://app?vid=ed4af0ef-9412-4371-87bb-771f1096cb79"},"vehicle_type_id":"4","last_reported":1701007538,"current_range_meters":25200,"station_id":"ce4bhgh2rcd13ifvqfa0","pricing_plan_id":"free"},{"bike_id":"842dcf66-28c7-40dc-af0b-7a3c6c857991","system_id":"levelo_inurba_marseille","lat":43.28154,"lon":5.42636,"is_reserved":false,"is_disabled":false,"rental_uris":{"android":"levelo://app?vid=842dcf66-28c7-40dc-af0b-7a3c6c857991","ios":"levelo://app?vid=842dcf66-28c7-40dc-af0b-7a3c6c857991"},"vehicle_type_id":"4","last_reported":1701007538,"current_range_meters":25200,"station_id":"ce4bhnh2rcd13ifvqgug","pricing_plan_id":"free"},{"bike_id":"71b5f8f1-8785-46d9-854c-b19d78c121f0","system_id":"levelo_inurba_marseille","lat":43.281548,"lon":5.42643,"is_reserved":false,"is_disabled":false,"rental_uris":{"android":"levelo://app?vid=71b5f8f1-8785-46d9-854c-b19d78c121f0","ios":"levelo://app?vid=71b5f8f1-8785-46d9-854c-b19d78c121f0"},"vehicle_type_id":"4","last_reported":1701007538,"current_range_meters":28800,"station_id":"ce4bhnh2rcd13ifvqgug","pricing_plan_id":"free"},{"bike_id":"2628fb3a-9b3a-4836-8cca-8b1625de82d4","system_id":"levelo_inurba_marseille","lat":43.2815,"lon":5.42643,"is_reserved":false,"is_disabled":false,"rental_uris":{"android":"levelo://app?vid=2628fb3a-9b3a-4836-8cca-8b1625de82d4","ios":"levelo://app?vid=2628fb3a-9b3a-4836-8cca-8b1625de82d4"},"vehicle_type_id":"4","last_reported":1701007538,"current_range_meters":12000,"station_id":"ce4bhnh2rcd13ifvqgug","pricing_plan_id":"free"},{"bike_id":"93f24a8d-3dae-47b3-ab48-6377b70799c5","system_id":"levelo_inurba_marseille","lat":43.281548,"lon":5.42643,"is_reserved":false,"is_disabled":false,"rental_uris":{"android":"levelo://app?vid=93f24a8d-3dae-47b3-ab48-6377b70799c5","ios":"levelo://app?vid=93f24a8d-3dae-47b3-ab48-6377b70799c5"},"vehicle_type_id":"4","last_reported":1701007538,"current_range_meters":2400,"station_id":"ce4bhnh2rcd13ifvqgug","pricing_plan_id":"free"},{"bike_id":"c4713890-4836-4e46-9972-f1cf021d0d51","system_id":"levelo_inurba_marseille","lat":43.2607,"lon":5.393983,"is_reserved":false,"is_disabled":false,"rental_uris":{"android":"levelo://app?vid=c4713890-4836-4e46-9972-f1cf021d0d51","ios":"levelo://app?vid=c4713890-4836-4e46-9972-f1cf021d0d51"},"vehicle_type_id":"4","last_reported":1701007538,"current_range_meters":27200,"station_id":"ce4bhh92rcd13ifvqfj0","pricing_plan_id":"free"},{"bike_id":"94c2ae53-6c49-4c47-8f4f-ac673a30232c","system_id":"levelo_inurba_marseille","lat":43.275028,"lon":5.424534,"is_reserved":false,"is_disabled":false,"rental_uris":{"android":"levelo://app?vid=94c2ae53-6c49-4c47-8f4f-ac673a30232c","ios":"levelo://app?vid=94c2ae53-6c49-4c47-8f4f-ac673a30232c"},"vehicle_type_id":"4","last_reported":1701007538,"current_range_meters":20000,"station_id":"ce4bhn92rcd13ifvqgrg","pricing_plan_id":"free"},{"bike_id":"503bbd35-5565-42f7-9e59-5026d025b01e","system_id":"levelo_inurba_marseille","lat":43.274901,"lon":5.424514,"is_reserved":false,"is_disabled":false,"rental_uris":{"android":"levelo://app?vid=503bbd35-5565-42f7-9e59-5026d025b01e","ios":"levelo://app?vid=503bbd35-5565-42f7-9e59-5026d025b01e"},"vehicle_type_id":"4","last_reported":1701007538,"current_range_meters":26800,"station_id":"ce4bhn92rcd13ifvqgrg","pricing_plan_id":"free"},{"bike_id":"9ae83bda-b0aa-4bb6-8db1-9e8551b5d543","system_id":"levelo_inurba_marseille","lat":43.260862,"lon":5.397612,"is_reserved":false,"is_disabled":false,"rental_uris":{"android":"levelo://app?vid=9ae83bda-b0aa-4bb6-8db1-9e8551b5d543","ios":"levelo://app?vid=9ae83bda-b0aa-4bb6-8db1-9e8551b5d543"},"vehicle_type_id":"4","last_reported":1701007538,"current_range_meters":28400,"station_id":"ce4bhi12rcd13ifvqfq0","pricing_plan_id":"free"},{"bike_id":"c85f7616-3a9e-47a4-ae16-28a03e51ab4f","system_id":"levelo_inurba_marseille","lat":43.28929,"lon":5.438754,"is_reserved":false,"is_disabled":false,"rental_uris":{"android":"levelo://app?vid=c85f7616-3a9e-47a4-ae16-28a03e51ab4f","ios":"levelo://app?vid=c85f7616-3a9e-47a4-ae16-28a03e51ab4f"},"vehicle_type_id":"4","last_reported":1701007538,"current_range_meters":8800,"station_id":"","pricing_plan_id":"free"},{"bike_id":"cbab7af3-661c-45b1-b233-e4189757f645","system_id":"levelo_inurba_marseille","lat":43.254947,"lon":5.376454,"is_reserved":false,"is_disabled":false,"rental_uris":{"android":"levelo://app?vid=cbab7af3-661c-45b1-b233-e4189757f645","ios":"levelo://app?vid=cbab7af3-661c-45b1-b233-e4189757f645"},"vehicle_type_id":"4","last_reported":1701007538,"current_range_meters":1600,"station_id":"ce4bhh12rcd13ifvqff0","pricing_plan_id":"free"},{"bike_id":"1967e706-65bf-4c3e-b480-95103e4e8f1f","system_id":"levelo_inurba_marseille","lat":43.25488,"lon":5.3765,"is_reserved":false,"is_disabled":false,"rental_uris":{"android":"levelo://app?vid=1967e706-65bf-4c3e-b480-95103e4e8f1f","ios":"levelo://app?vid=1967e706-65bf-4c3e-b480-95103e4e8f1f"},"vehicle_type_id":"4","last_reported":1701007538,"current_range_meters":11200,"station_id":"ce4bhh12rcd13ifvqff0","pricing_plan_id":"free"},{"bike_id":"fa94e1b3-924d-484c-aa3a-070aacbdbbfd","system_id":"levelo_inurba_marseille","lat":43.27066,"lon":5.42272,"is_reserved":false,"is_disabled":false,"rental_uris":{"android":"levelo://app?vid=fa94e1b3-924d-484c-aa3a-070aacbdbbfd","ios":"levelo://app?vid=fa94e1b3-924d-484c-aa3a-070aacbdbbfd"},"vehicle_type_id":"4","last_reported":1701007538,"current_range_meters":29200,"station_id":"ce4bhk92rcd13ifvqgb0","pricing_plan_id":"free"},{"bike_id":"bfd7f8f2-3107-42c7-93e8-ff53ea45d111","system_id":"levelo_inurba_marseille","lat":43.270721,"lon":5.422764,"is_reserved":false,"is_disabled":false,"rental_uris":{"android":"levelo://app?vid=bfd7f8f2-3107-42c7-93e8-ff53ea45d111","ios":"levelo://app?vid=bfd7f8f2-3107-42c7-93e8-ff53ea45d111"},"vehicle_type_id":"4","last_reported":1701007538,"current_range_meters":11200,"station_id":"ce4bhk92rcd13ifvqgb0","pricing_plan_id":"free"},{"bike_id":"3764d48b-8e61-4222-bf2f-e0a7f6536aa8","system_id":"levelo_inurba_marseille","lat":43.27064,"lon":5.42274,"is_reserved":false,"is_disabled":false,"rental_uris":{"android":"levelo://app?vid=3764d48b-8e61-4222-bf2f-e0a7f6536aa8","ios":"levelo://app?vid=3764d48b-8e61-4222-bf2f-e0a7f6536aa8"},"vehicle_type_id":"4","last_reported":1701007538,"current_range_meters":30400,"station_id":"ce4bhk92rcd13ifvqgb0","pricing_plan_id":"free"},{"bike_id":"c683c13a-a9fe-443b-a860-642c2b85e5b7","system_id":"levelo_inurba_marseille","lat":43.27069,"lon":5.42282,"is_reserved":false,"is_disabled":false,"rental_uris":{"android":"levelo://app?vid=c683c13a-a9fe-443b-a860-642c2b85e5b7","ios":"levelo://app?vid=c683c13a-a9fe-443b-a860-642c2b85e5b7"},"vehicle_type_id":"4","last_reported":1701007538,"current_range_meters":10400,"station_id":"ce4bhk92rcd13ifvqgb0","pricing_plan_id":"free"},{"bike_id":"23688042-04a3-41ce-8402-7680d754251a","system_id":"levelo_inurba_marseille","lat":43.259013,"lon":5.409301,"is_reserved":false,"is_disabled":false,"rental_uris":{"android":"levelo://app?vid=23688042-04a3-41ce-8402-7680d754251a","ios":"levelo://app?vid=23688042-04a3-41ce-8402-7680d754251a"},"vehicle_type_id":"4","last_reported":1701007538,"current_range_meters":7600,"station_id":"ce4bhm92rcd13ifvqglg","pricing_plan_id":"free"},{"bike_id":"e9b6a1d5-c740-405d-a6f8-282eec5a3660","system_id":"levelo_inurba_marseille","lat":43.25729,"lon":5.41106,"is_reserved":false,"is_disabled":false,"rental_uris":{"android":"levelo://app?vid=e9b6a1d5-c740-405d-a6f8-282eec5a3660","ios":"levelo://app?vid=e9b6a1d5-c740-405d-a6f8-282eec5a3660"},"vehicle_type_id":"4","last_reported":1701007538,"current_range_meters":16000,"station_id":"ce4bhkp2rcd13ifvqgd0","pricing_plan_id":"free"},{"bike_id":"21b63db2-6cf9-4dd2-a468-5103178c805c","system_id":"levelo_inurba_marseille","lat":43.257079,"lon":5.411051,"is_reserved":false,"is_disabled":false,"rental_uris":{"android":"levelo://app?vid=21b63db2-6cf9-4dd2-a468-5103178c805c","ios":"levelo://app?vid=21b63db2-6cf9-4dd2-a468-5103178c805c"},"vehicle_type_id":"4","last_reported":1701007538,"current_range_meters":22800,"station_id":"ce4bhkp2rcd13ifvqgd0","pricing_plan_id":"free"},{"bike_id":"fc870209-5aff-4dd1-ae31-9b5847a2d23c","system_id":"levelo_inurba_marseille","lat":43.257079,"lon":5.411051,"is_reserved":false,"is_disabled":false,"rental_uris":{"android":"levelo://app?vid=fc870209-5aff-4dd1-ae31-9b5847a2d23c","ios":"levelo://app?vid=fc870209-5aff-4dd1-ae31-9b5847a2d23c"},"vehicle_type_id":"4","last_reported":1701007538,"current_range_meters":18800,"station_id":"ce4bhkp2rcd13ifvqgd0","pricing_plan_id":"free"},{"bike_id":"543aa29a-345d-44be-9327-080150278834","system_id":"levelo_inurba_marseille","lat":43.257079,"lon":5.411051,"is_reserved":false,"is_disabled":false,"rental_uris":{"android":"levelo://app?vid=543aa29a-345d-44be-9327-080150278834","ios":"levelo://app?vid=543aa29a-345d-44be-9327-080150278834"},"vehicle_type_id":"4","last_reported":1701007538,"current_range_meters":31600,"station_id":"ce4bhkp2rcd13ifvqgd0","pricing_plan_id":"free"},{"bike_id":"988d80d8-82d1-4beb-a095-a01e5589d1d2","system_id":"levelo_inurba_marseille","lat":43.25001,"lon":5.38928,"is_reserved":false,"is_disabled":false,"rental_uris":{"android":"levelo://app?vid=988d80d8-82d1-4beb-a095-a01e5589d1d2","ios":"levelo://app?vid=988d80d8-82d1-4beb-a095-a01e5589d1d2"},"vehicle_type_id":"4","last_reported":1701007538,"current_range_meters":3200,"station_id":"ce4bhgp2rcd13ifvqfd0","pricing_plan_id":"free"},{"bike_id":"9875c6a0-44d2-4592-8f70-7937a3f352a0","system_id":"levelo_inurba_marseille","lat":43.24814,"lon":5.37461,"is_reserved":false,"is_disabled":false,"rental_uris":{"android":"levelo://app?vid=9875c6a0-44d2-4592-8f70-7937a3f352a0","ios":"levelo://app?vid=9875c6a0-44d2-4592-8f70-7937a3f352a0"},"vehicle_type_id":"4","last_reported":1701007538,"current_range_meters":22400,"station_id":"ce4bhgh2rcd13ifvqfb0","pricing_plan_id":"free"},{"bike_id":"21e75d00-8156-4063-a5a2-0428cfc125a8","system_id":"levelo_inurba_marseille","lat":43.24808,"lon":5.37461,"is_reserved":false,"is_disabled":false,"rental_uris":{"android":"levelo://app?vid=21e75d00-8156-4063-a5a2-0428cfc125a8","ios":"levelo://app?vid=21e75d00-8156-4063-a5a2-0428cfc125a8"},"vehicle_type_id":"4","last_reported":1701007538,"current_range_meters":31200,"station_id":"ce4bhgh2rcd13ifvqfb0","pricing_plan_id":"free"},{"bike_id":"50b19268-faef-4615-9fa1-4a1666cb2ac3","system_id":"levelo_inurba_marseille","lat":43.2479,"lon":5.374457,"is_reserved":false,"is_disabled":false,"rental_uris":{"android":"levelo://app?vid=50b19268-faef-4615-9fa1-4a1666cb2ac3","ios":"levelo://app?vid=50b19268-faef-4615-9fa1-4a1666cb2ac3"},"vehicle_type_id":"4","last_reported":1701007538,"current_range_meters":21600,"station_id":"ce4bhgh2rcd13ifvqfb0","pricing_plan_id":"free"},{"bike_id":"1f0c50d3-0be5-4fcd-b12e-29cf21c31d91","system_id":"levelo_inurba_marseille","lat":43.2479,"lon":5.374457,"is_reserved":false,"is_disabled":false,"rental_uris":{"android":"levelo://app?vid=1f0c50d3-0be5-4fcd-b12e-29cf21c31d91","ios":"levelo://app?vid=1f0c50d3-0be5-4fcd-b12e-29cf21c31d91"},"vehicle_type_id":"4","last_reported":1701007538,"current_range_meters":20400,"station_id":"ce4bhgh2rcd13ifvqfb0","pricing_plan_id":"free"},{"bike_id":"4f0efb12-87f5-4d11-ad98-fe64cc7903d6","system_id":"levelo_inurba_marseille","lat":43.24805,"lon":5.37465,"is_reserved":false,"is_disabled":false,"rental_uris":{"android":"levelo://app?vid=4f0efb12-87f5-4d11-ad98-fe64cc7903d6","ios":"levelo://app?vid=4f0efb12-87f5-4d11-ad98-fe64cc7903d6"},"vehicle_type_id":"4","last_reported":1701007538,"current_range_meters":30800,"station_id":"ce4bhgh2rcd13ifvqfb0","pricing_plan_id":"free"},{"bike_id":"c98b5d95-31ff-44d5-888b-053d002d6be5","system_id":"levelo_inurba_marseille","lat":43.2479,"lon":5.374457,"is_reserved":false,"is_disabled":false,"rental_uris":{"android":"levelo://app?vid=c98b5d95-31ff-44d5-888b-053d002d6be5","ios":"levelo://app?vid=c98b5d95-31ff-44d5-888b-053d002d6be5"},"vehicle_type_id":"4","last_reported":1701007538,"current_range_meters":20000,"station_id":"ce4bhgh2rcd13ifvqfb0","pricing_plan_id":"free"},{"bike_id":"976642f9-07a6-42c1-98ea-3112272ce277","system_id":"levelo_inurba_marseille","lat":43.2479,"lon":5.374457,"is_reserved":false,"is_disabled":false,"rental_uris":{"android":"levelo://app?vid=976642f9-07a6-42c1-98ea-3112272ce277","ios":"levelo://app?vid=976642f9-07a6-42c1-98ea-3112272ce277"},"vehicle_type_id":"4","last_reported":1701007538,"current_range_meters":24800,"station_id":"ce4bhgh2rcd13ifvqfb0","pricing_plan_id":"free"},{"bike_id":"66739f60-8921-490b-8824-d05cf89b1172","system_id":"levelo_inurba_marseille","lat":43.250897,"lon":5.395161,"is_reserved":false,"is_disabled":false,"rental_uris":{"android":"levelo://app?vid=66739f60-8921-490b-8824-d05cf89b1172","ios":"levelo://app?vid=66739f60-8921-490b-8824-d05cf89b1172"},"vehicle_type_id":"4","last_reported":1701007538,"current_range_meters":24000,"station_id":"ce4bhm12rcd13ifvqgkg","pricing_plan_id":"free"},{"bike_id":"88618d71-0084-402d-9b6d-b450e92f1896","system_id":"levelo_inurba_marseille","lat":43.24693,"lon":5.382096,"is_reserved":false,"is_disabled":false,"rental_uris":{"android":"levelo://app?vid=88618d71-0084-402d-9b6d-b450e92f1896","ios":"levelo://app?vid=88618d71-0084-402d-9b6d-b450e92f1896"},"vehicle_type_id":"4","last_reported":1701007538,"current_range_meters":25200,"station_id":"ce4bhih2rcd13ifvqfr0","pricing_plan_id":"free"},{"bike_id":"66c6ec53-8673-42a6-9d0c-7bfa8b99190d","system_id":"levelo_inurba_marseille","lat":43.25114,"lon":5.40323,"is_reserved":false,"is_disabled":false,"rental_uris":{"android":"levelo://app?vid=66c6ec53-8673-42a6-9d0c-7bfa8b99190d","ios":"levelo://app?vid=66c6ec53-8673-42a6-9d0c-7bfa8b99190d"},"vehicle_type_id":"4","last_reported":1701007538,"current_range_meters":17200,"station_id":"ce4bhlh2rcd13ifvqgig","pricing_plan_id":"free"},{"bike_id":"201b185a-5669-4c97-9c02-dbc21133d357","system_id":"levelo_inurba_marseille","lat":43.2511,"lon":5.40321,"is_reserved":false,"is_disabled":false,"rental_uris":{"android":"levelo://app?vid=201b185a-5669-4c97-9c02-dbc21133d357","ios":"levelo://app?vid=201b185a-5669-4c97-9c02-dbc21133d357"},"vehicle_type_id":"4","last_reported":1701007538,"current_range_meters":9200,"station_id":"ce4bhlh2rcd13ifvqgig","pricing_plan_id":"free"},{"bike_id":"7c3cc716-debc-4231-84b0-a2cc87b75b53","system_id":"levelo_inurba_marseille","lat":43.25107,"lon":5.40313,"is_reserved":false,"is_disabled":false,"rental_uris":{"android":"levelo://app?vid=7c3cc716-debc-4231-84b0-a2cc87b75b53","ios":"levelo://app?vid=7c3cc716-debc-4231-84b0-a2cc87b75b53"},"vehicle_type_id":"4","last_reported":1701007538,"current_range_meters":0,"station_id":"ce4bhlh2rcd13ifvqgig","pricing_plan_id":"free"},{"bike_id":"29c0909b-0a4d-4ec4-abdf-99885771b1c2","system_id":"levelo_inurba_marseille","lat":43.251113,"lon":5.403274,"is_reserved":false,"is_disabled":false,"rental_uris":{"android":"levelo://app?vid=29c0909b-0a4d-4ec4-abdf-99885771b1c2","ios":"levelo://app?vid=29c0909b-0a4d-4ec4-abdf-99885771b1c2"},"vehicle_type_id":"4","last_reported":1701007538,"current_range_meters":6400,"station_id":"ce4bhlh2rcd13ifvqgig","pricing_plan_id":"free"},{"bike_id":"e80b8896-63a5-4d22-85cd-bcb1d8f61565","system_id":"levelo_inurba_marseille","lat":43.25109,"lon":5.40324,"is_reserved":false,"is_disabled":false,"rental_uris":{"android":"levelo://app?vid=e80b8896-63a5-4d22-85cd-bcb1d8f61565","ios":"levelo://app?vid=e80b8896-63a5-4d22-85cd-bcb1d8f61565"},"vehicle_type_id":"4","last_reported":1701007538,"current_range_meters":0,"station_id":"ce4bhlh2rcd13ifvqgig","pricing_plan_id":"free"},{"bike_id":"10a769c5-22b1-498a-b78b-7c81bbaf2a30","system_id":"levelo_inurba_marseille","lat":43.25102,"lon":5.403214,"is_reserved":false,"is_disabled":false,"rental_uris":{"android":"levelo://app?vid=10a769c5-22b1-498a-b78b-7c81bbaf2a30","ios":"levelo://app?vid=10a769c5-22b1-498a-b78b-7c81bbaf2a30"},"vehicle_type_id":"4","last_reported":1701007538,"current_range_meters":31200,"station_id":"ce4bhlh2rcd13ifvqgig","pricing_plan_id":"free"},{"bike_id":"d33e1429-33ed-402e-96c6-c9a17585b822","system_id":"levelo_inurba_marseille","lat":43.25108,"lon":5.40321,"is_reserved":false,"is_disabled":false,"rental_uris":{"android":"levelo://app?vid=d33e1429-33ed-402e-96c6-c9a17585b822","ios":"levelo://app?vid=d33e1429-33ed-402e-96c6-c9a17585b822"},"vehicle_type_id":"4","last_reported":1701007538,"current_range_meters":11600,"station_id":"ce4bhlh2rcd13ifvqgig","pricing_plan_id":"free"},{"bike_id":"81783849-a75c-4ea1-b28c-026c6ee47526","system_id":"levelo_inurba_marseille","lat":43.25108,"lon":5.40322,"is_reserved":false,"is_disabled":false,"rental_uris":{"android":"levelo://app?vid=81783849-a75c-4ea1-b28c-026c6ee47526","ios":"levelo://app?vid=81783849-a75c-4ea1-b28c-026c6ee47526"},"vehicle_type_id":"4","last_reported":1701007538,"current_range_meters":19600,"station_id":"ce4bhlh2rcd13ifvqgig","pricing_plan_id":"free"},{"bike_id":"fa25da3e-0157-47a0-a624-509e486ae2a3","system_id":"levelo_inurba_marseille","lat":43.25107,"lon":5.40323,"is_reserved":false,"is_disabled":false,"rental_uris":{"android":"levelo://app?vid=fa25da3e-0157-47a0-a624-509e486ae2a3","ios":"levelo://app?vid=fa25da3e-0157-47a0-a624-509e486ae2a3"},"vehicle_type_id":"4","last_reported":1701007538,"current_range_meters":31200,"station_id":"ce4bhlh2rcd13ifvqgig","pricing_plan_id":"free"},{"bike_id":"835bcf94-62ca-41b5-84de-3fef0d179645","system_id":"levelo_inurba_marseille","lat":43.25109,"lon":5.4033,"is_reserved":false,"is_disabled":false,"rental_uris":{"android":"levelo://app?vid=835bcf94-62ca-41b5-84de-3fef0d179645","ios":"levelo://app?vid=835bcf94-62ca-41b5-84de-3fef0d179645"},"vehicle_type_id":"4","last_reported":1701007538,"current_range_meters":18800,"station_id":"ce4bhlh2rcd13ifvqgig","pricing_plan_id":"free"},{"bike_id":"d96a0208-b8d5-4b38-a524-679d84cc589e","system_id":"levelo_inurba_marseille","lat":43.25098,"lon":5.40321,"is_reserved":false,"is_disabled":false,"rental_uris":{"android":"levelo://app?vid=d96a0208-b8d5-4b38-a524-679d84cc589e","ios":"levelo://app?vid=d96a0208-b8d5-4b38-a524-679d84cc589e"},"vehicle_type_id":"4","last_reported":1701007538,"current_range_meters":13600,"station_id":"ce4bhlh2rcd13ifvqgig","pricing_plan_id":"free"},{"bike_id":"618531b3-e404-4c3d-ab62-6fff3fa203fd","system_id":"levelo_inurba_marseille","lat":43.24391,"lon":5.37064,"is_reserved":false,"is_disabled":false,"rental_uris":{"android":"levelo://app?vid=618531b3-e404-4c3d-ab62-6fff3fa203fd","ios":"levelo://app?vid=618531b3-e404-4c3d-ab62-6fff3fa203fd"},"vehicle_type_id":"4","last_reported":1701007538,"current_range_meters":23600,"station_id":"ce4bhhh2rcd13ifvqfk0","pricing_plan_id":"free"},{"bike_id":"c17afc5a-d341-4cb5-85b3-df17fd6c3ec4","system_id":"levelo_inurba_marseille","lat":43.243884,"lon":5.370737,"is_reserved":false,"is_disabled":false,"rental_uris":{"android":"levelo://app?vid=c17afc5a-d341-4cb5-85b3-df17fd6c3ec4","ios":"levelo://app?vid=c17afc5a-d341-4cb5-85b3-df17fd6c3ec4"},"vehicle_type_id":"4","last_reported":1701007538,"current_range_meters":14400,"station_id":"ce4bhhh2rcd13ifvqfk0","pricing_plan_id":"free"},{"bike_id":"8d1e3230-8af8-4fbc-bac3-790f883257f6","system_id":"levelo_inurba_marseille","lat":43.243884,"lon":5.370736,"is_reserved":false,"is_disabled":false,"rental_uris":{"android":"levelo://app?vid=8d1e3230-8af8-4fbc-bac3-790f883257f6","ios":"levelo://app?vid=8d1e3230-8af8-4fbc-bac3-790f883257f6"},"vehicle_type_id":"4","last_reported":1701007538,"current_range_meters":6400,"station_id":"ce4bhhh2rcd13ifvqfk0","pricing_plan_id":"free"},{"bike_id":"340073ff-1161-4fbe-b9ec-2571c4486fa6","system_id":"levelo_inurba_marseille","lat":43.243884,"lon":5.370736,"is_reserved":false,"is_disabled":false,"rental_uris":{"android":"levelo://app?vid=340073ff-1161-4fbe-b9ec-2571c4486fa6","ios":"levelo://app?vid=340073ff-1161-4fbe-b9ec-2571c4486fa6"},"vehicle_type_id":"4","last_reported":1701007538,"current_range_meters":26800,"station_id":"ce4bhhh2rcd13ifvqfk0","pricing_plan_id":"free"},{"bike_id":"b29dfda8-f720-4aab-afc1-f634e6d91320","system_id":"levelo_inurba_marseille","lat":43.245581,"lon":5.395069,"is_reserved":false,"is_disabled":false,"rental_uris":{"android":"levelo://app?vid=b29dfda8-f720-4aab-afc1-f634e6d91320","ios":"levelo://app?vid=b29dfda8-f720-4aab-afc1-f634e6d91320"},"vehicle_type_id":"4","last_reported":1701007538,"current_range_meters":20800,"station_id":"ce4bhlp2rcd13ifvqgjg","pricing_plan_id":"free"},{"bike_id":"d45f3848-5dca-40f4-8d32-5b4c70048e5b","system_id":"levelo_inurba_marseille","lat":43.240623,"lon":5.377642,"is_reserved":false,"is_disabled":false,"rental_uris":{"android":"levelo://app?vid=d45f3848-5dca-40f4-8d32-5b4c70048e5b","ios":"levelo://app?vid=d45f3848-5dca-40f4-8d32-5b4c70048e5b"},"vehicle_type_id":"4","last_reported":1701007538,"current_range_meters":23600,"station_id":"ce4bhnp2rcd13ifvqgvg","pricing_plan_id":"free"},{"bike_id":"d55cbb88-5924-46a2-8488-10aab03fc3a8","system_id":"levelo_inurba_marseille","lat":43.240623,"lon":5.377642,"is_reserved":false,"is_disabled":false,"rental_uris":{"android":"levelo://app?vid=d55cbb88-5924-46a2-8488-10aab03fc3a8","ios":"levelo://app?vid=d55cbb88-5924-46a2-8488-10aab03fc3a8"},"vehicle_type_id":"4","last_reported":1701007538,"current_range_meters":7600,"station_id":"ce4bhnp2rcd13ifvqgvg","pricing_plan_id":"free"},{"bike_id":"217786b1-4dab-4962-9623-7465eb354fbd","system_id":"levelo_inurba_marseille","lat":43.239588,"lon":5.366238,"is_reserved":false,"is_disabled":false,"rental_uris":{"android":"levelo://app?vid=217786b1-4dab-4962-9623-7465eb354fbd","ios":"levelo://app?vid=217786b1-4dab-4962-9623-7465eb354fbd"},"vehicle_type_id":"4","last_reported":1701007538,"current_range_meters":15600,"station_id":"ce4bhi12rcd13ifvqfp0","pricing_plan_id":"free"},{"bike_id":"0080302c-4f40-4437-97e2-709be1a3e045","system_id":"levelo_inurba_marseille","lat":43.239588,"lon":5.366238,"is_reserved":false,"is_disabled":false,"rental_uris":{"android":"levelo://app?vid=0080302c-4f40-4437-97e2-709be1a3e045","ios":"levelo://app?vid=0080302c-4f40-4437-97e2-709be1a3e045"},"vehicle_type_id":"4","last_reported":1701007538,"current_range_meters":19200,"station_id":"ce4bhi12rcd13ifvqfp0","pricing_plan_id":"free"},{"bike_id":"b4254b14-317d-47ed-a3af-381c067a81da","system_id":"levelo_inurba_marseille","lat":43.239588,"lon":5.366238,"is_reserved":false,"is_disabled":false,"rental_uris":{"android":"levelo://app?vid=b4254b14-317d-47ed-a3af-381c067a81da","ios":"levelo://app?vid=b4254b14-317d-47ed-a3af-381c067a81da"},"vehicle_type_id":"4","last_reported":1701007538,"current_range_meters":21200,"station_id":"ce4bhi12rcd13ifvqfp0","pricing_plan_id":"free"},{"bike_id":"d225a136-86b8-4823-b88f-87d47300dec8","system_id":"levelo_inurba_marseille","lat":43.239588,"lon":5.366238,"is_reserved":false,"is_disabled":false,"rental_uris":{"android":"levelo://app?vid=d225a136-86b8-4823-b88f-87d47300dec8","ios":"levelo://app?vid=d225a136-86b8-4823-b88f-87d47300dec8"},"vehicle_type_id":"4","last_reported":1701007538,"current_range_meters":26800,"station_id":"ce4bhi12rcd13ifvqfp0","pricing_plan_id":"free"},{"bike_id":"40f2500b-9afe-4632-9168-89dc8772014f","system_id":"levelo_inurba_marseille","lat":43.241782,"lon":5.397261,"is_reserved":false,"is_disabled":false,"rental_uris":{"android":"levelo://app?vid=40f2500b-9afe-4632-9168-89dc8772014f","ios":"levelo://app?vid=40f2500b-9afe-4632-9168-89dc8772014f"},"vehicle_type_id":"4","last_reported":1701007538,"current_range_meters":31200,"station_id":"ce4bhn12rcd13ifvqgpg","pricing_plan_id":"free"},{"bike_id":"b03204fb-1ac1-4923-ba56-22eaa833dad5","system_id":"levelo_inurba_marseille","lat":43.241782,"lon":5.397264,"is_reserved":false,"is_disabled":false,"rental_uris":{"android":"levelo://app?vid=b03204fb-1ac1-4923-ba56-22eaa833dad5","ios":"levelo://app?vid=b03204fb-1ac1-4923-ba56-22eaa833dad5"},"vehicle_type_id":"4","last_reported":1701007538,"current_range_meters":20000,"station_id":"ce4bhn12rcd13ifvqgpg","pricing_plan_id":"free"},{"bike_id":"2c87cc00-2108-43d3-802b-16aba0b183e2","system_id":"levelo_inurba_marseille","lat":43.241782,"lon":5.397261,"is_reserved":false,"is_disabled":false,"rental_uris":{"android":"levelo://app?vid=2c87cc00-2108-43d3-802b-16aba0b183e2","ios":"levelo://app?vid=2c87cc00-2108-43d3-802b-16aba0b183e2"},"vehicle_type_id":"4","last_reported":1701007538,"current_range_meters":11600,"station_id":"ce4bhn12rcd13ifvqgpg","pricing_plan_id":"free"},{"bike_id":"7c3d6084-04fb-4b4b-8f50-0056a17d8b89","system_id":"levelo_inurba_marseille","lat":43.231923,"lon":5.355545,"is_reserved":false,"is_disabled":false,"rental_uris":{"android":"levelo://app?vid=7c3d6084-04fb-4b4b-8f50-0056a17d8b89","ios":"levelo://app?vid=7c3d6084-04fb-4b4b-8f50-0056a17d8b89"},"vehicle_type_id":"4","last_reported":1701007538,"current_range_meters":17200,"station_id":"ce4bhu92rcd13ifvqi70","pricing_plan_id":"free"},{"bike_id":"04f45584-c1fb-49e6-8e70-9397903c1fc8","system_id":"levelo_inurba_marseille","lat":43.231923,"lon":5.355545,"is_reserved":false,"is_disabled":false,"rental_uris":{"android":"levelo://app?vid=04f45584-c1fb-49e6-8e70-9397903c1fc8","ios":"levelo://app?vid=04f45584-c1fb-49e6-8e70-9397903c1fc8"},"vehicle_type_id":"4","last_reported":1701007538,"current_range_meters":30400,"station_id":"ce4bhu92rcd13ifvqi70","pricing_plan_id":"free"},{"bike_id":"91765ddf-978e-45f0-bbde-967d6373ad22","system_id":"levelo_inurba_marseille","lat":43.231923,"lon":5.355545,"is_reserved":false,"is_disabled":false,"rental_uris":{"android":"levelo://app?vid=91765ddf-978e-45f0-bbde-967d6373ad22","ios":"levelo://app?vid=91765ddf-978e-45f0-bbde-967d6373ad22"},"vehicle_type_id":"4","last_reported":1701007538,"current_range_meters":23200,"station_id":"ce4bhu92rcd13ifvqi70","pricing_plan_id":"free"},{"bike_id":"1c2c15cc-76c3-43ba-8014-80c82593eadd","system_id":"levelo_inurba_marseille","lat":43.231923,"lon":5.355545,"is_reserved":false,"is_disabled":false,"rental_uris":{"android":"levelo://app?vid=1c2c15cc-76c3-43ba-8014-80c82593eadd","ios":"levelo://app?vid=1c2c15cc-76c3-43ba-8014-80c82593eadd"},"vehicle_type_id":"4","last_reported":1701007538,"current_range_meters":28800,"station_id":"ce4bhu92rcd13ifvqi70","pricing_plan_id":"free"},{"bike_id":"94a784c8-c5fd-420e-a953-d477a0796308","system_id":"levelo_inurba_marseille","lat":43.231923,"lon":5.355545,"is_reserved":false,"is_disabled":false,"rental_uris":{"android":"levelo://app?vid=94a784c8-c5fd-420e-a953-d477a0796308","ios":"levelo://app?vid=94a784c8-c5fd-420e-a953-d477a0796308"},"vehicle_type_id":"4","last_reported":1701007538,"current_range_meters":17200,"station_id":"ce4bhu92rcd13ifvqi70","pricing_plan_id":"free"},{"bike_id":"486b2d24-0fcc-46e4-bd00-2f74af43ee17","system_id":"levelo_inurba_marseille","lat":43.23195,"lon":5.35557,"is_reserved":false,"is_disabled":false,"rental_uris":{"android":"levelo://app?vid=486b2d24-0fcc-46e4-bd00-2f74af43ee17","ios":"levelo://app?vid=486b2d24-0fcc-46e4-bd00-2f74af43ee17"},"vehicle_type_id":"4","last_reported":1701007538,"current_range_meters":29200,"station_id":"ce4bhu92rcd13ifvqi70","pricing_plan_id":"free"},{"bike_id":"4c014ba9-0d5b-491e-85b8-dd80a713d067","system_id":"levelo_inurba_marseille","lat":43.231923,"lon":5.355545,"is_reserved":false,"is_disabled":false,"rental_uris":{"android":"levelo://app?vid=4c014ba9-0d5b-491e-85b8-dd80a713d067","ios":"levelo://app?vid=4c014ba9-0d5b-491e-85b8-dd80a713d067"},"vehicle_type_id":"4","last_reported":1701007538,"current_range_meters":31200,"station_id":"ce4bhu92rcd13ifvqi70","pricing_plan_id":"free"},{"bike_id":"dd6a99fd-c347-4c3a-ad63-2f56ba0e62a3","system_id":"levelo_inurba_marseille","lat":43.231923,"lon":5.355545,"is_reserved":false,"is_disabled":false,"rental_uris":{"android":"levelo://app?vid=dd6a99fd-c347-4c3a-ad63-2f56ba0e62a3","ios":"levelo://app?vid=dd6a99fd-c347-4c3a-ad63-2f56ba0e62a3"},"vehicle_type_id":"4","last_reported":1701007538,"current_range_meters":15600,"station_id":"ce4bhu92rcd13ifvqi70","pricing_plan_id":"free"},{"bike_id":"49e10886-e2ac-4a04-bcbf-7aa27129327f","system_id":"levelo_inurba_marseille","lat":43.23193,"lon":5.35563,"is_reserved":false,"is_disabled":false,"rental_uris":{"android":"levelo://app?vid=49e10886-e2ac-4a04-bcbf-7aa27129327f","ios":"levelo://app?vid=49e10886-e2ac-4a04-bcbf-7aa27129327f"},"vehicle_type_id":"4","last_reported":1701007538,"current_range_meters":31200,"station_id":"ce4bhu92rcd13ifvqi70","pricing_plan_id":"free"},{"bike_id":"95729fe3-219f-4c4f-b0bb-96bfb156f2a1","system_id":"levelo_inurba_marseille","lat":43.23193,"lon":5.35562,"is_reserved":false,"is_disabled":false,"rental_uris":{"android":"levelo://app?vid=95729fe3-219f-4c4f-b0bb-96bfb156f2a1","ios":"levelo://app?vid=95729fe3-219f-4c4f-b0bb-96bfb156f2a1"},"vehicle_type_id":"4","last_reported":1701007538,"current_range_meters":31200,"station_id":"ce4bhu92rcd13ifvqi70","pricing_plan_id":"free"},{"bike_id":"c47d956b-b9b9-42b5-8054-37b6df0f7b75","system_id":"levelo_inurba_marseille","lat":43.231923,"lon":5.35556,"is_reserved":false,"is_disabled":false,"rental_uris":{"android":"levelo://app?vid=c47d956b-b9b9-42b5-8054-37b6df0f7b75","ios":"levelo://app?vid=c47d956b-b9b9-42b5-8054-37b6df0f7b75"},"vehicle_type_id":"4","last_reported":1701007538,"current_range_meters":20400,"station_id":"ce4bhu92rcd13ifvqi70","pricing_plan_id":"free"},{"bike_id":"dc0335bf-412a-4bf8-aa81-bd8ff72cfe8b","system_id":"levelo_inurba_marseille","lat":43.231919,"lon":5.355532,"is_reserved":false,"is_disabled":false,"rental_uris":{"android":"levelo://app?vid=dc0335bf-412a-4bf8-aa81-bd8ff72cfe8b","ios":"levelo://app?vid=dc0335bf-412a-4bf8-aa81-bd8ff72cfe8b"},"vehicle_type_id":"4","last_reported":1701007538,"current_range_meters":22400,"station_id":"ce4bhu92rcd13ifvqi70","pricing_plan_id":"free"},{"bike_id":"df5945b6-4ba3-426d-a757-2e75f037635b","system_id":"levelo_inurba_marseille","lat":43.231923,"lon":5.355545,"is_reserved":false,"is_disabled":false,"rental_uris":{"android":"levelo://app?vid=df5945b6-4ba3-426d-a757-2e75f037635b","ios":"levelo://app?vid=df5945b6-4ba3-426d-a757-2e75f037635b"},"vehicle_type_id":"4","last_reported":1701007538,"current_range_meters":31200,"station_id":"ce4bhu92rcd13ifvqi70","pricing_plan_id":"free"},{"bike_id":"a2fb1f90-98fb-4e11-a5bc-9803f41898d3","system_id":"levelo_inurba_marseille","lat":43.23191,"lon":5.35553,"is_reserved":false,"is_disabled":false,"rental_uris":{"android":"levelo://app?vid=a2fb1f90-98fb-4e11-a5bc-9803f41898d3","ios":"levelo://app?vid=a2fb1f90-98fb-4e11-a5bc-9803f41898d3"},"vehicle_type_id":"4","last_reported":1701007538,"current_range_meters":16800,"station_id":"ce4bhu92rcd13ifvqi70","pricing_plan_id":"free"},{"bike_id":"76da77ba-a8a2-45d9-bea0-75d9631bba15","system_id":"levelo_inurba_marseille","lat":43.231923,"lon":5.355545,"is_reserved":false,"is_disabled":false,"rental_uris":{"android":"levelo://app?vid=76da77ba-a8a2-45d9-bea0-75d9631bba15","ios":"levelo://app?vid=76da77ba-a8a2-45d9-bea0-75d9631bba15"},"vehicle_type_id":"4","last_reported":1701007538,"current_range_meters":30000,"station_id":"ce4bhu92rcd13ifvqi70","pricing_plan_id":"free"},{"bike_id":"c02227d9-b200-4c39-9f96-49af372681ef","system_id":"levelo_inurba_marseille","lat":43.23185,"lon":5.35602,"is_reserved":false,"is_disabled":false,"rental_uris":{"android":"levelo://app?vid=c02227d9-b200-4c39-9f96-49af372681ef","ios":"levelo://app?vid=c02227d9-b200-4c39-9f96-49af372681ef"},"vehicle_type_id":"4","last_reported":1701007538,"current_range_meters":31200,"station_id":"ce4bhu92rcd13ifvqi70","pricing_plan_id":"free"},{"bike_id":"877afb9b-4a4b-400d-b583-2891b7e6e2f4","system_id":"levelo_inurba_marseille","lat":43.23187,"lon":5.35555,"is_reserved":false,"is_disabled":false,"rental_uris":{"android":"levelo://app?vid=877afb9b-4a4b-400d-b583-2891b7e6e2f4","ios":"levelo://app?vid=877afb9b-4a4b-400d-b583-2891b7e6e2f4"},"vehicle_type_id":"4","last_reported":1701007538,"current_range_meters":30400,"station_id":"ce4bhu92rcd13ifvqi70","pricing_plan_id":"free"},{"bike_id":"d5151818-970d-47d8-b8c1-d99a9ae28176","system_id":"levelo_inurba_marseille","lat":43.231793,"lon":5.400044,"is_reserved":false,"is_disabled":false,"rental_uris":{"android":"levelo://app?vid=d5151818-970d-47d8-b8c1-d99a9ae28176","ios":"levelo://app?vid=d5151818-970d-47d8-b8c1-d99a9ae28176"},"vehicle_type_id":"4","last_reported":1701007538,"current_range_meters":31200,"station_id":"ce4bhn12rcd13ifvqgqg","pricing_plan_id":"free"},{"bike_id":"3fc52f69-55da-491c-a1ae-599ec66d277e","system_id":"levelo_inurba_marseille","lat":43.231562,"lon":5.436933,"is_reserved":false,"is_disabled":false,"rental_uris":{"android":"levelo://app?vid=3fc52f69-55da-491c-a1ae-599ec66d277e","ios":"levelo://app?vid=3fc52f69-55da-491c-a1ae-599ec66d277e"},"vehicle_type_id":"4","last_reported":1701007538,"current_range_meters":13600,"station_id":"ce4bhmp2rcd13ifvqgog","pricing_plan_id":"free"},{"bike_id":"10da9d0a-99ef-4087-a609-3c157a4f6e5d","system_id":"levelo_inurba_marseille","lat":43.23155,"lon":5.43708,"is_reserved":false,"is_disabled":false,"rental_uris":{"android":"levelo://app?vid=10da9d0a-99ef-4087-a609-3c157a4f6e5d","ios":"levelo://app?vid=10da9d0a-99ef-4087-a609-3c157a4f6e5d"},"vehicle_type_id":"4","last_reported":1701007538,"current_range_meters":23600,"station_id":"ce4bhmp2rcd13ifvqgog","pricing_plan_id":"free"},{"bike_id":"1619d54a-6458-4542-9d9b-231c0824f58f","system_id":"levelo_inurba_marseille","lat":43.231562,"lon":5.436933,"is_reserved":false,"is_disabled":false,"rental_uris":{"android":"levelo://app?vid=1619d54a-6458-4542-9d9b-231c0824f58f","ios":"levelo://app?vid=1619d54a-6458-4542-9d9b-231c0824f58f"},"vehicle_type_id":"4","last_reported":1701007538,"current_range_meters":18400,"station_id":"ce4bhmp2rcd13ifvqgog","pricing_plan_id":"free"},{"bike_id":"a905e6f5-baec-4fcd-9ed8-b40777d6d2bb","system_id":"levelo_inurba_marseille","lat":43.231562,"lon":5.436933,"is_reserved":false,"is_disabled":false,"rental_uris":{"android":"levelo://app?vid=a905e6f5-baec-4fcd-9ed8-b40777d6d2bb","ios":"levelo://app?vid=a905e6f5-baec-4fcd-9ed8-b40777d6d2bb"},