{"last_updated":1747688968,"ttl":60,"version":"2.2","data":{"bikes":[{"bike_id":"c0b9fd4f-e181-46ce-b0bf-f5119973334f","system_id":"levelo_inurba_marseille","lat":43.33771,"lon":5.37424,"is_reserved":false,"is_disabled":true,"rental_uris":{"android":"levelo://app?vid=c0b9fd4f-e181-46ce-b0bf-f5119973334f","ios":"levelo://app?vid=c0b9fd4f-e181-46ce-b0bf-f5119973334f"},"vehicle_type_id":"4","last_reported":1747688968,"current_range_meters":0,"station_id":"","pricing_plan_id":"cebpf4jnsgd1na2vs0mg"},{"bike_id":"25b4f69a-1726-4c58-a89d-ca45327456b0","system_id":"levelo_inurba_marseille","lat":43.272773,"lon":5.362809,"is_reserved":false,"is_disabled":true,"rental_uris":{"android":"levelo://app?vid=25b4f69a-1726-4c58-a89d-ca45327456b0","ios":"levelo://app?vid=25b4f69a-1726-4c58-a89d-ca45327456b0"},"vehicle_type_id":"4","last_reported":1747688968,"current_range_meters":0,"station_id":"","pricing_plan_id":"cebpf4jnsgd1na2vs0mg"},{"bike_id":"3a0c341c-3ccc-4784-af12-cf7d1a8c0b73","system_id":"levelo_inurba_marseille","lat":43.255,"lon":5.37493,"is_reserved":false,"is_disabled":true,"rental_uris":{"android":"levelo://app?vid=3a0c341c-3ccc-4784-af12-cf7d1a8c0b73","ios":"levelo://app?vid=3a0c341c-3ccc-4784-af12-cf7d1a8c0b73"},"vehicle_type_id":"4","last_reported":1747688968,"current_range_meters":0,"station_id":"","pricing_plan_id":"cebpf4jnsgd1na2vs0mg"},{"bike_id":"fc2577e7-1497-425b-9d4f-ab8d7dc843c6","system_id":"levelo_inurba_marseille","lat":43.33771,"lon":5.37485,"is_reserved":false,"is_disabled":true,"rental_uris":{"android":"levelo://app?vid=fc2577e7-1497-425b-9d4f-ab8d7dc843c6","ios":"levelo://app?vid=fc2577e7-1497-425b-9d4f-ab8d7dc843c6"},"vehicle_type_id":"4","last_reported":1747688968,"current_range_meters":0,"station_id":"","pricing_plan_id":"cebpf4jnsgd1na2vs0mg"},{"bike_id":"54f092b8-cedd-4199-a79a-5d67b6a6e719","system_id":"levelo_inurba_marseille","lat":43.30908,"lon":5.37296,"is_reserved":false,"is_disabled":true,"rental_uris":{"android":"levelo://app?vid=54f092b8-cedd-4199-a79a-5d67b6a6e719","ios":"levelo://app?vid=54f092b8-cedd-4199-a79a-5d67b6a6e719"},"vehicle_type_id":"4","last_reported":1747688968,"current_range_meters":0,"station_id":"","pricing_plan_id":"cebpf4jnsgd1na2vs0mg"},{"bike_id":"522a6fa9-3b0f-41ae-92d4-659155b9e6e8","system_id":"levelo_inurba_marseille","lat":43.239272,"lon":5.36185,"is_reserved":false,"is_disabled":true,"rental_uris":{"android":"levelo://app?vid=522a6fa9-3b0f-41ae-92d4-659155b9e6e8","ios":"levelo://app?vid=522a6fa9-3b0f-41ae-92d4-659155b9e6e8"},"vehicle_type_id":"4","last_reported":1747688968,"current_range_meters":0,"station_id":"","pricing_plan_id":"cebpf4jnsgd1na2vs0mg"},{"bike_id":"8f3685e3-183d-4c98-9513-bfeeb8fbc041","system_id":"levelo_inurba_marseille","lat":43.27945,"lon":5.41223,"is_reserved":false,"is_disabled":true,"rental_uris":{"android":"levelo://app?vid=8f3685e3-183d-4c98-9513-bfeeb8fbc041","ios":"levelo://app?vid=8f3685e3-183d-4c98-9513-bfeeb8fbc041"},"vehicle_type_id":"4","last_reported":1747688968,"current_range_meters":0,"station_id":"","pricing_plan_id":"cebpf4jnsgd1na2vs0mg"},{"bike_id":"54255574-d73a-48d1-85ed-ee6fbfc41d57","system_id":"levelo_inurba_marseille","lat":43.26402,"lon":5.37276,"is_reserved":false,"is_disabled":true,"rental_uris":{"android":"levelo://app?vid=54255574-d73a-48d1-85ed-ee6fbfc41d57","ios":"levelo://app?vid=54255574-d73a-48d1-85ed-ee6fbfc41d57"},"vehicle_type_id":"4","last_reported":1747688968,"current_range_meters":0,"station_id":"","pricing_plan_id":"cebpf4jnsgd1na2vs0mg"},{"bike_id":"80b49949-2015-46f6-95ad-3d3616eb898e","system_id":"levelo_inurba_marseille","lat":43.33808,"lon":5.37433,"is_reserved":false,"is_disabled":true,"rental_uris":{"android":"levelo://app?vid=80b49949-2015-46f6-95ad-3d3616eb898e","ios":"levelo://app?vid=80b49949-2015-46f6-95ad-3d3616eb898e"},"vehicle_type_id":"4","last_reported":1747688968,"current_range_meters":0,"station_id":"","pricing_plan_id":"cebpf4jnsgd1na2vs0mg"},{"bike_id":"e9dd3aa4-b5e7-4480-926d-d7f537719bfa","system_id":"levelo_inurba_marseille","lat":43.23089,"lon":5.40147,"is_reserved":false,"is_disabled":true,"rental_uris":{"android":"levelo://app?vid=e9dd3aa4-b5e7-4480-926d-d7f537719bfa","ios":"levelo://app?vid=e9dd3aa4-b5e7-4480-926d-d7f537719bfa"},"vehicle_type_id":"4","last_reported":1747688968,"current_range_meters":0,"station_id":"","pricing_plan_id":"cebpf4jnsgd1na2vs0mg"},{"bike_id":"9e2924b1-59fa-4eea-b166-0000dceb79d8","system_id":"levelo_inurba_marseille","lat":43.28002,"lon":5.41663,"is_reserved":false,"is_disabled":true,"rental_uris":{"android":"levelo://app?vid=9e2924b1-59fa-4eea-b166-0000dceb79d8","ios":"levelo://app?vid=9e2924b1-59fa-4eea-b166-0000dceb79d8"},"vehicle_type_id":"4","last_reported":1747688968,"current_range_meters":0,"station_id":"ce4bho12rcd13ifvqh1g","pricing_plan_id":"cebpf4jnsgd1na2vs0mg"},{"bike_id":"93fb3ddc-6010-46dc-a1a1-b9912fcb15c3","system_id":"levelo_inurba_marseille","lat":43.30423,"lon":5.41292,"is_reserved":false,"is_disabled":true,"rental_uris":{"android":"levelo://app?vid=93fb3ddc-6010-46dc-a1a1-b9912fcb15c3","ios":"levelo://app?vid=93fb3ddc-6010-46dc-a1a1-b9912fcb15c3"},"vehicle_type_id":"4","last_reported":1747688968,"current_range_meters":0,"station_id":"ce4bhop2rcd13ifvqh8g","pricing_plan_id":"cebpf4jnsgd1na2vs0mg"},{"bike_id":"252dba7f-9bbd-48d2-a90d-e1c85b5e3d0c","system_id":"levelo_inurba_marseille","lat":43.265637,"lon":5.403243,"is_reserved":false,"is_disabled":true,"rental_uris":{"android":"levelo://app?vid=252dba7f-9bbd-48d2-a90d-e1c85b5e3d0c","ios":"levelo://app?vid=252dba7f-9bbd-48d2-a90d-e1c85b5e3d0c"},"vehicle_type_id":"4","last_reported":1747688968,"current_range_meters":800,"station_id":"","pricing_plan_id":"cebpf4jnsgd1na2vs0mg"},{"bike_id":"fe3186e2-9fe5-4228-a6f6-0d97100efe96","system_id":"levelo_inurba_marseille","lat":43.21764,"lon":5.34602,"is_reserved":false,"is_disabled":true,"rental_uris":{"android":"levelo://app?vid=fe3186e2-9fe5-4228-a6f6-0d97100efe96","ios":"levelo://app?vid=fe3186e2-9fe5-4228-a6f6-0d97100efe96"},"vehicle_type_id":"4","last_reported":1747688968,"current_range_meters":1600,"station_id":"st_cvj6r9ubvosntc0bgbag","pricing_plan_id":"cebpf4jnsgd1na2vs0mg"},{"bike_id":"38d43936-3f25-44b1-bc40-f0748f1c81bb","system_id":"levelo_inurba_marseille","lat":43.23317,"lon":5.36155,"is_reserved":false,"is_disabled":true,"rental_uris":{"android":"levelo://app?vid=38d43936-3f25-44b1-bc40-f0748f1c81bb","ios":"levelo://app?vid=38d43936-3f25-44b1-bc40-f0748f1c81bb"},"vehicle_type_id":"4","last_reported":1747688968,"current_range_meters":2000,"station_id":"","pricing_plan_id":"cebpf4jnsgd1na2vs0mg"},{"bike_id":"bef027c0-efce-482d-ba6c-fc0b33764ead","system_id":"levelo_inurba_marseille","lat":43.29586,"lon":5.36735,"is_reserved":false,"is_disabled":false,"rental_uris":{"android":"levelo://app?vid=bef027c0-efce-482d-ba6c-fc0b33764ead","ios":"levelo://app?vid=bef027c0-efce-482d-ba6c-fc0b33764ead"},"vehicle_type_id":"4","last_reported":1747688968,"current_range_meters":2800,"station_id":"ce4bgph2rcd13ifvqc2g","pricing_plan_id":"cebpf4jnsgd1na2vs0mg"},{"bike_id":"87dddb43-e14d-4211-a2c5-e788c5296776","system_id":"levelo_inurba_marseille","lat":43.217504,"lon":5.345995,"is_reserved":false,"is_disabled":false,"rental_uris":{"android":"levelo://app?vid=87dddb43-e14d-4211-a2c5-e788c5296776","ios":"levelo://app?vid=87dddb43-e14d-4211-a2c5-e788c5296776"},"vehicle_type_id":"4","last_reported":1747688968,"current_range_meters":2800,"station_id":"st_cvj6r9ubvosntc0bgbag","pricing_plan_id":"cebpf4jnsgd1na2vs0mg"},{"bike_id":"25efd7d8-fd8b-4c49-b03c-fe55321b94d4","system_id":"levelo_inurba_marseille","lat":43.30938,"lon":5.37281,"is_reserved":false,"is_disabled":false,"rental_uris":{"android":"levelo://app?vid=25efd7d8-fd8b-4c49-b03c-fe55321b94d4","ios":"levelo://app?vid=25efd7d8-fd8b-4c49-b03c-fe55321b94d4"},"vehicle_type_id":"4","last_reported":1747688968,"current_range_meters":3200,"station_id":"","pricing_plan_id":"cebpf4jnsgd1na2vs0mg"},{"bike_id":"14603e41-b2dd-4757-a53c-2e366aa4f983","system_id":"levelo_inurba_marseille","lat":43.26998,"lon":5.42811,"is_reserved":false,"is_disabled":false,"rental_uris":{"android":"levelo://app?vid=14603e41-b2dd-4757-a53c-2e366aa4f983","ios":"levelo://app?vid=14603e41-b2dd-4757-a53c-2e366aa4f983"},"vehicle_type_id":"4","last_reported":1747688968,"current_range_meters":3600,"station_id":"","pricing_plan_id":"cebpf4jnsgd1na2vs0mg"},{"bike_id":"f3b8cdd5-26a7-4bea-a9e4-a32323dd8d3c","system_id":"levelo_inurba_marseille","lat":43.278183,"lon":5.407002,"is_reserved":false,"is_disabled":false,"rental_uris":{"android":"levelo://app?vid=f3b8cdd5-26a7-4bea-a9e4-a32323dd8d3c","ios":"levelo://app?vid=f3b8cdd5-26a7-4bea-a9e4-a32323dd8d3c"},"vehicle_type_id":"4","last_reported":1747688968,"current_range_meters":4000,"station_id":"ce4bhnh2rcd13ifvqgtg","pricing_plan_id":"cebpf4jnsgd1na2vs0mg"},{"bike_id":"f00e4c85-4b74-4b78-914c-e4ecaf8cbdf9","system_id":"levelo_inurba_marseille","lat":43.275006,"lon":5.424546,"is_reserved":false,"is_disabled":false,"rental_uris":{"android":"levelo://app?vid=f00e4c85-4b74-4b78-914c-e4ecaf8cbdf9","ios":"levelo://app?vid=f00e4c85-4b74-4b78-914c-e4ecaf8cbdf9"},"vehicle_type_id":"4","last_reported":1747688968,"current_range_meters":5600,"station_id":"ce4bhn92rcd13ifvqgrg","pricing_plan_id":"cebpf4jnsgd1na2vs0mg"},{"bike_id":"787d7d9a-590d-4f02-a0b4-e85d2f7f6d12","system_id":"levelo_inurba_marseille","lat":43.24103,"lon":5.37764,"is_reserved":false,"is_disabled":false,"rental_uris":{"android":"levelo://app?vid=787d7d9a-590d-4f02-a0b4-e85d2f7f6d12","ios":"levelo://app?vid=787d7d9a-590d-4f02-a0b4-e85d2f7f6d12"},"vehicle_type_id":"4","last_reported":1747688968,"current_range_meters":5600,"station_id":"ce4bhnp2rcd13ifvqgvg","pricing_plan_id":"cebpf4jnsgd1na2vs0mg"},{"bike_id":"ab46fe70-cd0c-42c3-b0df-983f90afbc1d","system_id":"levelo_inurba_marseille","lat":43.29712,"lon":5.36604,"is_reserved":false,"is_disabled":false,"rental_uris":{"android":"levelo://app?vid=ab46fe70-cd0c-42c3-b0df-983f90afbc1d","ios":"levelo://app?vid=ab46fe70-cd0c-42c3-b0df-983f90afbc1d"},"vehicle_type_id":"4","last_reported":1747688968,"current_range_meters":6000,"station_id":"ce4bgn12rcd13ifvqbt0","pricing_plan_id":"cebpf4jnsgd1na2vs0mg"},{"bike_id":"0eb7f958-813c-4599-a947-cc188a070eb3","system_id":"levelo_inurba_marseille","lat":43.25135,"lon":5.40295,"is_reserved":false,"is_disabled":false,"rental_uris":{"android":"levelo://app?vid=0eb7f958-813c-4599-a947-cc188a070eb3","ios":"levelo://app?vid=0eb7f958-813c-4599-a947-cc188a070eb3"},"vehicle_type_id":"4","last_reported":1747688968,"current_range_meters":6000,"station_id":"ce4bhlh2rcd13ifvqgig","pricing_plan_id":"cebpf4jnsgd1na2vs0mg"},{"bike_id":"a5069c23-eea7-40f4-9d9a-11b963aa48ad","system_id":"levelo_inurba_marseille","lat":43.23175,"lon":5.39944,"is_reserved":false,"is_disabled":false,"rental_uris":{"android":"levelo://app?vid=a5069c23-eea7-40f4-9d9a-11b963aa48ad","ios":"levelo://app?vid=a5069c23-eea7-40f4-9d9a-11b963aa48ad"},"vehicle_type_id":"4","last_reported":1747688968,"current_range_meters":6000,"station_id":"ce4bhn12rcd13ifvqgqg","pricing_plan_id":"cebpf4jnsgd1na2vs0mg"},{"bike_id":"1492affc-5f7d-4a41-bc51-a000c24075e6","system_id":"levelo_inurba_marseille","lat":43.30261,"lon":5.40077,"is_reserved":false,"is_disabled":false,"rental_uris":{"android":"levelo://app?vid=1492affc-5f7d-4a41-bc51-a000c24075e6","ios":"levelo://app?vid=1492affc-5f7d-4a41-bc51-a000c24075e6"},"vehicle_type_id":"4","last_reported":1747688968,"current_range_meters":6400,"station_id":"ce4bgvh2rcd13ifvqcs0","pricing_plan_id":"cebpf4jnsgd1na2vs0mg"},{"bike_id":"8018deb1-33f3-4a74-9b79-63ac400dc93e","system_id":"levelo_inurba_marseille","lat":43.27898,"lon":5.37999,"is_reserved":false,"is_disabled":false,"rental_uris":{"android":"levelo://app?vid=8018deb1-33f3-4a74-9b79-63ac400dc93e","ios":"levelo://app?vid=8018deb1-33f3-4a74-9b79-63ac400dc93e"},"vehicle_type_id":"4","last_reported":1747688968,"current_range_meters":6400,"station_id":"ce4bhf92rcd13ifvqf50","pricing_plan_id":"cebpf4jnsgd1na2vs0mg"},{"bike_id":"6889e011-c4a7-4b40-b6d7-e1fde3581e3d","system_id":"levelo_inurba_marseille","lat":43.29276,"lon":5.40119,"is_reserved":false,"is_disabled":false,"rental_uris":{"android":"levelo://app?vid=6889e011-c4a7-4b40-b6d7-e1fde3581e3d","ios":"levelo://app?vid=6889e011-c4a7-4b40-b6d7-e1fde3581e3d"},"vehicle_type_id":"4","last_reported":1747688968,"current_range_meters":6800,"station_id":"ce4bh312rcd13ifvqdk0","pricing_plan_id":"cebpf4jnsgd1na2vs0mg"},{"bike_id":"9098acce-4a9e-40d8-ba71-76f7509c9d2b","system_id":"levelo_inurba_marseille","lat":43.2656,"lon":5.37283,"is_reserved":false,"is_disabled":false,"rental_uris":{"android":"levelo://app?vid=9098acce-4a9e-40d8-ba71-76f7509c9d2b","ios":"levelo://app?vid=9098acce-4a9e-40d8-ba71-76f7509c9d2b"},"vehicle_type_id":"4","last_reported":1747688968,"current_range_meters":6800,"station_id":"ce4bhg12rcd13ifvqf70","pricing_plan_id":"cebpf4jnsgd1na2vs0mg"},{"bike_id":"fefa3ad1-29a6-4d50-af49-b905b6a48898","system_id":"levelo_inurba_marseille","lat":43.28159,"lon":5.42636,"is_reserved":false,"is_disabled":false,"rental_uris":{"android":"levelo://app?vid=fefa3ad1-29a6-4d50-af49-b905b6a48898","ios":"levelo://app?vid=fefa3ad1-29a6-4d50-af49-b905b6a48898"},"vehicle_type_id":"4","last_reported":1747688968,"current_range_meters":6800,"station_id":"ce4bhnh2rcd13ifvqgug","pricing_plan_id":"cebpf4jnsgd1na2vs0mg"},{"bike_id":"eaef8c6a-c2f9-4655-8267-0d262985dd4b","system_id":"levelo_inurba_marseille","lat":43.30148,"lon":5.38104,"is_reserved":false,"is_disabled":false,"rental_uris":{"android":"levelo://app?vid=eaef8c6a-c2f9-4655-8267-0d262985dd4b","ios":"levelo://app?vid=eaef8c6a-c2f9-4655-8267-0d262985dd4b"},"vehicle_type_id":"4","last_reported":1747688968,"current_range_meters":7200,"station_id":"ce4bgjp2rcd13ifvqbh0","pricing_plan_id":"cebpf4jnsgd1na2vs0mg"},{"bike_id":"0814fc28-7c82-4444-bf57-b7589c01a901","system_id":"levelo_inurba_marseille","lat":43.249982,"lon":5.389357,"is_reserved":false,"is_disabled":false,"rental_uris":{"android":"levelo://app?vid=0814fc28-7c82-4444-bf57-b7589c01a901","ios":"levelo://app?vid=0814fc28-7c82-4444-bf57-b7589c01a901"},"vehicle_type_id":"4","last_reported":1747688968,"current_range_meters":7200,"station_id":"ce4bhgp2rcd13ifvqfd0","pricing_plan_id":"cebpf4jnsgd1na2vs0mg"},{"bike_id":"1f7dea22-24a3-45e9-b0c2-bb2b4d863d65","system_id":"levelo_inurba_marseille","lat":43.23191,"lon":5.39987,"is_reserved":false,"is_disabled":false,"rental_uris":{"android":"levelo://app?vid=1f7dea22-24a3-45e9-b0c2-bb2b4d863d65","ios":"levelo://app?vid=1f7dea22-24a3-45e9-b0c2-bb2b4d863d65"},"vehicle_type_id":"4","last_reported":1747688968,"current_range_meters":7200,"station_id":"ce4bhn12rcd13ifvqgqg","pricing_plan_id":"cebpf4jnsgd1na2vs0mg"},{"bike_id":"92a6af25-c13e-41f1-9234-7144ec89b7a9","system_id":"levelo_inurba_marseille","lat":43.2315,"lon":5.40007,"is_reserved":false,"is_disabled":false,"rental_uris":{"android":"levelo://app?vid=92a6af25-c13e-41f1-9234-7144ec89b7a9","ios":"levelo://app?vid=92a6af25-c13e-41f1-9234-7144ec89b7a9"},"vehicle_type_id":"4","last_reported":1747688968,"current_range_meters":7200,"station_id":"ce4bhn12rcd13ifvqgqg","pricing_plan_id":"cebpf4jnsgd1na2vs0mg"},{"bike_id":"4a7c87b3-e99c-44c4-be80-d0492d05ce0e","system_id":"levelo_inurba_marseille","lat":43.30427,"lon":5.3889,"is_reserved":false,"is_disabled":false,"rental_uris":{"android":"levelo://app?vid=4a7c87b3-e99c-44c4-be80-d0492d05ce0e","ios":"levelo://app?vid=4a7c87b3-e99c-44c4-be80-d0492d05ce0e"},"vehicle_type_id":"4","last_reported":1747688968,"current_range_meters":8000,"station_id":"ce4bgk12rcd13ifvqbi0","pricing_plan_id":"cebpf4jnsgd1na2vs0mg"},{"bike_id":"e5f7cb81-fec4-45d0-9101-497a87b579ec","system_id":"levelo_inurba_marseille","lat":43.29255,"lon":5.40906,"is_reserved":false,"is_disabled":false,"rental_uris":{"android":"levelo://app?vid=e5f7cb81-fec4-45d0-9101-497a87b579ec","ios":"levelo://app?vid=e5f7cb81-fec4-45d0-9101-497a87b579ec"},"vehicle_type_id":"4","last_reported":1747688968,"current_range_meters":8000,"station_id":"ce4bh192rcd13ifvqdc0","pricing_plan_id":"cebpf4jnsgd1na2vs0mg"},{"bike_id":"1a391a2e-9dc6-4154-b08c-5008af76bb22","system_id":"levelo_inurba_marseille","lat":43.26557,"lon":5.37292,"is_reserved":false,"is_disabled":false,"rental_uris":{"android":"levelo://app?vid=1a391a2e-9dc6-4154-b08c-5008af76bb22","ios":"levelo://app?vid=1a391a2e-9dc6-4154-b08c-5008af76bb22"},"vehicle_type_id":"4","last_reported":1747688968,"current_range_meters":8000,"station_id":"ce4bhg12rcd13ifvqf70","pricing_plan_id":"cebpf4jnsgd1na2vs0mg"},{"bike_id":"d58894d7-0839-4402-827f-71fc925bf23a","system_id":"levelo_inurba_marseille","lat":43.25948,"lon":5.40901,"is_reserved":false,"is_disabled":false,"rental_uris":{"android":"levelo://app?vid=d58894d7-0839-4402-827f-71fc925bf23a","ios":"levelo://app?vid=d58894d7-0839-4402-827f-71fc925bf23a"},"vehicle_type_id":"4","last_reported":1747688968,"current_range_meters":8000,"station_id":"ce4bhm92rcd13ifvqglg","pricing_plan_id":"cebpf4jnsgd1na2vs0mg"},{"bike_id":"4bcd3c85-985d-4635-8b3f-f52695ad721b","system_id":"levelo_inurba_marseille","lat":43.335935,"lon":5.410215,"is_reserved":false,"is_disabled":false,"rental_uris":{"android":"levelo://app?vid=4bcd3c85-985d-4635-8b3f-f52695ad721b","ios":"levelo://app?vid=4bcd3c85-985d-4635-8b3f-f52695ad721b"},"vehicle_type_id":"4","last_reported":1747688968,"current_range_meters":8000,"station_id":"ce4bhqh2rcd13ifvqhmg","pricing_plan_id":"cebpf4jnsgd1na2vs0mg"},{"bike_id":"2709c058-7fd6-4108-9a16-42f766166d5c","system_id":"levelo_inurba_marseille","lat":43.33608,"lon":5.41029,"is_reserved":false,"is_disabled":false,"rental_uris":{"android":"levelo://app?vid=2709c058-7fd6-4108-9a16-42f766166d5c","ios":"levelo://app?vid=2709c058-7fd6-4108-9a16-42f766166d5c"},"vehicle_type_id":"4","last_reported":1747688968,"current_range_meters":8000,"station_id":"ce4bhqh2rcd13ifvqhmg","pricing_plan_id":"cebpf4jnsgd1na2vs0mg"},{"bike_id":"71b34e5b-9627-4ecb-8580-7ab8e076d7c9","system_id":"levelo_inurba_marseille","lat":43.31126,"lon":5.37759,"is_reserved":false,"is_disabled":false,"rental_uris":{"android":"levelo://app?vid=71b34e5b-9627-4ecb-8580-7ab8e076d7c9","ios":"levelo://app?vid=71b34e5b-9627-4ecb-8580-7ab8e076d7c9"},"vehicle_type_id":"4","last_reported":1747688968,"current_range_meters":8400,"station_id":"ce4bgt92rcd13ifvqcg0","pricing_plan_id":"cebpf4jnsgd1na2vs0mg"},{"bike_id":"e782cbc4-8e60-4891-9583-6617b02a47d6","system_id":"levelo_inurba_marseille","lat":43.31161,"lon":5.38721,"is_reserved":false,"is_disabled":false,"rental_uris":{"android":"levelo://app?vid=e782cbc4-8e60-4891-9583-6617b02a47d6","ios":"levelo://app?vid=e782cbc4-8e60-4891-9583-6617b02a47d6"},"vehicle_type_id":"4","last_reported":1747688968,"current_range_meters":8400,"station_id":"ce4bgv12rcd13ifvqcp0","pricing_plan_id":"cebpf4jnsgd1na2vs0mg"},{"bike_id":"7934c004-91e1-4cad-8800-2ae76602e17f","system_id":"levelo_inurba_marseille","lat":43.2482,"lon":5.37448,"is_reserved":false,"is_disabled":false,"rental_uris":{"android":"levelo://app?vid=7934c004-91e1-4cad-8800-2ae76602e17f","ios":"levelo://app?vid=7934c004-91e1-4cad-8800-2ae76602e17f"},"vehicle_type_id":"4","last_reported":1747688968,"current_range_meters":8400,"station_id":"ce4bhgh2rcd13ifvqfb0","pricing_plan_id":"cebpf4jnsgd1na2vs0mg"},{"bike_id":"11d60898-ab53-4f76-973b-28da8cd25639","system_id":"levelo_inurba_marseille","lat":43.26215,"lon":5.37438,"is_reserved":false,"is_disabled":false,"rental_uris":{"android":"levelo://app?vid=11d60898-ab53-4f76-973b-28da8cd25639","ios":"levelo://app?vid=11d60898-ab53-4f76-973b-28da8cd25639"},"vehicle_type_id":"4","last_reported":1747688968,"current_range_meters":8400,"station_id":"ce4bhgp2rcd13ifvqfc0","pricing_plan_id":"cebpf4jnsgd1na2vs0mg"},{"bike_id":"d03cf0f7-3897-4bb6-8d3e-077b5c7b8f0b","system_id":"levelo_inurba_marseille","lat":43.23954,"lon":5.36629,"is_reserved":false,"is_disabled":false,"rental_uris":{"android":"levelo://app?vid=d03cf0f7-3897-4bb6-8d3e-077b5c7b8f0b","ios":"levelo://app?vid=d03cf0f7-3897-4bb6-8d3e-077b5c7b8f0b"},"vehicle_type_id":"4","last_reported":1747688968,"current_range_meters":8400,"station_id":"ce4bhi12rcd13ifvqfp0","pricing_plan_id":"cebpf4jnsgd1na2vs0mg"},{"bike_id":"606f724a-1c53-443b-9378-c589b2767e9c","system_id":"levelo_inurba_marseille","lat":43.26485,"lon":5.39562,"is_reserved":false,"is_disabled":false,"rental_uris":{"android":"levelo://app?vid=606f724a-1c53-443b-9378-c589b2767e9c","ios":"levelo://app?vid=606f724a-1c53-443b-9378-c589b2767e9c"},"vehicle_type_id":"4","last_reported":1747688968,"current_range_meters":8400,"station_id":"ce4bhi12rcd13ifvqfq0","pricing_plan_id":"cebpf4jnsgd1na2vs0mg"},{"bike_id":"fdbcb080-de86-408c-b4a8-7300b93393a6","system_id":"levelo_inurba_marseille","lat":43.231813,"lon":5.399919,"is_reserved":false,"is_disabled":false,"rental_uris":{"android":"levelo://app?vid=fdbcb080-de86-408c-b4a8-7300b93393a6","ios":"levelo://app?vid=fdbcb080-de86-408c-b4a8-7300b93393a6"},"vehicle_type_id":"4","last_reported":1747688968,"current_range_meters":8400,"station_id":"ce4bhn12rcd13ifvqgqg","pricing_plan_id":"cebpf4jnsgd1na2vs0mg"},{"bike_id":"f61eb94e-1e62-4ef6-ad8b-232d3e5c7942","system_id":"levelo_inurba_marseille","lat":43.278086,"lon":5.407114,"is_reserved":false,"is_disabled":false,"rental_uris":{"android":"levelo://app?vid=f61eb94e-1e62-4ef6-ad8b-232d3e5c7942","ios":"levelo://app?vid=f61eb94e-1e62-4ef6-ad8b-232d3e5c7942"},"vehicle_type_id":"4","last_reported":1747688968,"current_range_meters":8400,"station_id":"ce4bhnh2rcd13ifvqgtg","pricing_plan_id":"cebpf4jnsgd1na2vs0mg"},{"bike_id":"e64e36d1-c3e7-4427-9260-70ac75fa0a1c","system_id":"levelo_inurba_marseille","lat":43.2992,"lon":5.40187,"is_reserved":false,"is_disabled":false,"rental_uris":{"android":"levelo://app?vid=e64e36d1-c3e7-4427-9260-70ac75fa0a1c","ios":"levelo://app?vid=e64e36d1-c3e7-4427-9260-70ac75fa0a1c"},"vehicle_type_id":"4","last_reported":1747688968,"current_range_meters":8800,"station_id":"","pricing_plan_id":"cebpf4jnsgd1na2vs0mg"},{"bike_id":"06e452b4-00bd-4194-8cf0-97e51cbae02e","system_id":"levelo_inurba_marseille","lat":43.232036,"lon":5.399806,"is_reserved":false,"is_disabled":false,"rental_uris":{"android":"levelo://app?vid=06e452b4-00bd-4194-8cf0-97e51cbae02e","ios":"levelo://app?vid=06e452b4-00bd-4194-8cf0-97e51cbae02e"},"vehicle_type_id":"4","last_reported":1747688968,"current_range_meters":8800,"station_id":"ce4bhn12rcd13ifvqgqg","pricing_plan_id":"cebpf4jnsgd1na2vs0mg"},{"bike_id":"7ee33e9f-36db-4d30-81ce-551b9004a8a6","system_id":"levelo_inurba_marseille","lat":43.299744,"lon":5.371779,"is_reserved":false,"is_disabled":false,"rental_uris":{"android":"levelo://app?vid=7ee33e9f-36db-4d30-81ce-551b9004a8a6","ios":"levelo://app?vid=7ee33e9f-36db-4d30-81ce-551b9004a8a6"},"vehicle_type_id":"4","last_reported":1747688968,"current_range_meters":9200,"station_id":"ce4bgr92rcd13ifvqc7g","pricing_plan_id":"cebpf4jnsgd1na2vs0mg"},{"bike_id":"dbf8222a-eea0-42f0-80c2-a4791ac4ed58","system_id":"levelo_inurba_marseille","lat":43.25012,"lon":5.3894,"is_reserved":false,"is_disabled":false,"rental_uris":{"android":"levelo://app?vid=dbf8222a-eea0-42f0-80c2-a4791ac4ed58","ios":"levelo://app?vid=dbf8222a-eea0-42f0-80c2-a4791ac4ed58"},"vehicle_type_id":"4","last_reported":1747688968,"current_range_meters":9200,"station_id":"ce4bhgp2rcd13ifvqfd0","pricing_plan_id":"cebpf4jnsgd1na2vs0mg"},{"bike_id":"0ed934a5-f846-4226-a605-82f12f967b47","system_id":"levelo_inurba_marseille","lat":43.25124,"lon":5.40335,"is_reserved":false,"is_disabled":false,"rental_uris":{"android":"levelo://app?vid=0ed934a5-f846-4226-a605-82f12f967b47","ios":"levelo://app?vid=0ed934a5-f846-4226-a605-82f12f967b47"},"vehicle_type_id":"4","last_reported":1747688968,"current_range_meters":9200,"station_id":"ce4bhlh2rcd13ifvqgig","pricing_plan_id":"cebpf4jnsgd1na2vs0mg"},{"bike_id":"ffe6d238-6026-4e0e-a599-949c46ef6d5a","system_id":"levelo_inurba_marseille","lat":43.251079,"lon":5.403245,"is_reserved":false,"is_disabled":false,"rental_uris":{"android":"levelo://app?vid=ffe6d238-6026-4e0e-a599-949c46ef6d5a","ios":"levelo://app?vid=ffe6d238-6026-4e0e-a599-949c46ef6d5a"},"vehicle_type_id":"4","last_reported":1747688968,"current_range_meters":9200,"station_id":"ce4bhlh2rcd13ifvqgig","pricing_plan_id":"cebpf4jnsgd1na2vs0mg"},{"bike_id":"a283b2fd-ff3f-48d1-abab-7a3c52921152","system_id":"levelo_inurba_marseille","lat":43.28163,"lon":5.42639,"is_reserved":false,"is_disabled":false,"rental_uris":{"android":"levelo://app?vid=a283b2fd-ff3f-48d1-abab-7a3c52921152","ios":"levelo://app?vid=a283b2fd-ff3f-48d1-abab-7a3c52921152"},"vehicle_type_id":"4","last_reported":1747688968,"current_range_meters":9200,"station_id":"ce4bhnh2rcd13ifvqgug","pricing_plan_id":"cebpf4jnsgd1na2vs0mg"},{"bike_id":"bcbdbd69-7be8-42f8-a855-a4358565de8f","system_id":"levelo_inurba_marseille","lat":43.27722,"lon":5.414,"is_reserved":false,"is_disabled":false,"rental_uris":{"android":"levelo://app?vid=bcbdbd69-7be8-42f8-a855-a4358565de8f","ios":"levelo://app?vid=bcbdbd69-7be8-42f8-a855-a4358565de8f"},"vehicle_type_id":"4","last_reported":1747688968,"current_range_meters":9600,"station_id":"","pricing_plan_id":"cebpf4jnsgd1na2vs0mg"},{"bike_id":"9881e3b4-63d4-4aa1-a7db-3ef2fd2a5e50","system_id":"levelo_inurba_marseille","lat":43.31482,"lon":5.37307,"is_reserved":false,"is_disabled":false,"rental_uris":{"android":"levelo://app?vid=9881e3b4-63d4-4aa1-a7db-3ef2fd2a5e50","ios":"levelo://app?vid=9881e3b4-63d4-4aa1-a7db-3ef2fd2a5e50"},"vehicle_type_id":"4","last_reported":1747688968,"current_range_meters":9600,"station_id":"ce4bgt12rcd13ifvqcd0","pricing_plan_id":"cebpf4jnsgd1na2vs0mg"},{"bike_id":"67abd4ca-2cde-4910-b9ac-9f166a4696ae","system_id":"levelo_inurba_marseille","lat":43.28075,"lon":5.39655,"is_reserved":false,"is_disabled":false,"rental_uris":{"android":"levelo://app?vid=67abd4ca-2cde-4910-b9ac-9f166a4696ae","ios":"levelo://app?vid=67abd4ca-2cde-4910-b9ac-9f166a4696ae"},"vehicle_type_id":"4","last_reported":1747688968,"current_range_meters":9600,"station_id":"ce4bho12rcd13ifvqh2g","pricing_plan_id":"cebpf4jnsgd1na2vs0mg"},{"bike_id":"b2a8a085-4afe-4995-b62f-39dc8b761b89","system_id":"levelo_inurba_marseille","lat":43.21181,"lon":5.35073,"is_reserved":false,"is_disabled":false,"rental_uris":{"android":"levelo://app?vid=b2a8a085-4afe-4995-b62f-39dc8b761b89","ios":"levelo://app?vid=b2a8a085-4afe-4995-b62f-39dc8b761b89"},"vehicle_type_id":"4","last_reported":1747688968,"current_range_meters":9600,"station_id":"st_cvj6sg6p6f1abm77japg","pricing_plan_id":"cebpf4jnsgd1na2vs0mg"},{"bike_id":"85eaca89-9437-48d0-9bca-a254337b88db","system_id":"levelo_inurba_marseille","lat":43.27454,"lon":5.40959,"is_reserved":false,"is_disabled":false,"rental_uris":{"android":"levelo://app?vid=85eaca89-9437-48d0-9bca-a254337b88db","ios":"levelo://app?vid=85eaca89-9437-48d0-9bca-a254337b88db"},"vehicle_type_id":"4","last_reported":1747688968,"current_range_meters":10000,"station_id":"","pricing_plan_id":"cebpf4jnsgd1na2vs0mg"},{"bike_id":"f6dec522-dffe-4246-a51c-e4a759e3c14e","system_id":"levelo_inurba_marseille","lat":43.30792,"lon":5.37639,"is_reserved":false,"is_disabled":false,"rental_uris":{"android":"levelo://app?vid=f6dec522-dffe-4246-a51c-e4a759e3c14e","ios":"levelo://app?vid=f6dec522-dffe-4246-a51c-e4a759e3c14e"},"vehicle_type_id":"4","last_reported":1747688968,"current_range_meters":10000,"station_id":"ce4bgv92rcd13ifvqcq0","pricing_plan_id":"cebpf4jnsgd1na2vs0mg"},{"bike_id":"df906ff1-a8b6-4b40-9e21-a6898409dead","system_id":"levelo_inurba_marseille","lat":43.29259,"lon":5.38449,"is_reserved":false,"is_disabled":false,"rental_uris":{"android":"levelo://app?vid=df906ff1-a8b6-4b40-9e21-a6898409dead","ios":"levelo://app?vid=df906ff1-a8b6-4b40-9e21-a6898409dead"},"vehicle_type_id":"4","last_reported":1747688968,"current_range_meters":10000,"station_id":"ce4bh692rcd13ifvqea0","pricing_plan_id":"cebpf4jnsgd1na2vs0mg"},{"bike_id":"b5df4361-8fa9-4b8b-b1ad-cea9da2f893d","system_id":"levelo_inurba_marseille","lat":43.25125,"lon":5.40328,"is_reserved":false,"is_disabled":false,"rental_uris":{"android":"levelo://app?vid=b5df4361-8fa9-4b8b-b1ad-cea9da2f893d","ios":"levelo://app?vid=b5df4361-8fa9-4b8b-b1ad-cea9da2f893d"},"vehicle_type_id":"4","last_reported":1747688968,"current_range_meters":10000,"station_id":"ce4bhlh2rcd13ifvqgig","pricing_plan_id":"cebpf4jnsgd1na2vs0mg"},{"bike_id":"0bee8310-e3c6-4566-aecb-00d86829bb71","system_id":"levelo_inurba_marseille","lat":43.281504,"lon":5.426486,"is_reserved":false,"is_disabled":false,"rental_uris":{"android":"levelo://app?vid=0bee8310-e3c6-4566-aecb-00d86829bb71","ios":"levelo://app?vid=0bee8310-e3c6-4566-aecb-00d86829bb71"},"vehicle_type_id":"4","last_reported":1747688968,"current_range_meters":10000,"station_id":"ce4bhnh2rcd13ifvqgug","pricing_plan_id":"cebpf4jnsgd1na2vs0mg"},{"bike_id":"c076ad54-d589-4eeb-ac51-e1376a33ec39","system_id":"levelo_inurba_marseille","lat":43.29602,"lon":5.4228,"is_reserved":false,"is_disabled":false,"rental_uris":{"android":"levelo://app?vid=c076ad54-d589-4eeb-ac51-e1376a33ec39","ios":"levelo://app?vid=c076ad54-d589-4eeb-ac51-e1376a33ec39"},"vehicle_type_id":"4","last_reported":1747688968,"current_range_meters":10800,"station_id":"","pricing_plan_id":"cebpf4jnsgd1na2vs0mg"},{"bike_id":"7a0b1af3-8095-4fa4-96e3-dd48618c0854","system_id":"levelo_inurba_marseille","lat":43.30595,"lon":5.3721,"is_reserved":false,"is_disabled":false,"rental_uris":{"android":"levelo://app?vid=7a0b1af3-8095-4fa4-96e3-dd48618c0854","ios":"levelo://app?vid=7a0b1af3-8095-4fa4-96e3-dd48618c0854"},"vehicle_type_id":"4","last_reported":1747688968,"current_range_meters":10800,"station_id":"ce4bgqh2rcd13ifvqc4g","pricing_plan_id":"cebpf4jnsgd1na2vs0mg"},{"bike_id":"9cf69802-b266-48b3-907b-51d899ac9991","system_id":"levelo_inurba_marseille","lat":43.30933,"lon":5.40138,"is_reserved":false,"is_disabled":false,"rental_uris":{"android":"levelo://app?vid=9cf69802-b266-48b3-907b-51d899ac9991","ios":"levelo://app?vid=9cf69802-b266-48b3-907b-51d899ac9991"},"vehicle_type_id":"4","last_reported":1747688968,"current_range_meters":10800,"station_id":"ce4bgvp2rcd13ifvqct0","pricing_plan_id":"cebpf4jnsgd1na2vs0mg"},{"bike_id":"82b7f009-bd5b-4d9b-a74a-f4d218e30cc4","system_id":"levelo_inurba_marseille","lat":43.29278,"lon":5.40115,"is_reserved":false,"is_disabled":false,"rental_uris":{"android":"levelo://app?vid=82b7f009-bd5b-4d9b-a74a-f4d218e30cc4","ios":"levelo://app?vid=82b7f009-bd5b-4d9b-a74a-f4d218e30cc4"},"vehicle_type_id":"4","last_reported":1747688968,"current_range_meters":10800,"station_id":"ce4bh312rcd13ifvqdk0","pricing_plan_id":"cebpf4jnsgd1na2vs0mg"},{"bike_id":"0efc3959-12e0-4177-a725-90023e448259","system_id":"levelo_inurba_marseille","lat":43.27194,"lon":5.40987,"is_reserved":false,"is_disabled":false,"rental_uris":{"android":"levelo://app?vid=0efc3959-12e0-4177-a725-90023e448259","ios":"levelo://app?vid=0efc3959-12e0-4177-a725-90023e448259"},"vehicle_type_id":"4","last_reported":1747688968,"current_range_meters":10800,"station_id":"ce4bhl12rcd13ifvqgf0","pricing_plan_id":"cebpf4jnsgd1na2vs0mg"},{"bike_id":"89e75d22-2829-4276-bd50-349663c80965","system_id":"levelo_inurba_marseille","lat":43.251097,"lon":5.403173,"is_reserved":false,"is_disabled":false,"rental_uris":{"android":"levelo://app?vid=89e75d22-2829-4276-bd50-349663c80965","ios":"levelo://app?vid=89e75d22-2829-4276-bd50-349663c80965"},"vehicle_type_id":"4","last_reported":1747688968,"current_range_meters":10800,"station_id":"ce4bhlh2rcd13ifvqgig","pricing_plan_id":"cebpf4jnsgd1na2vs0mg"},{"bike_id":"e0391685-f930-423c-9e14-b2af3a4e59b5","system_id":"levelo_inurba_marseille","lat":43.231893,"lon":5.399887,"is_reserved":false,"is_disabled":false,"rental_uris":{"android":"levelo://app?vid=e0391685-f930-423c-9e14-b2af3a4e59b5","ios":"levelo://app?vid=e0391685-f930-423c-9e14-b2af3a4e59b5"},"vehicle_type_id":"4","last_reported":1747688968,"current_range_meters":10800,"station_id":"ce4bhn12rcd13ifvqgqg","pricing_plan_id":"cebpf4jnsgd1na2vs0mg"},{"bike_id":"7ddabab5-fb9d-431e-bb65-ee4d4e122759","system_id":"levelo_inurba_marseille","lat":43.28179,"lon":5.42615,"is_reserved":false,"is_disabled":false,"rental_uris":{"android":"levelo://app?vid=7ddabab5-fb9d-431e-bb65-ee4d4e122759","ios":"levelo://app?vid=7ddabab5-fb9d-431e-bb65-ee4d4e122759"},"vehicle_type_id":"4","last_reported":1747688968,"current_range_meters":10800,"station_id":"ce4bhnh2rcd13ifvqgug","pricing_plan_id":"cebpf4jnsgd1na2vs0mg"},{"bike_id":"bf0f734e-7db4-4909-bee4-1c076f1b6d92","system_id":"levelo_inurba_marseille","lat":43.281553,"lon":5.426395,"is_reserved":false,"is_disabled":false,"rental_uris":{"android":"levelo://app?vid=bf0f734e-7db4-4909-bee4-1c076f1b6d92","ios":"levelo://app?vid=bf0f734e-7db4-4909-bee4-1c076f1b6d92"},"vehicle_type_id":"4","last_reported":1747688968,"current_range_meters":10800,"station_id":"ce4bhnh2rcd13ifvqgug","pricing_plan_id":"cebpf4jnsgd1na2vs0mg"},{"bike_id":"60393716-8180-42eb-a367-cc5098e8bc92","system_id":"levelo_inurba_marseille","lat":43.28001,"lon":5.40021,"is_reserved":false,"is_disabled":false,"rental_uris":{"android":"levelo://app?vid=60393716-8180-42eb-a367-cc5098e8bc92","ios":"levelo://app?vid=60393716-8180-42eb-a367-cc5098e8bc92"},"vehicle_type_id":"4","last_reported":1747688968,"current_range_meters":10800,"station_id":"ce4bho92rcd13ifvqh4g","pricing_plan_id":"cebpf4jnsgd1na2vs0mg"},{"bike_id":"b69e9525-f9fe-475a-a8d8-418ab1b45f8d","system_id":"levelo_inurba_marseille","lat":43.287272,"lon":5.360756,"is_reserved":false,"is_disabled":false,"rental_uris":{"android":"levelo://app?vid=b69e9525-f9fe-475a-a8d8-418ab1b45f8d","ios":"levelo://app?vid=b69e9525-f9fe-475a-a8d8-418ab1b45f8d"},"vehicle_type_id":"4","last_reported":1747688968,"current_range_meters":10800,"station_id":"cki0cbj6b192h4jlfktg","pricing_plan_id":"cebpf4jnsgd1na2vs0mg"},{"bike_id":"40d5f946-42f0-423c-82a6-7cd8e3c0679d","system_id":"levelo_inurba_marseille","lat":43.28406,"lon":5.37486,"is_reserved":false,"is_disabled":false,"rental_uris":{"android":"levelo://app?vid=40d5f946-42f0-423c-82a6-7cd8e3c0679d","ios":"levelo://app?vid=40d5f946-42f0-423c-82a6-7cd8e3c0679d"},"vehicle_type_id":"4","last_reported":1747688968,"current_range_meters":11200,"station_id":"ce4bh412rcd13ifvqds0","pricing_plan_id":"cebpf4jnsgd1na2vs0mg"},{"bike_id":"f9b3996d-2c0f-497b-a2fb-c22c787feca1","system_id":"levelo_inurba_marseille","lat":43.28098,"lon":5.40195,"is_reserved":false,"is_disabled":false,"rental_uris":{"android":"levelo://app?vid=f9b3996d-2c0f-497b-a2fb-c22c787feca1","ios":"levelo://app?vid=f9b3996d-2c0f-497b-a2fb-c22c787feca1"},"vehicle_type_id":"4","last_reported":1747688968,"current_range_meters":11600,"station_id":"","pricing_plan_id":"cebpf4jnsgd1na2vs0mg"},{"bike_id":"22346efc-cdc1-4ad0-9299-b3680ece779e","system_id":"levelo_inurba_marseille","lat":43.29922,"lon":5.37489,"is_reserved":false,"is_disabled":false,"rental_uris":{"android":"levelo://app?vid=22346efc-cdc1-4ad0-9299-b3680ece779e","ios":"levelo://app?vid=22346efc-cdc1-4ad0-9299-b3680ece779e"},"vehicle_type_id":"4","last_reported":1747688968,"current_range_meters":11600,"station_id":"ce4bgjh2rcd13ifvqbg0","pricing_plan_id":"cebpf4jnsgd1na2vs0mg"},{"bike_id":"75cb7a19-5149-4370-adef-68f1df212651","system_id":"levelo_inurba_marseille","lat":43.29431,"lon":5.386145,"is_reserved":false,"is_disabled":false,"rental_uris":{"android":"levelo://app?vid=75cb7a19-5149-4370-adef-68f1df212651","ios":"levelo://app?vid=75cb7a19-5149-4370-adef-68f1df212651"},"vehicle_type_id":"4","last_reported":1747688968,"current_range_meters":11600,"station_id":"ce4bh2h2rcd13ifvqdh0","pricing_plan_id":"cebpf4jnsgd1na2vs0mg"},{"bike_id":"f8911316-ecb6-4253-8bdc-b8e77174a78c","system_id":"levelo_inurba_marseille","lat":43.28709,"lon":5.37388,"is_reserved":false,"is_disabled":false,"rental_uris":{"android":"levelo://app?vid=f8911316-ecb6-4253-8bdc-b8e77174a78c","ios":"levelo://app?vid=f8911316-ecb6-4253-8bdc-b8e77174a78c"},"vehicle_type_id":"4","last_reported":1747688968,"current_range_meters":11600,"station_id":"ce4bh3p2rcd13ifvqdq0","pricing_plan_id":"cebpf4jnsgd1na2vs0mg"},{"bike_id":"3532affc-a16c-4c55-aef2-438c57750ba1","system_id":"levelo_inurba_marseille","lat":43.289407,"lon":5.363982,"is_reserved":false,"is_disabled":false,"rental_uris":{"android":"levelo://app?vid=3532affc-a16c-4c55-aef2-438c57750ba1","ios":"levelo://app?vid=3532affc-a16c-4c55-aef2-438c57750ba1"},"vehicle_type_id":"4","last_reported":1747688968,"current_range_meters":11600,"station_id":"ce4bhc92rcd13ifvqetg","pricing_plan_id":"cebpf4jnsgd1na2vs0mg"},{"bike_id":"7b4ebcee-a823-442f-a8fb-bd9eabc7a6ed","system_id":"levelo_inurba_marseille","lat":43.25095,"lon":5.388197,"is_reserved":false,"is_disabled":false,"rental_uris":{"android":"levelo://app?vid=7b4ebcee-a823-442f-a8fb-bd9eabc7a6ed","ios":"levelo://app?vid=7b4ebcee-a823-442f-a8fb-bd9eabc7a6ed"},"vehicle_type_id":"4","last_reported":1747688968,"current_range_meters":12000,"station_id":"","pricing_plan_id":"cebpf4jnsgd1na2vs0mg"},{"bike_id":"bffbaf88-357a-4e87-a68c-a9a27a6e01e6","system_id":"levelo_inurba_marseille","lat":43.26252,"lon":5.42106,"is_reserved":false,"is_disabled":false,"rental_uris":{"android":"levelo://app?vid=bffbaf88-357a-4e87-a68c-a9a27a6e01e6","ios":"levelo://app?vid=bffbaf88-357a-4e87-a68c-a9a27a6e01e6"},"vehicle_type_id":"4","last_reported":1747688968,"current_range_meters":12000,"station_id":"","pricing_plan_id":"cebpf4jnsgd1na2vs0mg"},{"bike_id":"52a39732-f389-4238-8320-12a8ecb43bc9","system_id":"levelo_inurba_marseille","lat":43.33781,"lon":5.37499,"is_reserved":false,"is_disabled":false,"rental_uris":{"android":"levelo://app?vid=52a39732-f389-4238-8320-12a8ecb43bc9","ios":"levelo://app?vid=52a39732-f389-4238-8320-12a8ecb43bc9"},"vehicle_type_id":"4","last_reported":1747688968,"current_range_meters":12000,"station_id":"","pricing_plan_id":"cebpf4jnsgd1na2vs0mg"},{"bike_id":"0b110b2d-32eb-4b65-ba9f-322be626d214","system_id":"levelo_inurba_marseille","lat":43.29525,"lon":5.39406,"is_reserved":false,"is_disabled":false,"rental_uris":{"android":"levelo://app?vid=0b110b2d-32eb-4b65-ba9f-322be626d214","ios":"levelo://app?vid=0b110b2d-32eb-4b65-ba9f-322be626d214"},"vehicle_type_id":"4","last_reported":1747688968,"current_range_meters":12000,"station_id":"ce4bh292rcd13ifvqdf0","pricing_plan_id":"cebpf4jnsgd1na2vs0mg"},{"bike_id":"598900bc-cc96-46f3-b8f9-32958f862dd5","system_id":"levelo_inurba_marseille","lat":43.30412,"lon":5.36793,"is_reserved":false,"is_disabled":false,"rental_uris":{"android":"levelo://app?vid=598900bc-cc96-46f3-b8f9-32958f862dd5","ios":"levelo://app?vid=598900bc-cc96-46f3-b8f9-32958f862dd5"},"vehicle_type_id":"4","last_reported":1747688968,"current_range_meters":12800,"station_id":"","pricing_plan_id":"cebpf4jnsgd1na2vs0mg"},{"bike_id":"f3dd4642-98de-4393-9209-048925d90605","system_id":"levelo_inurba_marseille","lat":43.2439,"lon":5.37052,"is_reserved":false,"is_disabled":false,"rental_uris":{"android":"levelo://app?vid=f3dd4642-98de-4393-9209-048925d90605","ios":"levelo://app?vid=f3dd4642-98de-4393-9209-048925d90605"},"vehicle_type_id":"4","last_reported":1747688968,"current_range_meters":12800,"station_id":"ce4bhhh2rcd13ifvqfk0","pricing_plan_id":"cebpf4jnsgd1na2vs0mg"},{"bike_id":"def1dbab-2f13-4e02-9068-e78ce5506334","system_id":"levelo_inurba_marseille","lat":43.301452,"lon":5.374142,"is_reserved":false,"is_disabled":false,"rental_uris":{"android":"levelo://app?vid=def1dbab-2f13-4e02-9068-e78ce5506334","ios":"levelo://app?vid=def1dbab-2f13-4e02-9068-e78ce5506334"},"vehicle_type_id":"4","last_reported":1747688968,"current_range_meters":13600,"station_id":"","pricing_plan_id":"cebpf4jnsgd1na2vs0mg"},{"bike_id":"469a92e6-d309-4260-b2e7-64d67ec1425c","system_id":"levelo_inurba_marseille","lat":43.31716,"lon":5.37732,"is_reserved":false,"is_disabled":false,"rental_uris":{"android":"levelo://app?vid=469a92e6-d309-4260-b2e7-64d67ec1425c","ios":"levelo://app?vid=469a92e6-d309-4260-b2e7-64d67ec1425c"},"vehicle_type_id":"4","last_reported":1747688968,"current_range_meters":13600,"station_id":"ce4bgth2rcd13ifvqch0","pricing_plan_id":"cebpf4jnsgd1na2vs0mg"},{"bike_id":"08129706-0840-4cc7-a7e9-4dbc2d7407ba","system_id":"levelo_inurba_marseille","lat":43.23193,"lon":5.399809,"is_reserved":false,"is_disabled":false,"rental_uris":{"android":"levelo://app?vid=08129706-0840-4cc7-a7e9-4dbc2d7407ba","ios":"levelo://app?vid=08129706-0840-4cc7-a7e9-4dbc2d7407ba"},"vehicle_type_id":"4","last_reported":1747688968,"current_range_meters":13600,"station_id":"ce4bhn12rcd13ifvqgqg","pricing_plan_id":"cebpf4jnsgd1na2vs0mg"},{"bike_id":"e0dcde14-01c2-4ed7-bb6d-2eef0017ccce","system_id":"levelo_inurba_marseille","lat":43.301252,"lon":5.398625,"is_reserved":false,"is_disabled":false,"rental_uris":{"android":"levelo://app?vid=e0dcde14-01c2-4ed7-bb6d-2eef0017ccce","ios":"levelo://app?vid=e0dcde14-01c2-4ed7-bb6d-2eef0017ccce"},"vehicle_type_id":"4","last_reported":1747688968,"current_range_meters":14000,"station_id":"","pricing_plan_id":"cebpf4jnsgd1na2vs0mg"},{"bike_id":"20dcad8c-c38b-4601-90e6-c5a533b18b67","system_id":"levelo_inurba_marseille","lat":43.308,"lon":5.3817,"is_reserved":false,"is_disabled":false,"rental_uris":{"android":"levelo://app?vid=20dcad8c-c38b-4601-90e6-c5a533b18b67","ios":"levelo://app?vid=20dcad8c-c38b-4601-90e6-c5a533b18b67"},"vehicle_type_id":"4","last_reported":1747688968,"current_range_meters":14000,"station_id":"ce4bgt12rcd13ifvqce0","pricing_plan_id":"cebpf4jnsgd1na2vs0mg"},{"bike_id":"6831c561-0b17-4a73-9c04-93f7f8e14b84","system_id":"levelo_inurba_marseille","lat":43.30648,"lon":5.40101,"is_reserved":false,"is_disabled":false,"rental_uris":{"android":"levelo://app?vid=6831c561-0b17-4a73-9c04-93f7f8e14b84","ios":"levelo://app?vid=6831c561-0b17-4a73-9c04-93f7f8e14b84"},"vehicle_type_id":"4","last_reported":1747688968,"current_range_meters":14000,"station_id":"ce4bh112rcd13ifvqda0","pricing_plan_id":"cebpf4jnsgd1na2vs0mg"},{"bike_id":"2aeaf632-8f44-4284-bf3b-9782c3bf4f04","system_id":"levelo_inurba_marseille","lat":43.27204,"lon":5.40984,"is_reserved":false,"is_disabled":false,"rental_uris":{"android":"levelo://app?vid=2aeaf632-8f44-4284-bf3b-9782c3bf4f04","ios":"levelo://app?vid=2aeaf632-8f44-4284-bf3b-9782c3bf4f04"},"vehicle_type_id":"4","last_reported":1747688968,"current_range_meters":14000,"station_id":"ce4bhl12rcd13ifvqgf0","pricing_plan_id":"cebpf4jnsgd1na2vs0mg"},{"bike_id":"f47ba828-a2c8-4267-846f-1d1a254d6158","system_id":"levelo_inurba_marseille","lat":43.32335,"lon":5.40625,"is_reserved":false,"is_disabled":false,"rental_uris":{"android":"levelo://app?vid=f47ba828-a2c8-4267-846f-1d1a254d6158","ios":"levelo://app?vid=f47ba828-a2c8-4267-846f-1d1a254d6158"},"vehicle_type_id":"4","last_reported":1747688968,"current_range_meters":14000,"station_id":"ce4bhq92rcd13ifvqhjg","pricing_plan_id":"cebpf4jnsgd1na2vs0mg"},{"bike_id":"93b4465d-afc7-44fe-a302-be7a74a57c95","system_id":"levelo_inurba_marseille","lat":43.32036,"lon":5.38125,"is_reserved":false,"is_disabled":false,"rental_uris":{"android":"levelo://app?vid=93b4465d-afc7-44fe-a302-be7a74a57c95","ios":"levelo://app?vid=93b4465d-afc7-44fe-a302-be7a74a57c95"},"vehicle_type_id":"4","last_reported":1747688968,"current_range_meters":14000,"station_id":"ce4bhr12rcd13ifvqhpg","pricing_plan_id":"cebpf4jnsgd1na2vs0mg"},{"bike_id":"58edc354-c183-4da4-b527-1ba0f2d395e0","system_id":"levelo_inurba_marseille","lat":43.276699,"lon":5.3575,"is_reserved":false,"is_disabled":false,"rental_uris":{"android":"levelo://app?vid=58edc354-c183-4da4-b527-1ba0f2d395e0","ios":"levelo://app?vid=58edc354-c183-4da4-b527-1ba0f2d395e0"},"vehicle_type_id":"4","last_reported":1747688968,"current_range_meters":14400,"station_id":"","pricing_plan_id":"cebpf4jnsgd1na2vs0mg"},{"bike_id":"e8162579-a5ad-485f-ad83-fec8a2ebe7e1","system_id":"levelo_inurba_marseille","lat":43.26826,"lon":5.39099,"is_reserved":false,"is_disabled":false,"rental_uris":{"android":"levelo://app?vid=e8162579-a5ad-485f-ad83-fec8a2ebe7e1","ios":"levelo://app?vid=e8162579-a5ad-485f-ad83-fec8a2ebe7e1"},"vehicle_type_id":"4","last_reported":1747688968,"current_range_meters":14400,"station_id":"","pricing_plan_id":"cebpf4jnsgd1na2vs0mg"},{"bike_id":"30dabe7c-04c4-4995-b9b0-e1087462b9b8","system_id":"levelo_inurba_marseille","lat":43.30888,"lon":5.39637,"is_reserved":false,"is_disabled":false,"rental_uris":{"android":"levelo://app?vid=30dabe7c-04c4-4995-b9b0-e1087462b9b8","ios":"levelo://app?vid=30dabe7c-04c4-4995-b9b0-e1087462b9b8"},"vehicle_type_id":"4","last_reported":1747688968,"current_range_meters":14400,"station_id":"ce4bh012rcd13ifvqcv0","pricing_plan_id":"cebpf4jnsgd1na2vs0mg"},{"bike_id":"e446799d-e186-4b88-a04b-bff59732692f","system_id":"levelo_inurba_marseille","lat":43.2926,"lon":5.38443,"is_reserved":false,"is_disabled":false,"rental_uris":{"android":"levelo://app?vid=e446799d-e186-4b88-a04b-bff59732692f","ios":"levelo://app?vid=e446799d-e186-4b88-a04b-bff59732692f"},"vehicle_type_id":"4","last_reported":1747688968,"current_range_meters":14400,"station_id":"ce4bh692rcd13ifvqea0","pricing_plan_id":"cebpf4jnsgd1na2vs0mg"},{"bike_id":"17327be2-c418-4d27-835d-14cf9f268a47","system_id":"levelo_inurba_marseille","lat":43.28935,"lon":5.36408,"is_reserved":false,"is_disabled":false,"rental_uris":{"android":"levelo://app?vid=17327be2-c418-4d27-835d-14cf9f268a47","ios":"levelo://app?vid=17327be2-c418-4d27-835d-14cf9f268a47"},"vehicle_type_id":"4","last_reported":1747688968,"current_range_meters":14400,"station_id":"ce4bhc92rcd13ifvqetg","pricing_plan_id":"cebpf4jnsgd1na2vs0mg"},{"bike_id":"da7eb900-1880-4e5b-af1f-908b515dbd64","system_id":"levelo_inurba_marseille","lat":43.24798,"lon":5.37459,"is_reserved":false,"is_disabled":false,"rental_uris":{"android":"levelo://app?vid=da7eb900-1880-4e5b-af1f-908b515dbd64","ios":"levelo://app?vid=da7eb900-1880-4e5b-af1f-908b515dbd64"},"vehicle_type_id":"4","last_reported":1747688968,"current_range_meters":14400,"station_id":"ce4bhgh2rcd13ifvqfb0","pricing_plan_id":"cebpf4jnsgd1na2vs0mg"},{"bike_id":"b7cb1705-6b5a-49c6-8905-4f8177d4379a","system_id":"levelo_inurba_marseille","lat":43.231904,"lon":5.399773,"is_reserved":false,"is_disabled":false,"rental_uris":{"android":"levelo://app?vid=b7cb1705-6b5a-49c6-8905-4f8177d4379a","ios":"levelo://app?vid=b7cb1705-6b5a-49c6-8905-4f8177d4379a"},"vehicle_type_id":"4","last_reported":1747688968,"current_range_meters":14400,"station_id":"ce4bhn12rcd13ifvqgqg","pricing_plan_id":"cebpf4jnsgd1na2vs0mg"},{"bike_id":"8b7f87ab-5c42-4892-9e31-39e362c73d2e","system_id":"levelo_inurba_marseille","lat":43.31074,"lon":5.38361,"is_reserved":false,"is_disabled":false,"rental_uris":{"android":"levelo://app?vid=8b7f87ab-5c42-4892-9e31-39e362c73d2e","ios":"levelo://app?vid=8b7f87ab-5c42-4892-9e31-39e362c73d2e"},"vehicle_type_id":"4","last_reported":1747688968,"current_range_meters":14800,"station_id":"ce4bgv92rcd13ifvqcr0","pricing_plan_id":"cebpf4jnsgd1na2vs0mg"},{"bike_id":"6ffaefd9-71a4-4504-9735-11ddd80fd6fd","system_id":"levelo_inurba_marseille","lat":43.30883,"lon":5.39647,"is_reserved":false,"is_disabled":false,"rental_uris":{"android":"levelo://app?vid=6ffaefd9-71a4-4504-9735-11ddd80fd6fd","ios":"levelo://app?vid=6ffaefd9-71a4-4504-9735-11ddd80fd6fd"},"vehicle_type_id":"4","last_reported":1747688968,"current_range_meters":14800,"station_id":"ce4bh012rcd13ifvqcv0","pricing_plan_id":"cebpf4jnsgd1na2vs0mg"},{"bike_id":"0f9d6bdf-1d4f-466e-aa63-557c75d3adc2","system_id":"levelo_inurba_marseille","lat":43.28033,"lon":5.36937,"is_reserved":false,"is_disabled":false,"rental_uris":{"android":"levelo://app?vid=0f9d6bdf-1d4f-466e-aa63-557c75d3adc2","ios":"levelo://app?vid=0f9d6bdf-1d4f-466e-aa63-557c75d3adc2"},"vehicle_type_id":"4","last_reported":1747688968,"current_range_meters":14800,"station_id":"ce4bha12rcd13ifvqef0","pricing_plan_id":"cebpf4jnsgd1na2vs0mg"},{"bike_id":"f9bd452a-300d-4454-890a-c716cf8ab1c5","system_id":"levelo_inurba_marseille","lat":43.250124,"lon":5.389236,"is_reserved":false,"is_disabled":false,"rental_uris":{"android":"levelo://app?vid=f9bd452a-300d-4454-890a-c716cf8ab1c5","ios":"levelo://app?vid=f9bd452a-300d-4454-890a-c716cf8ab1c5"},"vehicle_type_id":"4","last_reported":1747688968,"current_range_meters":14800,"station_id":"ce4bhgp2rcd13ifvqfd0","pricing_plan_id":"cebpf4jnsgd1na2vs0mg"},{"bike_id":"2b9eaf68-b5db-44c3-8d31-2630d4128b66","system_id":"levelo_inurba_marseille","lat":43.2513,"lon":5.40316,"is_reserved":false,"is_disabled":false,"rental_uris":{"android":"levelo://app?vid=2b9eaf68-b5db-44c3-8d31-2630d4128b66","ios":"levelo://app?vid=2b9eaf68-b5db-44c3-8d31-2630d4128b66"},"vehicle_type_id":"4","last_reported":1747688968,"current_range_meters":14800,"station_id":"ce4bhlh2rcd13ifvqgig","pricing_plan_id":"cebpf4jnsgd1na2vs0mg"},{"bike_id":"e40a60b7-4395-46e1-a7b8-3186548ec20c","system_id":"levelo_inurba_marseille","lat":43.30925,"lon":5.40153,"is_reserved":false,"is_disabled":false,"rental_uris":{"android":"levelo://app?vid=e40a60b7-4395-46e1-a7b8-3186548ec20c","ios":"levelo://app?vid=e40a60b7-4395-46e1-a7b8-3186548ec20c"},"vehicle_type_id":"4","last_reported":1747688968,"current_range_meters":15200,"station_id":"ce4bgvp2rcd13ifvqct0","pricing_plan_id":"cebpf4jnsgd1na2vs0mg"},{"bike_id":"7ddd82f2-75df-464b-8c03-766d7fbb61de","system_id":"levelo_inurba_marseille","lat":43.29257,"lon":5.40907,"is_reserved":false,"is_disabled":false,"rental_uris":{"android":"levelo://app?vid=7ddd82f2-75df-464b-8c03-766d7fbb61de","ios":"levelo://app?vid=7ddd82f2-75df-464b-8c03-766d7fbb61de"},"vehicle_type_id":"4","last_reported":1747688968,"current_range_meters":15200,"station_id":"ce4bh192rcd13ifvqdc0","pricing_plan_id":"cebpf4jnsgd1na2vs0mg"},{"bike_id":"b4b15575-a401-4b8c-b577-39a250ba6f7f","system_id":"levelo_inurba_marseille","lat":43.286975,"lon":5.373882,"is_reserved":false,"is_disabled":false,"rental_uris":{"android":"levelo://app?vid=b4b15575-a401-4b8c-b577-39a250ba6f7f","ios":"levelo://app?vid=b4b15575-a401-4b8c-b577-39a250ba6f7f"},"vehicle_type_id":"4","last_reported":1747688968,"current_range_meters":15200,"station_id":"ce4bh3p2rcd13ifvqdq0","pricing_plan_id":"cebpf4jnsgd1na2vs0mg"},{"bike_id":"0f5e51c5-c8d7-47f5-8b06-dfdcf1c9042a","system_id":"levelo_inurba_marseille","lat":43.29785,"lon":5.39347,"is_reserved":false,"is_disabled":false,"rental_uris":{"android":"levelo://app?vid=0f5e51c5-c8d7-47f5-8b06-dfdcf1c9042a","ios":"levelo://app?vid=0f5e51c5-c8d7-47f5-8b06-dfdcf1c9042a"},"vehicle_type_id":"4","last_reported":1747688968,"current_range_meters":15200,"station_id":"chh1huq6cuj3fo74tm60","pricing_plan_id":"cebpf4jnsgd1na2vs0mg"},{"bike_id":"3552fbf2-b43a-446f-93f5-d695fc251b73","system_id":"levelo_inurba_marseille","lat":43.251751,"lon":5.375166,"is_reserved":false,"is_disabled":false,"rental_uris":{"android":"levelo://app?vid=3552fbf2-b43a-446f-93f5-d695fc251b73","ios":"levelo://app?vid=3552fbf2-b43a-446f-93f5-d695fc251b73"},"vehicle_type_id":"4","last_reported":1747688968,"current_range_meters":16000,"station_id":"","pricing_plan_id":"cebpf4jnsgd1na2vs0mg"},{"bike_id":"41d22d97-83cd-47f1-8818-b5e928f9e6d5","system_id":"levelo_inurba_marseille","lat":43.2988,"lon":5.39749,"is_reserved":false,"is_disabled":false,"rental_uris":{"android":"levelo://app?vid=41d22d97-83cd-47f1-8818-b5e928f9e6d5","ios":"levelo://app?vid=41d22d97-83cd-47f1-8818-b5e928f9e6d5"},"vehicle_type_id":"4","last_reported":1747688968,"current_range_meters":16000,"station_id":"ce4bh0h2rcd13ifvqd50","pricing_plan_id":"cebpf4jnsgd1na2vs0mg"},{"bike_id":"556f14c3-bd96-43ad-8909-a176e855011f","system_id":"levelo_inurba_marseille","lat":43.295293,"lon":5.39039,"is_reserved":false,"is_disabled":false,"rental_uris":{"android":"levelo://app?vid=556f14c3-bd96-43ad-8909-a176e855011f","ios":"levelo://app?vid=556f14c3-bd96-43ad-8909-a176e855011f"},"vehicle_type_id":"4","last_reported":1747688968,"current_range_meters":16000,"station_id":"ce4bh3p2rcd13ifvqdp0","pricing_plan_id":"cebpf4jnsgd1na2vs0mg"},{"bike_id":"807f6f4e-b428-4a96-8c1f-42f3b03a9b0e","system_id":"levelo_inurba_marseille","lat":43.29041,"lon":5.37568,"is_reserved":false,"is_disabled":false,"rental_uris":{"android":"levelo://app?vid=807f6f4e-b428-4a96-8c1f-42f3b03a9b0e","ios":"levelo://app?vid=807f6f4e-b428-4a96-8c1f-42f3b03a9b0e"},"vehicle_type_id":"4","last_reported":1747688968,"current_range_meters":16000,"station_id":"ce4bh692rcd13ifvqe90","pricing_plan_id":"cebpf4jnsgd1na2vs0mg"},{"bike_id":"b4092363-ce05-481e-b8a5-74f257327df5","system_id":"levelo_inurba_marseille","lat":43.250869,"lon":5.395242,"is_reserved":false,"is_disabled":false,"rental_uris":{"android":"levelo://app?vid=b4092363-ce05-481e-b8a5-74f257327df5","ios":"levelo://app?vid=b4092363-ce05-481e-b8a5-74f257327df5"},"vehicle_type_id":"4","last_reported":1747688968,"current_range_meters":16000,"station_id":"ce4bhm12rcd13ifvqgkg","pricing_plan_id":"cebpf4jnsgd1na2vs0mg"},{"bike_id":"c3c11b11-8507-45b4-bd48-1e3bdd46fbbe","system_id":"levelo_inurba_marseille","lat":43.231862,"lon":5.399791,"is_reserved":false,"is_disabled":false,"rental_uris":{"android":"levelo://app?vid=c3c11b11-8507-45b4-bd48-1e3bdd46fbbe","ios":"levelo://app?vid=c3c11b11-8507-45b4-bd48-1e3bdd46fbbe"},"vehicle_type_id":"4","last_reported":1747688968,"current_range_meters":16000,"station_id":"ce4bhn12rcd13ifvqgqg","pricing_plan_id":"cebpf4jnsgd1na2vs0mg"},{"bike_id":"ce4d1ffa-876e-4dab-b1eb-9b411a2a1967","system_id":"levelo_inurba_marseille","lat":43.278113,"lon":5.40719,"is_reserved":false,"is_disabled":false,"rental_uris":{"android":"levelo://app?vid=ce4d1ffa-876e-4dab-b1eb-9b411a2a1967","ios":"levelo://app?vid=ce4d1ffa-876e-4dab-b1eb-9b411a2a1967"},"vehicle_type_id":"4","last_reported":1747688968,"current_range_meters":16000,"station_id":"ce4bhnh2rcd13ifvqgtg","pricing_plan_id":"cebpf4jnsgd1na2vs0mg"},{"bike_id":"185ccfd4-2307-4269-8343-9f69a9c912b2","system_id":"levelo_inurba_marseille","lat":43.31758,"lon":5.39019,"is_reserved":false,"is_disabled":false,"rental_uris":{"android":"levelo://app?vid=185ccfd4-2307-4269-8343-9f69a9c912b2","ios":"levelo://app?vid=185ccfd4-2307-4269-8343-9f69a9c912b2"},"vehicle_type_id":"4","last_reported":1747688968,"current_range_meters":16000,"station_id":"ce4bhqp2rcd13ifvqhng","pricing_plan_id":"cebpf4jnsgd1na2vs0mg"},{"bike_id":"8cdd073a-e8df-449a-afb9-12ee118845c7","system_id":"levelo_inurba_marseille","lat":43.29786,"lon":5.393406,"is_reserved":false,"is_disabled":false,"rental_uris":{"android":"levelo://app?vid=8cdd073a-e8df-449a-afb9-12ee118845c7","ios":"levelo://app?vid=8cdd073a-e8df-449a-afb9-12ee118845c7"},"vehicle_type_id":"4","last_reported":1747688968,"current_range_meters":16000,"station_id":"chh1huq6cuj3fo74tm60","pricing_plan_id":"cebpf4jnsgd1na2vs0mg"},{"bike_id":"e2e3a6f6-0f08-4185-b27b-75bc9500a96d","system_id":"levelo_inurba_marseille","lat":43.212028,"lon":5.350693,"is_reserved":false,"is_disabled":false,"rental_uris":{"android":"levelo://app?vid=e2e3a6f6-0f08-4185-b27b-75bc9500a96d","ios":"levelo://app?vid=e2e3a6f6-0f08-4185-b27b-75bc9500a96d"},"vehicle_type_id":"4","last_reported":1747688968,"current_range_meters":16000,"station_id":"st_cvj6sg6p6f1abm77japg","pricing_plan_id":"cebpf4jnsgd1na2vs0mg"},{"bike_id":"6386b301-5c5b-41dc-9be6-064d845d26a2","system_id":"levelo_inurba_marseille","lat":43.28628,"lon":5.4063,"is_reserved":false,"is_disabled":false,"rental_uris":{"android":"levelo://app?vid=6386b301-5c5b-41dc-9be6-064d845d26a2","ios":"levelo://app?vid=6386b301-5c5b-41dc-9be6-064d845d26a2"},"vehicle_type_id":"4","last_reported":1747688968,"current_range_meters":16400,"station_id":"","pricing_plan_id":"cebpf4jnsgd1na2vs0mg"},{"bike_id":"7e053555-9d33-4a74-9b33-70ec85fc4206","system_id":"levelo_inurba_marseille","lat":43.30318,"lon":5.36913,"is_reserved":false,"is_disabled":false,"rental_uris":{"android":"levelo://app?vid=7e053555-9d33-4a74-9b33-70ec85fc4206","ios":"levelo://app?vid=7e053555-9d33-4a74-9b33-70ec85fc4206"},"vehicle_type_id":"4","last_reported":1747688968,"current_range_meters":16400,"station_id":"ce4bgqh2rcd13ifvqc5g","pricing_plan_id":"cebpf4jnsgd1na2vs0mg"},{"bike_id":"8f9ad8e5-2995-4373-82e2-2e6740189ba1","system_id":"levelo_inurba_marseille","lat":43.30193,"lon":5.36624,"is_reserved":false,"is_disabled":false,"rental_uris":{"android":"levelo://app?vid=8f9ad8e5-2995-4373-82e2-2e6740189ba1","ios":"levelo://app?vid=8f9ad8e5-2995-4373-82e2-2e6740189ba1"},"vehicle_type_id":"4","last_reported":1747688968,"current_range_meters":16400,"station_id":"ce4bgrh2rcd13ifvqc8g","pricing_plan_id":"cebpf4jnsgd1na2vs0mg"},{"bike_id":"24dbe563-5dda-406b-b0f8-c10d8dbdd999","system_id":"levelo_inurba_marseille","lat":43.31169,"lon":5.38705,"is_reserved":false,"is_disabled":false,"rental_uris":{"android":"levelo://app?vid=24dbe563-5dda-406b-b0f8-c10d8dbdd999","ios":"levelo://app?vid=24dbe563-5dda-406b-b0f8-c10d8dbdd999"},"vehicle_type_id":"4","last_reported":1747688968,"current_range_meters":16400,"station_id":"ce4bgv12rcd13ifvqcp0","pricing_plan_id":"cebpf4jnsgd1na2vs0mg"},{"bike_id":"08ea18f2-dc53-4ee0-8fd1-93801ba6e874","system_id":"levelo_inurba_marseille","lat":43.31087,"lon":5.3836,"is_reserved":false,"is_disabled":false,"rental_uris":{"android":"levelo://app?vid=08ea18f2-dc53-4ee0-8fd1-93801ba6e874","ios":"levelo://app?vid=08ea18f2-dc53-4ee0-8fd1-93801ba6e874"},"vehicle_type_id":"4","last_reported":1747688968,"current_range_meters":16400,"station_id":"ce4bgv92rcd13ifvqcr0","pricing_plan_id":"cebpf4jnsgd1na2vs0mg"},{"bike_id":"c541c35d-396e-460d-aada-c38c354f930c","system_id":"levelo_inurba_marseille","lat":43.283516,"lon":5.381007,"is_reserved":false,"is_disabled":false,"rental_uris":{"android":"levelo://app?vid=c541c35d-396e-460d-aada-c38c354f930c","ios":"levelo://app?vid=c541c35d-396e-460d-aada-c38c354f930c"},"vehicle_type_id":"4","last_reported":1747688968,"current_range_meters":16400,"station_id":"ce4bh412rcd13ifvqdr0","pricing_plan_id":"cebpf4jnsgd1na2vs0mg"},{"bike_id":"bb0f493b-8272-4d6e-a5af-db294d830357","system_id":"levelo_inurba_marseille","lat":43.2892,"lon":5.3839,"is_reserved":false,"is_disabled":false,"rental_uris":{"android":"levelo://app?vid=bb0f493b-8272-4d6e-a5af-db294d830357","ios":"levelo://app?vid=bb0f493b-8272-4d6e-a5af-db294d830357"},"vehicle_type_id":"4","last_reported":1747688968,"current_range_meters":16400,"station_id":"ce4bh612rcd13ifvqe6g","pricing_plan_id":"cebpf4jnsgd1na2vs0mg"},{"bike_id":"8408fea8-c2df-40b0-9fcb-6a27eb37f4df","system_id":"levelo_inurba_marseille","lat":43.28154,"lon":5.42644,"is_reserved":false,"is_disabled":false,"rental_uris":{"android":"levelo://app?vid=8408fea8-c2df-40b0-9fcb-6a27eb37f4df","ios":"levelo://app?vid=8408fea8-c2df-40b0-9fcb-6a27eb37f4df"},"vehicle_type_id":"4","last_reported":1747688968,"current_range_meters":16400,"station_id":"ce4bhnh2rcd13ifvqgug","pricing_plan_id":"cebpf4jnsgd1na2vs0mg"},{"bike_id":"116ee6de-5d7e-4a40-80f6-c5e3f47d2eb6","system_id":"levelo_inurba_marseille","lat":43.30415,"lon":5.41274,"is_reserved":false,"is_disabled":false,"rental_uris":{"android":"levelo://app?vid=116ee6de-5d7e-4a40-80f6-c5e3f47d2eb6","ios":"levelo://app?vid=116ee6de-5d7e-4a40-80f6-c5e3f47d2eb6"},"vehicle_type_id":"4","last_reported":1747688968,"current_range_meters":16400,"station_id":"ce4bhop2rcd13ifvqh8g","pricing_plan_id":"cebpf4jnsgd1na2vs0mg"},{"bike_id":"7d817d5d-b615-43af-81fe-329239a1bd76","system_id":"levelo_inurba_marseille","lat":43.32331,"lon":5.40634,"is_reserved":false,"is_disabled":false,"rental_uris":{"android":"levelo://app?vid=7d817d5d-b615-43af-81fe-329239a1bd76","ios":"levelo://app?vid=7d817d5d-b615-43af-81fe-329239a1bd76"},"vehicle_type_id":"4","last_reported":1747688968,"current_range_meters":16400,"station_id":"ce4bhq92rcd13ifvqhjg","pricing_plan_id":"cebpf4jnsgd1na2vs0mg"},{"bike_id":"a77299a9-0afc-4000-817b-f97ca1eaadca","system_id":"levelo_inurba_marseille","lat":43.288194,"lon":5.459597,"is_reserved":false,"is_disabled":false,"rental_uris":{"android":"levelo://app?vid=a77299a9-0afc-4000-817b-f97ca1eaadca","ios":"levelo://app?vid=a77299a9-0afc-4000-817b-f97ca1eaadca"},"vehicle_type_id":"4","last_reported":1747688968,"current_range_meters":16800,"station_id":"","pricing_plan_id":"cebpf4jnsgd1na2vs0mg"},{"bike_id":"6b9f650d-78dc-4b36-bdbc-8aef62decb04","system_id":"levelo_inurba_marseille","lat":43.283533,"lon":5.38102,"is_reserved":false,"is_disabled":false,"rental_uris":{"android":"levelo://app?vid=6b9f650d-78dc-4b36-bdbc-8aef62decb04","ios":"levelo://app?vid=6b9f650d-78dc-4b36-bdbc-8aef62decb04"},"vehicle_type_id":"4","last_reported":1747688968,"current_range_meters":16800,"station_id":"ce4bh412rcd13ifvqdr0","pricing_plan_id":"cebpf4jnsgd1na2vs0mg"},{"bike_id":"2dca0212-cb1a-4240-ac24-da89c5b5c501","system_id":"levelo_inurba_marseille","lat":43.2903,"lon":5.38632,"is_reserved":false,"is_disabled":false,"rental_uris":{"android":"levelo://app?vid=2dca0212-cb1a-4240-ac24-da89c5b5c501","ios":"levelo://app?vid=2dca0212-cb1a-4240-ac24-da89c5b5c501"},"vehicle_type_id":"4","last_reported":1747688968,"current_range_meters":16800,"station_id":"ce4bh4p2rcd13ifvqe0g","pricing_plan_id":"cebpf4jnsgd1na2vs0mg"},{"bike_id":"59b8a132-4666-485c-b6ad-3e889f0d9322","system_id":"levelo_inurba_marseille","lat":43.2551,"lon":5.37631,"is_reserved":false,"is_disabled":false,"rental_uris":{"android":"levelo://app?vid=59b8a132-4666-485c-b6ad-3e889f0d9322","ios":"levelo://app?vid=59b8a132-4666-485c-b6ad-3e889f0d9322"},"vehicle_type_id":"4","last_reported":1747688968,"current_range_meters":16800,"station_id":"ce4bhh12rcd13ifvqff0","pricing_plan_id":"cebpf4jnsgd1na2vs0mg"},{"bike_id":"0c75e290-2f49-4428-9202-02a35670787a","system_id":"levelo_inurba_marseille","lat":43.231896,"lon":5.399828,"is_reserved":false,"is_disabled":false,"rental_uris":{"android":"levelo://app?vid=0c75e290-2f49-4428-9202-02a35670787a","ios":"levelo://app?vid=0c75e290-2f49-4428-9202-02a35670787a"},"vehicle_type_id":"4","last_reported":1747688968,"current_range_meters":16800,"station_id":"ce4bhn12rcd13ifvqgqg","pricing_plan_id":"cebpf4jnsgd1na2vs0mg"},{"bike_id":"75dee7d2-0f48-4cd8-b326-0e219910beed","system_id":"levelo_inurba_marseille","lat":43.308079,"lon":5.435178,"is_reserved":false,"is_disabled":false,"rental_uris":{"android":"levelo://app?vid=75dee7d2-0f48-4cd8-b326-0e219910beed","ios":"levelo://app?vid=75dee7d2-0f48-4cd8-b326-0e219910beed"},"vehicle_type_id":"4","last_reported":1747688968,"current_range_meters":16800,"station_id":"ce4bhph2rcd13ifvqheg","pricing_plan_id":"cebpf4jnsgd1na2vs0mg"},{"bike_id":"52e5a0fd-9a82-4a4a-8f0b-b92665327644","system_id":"levelo_inurba_marseille","lat":43.30821,"lon":5.4353,"is_reserved":false,"is_disabled":false,"rental_uris":{"android":"levelo://app?vid=52e5a0fd-9a82-4a4a-8f0b-b92665327644","ios":"levelo://app?vid=52e5a0fd-9a82-4a4a-8f0b-b92665327644"},"vehicle_type_id":"4","last_reported":1747688968,"current_range_meters":16800,"station_id":"ce4bhph2rcd13ifvqheg","pricing_plan_id":"cebpf4jnsgd1na2vs0mg"},{"bike_id":"6ae58e73-f5a3-4b29-a360-31b819da57a1","system_id":"levelo_inurba_marseille","lat":43.29537,"lon":5.38541,"is_reserved":false,"is_disabled":false,"rental_uris":{"android":"levelo://app?vid=6ae58e73-f5a3-4b29-a360-31b819da57a1","ios":"levelo://app?vid=6ae58e73-f5a3-4b29-a360-31b819da57a1"},"vehicle_type_id":"4","last_reported":1747688968,"current_range_meters":17200,"station_id":"ce4bgih2rcd13ifvqba0","pricing_plan_id":"cebpf4jnsgd1na2vs0mg"},{"bike_id":"9c69a506-4a51-4899-bdc8-486ca07b9066","system_id":"levelo_inurba_marseille","lat":43.29929,"lon":5.36558,"is_reserved":false,"is_disabled":false,"rental_uris":{"android":"levelo://app?vid=9c69a506-4a51-4899-bdc8-486ca07b9066","ios":"levelo://app?vid=9c69a506-4a51-4899-bdc8-486ca07b9066"},"vehicle_type_id":"4","last_reported":1747688968,"current_range_meters":17200,"station_id":"ce4bgm92rcd13ifvqbr0","pricing_plan_id":"cebpf4jnsgd1na2vs0mg"},{"bike_id":"42cce372-3d36-4197-a55b-bf6adec344a3","system_id":"levelo_inurba_marseille","lat":43.30259,"lon":5.40058,"is_reserved":false,"is_disabled":false,"rental_uris":{"android":"levelo://app?vid=42cce372-3d36-4197-a55b-bf6adec344a3","ios":"levelo://app?vid=42cce372-3d36-4197-a55b-bf6adec344a3"},"vehicle_type_id":"4","last_reported":1747688968,"current_range_meters":17200,"station_id":"ce4bgvh2rcd13ifvqcs0","pricing_plan_id":"cebpf4jnsgd1na2vs0mg"},{"bike_id":"71817c77-e9f1-483d-89c1-16ca77de3122","system_id":"levelo_inurba_marseille","lat":43.250888,"lon":5.395202,"is_reserved":false,"is_disabled":false,"rental_uris":{"android":"levelo://app?vid=71817c77-e9f1-483d-89c1-16ca77de3122","ios":"levelo://app?vid=71817c77-e9f1-483d-89c1-16ca77de3122"},"vehicle_type_id":"4","last_reported":1747688968,"current_range_meters":17200,"station_id":"ce4bhm12rcd13ifvqgkg","pricing_plan_id":"cebpf4jnsgd1na2vs0mg"},{"bike_id":"9ada3d5b-978b-4ec2-9070-d6f67a311b0d","system_id":"levelo_inurba_marseille","lat":43.292527,"lon":5.376153,"is_reserved":false,"is_disabled":false,"rental_uris":{"android":"levelo://app?vid=9ada3d5b-978b-4ec2-9070-d6f67a311b0d","ios":"levelo://app?vid=9ada3d5b-978b-4ec2-9070-d6f67a311b0d"},"vehicle_type_id":"4","last_reported":1747688968,"current_range_meters":17600,"station_id":"ce4bgi12rcd13ifvqb80","pricing_plan_id":"cebpf4jnsgd1na2vs0mg"},{"bike_id":"b0433ccc-6563-455c-a28b-040334faf9ec","system_id":"levelo_inurba_marseille","lat":43.28945,"lon":5.3839,"is_reserved":false,"is_disabled":false,"rental_uris":{"android":"levelo://app?vid=b0433ccc-6563-455c-a28b-040334faf9ec","ios":"levelo://app?vid=b0433ccc-6563-455c-a28b-040334faf9ec"},"vehicle_type_id":"4","last_reported":1747688968,"current_range_meters":17600,"station_id":"ce4bh612rcd13ifvqe6g","pricing_plan_id":"cebpf4jnsgd1na2vs0mg"},{"bike_id":"d99c8fdf-296b-4eb9-9722-96ce624745b4","system_id":"levelo_inurba_marseille","lat":43.28684,"lon":5.36336,"is_reserved":false,"is_disabled":false,"rental_uris":{"android":"levelo://app?vid=d99c8fdf-296b-4eb9-9722-96ce624745b4","ios":"levelo://app?vid=d99c8fdf-296b-4eb9-9722-96ce624745b4"},"vehicle_type_id":"4","last_reported":1747688968,"current_range_meters":17600,"station_id":"ce4bhah2rcd13ifvqej0","pricing_plan_id":"cebpf4jnsgd1na2vs0mg"},{"bike_id":"e1d57822-ecc8-4c43-b3f2-6f5adecafb55","system_id":"levelo_inurba_marseille","lat":43.250849,"lon":5.395191,"is_reserved":false,"is_disabled":false,"rental_uris":{"android":"levelo://app?vid=e1d57822-ecc8-4c43-b3f2-6f5adecafb55","ios":"levelo://app?vid=e1d57822-ecc8-4c43-b3f2-6f5adecafb55"},"vehicle_type_id":"4","last_reported":1747688968,"current_range_meters":17600,"station_id":"ce4bhm12rcd13ifvqgkg","pricing_plan_id":"cebpf4jnsgd1na2vs0mg"},{"bike_id":"dc80936a-51b4-4ef9-b71e-e259b58f2ac3","system_id":"levelo_inurba_marseille","lat":43.23185,"lon":5.399853,"is_reserved":false,"is_disabled":false,"rental_uris":{"android":"levelo://app?vid=dc80936a-51b4-4ef9-b71e-e259b58f2ac3","ios":"levelo://app?vid=dc80936a-51b4-4ef9-b71e-e259b58f2ac3"},"vehicle_type_id":"4","last_reported":1747688968,"current_range_meters":17600,"station_id":"ce4bhn12rcd13ifvqgqg","pricing_plan_id":"cebpf4jnsgd1na2vs0mg"},{"bike_id":"81a475cb-99c7-4d36-a670-3f659ab10961","system_id":"levelo_inurba_marseille","lat":43.27998,"lon":5.41657,"is_reserved":false,"is_disabled":false,"rental_uris":{"android":"levelo://app?vid=81a475cb-99c7-4d36-a670-3f659ab10961","ios":"levelo://app?vid=81a475cb-99c7-4d36-a670-3f659ab10961"},"vehicle_type_id":"4","last_reported":1747688968,"current_range_meters":17600,"station_id":"ce4bho12rcd13ifvqh1g","pricing_plan_id":"cebpf4jnsgd1na2vs0mg"},{"bike_id":"bfadeaec-216b-47d1-99b4-74d81f9ee763","system_id":"levelo_inurba_marseille","lat":43.32127,"lon":5.36793,"is_reserved":false,"is_disabled":false,"rental_uris":{"android":"levelo://app?vid=bfadeaec-216b-47d1-99b4-74d81f9ee763","ios":"levelo://app?vid=bfadeaec-216b-47d1-99b4-74d81f9ee763"},"vehicle_type_id":"4","last_reported":1747688968,"current_range_meters":17600,"station_id":"ce4bhrh2rcd13ifvqhug","pricing_plan_id":"cebpf4jnsgd1na2vs0mg"},{"bike_id":"ec2e7cdc-5a49-4257-b205-f17da4cbfbe8","system_id":"levelo_inurba_marseille","lat":43.287239,"lon":5.360828,"is_reserved":false,"is_disabled":false,"rental_uris":{"android":"levelo://app?vid=ec2e7cdc-5a49-4257-b205-f17da4cbfbe8","ios":"levelo://app?vid=ec2e7cdc-5a49-4257-b205-f17da4cbfbe8"},"vehicle_type_id":"4","last_reported":1747688968,"current_range_meters":17600,"station_id":"cki0cbj6b192h4jlfktg","pricing_plan_id":"cebpf4jnsgd1na2vs0mg"},{"bike_id":"622c888e-dc31-4960-99cf-799087a1cf2a","system_id":"levelo_inurba_marseille","lat":43.30823,"lon":5.38186,"is_reserved":false,"is_disabled":false,"rental_uris":{"android":"levelo://app?vid=622c888e-dc31-4960-99cf-799087a1cf2a","ios":"levelo://app?vid=622c888e-dc31-4960-99cf-799087a1cf2a"},"vehicle_type_id":"4","last_reported":1747688968,"current_range_meters":18000,"station_id":"ce4bgt12rcd13ifvqce0","pricing_plan_id":"cebpf4jnsgd1na2vs0mg"},{"bike_id":"9b2aa40e-57c3-4408-94ac-4c591bc4a178","system_id":"levelo_inurba_marseille","lat":43.294418,"lon":5.39748,"is_reserved":false,"is_disabled":false,"rental_uris":{"android":"levelo://app?vid=9b2aa40e-57c3-4408-94ac-4c591bc4a178","ios":"levelo://app?vid=9b2aa40e-57c3-4408-94ac-4c591bc4a178"},"vehicle_type_id":"4","last_reported":1747688968,"current_range_meters":18000,"station_id":"ce4bh3h2rcd13ifvqdo0","pricing_plan_id":"cebpf4jnsgd1na2vs0mg"},{"bike_id":"5a71c523-9a52-42df-b3b8-fc2acca84df9","system_id":"levelo_inurba_marseille","lat":43.29019,"lon":5.38631,"is_reserved":false,"is_disabled":false,"rental_uris":{"android":"levelo://app?vid=5a71c523-9a52-42df-b3b8-fc2acca84df9","ios":"levelo://app?vid=5a71c523-9a52-42df-b3b8-fc2acca84df9"},"vehicle_type_id":"4","last_reported":1747688968,"current_range_meters":18000,"station_id":"ce4bh4p2rcd13ifvqe0g","pricing_plan_id":"cebpf4jnsgd1na2vs0mg"},{"bike_id":"094332af-7863-4c9b-b973-ff23daa8d0b7","system_id":"levelo_inurba_marseille","lat":43.24659,"lon":5.38158,"is_reserved":false,"is_disabled":false,"rental_uris":{"android":"levelo://app?vid=094332af-7863-4c9b-b973-ff23daa8d0b7","ios":"levelo://app?vid=094332af-7863-4c9b-b973-ff23daa8d0b7"},"vehicle_type_id":"4","last_reported":1747688968,"current_range_meters":18000,"station_id":"ce4bhih2rcd13ifvqfr0","pricing_plan_id":"cebpf4jnsgd1na2vs0mg"},{"bike_id":"09d6ba82-f698-49a9-8e0d-85a4008ad1f8","system_id":"levelo_inurba_marseille","lat":43.31185,"lon":5.38706,"is_reserved":false,"is_disabled":false,"rental_uris":{"android":"levelo://app?vid=09d6ba82-f698-49a9-8e0d-85a4008ad1f8","ios":"levelo://app?vid=09d6ba82-f698-49a9-8e0d-85a4008ad1f8"},"vehicle_type_id":"4","last_reported":1747688968,"current_range_meters":18800,"station_id":"ce4bgv12rcd13ifvqcp0","pricing_plan_id":"cebpf4jnsgd1na2vs0mg"},{"bike_id":"34d81c1f-7653-4d53-aefe-23d08a3e7111","system_id":"levelo_inurba_marseille","lat":43.269608,"lon":5.386203,"is_reserved":false,"is_disabled":false,"rental_uris":{"android":"levelo://app?vid=34d81c1f-7653-4d53-aefe-23d08a3e7111","ios":"levelo://app?vid=34d81c1f-7653-4d53-aefe-23d08a3e7111"},"vehicle_type_id":"4","last_reported":1747688968,"current_range_meters":18800,"station_id":"ce4bhh92rcd13ifvqfh0","pricing_plan_id":"cebpf4jnsgd1na2vs0mg"},{"bike_id":"44963d7e-9b04-43e5-bed6-2ad1e121fdd1","system_id":"levelo_inurba_marseille","lat":43.28154,"lon":5.42643,"is_reserved":false,"is_disabled":false,"rental_uris":{"android":"levelo://app?vid=44963d7e-9b04-43e5-bed6-2ad1e121fdd1","ios":"levelo://app?vid=44963d7e-9b04-43e5-bed6-2ad1e121fdd1"},"vehicle_type_id":"4","last_reported":1747688968,"current_range_meters":18800,"station_id":"ce4bhnh2rcd13ifvqgug","pricing_plan_id":"cebpf4jnsgd1na2vs0mg"},{"bike_id":"f5672829-a6cc-4d05-b6c5-cae30a27ded1","system_id":"levelo_inurba_marseille","lat":43.324805,"lon":5.365715,"is_reserved":false,"is_disabled":false,"rental_uris":{"android":"levelo://app?vid=f5672829-a6cc-4d05-b6c5-cae30a27ded1","ios":"levelo://app?vid=f5672829-a6cc-4d05-b6c5-cae30a27ded1"},"vehicle_type_id":"4","last_reported":1747688968,"current_range_meters":18800,"station_id":"ce4bhs12rcd13ifvqhvg","pricing_plan_id":"cebpf4jnsgd1na2vs0mg"},{"bike_id":"e85a7873-7cb5-47d1-a562-7bdf9571449b","system_id":"levelo_inurba_marseille","lat":43.315756,"lon":5.403807,"is_reserved":false,"is_disabled":false,"rental_uris":{"android":"levelo://app?vid=e85a7873-7cb5-47d1-a562-7bdf9571449b","ios":"levelo://app?vid=e85a7873-7cb5-47d1-a562-7bdf9571449b"},"vehicle_type_id":"4","last_reported":1747688968,"current_range_meters":19200,"station_id":"","pricing_plan_id":"cebpf4jnsgd1na2vs0mg"},{"bike_id":"f506e82a-1e91-4b17-8418-e0cfc83dc245","system_id":"levelo_inurba_marseille","lat":43.318258,"lon":5.372384,"is_reserved":false,"is_disabled":false,"rental_uris":{"android":"levelo://app?vid=f506e82a-1e91-4b17-8418-e0cfc83dc245","ios":"levelo://app?vid=f506e82a-1e91-4b17-8418-e0cfc83dc245"},"vehicle_type_id":"4","last_reported":1747688968,"current_range_meters":19200,"station_id":"","pricing_plan_id":"cebpf4jnsgd1na2vs0mg"},{"bike_id":"b3e03a34-e413-4bfc-b613-3afdc98e74b8","system_id":"levelo_inurba_marseille","lat":43.31329,"lon":5.39687,"is_reserved":false,"is_disabled":false,"rental_uris":{"android":"levelo://app?vid=b3e03a34-e413-4bfc-b613-3afdc98e74b8","ios":"levelo://app?vid=b3e03a34-e413-4bfc-b613-3afdc98e74b8"},"vehicle_type_id":"4","last_reported":1747688968,"current_range_meters":19200,"station_id":"ce4bgvp2rcd13ifvqcu0","pricing_plan_id":"cebpf4jnsgd1na2vs0mg"},{"bike_id":"09d7a4d4-17d7-47a6-bb6b-5afb4119e4d9","system_id":"levelo_inurba_marseille","lat":43.295307,"lon":5.3941,"is_reserved":false,"is_disabled":false,"rental_uris":{"android":"levelo://app?vid=09d7a4d4-17d7-47a6-bb6b-5afb4119e4d9","ios":"levelo://app?vid=09d7a4d4-17d7-47a6-bb6b-5afb4119e4d9"},"vehicle_type_id":"4","last_reported":1747688968,"current_range_meters":19200,"station_id":"ce4bh292rcd13ifvqdf0","pricing_plan_id":"cebpf4jnsgd1na2vs0mg"},{"bike_id":"70e0567a-1091-48b5-9d11-86e921d1634e","system_id":"levelo_inurba_marseille","lat":43.28702,"lon":5.37394,"is_reserved":false,"is_disabled":false,"rental_uris":{"android":"levelo://app?vid=70e0567a-1091-48b5-9d11-86e921d1634e","ios":"levelo://app?vid=70e0567a-1091-48b5-9d11-86e921d1634e"},"vehicle_type_id":"4","last_reported":1747688968,"current_range_meters":19200,"station_id":"ce4bh3p2rcd13ifvqdq0","pricing_plan_id":"cebpf4jnsgd1na2vs0mg"},{"bike_id":"697a9b19-19cf-408f-a646-3bcdb4d31625","system_id":"levelo_inurba_marseille","lat":43.24659,"lon":5.38158,"is_reserved":false,"is_disabled":false,"rental_uris":{"android":"levelo://app?vid=697a9b19-19cf-408f-a646-3bcdb4d31625","ios":"levelo://app?vid=697a9b19-19cf-408f-a646-3bcdb4d31625"},"vehicle_type_id":"4","last_reported":1747688968,"current_range_meters":19200,"station_id":"ce4bhih2rcd13ifvqfr0","pricing_plan_id":"cebpf4jnsgd1na2vs0mg"},{"bike_id":"3a78ca34-3310-4ba2-bd48-75f23e091e71","system_id":"levelo_inurba_marseille","lat":43.29794,"lon":5.39336,"is_reserved":false,"is_disabled":false,"rental_uris":{"android":"levelo://app?vid=3a78ca34-3310-4ba2-bd48-75f23e091e71","ios":"levelo://app?vid=3a78ca34-3310-4ba2-bd48-75f23e091e71"},"vehicle_type_id":"4","last_reported":1747688968,"current_range_meters":19200,"station_id":"chh1huq6cuj3fo74tm60","pricing_plan_id":"cebpf4jnsgd1na2vs0mg"},{"bike_id":"5765434c-77b5-41b5-8b14-b978e4d6dd10","system_id":"levelo_inurba_marseille","lat":43.21212,"lon":5.35094,"is_reserved":false,"is_disabled":false,"rental_uris":{"android":"levelo://app?vid=5765434c-77b5-41b5-8b14-b978e4d6dd10","ios":"levelo://app?vid=5765434c-77b5-41b5-8b14-b978e4d6dd10"},"vehicle_type_id":"4","last_reported":1747688968,"current_range_meters":19200,"station_id":"st_cvj6sg6p6f1abm77japg","pricing_plan_id":"cebpf4jnsgd1na2vs0mg"},{"bike_id":"d5a5283e-b31d-4ae6-8df2-1e054004ff17","system_id":"levelo_inurba_marseille","lat":43.31377,"lon":5.38504,"is_reserved":false,"is_disabled":false,"rental_uris":{"android":"levelo://app?vid=d5a5283e-b31d-4ae6-8df2-1e054004ff17","ios":"levelo://app?vid=d5a5283e-b31d-4ae6-8df2-1e054004ff17"},"vehicle_type_id":"4","last_reported":1747688968,"current_range_meters":19600,"station_id":"ce4bgt92rcd13ifvqcf0","pricing_plan_id":"cebpf4jnsgd1na2vs0mg"},{"bike_id":"9b956e8b-c5e7-4b71-a4c7-872fdf31431e","system_id":"levelo_inurba_marseille","lat":43.29572,"lon":5.39983,"is_reserved":false,"is_disabled":false,"rental_uris":{"android":"levelo://app?vid=9b956e8b-c5e7-4b71-a4c7-872fdf31431e","ios":"levelo://app?vid=9b956e8b-c5e7-4b71-a4c7-872fdf31431e"},"vehicle_type_id":"4","last_reported":1747688968,"current_range_meters":19600,"station_id":"ce4bh312rcd13ifvqdj0","pricing_plan_id":"cebpf4jnsgd1na2vs0mg"},{"bike_id":"0fff9fb1-fc84-48c6-8ab5-8a9c77b239b4","system_id":"levelo_inurba_marseille","lat":43.251191,"lon":5.403161,"is_reserved":false,"is_disabled":false,"rental_uris":{"android":"levelo://app?vid=0fff9fb1-fc84-48c6-8ab5-8a9c77b239b4","ios":"levelo://app?vid=0fff9fb1-fc84-48c6-8ab5-8a9c77b239b4"},"vehicle_type_id":"4","last_reported":1747688968,"current_range_meters":19600,"station_id":"ce4bhlh2rcd13ifvqgig","pricing_plan_id":"cebpf4jnsgd1na2vs0mg"},{"bike_id":"a253706b-1cb9-4ca4-9560-173eeb92ac1f","system_id":"levelo_inurba_marseille","lat":43.308166,"lon":5.435232,"is_reserved":false,"is_disabled":false,"rental_uris":{"android":"levelo://app?vid=a253706b-1cb9-4ca4-9560-173eeb92ac1f","ios":"levelo://app?vid=a253706b-1cb9-4ca4-9560-173eeb92ac1f"},"vehicle_type_id":"4","last_reported":1747688968,"current_range_meters":19600,"station_id":"ce4bhph2rcd13ifvqheg","pricing_plan_id":"cebpf4jnsgd1na2vs0mg"},{"bike_id":"d22b0fd0-78a6-46fc-aad8-ce2ca2a629e3","system_id":"levelo_inurba_marseille","lat":43.211916,"lon":5.350748,"is_reserved":false,"is_disabled":false,"rental_uris":{"android":"levelo://app?vid=d22b0fd0-78a6-46fc-aad8-ce2ca2a629e3","ios":"levelo://app?vid=d22b0fd0-78a6-46fc-aad8-ce2ca2a629e3"},"vehicle_type_id":"4","last_reported":1747688968,"current_range_meters":19600,"station_id":"st_cvj6sg6p6f1abm77japg","pricing_plan_id":"cebpf4jnsgd1na2vs0mg"},{"bike_id":"a7e8035b-e08a-4b29-8422-d94596c65bcf","system_id":"levelo_inurba_marseille","lat":43.29033,"lon":5.39973,"is_reserved":false,"is_disabled":false,"rental_uris":{"android":"levelo://app?vid=a7e8035b-e08a-4b29-8422-d94596c65bcf","ios":"levelo://app?vid=a7e8035b-e08a-4b29-8422-d94596c65bcf"},"vehicle_type_id":"4","last_reported":1747688968,"current_range_meters":20000,"station_id":"ce4bh392rcd13ifvqdm0","pricing_plan_id":"cebpf4jnsgd1na2vs0mg"},{"bike_id":"871cf541-eae3-4f6c-9b18-98a5cdcfdec7","system_id":"levelo_inurba_marseille","lat":43.28412,"lon":5.37522,"is_reserved":false,"is_disabled":false,"rental_uris":{"android":"levelo://app?vid=871cf541-eae3-4f6c-9b18-98a5cdcfdec7","ios":"levelo://app?vid=871cf541-eae3-4f6c-9b18-98a5cdcfdec7"},"vehicle_type_id":"4","last_reported":1747688968,"current_range_meters":20000,"station_id":"ce4bh412rcd13ifvqds0","pricing_plan_id":"cebpf4jnsgd1na2vs0mg"},{"bike_id":"b7ce7f8b-ba36-4e4d-a12a-d89ce35110f0","system_id":"levelo_inurba_marseille","lat":43.243856,"lon":5.370452,"is_reserved":false,"is_disabled":false,"rental_uris":{"android":"levelo://app?vid=b7ce7f8b-ba36-4e4d-a12a-d89ce35110f0","ios":"levelo://app?vid=b7ce7f8b-ba36-4e4d-a12a-d89ce35110f0"},"vehicle_type_id":"4","last_reported":1747688968,"current_range_meters":20000,"station_id":"ce4bhhh2rcd13ifvqfk0","pricing_plan_id":"cebpf4jnsgd1na2vs0mg"},{"bike_id":"68e906d4-5998-4663-9231-b6ea8d4a8411","system_id":"levelo_inurba_marseille","lat":43.2621,"lon":5.37926,"is_reserved":false,"is_disabled":false,"rental_uris":{"android":"levelo://app?vid=68e906d4-5998-4663-9231-b6ea8d4a8411","ios":"levelo://app?vid=68e906d4-5998-4663-9231-b6ea8d4a8411"},"vehicle_type_id":"4","last_reported":1747688968,"current_range_meters":20000,"station_id":"ce4bhjp2rcd13ifvqg90","pricing_plan_id":"cebpf4jnsgd1na2vs0mg"},{"bike_id":"b8555ffa-0ae4-4721-9ab6-b93e4ef78d17","system_id":"levelo_inurba_marseille","lat":43.26228,"lon":5.40449,"is_reserved":false,"is_disabled":false,"rental_uris":{"android":"levelo://app?vid=b8555ffa-0ae4-4721-9ab6-b93e4ef78d17","ios":"levelo://app?vid=b8555ffa-0ae4-4721-9ab6-b93e4ef78d17"},"vehicle_type_id":"4","last_reported":1747688968,"current_range_meters":20000,"station_id":"ce4bhmh2rcd13ifvqgmg","pricing_plan_id":"cebpf4jnsgd1na2vs0mg"},{"bike_id":"24dc12dd-e0a1-4ccc-b473-486d35ddca69","system_id":"levelo_inurba_marseille","lat":43.31716,"lon":5.437165,"is_reserved":false,"is_disabled":false,"rental_uris":{"android":"levelo://app?vid=24dc12dd-e0a1-4ccc-b473-486d35ddca69","ios":"levelo://app?vid=24dc12dd-e0a1-4ccc-b473-486d35ddca69"},"vehicle_type_id":"4","last_reported":1747688968,"current_range_meters":20000,"station_id":"ce4bhp92rcd13ifvqhcg","pricing_plan_id":"cebpf4jnsgd1na2vs0mg"},{"bike_id":"c98a962e-2203-4bea-955c-cc9f13c85d91","system_id":"levelo_inurba_marseille","lat":43.31355,"lon":5.38499,"is_reserved":false,"is_disabled":false,"rental_uris":{"android":"levelo://app?vid=c98a962e-2203-4bea-955c-cc9f13c85d91","ios":"levelo://app?vid=c98a962e-2203-4bea-955c-cc9f13c85d91"},"vehicle_type_id":"4","last_reported":1747688968,"current_range_meters":20400,"station_id":"ce4bgt92rcd13ifvqcf0","pricing_plan_id":"cebpf4jnsgd1na2vs0mg"},{"bike_id":"d9aaf1a2-4106-41f1-bdb5-227fd13f0c43","system_id":"levelo_inurba_marseille","lat":43.31106,"lon":5.37769,"is_reserved":false,"is_disabled":false,"rental_uris":{"android":"levelo://app?vid=d9aaf1a2-4106-41f1-bdb5-227fd13f0c43","ios":"levelo://app?vid=d9aaf1a2-4106-41f1-bdb5-227fd13f0c43"},"vehicle_type_id":"4","last_reported":1747688968,"current_range_meters":20400,"station_id":"ce4bgt92rcd13ifvqcg0","pricing_plan_id":"cebpf4jnsgd1na2vs0mg"},{"bike_id":"601218b6-13d1-4278-bbe9-affcbb5962f7","system_id":"levelo_inurba_marseille","lat":43.30788,"lon":5.37653,"is_reserved":false,"is_disabled":false,"rental_uris":{"android":"levelo://app?vid=601218b6-13d1-4278-bbe9-affcbb5962f7","ios":"levelo://app?vid=601218b6-13d1-4278-bbe9-affcbb5962f7"},"vehicle_type_id":"4","last_reported":1747688968,"current_range_meters":20400,"station_id":"ce4bgv92rcd13ifvqcq0","pricing_plan_id":"cebpf4jnsgd1na2vs0mg"},{"bike_id":"869cfffe-2f4a-4c85-8893-bc8d2c15d749","system_id":"levelo_inurba_marseille","lat":43.2926,"lon":5.40902,"is_reserved":false,"is_disabled":false,"rental_uris":{"android":"levelo://app?vid=869cfffe-2f4a-4c85-8893-bc8d2c15d749","ios":"levelo://app?vid=869cfffe-2f4a-4c85-8893-bc8d2c15d749"},"vehicle_type_id":"4","last_reported":1747688968,"current_range_meters":20400,"station_id":"ce4bh192rcd13ifvqdc0","pricing_plan_id":"cebpf4jnsgd1na2vs0mg"},{"bike_id":"2da74e1b-9f8c-4ef1-85f5-dd4b92041c74","system_id":"levelo_inurba_marseille","lat":43.28701,"lon":5.3739,"is_reserved":false,"is_disabled":false,"rental_uris":{"android":"levelo://app?vid=2da74e1b-9f8c-4ef1-85f5-dd4b92041c74","ios":"levelo://app?vid=2da74e1b-9f8c-4ef1-85f5-dd4b92041c74"},"vehicle_type_id":"4","last_reported":1747688968,"current_range_meters":20400,"station_id":"ce4bh3p2rcd13ifvqdq0","pricing_plan_id":"cebpf4jnsgd1na2vs0mg"},{"bike_id":"a3481c5a-d345-4a3b-a42a-9252438b88ad","system_id":"levelo_inurba_marseille","lat":43.28463,"lon":5.35879,"is_reserved":false,"is_disabled":false,"rental_uris":{"android":"levelo://app?vid=a3481c5a-d345-4a3b-a42a-9252438b88ad","ios":"levelo://app?vid=a3481c5a-d345-4a3b-a42a-9252438b88ad"},"vehicle_type_id":"4","last_reported":1747688968,"current_range_meters":20400,"station_id":"ce4bhah2rcd13ifvqei0","pricing_plan_id":"cebpf4jnsgd1na2vs0mg"},{"bike_id":"2cea2f52-43a7-4798-bbcc-fd510158a561","system_id":"levelo_inurba_marseille","lat":43.27173,"lon":5.40995,"is_reserved":false,"is_disabled":false,"rental_uris":{"android":"levelo://app?vid=2cea2f52-43a7-4798-bbcc-fd510158a561","ios":"levelo://app?vid=2cea2f52-43a7-4798-bbcc-fd510158a561"},"vehicle_type_id":"4","last_reported":1747688968,"current_range_meters":20400,"station_id":"ce4bhl12rcd13ifvqgf0","pricing_plan_id":"cebpf4jnsgd1na2vs0mg"},{"bike_id":"3e90b5a3-cc90-4e07-92d6-fd1e339027d5","system_id":"levelo_inurba_marseille","lat":43.262229,"lon":5.404537,"is_reserved":false,"is_disabled":false,"rental_uris":{"android":"levelo://app?vid=3e90b5a3-cc90-4e07-92d6-fd1e339027d5","ios":"levelo://app?vid=3e90b5a3-cc90-4e07-92d6-fd1e339027d5"},"vehicle_type_id":"4","last_reported":1747688968,"current_range_meters":20400,"station_id":"ce4bhmh2rcd13ifvqgmg","pricing_plan_id":"cebpf4jnsgd1na2vs0mg"},{"bike_id":"c0f862bf-aa51-4ca0-a8aa-ec4fbd6d9082","system_id":"levelo_inurba_marseille","lat":43.30417,"lon":5.41299,"is_reserved":false,"is_disabled":false,"rental_uris":{"android":"levelo://app?vid=c0f862bf-aa51-4ca0-a8aa-ec4fbd6d9082","ios":"levelo://app?vid=c0f862bf-aa51-4ca0-a8aa-ec4fbd6d9082"},"vehicle_type_id":"4","last_reported":1747688968,"current_range_meters":20400,"station_id":"ce4bhop2rcd13ifvqh8g","pricing_plan_id":"cebpf4jnsgd1na2vs0mg"},{"bike_id":"962770eb-6c72-4260-b41e-3f62f809e71c","system_id":"levelo_inurba_marseille","lat":43.313266,"lon":5.396939,"is_reserved":false,"is_disabled":false,"rental_uris":{"android":"levelo://app?vid=962770eb-6c72-4260-b41e-3f62f809e71c","ios":"levelo://app?vid=962770eb-6c72-4260-b41e-3f62f809e71c"},"vehicle_type_id":"4","last_reported":1747688968,"current_range_meters":20800,"station_id":"ce4bgvp2rcd13ifvqcu0","pricing_plan_id":"cebpf4jnsgd1na2vs0mg"},{"bike_id":"88092a5f-6797-40bf-8e4d-17450765a42b","system_id":"levelo_inurba_marseille","lat":43.29529,"lon":5.394,"is_reserved":false,"is_disabled":false,"rental_uris":{"android":"levelo://app?vid=88092a5f-6797-40bf-8e4d-17450765a42b","ios":"levelo://app?vid=88092a5f-6797-40bf-8e4d-17450765a42b"},"vehicle_type_id":"4","last_reported":1747688968,"current_range_meters":20800,"station_id":"ce4bh292rcd13ifvqdf0","pricing_plan_id":"cebpf4jnsgd1na2vs0mg"},{"bike_id":"c40b2fd9-f981-40cf-89f2-80a57a8a7189","system_id":"levelo_inurba_marseille","lat":43.279944,"lon":5.416637,"is_reserved":false,"is_disabled":false,"rental_uris":{"android":"levelo://app?vid=c40b2fd9-f981-40cf-89f2-80a57a8a7189","ios":"levelo://app?vid=c40b2fd9-f981-40cf-89f2-80a57a8a7189"},"vehicle_type_id":"4","last_reported":1747688968,"current_range_meters":20800,"station_id":"ce4bho12rcd13ifvqh1g","pricing_plan_id":"cebpf4jnsgd1na2vs0mg"},{"bike_id":"62492bf8-a449-403b-ba6b-49ecb5e9d52e","system_id":"levelo_inurba_marseille","lat":43.284433,"lon":5.391973,"is_reserved":false,"is_disabled":false,"rental_uris":{"android":"levelo://app?vid=62492bf8-a449-403b-ba6b-49ecb5e9d52e","ios":"levelo://app?vid=62492bf8-a449-403b-ba6b-49ecb5e9d52e"},"vehicle_type_id":"4","last_reported":1747688968,"current_range_meters":20800,"station_id":"ce4bhoh2rcd13ifvqh5g","pricing_plan_id":"cebpf4jnsgd1na2vs0mg"},{"bike_id":"1374b0f9-0dfe-41fa-8fd1-563cd3e28ea6","system_id":"levelo_inurba_marseille","lat":43.287337,"lon":5.360771,"is_reserved":false,"is_disabled":false,"rental_uris":{"android":"levelo://app?vid=1374b0f9-0dfe-41fa-8fd1-563cd3e28ea6","ios":"levelo://app?vid=1374b0f9-0dfe-41fa-8fd1-563cd3e28ea6"},"vehicle_type_id":"4","last_reported":1747688968,"current_range_meters":20800,"station_id":"cki0cbj6b192h4jlfktg","pricing_plan_id":"cebpf4jnsgd1na2vs0mg"},{"bike_id":"8da44370-a435-48f7-9bf8-4043a5db973f","system_id":"levelo_inurba_marseille","lat":43.26096,"lon":5.37856,"is_reserved":false,"is_disabled":false,"rental_uris":{"android":"levelo://app?vid=8da44370-a435-48f7-9bf8-4043a5db973f","ios":"levelo://app?vid=8da44370-a435-48f7-9bf8-4043a5db973f"},"vehicle_type_id":"4","last_reported":1747688968,"current_range_meters":21600,"station_id":"","pricing_plan_id":"cebpf4jnsgd1na2vs0mg"},{"bike_id":"4f36f7e8-831d-46d8-a1e5-e8fca4b8fe39","system_id":"levelo_inurba_marseille","lat":43.30602,"lon":5.39338,"is_reserved":false,"is_disabled":false,"rental_uris":{"android":"levelo://app?vid=4f36f7e8-831d-46d8-a1e5-e8fca4b8fe39","ios":"levelo://app?vid=4f36f7e8-831d-46d8-a1e5-e8fca4b8fe39"},"vehicle_type_id":"4","last_reported":1747688968,"current_range_meters":21600,"station_id":"ce4bh0p2rcd13ifvqd80","pricing_plan_id":"cebpf4jnsgd1na2vs0mg"},{"bike_id":"0343b7c1-b9e1-49c9-bf64-b48e8d7971b0","system_id":"levelo_inurba_marseille","lat":43.29565,"lon":5.39961,"is_reserved":false,"is_disabled":false,"rental_uris":{"android":"levelo://app?vid=0343b7c1-b9e1-49c9-bf64-b48e8d7971b0","ios":"levelo://app?vid=0343b7c1-b9e1-49c9-bf64-b48e8d7971b0"},"vehicle_type_id":"4","last_reported":1747688968,"current_range_meters":21600,"station_id":"ce4bh312rcd13ifvqdj0","pricing_plan_id":"cebpf4jnsgd1na2vs0mg"},{"bike_id":"1fea3aa0-bd2e-49a7-a54a-ab620f502330","system_id":"levelo_inurba_marseille","lat":43.29268,"lon":5.40111,"is_reserved":false,"is_disabled":false,"rental_uris":{"android":"levelo://app?vid=1fea3aa0-bd2e-49a7-a54a-ab620f502330","ios":"levelo://app?vid=1fea3aa0-bd2e-49a7-a54a-ab620f502330"},"vehicle_type_id":"4","last_reported":1747688968,"current_range_meters":21600,"station_id":"ce4bh312rcd13ifvqdk0","pricing_plan_id":"cebpf4jnsgd1na2vs0mg"},{"bike_id":"ab56a8b7-f3cd-4704-b565-41a7035f04f5","system_id":"levelo_inurba_marseille","lat":43.29437,"lon":5.39755,"is_reserved":false,"is_disabled":false,"rental_uris":{"android":"levelo://app?vid=ab56a8b7-f3cd-4704-b565-41a7035f04f5","ios":"levelo://app?vid=ab56a8b7-f3cd-4704-b565-41a7035f04f5"},"vehicle_type_id":"4","last_reported":1747688968,"current_range_meters":21600,"station_id":"ce4bh3h2rcd13ifvqdo0","pricing_plan_id":"cebpf4jnsgd1na2vs0mg"},{"bike_id":"2995f5cf-ced2-4f74-a517-d5914e26322d","system_id":"levelo_inurba_marseille","lat":43.287076,"lon":5.373998,"is_reserved":false,"is_disabled":false,"rental_uris":{"android":"levelo://app?vid=2995f5cf-ced2-4f74-a517-d5914e26322d","ios":"levelo://app?vid=2995f5cf-ced2-4f74-a517-d5914e26322d"},"vehicle_type_id":"4","last_reported":1747688968,"current_range_meters":21600,"station_id":"ce4bh3p2rcd13ifvqdq0","pricing_plan_id":"cebpf4jnsgd1na2vs0mg"},{"bike_id":"bd57dd90-1cd4-4e24-a548-fd44a045447c","system_id":"levelo_inurba_marseille","lat":43.29259,"lon":5.38442,"is_reserved":false,"is_disabled":false,"rental_uris":{"android":"levelo://app?vid=bd57dd90-1cd4-4e24-a548-fd44a045447c","ios":"levelo://app?vid=bd57dd90-1cd4-4e24-a548-fd44a045447c"},"vehicle_type_id":"4","last_reported":1747688968,"current_range_meters":21600,"station_id":"ce4bh692rcd13ifvqea0","pricing_plan_id":"cebpf4jnsgd1na2vs0mg"},{"bike_id":"23e03e03-1bdb-46d3-ad4e-9958a18c2ffc","system_id":"levelo_inurba_marseille","lat":43.27814,"lon":5.40716,"is_reserved":false,"is_disabled":false,"rental_uris":{"android":"levelo://app?vid=23e03e03-1bdb-46d3-ad4e-9958a18c2ffc","ios":"levelo://app?vid=23e03e03-1bdb-46d3-ad4e-9958a18c2ffc"},"vehicle_type_id":"4","last_reported":1747688968,"current_range_meters":21600,"station_id":"ce4bhnh2rcd13ifvqgtg","pricing_plan_id":"cebpf4jnsgd1na2vs0mg"},{"bike_id":"7aeca065-a860-4571-adf8-794e168d909c","system_id":"levelo_inurba_marseille","lat":43.33026,"lon":5.4384,"is_reserved":false,"is_disabled":false,"rental_uris":{"android":"levelo://app?vid=7aeca065-a860-4571-adf8-794e168d909c","ios":"levelo://app?vid=7aeca065-a860-4571-adf8-794e168d909c"},"vehicle_type_id":"4","last_reported":1747688968,"current_range_meters":22000,"station_id":"","pricing_plan_id":"cebpf4jnsgd1na2vs0mg"},{"bike_id":"e31833c9-3629-4b2f-810c-c09df0eb266c","system_id":"levelo_inurba_marseille","lat":43.33751,"lon":5.37509,"is_reserved":false,"is_disabled":false,"rental_uris":{"android":"levelo://app?vid=e31833c9-3629-4b2f-810c-c09df0eb266c","ios":"levelo://app?vid=e31833c9-3629-4b2f-810c-c09df0eb266c"},"vehicle_type_id":"4","last_reported":1747688968,"current_range_meters":22000,"station_id":"","pricing_plan_id":"cebpf4jnsgd1na2vs0mg"},{"bike_id":"53291868-9a47-43e0-921f-eb433569a23d","system_id":"levelo_inurba_marseille","lat":43.3093,"lon":5.40159,"is_reserved":false,"is_disabled":false,"rental_uris":{"android":"levelo://app?vid=53291868-9a47-43e0-921f-eb433569a23d","ios":"levelo://app?vid=53291868-9a47-43e0-921f-eb433569a23d"},"vehicle_type_id":"4","last_reported":1747688968,"current_range_meters":22000,"station_id":"ce4bgvp2rcd13ifvqct0","pricing_plan_id":"cebpf4jnsgd1na2vs0mg"},{"bike_id":"a42e957d-9b1e-4a1f-b33d-e24f8341a7c6","system_id":"levelo_inurba_marseille","lat":43.288511,"lon":5.393154,"is_reserved":false,"is_disabled":false,"rental_uris":{"android":"levelo://app?vid=a42e957d-9b1e-4a1f-b33d-e24f8341a7c6","ios":"levelo://app?vid=a42e957d-9b1e-4a1f-b33d-e24f8341a7c6"},"vehicle_type_id":"4","last_reported":1747688968,"current_range_meters":22000,"station_id":"ce4bh2p2rcd13ifvqdi0","pricing_plan_id":"cebpf4jnsgd1na2vs0mg"},{"bike_id":"8a529e16-c377-4b71-96b9-a2dd1f8ac810","system_id":"levelo_inurba_marseille","lat":43.28841,"lon":5.393267,"is_reserved":false,"is_disabled":false,"rental_uris":{"android":"levelo://app?vid=8a529e16-c377-4b71-96b9-a2dd1f8ac810","ios":"levelo://app?vid=8a529e16-c377-4b71-96b9-a2dd1f8ac810"},"vehicle_type_id":"4","last_reported":1747688968,"current_range_meters":22000,"station_id":"ce4bh2p2rcd13ifvqdi0","pricing_plan_id":"cebpf4jnsgd1na2vs0mg"},{"bike_id":"c52f169f-60f3-4f23-aba1-2578c1dfb918","system_id":"levelo_inurba_marseille","lat":43.28026,"lon":5.369539,"is_reserved":false,"is_disabled":false,"rental_uris":{"android":"levelo://app?vid=c52f169f-60f3-4f23-aba1-2578c1dfb918","ios":"levelo://app?vid=c52f169f-60f3-4f23-aba1-2578c1dfb918"},"vehicle_type_id":"4","last_reported":1747688968,"current_range_meters":22000,"station_id":"ce4bha12rcd13ifvqef0","pricing_plan_id":"cebpf4jnsgd1na2vs0mg"},{"bike_id":"2d1823b1-8990-4f7d-8888-6647d6f4e1ac","system_id":"levelo_inurba_marseille","lat":43.29053,"lon":5.3592,"is_reserved":false,"is_disabled":false,"rental_uris":{"android":"levelo://app?vid=2d1823b1-8990-4f7d-8888-6647d6f4e1ac","ios":"levelo://app?vid=2d1823b1-8990-4f7d-8888-6647d6f4e1ac"},"vehicle_type_id":"4","last_reported":1747688968,"current_range_meters":22000,"station_id":"ce4bha92rcd13ifvqeg0","pricing_plan_id":"cebpf4jnsgd1na2vs0mg"},{"bike_id":"2c3ad9d4-c776-4675-a482-67f56f57093d","system_id":"levelo_inurba_marseille","lat":43.25105,"lon":5.40307,"is_reserved":false,"is_disabled":false,"rental_uris":{"android":"levelo://app?vid=2c3ad9d4-c776-4675-a482-67f56f57093d","ios":"levelo://app?vid=2c3ad9d4-c776-4675-a482-67f56f57093d"},"vehicle_type_id":"4","last_reported":1747688968,"current_range_meters":22000,"station_id":"ce4bhlh2rcd13ifvqgig","pricing_plan_id":"cebpf4jnsgd1na2vs0mg"},{"bike_id":"4c713ccc-15e2-44ac-b267-3e746d05583b","system_id":"levelo_inurba_marseille","lat":43.31758,"lon":5.3728,"is_reserved":false,"is_disabled":false,"rental_uris":{"android":"levelo://app?vid=4c713ccc-15e2-44ac-b267-3e746d05583b","ios":"levelo://app?vid=4c713ccc-15e2-44ac-b267-3e746d05583b"},"vehicle_type_id":"4","last_reported":1747688968,"current_range_meters":22400,"station_id":"","pricing_plan_id":"cebpf4jnsgd1na2vs0mg"},{"bike_id":"b688f35d-4fd6-4103-8b6f-20a7a9a2d470","system_id":"levelo_inurba_marseille","lat":43.3014,"lon":5.38067,"is_reserved":false,"is_disabled":false,"rental_uris":{"android":"levelo://app?vid=b688f35d-4fd6-4103-8b6f-20a7a9a2d470","ios":"levelo://app?vid=b688f35d-4fd6-4103-8b6f-20a7a9a2d470"},"vehicle_type_id":"4","last_reported":1747688968,"current_range_meters":22400,"station_id":"ce4bgjp2rcd13ifvqbh0","pricing_plan_id":"cebpf4jnsgd1na2vs0mg"},{"bike_id":"ad0d235b-fead-4604-a98a-07c6bca64894","system_id":"levelo_inurba_marseille","lat":43.309,"lon":5.39638,"is_reserved":false,"is_disabled":false,"rental_uris":{"android":"levelo://app?vid=ad0d235b-fead-4604-a98a-07c6bca64894","ios":"levelo://app?vid=ad0d235b-fead-4604-a98a-07c6bca64894"},"vehicle_type_id":"4","last_reported":1747688968,"current_range_meters":22400,"station_id":"ce4bh012rcd13ifvqcv0","pricing_plan_id":"cebpf4jnsgd1na2vs0mg"},{"bike_id":"c151098a-1f8d-4fca-8935-14e1aeb32a06","system_id":"levelo_inurba_marseille","lat":43.261094,"lon":5.414626,"is_reserved":false,"is_disabled":false,"rental_uris":{"android":"levelo://app?vid=c151098a-1f8d-4fca-8935-14e1aeb32a06","ios":"levelo://app?vid=c151098a-1f8d-4fca-8935-14e1aeb32a06"},"vehicle_type_id":"4","last_reported":1747688968,"current_range_meters":22800,"station_id":"","pricing_plan_id":"cebpf4jnsgd1na2vs0mg"},{"bike_id":"60c58013-f753-4317-b4b6-ce41ad81cc36","system_id":"levelo_inurba_marseille","lat":43.31234,"lon":5.36866,"is_reserved":false,"is_disabled":false,"rental_uris":{"android":"levelo://app?vid=60c58013-f753-4317-b4b6-ce41ad81cc36","ios":"levelo://app?vid=60c58013-f753-4317-b4b6-ce41ad81cc36"},"vehicle_type_id":"4","last_reported":1747688968,"current_range_meters":22800,"station_id":"ce4bgl92rcd13ifvqbq0","pricing_plan_id":"cebpf4jnsgd1na2vs0mg"},{"bike_id":"475e2f38-2844-4c15-947e-98a85e897d54","system_id":"levelo_inurba_marseille","lat":43.31115,"lon":5.3777,"is_reserved":false,"is_disabled":false,"rental_uris":{"android":"levelo://app?vid=475e2f38-2844-4c15-947e-98a85e897d54","ios":"levelo://app?vid=475e2f38-2844-4c15-947e-98a85e897d54"},"vehicle_type_id":"4","last_reported":1747688968,"current_range_meters":22800,"station_id":"ce4bgt92rcd13ifvqcg0","pricing_plan_id":"cebpf4jnsgd1na2vs0mg"},{"bike_id":"7fc9d16f-9edc-4254-a04c-0541e66329e3","system_id":"levelo_inurba_marseille","lat":43.30952,"lon":5.40191,"is_reserved":false,"is_disabled":false,"rental_uris":{"android":"levelo://app?vid=7fc9d16f-9edc-4254-a04c-0541e66329e3","ios":"levelo://app?vid=7fc9d16f-9edc-4254-a04c-0541e66329e3"},"vehicle_type_id":"4","last_reported":1747688968,"current_range_meters":22800,"station_id":"ce4bgvp2rcd13ifvqct0","pricing_plan_id":"cebpf4jnsgd1na2vs0mg"},{"bike_id":"3e4fab21-5b5c-4ac1-91d7-8021068d9a8d","system_id":"levelo_inurba_marseille","lat":43.30926,"lon":5.40141,"is_reserved":false,"is_disabled":false,"rental_uris":{"android":"levelo://app?vid=3e4fab21-5b5c-4ac1-91d7-8021068d9a8d","ios":"levelo://app?vid=3e4fab21-5b5c-4ac1-91d7-8021068d9a8d"},"vehicle_type_id":"4","last_reported":1747688968,"current_range_meters":22800,"station_id":"ce4bgvp2rcd13ifvqct0","pricing_plan_id":"cebpf4jnsgd1na2vs0mg"},{"bike_id":"e0365c12-26f2-4c19-95c0-2a57075baaf6","system_id":"levelo_inurba_marseille","lat":43.30939,"lon":5.40145,"is_reserved":false,"is_disabled":false,"rental_uris":{"android":"levelo://app?vid=e0365c12-26f2-4c19-95c0-2a57075baaf6","ios":"levelo://app?vid=e0365c12-26f2-4c19-95c0-2a57075baaf6"},"vehicle_type_id":"4","last_reported":1747688968,"current_range_meters":22800,"station_id":"ce4bgvp2rcd13ifvqct0","pricing_plan_id":"cebpf4jnsgd1na2vs0mg"},{"bike_id":"e913026c-84a4-42fd-ab18-aa4aaabec47d","system_id":"levelo_inurba_marseille","lat":43.31341,"lon":5.39693,"is_reserved":false,"is_disabled":false,"rental_uris":{"android":"levelo://app?vid=e913026c-84a4-42fd-ab18-aa4aaabec47d","ios":"levelo://app?vid=e913026c-84a4-42fd-ab18-aa4aaabec47d"},"vehicle_type_id":"4","last_reported":1747688968,"current_range_meters":22800,"station_id":"ce4bgvp2rcd13ifvqcu0","pricing_plan_id":"cebpf4jnsgd1na2vs0mg"},{"bike_id":"7f48ee09-8b46-4756-8f82-7932567a96a9","system_id":"levelo_inurba_marseille","lat":43.285702,"lon":5.39498,"is_reserved":false,"is_disabled":false,"rental_uris":{"android":"levelo://app?vid=7f48ee09-8b46-4756-8f82-7932567a96a9","ios":"levelo://app?vid=7f48ee09-8b46-4756-8f82-7932567a96a9"},"vehicle_type_id":"4","last_reported":1747688968,"current_range_meters":22800,"station_id":"ce4bh292rcd13ifvqdg0","pricing_plan_id":"cebpf4jnsgd1na2vs0mg"},{"bike_id":"c94b2a38-ca1e-406e-b55e-66541b44c934","system_id":"levelo_inurba_marseille","lat":43.248058,"lon":5.374558,"is_reserved":false,"is_disabled":false,"rental_uris":{"android":"levelo://app?vid=c94b2a38-ca1e-406e-b55e-66541b44c934","ios":"levelo://app?vid=c94b2a38-ca1e-406e-b55e-66541b44c934"},"vehicle_type_id":"4","last_reported":1747688968,"current_range_meters":22800,"station_id":"ce4bhgh2rcd13ifvqfb0","pricing_plan_id":"cebpf4jnsgd1na2vs0mg"},