{"last_updated":1743012857,"ttl":60,"version":"2.2","data":{"bikes":[{"bike_id":"49a77b57-0e61-4a5d-bd8d-3f7e3a8cf2fb","system_id":"levelo_inurba_marseille","lat":43.27448,"lon":5.39405,"is_reserved":false,"is_disabled":true,"rental_uris":{"android":"levelo://app?vid=49a77b57-0e61-4a5d-bd8d-3f7e3a8cf2fb","ios":"levelo://app?vid=49a77b57-0e61-4a5d-bd8d-3f7e3a8cf2fb"},"vehicle_type_id":"4","last_reported":1743012857,"current_range_meters":2800,"station_id":"ce4bhdp2rcd13ifvqf20","pricing_plan_id":"cebpf4jnsgd1na2vs0mg"},{"bike_id":"fca2e4c6-9fa5-4905-b01f-a63bca014947","system_id":"levelo_inurba_marseille","lat":43.26787,"lon":5.39416,"is_reserved":false,"is_disabled":false,"rental_uris":{"android":"levelo://app?vid=fca2e4c6-9fa5-4905-b01f-a63bca014947","ios":"levelo://app?vid=fca2e4c6-9fa5-4905-b01f-a63bca014947"},"vehicle_type_id":"4","last_reported":1743012857,"current_range_meters":2800,"station_id":"ce4bhh12rcd13ifvqfg0","pricing_plan_id":"cebpf4jnsgd1na2vs0mg"},{"bike_id":"39045b19-ef4e-4445-9d2c-ca438ed9e414","system_id":"levelo_inurba_marseille","lat":43.26504,"lon":5.39537,"is_reserved":false,"is_disabled":false,"rental_uris":{"android":"levelo://app?vid=39045b19-ef4e-4445-9d2c-ca438ed9e414","ios":"levelo://app?vid=39045b19-ef4e-4445-9d2c-ca438ed9e414"},"vehicle_type_id":"4","last_reported":1743012857,"current_range_meters":2800,"station_id":"ce4bhi12rcd13ifvqfq0","pricing_plan_id":"cebpf4jnsgd1na2vs0mg"},{"bike_id":"fd7a2af8-9457-4025-b973-dfee612c3338","system_id":"levelo_inurba_marseille","lat":43.30397,"lon":5.39725,"is_reserved":false,"is_disabled":true,"rental_uris":{"android":"levelo://app?vid=fd7a2af8-9457-4025-b973-dfee612c3338","ios":"levelo://app?vid=fd7a2af8-9457-4025-b973-dfee612c3338"},"vehicle_type_id":"4","last_reported":1743012857,"current_range_meters":2800,"station_id":"ce4bh092rcd13ifvqd20","pricing_plan_id":"cebpf4jnsgd1na2vs0mg"},{"bike_id":"b2877d49-0758-4ff2-94af-823d5f1a0ae0","system_id":"levelo_inurba_marseille","lat":43.31167,"lon":5.38714,"is_reserved":false,"is_disabled":false,"rental_uris":{"android":"levelo://app?vid=b2877d49-0758-4ff2-94af-823d5f1a0ae0","ios":"levelo://app?vid=b2877d49-0758-4ff2-94af-823d5f1a0ae0"},"vehicle_type_id":"4","last_reported":1743012857,"current_range_meters":2800,"station_id":"ce4bgv12rcd13ifvqcp0","pricing_plan_id":"cebpf4jnsgd1na2vs0mg"},{"bike_id":"341c0e5e-7941-434a-a249-fc06cb794715","system_id":"levelo_inurba_marseille","lat":43.29295,"lon":5.37458,"is_reserved":false,"is_disabled":false,"rental_uris":{"android":"levelo://app?vid=341c0e5e-7941-434a-a249-fc06cb794715","ios":"levelo://app?vid=341c0e5e-7941-434a-a249-fc06cb794715"},"vehicle_type_id":"4","last_reported":1743012857,"current_range_meters":2800,"station_id":"ce4bgi12rcd13ifvqb70","pricing_plan_id":"cebpf4jnsgd1na2vs0mg"},{"bike_id":"c0b5cf3b-e94a-465e-bad1-7d6e35d9fbf4","system_id":"levelo_inurba_marseille","lat":43.26231,"lon":5.40455,"is_reserved":false,"is_disabled":false,"rental_uris":{"android":"levelo://app?vid=c0b5cf3b-e94a-465e-bad1-7d6e35d9fbf4","ios":"levelo://app?vid=c0b5cf3b-e94a-465e-bad1-7d6e35d9fbf4"},"vehicle_type_id":"4","last_reported":1743012857,"current_range_meters":2800,"station_id":"ce4bhmh2rcd13ifvqgmg","pricing_plan_id":"cebpf4jnsgd1na2vs0mg"},{"bike_id":"def824ab-e135-404a-ae9d-678a99067bfc","system_id":"levelo_inurba_marseille","lat":43.31274,"lon":5.40178,"is_reserved":false,"is_disabled":false,"rental_uris":{"android":"levelo://app?vid=def824ab-e135-404a-ae9d-678a99067bfc","ios":"levelo://app?vid=def824ab-e135-404a-ae9d-678a99067bfc"},"vehicle_type_id":"4","last_reported":1743012857,"current_range_meters":2800,"station_id":"ce4bh092rcd13ifvqd30","pricing_plan_id":"cebpf4jnsgd1na2vs0mg"},{"bike_id":"6c7817e6-ef7d-4479-b543-fbc2c92e02ad","system_id":"levelo_inurba_marseille","lat":43.301,"lon":5.39068,"is_reserved":false,"is_disabled":false,"rental_uris":{"android":"levelo://app?vid=6c7817e6-ef7d-4479-b543-fbc2c92e02ad","ios":"levelo://app?vid=6c7817e6-ef7d-4479-b543-fbc2c92e02ad"},"vehicle_type_id":"4","last_reported":1743012857,"current_range_meters":2800,"station_id":"ce4bh192rcd13ifvqdb0","pricing_plan_id":"cebpf4jnsgd1na2vs0mg"},{"bike_id":"20635c2e-3ab3-4915-a834-2a4805a5336e","system_id":"levelo_inurba_marseille","lat":43.308002,"lon":5.381727,"is_reserved":false,"is_disabled":false,"rental_uris":{"android":"levelo://app?vid=20635c2e-3ab3-4915-a834-2a4805a5336e","ios":"levelo://app?vid=20635c2e-3ab3-4915-a834-2a4805a5336e"},"vehicle_type_id":"4","last_reported":1743012857,"current_range_meters":2800,"station_id":"ce4bgt12rcd13ifvqce0","pricing_plan_id":"cebpf4jnsgd1na2vs0mg"},{"bike_id":"da155e19-5157-4f97-8747-0c15b0609608","system_id":"levelo_inurba_marseille","lat":43.25729,"lon":5.41128,"is_reserved":false,"is_disabled":false,"rental_uris":{"android":"levelo://app?vid=da155e19-5157-4f97-8747-0c15b0609608","ios":"levelo://app?vid=da155e19-5157-4f97-8747-0c15b0609608"},"vehicle_type_id":"4","last_reported":1743012857,"current_range_meters":2800,"station_id":"ce4bhkp2rcd13ifvqgd0","pricing_plan_id":"cebpf4jnsgd1na2vs0mg"},{"bike_id":"6571e95d-c74e-4d6c-a5ee-b18819ea92be","system_id":"levelo_inurba_marseille","lat":43.29658,"lon":5.40564,"is_reserved":false,"is_disabled":false,"rental_uris":{"android":"levelo://app?vid=6571e95d-c74e-4d6c-a5ee-b18819ea92be","ios":"levelo://app?vid=6571e95d-c74e-4d6c-a5ee-b18819ea92be"},"vehicle_type_id":"4","last_reported":1743012857,"current_range_meters":2800,"station_id":"ce4bh0h2rcd13ifvqd60","pricing_plan_id":"cebpf4jnsgd1na2vs0mg"},{"bike_id":"73bc398e-69af-4380-9d63-39c9eb58af7d","system_id":"levelo_inurba_marseille","lat":43.31686,"lon":5.40476,"is_reserved":false,"is_disabled":false,"rental_uris":{"android":"levelo://app?vid=73bc398e-69af-4380-9d63-39c9eb58af7d","ios":"levelo://app?vid=73bc398e-69af-4380-9d63-39c9eb58af7d"},"vehicle_type_id":"4","last_reported":1743012857,"current_range_meters":2800,"station_id":"ce4bh012rcd13ifvqd00","pricing_plan_id":"cebpf4jnsgd1na2vs0mg"},{"bike_id":"902a94fd-86c8-4780-b037-eb5f5ebaefab","system_id":"levelo_inurba_marseille","lat":43.24075,"lon":5.37763,"is_reserved":false,"is_disabled":false,"rental_uris":{"android":"levelo://app?vid=902a94fd-86c8-4780-b037-eb5f5ebaefab","ios":"levelo://app?vid=902a94fd-86c8-4780-b037-eb5f5ebaefab"},"vehicle_type_id":"4","last_reported":1743012857,"current_range_meters":2800,"station_id":"ce4bhnp2rcd13ifvqgvg","pricing_plan_id":"cebpf4jnsgd1na2vs0mg"},{"bike_id":"48fb31a8-b84c-4381-8d46-377e59e64c65","system_id":"levelo_inurba_marseille","lat":43.313475,"lon":5.379406,"is_reserved":false,"is_disabled":true,"rental_uris":{"android":"levelo://app?vid=48fb31a8-b84c-4381-8d46-377e59e64c65","ios":"levelo://app?vid=48fb31a8-b84c-4381-8d46-377e59e64c65"},"vehicle_type_id":"4","last_reported":1743012857,"current_range_meters":2800,"station_id":"","pricing_plan_id":"cebpf4jnsgd1na2vs0mg"},{"bike_id":"35105bd8-e826-4045-8b93-b6c68863dee5","system_id":"levelo_inurba_marseille","lat":43.30604,"lon":5.37246,"is_reserved":false,"is_disabled":false,"rental_uris":{"android":"levelo://app?vid=35105bd8-e826-4045-8b93-b6c68863dee5","ios":"levelo://app?vid=35105bd8-e826-4045-8b93-b6c68863dee5"},"vehicle_type_id":"4","last_reported":1743012857,"current_range_meters":2800,"station_id":"ce4bgqh2rcd13ifvqc4g","pricing_plan_id":"cebpf4jnsgd1na2vs0mg"},{"bike_id":"1a72589a-b6fc-4376-bb23-a783bda359d8","system_id":"levelo_inurba_marseille","lat":43.2784,"lon":5.39211,"is_reserved":false,"is_disabled":false,"rental_uris":{"android":"levelo://app?vid=1a72589a-b6fc-4376-bb23-a783bda359d8","ios":"levelo://app?vid=1a72589a-b6fc-4376-bb23-a783bda359d8"},"vehicle_type_id":"4","last_reported":1743012857,"current_range_meters":3200,"station_id":"ce4bhjp2rcd13ifvqga0","pricing_plan_id":"cebpf4jnsgd1na2vs0mg"},{"bike_id":"38d4fe7e-c94c-4a1d-bd28-ad60d0e90956","system_id":"levelo_inurba_marseille","lat":43.30234,"lon":5.36435,"is_reserved":false,"is_disabled":false,"rental_uris":{"android":"levelo://app?vid=38d4fe7e-c94c-4a1d-bd28-ad60d0e90956","ios":"levelo://app?vid=38d4fe7e-c94c-4a1d-bd28-ad60d0e90956"},"vehicle_type_id":"4","last_reported":1743012857,"current_range_meters":3200,"station_id":"","pricing_plan_id":"cebpf4jnsgd1na2vs0mg"},{"bike_id":"eb718741-bd1f-434a-9693-67da41b2213c","system_id":"levelo_inurba_marseille","lat":43.26952,"lon":5.3863,"is_reserved":false,"is_disabled":false,"rental_uris":{"android":"levelo://app?vid=eb718741-bd1f-434a-9693-67da41b2213c","ios":"levelo://app?vid=eb718741-bd1f-434a-9693-67da41b2213c"},"vehicle_type_id":"4","last_reported":1743012857,"current_range_meters":3200,"station_id":"ce4bhh92rcd13ifvqfh0","pricing_plan_id":"cebpf4jnsgd1na2vs0mg"},{"bike_id":"e40d21e3-2632-4c8f-a441-39079ed4bfc7","system_id":"levelo_inurba_marseille","lat":43.30591,"lon":5.39363,"is_reserved":false,"is_disabled":false,"rental_uris":{"android":"levelo://app?vid=e40d21e3-2632-4c8f-a441-39079ed4bfc7","ios":"levelo://app?vid=e40d21e3-2632-4c8f-a441-39079ed4bfc7"},"vehicle_type_id":"4","last_reported":1743012857,"current_range_meters":3200,"station_id":"ce4bh0p2rcd13ifvqd80","pricing_plan_id":"cebpf4jnsgd1na2vs0mg"},{"bike_id":"cf90dd31-f06b-4a37-b78b-3e9c30218e8c","system_id":"levelo_inurba_marseille","lat":43.29284,"lon":5.36848,"is_reserved":false,"is_disabled":false,"rental_uris":{"android":"levelo://app?vid=cf90dd31-f06b-4a37-b78b-3e9c30218e8c","ios":"levelo://app?vid=cf90dd31-f06b-4a37-b78b-3e9c30218e8c"},"vehicle_type_id":"4","last_reported":1743012857,"current_range_meters":3200,"station_id":"ce4bhbp2rcd13ifvqesg","pricing_plan_id":"cebpf4jnsgd1na2vs0mg"},{"bike_id":"ac1d69e1-1411-4825-bc8f-8bdf186e6aa8","system_id":"levelo_inurba_marseille","lat":43.27615,"lon":5.36102,"is_reserved":false,"is_disabled":true,"rental_uris":{"android":"levelo://app?vid=ac1d69e1-1411-4825-bc8f-8bdf186e6aa8","ios":"levelo://app?vid=ac1d69e1-1411-4825-bc8f-8bdf186e6aa8"},"vehicle_type_id":"4","last_reported":1743012857,"current_range_meters":3200,"station_id":"ce4bgj92rcd13ifvqbe0","pricing_plan_id":"cebpf4jnsgd1na2vs0mg"},{"bike_id":"98dd18d1-9188-4768-b3e5-cf0b45b36a9a","system_id":"levelo_inurba_marseille","lat":43.24804,"lon":5.37454,"is_reserved":false,"is_disabled":false,"rental_uris":{"android":"levelo://app?vid=98dd18d1-9188-4768-b3e5-cf0b45b36a9a","ios":"levelo://app?vid=98dd18d1-9188-4768-b3e5-cf0b45b36a9a"},"vehicle_type_id":"4","last_reported":1743012857,"current_range_meters":3200,"station_id":"ce4bhgh2rcd13ifvqfb0","pricing_plan_id":"cebpf4jnsgd1na2vs0mg"},{"bike_id":"2eae4a3b-7eb8-4bc6-a792-2bd66f018b57","system_id":"levelo_inurba_marseille","lat":43.29385,"lon":5.38587,"is_reserved":false,"is_disabled":false,"rental_uris":{"android":"levelo://app?vid=2eae4a3b-7eb8-4bc6-a792-2bd66f018b57","ios":"levelo://app?vid=2eae4a3b-7eb8-4bc6-a792-2bd66f018b57"},"vehicle_type_id":"4","last_reported":1743012857,"current_range_meters":3600,"station_id":"ce4bhbp2rcd13ifvqerg","pricing_plan_id":"cebpf4jnsgd1na2vs0mg"},{"bike_id":"ae3e2b8d-5bd5-44d2-9ded-f14532c7b8a0","system_id":"levelo_inurba_marseille","lat":43.29964,"lon":5.38502,"is_reserved":false,"is_disabled":false,"rental_uris":{"android":"levelo://app?vid=ae3e2b8d-5bd5-44d2-9ded-f14532c7b8a0","ios":"levelo://app?vid=ae3e2b8d-5bd5-44d2-9ded-f14532c7b8a0"},"vehicle_type_id":"4","last_reported":1743012857,"current_range_meters":3600,"station_id":"ce4bgj92rcd13ifvqbd0","pricing_plan_id":"cebpf4jnsgd1na2vs0mg"},{"bike_id":"bc7b0e4b-e5b4-4b97-b530-0540ba4444c2","system_id":"levelo_inurba_marseille","lat":43.2481,"lon":5.37464,"is_reserved":false,"is_disabled":false,"rental_uris":{"android":"levelo://app?vid=bc7b0e4b-e5b4-4b97-b530-0540ba4444c2","ios":"levelo://app?vid=bc7b0e4b-e5b4-4b97-b530-0540ba4444c2"},"vehicle_type_id":"4","last_reported":1743012857,"current_range_meters":3600,"station_id":"ce4bhgh2rcd13ifvqfb0","pricing_plan_id":"cebpf4jnsgd1na2vs0mg"},{"bike_id":"e3162120-725a-4663-8148-e797ab7d76d4","system_id":"levelo_inurba_marseille","lat":43.30417,"lon":5.37007,"is_reserved":false,"is_disabled":false,"rental_uris":{"android":"levelo://app?vid=e3162120-725a-4663-8148-e797ab7d76d4","ios":"levelo://app?vid=e3162120-725a-4663-8148-e797ab7d76d4"},"vehicle_type_id":"4","last_reported":1743012857,"current_range_meters":3600,"station_id":"","pricing_plan_id":"cebpf4jnsgd1na2vs0mg"},{"bike_id":"0c9cada4-2764-4013-a528-15089818cb84","system_id":"levelo_inurba_marseille","lat":43.27793,"lon":5.41152,"is_reserved":false,"is_disabled":false,"rental_uris":{"android":"levelo://app?vid=0c9cada4-2764-4013-a528-15089818cb84","ios":"levelo://app?vid=0c9cada4-2764-4013-a528-15089818cb84"},"vehicle_type_id":"4","last_reported":1743012857,"current_range_meters":3600,"station_id":"","pricing_plan_id":"cebpf4jnsgd1na2vs0mg"},{"bike_id":"0290b51b-7e22-47e8-92c7-fdac88eee1d0","system_id":"levelo_inurba_marseille","lat":43.30226,"lon":5.3947,"is_reserved":false,"is_disabled":false,"rental_uris":{"android":"levelo://app?vid=0290b51b-7e22-47e8-92c7-fdac88eee1d0","ios":"levelo://app?vid=0290b51b-7e22-47e8-92c7-fdac88eee1d0"},"vehicle_type_id":"4","last_reported":1743012857,"current_range_meters":3600,"station_id":"ce4bh0p2rcd13ifvqd70","pricing_plan_id":"cebpf4jnsgd1na2vs0mg"},{"bike_id":"c41b122f-493a-45a6-b714-b1f38f4b0ff5","system_id":"levelo_inurba_marseille","lat":43.29787,"lon":5.38112,"is_reserved":false,"is_disabled":false,"rental_uris":{"android":"levelo://app?vid=c41b122f-493a-45a6-b714-b1f38f4b0ff5","ios":"levelo://app?vid=c41b122f-493a-45a6-b714-b1f38f4b0ff5"},"vehicle_type_id":"4","last_reported":1743012857,"current_range_meters":3600,"station_id":"ce4bgip2rcd13ifvqbb0","pricing_plan_id":"cebpf4jnsgd1na2vs0mg"},{"bike_id":"9f160dd8-98f9-4141-ab09-678481f3166f","system_id":"levelo_inurba_marseille","lat":43.29877,"lon":5.39751,"is_reserved":false,"is_disabled":false,"rental_uris":{"android":"levelo://app?vid=9f160dd8-98f9-4141-ab09-678481f3166f","ios":"levelo://app?vid=9f160dd8-98f9-4141-ab09-678481f3166f"},"vehicle_type_id":"4","last_reported":1743012857,"current_range_meters":3600,"station_id":"ce4bh0h2rcd13ifvqd50","pricing_plan_id":"cebpf4jnsgd1na2vs0mg"},{"bike_id":"cd20d16a-032a-4ea7-a430-255e9d8a59c5","system_id":"levelo_inurba_marseille","lat":43.28166,"lon":5.40662,"is_reserved":false,"is_disabled":false,"rental_uris":{"android":"levelo://app?vid=cd20d16a-032a-4ea7-a430-255e9d8a59c5","ios":"levelo://app?vid=cd20d16a-032a-4ea7-a430-255e9d8a59c5"},"vehicle_type_id":"4","last_reported":1743012857,"current_range_meters":3600,"station_id":"","pricing_plan_id":"cebpf4jnsgd1na2vs0mg"},{"bike_id":"dc10c185-8122-4e86-84a7-44f8321d3a3b","system_id":"levelo_inurba_marseille","lat":43.31883,"lon":5.40742,"is_reserved":false,"is_disabled":false,"rental_uris":{"android":"levelo://app?vid=dc10c185-8122-4e86-84a7-44f8321d3a3b","ios":"levelo://app?vid=dc10c185-8122-4e86-84a7-44f8321d3a3b"},"vehicle_type_id":"4","last_reported":1743012857,"current_range_meters":3200,"station_id":"ce4bhq12rcd13ifvqhig","pricing_plan_id":"cebpf4jnsgd1na2vs0mg"},{"bike_id":"562f46db-f6f9-465b-8e29-4bc1843dc80b","system_id":"levelo_inurba_marseille","lat":43.27971,"lon":5.38748,"is_reserved":false,"is_disabled":false,"rental_uris":{"android":"levelo://app?vid=562f46db-f6f9-465b-8e29-4bc1843dc80b","ios":"levelo://app?vid=562f46db-f6f9-465b-8e29-4bc1843dc80b"},"vehicle_type_id":"4","last_reported":1743012857,"current_range_meters":3600,"station_id":"ce4bhg12rcd13ifvqf80","pricing_plan_id":"cebpf4jnsgd1na2vs0mg"},{"bike_id":"57ca3889-e9df-448f-9955-3a91cbcc1f0c","system_id":"levelo_inurba_marseille","lat":43.31698,"lon":5.37754,"is_reserved":false,"is_disabled":false,"rental_uris":{"android":"levelo://app?vid=57ca3889-e9df-448f-9955-3a91cbcc1f0c","ios":"levelo://app?vid=57ca3889-e9df-448f-9955-3a91cbcc1f0c"},"vehicle_type_id":"4","last_reported":1743012857,"current_range_meters":4000,"station_id":"ce4bgth2rcd13ifvqch0","pricing_plan_id":"cebpf4jnsgd1na2vs0mg"},{"bike_id":"19a997e6-e10c-4d7e-a466-132906168292","system_id":"levelo_inurba_marseille","lat":43.2926,"lon":5.40909,"is_reserved":false,"is_disabled":false,"rental_uris":{"android":"levelo://app?vid=19a997e6-e10c-4d7e-a466-132906168292","ios":"levelo://app?vid=19a997e6-e10c-4d7e-a466-132906168292"},"vehicle_type_id":"4","last_reported":1743012857,"current_range_meters":4000,"station_id":"ce4bh192rcd13ifvqdc0","pricing_plan_id":"cebpf4jnsgd1na2vs0mg"},{"bike_id":"e88119b7-a718-4321-b2dc-884b54d91595","system_id":"levelo_inurba_marseille","lat":43.30789,"lon":5.37666,"is_reserved":false,"is_disabled":false,"rental_uris":{"android":"levelo://app?vid=e88119b7-a718-4321-b2dc-884b54d91595","ios":"levelo://app?vid=e88119b7-a718-4321-b2dc-884b54d91595"},"vehicle_type_id":"4","last_reported":1743012857,"current_range_meters":4000,"station_id":"ce4bgv92rcd13ifvqcq0","pricing_plan_id":"cebpf4jnsgd1na2vs0mg"},{"bike_id":"85f740ce-b25c-4f01-a4d0-1cb1211ec32c","system_id":"levelo_inurba_marseille","lat":43.271806,"lon":5.409969,"is_reserved":false,"is_disabled":false,"rental_uris":{"android":"levelo://app?vid=85f740ce-b25c-4f01-a4d0-1cb1211ec32c","ios":"levelo://app?vid=85f740ce-b25c-4f01-a4d0-1cb1211ec32c"},"vehicle_type_id":"4","last_reported":1743012857,"current_range_meters":4000,"station_id":"ce4bhl12rcd13ifvqgf0","pricing_plan_id":"cebpf4jnsgd1na2vs0mg"},{"bike_id":"494187e4-c9af-437b-b7c5-eb526ddcfad4","system_id":"levelo_inurba_marseille","lat":43.29526,"lon":5.37508,"is_reserved":false,"is_disabled":false,"rental_uris":{"android":"levelo://app?vid=494187e4-c9af-437b-b7c5-eb526ddcfad4","ios":"levelo://app?vid=494187e4-c9af-437b-b7c5-eb526ddcfad4"},"vehicle_type_id":"4","last_reported":1743012857,"current_range_meters":3600,"station_id":"ce4bgkp2rcd13ifvqbmg","pricing_plan_id":"cebpf4jnsgd1na2vs0mg"},{"bike_id":"a48effe7-a145-4b42-bfb0-d77647ed5a96","system_id":"levelo_inurba_marseille","lat":43.26953,"lon":5.40238,"is_reserved":false,"is_disabled":false,"rental_uris":{"android":"levelo://app?vid=a48effe7-a145-4b42-bfb0-d77647ed5a96","ios":"levelo://app?vid=a48effe7-a145-4b42-bfb0-d77647ed5a96"},"vehicle_type_id":"4","last_reported":1743012857,"current_range_meters":4000,"station_id":"cjm6bp8fraef2m0cb0m0","pricing_plan_id":"cebpf4jnsgd1na2vs0mg"},{"bike_id":"cf5aaf9d-591c-401b-8554-050db64bf1b7","system_id":"levelo_inurba_marseille","lat":43.29253,"lon":5.38443,"is_reserved":false,"is_disabled":false,"rental_uris":{"android":"levelo://app?vid=cf5aaf9d-591c-401b-8554-050db64bf1b7","ios":"levelo://app?vid=cf5aaf9d-591c-401b-8554-050db64bf1b7"},"vehicle_type_id":"4","last_reported":1743012857,"current_range_meters":4000,"station_id":"ce4bh692rcd13ifvqea0","pricing_plan_id":"cebpf4jnsgd1na2vs0mg"},{"bike_id":"dee01880-4681-433f-b610-c066e973cf8d","system_id":"levelo_inurba_marseille","lat":43.23964,"lon":5.366272,"is_reserved":false,"is_disabled":false,"rental_uris":{"android":"levelo://app?vid=dee01880-4681-433f-b610-c066e973cf8d","ios":"levelo://app?vid=dee01880-4681-433f-b610-c066e973cf8d"},"vehicle_type_id":"4","last_reported":1743012857,"current_range_meters":4000,"station_id":"ce4bhi12rcd13ifvqfp0","pricing_plan_id":"cebpf4jnsgd1na2vs0mg"},{"bike_id":"2a99ecb7-4bf0-4c00-89bb-11ff019b8a6d","system_id":"levelo_inurba_marseille","lat":43.22928,"lon":5.35391,"is_reserved":false,"is_disabled":false,"rental_uris":{"android":"levelo://app?vid=2a99ecb7-4bf0-4c00-89bb-11ff019b8a6d","ios":"levelo://app?vid=2a99ecb7-4bf0-4c00-89bb-11ff019b8a6d"},"vehicle_type_id":"4","last_reported":1743012857,"current_range_meters":4400,"station_id":"cpo3532slgdg3j2ikp40","pricing_plan_id":"cebpf4jnsgd1na2vs0mg"},{"bike_id":"c6c9ed86-e318-41be-8d47-0b9d7426c097","system_id":"levelo_inurba_marseille","lat":43.31121,"lon":5.37765,"is_reserved":false,"is_disabled":false,"rental_uris":{"android":"levelo://app?vid=c6c9ed86-e318-41be-8d47-0b9d7426c097","ios":"levelo://app?vid=c6c9ed86-e318-41be-8d47-0b9d7426c097"},"vehicle_type_id":"4","last_reported":1743012857,"current_range_meters":4400,"station_id":"ce4bgt92rcd13ifvqcg0","pricing_plan_id":"cebpf4jnsgd1na2vs0mg"},{"bike_id":"7d70013a-8edd-4d22-afe0-f87ad3c09d97","system_id":"levelo_inurba_marseille","lat":43.29534,"lon":5.38538,"is_reserved":false,"is_disabled":false,"rental_uris":{"android":"levelo://app?vid=7d70013a-8edd-4d22-afe0-f87ad3c09d97","ios":"levelo://app?vid=7d70013a-8edd-4d22-afe0-f87ad3c09d97"},"vehicle_type_id":"4","last_reported":1743012857,"current_range_meters":4400,"station_id":"ce4bgih2rcd13ifvqba0","pricing_plan_id":"cebpf4jnsgd1na2vs0mg"},{"bike_id":"03908684-304c-46cb-8098-7d26df555d11","system_id":"levelo_inurba_marseille","lat":43.29259,"lon":5.39862,"is_reserved":false,"is_disabled":false,"rental_uris":{"android":"levelo://app?vid=03908684-304c-46cb-8098-7d26df555d11","ios":"levelo://app?vid=03908684-304c-46cb-8098-7d26df555d11"},"vehicle_type_id":"4","last_reported":1743012857,"current_range_meters":4400,"station_id":"","pricing_plan_id":"cebpf4jnsgd1na2vs0mg"},{"bike_id":"d9513bf5-f255-462a-a7d5-c6e6b011af31","system_id":"levelo_inurba_marseille","lat":43.27819,"lon":5.4072,"is_reserved":false,"is_disabled":false,"rental_uris":{"android":"levelo://app?vid=d9513bf5-f255-462a-a7d5-c6e6b011af31","ios":"levelo://app?vid=d9513bf5-f255-462a-a7d5-c6e6b011af31"},"vehicle_type_id":"4","last_reported":1743012857,"current_range_meters":4400,"station_id":"ce4bhnh2rcd13ifvqgtg","pricing_plan_id":"cebpf4jnsgd1na2vs0mg"},{"bike_id":"3fd50e7a-e4e3-4faa-88aa-42f827372250","system_id":"levelo_inurba_marseille","lat":43.29781,"lon":5.39343,"is_reserved":false,"is_disabled":false,"rental_uris":{"android":"levelo://app?vid=3fd50e7a-e4e3-4faa-88aa-42f827372250","ios":"levelo://app?vid=3fd50e7a-e4e3-4faa-88aa-42f827372250"},"vehicle_type_id":"4","last_reported":1743012857,"current_range_meters":4400,"station_id":"chh1huq6cuj3fo74tm60","pricing_plan_id":"cebpf4jnsgd1na2vs0mg"},{"bike_id":"fc507e55-7fe6-4d81-87c3-bf8e75d99534","system_id":"levelo_inurba_marseille","lat":43.24808,"lon":5.37462,"is_reserved":false,"is_disabled":false,"rental_uris":{"android":"levelo://app?vid=fc507e55-7fe6-4d81-87c3-bf8e75d99534","ios":"levelo://app?vid=fc507e55-7fe6-4d81-87c3-bf8e75d99534"},"vehicle_type_id":"4","last_reported":1743012857,"current_range_meters":4400,"station_id":"ce4bhgh2rcd13ifvqfb0","pricing_plan_id":"cebpf4jnsgd1na2vs0mg"},{"bike_id":"e95e35b0-47df-4743-9c2c-a6a293b9a38f","system_id":"levelo_inurba_marseille","lat":43.29519,"lon":5.39061,"is_reserved":false,"is_disabled":false,"rental_uris":{"android":"levelo://app?vid=e95e35b0-47df-4743-9c2c-a6a293b9a38f","ios":"levelo://app?vid=e95e35b0-47df-4743-9c2c-a6a293b9a38f"},"vehicle_type_id":"4","last_reported":1743012857,"current_range_meters":4400,"station_id":"ce4bh3p2rcd13ifvqdp0","pricing_plan_id":"cebpf4jnsgd1na2vs0mg"},{"bike_id":"7c96ff30-b8bb-4c93-90d8-e00422f7e1fd","system_id":"levelo_inurba_marseille","lat":43.28932,"lon":5.36636,"is_reserved":false,"is_disabled":false,"rental_uris":{"android":"levelo://app?vid=7c96ff30-b8bb-4c93-90d8-e00422f7e1fd","ios":"levelo://app?vid=7c96ff30-b8bb-4c93-90d8-e00422f7e1fd"},"vehicle_type_id":"4","last_reported":1743012857,"current_range_meters":4800,"station_id":"ce4bhap2rcd13ifvqek0","pricing_plan_id":"cebpf4jnsgd1na2vs0mg"},{"bike_id":"d0b79d47-e71e-4e16-86e5-742b427da272","system_id":"levelo_inurba_marseille","lat":43.26061,"lon":5.39398,"is_reserved":false,"is_disabled":false,"rental_uris":{"android":"levelo://app?vid=d0b79d47-e71e-4e16-86e5-742b427da272","ios":"levelo://app?vid=d0b79d47-e71e-4e16-86e5-742b427da272"},"vehicle_type_id":"4","last_reported":1743012857,"current_range_meters":4800,"station_id":"ce4bhh92rcd13ifvqfj0","pricing_plan_id":"cebpf4jnsgd1na2vs0mg"},{"bike_id":"3ab7fb6d-76bf-40c0-8c60-9c2811c960dc","system_id":"levelo_inurba_marseille","lat":43.256912,"lon":5.411194,"is_reserved":false,"is_disabled":false,"rental_uris":{"android":"levelo://app?vid=3ab7fb6d-76bf-40c0-8c60-9c2811c960dc","ios":"levelo://app?vid=3ab7fb6d-76bf-40c0-8c60-9c2811c960dc"},"vehicle_type_id":"4","last_reported":1743012857,"current_range_meters":4800,"station_id":"ce4bhkp2rcd13ifvqgd0","pricing_plan_id":"cebpf4jnsgd1na2vs0mg"},{"bike_id":"d981859f-05f6-4da2-b985-0f49ec9732ab","system_id":"levelo_inurba_marseille","lat":43.27559,"lon":5.38437,"is_reserved":false,"is_disabled":false,"rental_uris":{"android":"levelo://app?vid=d981859f-05f6-4da2-b985-0f49ec9732ab","ios":"levelo://app?vid=d981859f-05f6-4da2-b985-0f49ec9732ab"},"vehicle_type_id":"4","last_reported":1743012857,"current_range_meters":4800,"station_id":"ce4bhh92rcd13ifvqfi0","pricing_plan_id":"cebpf4jnsgd1na2vs0mg"},{"bike_id":"0006dcc3-e483-4be9-8ffd-359a393282b8","system_id":"levelo_inurba_marseille","lat":43.30796,"lon":5.38155,"is_reserved":false,"is_disabled":false,"rental_uris":{"android":"levelo://app?vid=0006dcc3-e483-4be9-8ffd-359a393282b8","ios":"levelo://app?vid=0006dcc3-e483-4be9-8ffd-359a393282b8"},"vehicle_type_id":"4","last_reported":1743012857,"current_range_meters":4800,"station_id":"ce4bgt12rcd13ifvqce0","pricing_plan_id":"cebpf4jnsgd1na2vs0mg"},{"bike_id":"b737769b-a1be-4a77-bf5e-e99e3255a4f2","system_id":"levelo_inurba_marseille","lat":43.255,"lon":5.3765,"is_reserved":false,"is_disabled":false,"rental_uris":{"android":"levelo://app?vid=b737769b-a1be-4a77-bf5e-e99e3255a4f2","ios":"levelo://app?vid=b737769b-a1be-4a77-bf5e-e99e3255a4f2"},"vehicle_type_id":"4","last_reported":1743012857,"current_range_meters":4800,"station_id":"ce4bhh12rcd13ifvqff0","pricing_plan_id":"cebpf4jnsgd1na2vs0mg"},{"bike_id":"764dcef8-7b81-4954-b270-f4abe7ea062a","system_id":"levelo_inurba_marseille","lat":43.30952,"lon":5.39029,"is_reserved":false,"is_disabled":false,"rental_uris":{"android":"levelo://app?vid=764dcef8-7b81-4954-b270-f4abe7ea062a","ios":"levelo://app?vid=764dcef8-7b81-4954-b270-f4abe7ea062a"},"vehicle_type_id":"4","last_reported":1743012857,"current_range_meters":5600,"station_id":"ce4bgup2rcd13ifvqco0","pricing_plan_id":"cebpf4jnsgd1na2vs0mg"},{"bike_id":"f393c367-4b1a-4822-a11c-2fc8e333083c","system_id":"levelo_inurba_marseille","lat":43.24649,"lon":5.38902,"is_reserved":false,"is_disabled":false,"rental_uris":{"android":"levelo://app?vid=f393c367-4b1a-4822-a11c-2fc8e333083c","ios":"levelo://app?vid=f393c367-4b1a-4822-a11c-2fc8e333083c"},"vehicle_type_id":"4","last_reported":1743012857,"current_range_meters":5600,"station_id":"ce4bhg12rcd13ifvqf60","pricing_plan_id":"cebpf4jnsgd1na2vs0mg"},{"bike_id":"4ecd6f22-f15f-4af7-ae21-074a1e62c602","system_id":"levelo_inurba_marseille","lat":43.24807,"lon":5.37457,"is_reserved":false,"is_disabled":false,"rental_uris":{"android":"levelo://app?vid=4ecd6f22-f15f-4af7-ae21-074a1e62c602","ios":"levelo://app?vid=4ecd6f22-f15f-4af7-ae21-074a1e62c602"},"vehicle_type_id":"4","last_reported":1743012857,"current_range_meters":5600,"station_id":"ce4bhgh2rcd13ifvqfb0","pricing_plan_id":"cebpf4jnsgd1na2vs0mg"},{"bike_id":"3dd94ef5-1df3-4824-9da2-5b2628120118","system_id":"levelo_inurba_marseille","lat":43.26499,"lon":5.39547,"is_reserved":false,"is_disabled":false,"rental_uris":{"android":"levelo://app?vid=3dd94ef5-1df3-4824-9da2-5b2628120118","ios":"levelo://app?vid=3dd94ef5-1df3-4824-9da2-5b2628120118"},"vehicle_type_id":"4","last_reported":1743012857,"current_range_meters":5600,"station_id":"ce4bhi12rcd13ifvqfq0","pricing_plan_id":"cebpf4jnsgd1na2vs0mg"},{"bike_id":"2f3e2a92-1301-4a27-8eaa-7b0ea525530e","system_id":"levelo_inurba_marseille","lat":43.31726,"lon":5.4369,"is_reserved":false,"is_disabled":false,"rental_uris":{"android":"levelo://app?vid=2f3e2a92-1301-4a27-8eaa-7b0ea525530e","ios":"levelo://app?vid=2f3e2a92-1301-4a27-8eaa-7b0ea525530e"},"vehicle_type_id":"4","last_reported":1743012857,"current_range_meters":5600,"station_id":"ce4bhp92rcd13ifvqhcg","pricing_plan_id":"cebpf4jnsgd1na2vs0mg"},{"bike_id":"44156654-a4cf-4f20-b992-8a27bbcc69ed","system_id":"levelo_inurba_marseille","lat":43.2319,"lon":5.39994,"is_reserved":false,"is_disabled":true,"rental_uris":{"android":"levelo://app?vid=44156654-a4cf-4f20-b992-8a27bbcc69ed","ios":"levelo://app?vid=44156654-a4cf-4f20-b992-8a27bbcc69ed"},"vehicle_type_id":"4","last_reported":1743012857,"current_range_meters":5600,"station_id":"ce4bhn12rcd13ifvqgqg","pricing_plan_id":"cebpf4jnsgd1na2vs0mg"},{"bike_id":"286a0afa-52aa-4b9c-8338-028167ca37b0","system_id":"levelo_inurba_marseille","lat":43.3079,"lon":5.38161,"is_reserved":false,"is_disabled":false,"rental_uris":{"android":"levelo://app?vid=286a0afa-52aa-4b9c-8338-028167ca37b0","ios":"levelo://app?vid=286a0afa-52aa-4b9c-8338-028167ca37b0"},"vehicle_type_id":"4","last_reported":1743012857,"current_range_meters":5600,"station_id":"ce4bgt12rcd13ifvqce0","pricing_plan_id":"cebpf4jnsgd1na2vs0mg"},{"bike_id":"402de620-017b-437d-b28a-35f529c686d7","system_id":"levelo_inurba_marseille","lat":43.326628,"lon":5.409959,"is_reserved":false,"is_disabled":false,"rental_uris":{"android":"levelo://app?vid=402de620-017b-437d-b28a-35f529c686d7","ios":"levelo://app?vid=402de620-017b-437d-b28a-35f529c686d7"},"vehicle_type_id":"4","last_reported":1743012857,"current_range_meters":6000,"station_id":"ce4bhpp2rcd13ifvqhgg","pricing_plan_id":"cebpf4jnsgd1na2vs0mg"},{"bike_id":"b23dac4f-54db-4621-809d-691364ea1759","system_id":"levelo_inurba_marseille","lat":43.28704,"lon":5.37373,"is_reserved":false,"is_disabled":false,"rental_uris":{"android":"levelo://app?vid=b23dac4f-54db-4621-809d-691364ea1759","ios":"levelo://app?vid=b23dac4f-54db-4621-809d-691364ea1759"},"vehicle_type_id":"4","last_reported":1743012857,"current_range_meters":6000,"station_id":"ce4bh3p2rcd13ifvqdq0","pricing_plan_id":"cebpf4jnsgd1na2vs0mg"},{"bike_id":"c987315b-c2f4-4cef-9907-a198f1f04f5a","system_id":"levelo_inurba_marseille","lat":43.27992,"lon":5.40059,"is_reserved":false,"is_disabled":false,"rental_uris":{"android":"levelo://app?vid=c987315b-c2f4-4cef-9907-a198f1f04f5a","ios":"levelo://app?vid=c987315b-c2f4-4cef-9907-a198f1f04f5a"},"vehicle_type_id":"4","last_reported":1743012857,"current_range_meters":6000,"station_id":"ce4bho92rcd13ifvqh4g","pricing_plan_id":"cebpf4jnsgd1na2vs0mg"},{"bike_id":"b9760421-750e-4656-8e67-3c9ad37b93d6","system_id":"levelo_inurba_marseille","lat":43.30433,"lon":5.38888,"is_reserved":false,"is_disabled":false,"rental_uris":{"android":"levelo://app?vid=b9760421-750e-4656-8e67-3c9ad37b93d6","ios":"levelo://app?vid=b9760421-750e-4656-8e67-3c9ad37b93d6"},"vehicle_type_id":"4","last_reported":1743012857,"current_range_meters":6000,"station_id":"ce4bgk12rcd13ifvqbi0","pricing_plan_id":"cebpf4jnsgd1na2vs0mg"},{"bike_id":"0b792fd1-4611-4b05-b1d5-0145989d2dc8","system_id":"levelo_inurba_marseille","lat":43.25824,"lon":5.39432,"is_reserved":false,"is_disabled":false,"rental_uris":{"android":"levelo://app?vid=0b792fd1-4611-4b05-b1d5-0145989d2dc8","ios":"levelo://app?vid=0b792fd1-4611-4b05-b1d5-0145989d2dc8"},"vehicle_type_id":"4","last_reported":1743012857,"current_range_meters":6000,"station_id":"ce4bhip2rcd13ifvqft0","pricing_plan_id":"cebpf4jnsgd1na2vs0mg"},{"bike_id":"7d944d2b-bdbb-4dfe-b8d5-68d8eb03245d","system_id":"levelo_inurba_marseille","lat":43.24666,"lon":5.38864,"is_reserved":false,"is_disabled":false,"rental_uris":{"android":"levelo://app?vid=7d944d2b-bdbb-4dfe-b8d5-68d8eb03245d","ios":"levelo://app?vid=7d944d2b-bdbb-4dfe-b8d5-68d8eb03245d"},"vehicle_type_id":"4","last_reported":1743012857,"current_range_meters":6000,"station_id":"ce4bhg12rcd13ifvqf60","pricing_plan_id":"cebpf4jnsgd1na2vs0mg"},{"bike_id":"6c8fa28b-c356-4a8e-97d1-9d86d4967b9c","system_id":"levelo_inurba_marseille","lat":43.23961,"lon":5.36627,"is_reserved":false,"is_disabled":false,"rental_uris":{"android":"levelo://app?vid=6c8fa28b-c356-4a8e-97d1-9d86d4967b9c","ios":"levelo://app?vid=6c8fa28b-c356-4a8e-97d1-9d86d4967b9c"},"vehicle_type_id":"4","last_reported":1743012857,"current_range_meters":6000,"station_id":"ce4bhi12rcd13ifvqfp0","pricing_plan_id":"cebpf4jnsgd1na2vs0mg"},{"bike_id":"6f9c182c-f6fa-4e9a-be98-1f2d81804796","system_id":"levelo_inurba_marseille","lat":43.28688,"lon":5.38653,"is_reserved":false,"is_disabled":false,"rental_uris":{"android":"levelo://app?vid=6f9c182c-f6fa-4e9a-be98-1f2d81804796","ios":"levelo://app?vid=6f9c182c-f6fa-4e9a-be98-1f2d81804796"},"vehicle_type_id":"4","last_reported":1743012857,"current_range_meters":6000,"station_id":"ce4bh492rcd13ifvqdug","pricing_plan_id":"cebpf4jnsgd1na2vs0mg"},{"bike_id":"77823725-c761-49bc-902c-64c32b686ae7","system_id":"levelo_inurba_marseille","lat":43.230654,"lon":5.354969,"is_reserved":false,"is_disabled":false,"rental_uris":{"android":"levelo://app?vid=77823725-c761-49bc-902c-64c32b686ae7","ios":"levelo://app?vid=77823725-c761-49bc-902c-64c32b686ae7"},"vehicle_type_id":"4","last_reported":1743012857,"current_range_meters":6000,"station_id":"cpo3342slgdg3j2ifvpg","pricing_plan_id":"cebpf4jnsgd1na2vs0mg"},{"bike_id":"7c4ff127-9024-4906-91d1-ffbd56158d12","system_id":"levelo_inurba_marseille","lat":43.30431,"lon":5.39746,"is_reserved":false,"is_disabled":false,"rental_uris":{"android":"levelo://app?vid=7c4ff127-9024-4906-91d1-ffbd56158d12","ios":"levelo://app?vid=7c4ff127-9024-4906-91d1-ffbd56158d12"},"vehicle_type_id":"4","last_reported":1743012857,"current_range_meters":5600,"station_id":"ce4bh092rcd13ifvqd20","pricing_plan_id":"cebpf4jnsgd1na2vs0mg"},{"bike_id":"7e628bd8-f74d-4310-8492-8512d6f315fe","system_id":"levelo_inurba_marseille","lat":43.23188,"lon":5.39996,"is_reserved":false,"is_disabled":false,"rental_uris":{"android":"levelo://app?vid=7e628bd8-f74d-4310-8492-8512d6f315fe","ios":"levelo://app?vid=7e628bd8-f74d-4310-8492-8512d6f315fe"},"vehicle_type_id":"4","last_reported":1743012857,"current_range_meters":6000,"station_id":"ce4bhn12rcd13ifvqgqg","pricing_plan_id":"cebpf4jnsgd1na2vs0mg"},{"bike_id":"4569b6e9-ff7d-46b2-8c8f-413b6733642f","system_id":"levelo_inurba_marseille","lat":43.2509,"lon":5.39529,"is_reserved":false,"is_disabled":false,"rental_uris":{"android":"levelo://app?vid=4569b6e9-ff7d-46b2-8c8f-413b6733642f","ios":"levelo://app?vid=4569b6e9-ff7d-46b2-8c8f-413b6733642f"},"vehicle_type_id":"4","last_reported":1743012857,"current_range_meters":6400,"station_id":"ce4bhm12rcd13ifvqgkg","pricing_plan_id":"cebpf4jnsgd1na2vs0mg"},{"bike_id":"386b862a-f6e9-4067-879b-dcb144683d60","system_id":"levelo_inurba_marseille","lat":43.26484,"lon":5.39559,"is_reserved":false,"is_disabled":false,"rental_uris":{"android":"levelo://app?vid=386b862a-f6e9-4067-879b-dcb144683d60","ios":"levelo://app?vid=386b862a-f6e9-4067-879b-dcb144683d60"},"vehicle_type_id":"4","last_reported":1743012857,"current_range_meters":6400,"station_id":"ce4bhi12rcd13ifvqfq0","pricing_plan_id":"cebpf4jnsgd1na2vs0mg"},{"bike_id":"33b9987d-a35c-4f72-b367-cfd5d1c57699","system_id":"levelo_inurba_marseille","lat":43.29885,"lon":5.38896,"is_reserved":false,"is_disabled":false,"rental_uris":{"android":"levelo://app?vid=33b9987d-a35c-4f72-b367-cfd5d1c57699","ios":"levelo://app?vid=33b9987d-a35c-4f72-b367-cfd5d1c57699"},"vehicle_type_id":"4","last_reported":1743012857,"current_range_meters":6400,"station_id":"ce4bh392rcd13ifvqdl0","pricing_plan_id":"cebpf4jnsgd1na2vs0mg"},{"bike_id":"3cd9b5bc-fba0-4545-94d0-e86f3d302f0f","system_id":"levelo_inurba_marseille","lat":43.28157,"lon":5.42661,"is_reserved":false,"is_disabled":false,"rental_uris":{"android":"levelo://app?vid=3cd9b5bc-fba0-4545-94d0-e86f3d302f0f","ios":"levelo://app?vid=3cd9b5bc-fba0-4545-94d0-e86f3d302f0f"},"vehicle_type_id":"4","last_reported":1743012857,"current_range_meters":6400,"station_id":"ce4bhnh2rcd13ifvqgug","pricing_plan_id":"cebpf4jnsgd1na2vs0mg"},{"bike_id":"6633349b-54ae-41b8-88d5-61ec5d012302","system_id":"levelo_inurba_marseille","lat":43.32111,"lon":5.36766,"is_reserved":false,"is_disabled":false,"rental_uris":{"android":"levelo://app?vid=6633349b-54ae-41b8-88d5-61ec5d012302","ios":"levelo://app?vid=6633349b-54ae-41b8-88d5-61ec5d012302"},"vehicle_type_id":"4","last_reported":1743012857,"current_range_meters":6400,"station_id":"ce4bhrh2rcd13ifvqhug","pricing_plan_id":"cebpf4jnsgd1na2vs0mg"},{"bike_id":"a6460627-511d-44ea-a912-da2085b0a119","system_id":"levelo_inurba_marseille","lat":43.29416,"lon":5.38622,"is_reserved":false,"is_disabled":true,"rental_uris":{"android":"levelo://app?vid=a6460627-511d-44ea-a912-da2085b0a119","ios":"levelo://app?vid=a6460627-511d-44ea-a912-da2085b0a119"},"vehicle_type_id":"4","last_reported":1743012857,"current_range_meters":6400,"station_id":"ce4bh2h2rcd13ifvqdh0","pricing_plan_id":"cebpf4jnsgd1na2vs0mg"},{"bike_id":"d2e17a34-39ed-4eb6-8095-71d8b9f2a6ac","system_id":"levelo_inurba_marseille","lat":43.30434,"lon":5.3888,"is_reserved":false,"is_disabled":false,"rental_uris":{"android":"levelo://app?vid=d2e17a34-39ed-4eb6-8095-71d8b9f2a6ac","ios":"levelo://app?vid=d2e17a34-39ed-4eb6-8095-71d8b9f2a6ac"},"vehicle_type_id":"4","last_reported":1743012857,"current_range_meters":6400,"station_id":"ce4bgk12rcd13ifvqbi0","pricing_plan_id":"cebpf4jnsgd1na2vs0mg"},{"bike_id":"ba514c16-180b-4665-976e-3f1f27c9c0d0","system_id":"levelo_inurba_marseille","lat":43.27795,"lon":5.40742,"is_reserved":false,"is_disabled":false,"rental_uris":{"android":"levelo://app?vid=ba514c16-180b-4665-976e-3f1f27c9c0d0","ios":"levelo://app?vid=ba514c16-180b-4665-976e-3f1f27c9c0d0"},"vehicle_type_id":"4","last_reported":1743012857,"current_range_meters":6400,"station_id":"ce4bhnh2rcd13ifvqgtg","pricing_plan_id":"cebpf4jnsgd1na2vs0mg"},{"bike_id":"ea058543-5b6a-48af-855d-c8588b5d0075","system_id":"levelo_inurba_marseille","lat":43.28153,"lon":5.42645,"is_reserved":false,"is_disabled":false,"rental_uris":{"android":"levelo://app?vid=ea058543-5b6a-48af-855d-c8588b5d0075","ios":"levelo://app?vid=ea058543-5b6a-48af-855d-c8588b5d0075"},"vehicle_type_id":"4","last_reported":1743012857,"current_range_meters":6400,"station_id":"ce4bhnh2rcd13ifvqgug","pricing_plan_id":"cebpf4jnsgd1na2vs0mg"},{"bike_id":"b68dcd17-a0c6-44eb-ae31-f9c5324bc593","system_id":"levelo_inurba_marseille","lat":43.29515,"lon":5.39403,"is_reserved":false,"is_disabled":false,"rental_uris":{"android":"levelo://app?vid=b68dcd17-a0c6-44eb-ae31-f9c5324bc593","ios":"levelo://app?vid=b68dcd17-a0c6-44eb-ae31-f9c5324bc593"},"vehicle_type_id":"4","last_reported":1743012857,"current_range_meters":6000,"station_id":"ce4bh292rcd13ifvqdf0","pricing_plan_id":"cebpf4jnsgd1na2vs0mg"},{"bike_id":"eae88733-2d5a-484d-90b1-4ffac7a57ae8","system_id":"levelo_inurba_marseille","lat":43.24661,"lon":5.38168,"is_reserved":false,"is_disabled":false,"rental_uris":{"android":"levelo://app?vid=eae88733-2d5a-484d-90b1-4ffac7a57ae8","ios":"levelo://app?vid=eae88733-2d5a-484d-90b1-4ffac7a57ae8"},"vehicle_type_id":"4","last_reported":1743012857,"current_range_meters":6000,"station_id":"ce4bhih2rcd13ifvqfr0","pricing_plan_id":"cebpf4jnsgd1na2vs0mg"},{"bike_id":"5cedd8cf-60b1-40d8-83bd-7bf79fbb182b","system_id":"levelo_inurba_marseille","lat":43.30594,"lon":5.39362,"is_reserved":false,"is_disabled":false,"rental_uris":{"android":"levelo://app?vid=5cedd8cf-60b1-40d8-83bd-7bf79fbb182b","ios":"levelo://app?vid=5cedd8cf-60b1-40d8-83bd-7bf79fbb182b"},"vehicle_type_id":"4","last_reported":1743012857,"current_range_meters":6400,"station_id":"ce4bh0p2rcd13ifvqd80","pricing_plan_id":"cebpf4jnsgd1na2vs0mg"},{"bike_id":"9e9f8681-3a90-4248-a3db-7669cdccf3cd","system_id":"levelo_inurba_marseille","lat":43.31268,"lon":5.40175,"is_reserved":false,"is_disabled":false,"rental_uris":{"android":"levelo://app?vid=9e9f8681-3a90-4248-a3db-7669cdccf3cd","ios":"levelo://app?vid=9e9f8681-3a90-4248-a3db-7669cdccf3cd"},"vehicle_type_id":"4","last_reported":1743012857,"current_range_meters":6000,"station_id":"ce4bh092rcd13ifvqd30","pricing_plan_id":"cebpf4jnsgd1na2vs0mg"},{"bike_id":"336310d8-62e2-49d0-8094-f021228ab741","system_id":"levelo_inurba_marseille","lat":43.25815,"lon":5.39367,"is_reserved":false,"is_disabled":false,"rental_uris":{"android":"levelo://app?vid=336310d8-62e2-49d0-8094-f021228ab741","ios":"levelo://app?vid=336310d8-62e2-49d0-8094-f021228ab741"},"vehicle_type_id":"4","last_reported":1743012857,"current_range_meters":6800,"station_id":"","pricing_plan_id":"cebpf4jnsgd1na2vs0mg"},{"bike_id":"ac16162e-9eb6-40a2-ae8b-a763f64ec361","system_id":"levelo_inurba_marseille","lat":43.290059,"lon":5.356157,"is_reserved":false,"is_disabled":true,"rental_uris":{"android":"levelo://app?vid=ac16162e-9eb6-40a2-ae8b-a763f64ec361","ios":"levelo://app?vid=ac16162e-9eb6-40a2-ae8b-a763f64ec361"},"vehicle_type_id":"4","last_reported":1743012857,"current_range_meters":6800,"station_id":"ce4bhb92rcd13ifvqen0","pricing_plan_id":"cebpf4jnsgd1na2vs0mg"},{"bike_id":"6437d489-2133-48f4-8803-453a78cfdfe8","system_id":"levelo_inurba_marseille","lat":43.28461,"lon":5.35887,"is_reserved":false,"is_disabled":false,"rental_uris":{"android":"levelo://app?vid=6437d489-2133-48f4-8803-453a78cfdfe8","ios":"levelo://app?vid=6437d489-2133-48f4-8803-453a78cfdfe8"},"vehicle_type_id":"4","last_reported":1743012857,"current_range_meters":6800,"station_id":"ce4bhah2rcd13ifvqei0","pricing_plan_id":"cebpf4jnsgd1na2vs0mg"},{"bike_id":"170d196e-1e7a-464d-9f39-49d8ae4723de","system_id":"levelo_inurba_marseille","lat":43.2439,"lon":5.37053,"is_reserved":false,"is_disabled":false,"rental_uris":{"android":"levelo://app?vid=170d196e-1e7a-464d-9f39-49d8ae4723de","ios":"levelo://app?vid=170d196e-1e7a-464d-9f39-49d8ae4723de"},"vehicle_type_id":"4","last_reported":1743012857,"current_range_meters":6400,"station_id":"ce4bhhh2rcd13ifvqfk0","pricing_plan_id":"cebpf4jnsgd1na2vs0mg"},{"bike_id":"49a1e2ba-d580-4b61-83c2-f1a3d5797536","system_id":"levelo_inurba_marseille","lat":43.28937,"lon":5.38372,"is_reserved":false,"is_disabled":false,"rental_uris":{"android":"levelo://app?vid=49a1e2ba-d580-4b61-83c2-f1a3d5797536","ios":"levelo://app?vid=49a1e2ba-d580-4b61-83c2-f1a3d5797536"},"vehicle_type_id":"4","last_reported":1743012857,"current_range_meters":6800,"station_id":"ce4bh612rcd13ifvqe6g","pricing_plan_id":"cebpf4jnsgd1na2vs0mg"},{"bike_id":"e157512c-8da5-4b6e-9c01-be7b95c5d97c","system_id":"levelo_inurba_marseille","lat":43.26798,"lon":5.40292,"is_reserved":false,"is_disabled":false,"rental_uris":{"android":"levelo://app?vid=e157512c-8da5-4b6e-9c01-be7b95c5d97c","ios":"levelo://app?vid=e157512c-8da5-4b6e-9c01-be7b95c5d97c"},"vehicle_type_id":"4","last_reported":1743012857,"current_range_meters":6800,"station_id":"ce501612rcd8frsf0b60","pricing_plan_id":"cebpf4jnsgd1na2vs0mg"},{"bike_id":"d5804ad3-33e7-454e-b7d4-322b214049f7","system_id":"levelo_inurba_marseille","lat":43.24672,"lon":5.38153,"is_reserved":false,"is_disabled":false,"rental_uris":{"android":"levelo://app?vid=d5804ad3-33e7-454e-b7d4-322b214049f7","ios":"levelo://app?vid=d5804ad3-33e7-454e-b7d4-322b214049f7"},"vehicle_type_id":"4","last_reported":1743012857,"current_range_meters":6800,"station_id":"ce4bhih2rcd13ifvqfr0","pricing_plan_id":"cebpf4jnsgd1na2vs0mg"},{"bike_id":"2cd38659-3007-4a70-a3c0-4dbdf8d620d5","system_id":"levelo_inurba_marseille","lat":43.31514,"lon":5.3729,"is_reserved":false,"is_disabled":true,"rental_uris":{"android":"levelo://app?vid=2cd38659-3007-4a70-a3c0-4dbdf8d620d5","ios":"levelo://app?vid=2cd38659-3007-4a70-a3c0-4dbdf8d620d5"},"vehicle_type_id":"4","last_reported":1743012857,"current_range_meters":6800,"station_id":"ce4bgt12rcd13ifvqcd0","pricing_plan_id":"cebpf4jnsgd1na2vs0mg"},{"bike_id":"1deecb50-2c19-4759-996f-504db272d305","system_id":"levelo_inurba_marseille","lat":43.28656,"lon":5.35104,"is_reserved":false,"is_disabled":false,"rental_uris":{"android":"levelo://app?vid=1deecb50-2c19-4759-996f-504db272d305","ios":"levelo://app?vid=1deecb50-2c19-4759-996f-504db272d305"},"vehicle_type_id":"4","last_reported":1743012857,"current_range_meters":6800,"station_id":"ce4bhch2rcd13ifvqeug","pricing_plan_id":"cebpf4jnsgd1na2vs0mg"},{"bike_id":"e151ce53-9df0-465d-b95f-e37ede278bbb","system_id":"levelo_inurba_marseille","lat":43.29964,"lon":5.38504,"is_reserved":false,"is_disabled":false,"rental_uris":{"android":"levelo://app?vid=e151ce53-9df0-465d-b95f-e37ede278bbb","ios":"levelo://app?vid=e151ce53-9df0-465d-b95f-e37ede278bbb"},"vehicle_type_id":"4","last_reported":1743012857,"current_range_meters":6800,"station_id":"ce4bgj92rcd13ifvqbd0","pricing_plan_id":"cebpf4jnsgd1na2vs0mg"},{"bike_id":"6c5d1ce0-6a25-4996-b766-77b6b895e23f","system_id":"levelo_inurba_marseille","lat":43.2925,"lon":5.38436,"is_reserved":false,"is_disabled":false,"rental_uris":{"android":"levelo://app?vid=6c5d1ce0-6a25-4996-b766-77b6b895e23f","ios":"levelo://app?vid=6c5d1ce0-6a25-4996-b766-77b6b895e23f"},"vehicle_type_id":"4","last_reported":1743012857,"current_range_meters":6800,"station_id":"ce4bh692rcd13ifvqea0","pricing_plan_id":"cebpf4jnsgd1na2vs0mg"},{"bike_id":"1168281c-2297-4d93-a010-fc7d01cf8be7","system_id":"levelo_inurba_marseille","lat":43.30801,"lon":5.38152,"is_reserved":false,"is_disabled":false,"rental_uris":{"android":"levelo://app?vid=1168281c-2297-4d93-a010-fc7d01cf8be7","ios":"levelo://app?vid=1168281c-2297-4d93-a010-fc7d01cf8be7"},"vehicle_type_id":"4","last_reported":1743012857,"current_range_meters":6800,"station_id":"ce4bgt12rcd13ifvqce0","pricing_plan_id":"cebpf4jnsgd1na2vs0mg"},{"bike_id":"2bc60d58-eca8-489a-9ab7-436d7b576939","system_id":"levelo_inurba_marseille","lat":43.29898,"lon":5.43646,"is_reserved":false,"is_disabled":false,"rental_uris":{"android":"levelo://app?vid=2bc60d58-eca8-489a-9ab7-436d7b576939","ios":"levelo://app?vid=2bc60d58-eca8-489a-9ab7-436d7b576939"},"vehicle_type_id":"4","last_reported":1743012857,"current_range_meters":6400,"station_id":"ce4bhpp2rcd13ifvqhfg","pricing_plan_id":"cebpf4jnsgd1na2vs0mg"},{"bike_id":"8462bff9-091e-40bf-bbf1-7be7ba1bdf45","system_id":"levelo_inurba_marseille","lat":43.31999,"lon":5.38169,"is_reserved":false,"is_disabled":false,"rental_uris":{"android":"levelo://app?vid=8462bff9-091e-40bf-bbf1-7be7ba1bdf45","ios":"levelo://app?vid=8462bff9-091e-40bf-bbf1-7be7ba1bdf45"},"vehicle_type_id":"4","last_reported":1743012857,"current_range_meters":7200,"station_id":"ce4bhr12rcd13ifvqhpg","pricing_plan_id":"cebpf4jnsgd1na2vs0mg"},{"bike_id":"3e8bad5b-5860-4969-9190-4dc16bc05d6a","system_id":"levelo_inurba_marseille","lat":43.27618,"lon":5.36101,"is_reserved":false,"is_disabled":false,"rental_uris":{"android":"levelo://app?vid=3e8bad5b-5860-4969-9190-4dc16bc05d6a","ios":"levelo://app?vid=3e8bad5b-5860-4969-9190-4dc16bc05d6a"},"vehicle_type_id":"4","last_reported":1743012857,"current_range_meters":7200,"station_id":"ce4bgj92rcd13ifvqbe0","pricing_plan_id":"cebpf4jnsgd1na2vs0mg"},{"bike_id":"d2cbf453-7840-4ac1-a5ae-b4776f40670f","system_id":"levelo_inurba_marseille","lat":43.27813,"lon":5.40712,"is_reserved":false,"is_disabled":false,"rental_uris":{"android":"levelo://app?vid=d2cbf453-7840-4ac1-a5ae-b4776f40670f","ios":"levelo://app?vid=d2cbf453-7840-4ac1-a5ae-b4776f40670f"},"vehicle_type_id":"4","last_reported":1743012857,"current_range_meters":6800,"station_id":"ce4bhnh2rcd13ifvqgtg","pricing_plan_id":"cebpf4jnsgd1na2vs0mg"},{"bike_id":"8db4fb46-1f77-4f7a-8e23-53b116d44918","system_id":"levelo_inurba_marseille","lat":43.32292,"lon":5.38278,"is_reserved":false,"is_disabled":false,"rental_uris":{"android":"levelo://app?vid=8db4fb46-1f77-4f7a-8e23-53b116d44918","ios":"levelo://app?vid=8db4fb46-1f77-4f7a-8e23-53b116d44918"},"vehicle_type_id":"4","last_reported":1743012857,"current_range_meters":6800,"station_id":"ce4bhr12rcd13ifvqhqg","pricing_plan_id":"cebpf4jnsgd1na2vs0mg"},{"bike_id":"8b0643ce-934f-49d4-aae3-32dc3ec1ff83","system_id":"levelo_inurba_marseille","lat":43.28155,"lon":5.42642,"is_reserved":false,"is_disabled":false,"rental_uris":{"android":"levelo://app?vid=8b0643ce-934f-49d4-aae3-32dc3ec1ff83","ios":"levelo://app?vid=8b0643ce-934f-49d4-aae3-32dc3ec1ff83"},"vehicle_type_id":"4","last_reported":1743012857,"current_range_meters":7200,"station_id":"ce4bhnh2rcd13ifvqgug","pricing_plan_id":"cebpf4jnsgd1na2vs0mg"},{"bike_id":"ce8e452c-de54-4bd1-9505-2ee59735af3e","system_id":"levelo_inurba_marseille","lat":43.27572,"lon":5.38412,"is_reserved":false,"is_disabled":false,"rental_uris":{"android":"levelo://app?vid=ce8e452c-de54-4bd1-9505-2ee59735af3e","ios":"levelo://app?vid=ce8e452c-de54-4bd1-9505-2ee59735af3e"},"vehicle_type_id":"4","last_reported":1743012857,"current_range_meters":7200,"station_id":"ce4bhh92rcd13ifvqfi0","pricing_plan_id":"cebpf4jnsgd1na2vs0mg"},{"bike_id":"d2d4a013-da47-429f-9400-c6da6763f452","system_id":"levelo_inurba_marseille","lat":43.27811,"lon":5.40723,"is_reserved":false,"is_disabled":false,"rental_uris":{"android":"levelo://app?vid=d2d4a013-da47-429f-9400-c6da6763f452","ios":"levelo://app?vid=d2d4a013-da47-429f-9400-c6da6763f452"},"vehicle_type_id":"4","last_reported":1743012857,"current_range_meters":7200,"station_id":"ce4bhnh2rcd13ifvqgtg","pricing_plan_id":"cebpf4jnsgd1na2vs0mg"},{"bike_id":"c43509fd-1f56-45c8-a426-fafb5d902348","system_id":"levelo_inurba_marseille","lat":43.29277,"lon":5.36839,"is_reserved":false,"is_disabled":false,"rental_uris":{"android":"levelo://app?vid=c43509fd-1f56-45c8-a426-fafb5d902348","ios":"levelo://app?vid=c43509fd-1f56-45c8-a426-fafb5d902348"},"vehicle_type_id":"4","last_reported":1743012857,"current_range_meters":7200,"station_id":"ce4bhbp2rcd13ifvqesg","pricing_plan_id":"cebpf4jnsgd1na2vs0mg"},{"bike_id":"0202b392-4421-47b8-a629-e2de022329d5","system_id":"levelo_inurba_marseille","lat":43.29252,"lon":5.38436,"is_reserved":false,"is_disabled":false,"rental_uris":{"android":"levelo://app?vid=0202b392-4421-47b8-a629-e2de022329d5","ios":"levelo://app?vid=0202b392-4421-47b8-a629-e2de022329d5"},"vehicle_type_id":"4","last_reported":1743012857,"current_range_meters":8000,"station_id":"ce4bh692rcd13ifvqea0","pricing_plan_id":"cebpf4jnsgd1na2vs0mg"},{"bike_id":"9e414f59-5d13-4847-984b-695d5e36104b","system_id":"levelo_inurba_marseille","lat":43.27889,"lon":5.41205,"is_reserved":false,"is_disabled":false,"rental_uris":{"android":"levelo://app?vid=9e414f59-5d13-4847-984b-695d5e36104b","ios":"levelo://app?vid=9e414f59-5d13-4847-984b-695d5e36104b"},"vehicle_type_id":"4","last_reported":1743012857,"current_range_meters":8000,"station_id":"","pricing_plan_id":"cebpf4jnsgd1na2vs0mg"},{"bike_id":"8d188c3c-3007-45f7-82a0-147ac007c315","system_id":"levelo_inurba_marseille","lat":43.28703,"lon":5.39989,"is_reserved":false,"is_disabled":false,"rental_uris":{"android":"levelo://app?vid=8d188c3c-3007-45f7-82a0-147ac007c315","ios":"levelo://app?vid=8d188c3c-3007-45f7-82a0-147ac007c315"},"vehicle_type_id":"4","last_reported":1743012857,"current_range_meters":7200,"station_id":"ce4bho92rcd13ifvqh3g","pricing_plan_id":"cebpf4jnsgd1na2vs0mg"},{"bike_id":"2477d515-77b2-4a18-be08-bc056da7f2c1","system_id":"levelo_inurba_marseille","lat":43.29967,"lon":5.38497,"is_reserved":false,"is_disabled":false,"rental_uris":{"android":"levelo://app?vid=2477d515-77b2-4a18-be08-bc056da7f2c1","ios":"levelo://app?vid=2477d515-77b2-4a18-be08-bc056da7f2c1"},"vehicle_type_id":"4","last_reported":1743012857,"current_range_meters":8000,"station_id":"ce4bgj92rcd13ifvqbd0","pricing_plan_id":"cebpf4jnsgd1na2vs0mg"},{"bike_id":"a5fb06d1-c469-4515-9522-548b956fd2b3","system_id":"levelo_inurba_marseille","lat":43.3175,"lon":5.39022,"is_reserved":false,"is_disabled":false,"rental_uris":{"android":"levelo://app?vid=a5fb06d1-c469-4515-9522-548b956fd2b3","ios":"levelo://app?vid=a5fb06d1-c469-4515-9522-548b956fd2b3"},"vehicle_type_id":"4","last_reported":1743012857,"current_range_meters":8000,"station_id":"ce4bhqp2rcd13ifvqhng","pricing_plan_id":"cebpf4jnsgd1na2vs0mg"},{"bike_id":"98c7ca61-6b4e-4129-ad44-4943fd2074d6","system_id":"levelo_inurba_marseille","lat":43.22935,"lon":5.35391,"is_reserved":false,"is_disabled":false,"rental_uris":{"android":"levelo://app?vid=98c7ca61-6b4e-4129-ad44-4943fd2074d6","ios":"levelo://app?vid=98c7ca61-6b4e-4129-ad44-4943fd2074d6"},"vehicle_type_id":"4","last_reported":1743012857,"current_range_meters":8000,"station_id":"cpo3532slgdg3j2ikp40","pricing_plan_id":"cebpf4jnsgd1na2vs0mg"},{"bike_id":"225eccee-41b5-4bca-a528-816b2f230b6c","system_id":"levelo_inurba_marseille","lat":43.28161,"lon":5.42636,"is_reserved":false,"is_disabled":false,"rental_uris":{"android":"levelo://app?vid=225eccee-41b5-4bca-a528-816b2f230b6c","ios":"levelo://app?vid=225eccee-41b5-4bca-a528-816b2f230b6c"},"vehicle_type_id":"4","last_reported":1743012857,"current_range_meters":8000,"station_id":"ce4bhnh2rcd13ifvqgug","pricing_plan_id":"cebpf4jnsgd1na2vs0mg"},{"bike_id":"067247e0-a27c-4e52-9052-c6b9eea5c7f4","system_id":"levelo_inurba_marseille","lat":43.3141,"lon":5.37453,"is_reserved":false,"is_disabled":false,"rental_uris":{"android":"levelo://app?vid=067247e0-a27c-4e52-9052-c6b9eea5c7f4","ios":"levelo://app?vid=067247e0-a27c-4e52-9052-c6b9eea5c7f4"},"vehicle_type_id":"4","last_reported":1743012857,"current_range_meters":8000,"station_id":"","pricing_plan_id":"cebpf4jnsgd1na2vs0mg"},{"bike_id":"681ec03c-5fcc-472b-a4f7-a3ac540e8e2a","system_id":"levelo_inurba_marseille","lat":43.30805,"lon":5.3707,"is_reserved":false,"is_disabled":false,"rental_uris":{"android":"levelo://app?vid=681ec03c-5fcc-472b-a4f7-a3ac540e8e2a","ios":"levelo://app?vid=681ec03c-5fcc-472b-a4f7-a3ac540e8e2a"},"vehicle_type_id":"4","last_reported":1743012857,"current_range_meters":8000,"station_id":"","pricing_plan_id":"cebpf4jnsgd1na2vs0mg"},{"bike_id":"3789873a-1dd9-4f31-847a-52f0d7019a2f","system_id":"levelo_inurba_marseille","lat":43.23964,"lon":5.36642,"is_reserved":false,"is_disabled":false,"rental_uris":{"android":"levelo://app?vid=3789873a-1dd9-4f31-847a-52f0d7019a2f","ios":"levelo://app?vid=3789873a-1dd9-4f31-847a-52f0d7019a2f"},"vehicle_type_id":"4","last_reported":1743012857,"current_range_meters":8000,"station_id":"ce4bhi12rcd13ifvqfp0","pricing_plan_id":"cebpf4jnsgd1na2vs0mg"},{"bike_id":"e2890cf0-0d3c-4fb6-a08d-6f9b2d9d6313","system_id":"levelo_inurba_marseille","lat":43.30355,"lon":5.41878,"is_reserved":false,"is_disabled":false,"rental_uris":{"android":"levelo://app?vid=e2890cf0-0d3c-4fb6-a08d-6f9b2d9d6313","ios":"levelo://app?vid=e2890cf0-0d3c-4fb6-a08d-6f9b2d9d6313"},"vehicle_type_id":"4","last_reported":1743012857,"current_range_meters":7200,"station_id":"ce4bhop2rcd13ifvqh7g","pricing_plan_id":"cebpf4jnsgd1na2vs0mg"},{"bike_id":"635d2e26-0e98-47cc-9fd6-75d325db2f8c","system_id":"levelo_inurba_marseille","lat":43.28099,"lon":5.37839,"is_reserved":false,"is_disabled":false,"rental_uris":{"android":"levelo://app?vid=635d2e26-0e98-47cc-9fd6-75d325db2f8c","ios":"levelo://app?vid=635d2e26-0e98-47cc-9fd6-75d325db2f8c"},"vehicle_type_id":"4","last_reported":1743012857,"current_range_meters":8000,"station_id":"ce4bha12rcd13ifvqee0","pricing_plan_id":"cebpf4jnsgd1na2vs0mg"},{"bike_id":"494edb5c-8886-472a-b4b2-0033adc0ccbd","system_id":"levelo_inurba_marseille","lat":43.23188,"lon":5.39985,"is_reserved":false,"is_disabled":false,"rental_uris":{"android":"levelo://app?vid=494edb5c-8886-472a-b4b2-0033adc0ccbd","ios":"levelo://app?vid=494edb5c-8886-472a-b4b2-0033adc0ccbd"},"vehicle_type_id":"4","last_reported":1743012857,"current_range_meters":8000,"station_id":"ce4bhn12rcd13ifvqgqg","pricing_plan_id":"cebpf4jnsgd1na2vs0mg"},{"bike_id":"d44a28db-b44d-481d-95f9-0b0dd176e09f","system_id":"levelo_inurba_marseille","lat":43.28928,"lon":5.39629,"is_reserved":false,"is_disabled":false,"rental_uris":{"android":"levelo://app?vid=d44a28db-b44d-481d-95f9-0b0dd176e09f","ios":"levelo://app?vid=d44a28db-b44d-481d-95f9-0b0dd176e09f"},"vehicle_type_id":"4","last_reported":1743012857,"current_range_meters":8000,"station_id":"ce4bh3h2rcd13ifvqdn0","pricing_plan_id":"cebpf4jnsgd1na2vs0mg"},{"bike_id":"316628de-9261-4f78-bc0d-0476a50caf90","system_id":"levelo_inurba_marseille","lat":43.29901,"lon":5.43686,"is_reserved":false,"is_disabled":false,"rental_uris":{"android":"levelo://app?vid=316628de-9261-4f78-bc0d-0476a50caf90","ios":"levelo://app?vid=316628de-9261-4f78-bc0d-0476a50caf90"},"vehicle_type_id":"4","last_reported":1743012857,"current_range_meters":6000,"station_id":"ce4bhpp2rcd13ifvqhfg","pricing_plan_id":"cebpf4jnsgd1na2vs0mg"},{"bike_id":"3caf9297-9162-427d-b86d-54632f9b80d9","system_id":"levelo_inurba_marseille","lat":43.27849,"lon":5.40719,"is_reserved":false,"is_disabled":false,"rental_uris":{"android":"levelo://app?vid=3caf9297-9162-427d-b86d-54632f9b80d9","ios":"levelo://app?vid=3caf9297-9162-427d-b86d-54632f9b80d9"},"vehicle_type_id":"4","last_reported":1743012857,"current_range_meters":8000,"station_id":"ce4bhnh2rcd13ifvqgtg","pricing_plan_id":"cebpf4jnsgd1na2vs0mg"},{"bike_id":"34f9114a-5fea-45cc-ac77-851e0e916817","system_id":"levelo_inurba_marseille","lat":43.28425,"lon":5.34974,"is_reserved":false,"is_disabled":false,"rental_uris":{"android":"levelo://app?vid=34f9114a-5fea-45cc-ac77-851e0e916817","ios":"levelo://app?vid=34f9114a-5fea-45cc-ac77-851e0e916817"},"vehicle_type_id":"4","last_reported":1743012857,"current_range_meters":8000,"station_id":"ce4bhbh2rcd13ifvqepg","pricing_plan_id":"cebpf4jnsgd1na2vs0mg"},{"bike_id":"1961f53f-a881-4883-88e2-904c2510a711","system_id":"levelo_inurba_marseille","lat":43.22934,"lon":5.35377,"is_reserved":false,"is_disabled":false,"rental_uris":{"android":"levelo://app?vid=1961f53f-a881-4883-88e2-904c2510a711","ios":"levelo://app?vid=1961f53f-a881-4883-88e2-904c2510a711"},"vehicle_type_id":"4","last_reported":1743012857,"current_range_meters":8000,"station_id":"cpo3532slgdg3j2ikp40","pricing_plan_id":"cebpf4jnsgd1na2vs0mg"},{"bike_id":"ecfbe1b6-91a4-4967-b2f4-1915901f3187","system_id":"levelo_inurba_marseille","lat":43.31746,"lon":5.39013,"is_reserved":false,"is_disabled":false,"rental_uris":{"android":"levelo://app?vid=ecfbe1b6-91a4-4967-b2f4-1915901f3187","ios":"levelo://app?vid=ecfbe1b6-91a4-4967-b2f4-1915901f3187"},"vehicle_type_id":"4","last_reported":1743012857,"current_range_meters":8400,"station_id":"ce4bhqp2rcd13ifvqhng","pricing_plan_id":"cebpf4jnsgd1na2vs0mg"},{"bike_id":"bd2e0895-9786-4c02-a9c5-d35e429e7143","system_id":"levelo_inurba_marseille","lat":43.3088,"lon":5.39666,"is_reserved":false,"is_disabled":false,"rental_uris":{"android":"levelo://app?vid=bd2e0895-9786-4c02-a9c5-d35e429e7143","ios":"levelo://app?vid=bd2e0895-9786-4c02-a9c5-d35e429e7143"},"vehicle_type_id":"4","last_reported":1743012857,"current_range_meters":8400,"station_id":"ce4bh012rcd13ifvqcv0","pricing_plan_id":"cebpf4jnsgd1na2vs0mg"},{"bike_id":"589f1146-20bc-4a88-9ab7-60ee275b3000","system_id":"levelo_inurba_marseille","lat":43.29701,"lon":5.38015,"is_reserved":false,"is_disabled":false,"rental_uris":{"android":"levelo://app?vid=589f1146-20bc-4a88-9ab7-60ee275b3000","ios":"levelo://app?vid=589f1146-20bc-4a88-9ab7-60ee275b3000"},"vehicle_type_id":"4","last_reported":1743012857,"current_range_meters":8400,"station_id":"","pricing_plan_id":"cebpf4jnsgd1na2vs0mg"},{"bike_id":"750a715a-987f-426a-b5c3-6fe8e2d9a5bb","system_id":"levelo_inurba_marseille","lat":43.29975,"lon":5.3718,"is_reserved":false,"is_disabled":false,"rental_uris":{"android":"levelo://app?vid=750a715a-987f-426a-b5c3-6fe8e2d9a5bb","ios":"levelo://app?vid=750a715a-987f-426a-b5c3-6fe8e2d9a5bb"},"vehicle_type_id":"4","last_reported":1743012857,"current_range_meters":8400,"station_id":"ce4bgr92rcd13ifvqc7g","pricing_plan_id":"cebpf4jnsgd1na2vs0mg"},{"bike_id":"89a10441-2cca-4b2c-836c-0a18003fa992","system_id":"levelo_inurba_marseille","lat":43.27555,"lon":5.3843,"is_reserved":false,"is_disabled":false,"rental_uris":{"android":"levelo://app?vid=89a10441-2cca-4b2c-836c-0a18003fa992","ios":"levelo://app?vid=89a10441-2cca-4b2c-836c-0a18003fa992"},"vehicle_type_id":"4","last_reported":1743012857,"current_range_meters":8400,"station_id":"ce4bhh92rcd13ifvqfi0","pricing_plan_id":"cebpf4jnsgd1na2vs0mg"},{"bike_id":"73dc8956-7699-40be-9782-c32629eae65d","system_id":"levelo_inurba_marseille","lat":43.24093,"lon":5.37814,"is_reserved":false,"is_disabled":false,"rental_uris":{"android":"levelo://app?vid=73dc8956-7699-40be-9782-c32629eae65d","ios":"levelo://app?vid=73dc8956-7699-40be-9782-c32629eae65d"},"vehicle_type_id":"4","last_reported":1743012857,"current_range_meters":8400,"station_id":"ce4bhnp2rcd13ifvqgvg","pricing_plan_id":"cebpf4jnsgd1na2vs0mg"},{"bike_id":"4d6d8a3e-5cdb-4d7b-bbad-abcfee7897a7","system_id":"levelo_inurba_marseille","lat":43.28037,"lon":5.36947,"is_reserved":false,"is_disabled":false,"rental_uris":{"android":"levelo://app?vid=4d6d8a3e-5cdb-4d7b-bbad-abcfee7897a7","ios":"levelo://app?vid=4d6d8a3e-5cdb-4d7b-bbad-abcfee7897a7"},"vehicle_type_id":"4","last_reported":1743012857,"current_range_meters":8400,"station_id":"ce4bha12rcd13ifvqef0","pricing_plan_id":"cebpf4jnsgd1na2vs0mg"},{"bike_id":"798de44e-9a45-45d4-8908-96ae4babc249","system_id":"levelo_inurba_marseille","lat":43.26943,"lon":5.40259,"is_reserved":false,"is_disabled":false,"rental_uris":{"android":"levelo://app?vid=798de44e-9a45-45d4-8908-96ae4babc249","ios":"levelo://app?vid=798de44e-9a45-45d4-8908-96ae4babc249"},"vehicle_type_id":"4","last_reported":1743012857,"current_range_meters":8400,"station_id":"cjm6bp8fraef2m0cb0m0","pricing_plan_id":"cebpf4jnsgd1na2vs0mg"},{"bike_id":"1cb2e6d2-12ad-4aa8-ac31-2e07713d77f5","system_id":"levelo_inurba_marseille","lat":43.2894,"lon":5.36655,"is_reserved":false,"is_disabled":false,"rental_uris":{"android":"levelo://app?vid=1cb2e6d2-12ad-4aa8-ac31-2e07713d77f5","ios":"levelo://app?vid=1cb2e6d2-12ad-4aa8-ac31-2e07713d77f5"},"vehicle_type_id":"4","last_reported":1743012857,"current_range_meters":8400,"station_id":"ce4bhap2rcd13ifvqek0","pricing_plan_id":"cebpf4jnsgd1na2vs0mg"},{"bike_id":"3fc18930-4648-4d60-8073-16361ec6c6f8","system_id":"levelo_inurba_marseille","lat":43.285919,"lon":5.350935,"is_reserved":false,"is_disabled":false,"rental_uris":{"android":"levelo://app?vid=3fc18930-4648-4d60-8073-16361ec6c6f8","ios":"levelo://app?vid=3fc18930-4648-4d60-8073-16361ec6c6f8"},"vehicle_type_id":"4","last_reported":1743012857,"current_range_meters":8400,"station_id":"ce4bhah2rcd13ifvqei0","pricing_plan_id":"cebpf4jnsgd1na2vs0mg"},{"bike_id":"dac8ef24-ee20-4f8d-b87e-84ecbdaa1abc","system_id":"levelo_inurba_marseille","lat":43.297951,"lon":5.380924,"is_reserved":false,"is_disabled":false,"rental_uris":{"android":"levelo://app?vid=dac8ef24-ee20-4f8d-b87e-84ecbdaa1abc","ios":"levelo://app?vid=dac8ef24-ee20-4f8d-b87e-84ecbdaa1abc"},"vehicle_type_id":"4","last_reported":1743012857,"current_range_meters":8400,"station_id":"ce4bgip2rcd13ifvqbb0","pricing_plan_id":"cebpf4jnsgd1na2vs0mg"},{"bike_id":"af4050c9-a7cf-408e-872c-b27ea54565e2","system_id":"levelo_inurba_marseille","lat":43.27977,"lon":5.38742,"is_reserved":false,"is_disabled":false,"rental_uris":{"android":"levelo://app?vid=af4050c9-a7cf-408e-872c-b27ea54565e2","ios":"levelo://app?vid=af4050c9-a7cf-408e-872c-b27ea54565e2"},"vehicle_type_id":"4","last_reported":1743012857,"current_range_meters":8400,"station_id":"ce4bhg12rcd13ifvqf80","pricing_plan_id":"cebpf4jnsgd1na2vs0mg"},{"bike_id":"1c39f7f8-e8aa-4591-bb60-c97f5a56995d","system_id":"levelo_inurba_marseille","lat":43.25505,"lon":5.37648,"is_reserved":false,"is_disabled":false,"rental_uris":{"android":"levelo://app?vid=1c39f7f8-e8aa-4591-bb60-c97f5a56995d","ios":"levelo://app?vid=1c39f7f8-e8aa-4591-bb60-c97f5a56995d"},"vehicle_type_id":"4","last_reported":1743012857,"current_range_meters":8000,"station_id":"ce4bhh12rcd13ifvqff0","pricing_plan_id":"cebpf4jnsgd1na2vs0mg"},{"bike_id":"ee28380f-2566-499f-8ab8-5a75cb1ed72f","system_id":"levelo_inurba_marseille","lat":43.288329,"lon":5.393258,"is_reserved":false,"is_disabled":true,"rental_uris":{"android":"levelo://app?vid=ee28380f-2566-499f-8ab8-5a75cb1ed72f","ios":"levelo://app?vid=ee28380f-2566-499f-8ab8-5a75cb1ed72f"},"vehicle_type_id":"4","last_reported":1743012857,"current_range_meters":8400,"station_id":"","pricing_plan_id":"cebpf4jnsgd1na2vs0mg"},{"bike_id":"d0bb1735-3609-49dc-92f0-021ea71c64bb","system_id":"levelo_inurba_marseille","lat":43.29975,"lon":5.38488,"is_reserved":false,"is_disabled":false,"rental_uris":{"android":"levelo://app?vid=d0bb1735-3609-49dc-92f0-021ea71c64bb","ios":"levelo://app?vid=d0bb1735-3609-49dc-92f0-021ea71c64bb"},"vehicle_type_id":"4","last_reported":1743012857,"current_range_meters":8400,"station_id":"ce4bgj92rcd13ifvqbd0","pricing_plan_id":"cebpf4jnsgd1na2vs0mg"},{"bike_id":"522e5e2e-88b7-4ef8-83ba-7b4f6430da5b","system_id":"levelo_inurba_marseille","lat":43.2582,"lon":5.39434,"is_reserved":false,"is_disabled":false,"rental_uris":{"android":"levelo://app?vid=522e5e2e-88b7-4ef8-83ba-7b4f6430da5b","ios":"levelo://app?vid=522e5e2e-88b7-4ef8-83ba-7b4f6430da5b"},"vehicle_type_id":"4","last_reported":1743012857,"current_range_meters":8800,"station_id":"ce4bhip2rcd13ifvqft0","pricing_plan_id":"cebpf4jnsgd1na2vs0mg"},{"bike_id":"469051bc-d976-4897-8f9f-90e20c52be7c","system_id":"levelo_inurba_marseille","lat":43.29602,"lon":5.37718,"is_reserved":false,"is_disabled":false,"rental_uris":{"android":"levelo://app?vid=469051bc-d976-4897-8f9f-90e20c52be7c","ios":"levelo://app?vid=469051bc-d976-4897-8f9f-90e20c52be7c"},"vehicle_type_id":"4","last_reported":1743012857,"current_range_meters":8800,"station_id":"ce4bgi92rcd13ifvqb90","pricing_plan_id":"cebpf4jnsgd1na2vs0mg"},{"bike_id":"a01a2189-8b32-4968-87fa-f3888542280a","system_id":"levelo_inurba_marseille","lat":43.28705,"lon":5.37397,"is_reserved":false,"is_disabled":false,"rental_uris":{"android":"levelo://app?vid=a01a2189-8b32-4968-87fa-f3888542280a","ios":"levelo://app?vid=a01a2189-8b32-4968-87fa-f3888542280a"},"vehicle_type_id":"4","last_reported":1743012857,"current_range_meters":8800,"station_id":"ce4bh3p2rcd13ifvqdq0","pricing_plan_id":"cebpf4jnsgd1na2vs0mg"},{"bike_id":"8ee8e463-5f46-4263-91c4-e926a5f2f746","system_id":"levelo_inurba_marseille","lat":43.28934,"lon":5.36644,"is_reserved":false,"is_disabled":false,"rental_uris":{"android":"levelo://app?vid=8ee8e463-5f46-4263-91c4-e926a5f2f746","ios":"levelo://app?vid=8ee8e463-5f46-4263-91c4-e926a5f2f746"},"vehicle_type_id":"4","last_reported":1743012857,"current_range_meters":8800,"station_id":"ce4bhap2rcd13ifvqek0","pricing_plan_id":"cebpf4jnsgd1na2vs0mg"},{"bike_id":"f331f4a0-921f-47e2-bc64-3b6ed88b17e3","system_id":"levelo_inurba_marseille","lat":43.27166,"lon":5.41,"is_reserved":false,"is_disabled":false,"rental_uris":{"android":"levelo://app?vid=f331f4a0-921f-47e2-bc64-3b6ed88b17e3","ios":"levelo://app?vid=f331f4a0-921f-47e2-bc64-3b6ed88b17e3"},"vehicle_type_id":"4","last_reported":1743012857,"current_range_meters":8800,"station_id":"ce4bhl12rcd13ifvqgf0","pricing_plan_id":"cebpf4jnsgd1na2vs0mg"},{"bike_id":"8a9602e7-e6f2-4dac-845f-cea224e49dd5","system_id":"levelo_inurba_marseille","lat":43.23062,"lon":5.35493,"is_reserved":false,"is_disabled":false,"rental_uris":{"android":"levelo://app?vid=8a9602e7-e6f2-4dac-845f-cea224e49dd5","ios":"levelo://app?vid=8a9602e7-e6f2-4dac-845f-cea224e49dd5"},"vehicle_type_id":"4","last_reported":1743012857,"current_range_meters":8800,"station_id":"cpo3342slgdg3j2ifvpg","pricing_plan_id":"cebpf4jnsgd1na2vs0mg"},{"bike_id":"bdd21a82-81b9-4898-aa0c-24565ac38cf5","system_id":"levelo_inurba_marseille","lat":43.29249,"lon":5.40912,"is_reserved":false,"is_disabled":false,"rental_uris":{"android":"levelo://app?vid=bdd21a82-81b9-4898-aa0c-24565ac38cf5","ios":"levelo://app?vid=bdd21a82-81b9-4898-aa0c-24565ac38cf5"},"vehicle_type_id":"4","last_reported":1743012857,"current_range_meters":8800,"station_id":"ce4bh192rcd13ifvqdc0","pricing_plan_id":"cebpf4jnsgd1na2vs0mg"},{"bike_id":"e9b85cc8-26bd-44ab-91d4-3c1aa5f2a727","system_id":"levelo_inurba_marseille","lat":43.27499,"lon":5.42448,"is_reserved":false,"is_disabled":false,"rental_uris":{"android":"levelo://app?vid=e9b85cc8-26bd-44ab-91d4-3c1aa5f2a727","ios":"levelo://app?vid=e9b85cc8-26bd-44ab-91d4-3c1aa5f2a727"},"vehicle_type_id":"4","last_reported":1743012857,"current_range_meters":8800,"station_id":"ce4bhn92rcd13ifvqgrg","pricing_plan_id":"cebpf4jnsgd1na2vs0mg"},{"bike_id":"dc5d0d5b-0aa5-44ef-9046-b7d92a5ad9e5","system_id":"levelo_inurba_marseille","lat":43.31327,"lon":5.39691,"is_reserved":false,"is_disabled":false,"rental_uris":{"android":"levelo://app?vid=dc5d0d5b-0aa5-44ef-9046-b7d92a5ad9e5","ios":"levelo://app?vid=dc5d0d5b-0aa5-44ef-9046-b7d92a5ad9e5"},"vehicle_type_id":"4","last_reported":1743012857,"current_range_meters":8800,"station_id":"ce4bgvp2rcd13ifvqcu0","pricing_plan_id":"cebpf4jnsgd1na2vs0mg"},{"bike_id":"f5eba3ce-1f07-4e08-918f-dc60901b422b","system_id":"levelo_inurba_marseille","lat":43.27608,"lon":5.36117,"is_reserved":false,"is_disabled":false,"rental_uris":{"android":"levelo://app?vid=f5eba3ce-1f07-4e08-918f-dc60901b422b","ios":"levelo://app?vid=f5eba3ce-1f07-4e08-918f-dc60901b422b"},"vehicle_type_id":"4","last_reported":1743012857,"current_range_meters":8800,"station_id":"ce4bgj92rcd13ifvqbe0","pricing_plan_id":"cebpf4jnsgd1na2vs0mg"},{"bike_id":"8fd04141-befd-4500-b267-ba88e1255e11","system_id":"levelo_inurba_marseille","lat":43.298802,"lon":5.389022,"is_reserved":false,"is_disabled":false,"rental_uris":{"android":"levelo://app?vid=8fd04141-befd-4500-b267-ba88e1255e11","ios":"levelo://app?vid=8fd04141-befd-4500-b267-ba88e1255e11"},"vehicle_type_id":"4","last_reported":1743012857,"current_range_meters":8800,"station_id":"ce4bh392rcd13ifvqdl0","pricing_plan_id":"cebpf4jnsgd1na2vs0mg"},{"bike_id":"573087b6-76af-4403-a986-3833782f0927","system_id":"levelo_inurba_marseille","lat":43.23197,"lon":5.39983,"is_reserved":false,"is_disabled":false,"rental_uris":{"android":"levelo://app?vid=573087b6-76af-4403-a986-3833782f0927","ios":"levelo://app?vid=573087b6-76af-4403-a986-3833782f0927"},"vehicle_type_id":"4","last_reported":1743012857,"current_range_meters":8800,"station_id":"ce4bhn12rcd13ifvqgqg","pricing_plan_id":"cebpf4jnsgd1na2vs0mg"},{"bike_id":"efbcaaa6-b11f-400a-9240-cc4b1a3b098a","system_id":"levelo_inurba_marseille","lat":43.306,"lon":5.39366,"is_reserved":false,"is_disabled":true,"rental_uris":{"android":"levelo://app?vid=efbcaaa6-b11f-400a-9240-cc4b1a3b098a","ios":"levelo://app?vid=efbcaaa6-b11f-400a-9240-cc4b1a3b098a"},"vehicle_type_id":"4","last_reported":1743012857,"current_range_meters":8800,"station_id":"ce4bh0p2rcd13ifvqd80","pricing_plan_id":"cebpf4jnsgd1na2vs0mg"},{"bike_id":"2f4c381f-e5ff-4c29-b578-94a61d0fc0da","system_id":"levelo_inurba_marseille","lat":43.29629,"lon":5.406,"is_reserved":false,"is_disabled":false,"rental_uris":{"android":"levelo://app?vid=2f4c381f-e5ff-4c29-b578-94a61d0fc0da","ios":"levelo://app?vid=2f4c381f-e5ff-4c29-b578-94a61d0fc0da"},"vehicle_type_id":"4","last_reported":1743012857,"current_range_meters":9200,"station_id":"ce4bh0h2rcd13ifvqd60","pricing_plan_id":"cebpf4jnsgd1na2vs0mg"},{"bike_id":"8e1b69fe-38a9-404e-9145-427fd10d244c","system_id":"levelo_inurba_marseille","lat":43.28417,"lon":5.34969,"is_reserved":false,"is_disabled":false,"rental_uris":{"android":"levelo://app?vid=8e1b69fe-38a9-404e-9145-427fd10d244c","ios":"levelo://app?vid=8e1b69fe-38a9-404e-9145-427fd10d244c"},"vehicle_type_id":"4","last_reported":1743012857,"current_range_meters":9200,"station_id":"ce4bhbh2rcd13ifvqepg","pricing_plan_id":"cebpf4jnsgd1na2vs0mg"},{"bike_id":"c80aa782-5a1c-49dc-82a9-5a6684179a01","system_id":"levelo_inurba_marseille","lat":43.281113,"lon":5.378423,"is_reserved":false,"is_disabled":false,"rental_uris":{"android":"levelo://app?vid=c80aa782-5a1c-49dc-82a9-5a6684179a01","ios":"levelo://app?vid=c80aa782-5a1c-49dc-82a9-5a6684179a01"},"vehicle_type_id":"4","last_reported":1743012857,"current_range_meters":9200,"station_id":"ce4bha12rcd13ifvqee0","pricing_plan_id":"cebpf4jnsgd1na2vs0mg"},{"bike_id":"94506505-2fcc-41e6-9625-b8826d1b4d3e","system_id":"levelo_inurba_marseille","lat":43.27821,"lon":5.40711,"is_reserved":false,"is_disabled":false,"rental_uris":{"android":"levelo://app?vid=94506505-2fcc-41e6-9625-b8826d1b4d3e","ios":"levelo://app?vid=94506505-2fcc-41e6-9625-b8826d1b4d3e"},"vehicle_type_id":"4","last_reported":1743012857,"current_range_meters":9200,"station_id":"ce4bhnh2rcd13ifvqgtg","pricing_plan_id":"cebpf4jnsgd1na2vs0mg"},{"bike_id":"3113e899-9f91-49de-90fe-fbd7a5add133","system_id":"levelo_inurba_marseille","lat":43.284208,"lon":5.350034,"is_reserved":false,"is_disabled":false,"rental_uris":{"android":"levelo://app?vid=3113e899-9f91-49de-90fe-fbd7a5add133","ios":"levelo://app?vid=3113e899-9f91-49de-90fe-fbd7a5add133"},"vehicle_type_id":"4","last_reported":1743012857,"current_range_meters":9200,"station_id":"ce4bhbh2rcd13ifvqepg","pricing_plan_id":"cebpf4jnsgd1na2vs0mg"},{"bike_id":"01cbffb0-3fb0-4769-96f8-4c2dd20b8277","system_id":"levelo_inurba_marseille","lat":43.28537,"lon":5.4056,"is_reserved":false,"is_disabled":false,"rental_uris":{"android":"levelo://app?vid=01cbffb0-3fb0-4769-96f8-4c2dd20b8277","ios":"levelo://app?vid=01cbffb0-3fb0-4769-96f8-4c2dd20b8277"},"vehicle_type_id":"4","last_reported":1743012857,"current_range_meters":9200,"station_id":"","pricing_plan_id":"cebpf4jnsgd1na2vs0mg"},{"bike_id":"7df353b8-f980-43ee-9fc4-091973d7ac74","system_id":"levelo_inurba_marseille","lat":43.29614,"lon":5.37699,"is_reserved":false,"is_disabled":false,"rental_uris":{"android":"levelo://app?vid=7df353b8-f980-43ee-9fc4-091973d7ac74","ios":"levelo://app?vid=7df353b8-f980-43ee-9fc4-091973d7ac74"},"vehicle_type_id":"4","last_reported":1743012857,"current_range_meters":9200,"station_id":"ce4bgi92rcd13ifvqb90","pricing_plan_id":"cebpf4jnsgd1na2vs0mg"},{"bike_id":"3b2e9843-b1c3-484f-9767-13bc20f0e0c2","system_id":"levelo_inurba_marseille","lat":43.29422,"lon":5.38617,"is_reserved":false,"is_disabled":false,"rental_uris":{"android":"levelo://app?vid=3b2e9843-b1c3-484f-9767-13bc20f0e0c2","ios":"levelo://app?vid=3b2e9843-b1c3-484f-9767-13bc20f0e0c2"},"vehicle_type_id":"4","last_reported":1743012857,"current_range_meters":9200,"station_id":"ce4bh2h2rcd13ifvqdh0","pricing_plan_id":"cebpf4jnsgd1na2vs0mg"},{"bike_id":"974f5876-effd-44d0-911c-76ea7a107a8c","system_id":"levelo_inurba_marseille","lat":43.33361,"lon":5.36,"is_reserved":false,"is_disabled":false,"rental_uris":{"android":"levelo://app?vid=974f5876-effd-44d0-911c-76ea7a107a8c","ios":"levelo://app?vid=974f5876-effd-44d0-911c-76ea7a107a8c"},"vehicle_type_id":"4","last_reported":1743012857,"current_range_meters":9200,"station_id":"","pricing_plan_id":"cebpf4jnsgd1na2vs0mg"},{"bike_id":"ed36267b-db3d-423e-bbf6-c20050e7c53d","system_id":"levelo_inurba_marseille","lat":43.31141,"lon":5.37777,"is_reserved":false,"is_disabled":false,"rental_uris":{"android":"levelo://app?vid=ed36267b-db3d-423e-bbf6-c20050e7c53d","ios":"levelo://app?vid=ed36267b-db3d-423e-bbf6-c20050e7c53d"},"vehicle_type_id":"4","last_reported":1743012857,"current_range_meters":9200,"station_id":"ce4bgt92rcd13ifvqcg0","pricing_plan_id":"cebpf4jnsgd1na2vs0mg"},{"bike_id":"d72aac44-de5c-4af7-adb8-3c17ef2abe13","system_id":"levelo_inurba_marseille","lat":43.29558,"lon":5.42293,"is_reserved":false,"is_disabled":false,"rental_uris":{"android":"levelo://app?vid=d72aac44-de5c-4af7-adb8-3c17ef2abe13","ios":"levelo://app?vid=d72aac44-de5c-4af7-adb8-3c17ef2abe13"},"vehicle_type_id":"4","last_reported":1743012857,"current_range_meters":9200,"station_id":"ce4bhph2rcd13ifvqhdg","pricing_plan_id":"cebpf4jnsgd1na2vs0mg"},{"bike_id":"f408b4d4-0f69-4a55-bf3a-3c3c8e1647f7","system_id":"levelo_inurba_marseille","lat":43.23179,"lon":5.39995,"is_reserved":false,"is_disabled":false,"rental_uris":{"android":"levelo://app?vid=f408b4d4-0f69-4a55-bf3a-3c3c8e1647f7","ios":"levelo://app?vid=f408b4d4-0f69-4a55-bf3a-3c3c8e1647f7"},"vehicle_type_id":"4","last_reported":1743012857,"current_range_meters":9200,"station_id":"ce4bhn12rcd13ifvqgqg","pricing_plan_id":"cebpf4jnsgd1na2vs0mg"},{"bike_id":"8de7059d-00de-4eed-a842-00ac61b0e1a8","system_id":"levelo_inurba_marseille","lat":43.295964,"lon":5.380888,"is_reserved":false,"is_disabled":true,"rental_uris":{"android":"levelo://app?vid=8de7059d-00de-4eed-a842-00ac61b0e1a8","ios":"levelo://app?vid=8de7059d-00de-4eed-a842-00ac61b0e1a8"},"vehicle_type_id":"4","last_reported":1743012857,"current_range_meters":9600,"station_id":"ce4bgl12rcd13ifvqbo0","pricing_plan_id":"cebpf4jnsgd1na2vs0mg"},{"bike_id":"ad3a09d6-8194-4bae-a5b1-51b443e279f8","system_id":"levelo_inurba_marseille","lat":43.22927,"lon":5.35401,"is_reserved":false,"is_disabled":false,"rental_uris":{"android":"levelo://app?vid=ad3a09d6-8194-4bae-a5b1-51b443e279f8","ios":"levelo://app?vid=ad3a09d6-8194-4bae-a5b1-51b443e279f8"},"vehicle_type_id":"4","last_reported":1743012857,"current_range_meters":9600,"station_id":"cpo3532slgdg3j2ikp40","pricing_plan_id":"cebpf4jnsgd1na2vs0mg"},{"bike_id":"423b550e-5838-49de-b6dd-8067190908f8","system_id":"levelo_inurba_marseille","lat":43.28443,"lon":5.39198,"is_reserved":false,"is_disabled":false,"rental_uris":{"android":"levelo://app?vid=423b550e-5838-49de-b6dd-8067190908f8","ios":"levelo://app?vid=423b550e-5838-49de-b6dd-8067190908f8"},"vehicle_type_id":"4","last_reported":1743012857,"current_range_meters":9600,"station_id":"ce4bhoh2rcd13ifvqh5g","pricing_plan_id":"cebpf4jnsgd1na2vs0mg"},{"bike_id":"7f7bfa8d-da77-4e2c-bb94-7f814e0ab10e","system_id":"levelo_inurba_marseille","lat":43.29266,"lon":5.38439,"is_reserved":false,"is_disabled":false,"rental_uris":{"android":"levelo://app?vid=7f7bfa8d-da77-4e2c-bb94-7f814e0ab10e","ios":"levelo://app?vid=7f7bfa8d-da77-4e2c-bb94-7f814e0ab10e"},"vehicle_type_id":"4","last_reported":1743012857,"current_range_meters":9200,"station_id":"ce4bgqh2rcd13ifvqc4g","pricing_plan_id":"cebpf4jnsgd1na2vs0mg"},{"bike_id":"84a7a785-5392-42bc-8088-fb903bcc7f5c","system_id":"levelo_inurba_marseille","lat":43.23073,"lon":5.35475,"is_reserved":false,"is_disabled":false,"rental_uris":{"android":"levelo://app?vid=84a7a785-5392-42bc-8088-fb903bcc7f5c","ios":"levelo://app?vid=84a7a785-5392-42bc-8088-fb903bcc7f5c"},"vehicle_type_id":"4","last_reported":1743012857,"current_range_meters":9600,"station_id":"cpo3342slgdg3j2ifvpg","pricing_plan_id":"cebpf4jnsgd1na2vs0mg"},{"bike_id":"96a27168-2f25-429f-8a39-a1217dd3040b","system_id":"levelo_inurba_marseille","lat":43.296112,"lon":5.37742,"is_reserved":false,"is_disabled":false,"rental_uris":{"android":"levelo://app?vid=96a27168-2f25-429f-8a39-a1217dd3040b","ios":"levelo://app?vid=96a27168-2f25-429f-8a39-a1217dd3040b"},"vehicle_type_id":"4","last_reported":1743012857,"current_range_meters":9200,"station_id":"ce4bgph2rcd13ifvqc2g","pricing_plan_id":"cebpf4jnsgd1na2vs0mg"},{"bike_id":"9426c127-1289-47cb-bd93-5a63baed3540","system_id":"levelo_inurba_marseille","lat":43.32292,"lon":5.38273,"is_reserved":false,"is_disabled":false,"rental_uris":{"android":"levelo://app?vid=9426c127-1289-47cb-bd93-5a63baed3540","ios":"levelo://app?vid=9426c127-1289-47cb-bd93-5a63baed3540"},"vehicle_type_id":"4","last_reported":1743012857,"current_range_meters":9600,"station_id":"ce4bhr12rcd13ifvqhqg","pricing_plan_id":"cebpf4jnsgd1na2vs0mg"},{"bike_id":"d2ed6de1-542e-4d14-b594-eb2fe41d3d3b","system_id":"levelo_inurba_marseille","lat":43.31996,"lon":5.38168,"is_reserved":false,"is_disabled":false,"rental_uris":{"android":"levelo://app?vid=d2ed6de1-542e-4d14-b594-eb2fe41d3d3b","ios":"levelo://app?vid=d2ed6de1-542e-4d14-b594-eb2fe41d3d3b"},"vehicle_type_id":"4","last_reported":1743012857,"current_range_meters":9600,"station_id":"ce4bhr12rcd13ifvqhpg","pricing_plan_id":"cebpf4jnsgd1na2vs0mg"},{"bike_id":"0a6002c5-2e94-419c-9846-07e4397e2530","system_id":"levelo_inurba_marseille","lat":43.2582,"lon":5.39428,"is_reserved":false,"is_disabled":false,"rental_uris":{"android":"levelo://app?vid=0a6002c5-2e94-419c-9846-07e4397e2530","ios":"levelo://app?vid=0a6002c5-2e94-419c-9846-07e4397e2530"},"vehicle_type_id":"4","last_reported":1743012857,"current_range_meters":9600,"station_id":"ce4bhip2rcd13ifvqft0","pricing_plan_id":"cebpf4jnsgd1na2vs0mg"},{"bike_id":"8dd469b3-d13e-44bd-a408-89f0f553f689","system_id":"levelo_inurba_marseille","lat":43.245463,"lon":5.395209,"is_reserved":false,"is_disabled":false,"rental_uris":{"android":"levelo://app?vid=8dd469b3-d13e-44bd-a408-89f0f553f689","ios":"levelo://app?vid=8dd469b3-d13e-44bd-a408-89f0f553f689"},"vehicle_type_id":"4","last_reported":1743012857,"current_range_meters":9600,"station_id":"ce4bhlp2rcd13ifvqgjg","pricing_plan_id":"cebpf4jnsgd1na2vs0mg"},{"bike_id":"f867d9d0-d854-4068-adc1-3f79fd853241","system_id":"levelo_inurba_marseille","lat":43.29935,"lon":5.36547,"is_reserved":false,"is_disabled":false,"rental_uris":{"android":"levelo://app?vid=f867d9d0-d854-4068-adc1-3f79fd853241","ios":"levelo://app?vid=f867d9d0-d854-4068-adc1-3f79fd853241"},"vehicle_type_id":"4","last_reported":1743012857,"current_range_meters":9600,"station_id":"ce4bgm92rcd13ifvqbr0","pricing_plan_id":"cebpf4jnsgd1na2vs0mg"},{"bike_id":"5eaa1c72-3281-4981-beb8-111db4db70f3","system_id":"levelo_inurba_marseille","lat":43.29286,"lon":5.38437,"is_reserved":false,"is_disabled":false,"rental_uris":{"android":"levelo://app?vid=5eaa1c72-3281-4981-beb8-111db4db70f3","ios":"levelo://app?vid=5eaa1c72-3281-4981-beb8-111db4db70f3"},"vehicle_type_id":"4","last_reported":1743012857,"current_range_meters":9600,"station_id":"ce4bh692rcd13ifvqea0","pricing_plan_id":"cebpf4jnsgd1na2vs0mg"},{"bike_id":"faccecca-89c8-4b70-b16a-65711edcc11a","system_id":"levelo_inurba_marseille","lat":43.28445,"lon":5.35895,"is_reserved":false,"is_disabled":false,"rental_uris":{"android":"levelo://app?vid=faccecca-89c8-4b70-b16a-65711edcc11a","ios":"levelo://app?vid=faccecca-89c8-4b70-b16a-65711edcc11a"},"vehicle_type_id":"4","last_reported":1743012857,"current_range_meters":9600,"station_id":"ce4bhah2rcd13ifvqei0","pricing_plan_id":"cebpf4jnsgd1na2vs0mg"},{"bike_id":"5f18c038-0d3d-41e5-b03a-cf1226490d1b","system_id":"levelo_inurba_marseille","lat":43.29412,"lon":5.38603,"is_reserved":false,"is_disabled":false,"rental_uris":{"android":"levelo://app?vid=5f18c038-0d3d-41e5-b03a-cf1226490d1b","ios":"levelo://app?vid=5f18c038-0d3d-41e5-b03a-cf1226490d1b"},"vehicle_type_id":"4","last_reported":1743012857,"current_range_meters":9600,"station_id":"ce4bh2h2rcd13ifvqdh0","pricing_plan_id":"cebpf4jnsgd1na2vs0mg"},{"bike_id":"3a7633e4-5316-46aa-bc1e-54f7a453f0ce","system_id":"levelo_inurba_marseille","lat":43.29022,"lon":5.3813,"is_reserved":false,"is_disabled":false,"rental_uris":{"android":"levelo://app?vid=3a7633e4-5316-46aa-bc1e-54f7a453f0ce","ios":"levelo://app?vid=3a7633e4-5316-46aa-bc1e-54f7a453f0ce"},"vehicle_type_id":"4","last_reported":1743012857,"current_range_meters":9600,"station_id":"ce4bh4p2rcd13ifvqe1g","pricing_plan_id":"cebpf4jnsgd1na2vs0mg"},{"bike_id":"c833622d-4c6c-4efd-8569-960145f7d806","system_id":"levelo_inurba_marseille","lat":43.29594,"lon":5.37729,"is_reserved":false,"is_disabled":false,"rental_uris":{"android":"levelo://app?vid=c833622d-4c6c-4efd-8569-960145f7d806","ios":"levelo://app?vid=c833622d-4c6c-4efd-8569-960145f7d806"},"vehicle_type_id":"4","last_reported":1743012857,"current_range_meters":6800,"station_id":"ce4bgi92rcd13ifvqb90","pricing_plan_id":"cebpf4jnsgd1na2vs0mg"},{"bike_id":"e1a94426-9056-432b-b3cb-e235335ae079","system_id":"levelo_inurba_marseille","lat":43.29002,"lon":5.35614,"is_reserved":false,"is_disabled":false,"rental_uris":{"android":"levelo://app?vid=e1a94426-9056-432b-b3cb-e235335ae079","ios":"levelo://app?vid=e1a94426-9056-432b-b3cb-e235335ae079"},"vehicle_type_id":"4","last_reported":1743012857,"current_range_meters":10000,"station_id":"ce4bhb92rcd13ifvqen0","pricing_plan_id":"cebpf4jnsgd1na2vs0mg"},{"bike_id":"b418d168-f2ad-4db0-9a6f-e88743ba94c8","system_id":"levelo_inurba_marseille","lat":43.29252,"lon":5.37633,"is_reserved":false,"is_disabled":true,"rental_uris":{"android":"levelo://app?vid=b418d168-f2ad-4db0-9a6f-e88743ba94c8","ios":"levelo://app?vid=b418d168-f2ad-4db0-9a6f-e88743ba94c8"},"vehicle_type_id":"4","last_reported":1743012857,"current_range_meters":10000,"station_id":"ce4bgi12rcd13ifvqb80","pricing_plan_id":"cebpf4jnsgd1na2vs0mg"},{"bike_id":"ffaf6716-09fd-4ee2-be14-fe7fd975c6bd","system_id":"levelo_inurba_marseille","lat":43.27371,"lon":5.36257,"is_reserved":false,"is_disabled":false,"rental_uris":{"android":"levelo://app?vid=ffaf6716-09fd-4ee2-be14-fe7fd975c6bd","ios":"levelo://app?vid=ffaf6716-09fd-4ee2-be14-fe7fd975c6bd"},"vehicle_type_id":"4","last_reported":1743012857,"current_range_meters":10000,"station_id":"ce4bhbh2rcd13ifvqeo0","pricing_plan_id":"cebpf4jnsgd1na2vs0mg"},{"bike_id":"8704c9ee-44f4-45a5-975f-4d47ba8e16ca","system_id":"levelo_inurba_marseille","lat":43.2757,"lon":5.38418,"is_reserved":false,"is_disabled":false,"rental_uris":{"android":"levelo://app?vid=8704c9ee-44f4-45a5-975f-4d47ba8e16ca","ios":"levelo://app?vid=8704c9ee-44f4-45a5-975f-4d47ba8e16ca"},"vehicle_type_id":"4","last_reported":1743012857,"current_range_meters":10000,"station_id":"ce4bhh92rcd13ifvqfi0","pricing_plan_id":"cebpf4jnsgd1na2vs0mg"},{"bike_id":"0c69f3b7-201b-460a-8ed9-e61a7c7fe465","system_id":"levelo_inurba_marseille","lat":43.2903,"lon":5.35908,"is_reserved":false,"is_disabled":false,"rental_uris":{"android":"levelo://app?vid=0c69f3b7-201b-460a-8ed9-e61a7c7fe465","ios":"levelo://app?vid=0c69f3b7-201b-460a-8ed9-e61a7c7fe465"},"vehicle_type_id":"4","last_reported":1743012857,"current_range_meters":9600,"station_id":"ce4bha92rcd13ifvqeg0","pricing_plan_id":"cebpf4jnsgd1na2vs0mg"},{"bike_id":"887a7784-c70b-46f8-9882-d03745b5c9eb","system_id":"levelo_inurba_marseille","lat":43.31116,"lon":5.37776,"is_reserved":false,"is_disabled":false,"rental_uris":{"android":"levelo://app?vid=887a7784-c70b-46f8-9882-d03745b5c9eb","ios":"levelo://app?vid=887a7784-c70b-46f8-9882-d03745b5c9eb"},"vehicle_type_id":"4","last_reported":1743012857,"current_range_meters":10000,"station_id":"ce4bgt92rcd13ifvqcg0","pricing_plan_id":"cebpf4jnsgd1na2vs0mg"},{"bike_id":"4d12e12d-4e06-4701-a92b-3a4f958d3859","system_id":"levelo_inurba_marseille","lat":43.30135,"lon":5.39845,"is_reserved":false,"is_disabled":false,"rental_uris":{"android":"levelo://app?vid=4d12e12d-4e06-4701-a92b-3a4f958d3859","ios":"levelo://app?vid=4d12e12d-4e06-4701-a92b-3a4f958d3859"},"vehicle_type_id":"4","last_reported":1743012857,"current_range_meters":10000,"station_id":"ce4bh0h2rcd13ifvqd40","pricing_plan_id":"cebpf4jnsgd1na2vs0mg"},{"bike_id":"334f9a9a-ce99-4f58-b30f-c6cb8fa34a58","system_id":"levelo_inurba_marseille","lat":43.294175,"lon":5.386303,"is_reserved":false,"is_disabled":false,"rental_uris":{"android":"levelo://app?vid=334f9a9a-ce99-4f58-b30f-c6cb8fa34a58","ios":"levelo://app?vid=334f9a9a-ce99-4f58-b30f-c6cb8fa34a58"},"vehicle_type_id":"4","last_reported":1743012857,"current_range_meters":10000,"station_id":"ce4bh2h2rcd13ifvqdh0","pricing_plan_id":"cebpf4jnsgd1na2vs0mg"},{"bike_id":"4078052f-d341-4f83-abb8-99032eddb4c4","system_id":"levelo_inurba_marseille","lat":43.24177,"lon":5.39734,"is_reserved":false,"is_disabled":false,"rental_uris":{"android":"levelo://app?vid=4078052f-d341-4f83-abb8-99032eddb4c4","ios":"levelo://app?vid=4078052f-d341-4f83-abb8-99032eddb4c4"},"vehicle_type_id":"4","last_reported":1743012857,"current_range_meters":10000,"station_id":"ce4bhn12rcd13ifvqgpg","pricing_plan_id":"cebpf4jnsgd1na2vs0mg"},{"bike_id":"a3581d99-7175-4d7f-ae46-7197148d1b7a","system_id":"levelo_inurba_marseille","lat":43.28402,"lon":5.34988,"is_reserved":false,"is_disabled":false,"rental_uris":{"android":"levelo://app?vid=a3581d99-7175-4d7f-ae46-7197148d1b7a","ios":"levelo://app?vid=a3581d99-7175-4d7f-ae46-7197148d1b7a"},"vehicle_type_id":"4","last_reported":1743012857,"current_range_meters":10000,"station_id":"ce4bhbh2rcd13ifvqepg","pricing_plan_id":"cebpf4jnsgd1na2vs0mg"},{"bike_id":"ea724819-3449-4f7d-b9fa-4d111a045313","system_id":"levelo_inurba_marseille","lat":43.30145,"lon":5.38773,"is_reserved":false,"is_disabled":false,"rental_uris":{"android":"levelo://app?vid=ea724819-3449-4f7d-b9fa-4d111a045313","ios":"levelo://app?vid=ea724819-3449-4f7d-b9fa-4d111a045313"},"vehicle_type_id":"4","last_reported":1743012857,"current_range_meters":10000,"station_id":"ce4bghh2rcd13ifvqb60","pricing_plan_id":"cebpf4jnsgd1na2vs0mg"},{"bike_id":"ccdfac36-22da-4f2d-bd50-7bf147cc0fff","system_id":"levelo_inurba_marseille","lat":43.298977,"lon":5.43664,"is_reserved":false,"is_disabled":false,"rental_uris":{"android":"levelo://app?vid=ccdfac36-22da-4f2d-bd50-7bf147cc0fff","ios":"levelo://app?vid=ccdfac36-22da-4f2d-bd50-7bf147cc0fff"},"vehicle_type_id":"4","last_reported":1743012857,"current_range_meters":10800,"station_id":"ce4bhpp2rcd13ifvqhfg","pricing_plan_id":"cebpf4jnsgd1na2vs0mg"},{"bike_id":"57df1fa5-770d-45cf-aff8-b50bc3b923f9","system_id":"levelo_inurba_marseille","lat":43.30265,"lon":5.4008,"is_reserved":false,"is_disabled":false,"rental_uris":{"android":"levelo://app?vid=57df1fa5-770d-45cf-aff8-b50bc3b923f9","ios":"levelo://app?vid=57df1fa5-770d-45cf-aff8-b50bc3b923f9"},"vehicle_type_id":"4","last_reported":1743012857,"current_range_meters":10000,"station_id":"ce4bgvh2rcd13ifvqcs0","pricing_plan_id":"cebpf4jnsgd1na2vs0mg"},{"bike_id":"68664748-53bb-4ce6-b583-334399786fed","system_id":"levelo_inurba_marseille","lat":43.28,"lon":5.40011,"is_reserved":false,"is_disabled":false,"rental_uris":{"android":"levelo://app?vid=68664748-53bb-4ce6-b583-334399786fed","ios":"levelo://app?vid=68664748-53bb-4ce6-b583-334399786fed"},"vehicle_type_id":"4","last_reported":1743012857,"current_range_meters":10800,"station_id":"ce4bho92rcd13ifvqh4g","pricing_plan_id":"cebpf4jnsgd1na2vs0mg"},{"bike_id":"982078bf-af01-4919-807c-17a97322ab9e","system_id":"levelo_inurba_marseille","lat":43.3031,"lon":5.36901,"is_reserved":false,"is_disabled":false,"rental_uris":{"android":"levelo://app?vid=982078bf-af01-4919-807c-17a97322ab9e","ios":"levelo://app?vid=982078bf-af01-4919-807c-17a97322ab9e"},"vehicle_type_id":"4","last_reported":1743012857,"current_range_meters":10800,"station_id":"ce4bgqh2rcd13ifvqc5g","pricing_plan_id":"cebpf4jnsgd1na2vs0mg"},{"bike_id":"818cfe2a-3205-453a-a960-4ebf1f298656","system_id":"levelo_inurba_marseille","lat":43.26688,"lon":5.38276,"is_reserved":false,"is_disabled":true,"rental_uris":{"android":"levelo://app?vid=818cfe2a-3205-453a-a960-4ebf1f298656","ios":"levelo://app?vid=818cfe2a-3205-453a-a960-4ebf1f298656"},"vehicle_type_id":"4","last_reported":1743012857,"current_range_meters":10800,"station_id":"ce4bhg92rcd13ifvqf90","pricing_plan_id":"cebpf4jnsgd1na2vs0mg"},{"bike_id":"8776e27b-0f90-41ea-ba59-3697a608b87b","system_id":"levelo_inurba_marseille","lat":43.29241,"lon":5.38457,"is_reserved":false,"is_disabled":false,"rental_uris":{"android":"levelo://app?vid=8776e27b-0f90-41ea-ba59-3697a608b87b","ios":"levelo://app?vid=8776e27b-0f90-41ea-ba59-3697a608b87b"},"vehicle_type_id":"4","last_reported":1743012857,"current_range_meters":10800,"station_id":"ce4bh692rcd13ifvqea0","pricing_plan_id":"cebpf4jnsgd1na2vs0mg"},{"bike_id":"4c9529c3-08d7-4733-b420-0af3eb7ba3af","system_id":"levelo_inurba_marseille","lat":43.29534,"lon":5.39402,"is_reserved":false,"is_disabled":false,"rental_uris":{"android":"levelo://app?vid=4c9529c3-08d7-4733-b420-0af3eb7ba3af","ios":"levelo://app?vid=4c9529c3-08d7-4733-b420-0af3eb7ba3af"},"vehicle_type_id":"4","last_reported":1743012857,"current_range_meters":10800,"station_id":"ce4bh292rcd13ifvqdf0","pricing_plan_id":"cebpf4jnsgd1na2vs0mg"},{"bike_id":"ad22dc7d-dfef-4eda-8b80-ea1e51541b6d","system_id":"levelo_inurba_marseille","lat":43.311279,"lon":5.376652,"is_reserved":false,"is_disabled":false,"rental_uris":{"android":"levelo://app?vid=ad22dc7d-dfef-4eda-8b80-ea1e51541b6d","ios":"levelo://app?vid=ad22dc7d-dfef-4eda-8b80-ea1e51541b6d"},"vehicle_type_id":"4","last_reported":1743012857,"current_range_meters":11200,"station_id":"ce4bgt92rcd13ifvqcg0","pricing_plan_id":"cebpf4jnsgd1na2vs0mg"},{"bike_id":"dc1be769-9b80-49b8-aa62-0e62bdfe07c0","system_id":"levelo_inurba_marseille","lat":43.290165,"lon":5.356292,"is_reserved":false,"is_disabled":false,"rental_uris":{"android":"levelo://app?vid=dc1be769-9b80-49b8-aa62-0e62bdfe07c0","ios":"levelo://app?vid=dc1be769-9b80-49b8-aa62-0e62bdfe07c0"},"vehicle_type_id":"4","last_reported":1743012857,"current_range_meters":11200,"station_id":"","pricing_plan_id":"cebpf4jnsgd1na2vs0mg"},{"bike_id":"d45a2f6c-957b-46cd-bd89-ee8e58d1536e","system_id":"levelo_inurba_marseille","lat":43.27747,"lon":5.40779,"is_reserved":false,"is_disabled":false,"rental_uris":{"android":"levelo://app?vid=d45a2f6c-957b-46cd-bd89-ee8e58d1536e","ios":"levelo://app?vid=d45a2f6c-957b-46cd-bd89-ee8e58d1536e"},"vehicle_type_id":"4","last_reported":1743012857,"current_range_meters":11200,"station_id":"","pricing_plan_id":"cebpf4jnsgd1na2vs0mg"},{"bike_id":"47ec968b-42b4-45a5-8c9d-bcb2a9a61f31","system_id":"levelo_inurba_marseille","lat":43.27378,"lon":5.36259,"is_reserved":false,"is_disabled":false,"rental_uris":{"android":"levelo://app?vid=47ec968b-42b4-45a5-8c9d-bcb2a9a61f31","ios":"levelo://app?vid=47ec968b-42b4-45a5-8c9d-bcb2a9a61f31"},"vehicle_type_id":"4","last_reported":1743012857,"current_range_meters":11600,"station_id":"ce4bhbh2rcd13ifvqeo0","pricing_plan_id":"cebpf4jnsgd1na2vs0mg"},{"bike_id":"dfd790e6-29a9-48a0-a342-c26a63f8bfba","system_id":"levelo_inurba_marseille","lat":43.297058,"lon":5.376953,"is_reserved":false,"is_disabled":false,"rental_uris":{"android":"levelo://app?vid=dfd790e6-29a9-48a0-a342-c26a63f8bfba","ios":"levelo://app?vid=dfd790e6-29a9-48a0-a342-c26a63f8bfba"},"vehicle_type_id":"4","last_reported":1743012857,"current_range_meters":11200,"station_id":"ce4bgkh2rcd13ifvqbl0","pricing_plan_id":"cebpf4jnsgd1na2vs0mg"},{"bike_id":"2623a753-dcde-4ffa-9bf1-3275e6037e7a","system_id":"levelo_inurba_marseille","lat":43.32474,"lon":5.36601,"is_reserved":false,"is_disabled":false,"rental_uris":{"android":"levelo://app?vid=2623a753-dcde-4ffa-9bf1-3275e6037e7a","ios":"levelo://app?vid=2623a753-dcde-4ffa-9bf1-3275e6037e7a"},"vehicle_type_id":"4","last_reported":1743012857,"current_range_meters":11200,"station_id":"ce4bhs12rcd13ifvqhvg","pricing_plan_id":"cebpf4jnsgd1na2vs0mg"},{"bike_id":"df51b786-bbdd-4baa-860b-00662685a9b2","system_id":"levelo_inurba_marseille","lat":43.248112,"lon":5.374647,"is_reserved":false,"is_disabled":false,"rental_uris":{"android":"levelo://app?vid=df51b786-bbdd-4baa-860b-00662685a9b2","ios":"levelo://app?vid=df51b786-bbdd-4baa-860b-00662685a9b2"},"vehicle_type_id":"4","last_reported":1743012857,"current_range_meters":11200,"station_id":"ce4bhh12rcd13ifvqfg0","pricing_plan_id":"cebpf4jnsgd1na2vs0mg"},{"bike_id":"585c19d1-9fab-41e3-a4b5-c312cbd30ffe","system_id":"levelo_inurba_marseille","lat":43.27993,"lon":5.40017,"is_reserved":false,"is_disabled":false,"rental_uris":{"android":"levelo://app?vid=585c19d1-9fab-41e3-a4b5-c312cbd30ffe","ios":"levelo://app?vid=585c19d1-9fab-41e3-a4b5-c312cbd30ffe"},"vehicle_type_id":"4","last_reported":1743012857,"current_range_meters":11200,"station_id":"ce4bho92rcd13ifvqh4g","pricing_plan_id":"cebpf4jnsgd1na2vs0mg"},{"bike_id":"e9e10efe-5e2e-42e6-ad82-c9949ca64747","system_id":"levelo_inurba_marseille","lat":43.29915,"lon":5.37467,"is_reserved":false,"is_disabled":false,"rental_uris":{"android":"levelo://app?vid=e9e10efe-5e2e-42e6-ad82-c9949ca64747","ios":"levelo://app?vid=e9e10efe-5e2e-42e6-ad82-c9949ca64747"},"vehicle_type_id":"4","last_reported":1743012857,"current_range_meters":10800,"station_id":"ce4bgjh2rcd13ifvqbg0","pricing_plan_id":"cebpf4jnsgd1na2vs0mg"},{"bike_id":"9c335119-a1a2-443f-9835-d6945acb21ea","system_id":"levelo_inurba_marseille","lat":43.264882,"lon":5.395403,"is_reserved":false,"is_disabled":false,"rental_uris":{"android":"levelo://app?vid=9c335119-a1a2-443f-9835-d6945acb21ea","ios":"levelo://app?vid=9c335119-a1a2-443f-9835-d6945acb21ea"},"vehicle_type_id":"4","last_reported":1743012857,"current_range_meters":12400,"station_id":"ce4bhi12rcd13ifvqfq0","pricing_plan_id":"cebpf4jnsgd1na2vs0mg"},{"bike_id":"45c1372f-e21b-43ec-821e-1bd022cd3bd4","system_id":"levelo_inurba_marseille","lat":43.303767,"lon":5.425023,"is_reserved":false,"is_disabled":false,"rental_uris":{"android":"levelo://app?vid=45c1372f-e21b-43ec-821e-1bd022cd3bd4","ios":"levelo://app?vid=45c1372f-e21b-43ec-821e-1bd022cd3bd4"},"vehicle_type_id":"4","last_reported":1743012857,"current_range_meters":11200,"station_id":"ce4bhoh2rcd13ifvqh6g","pricing_plan_id":"cebpf4jnsgd1na2vs0mg"},{"bike_id":"feb02021-c91c-4994-8c83-a0f717e424da","system_id":"levelo_inurba_marseille","lat":43.25023,"lon":5.38925,"is_reserved":false,"is_disabled":false,"rental_uris":{"android":"levelo://app?vid=feb02021-c91c-4994-8c83-a0f717e424da","ios":"levelo://app?vid=feb02021-c91c-4994-8c83-a0f717e424da"},"vehicle_type_id":"4","last_reported":1743012857,"current_range_meters":11200,"station_id":"ce4bhgp2rcd13ifvqfd0","pricing_plan_id":"cebpf4jnsgd1na2vs0mg"},{"bike_id":"411770d7-a9bb-4d5b-9ebc-04a25956305f","system_id":"levelo_inurba_marseille","lat":43.28708,"lon":5.37398,"is_reserved":false,"is_disabled":false,"rental_uris":{"android":"levelo://app?vid=411770d7-a9bb-4d5b-9ebc-04a25956305f","ios":"levelo://app?vid=411770d7-a9bb-4d5b-9ebc-04a25956305f"},"vehicle_type_id":"4","last_reported":1743012857,"current_range_meters":11200,"station_id":"ce4bh3p2rcd13ifvqdq0","pricing_plan_id":"cebpf4jnsgd1na2vs0mg"},{"bike_id":"3ccaa1d7-5782-4f2d-9d16-4e581fb4f341","system_id":"levelo_inurba_marseille","lat":43.30132,"lon":5.39856,"is_reserved":false,"is_disabled":false,"rental_uris":{"android":"levelo://app?vid=3ccaa1d7-5782-4f2d-9d16-4e581fb4f341","ios":"levelo://app?vid=3ccaa1d7-5782-4f2d-9d16-4e581fb4f341"},"vehicle_type_id":"4","last_reported":1743012857,"current_range_meters":11600,"station_id":"ce4bh0h2rcd13ifvqd40","pricing_plan_id":"cebpf4jnsgd1na2vs0mg"},{"bike_id":"a5d2cbc7-3e64-4eee-90a2-8a0e252a582c","system_id":"levelo_inurba_marseille","lat":43.28103,"lon":5.37855,"is_reserved":false,"is_disabled":false,"rental_uris":{"android":"levelo://app?vid=a5d2cbc7-3e64-4eee-90a2-8a0e252a582c","ios":"levelo://app?vid=a5d2cbc7-3e64-4eee-90a2-8a0e252a582c"},"vehicle_type_id":"4","last_reported":1743012857,"current_range_meters":19600,"station_id":"ce4bha12rcd13ifvqee0","pricing_plan_id":"cebpf4jnsgd1na2vs0mg"},{"bike_id":"466e2e46-838c-4f9d-b2cf-0f4bacfcd6ac","system_id":"levelo_inurba_marseille","lat":43.28421,"lon":5.34989,"is_reserved":false,"is_disabled":false,"rental_uris":{"android":"levelo://app?vid=466e2e46-838c-4f9d-b2cf-0f4bacfcd6ac","ios":"levelo://app?vid=466e2e46-838c-4f9d-b2cf-0f4bacfcd6ac"},"vehicle_type_id":"4","last_reported":1743012857,"current_range_meters":11600,"station_id":"ce4bhbh2rcd13ifvqepg","pricing_plan_id":"cebpf4jnsgd1na2vs0mg"},{"bike_id":"3ebcb0b0-3bd6-455e-9b12-2091542e2b7d","system_id":"levelo_inurba_marseille","lat":43.31443,"lon":5.37374,"is_reserved":false,"is_disabled":false,"rental_uris":{"android":"levelo://app?vid=3ebcb0b0-3bd6-455e-9b12-2091542e2b7d","ios":"levelo://app?vid=3ebcb0b0-3bd6-455e-9b12-2091542e2b7d"},"vehicle_type_id":"4","last_reported":1743012857,"current_range_meters":11600,"station_id":"","pricing_plan_id":"cebpf4jnsgd1na2vs0mg"},{"bike_id":"a5be5b62-03c6-419c-8567-cd414cb60e76","system_id":"levelo_inurba_marseille","lat":43.29717,"lon":5.36594,"is_reserved":false,"is_disabled":false,"rental_uris":{"android":"levelo://app?vid=a5be5b62-03c6-419c-8567-cd414cb60e76","ios":"levelo://app?vid=a5be5b62-03c6-419c-8567-cd414cb60e76"},"vehicle_type_id":"4","last_reported":1743012857,"current_range_meters":11600,"station_id":"ce4bgn12rcd13ifvqbt0","pricing_plan_id":"cebpf4jnsgd1na2vs0mg"},{"bike_id":"da02046a-e8be-4732-a814-bea47c0457a4","system_id":"levelo_inurba_marseille","lat":43.310752,"lon":5.383444,"is_reserved":false,"is_disabled":true,"rental_uris":{"android":"levelo://app?vid=da02046a-e8be-4732-a814-bea47c0457a4","ios":"levelo://app?vid=da02046a-e8be-4732-a814-bea47c0457a4"},"vehicle_type_id":"4","last_reported":1743012857,"current_range_meters":11600,"station_id":"ce4bgv92rcd13ifvqcr0","pricing_plan_id":"cebpf4jnsgd1na2vs0mg"},{"bike_id":"f743aa56-0cba-4877-985c-096f3cdea321","system_id":"levelo_inurba_marseille","lat":43.29979,"lon":5.38487,"is_reserved":false,"is_disabled":false,"rental_uris":{"android":"levelo://app?vid=f743aa56-0cba-4877-985c-096f3cdea321","ios":"levelo://app?vid=f743aa56-0cba-4877-985c-096f3cdea321"},