{"last_updated":1701810401,"ttl":30,"version":"2.2","data":{"bikes":[{"bike_id":"8ee70e3e-3f92-4052-9adb-c54e45d3ba0b","system_id":"levelo_inurba_marseille","lat":43.312239,"lon":5.368562,"is_reserved":false,"is_disabled":false,"rental_uris":{"android":"levelo://app?vid=8ee70e3e-3f92-4052-9adb-c54e45d3ba0b","ios":"levelo://app?vid=8ee70e3e-3f92-4052-9adb-c54e45d3ba0b"},"vehicle_type_id":"4","last_reported":1701810401,"current_range_meters":28800,"station_id":"ce4bgl92rcd13ifvqbq0","pricing_plan_id":"free"},{"bike_id":"1913bd3d-b906-4748-8c6a-e440cb35796d","system_id":"levelo_inurba_marseille","lat":43.314701,"lon":5.371591,"is_reserved":false,"is_disabled":false,"rental_uris":{"android":"levelo://app?vid=1913bd3d-b906-4748-8c6a-e440cb35796d","ios":"levelo://app?vid=1913bd3d-b906-4748-8c6a-e440cb35796d"},"vehicle_type_id":"4","last_reported":1701810401,"current_range_meters":0,"station_id":"","pricing_plan_id":"free"},{"bike_id":"3a2dda2e-3aab-4d0e-a954-793f1706ec09","system_id":"levelo_inurba_marseille","lat":43.31127,"lon":5.37283,"is_reserved":false,"is_disabled":false,"rental_uris":{"android":"levelo://app?vid=3a2dda2e-3aab-4d0e-a954-793f1706ec09","ios":"levelo://app?vid=3a2dda2e-3aab-4d0e-a954-793f1706ec09"},"vehicle_type_id":"4","last_reported":1701810401,"current_range_meters":22800,"station_id":"","pricing_plan_id":"free"},{"bike_id":"db57dc61-a08b-401a-aef0-14ebc360bd4a","system_id":"levelo_inurba_marseille","lat":43.314811,"lon":5.373103,"is_reserved":false,"is_disabled":false,"rental_uris":{"android":"levelo://app?vid=db57dc61-a08b-401a-aef0-14ebc360bd4a","ios":"levelo://app?vid=db57dc61-a08b-401a-aef0-14ebc360bd4a"},"vehicle_type_id":"4","last_reported":1701810401,"current_range_meters":12800,"station_id":"ce4bgt12rcd13ifvqcd0","pricing_plan_id":"free"},{"bike_id":"04c4ad68-55c8-4fb9-9b07-80995231d40b","system_id":"levelo_inurba_marseille","lat":43.314811,"lon":5.373104,"is_reserved":false,"is_disabled":false,"rental_uris":{"android":"levelo://app?vid=04c4ad68-55c8-4fb9-9b07-80995231d40b","ios":"levelo://app?vid=04c4ad68-55c8-4fb9-9b07-80995231d40b"},"vehicle_type_id":"4","last_reported":1701810401,"current_range_meters":21600,"station_id":"ce4bgt12rcd13ifvqcd0","pricing_plan_id":"free"},{"bike_id":"15c6e4c7-34fd-47bc-b7c5-c72bb47c608a","system_id":"levelo_inurba_marseille","lat":43.308957,"lon":5.37195,"is_reserved":false,"is_disabled":false,"rental_uris":{"android":"levelo://app?vid=15c6e4c7-34fd-47bc-b7c5-c72bb47c608a","ios":"levelo://app?vid=15c6e4c7-34fd-47bc-b7c5-c72bb47c608a"},"vehicle_type_id":"4","last_reported":1701810401,"current_range_meters":0,"station_id":"ce4bguh2rcd13ifvqckg","pricing_plan_id":"free"},{"bike_id":"299c1eda-a86c-4f2c-a320-58b4e01cd6b9","system_id":"levelo_inurba_marseille","lat":43.30551,"lon":5.36534,"is_reserved":false,"is_disabled":false,"rental_uris":{"android":"levelo://app?vid=299c1eda-a86c-4f2c-a320-58b4e01cd6b9","ios":"levelo://app?vid=299c1eda-a86c-4f2c-a320-58b4e01cd6b9"},"vehicle_type_id":"4","last_reported":1701810401,"current_range_meters":0,"station_id":"ce4bgs12rcd13ifvqcag","pricing_plan_id":"free"},{"bike_id":"b065b12a-ef87-47d8-8ac6-a38844050d40","system_id":"levelo_inurba_marseille","lat":43.319338,"lon":5.372928,"is_reserved":false,"is_disabled":false,"rental_uris":{"android":"levelo://app?vid=b065b12a-ef87-47d8-8ac6-a38844050d40","ios":"levelo://app?vid=b065b12a-ef87-47d8-8ac6-a38844050d40"},"vehicle_type_id":"4","last_reported":1701810401,"current_range_meters":0,"station_id":"","pricing_plan_id":"free"},{"bike_id":"dfd0ad29-97a2-485d-ad77-77c32b01b460","system_id":"levelo_inurba_marseille","lat":43.311131,"lon":5.377651,"is_reserved":false,"is_disabled":false,"rental_uris":{"android":"levelo://app?vid=dfd0ad29-97a2-485d-ad77-77c32b01b460","ios":"levelo://app?vid=dfd0ad29-97a2-485d-ad77-77c32b01b460"},"vehicle_type_id":"4","last_reported":1701810401,"current_range_meters":13200,"station_id":"ce4bgt92rcd13ifvqcg0","pricing_plan_id":"free"},{"bike_id":"5760ab19-f255-48c6-8a9b-2fbf9321214c","system_id":"levelo_inurba_marseille","lat":43.311125,"lon":5.377624,"is_reserved":false,"is_disabled":false,"rental_uris":{"android":"levelo://app?vid=5760ab19-f255-48c6-8a9b-2fbf9321214c","ios":"levelo://app?vid=5760ab19-f255-48c6-8a9b-2fbf9321214c"},"vehicle_type_id":"4","last_reported":1701810401,"current_range_meters":15200,"station_id":"ce4bgt92rcd13ifvqcg0","pricing_plan_id":"free"},{"bike_id":"fb6fd937-527b-4585-9058-0dfdc6436ac8","system_id":"levelo_inurba_marseille","lat":43.31351,"lon":5.37909,"is_reserved":false,"is_disabled":false,"rental_uris":{"android":"levelo://app?vid=fb6fd937-527b-4585-9058-0dfdc6436ac8","ios":"levelo://app?vid=fb6fd937-527b-4585-9058-0dfdc6436ac8"},"vehicle_type_id":"4","last_reported":1701810401,"current_range_meters":8800,"station_id":"","pricing_plan_id":"free"},{"bike_id":"747bcfe6-f318-4551-b8f6-593658939d5f","system_id":"levelo_inurba_marseille","lat":43.303046,"lon":5.368981,"is_reserved":false,"is_disabled":false,"rental_uris":{"android":"levelo://app?vid=747bcfe6-f318-4551-b8f6-593658939d5f","ios":"levelo://app?vid=747bcfe6-f318-4551-b8f6-593658939d5f"},"vehicle_type_id":"4","last_reported":1701810401,"current_range_meters":18800,"station_id":"ce4bgqh2rcd13ifvqc5g","pricing_plan_id":"free"},{"bike_id":"8cae9b5a-b9c3-4607-aa64-8aaf8dd4396e","system_id":"levelo_inurba_marseille","lat":43.303046,"lon":5.368981,"is_reserved":false,"is_disabled":false,"rental_uris":{"android":"levelo://app?vid=8cae9b5a-b9c3-4607-aa64-8aaf8dd4396e","ios":"levelo://app?vid=8cae9b5a-b9c3-4607-aa64-8aaf8dd4396e"},"vehicle_type_id":"4","last_reported":1701810401,"current_range_meters":6800,"station_id":"ce4bgqh2rcd13ifvqc5g","pricing_plan_id":"free"},{"bike_id":"e107dfe8-e831-4037-96a5-e6cc08c46a10","system_id":"levelo_inurba_marseille","lat":43.303046,"lon":5.368981,"is_reserved":false,"is_disabled":false,"rental_uris":{"android":"levelo://app?vid=e107dfe8-e831-4037-96a5-e6cc08c46a10","ios":"levelo://app?vid=e107dfe8-e831-4037-96a5-e6cc08c46a10"},"vehicle_type_id":"4","last_reported":1701810401,"current_range_meters":10000,"station_id":"ce4bgqh2rcd13ifvqc5g","pricing_plan_id":"free"},{"bike_id":"a6691109-b6b5-408c-ba43-8e995cf35333","system_id":"levelo_inurba_marseille","lat":43.308066,"lon":5.381518,"is_reserved":false,"is_disabled":false,"rental_uris":{"android":"levelo://app?vid=a6691109-b6b5-408c-ba43-8e995cf35333","ios":"levelo://app?vid=a6691109-b6b5-408c-ba43-8e995cf35333"},"vehicle_type_id":"4","last_reported":1701810401,"current_range_meters":0,"station_id":"ce4bgt12rcd13ifvqce0","pricing_plan_id":"free"},{"bike_id":"ab542b0a-b258-4b62-baed-c4ff4b3a7961","system_id":"levelo_inurba_marseille","lat":43.324773,"lon":5.36568,"is_reserved":false,"is_disabled":false,"rental_uris":{"android":"levelo://app?vid=ab542b0a-b258-4b62-baed-c4ff4b3a7961","ios":"levelo://app?vid=ab542b0a-b258-4b62-baed-c4ff4b3a7961"},"vehicle_type_id":"4","last_reported":1701810401,"current_range_meters":31200,"station_id":"ce4bhs12rcd13ifvqhvg","pricing_plan_id":"free"},{"bike_id":"9c043388-0b04-4006-9cfc-7c26d1b748f6","system_id":"levelo_inurba_marseille","lat":43.30143,"lon":5.37413,"is_reserved":false,"is_disabled":false,"rental_uris":{"android":"levelo://app?vid=9c043388-0b04-4006-9cfc-7c26d1b748f6","ios":"levelo://app?vid=9c043388-0b04-4006-9cfc-7c26d1b748f6"},"vehicle_type_id":"4","last_reported":1701810401,"current_range_meters":9200,"station_id":"ce4bgs92rcd13ifvqcc0","pricing_plan_id":"free"},{"bike_id":"378259cf-ae5c-4408-86bf-e488b05722b6","system_id":"levelo_inurba_marseille","lat":43.30143,"lon":5.37413,"is_reserved":false,"is_disabled":false,"rental_uris":{"android":"levelo://app?vid=378259cf-ae5c-4408-86bf-e488b05722b6","ios":"levelo://app?vid=378259cf-ae5c-4408-86bf-e488b05722b6"},"vehicle_type_id":"4","last_reported":1701810401,"current_range_meters":22800,"station_id":"ce4bgs92rcd13ifvqcc0","pricing_plan_id":"free"},{"bike_id":"a7503af2-3416-42b0-89b3-360ea5b90ea2","system_id":"levelo_inurba_marseille","lat":43.319935,"lon":5.381699,"is_reserved":false,"is_disabled":false,"rental_uris":{"android":"levelo://app?vid=a7503af2-3416-42b0-89b3-360ea5b90ea2","ios":"levelo://app?vid=a7503af2-3416-42b0-89b3-360ea5b90ea2"},"vehicle_type_id":"4","last_reported":1701810401,"current_range_meters":27600,"station_id":"ce4bhr12rcd13ifvqhpg","pricing_plan_id":"free"},{"bike_id":"1e44eb00-5254-457d-b804-b536ef4db324","system_id":"levelo_inurba_marseille","lat":43.31995,"lon":5.38144,"is_reserved":false,"is_disabled":false,"rental_uris":{"android":"levelo://app?vid=1e44eb00-5254-457d-b804-b536ef4db324","ios":"levelo://app?vid=1e44eb00-5254-457d-b804-b536ef4db324"},"vehicle_type_id":"4","last_reported":1701810401,"current_range_meters":14400,"station_id":"ce4bhr12rcd13ifvqhpg","pricing_plan_id":"free"},{"bike_id":"65f8fa65-6ae7-4e94-86fb-6a8a6a019c04","system_id":"levelo_inurba_marseille","lat":43.319933,"lon":5.381542,"is_reserved":false,"is_disabled":false,"rental_uris":{"android":"levelo://app?vid=65f8fa65-6ae7-4e94-86fb-6a8a6a019c04","ios":"levelo://app?vid=65f8fa65-6ae7-4e94-86fb-6a8a6a019c04"},"vehicle_type_id":"4","last_reported":1701810401,"current_range_meters":12800,"station_id":"ce4bhr12rcd13ifvqhpg","pricing_plan_id":"free"},{"bike_id":"062c9487-5458-4221-af20-eb36aa552b3c","system_id":"levelo_inurba_marseille","lat":43.319935,"lon":5.381699,"is_reserved":false,"is_disabled":false,"rental_uris":{"android":"levelo://app?vid=062c9487-5458-4221-af20-eb36aa552b3c","ios":"levelo://app?vid=062c9487-5458-4221-af20-eb36aa552b3c"},"vehicle_type_id":"4","last_reported":1701810401,"current_range_meters":0,"station_id":"ce4bhr12rcd13ifvqhpg","pricing_plan_id":"free"},{"bike_id":"96a50488-726c-45cc-b484-a5022842dac2","system_id":"levelo_inurba_marseille","lat":43.313571,"lon":5.384829,"is_reserved":false,"is_disabled":false,"rental_uris":{"android":"levelo://app?vid=96a50488-726c-45cc-b484-a5022842dac2","ios":"levelo://app?vid=96a50488-726c-45cc-b484-a5022842dac2"},"vehicle_type_id":"4","last_reported":1701810401,"current_range_meters":24800,"station_id":"ce4bgt92rcd13ifvqcf0","pricing_plan_id":"free"},{"bike_id":"1f7d8db0-c533-4cb3-ac10-2c1a7db1cf59","system_id":"levelo_inurba_marseille","lat":43.29974,"lon":5.37185,"is_reserved":false,"is_disabled":false,"rental_uris":{"android":"levelo://app?vid=1f7d8db0-c533-4cb3-ac10-2c1a7db1cf59","ios":"levelo://app?vid=1f7d8db0-c533-4cb3-ac10-2c1a7db1cf59"},"vehicle_type_id":"4","last_reported":1701810401,"current_range_meters":4800,"station_id":"ce4bgr92rcd13ifvqc7g","pricing_plan_id":"free"},{"bike_id":"667cab5c-db7c-4c0a-9462-af274737d936","system_id":"levelo_inurba_marseille","lat":43.299724,"lon":5.371829,"is_reserved":false,"is_disabled":false,"rental_uris":{"android":"levelo://app?vid=667cab5c-db7c-4c0a-9462-af274737d936","ios":"levelo://app?vid=667cab5c-db7c-4c0a-9462-af274737d936"},"vehicle_type_id":"4","last_reported":1701810401,"current_range_meters":6800,"station_id":"ce4bgr92rcd13ifvqc7g","pricing_plan_id":"free"},{"bike_id":"795a4454-2835-4816-8478-7289a967d16d","system_id":"levelo_inurba_marseille","lat":43.305364,"lon":5.384119,"is_reserved":false,"is_disabled":false,"rental_uris":{"android":"levelo://app?vid=795a4454-2835-4816-8478-7289a967d16d","ios":"levelo://app?vid=795a4454-2835-4816-8478-7289a967d16d"},"vehicle_type_id":"4","last_reported":1701810401,"current_range_meters":6000,"station_id":"ce4bgg92rcd13ifvqb30","pricing_plan_id":"free"},{"bike_id":"5ca457cb-b5e6-4a28-97ea-d8bc25420337","system_id":"levelo_inurba_marseille","lat":43.299143,"lon":5.37456,"is_reserved":false,"is_disabled":false,"rental_uris":{"android":"levelo://app?vid=5ca457cb-b5e6-4a28-97ea-d8bc25420337","ios":"levelo://app?vid=5ca457cb-b5e6-4a28-97ea-d8bc25420337"},"vehicle_type_id":"4","last_reported":1701810401,"current_range_meters":0,"station_id":"ce4bgjh2rcd13ifvqbg0","pricing_plan_id":"free"},{"bike_id":"5b667cf1-ad4f-4d5f-b155-383832434731","system_id":"levelo_inurba_marseille","lat":43.311722,"lon":5.387247,"is_reserved":false,"is_disabled":false,"rental_uris":{"android":"levelo://app?vid=5b667cf1-ad4f-4d5f-b155-383832434731","ios":"levelo://app?vid=5b667cf1-ad4f-4d5f-b155-383832434731"},"vehicle_type_id":"4","last_reported":1701810401,"current_range_meters":13600,"station_id":"ce4bgv12rcd13ifvqcp0","pricing_plan_id":"free"},{"bike_id":"2e76f4ec-4c49-4885-84df-273462419ffe","system_id":"levelo_inurba_marseille","lat":43.311722,"lon":5.387247,"is_reserved":false,"is_disabled":false,"rental_uris":{"android":"levelo://app?vid=2e76f4ec-4c49-4885-84df-273462419ffe","ios":"levelo://app?vid=2e76f4ec-4c49-4885-84df-273462419ffe"},"vehicle_type_id":"4","last_reported":1701810401,"current_range_meters":15200,"station_id":"ce4bgv12rcd13ifvqcp0","pricing_plan_id":"free"},{"bike_id":"53448921-7755-4066-a657-6d07c74c1026","system_id":"levelo_inurba_marseille","lat":43.299243,"lon":5.37481,"is_reserved":false,"is_disabled":false,"rental_uris":{"android":"levelo://app?vid=53448921-7755-4066-a657-6d07c74c1026","ios":"levelo://app?vid=53448921-7755-4066-a657-6d07c74c1026"},"vehicle_type_id":"4","last_reported":1701810401,"current_range_meters":2000,"station_id":"ce4bgjh2rcd13ifvqbg0","pricing_plan_id":"free"},{"bike_id":"2f29e641-317d-4425-a586-fa7156fe3c17","system_id":"levelo_inurba_marseille","lat":43.311722,"lon":5.387247,"is_reserved":false,"is_disabled":false,"rental_uris":{"android":"levelo://app?vid=2f29e641-317d-4425-a586-fa7156fe3c17","ios":"levelo://app?vid=2f29e641-317d-4425-a586-fa7156fe3c17"},"vehicle_type_id":"4","last_reported":1701810401,"current_range_meters":25200,"station_id":"ce4bgv12rcd13ifvqcp0","pricing_plan_id":"free"},{"bike_id":"2a7406d3-f595-41e4-bc13-bdda0c15db54","system_id":"levelo_inurba_marseille","lat":43.311722,"lon":5.387247,"is_reserved":false,"is_disabled":false,"rental_uris":{"android":"levelo://app?vid=2a7406d3-f595-41e4-bc13-bdda0c15db54","ios":"levelo://app?vid=2a7406d3-f595-41e4-bc13-bdda0c15db54"},"vehicle_type_id":"4","last_reported":1701810401,"current_range_meters":16000,"station_id":"ce4bgv12rcd13ifvqcp0","pricing_plan_id":"free"},{"bike_id":"7d8005c6-46e4-426f-b718-71bb16b59421","system_id":"levelo_inurba_marseille","lat":43.311722,"lon":5.387247,"is_reserved":false,"is_disabled":false,"rental_uris":{"android":"levelo://app?vid=7d8005c6-46e4-426f-b718-71bb16b59421","ios":"levelo://app?vid=7d8005c6-46e4-426f-b718-71bb16b59421"},"vehicle_type_id":"4","last_reported":1701810401,"current_range_meters":10000,"station_id":"ce4bgv12rcd13ifvqcp0","pricing_plan_id":"free"},{"bike_id":"c591e47b-b453-49bb-8a54-18d732d15761","system_id":"levelo_inurba_marseille","lat":43.311722,"lon":5.387247,"is_reserved":false,"is_disabled":false,"rental_uris":{"android":"levelo://app?vid=c591e47b-b453-49bb-8a54-18d732d15761","ios":"levelo://app?vid=c591e47b-b453-49bb-8a54-18d732d15761"},"vehicle_type_id":"4","last_reported":1701810401,"current_range_meters":26400,"station_id":"ce4bgv12rcd13ifvqcp0","pricing_plan_id":"free"},{"bike_id":"1cf84706-03c4-4d9e-ac92-d4ed0b9e6476","system_id":"levelo_inurba_marseille","lat":43.297794,"lon":5.370888,"is_reserved":false,"is_disabled":false,"rental_uris":{"android":"levelo://app?vid=1cf84706-03c4-4d9e-ac92-d4ed0b9e6476","ios":"levelo://app?vid=1cf84706-03c4-4d9e-ac92-d4ed0b9e6476"},"vehicle_type_id":"4","last_reported":1701810401,"current_range_meters":30400,"station_id":"ce4bgop2rcd13ifvqc1g","pricing_plan_id":"free"},{"bike_id":"3611eab9-ed88-408f-b94d-b09812a4463e","system_id":"levelo_inurba_marseille","lat":43.32291,"lon":5.38267,"is_reserved":false,"is_disabled":false,"rental_uris":{"android":"levelo://app?vid=3611eab9-ed88-408f-b94d-b09812a4463e","ios":"levelo://app?vid=3611eab9-ed88-408f-b94d-b09812a4463e"},"vehicle_type_id":"4","last_reported":1701810401,"current_range_meters":25200,"station_id":"ce4bhr12rcd13ifvqhqg","pricing_plan_id":"free"},{"bike_id":"b4879a0b-f87c-476b-ba9f-57011b8686d8","system_id":"levelo_inurba_marseille","lat":43.298218,"lon":5.374416,"is_reserved":false,"is_disabled":false,"rental_uris":{"android":"levelo://app?vid=b4879a0b-f87c-476b-ba9f-57011b8686d8","ios":"levelo://app?vid=b4879a0b-f87c-476b-ba9f-57011b8686d8"},"vehicle_type_id":"4","last_reported":1701810401,"current_range_meters":16400,"station_id":"","pricing_plan_id":"free"},{"bike_id":"8146f9b5-b15a-4a68-934b-8d7fdd7ab4e5","system_id":"levelo_inurba_marseille","lat":43.31602,"lon":5.38782,"is_reserved":false,"is_disabled":false,"rental_uris":{"android":"levelo://app?vid=8146f9b5-b15a-4a68-934b-8d7fdd7ab4e5","ios":"levelo://app?vid=8146f9b5-b15a-4a68-934b-8d7fdd7ab4e5"},"vehicle_type_id":"4","last_reported":1701810401,"current_range_meters":20400,"station_id":"","pricing_plan_id":"free"},{"bike_id":"d750d82e-395a-4902-8872-a62e0d37e6ef","system_id":"levelo_inurba_marseille","lat":43.32838,"lon":5.36695,"is_reserved":false,"is_disabled":false,"rental_uris":{"android":"levelo://app?vid=d750d82e-395a-4902-8872-a62e0d37e6ef","ios":"levelo://app?vid=d750d82e-395a-4902-8872-a62e0d37e6ef"},"vehicle_type_id":"4","last_reported":1701810401,"current_range_meters":4000,"station_id":"ce4bhs92rcd13ifvqi0g","pricing_plan_id":"free"},{"bike_id":"d0e3dd59-0f60-4e4e-993e-967a9d97ad75","system_id":"levelo_inurba_marseille","lat":43.2968,"lon":5.37291,"is_reserved":false,"is_disabled":false,"rental_uris":{"android":"levelo://app?vid=d0e3dd59-0f60-4e4e-993e-967a9d97ad75","ios":"levelo://app?vid=d0e3dd59-0f60-4e4e-993e-967a9d97ad75"},"vehicle_type_id":"4","last_reported":1701810401,"current_range_meters":27600,"station_id":"ce4bgk12rcd13ifvqbj0","pricing_plan_id":"free"},{"bike_id":"fad051df-9150-4866-a68e-71dc1b88d26f","system_id":"levelo_inurba_marseille","lat":43.316538,"lon":5.38954,"is_reserved":false,"is_disabled":false,"rental_uris":{"android":"levelo://app?vid=fad051df-9150-4866-a68e-71dc1b88d26f","ios":"levelo://app?vid=fad051df-9150-4866-a68e-71dc1b88d26f"},"vehicle_type_id":"4","last_reported":1701810401,"current_range_meters":12000,"station_id":"","pricing_plan_id":"free"},{"bike_id":"062a53f6-1900-4c72-9d42-8e989873e5fd","system_id":"levelo_inurba_marseille","lat":43.296935,"lon":5.376544,"is_reserved":false,"is_disabled":false,"rental_uris":{"android":"levelo://app?vid=062a53f6-1900-4c72-9d42-8e989873e5fd","ios":"levelo://app?vid=062a53f6-1900-4c72-9d42-8e989873e5fd"},"vehicle_type_id":"4","last_reported":1701810401,"current_range_meters":29200,"station_id":"ce4bgkh2rcd13ifvqbl0","pricing_plan_id":"free"},{"bike_id":"6b06cc57-06d6-4dc8-94d3-2a3dbdb86d2d","system_id":"levelo_inurba_marseille","lat":43.3176,"lon":5.38999,"is_reserved":false,"is_disabled":false,"rental_uris":{"android":"levelo://app?vid=6b06cc57-06d6-4dc8-94d3-2a3dbdb86d2d","ios":"levelo://app?vid=6b06cc57-06d6-4dc8-94d3-2a3dbdb86d2d"},"vehicle_type_id":"4","last_reported":1701810401,"current_range_meters":27600,"station_id":"ce4bhqp2rcd13ifvqhng","pricing_plan_id":"free"},{"bike_id":"4a7d648e-4869-45ed-9885-42883cc8e914","system_id":"levelo_inurba_marseille","lat":43.317557,"lon":5.390173,"is_reserved":false,"is_disabled":false,"rental_uris":{"android":"levelo://app?vid=4a7d648e-4869-45ed-9885-42883cc8e914","ios":"levelo://app?vid=4a7d648e-4869-45ed-9885-42883cc8e914"},"vehicle_type_id":"4","last_reported":1701810401,"current_range_meters":30000,"station_id":"ce4bhqp2rcd13ifvqhng","pricing_plan_id":"free"},{"bike_id":"7f7791fb-086e-4417-a8bc-5ce8feb0e749","system_id":"levelo_inurba_marseille","lat":43.298037,"lon":5.381066,"is_reserved":false,"is_disabled":false,"rental_uris":{"android":"levelo://app?vid=7f7791fb-086e-4417-a8bc-5ce8feb0e749","ios":"levelo://app?vid=7f7791fb-086e-4417-a8bc-5ce8feb0e749"},"vehicle_type_id":"4","last_reported":1701810401,"current_range_meters":18000,"station_id":"ce4bgip2rcd13ifvqbb0","pricing_plan_id":"free"},{"bike_id":"84e747e2-6145-4f21-82d2-0d2bef4881a5","system_id":"levelo_inurba_marseille","lat":43.295279,"lon":5.375048,"is_reserved":false,"is_disabled":false,"rental_uris":{"android":"levelo://app?vid=84e747e2-6145-4f21-82d2-0d2bef4881a5","ios":"levelo://app?vid=84e747e2-6145-4f21-82d2-0d2bef4881a5"},"vehicle_type_id":"4","last_reported":1701810401,"current_range_meters":20000,"station_id":"ce4bgkp2rcd13ifvqbmg","pricing_plan_id":"free"},{"bike_id":"07967f1e-00b3-4d63-8ab5-24c06e141a86","system_id":"levelo_inurba_marseille","lat":43.3237,"lon":5.38877,"is_reserved":false,"is_disabled":false,"rental_uris":{"android":"levelo://app?vid=07967f1e-00b3-4d63-8ab5-24c06e141a86","ios":"levelo://app?vid=07967f1e-00b3-4d63-8ab5-24c06e141a86"},"vehicle_type_id":"4","last_reported":1701810401,"current_range_meters":16000,"station_id":"ce4bhqp2rcd13ifvqhog","pricing_plan_id":"free"},{"bike_id":"c3643ac2-cdd1-4bd1-99e6-62e33012d634","system_id":"levelo_inurba_marseille","lat":43.32367,"lon":5.388836,"is_reserved":false,"is_disabled":false,"rental_uris":{"android":"levelo://app?vid=c3643ac2-cdd1-4bd1-99e6-62e33012d634","ios":"levelo://app?vid=c3643ac2-cdd1-4bd1-99e6-62e33012d634"},"vehicle_type_id":"4","last_reported":1701810401,"current_range_meters":10800,"station_id":"ce4bhqp2rcd13ifvqhog","pricing_plan_id":"free"},{"bike_id":"abe84497-fb17-455f-b511-71d1ec1fd3ce","system_id":"levelo_inurba_marseille","lat":43.32367,"lon":5.388836,"is_reserved":false,"is_disabled":false,"rental_uris":{"android":"levelo://app?vid=abe84497-fb17-455f-b511-71d1ec1fd3ce","ios":"levelo://app?vid=abe84497-fb17-455f-b511-71d1ec1fd3ce"},"vehicle_type_id":"4","last_reported":1701810401,"current_range_meters":8000,"station_id":"ce4bhqp2rcd13ifvqhog","pricing_plan_id":"free"},{"bike_id":"c664e7a2-744a-4ab1-adf9-f661384ab5bb","system_id":"levelo_inurba_marseille","lat":43.33147,"lon":5.3747,"is_reserved":false,"is_disabled":false,"rental_uris":{"android":"levelo://app?vid=c664e7a2-744a-4ab1-adf9-f661384ab5bb","ios":"levelo://app?vid=c664e7a2-744a-4ab1-adf9-f661384ab5bb"},"vehicle_type_id":"4","last_reported":1701810401,"current_range_meters":29600,"station_id":"","pricing_plan_id":"free"},{"bike_id":"4c9f9af9-c230-4b4a-90e5-7d818a2326a8","system_id":"levelo_inurba_marseille","lat":43.29601,"lon":5.381084,"is_reserved":false,"is_disabled":false,"rental_uris":{"android":"levelo://app?vid=4c9f9af9-c230-4b4a-90e5-7d818a2326a8","ios":"levelo://app?vid=4c9f9af9-c230-4b4a-90e5-7d818a2326a8"},"vehicle_type_id":"4","last_reported":1701810401,"current_range_meters":20800,"station_id":"ce4bgl12rcd13ifvqbo0","pricing_plan_id":"free"},{"bike_id":"7f730568-85d3-4281-95de-877a6ac2df6d","system_id":"levelo_inurba_marseille","lat":43.292749,"lon":5.368402,"is_reserved":false,"is_disabled":false,"rental_uris":{"android":"levelo://app?vid=7f730568-85d3-4281-95de-877a6ac2df6d","ios":"levelo://app?vid=7f730568-85d3-4281-95de-877a6ac2df6d"},"vehicle_type_id":"4","last_reported":1701810401,"current_range_meters":0,"station_id":"ce4bhbp2rcd13ifvqesg","pricing_plan_id":"free"},{"bike_id":"2cc39867-ca8b-4d47-809a-e38b33eaa720","system_id":"levelo_inurba_marseille","lat":43.305994,"lon":5.393687,"is_reserved":false,"is_disabled":false,"rental_uris":{"android":"levelo://app?vid=2cc39867-ca8b-4d47-809a-e38b33eaa720","ios":"levelo://app?vid=2cc39867-ca8b-4d47-809a-e38b33eaa720"},"vehicle_type_id":"4","last_reported":1701810401,"current_range_meters":23600,"station_id":"ce4bh0p2rcd13ifvqd80","pricing_plan_id":"free"},{"bike_id":"2b5c1b68-81e3-47ef-876b-101cf2b4d0ce","system_id":"levelo_inurba_marseille","lat":43.305994,"lon":5.393687,"is_reserved":false,"is_disabled":false,"rental_uris":{"android":"levelo://app?vid=2b5c1b68-81e3-47ef-876b-101cf2b4d0ce","ios":"levelo://app?vid=2b5c1b68-81e3-47ef-876b-101cf2b4d0ce"},"vehicle_type_id":"4","last_reported":1701810401,"current_range_meters":9600,"station_id":"ce4bh0p2rcd13ifvqd80","pricing_plan_id":"free"},{"bike_id":"216a0c79-49f1-46a9-9b95-10e2f60b4eb1","system_id":"levelo_inurba_marseille","lat":43.305994,"lon":5.393687,"is_reserved":false,"is_disabled":false,"rental_uris":{"android":"levelo://app?vid=216a0c79-49f1-46a9-9b95-10e2f60b4eb1","ios":"levelo://app?vid=216a0c79-49f1-46a9-9b95-10e2f60b4eb1"},"vehicle_type_id":"4","last_reported":1701810401,"current_range_meters":30400,"station_id":"ce4bh0p2rcd13ifvqd80","pricing_plan_id":"free"},{"bike_id":"57e092f4-e2b4-4dc5-9f4f-eafa31fcb256","system_id":"levelo_inurba_marseille","lat":43.30585,"lon":5.39361,"is_reserved":false,"is_disabled":false,"rental_uris":{"android":"levelo://app?vid=57e092f4-e2b4-4dc5-9f4f-eafa31fcb256","ios":"levelo://app?vid=57e092f4-e2b4-4dc5-9f4f-eafa31fcb256"},"vehicle_type_id":"4","last_reported":1701810401,"current_range_meters":4800,"station_id":"ce4bh0p2rcd13ifvqd80","pricing_plan_id":"free"},{"bike_id":"5453733a-e72e-47ae-8132-f474acddc6db","system_id":"levelo_inurba_marseille","lat":43.30085,"lon":5.390856,"is_reserved":false,"is_disabled":false,"rental_uris":{"android":"levelo://app?vid=5453733a-e72e-47ae-8132-f474acddc6db","ios":"levelo://app?vid=5453733a-e72e-47ae-8132-f474acddc6db"},"vehicle_type_id":"4","last_reported":1701810401,"current_range_meters":6400,"station_id":"ce4bh192rcd13ifvqdb0","pricing_plan_id":"free"},{"bike_id":"3d18c477-71fc-4b10-b10f-7da4113e8f84","system_id":"levelo_inurba_marseille","lat":43.29869,"lon":5.38908,"is_reserved":false,"is_disabled":false,"rental_uris":{"android":"levelo://app?vid=3d18c477-71fc-4b10-b10f-7da4113e8f84","ios":"levelo://app?vid=3d18c477-71fc-4b10-b10f-7da4113e8f84"},"vehicle_type_id":"4","last_reported":1701810401,"current_range_meters":18800,"station_id":"ce4bh392rcd13ifvqdl0","pricing_plan_id":"free"},{"bike_id":"78ea6990-f686-4c61-82c7-eaebb75e942e","system_id":"levelo_inurba_marseille","lat":43.2919,"lon":5.35801,"is_reserved":false,"is_disabled":false,"rental_uris":{"android":"levelo://app?vid=78ea6990-f686-4c61-82c7-eaebb75e942e","ios":"levelo://app?vid=78ea6990-f686-4c61-82c7-eaebb75e942e"},"vehicle_type_id":"4","last_reported":1701810401,"current_range_meters":0,"station_id":"ce4bhb12rcd13ifvqel0","pricing_plan_id":"free"},{"bike_id":"dcf78b65-3e86-440b-ae31-04c90c01f226","system_id":"levelo_inurba_marseille","lat":43.31324,"lon":5.39693,"is_reserved":false,"is_disabled":false,"rental_uris":{"android":"levelo://app?vid=dcf78b65-3e86-440b-ae31-04c90c01f226","ios":"levelo://app?vid=dcf78b65-3e86-440b-ae31-04c90c01f226"},"vehicle_type_id":"4","last_reported":1701810401,"current_range_meters":20400,"station_id":"ce4bgvp2rcd13ifvqcu0","pricing_plan_id":"free"},{"bike_id":"681f8a0e-8fd5-4460-8910-bd561d36bcf9","system_id":"levelo_inurba_marseille","lat":43.309038,"lon":5.396546,"is_reserved":false,"is_disabled":false,"rental_uris":{"android":"levelo://app?vid=681f8a0e-8fd5-4460-8910-bd561d36bcf9","ios":"levelo://app?vid=681f8a0e-8fd5-4460-8910-bd561d36bcf9"},"vehicle_type_id":"4","last_reported":1701810401,"current_range_meters":29600,"station_id":"ce4bh012rcd13ifvqcv0","pricing_plan_id":"free"},{"bike_id":"f287bc70-d05d-423d-9328-888c011300a7","system_id":"levelo_inurba_marseille","lat":43.3133,"lon":5.39697,"is_reserved":false,"is_disabled":false,"rental_uris":{"android":"levelo://app?vid=f287bc70-d05d-423d-9328-888c011300a7","ios":"levelo://app?vid=f287bc70-d05d-423d-9328-888c011300a7"},"vehicle_type_id":"4","last_reported":1701810401,"current_range_meters":29600,"station_id":"ce4bgvp2rcd13ifvqcu0","pricing_plan_id":"free"},{"bike_id":"8ce91b26-a046-42c6-8925-f25f5ce5a055","system_id":"levelo_inurba_marseille","lat":43.313291,"lon":5.396838,"is_reserved":false,"is_disabled":false,"rental_uris":{"android":"levelo://app?vid=8ce91b26-a046-42c6-8925-f25f5ce5a055","ios":"levelo://app?vid=8ce91b26-a046-42c6-8925-f25f5ce5a055"},"vehicle_type_id":"4","last_reported":1701810401,"current_range_meters":31200,"station_id":"ce4bgvp2rcd13ifvqcu0","pricing_plan_id":"free"},{"bike_id":"8493695c-d658-4c40-aaf3-a1a15ec6025b","system_id":"levelo_inurba_marseille","lat":43.30897,"lon":5.39655,"is_reserved":false,"is_disabled":false,"rental_uris":{"android":"levelo://app?vid=8493695c-d658-4c40-aaf3-a1a15ec6025b","ios":"levelo://app?vid=8493695c-d658-4c40-aaf3-a1a15ec6025b"},"vehicle_type_id":"4","last_reported":1701810401,"current_range_meters":0,"station_id":"ce4bh012rcd13ifvqcv0","pricing_plan_id":"free"},{"bike_id":"e3a89917-256d-4fb9-92b7-cffbd4931da5","system_id":"levelo_inurba_marseille","lat":43.29529,"lon":5.385581,"is_reserved":false,"is_disabled":false,"rental_uris":{"android":"levelo://app?vid=e3a89917-256d-4fb9-92b7-cffbd4931da5","ios":"levelo://app?vid=e3a89917-256d-4fb9-92b7-cffbd4931da5"},"vehicle_type_id":"4","last_reported":1701810401,"current_range_meters":0,"station_id":"ce4bgih2rcd13ifvqba0","pricing_plan_id":"free"},{"bike_id":"ffb926bb-ab7d-4119-918a-65388cc15d78","system_id":"levelo_inurba_marseille","lat":43.309038,"lon":5.396546,"is_reserved":false,"is_disabled":false,"rental_uris":{"android":"levelo://app?vid=ffb926bb-ab7d-4119-918a-65388cc15d78","ios":"levelo://app?vid=ffb926bb-ab7d-4119-918a-65388cc15d78"},"vehicle_type_id":"4","last_reported":1701810401,"current_range_meters":7200,"station_id":"ce4bh012rcd13ifvqcv0","pricing_plan_id":"free"},{"bike_id":"2fbf3df1-961e-44fc-a62a-bc3a170efbcd","system_id":"levelo_inurba_marseille","lat":43.302008,"lon":5.394694,"is_reserved":false,"is_disabled":false,"rental_uris":{"android":"levelo://app?vid=2fbf3df1-961e-44fc-a62a-bc3a170efbcd","ios":"levelo://app?vid=2fbf3df1-961e-44fc-a62a-bc3a170efbcd"},"vehicle_type_id":"4","last_reported":1701810401,"current_range_meters":8400,"station_id":"ce4bh0p2rcd13ifvqd70","pricing_plan_id":"free"},{"bike_id":"2829e749-957b-4675-bf3a-ea463333f4d4","system_id":"levelo_inurba_marseille","lat":43.302008,"lon":5.394694,"is_reserved":false,"is_disabled":false,"rental_uris":{"android":"levelo://app?vid=2829e749-957b-4675-bf3a-ea463333f4d4","ios":"levelo://app?vid=2829e749-957b-4675-bf3a-ea463333f4d4"},"vehicle_type_id":"4","last_reported":1701810401,"current_range_meters":29600,"station_id":"ce4bh0p2rcd13ifvqd70","pricing_plan_id":"free"},{"bike_id":"14eb453f-cf3a-462f-b113-96829cdb11fe","system_id":"levelo_inurba_marseille","lat":43.289184,"lon":5.366408,"is_reserved":false,"is_disabled":false,"rental_uris":{"android":"levelo://app?vid=14eb453f-cf3a-462f-b113-96829cdb11fe","ios":"levelo://app?vid=14eb453f-cf3a-462f-b113-96829cdb11fe"},"vehicle_type_id":"4","last_reported":1701810401,"current_range_meters":5200,"station_id":"ce4bhap2rcd13ifvqek0","pricing_plan_id":"free"},{"bike_id":"34e00508-6ef6-4c50-a2c2-eb6001d4ed04","system_id":"levelo_inurba_marseille","lat":43.289184,"lon":5.366408,"is_reserved":false,"is_disabled":false,"rental_uris":{"android":"levelo://app?vid=34e00508-6ef6-4c50-a2c2-eb6001d4ed04","ios":"levelo://app?vid=34e00508-6ef6-4c50-a2c2-eb6001d4ed04"},"vehicle_type_id":"4","last_reported":1701810401,"current_range_meters":22800,"station_id":"ce4bhap2rcd13ifvqek0","pricing_plan_id":"free"},{"bike_id":"553a3ee4-144c-4c68-89e8-f12bcd947c15","system_id":"levelo_inurba_marseille","lat":43.289184,"lon":5.366408,"is_reserved":false,"is_disabled":false,"rental_uris":{"android":"levelo://app?vid=553a3ee4-144c-4c68-89e8-f12bcd947c15","ios":"levelo://app?vid=553a3ee4-144c-4c68-89e8-f12bcd947c15"},"vehicle_type_id":"4","last_reported":1701810401,"current_range_meters":11600,"station_id":"ce4bhap2rcd13ifvqek0","pricing_plan_id":"free"},{"bike_id":"d3d78594-3046-49a3-821d-daecbc3b75f1","system_id":"levelo_inurba_marseille","lat":43.304296,"lon":5.397513,"is_reserved":false,"is_disabled":false,"rental_uris":{"android":"levelo://app?vid=d3d78594-3046-49a3-821d-daecbc3b75f1","ios":"levelo://app?vid=d3d78594-3046-49a3-821d-daecbc3b75f1"},"vehicle_type_id":"4","last_reported":1701810401,"current_range_meters":14800,"station_id":"ce4bh092rcd13ifvqd20","pricing_plan_id":"free"},{"bike_id":"6e3ef659-a3ac-457b-9f99-8bde1464308a","system_id":"levelo_inurba_marseille","lat":43.292644,"lon":5.384257,"is_reserved":false,"is_disabled":false,"rental_uris":{"android":"levelo://app?vid=6e3ef659-a3ac-457b-9f99-8bde1464308a","ios":"levelo://app?vid=6e3ef659-a3ac-457b-9f99-8bde1464308a"},"vehicle_type_id":"4","last_reported":1701810401,"current_range_meters":0,"station_id":"ce4bh692rcd13ifvqea0","pricing_plan_id":"free"},{"bike_id":"f68e2c8b-de08-4ad7-b342-74483183b5be","system_id":"levelo_inurba_marseille","lat":43.33034,"lon":5.38938,"is_reserved":false,"is_disabled":false,"rental_uris":{"android":"levelo://app?vid=f68e2c8b-de08-4ad7-b342-74483183b5be","ios":"levelo://app?vid=f68e2c8b-de08-4ad7-b342-74483183b5be"},"vehicle_type_id":"4","last_reported":1701810401,"current_range_meters":29600,"station_id":"ce4bhr92rcd13ifvqhrg","pricing_plan_id":"free"},{"bike_id":"838543b0-eaa7-4f27-b9e2-0ddf94d08938","system_id":"levelo_inurba_marseille","lat":43.29782,"lon":5.39343,"is_reserved":false,"is_disabled":false,"rental_uris":{"android":"levelo://app?vid=838543b0-eaa7-4f27-b9e2-0ddf94d08938","ios":"levelo://app?vid=838543b0-eaa7-4f27-b9e2-0ddf94d08938"},"vehicle_type_id":"4","last_reported":1701810401,"current_range_meters":17200,"station_id":"chh1huq6cuj3fo74tm60","pricing_plan_id":"free"},{"bike_id":"085dd7cc-de2f-45c7-8acc-7204a716d3a6","system_id":"levelo_inurba_marseille","lat":43.289743,"lon":5.378304,"is_reserved":false,"is_disabled":false,"rental_uris":{"android":"levelo://app?vid=085dd7cc-de2f-45c7-8acc-7204a716d3a6","ios":"levelo://app?vid=085dd7cc-de2f-45c7-8acc-7204a716d3a6"},"vehicle_type_id":"4","last_reported":1701810401,"current_range_meters":30400,"station_id":"ce4bh9p2rcd13ifvqed0","pricing_plan_id":"free"},{"bike_id":"703fb9a8-4bec-484f-b2dc-c4ec3d678def","system_id":"levelo_inurba_marseille","lat":43.295169,"lon":5.390426,"is_reserved":false,"is_disabled":false,"rental_uris":{"android":"levelo://app?vid=703fb9a8-4bec-484f-b2dc-c4ec3d678def","ios":"levelo://app?vid=703fb9a8-4bec-484f-b2dc-c4ec3d678def"},"vehicle_type_id":"4","last_reported":1701810401,"current_range_meters":18000,"station_id":"ce4bh3p2rcd13ifvqdp0","pricing_plan_id":"free"},{"bike_id":"f3ed1ae1-6ef9-4e2a-8152-8fec3a85d615","system_id":"levelo_inurba_marseille","lat":43.288568,"lon":5.358414,"is_reserved":false,"is_disabled":false,"rental_uris":{"android":"levelo://app?vid=f3ed1ae1-6ef9-4e2a-8152-8fec3a85d615","ios":"levelo://app?vid=f3ed1ae1-6ef9-4e2a-8152-8fec3a85d615"},"vehicle_type_id":"4","last_reported":1701810401,"current_range_meters":0,"station_id":"ce4bhb12rcd13ifvqem0","pricing_plan_id":"free"},{"bike_id":"2fbea006-0d22-445c-bfc1-d379dcddc1c1","system_id":"levelo_inurba_marseille","lat":43.337466,"lon":5.374701,"is_reserved":false,"is_disabled":false,"rental_uris":{"android":"levelo://app?vid=2fbea006-0d22-445c-bfc1-d379dcddc1c1","ios":"levelo://app?vid=2fbea006-0d22-445c-bfc1-d379dcddc1c1"},"vehicle_type_id":"4","last_reported":1701810401,"current_range_meters":27600,"station_id":"","pricing_plan_id":"free"},{"bike_id":"61e94894-252e-4e6e-9735-b09eceabfad5","system_id":"levelo_inurba_marseille","lat":43.337475,"lon":5.374789,"is_reserved":false,"is_disabled":false,"rental_uris":{"android":"levelo://app?vid=61e94894-252e-4e6e-9735-b09eceabfad5","ios":"levelo://app?vid=61e94894-252e-4e6e-9735-b09eceabfad5"},"vehicle_type_id":"4","last_reported":1701810401,"current_range_meters":31200,"station_id":"","pricing_plan_id":"free"},{"bike_id":"a01a8d62-3f82-430f-8cbf-bf5e5048b82c","system_id":"levelo_inurba_marseille","lat":43.337523,"lon":5.374503,"is_reserved":false,"is_disabled":false,"rental_uris":{"android":"levelo://app?vid=a01a8d62-3f82-430f-8cbf-bf5e5048b82c","ios":"levelo://app?vid=a01a8d62-3f82-430f-8cbf-bf5e5048b82c"},"vehicle_type_id":"4","last_reported":1701810401,"current_range_meters":26400,"station_id":"","pricing_plan_id":"free"},{"bike_id":"b1da507f-59bc-4bfa-9de7-dd18b0d37739","system_id":"levelo_inurba_marseille","lat":43.33753,"lon":5.374484,"is_reserved":false,"is_disabled":false,"rental_uris":{"android":"levelo://app?vid=b1da507f-59bc-4bfa-9de7-dd18b0d37739","ios":"levelo://app?vid=b1da507f-59bc-4bfa-9de7-dd18b0d37739"},"vehicle_type_id":"4","last_reported":1701810401,"current_range_meters":30000,"station_id":"","pricing_plan_id":"free"},{"bike_id":"f0464f50-e84c-41e8-8839-9b31e220379c","system_id":"levelo_inurba_marseille","lat":43.33755,"lon":5.3746,"is_reserved":false,"is_disabled":false,"rental_uris":{"android":"levelo://app?vid=f0464f50-e84c-41e8-8839-9b31e220379c","ios":"levelo://app?vid=f0464f50-e84c-41e8-8839-9b31e220379c"},"vehicle_type_id":"4","last_reported":1701810401,"current_range_meters":30800,"station_id":"","pricing_plan_id":"free"},{"bike_id":"94559e2c-f22c-4ac5-af24-05076ed30144","system_id":"levelo_inurba_marseille","lat":43.33755,"lon":5.37464,"is_reserved":false,"is_disabled":false,"rental_uris":{"android":"levelo://app?vid=94559e2c-f22c-4ac5-af24-05076ed30144","ios":"levelo://app?vid=94559e2c-f22c-4ac5-af24-05076ed30144"},"vehicle_type_id":"4","last_reported":1701810401,"current_range_meters":30000,"station_id":"","pricing_plan_id":"free"},{"bike_id":"9a1e2a86-2307-443e-8986-35b02223d9a7","system_id":"levelo_inurba_marseille","lat":43.33759,"lon":5.3748,"is_reserved":false,"is_disabled":false,"rental_uris":{"android":"levelo://app?vid=9a1e2a86-2307-443e-8986-35b02223d9a7","ios":"levelo://app?vid=9a1e2a86-2307-443e-8986-35b02223d9a7"},"vehicle_type_id":"4","last_reported":1701810401,"current_range_meters":18400,"station_id":"","pricing_plan_id":"free"},{"bike_id":"7fc932bf-f8cf-4cb3-a33f-8d496b279a1a","system_id":"levelo_inurba_marseille","lat":43.30642,"lon":5.401031,"is_reserved":false,"is_disabled":false,"rental_uris":{"android":"levelo://app?vid=7fc932bf-f8cf-4cb3-a33f-8d496b279a1a","ios":"levelo://app?vid=7fc932bf-f8cf-4cb3-a33f-8d496b279a1a"},"vehicle_type_id":"4","last_reported":1701810401,"current_range_meters":17200,"station_id":"ce4bh112rcd13ifvqda0","pricing_plan_id":"free"},{"bike_id":"5376b66c-ef5f-4a6e-b6eb-13040305bf9f","system_id":"levelo_inurba_marseille","lat":43.33768,"lon":5.37472,"is_reserved":false,"is_disabled":false,"rental_uris":{"android":"levelo://app?vid=5376b66c-ef5f-4a6e-b6eb-13040305bf9f","ios":"levelo://app?vid=5376b66c-ef5f-4a6e-b6eb-13040305bf9f"},"vehicle_type_id":"4","last_reported":1701810401,"current_range_meters":0,"station_id":"","pricing_plan_id":"free"},{"bike_id":"7219e02c-5e23-48ee-8dc7-5a2658fa9e15","system_id":"levelo_inurba_marseille","lat":43.33773,"lon":5.37474,"is_reserved":false,"is_disabled":false,"rental_uris":{"android":"levelo://app?vid=7219e02c-5e23-48ee-8dc7-5a2658fa9e15","ios":"levelo://app?vid=7219e02c-5e23-48ee-8dc7-5a2658fa9e15"},"vehicle_type_id":"4","last_reported":1701810401,"current_range_meters":2400,"station_id":"","pricing_plan_id":"free"},{"bike_id":"f480f4e7-469d-488c-9935-c30d8663c33b","system_id":"levelo_inurba_marseille","lat":43.306412,"lon":5.401035,"is_reserved":false,"is_disabled":false,"rental_uris":{"android":"levelo://app?vid=f480f4e7-469d-488c-9935-c30d8663c33b","ios":"levelo://app?vid=f480f4e7-469d-488c-9935-c30d8663c33b"},"vehicle_type_id":"4","last_reported":1701810401,"current_range_meters":23200,"station_id":"ce4bh112rcd13ifvqda0","pricing_plan_id":"free"},{"bike_id":"1944226b-099b-48fb-85ac-9077942543ad","system_id":"levelo_inurba_marseille","lat":43.30665,"lon":5.40115,"is_reserved":false,"is_disabled":false,"rental_uris":{"android":"levelo://app?vid=1944226b-099b-48fb-85ac-9077942543ad","ios":"levelo://app?vid=1944226b-099b-48fb-85ac-9077942543ad"},"vehicle_type_id":"4","last_reported":1701810401,"current_range_meters":11600,"station_id":"ce4bh112rcd13ifvqda0","pricing_plan_id":"free"},{"bike_id":"7fa14ae5-4e1f-432b-9f8d-3b9a09887cb5","system_id":"levelo_inurba_marseille","lat":43.301117,"lon":5.398795,"is_reserved":false,"is_disabled":false,"rental_uris":{"android":"levelo://app?vid=7fa14ae5-4e1f-432b-9f8d-3b9a09887cb5","ios":"levelo://app?vid=7fa14ae5-4e1f-432b-9f8d-3b9a09887cb5"},"vehicle_type_id":"4","last_reported":1701810401,"current_range_meters":26000,"station_id":"ce4bh0h2rcd13ifvqd40","pricing_plan_id":"free"},{"bike_id":"5835fa53-e99e-4426-850c-2c1fdb1dc507","system_id":"levelo_inurba_marseille","lat":43.301117,"lon":5.398795,"is_reserved":false,"is_disabled":false,"rental_uris":{"android":"levelo://app?vid=5835fa53-e99e-4426-850c-2c1fdb1dc507","ios":"levelo://app?vid=5835fa53-e99e-4426-850c-2c1fdb1dc507"},"vehicle_type_id":"4","last_reported":1701810401,"current_range_meters":0,"station_id":"ce4bh0h2rcd13ifvqd40","pricing_plan_id":"free"},{"bike_id":"b1c44fb3-b780-4346-9631-da6afb4f789a","system_id":"levelo_inurba_marseille","lat":43.28727,"lon":5.36078,"is_reserved":false,"is_disabled":false,"rental_uris":{"android":"levelo://app?vid=b1c44fb3-b780-4346-9631-da6afb4f789a","ios":"levelo://app?vid=b1c44fb3-b780-4346-9631-da6afb4f789a"},"vehicle_type_id":"4","last_reported":1701810401,"current_range_meters":12400,"station_id":"cki0cbj6b192h4jlfktg","pricing_plan_id":"free"},{"bike_id":"1658dd3b-9f05-49bc-82a4-60882e063b01","system_id":"levelo_inurba_marseille","lat":43.28727,"lon":5.36078,"is_reserved":false,"is_disabled":false,"rental_uris":{"android":"levelo://app?vid=1658dd3b-9f05-49bc-82a4-60882e063b01","ios":"levelo://app?vid=1658dd3b-9f05-49bc-82a4-60882e063b01"},"vehicle_type_id":"4","last_reported":1701810401,"current_range_meters":20400,"station_id":"cki0cbj6b192h4jlfktg","pricing_plan_id":"free"},{"bike_id":"05b9f037-9b98-4f3e-b7f5-f037052989da","system_id":"levelo_inurba_marseille","lat":43.28719,"lon":5.36096,"is_reserved":false,"is_disabled":false,"rental_uris":{"android":"levelo://app?vid=05b9f037-9b98-4f3e-b7f5-f037052989da","ios":"levelo://app?vid=05b9f037-9b98-4f3e-b7f5-f037052989da"},"vehicle_type_id":"4","last_reported":1701810401,"current_range_meters":19200,"station_id":"cki0cbj6b192h4jlfktg","pricing_plan_id":"free"},{"bike_id":"ff5e3d0f-aa56-49a6-951b-c1e8b80296d3","system_id":"levelo_inurba_marseille","lat":43.298681,"lon":5.397225,"is_reserved":false,"is_disabled":false,"rental_uris":{"android":"levelo://app?vid=ff5e3d0f-aa56-49a6-951b-c1e8b80296d3","ios":"levelo://app?vid=ff5e3d0f-aa56-49a6-951b-c1e8b80296d3"},"vehicle_type_id":"4","last_reported":1701810401,"current_range_meters":26800,"station_id":"ce4bh0h2rcd13ifvqd50","pricing_plan_id":"free"},{"bike_id":"07bb7c2d-8e5f-4f0d-91b6-752ee4c647c7","system_id":"levelo_inurba_marseille","lat":43.286591,"lon":5.363346,"is_reserved":false,"is_disabled":false,"rental_uris":{"android":"levelo://app?vid=07bb7c2d-8e5f-4f0d-91b6-752ee4c647c7","ios":"levelo://app?vid=07bb7c2d-8e5f-4f0d-91b6-752ee4c647c7"},"vehicle_type_id":"4","last_reported":1701810401,"current_range_meters":1200,"station_id":"ce4bhah2rcd13ifvqej0","pricing_plan_id":"free"},{"bike_id":"1fbd3ca7-eb6e-41e3-85f0-c65b53cd56fd","system_id":"levelo_inurba_marseille","lat":43.286591,"lon":5.363346,"is_reserved":false,"is_disabled":false,"rental_uris":{"android":"levelo://app?vid=1fbd3ca7-eb6e-41e3-85f0-c65b53cd56fd","ios":"levelo://app?vid=1fbd3ca7-eb6e-41e3-85f0-c65b53cd56fd"},"vehicle_type_id":"4","last_reported":1701810401,"current_range_meters":20800,"station_id":"ce4bhah2rcd13ifvqej0","pricing_plan_id":"free"},{"bike_id":"19e8cf46-de88-4dd7-98a1-63aa7e5df212","system_id":"levelo_inurba_marseille","lat":43.29867,"lon":5.39734,"is_reserved":false,"is_disabled":false,"rental_uris":{"android":"levelo://app?vid=19e8cf46-de88-4dd7-98a1-63aa7e5df212","ios":"levelo://app?vid=19e8cf46-de88-4dd7-98a1-63aa7e5df212"},"vehicle_type_id":"4","last_reported":1701810401,"current_range_meters":0,"station_id":"ce4bh0h2rcd13ifvqd50","pricing_plan_id":"free"},{"bike_id":"5eb00496-be27-4c6b-8d57-f0761c296d98","system_id":"levelo_inurba_marseille","lat":43.295196,"lon":5.39397,"is_reserved":false,"is_disabled":false,"rental_uris":{"android":"levelo://app?vid=5eb00496-be27-4c6b-8d57-f0761c296d98","ios":"levelo://app?vid=5eb00496-be27-4c6b-8d57-f0761c296d98"},"vehicle_type_id":"4","last_reported":1701810401,"current_range_meters":12400,"station_id":"ce4bh292rcd13ifvqdf0","pricing_plan_id":"free"},{"bike_id":"20f95e80-10f6-4cb7-b3fb-b875994e234f","system_id":"levelo_inurba_marseille","lat":43.298681,"lon":5.397225,"is_reserved":false,"is_disabled":false,"rental_uris":{"android":"levelo://app?vid=20f95e80-10f6-4cb7-b3fb-b875994e234f","ios":"levelo://app?vid=20f95e80-10f6-4cb7-b3fb-b875994e234f"},"vehicle_type_id":"4","last_reported":1701810401,"current_range_meters":12800,"station_id":"ce4bh0h2rcd13ifvqd50","pricing_plan_id":"free"},{"bike_id":"c1e27a33-181e-4a5d-8f16-b8e469d2e9ab","system_id":"levelo_inurba_marseille","lat":43.286961,"lon":5.373785,"is_reserved":false,"is_disabled":false,"rental_uris":{"android":"levelo://app?vid=c1e27a33-181e-4a5d-8f16-b8e469d2e9ab","ios":"levelo://app?vid=c1e27a33-181e-4a5d-8f16-b8e469d2e9ab"},"vehicle_type_id":"4","last_reported":1701810401,"current_range_meters":14400,"station_id":"ce4bh3p2rcd13ifvqdq0","pricing_plan_id":"free"},{"bike_id":"2d774e96-82c9-45d3-8209-c813861849d4","system_id":"levelo_inurba_marseille","lat":43.302759,"lon":5.400793,"is_reserved":false,"is_disabled":false,"rental_uris":{"android":"levelo://app?vid=2d774e96-82c9-45d3-8209-c813861849d4","ios":"levelo://app?vid=2d774e96-82c9-45d3-8209-c813861849d4"},"vehicle_type_id":"4","last_reported":1701810401,"current_range_meters":22800,"station_id":"ce4bgvh2rcd13ifvqcs0","pricing_plan_id":"free"},{"bike_id":"e05a83b2-96e5-473c-9425-25592f028f13","system_id":"levelo_inurba_marseille","lat":43.289307,"lon":5.38406,"is_reserved":false,"is_disabled":false,"rental_uris":{"android":"levelo://app?vid=e05a83b2-96e5-473c-9425-25592f028f13","ios":"levelo://app?vid=e05a83b2-96e5-473c-9425-25592f028f13"},"vehicle_type_id":"4","last_reported":1701810401,"current_range_meters":31200,"station_id":"ce4bh612rcd13ifvqe6g","pricing_plan_id":"free"},{"bike_id":"a236b1a3-6f9e-4cef-b489-034c65473482","system_id":"levelo_inurba_marseille","lat":43.287184,"lon":5.37937,"is_reserved":false,"is_disabled":false,"rental_uris":{"android":"levelo://app?vid=a236b1a3-6f9e-4cef-b489-034c65473482","ios":"levelo://app?vid=a236b1a3-6f9e-4cef-b489-034c65473482"},"vehicle_type_id":"4","last_reported":1701810401,"current_range_meters":12400,"station_id":"ce4bh9p2rcd13ifvqec0","pricing_plan_id":"free"},{"bike_id":"336e77e6-6ddf-4f32-8537-e40bbd9280eb","system_id":"levelo_inurba_marseille","lat":43.287184,"lon":5.37937,"is_reserved":false,"is_disabled":false,"rental_uris":{"android":"levelo://app?vid=336e77e6-6ddf-4f32-8537-e40bbd9280eb","ios":"levelo://app?vid=336e77e6-6ddf-4f32-8537-e40bbd9280eb"},"vehicle_type_id":"4","last_reported":1701810401,"current_range_meters":15200,"station_id":"ce4bh9p2rcd13ifvqec0","pricing_plan_id":"free"},{"bike_id":"6f3c10b8-c07f-4bc4-a5c5-63d22e7d684d","system_id":"levelo_inurba_marseille","lat":43.287184,"lon":5.37937,"is_reserved":false,"is_disabled":false,"rental_uris":{"android":"levelo://app?vid=6f3c10b8-c07f-4bc4-a5c5-63d22e7d684d","ios":"levelo://app?vid=6f3c10b8-c07f-4bc4-a5c5-63d22e7d684d"},"vehicle_type_id":"4","last_reported":1701810401,"current_range_meters":13600,"station_id":"ce4bh9p2rcd13ifvqec0","pricing_plan_id":"free"},{"bike_id":"d4d8344c-2839-42d1-98e2-b1a66d18827b","system_id":"levelo_inurba_marseille","lat":43.29181,"lon":5.39316,"is_reserved":false,"is_disabled":false,"rental_uris":{"android":"levelo://app?vid=d4d8344c-2839-42d1-98e2-b1a66d18827b","ios":"levelo://app?vid=d4d8344c-2839-42d1-98e2-b1a66d18827b"},"vehicle_type_id":"4","last_reported":1701810401,"current_range_meters":20000,"station_id":"ce4bh192rcd13ifvqdd0","pricing_plan_id":"free"},{"bike_id":"5b449d3e-a381-4cb8-85e1-1e87dff67bac","system_id":"levelo_inurba_marseille","lat":43.291994,"lon":5.392907,"is_reserved":false,"is_disabled":false,"rental_uris":{"android":"levelo://app?vid=5b449d3e-a381-4cb8-85e1-1e87dff67bac","ios":"levelo://app?vid=5b449d3e-a381-4cb8-85e1-1e87dff67bac"},"vehicle_type_id":"4","last_reported":1701810401,"current_range_meters":0,"station_id":"ce4bh192rcd13ifvqdd0","pricing_plan_id":"free"},{"bike_id":"8ecdd6d8-318d-48d6-b323-0a270a0205b8","system_id":"levelo_inurba_marseille","lat":43.284538,"lon":5.358657,"is_reserved":false,"is_disabled":false,"rental_uris":{"android":"levelo://app?vid=8ecdd6d8-318d-48d6-b323-0a270a0205b8","ios":"levelo://app?vid=8ecdd6d8-318d-48d6-b323-0a270a0205b8"},"vehicle_type_id":"4","last_reported":1701810401,"current_range_meters":20000,"station_id":"ce4bhah2rcd13ifvqei0","pricing_plan_id":"free"},{"bike_id":"f56f8be2-ebde-4d23-8461-f7a6797dcf91","system_id":"levelo_inurba_marseille","lat":43.284538,"lon":5.358657,"is_reserved":false,"is_disabled":false,"rental_uris":{"android":"levelo://app?vid=f56f8be2-ebde-4d23-8461-f7a6797dcf91","ios":"levelo://app?vid=f56f8be2-ebde-4d23-8461-f7a6797dcf91"},"vehicle_type_id":"4","last_reported":1701810401,"current_range_meters":22000,"station_id":"ce4bhah2rcd13ifvqei0","pricing_plan_id":"free"},{"bike_id":"23e20ab3-3c32-4bb8-b269-6448f0753884","system_id":"levelo_inurba_marseille","lat":43.284534,"lon":5.358662,"is_reserved":false,"is_disabled":false,"rental_uris":{"android":"levelo://app?vid=23e20ab3-3c32-4bb8-b269-6448f0753884","ios":"levelo://app?vid=23e20ab3-3c32-4bb8-b269-6448f0753884"},"vehicle_type_id":"4","last_reported":1701810401,"current_range_meters":24400,"station_id":"ce4bhah2rcd13ifvqei0","pricing_plan_id":"free"},{"bike_id":"51c79b9f-7d85-4db7-b30c-7d97acf8cc13","system_id":"levelo_inurba_marseille","lat":43.284538,"lon":5.358657,"is_reserved":false,"is_disabled":false,"rental_uris":{"android":"levelo://app?vid=51c79b9f-7d85-4db7-b30c-7d97acf8cc13","ios":"levelo://app?vid=51c79b9f-7d85-4db7-b30c-7d97acf8cc13"},"vehicle_type_id":"4","last_reported":1701810401,"current_range_meters":21200,"station_id":"ce4bhah2rcd13ifvqei0","pricing_plan_id":"free"},{"bike_id":"8666040e-b6eb-4b35-8626-e4aaade3e572","system_id":"levelo_inurba_marseille","lat":43.284534,"lon":5.358662,"is_reserved":false,"is_disabled":false,"rental_uris":{"android":"levelo://app?vid=8666040e-b6eb-4b35-8626-e4aaade3e572","ios":"levelo://app?vid=8666040e-b6eb-4b35-8626-e4aaade3e572"},"vehicle_type_id":"4","last_reported":1701810401,"current_range_meters":14800,"station_id":"ce4bhah2rcd13ifvqei0","pricing_plan_id":"free"},{"bike_id":"377edaf2-a03f-485e-8dfc-662d69a5852c","system_id":"levelo_inurba_marseille","lat":43.284538,"lon":5.358657,"is_reserved":false,"is_disabled":false,"rental_uris":{"android":"levelo://app?vid=377edaf2-a03f-485e-8dfc-662d69a5852c","ios":"levelo://app?vid=377edaf2-a03f-485e-8dfc-662d69a5852c"},"vehicle_type_id":"4","last_reported":1701810401,"current_range_meters":28000,"station_id":"ce4bhah2rcd13ifvqei0","pricing_plan_id":"free"},{"bike_id":"15a282c0-db38-4075-8cbb-b8ce32797b67","system_id":"levelo_inurba_marseille","lat":43.284534,"lon":5.358662,"is_reserved":false,"is_disabled":false,"rental_uris":{"android":"levelo://app?vid=15a282c0-db38-4075-8cbb-b8ce32797b67","ios":"levelo://app?vid=15a282c0-db38-4075-8cbb-b8ce32797b67"},"vehicle_type_id":"4","last_reported":1701810401,"current_range_meters":23600,"station_id":"ce4bhah2rcd13ifvqei0","pricing_plan_id":"free"},{"bike_id":"2c0a492b-091c-456e-8699-d46e88668379","system_id":"levelo_inurba_marseille","lat":43.284538,"lon":5.358657,"is_reserved":false,"is_disabled":false,"rental_uris":{"android":"levelo://app?vid=2c0a492b-091c-456e-8699-d46e88668379","ios":"levelo://app?vid=2c0a492b-091c-456e-8699-d46e88668379"},"vehicle_type_id":"4","last_reported":1701810401,"current_range_meters":18800,"station_id":"ce4bhah2rcd13ifvqei0","pricing_plan_id":"free"},{"bike_id":"c2d61f0c-efc2-4ad3-a5a4-0a2aa4f5f246","system_id":"levelo_inurba_marseille","lat":43.285856,"lon":5.350771,"is_reserved":false,"is_disabled":false,"rental_uris":{"android":"levelo://app?vid=c2d61f0c-efc2-4ad3-a5a4-0a2aa4f5f246","ios":"levelo://app?vid=c2d61f0c-efc2-4ad3-a5a4-0a2aa4f5f246"},"vehicle_type_id":"4","last_reported":1701810401,"current_range_meters":5200,"station_id":"ce4bhch2rcd13ifvqeug","pricing_plan_id":"free"},{"bike_id":"2efd7ac1-eca2-4e85-b931-ce611380bd00","system_id":"levelo_inurba_marseille","lat":43.285856,"lon":5.350771,"is_reserved":false,"is_disabled":false,"rental_uris":{"android":"levelo://app?vid=2efd7ac1-eca2-4e85-b931-ce611380bd00","ios":"levelo://app?vid=2efd7ac1-eca2-4e85-b931-ce611380bd00"},"vehicle_type_id":"4","last_reported":1701810401,"current_range_meters":22000,"station_id":"ce4bhch2rcd13ifvqeug","pricing_plan_id":"free"},{"bike_id":"a1d5832e-e516-411c-88ec-8f4f7f0daaf8","system_id":"levelo_inurba_marseille","lat":43.286152,"lon":5.351045,"is_reserved":false,"is_disabled":false,"rental_uris":{"android":"levelo://app?vid=a1d5832e-e516-411c-88ec-8f4f7f0daaf8","ios":"levelo://app?vid=a1d5832e-e516-411c-88ec-8f4f7f0daaf8"},"vehicle_type_id":"4","last_reported":1701810401,"current_range_meters":4800,"station_id":"ce4bhch2rcd13ifvqeug","pricing_plan_id":"free"},{"bike_id":"5b186023-b6d7-486d-948d-c4e9f1f8233d","system_id":"levelo_inurba_marseille","lat":43.28613,"lon":5.35102,"is_reserved":false,"is_disabled":false,"rental_uris":{"android":"levelo://app?vid=5b186023-b6d7-486d-948d-c4e9f1f8233d","ios":"levelo://app?vid=5b186023-b6d7-486d-948d-c4e9f1f8233d"},"vehicle_type_id":"4","last_reported":1701810401,"current_range_meters":20400,"station_id":"ce4bhch2rcd13ifvqeug","pricing_plan_id":"free"},{"bike_id":"f4c234a6-76fc-426b-8298-40f892eca028","system_id":"levelo_inurba_marseille","lat":43.295713,"lon":5.399639,"is_reserved":false,"is_disabled":false,"rental_uris":{"android":"levelo://app?vid=f4c234a6-76fc-426b-8298-40f892eca028","ios":"levelo://app?vid=f4c234a6-76fc-426b-8298-40f892eca028"},"vehicle_type_id":"4","last_reported":1701810401,"current_range_meters":23200,"station_id":"ce4bh312rcd13ifvqdj0","pricing_plan_id":"free"},{"bike_id":"5fad739f-ecbb-465f-9d5d-01fd562691c5","system_id":"levelo_inurba_marseille","lat":43.31881,"lon":5.407339,"is_reserved":false,"is_disabled":false,"rental_uris":{"android":"levelo://app?vid=5fad739f-ecbb-465f-9d5d-01fd562691c5","ios":"levelo://app?vid=5fad739f-ecbb-465f-9d5d-01fd562691c5"},"vehicle_type_id":"4","last_reported":1701810401,"current_range_meters":0,"station_id":"ce4bhq12rcd13ifvqhig","pricing_plan_id":"free"},{"bike_id":"85707ad3-f096-44f4-a174-8cc961f40347","system_id":"levelo_inurba_marseille","lat":43.319179,"lon":5.407725,"is_reserved":false,"is_disabled":false,"rental_uris":{"android":"levelo://app?vid=85707ad3-f096-44f4-a174-8cc961f40347","ios":"levelo://app?vid=85707ad3-f096-44f4-a174-8cc961f40347"},"vehicle_type_id":"4","last_reported":1701810401,"current_range_meters":0,"station_id":"ce4bhq12rcd13ifvqhig","pricing_plan_id":"free"},{"bike_id":"3734231e-d673-4404-b15d-d7a23ba8c854","system_id":"levelo_inurba_marseille","lat":43.288053,"lon":5.391442,"is_reserved":false,"is_disabled":false,"rental_uris":{"android":"levelo://app?vid=3734231e-d673-4404-b15d-d7a23ba8c854","ios":"levelo://app?vid=3734231e-d673-4404-b15d-d7a23ba8c854"},"vehicle_type_id":"4","last_reported":1701810401,"current_range_meters":0,"station_id":"","pricing_plan_id":"free"},{"bike_id":"db920be0-fb0f-4fdb-91ad-92736490ed79","system_id":"levelo_inurba_marseille","lat":43.323464,"lon":5.406297,"is_reserved":false,"is_disabled":false,"rental_uris":{"android":"levelo://app?vid=db920be0-fb0f-4fdb-91ad-92736490ed79","ios":"levelo://app?vid=db920be0-fb0f-4fdb-91ad-92736490ed79"},"vehicle_type_id":"4","last_reported":1701810401,"current_range_meters":25600,"station_id":"ce4bhq92rcd13ifvqhjg","pricing_plan_id":"free"},{"bike_id":"095cb215-0ccb-4a46-96fe-95a8ee0b5a2d","system_id":"levelo_inurba_marseille","lat":43.32334,"lon":5.40622,"is_reserved":false,"is_disabled":false,"rental_uris":{"android":"levelo://app?vid=095cb215-0ccb-4a46-96fe-95a8ee0b5a2d","ios":"levelo://app?vid=095cb215-0ccb-4a46-96fe-95a8ee0b5a2d"},"vehicle_type_id":"4","last_reported":1701810401,"current_range_meters":20400,"station_id":"ce4bhq92rcd13ifvqhjg","pricing_plan_id":"free"},{"bike_id":"5050b9ff-74f9-4a14-8513-e3a7b57aae00","system_id":"levelo_inurba_marseille","lat":43.297946,"lon":5.404063,"is_reserved":false,"is_disabled":false,"rental_uris":{"android":"levelo://app?vid=5050b9ff-74f9-4a14-8513-e3a7b57aae00","ios":"levelo://app?vid=5050b9ff-74f9-4a14-8513-e3a7b57aae00"},"vehicle_type_id":"4","last_reported":1701810401,"current_range_meters":25600,"station_id":"ce4bh112rcd13ifvqd90","pricing_plan_id":"free"},{"bike_id":"611aa79a-0a83-4ab7-a112-13ee77ddbdf2","system_id":"levelo_inurba_marseille","lat":43.283494,"lon":5.380945,"is_reserved":false,"is_disabled":false,"rental_uris":{"android":"levelo://app?vid=611aa79a-0a83-4ab7-a112-13ee77ddbdf2","ios":"levelo://app?vid=611aa79a-0a83-4ab7-a112-13ee77ddbdf2"},"vehicle_type_id":"4","last_reported":1701810401,"current_range_meters":21600,"station_id":"ce4bh412rcd13ifvqdr0","pricing_plan_id":"free"},{"bike_id":"b7722293-1a26-4fc1-9b0d-a2c5ccda02f4","system_id":"levelo_inurba_marseille","lat":43.283119,"lon":5.381087,"is_reserved":false,"is_disabled":false,"rental_uris":{"android":"levelo://app?vid=b7722293-1a26-4fc1-9b0d-a2c5ccda02f4","ios":"levelo://app?vid=b7722293-1a26-4fc1-9b0d-a2c5ccda02f4"},"vehicle_type_id":"4","last_reported":1701810401,"current_range_meters":3600,"station_id":"","pricing_plan_id":"free"},{"bike_id":"3bc4e755-50b2-4f94-97bc-8e003e63d446","system_id":"levelo_inurba_marseille","lat":43.28727,"lon":5.36078,"is_reserved":false,"is_disabled":false,"rental_uris":{"android":"levelo://app?vid=3bc4e755-50b2-4f94-97bc-8e003e63d446","ios":"levelo://app?vid=3bc4e755-50b2-4f94-97bc-8e003e63d446"},"vehicle_type_id":"4","last_reported":1701810401,"current_range_meters":14000,"station_id":"cki0cbj6b192h4jlfktg","pricing_plan_id":"free"},{"bike_id":"4c2aad82-0f2f-4a7a-a5df-a7d49217e2af","system_id":"levelo_inurba_marseille","lat":43.292724,"lon":5.401131,"is_reserved":false,"is_disabled":false,"rental_uris":{"android":"levelo://app?vid=4c2aad82-0f2f-4a7a-a5df-a7d49217e2af","ios":"levelo://app?vid=4c2aad82-0f2f-4a7a-a5df-a7d49217e2af"},"vehicle_type_id":"4","last_reported":1701810401,"current_range_meters":15200,"station_id":"ce4bh312rcd13ifvqdk0","pricing_plan_id":"free"},{"bike_id":"d8ddb8d3-01b7-4016-83ad-170af055727d","system_id":"levelo_inurba_marseille","lat":43.292724,"lon":5.401131,"is_reserved":false,"is_disabled":false,"rental_uris":{"android":"levelo://app?vid=d8ddb8d3-01b7-4016-83ad-170af055727d","ios":"levelo://app?vid=d8ddb8d3-01b7-4016-83ad-170af055727d"},"vehicle_type_id":"4","last_reported":1701810401,"current_range_meters":22000,"station_id":"ce4bh312rcd13ifvqdk0","pricing_plan_id":"free"},{"bike_id":"bce71c12-22d6-45da-b79d-1da2154b978f","system_id":"levelo_inurba_marseille","lat":43.282744,"lon":5.350533,"is_reserved":false,"is_disabled":false,"rental_uris":{"android":"levelo://app?vid=bce71c12-22d6-45da-b79d-1da2154b978f","ios":"levelo://app?vid=bce71c12-22d6-45da-b79d-1da2154b978f"},"vehicle_type_id":"4","last_reported":1701810401,"current_range_meters":14000,"station_id":"ce4bhbp2rcd13ifvqerg","pricing_plan_id":"free"},{"bike_id":"756c4df3-0640-4aee-84c9-9bd41f9503ab","system_id":"levelo_inurba_marseille","lat":43.282744,"lon":5.350533,"is_reserved":false,"is_disabled":false,"rental_uris":{"android":"levelo://app?vid=756c4df3-0640-4aee-84c9-9bd41f9503ab","ios":"levelo://app?vid=756c4df3-0640-4aee-84c9-9bd41f9503ab"},"vehicle_type_id":"4","last_reported":1701810401,"current_range_meters":7200,"station_id":"ce4bhbp2rcd13ifvqerg","pricing_plan_id":"free"},{"bike_id":"a19aa61e-072b-40a9-aa91-b6a4e3a9be8f","system_id":"levelo_inurba_marseille","lat":43.282754,"lon":5.350519,"is_reserved":false,"is_disabled":false,"rental_uris":{"android":"levelo://app?vid=a19aa61e-072b-40a9-aa91-b6a4e3a9be8f","ios":"levelo://app?vid=a19aa61e-072b-40a9-aa91-b6a4e3a9be8f"},"vehicle_type_id":"4","last_reported":1701810401,"current_range_meters":8800,"station_id":"ce4bhbp2rcd13ifvqerg","pricing_plan_id":"free"},{"bike_id":"54ed5a7f-9259-47f8-a381-3ea9ad9e4f00","system_id":"levelo_inurba_marseille","lat":43.28039,"lon":5.369297,"is_reserved":false,"is_disabled":false,"rental_uris":{"android":"levelo://app?vid=54ed5a7f-9259-47f8-a381-3ea9ad9e4f00","ios":"levelo://app?vid=54ed5a7f-9259-47f8-a381-3ea9ad9e4f00"},"vehicle_type_id":"4","last_reported":1701810401,"current_range_meters":13600,"station_id":"ce4bha12rcd13ifvqef0","pricing_plan_id":"free"},{"bike_id":"3e63bd18-083f-433f-90d8-accbcf1dd2cc","system_id":"levelo_inurba_marseille","lat":43.28039,"lon":5.369297,"is_reserved":false,"is_disabled":false,"rental_uris":{"android":"levelo://app?vid=3e63bd18-083f-433f-90d8-accbcf1dd2cc","ios":"levelo://app?vid=3e63bd18-083f-433f-90d8-accbcf1dd2cc"},"vehicle_type_id":"4","last_reported":1701810401,"current_range_meters":9200,"station_id":"ce4bha12rcd13ifvqef0","pricing_plan_id":"free"},{"bike_id":"183f539f-3181-4fd4-82d7-e1df942ed36d","system_id":"levelo_inurba_marseille","lat":43.28039,"lon":5.369297,"is_reserved":false,"is_disabled":false,"rental_uris":{"android":"levelo://app?vid=183f539f-3181-4fd4-82d7-e1df942ed36d","ios":"levelo://app?vid=183f539f-3181-4fd4-82d7-e1df942ed36d"},"vehicle_type_id":"4","last_reported":1701810401,"current_range_meters":0,"station_id":"ce4bha12rcd13ifvqef0","pricing_plan_id":"free"},{"bike_id":"a59cd7e1-0fcc-4ac2-918b-9fa7dee63fba","system_id":"levelo_inurba_marseille","lat":43.2905,"lon":5.39961,"is_reserved":false,"is_disabled":false,"rental_uris":{"android":"levelo://app?vid=a59cd7e1-0fcc-4ac2-918b-9fa7dee63fba","ios":"levelo://app?vid=a59cd7e1-0fcc-4ac2-918b-9fa7dee63fba"},"vehicle_type_id":"4","last_reported":1701810401,"current_range_meters":1200,"station_id":"ce4bh392rcd13ifvqdm0","pricing_plan_id":"free"},{"bike_id":"3b4ac1c6-6cbf-4e90-b601-9d8596040740","system_id":"levelo_inurba_marseille","lat":43.28447,"lon":5.39195,"is_reserved":false,"is_disabled":false,"rental_uris":{"android":"levelo://app?vid=3b4ac1c6-6cbf-4e90-b601-9d8596040740","ios":"levelo://app?vid=3b4ac1c6-6cbf-4e90-b601-9d8596040740"},"vehicle_type_id":"4","last_reported":1701810401,"current_range_meters":12400,"station_id":"ce4bhoh2rcd13ifvqh5g","pricing_plan_id":"free"},{"bike_id":"6082b999-84ba-464a-ac4c-d6fbc13f6292","system_id":"levelo_inurba_marseille","lat":43.284462,"lon":5.392121,"is_reserved":false,"is_disabled":false,"rental_uris":{"android":"levelo://app?vid=6082b999-84ba-464a-ac4c-d6fbc13f6292","ios":"levelo://app?vid=6082b999-84ba-464a-ac4c-d6fbc13f6292"},"vehicle_type_id":"4","last_reported":1701810401,"current_range_meters":28000,"station_id":"ce4bhoh2rcd13ifvqh5g","pricing_plan_id":"free"},{"bike_id":"537b6760-696d-4ecd-93fb-02bd18532c61","system_id":"levelo_inurba_marseille","lat":43.28573,"lon":5.394992,"is_reserved":false,"is_disabled":false,"rental_uris":{"android":"levelo://app?vid=537b6760-696d-4ecd-93fb-02bd18532c61","ios":"levelo://app?vid=537b6760-696d-4ecd-93fb-02bd18532c61"},"vehicle_type_id":"4","last_reported":1701810401,"current_range_meters":23600,"station_id":"ce4bh292rcd13ifvqdg0","pricing_plan_id":"free"},{"bike_id":"486efaf5-0116-4223-967f-075be4dc6679","system_id":"levelo_inurba_marseille","lat":43.279087,"lon":5.380114,"is_reserved":false,"is_disabled":false,"rental_uris":{"android":"levelo://app?vid=486efaf5-0116-4223-967f-075be4dc6679","ios":"levelo://app?vid=486efaf5-0116-4223-967f-075be4dc6679"},"vehicle_type_id":"4","last_reported":1701810401,"current_range_meters":26000,"station_id":"ce4bhf92rcd13ifvqf50","pricing_plan_id":"free"},{"bike_id":"7acf2a34-4b55-466b-8d19-c8b56e779d9d","system_id":"levelo_inurba_marseille","lat":43.287154,"lon":5.399979,"is_reserved":false,"is_disabled":false,"rental_uris":{"android":"levelo://app?vid=7acf2a34-4b55-466b-8d19-c8b56e779d9d","ios":"levelo://app?vid=7acf2a34-4b55-466b-8d19-c8b56e779d9d"},"vehicle_type_id":"4","last_reported":1701810401,"current_range_meters":26800,"station_id":"ce4bho92rcd13ifvqh3g","pricing_plan_id":"free"},{"bike_id":"4e30b32c-a32e-495b-964a-9c98a5dae0ef","system_id":"levelo_inurba_marseille","lat":43.279742,"lon":5.38744,"is_reserved":false,"is_disabled":false,"rental_uris":{"android":"levelo://app?vid=4e30b32c-a32e-495b-964a-9c98a5dae0ef","ios":"levelo://app?vid=4e30b32c-a32e-495b-964a-9c98a5dae0ef"},"vehicle_type_id":"4","last_reported":1701810401,"current_range_meters":18800,"station_id":"ce4bhg12rcd13ifvqf80","pricing_plan_id":"free"},{"bike_id":"1b7ddf39-3262-4dfa-b92a-c089db7658f1","system_id":"levelo_inurba_marseille","lat":43.292569,"lon":5.409107,"is_reserved":false,"is_disabled":false,"rental_uris":{"android":"levelo://app?vid=1b7ddf39-3262-4dfa-b92a-c089db7658f1","ios":"levelo://app?vid=1b7ddf39-3262-4dfa-b92a-c089db7658f1"},"vehicle_type_id":"4","last_reported":1701810401,"current_range_meters":14400,"station_id":"ce4bh192rcd13ifvqdc0","pricing_plan_id":"free"},{"bike_id":"140b8ec6-aa09-43f1-9b46-72dda8328aa4","system_id":"levelo_inurba_marseille","lat":43.292571,"lon":5.409107,"is_reserved":false,"is_disabled":false,"rental_uris":{"android":"levelo://app?vid=140b8ec6-aa09-43f1-9b46-72dda8328aa4","ios":"levelo://app?vid=140b8ec6-aa09-43f1-9b46-72dda8328aa4"},"vehicle_type_id":"4","last_reported":1701810401,"current_range_meters":4800,"station_id":"ce4bh192rcd13ifvqdc0","pricing_plan_id":"free"},{"bike_id":"8d37f3f3-cafe-41b3-93ac-86502e716d0e","system_id":"levelo_inurba_marseille","lat":43.292569,"lon":5.409107,"is_reserved":false,"is_disabled":false,"rental_uris":{"android":"levelo://app?vid=8d37f3f3-cafe-41b3-93ac-86502e716d0e","ios":"levelo://app?vid=8d37f3f3-cafe-41b3-93ac-86502e716d0e"},"vehicle_type_id":"4","last_reported":1701810401,"current_range_meters":12400,"station_id":"ce4bh192rcd13ifvqdc0","pricing_plan_id":"free"},{"bike_id":"4fcc6f08-3b05-4a6c-a797-d66e356cfa7c","system_id":"levelo_inurba_marseille","lat":43.292569,"lon":5.409107,"is_reserved":false,"is_disabled":false,"rental_uris":{"android":"levelo://app?vid=4fcc6f08-3b05-4a6c-a797-d66e356cfa7c","ios":"levelo://app?vid=4fcc6f08-3b05-4a6c-a797-d66e356cfa7c"},"vehicle_type_id":"4","last_reported":1701810401,"current_range_meters":23200,"station_id":"ce4bh192rcd13ifvqdc0","pricing_plan_id":"free"},{"bike_id":"e653648a-b829-4301-bab0-7c830288dee0","system_id":"levelo_inurba_marseille","lat":43.303837,"lon":5.418724,"is_reserved":false,"is_disabled":false,"rental_uris":{"android":"levelo://app?vid=e653648a-b829-4301-bab0-7c830288dee0","ios":"levelo://app?vid=e653648a-b829-4301-bab0-7c830288dee0"},"vehicle_type_id":"4","last_reported":1701810401,"current_range_meters":12800,"station_id":"ce4bhop2rcd13ifvqh7g","pricing_plan_id":"free"},{"bike_id":"17db11e9-ff6b-4265-a772-9fca0f8a787a","system_id":"levelo_inurba_marseille","lat":43.28493,"lon":5.40418,"is_reserved":false,"is_disabled":false,"rental_uris":{"android":"levelo://app?vid=17db11e9-ff6b-4265-a772-9fca0f8a787a","ios":"levelo://app?vid=17db11e9-ff6b-4265-a772-9fca0f8a787a"},"vehicle_type_id":"4","last_reported":1701810401,"current_range_meters":0,"station_id":"","pricing_plan_id":"free"},{"bike_id":"8d3318de-ae70-4d4c-a0c3-af014cb01a56","system_id":"levelo_inurba_marseille","lat":43.278401,"lon":5.392152,"is_reserved":false,"is_disabled":false,"rental_uris":{"android":"levelo://app?vid=8d3318de-ae70-4d4c-a0c3-af014cb01a56","ios":"levelo://app?vid=8d3318de-ae70-4d4c-a0c3-af014cb01a56"},"vehicle_type_id":"4","last_reported":1701810401,"current_range_meters":8000,"station_id":"ce4bhjp2rcd13ifvqga0","pricing_plan_id":"free"},{"bike_id":"836698bf-0593-4c6f-a29c-25959d245d4a","system_id":"levelo_inurba_marseille","lat":43.273613,"lon":5.362705,"is_reserved":false,"is_disabled":false,"rental_uris":{"android":"levelo://app?vid=836698bf-0593-4c6f-a29c-25959d245d4a","ios":"levelo://app?vid=836698bf-0593-4c6f-a29c-25959d245d4a"},"vehicle_type_id":"4","last_reported":1701810401,"current_range_meters":25600,"station_id":"ce4bhbh2rcd13ifvqeo0","pricing_plan_id":"free"},{"bike_id":"9f545bdf-f55b-479c-8163-f23d47de37f2","system_id":"levelo_inurba_marseille","lat":43.33612,"lon":5.410321,"is_reserved":false,"is_disabled":false,"rental_uris":{"android":"levelo://app?vid=9f545bdf-f55b-479c-8163-f23d47de37f2","ios":"levelo://app?vid=9f545bdf-f55b-479c-8163-f23d47de37f2"},"vehicle_type_id":"4","last_reported":1701810401,"current_range_meters":17600,"station_id":"ce4bhqh2rcd13ifvqhmg","pricing_plan_id":"free"},{"bike_id":"d4151733-36c5-4148-b006-1aa3e60b9e6f","system_id":"levelo_inurba_marseille","lat":43.336134,"lon":5.410341,"is_reserved":false,"is_disabled":false,"rental_uris":{"android":"levelo://app?vid=d4151733-36c5-4148-b006-1aa3e60b9e6f","ios":"levelo://app?vid=d4151733-36c5-4148-b006-1aa3e60b9e6f"},"vehicle_type_id":"4","last_reported":1701810401,"current_range_meters":15600,"station_id":"ce4bhqh2rcd13ifvqhmg","pricing_plan_id":"free"},{"bike_id":"b1e0d68f-b5ce-4efc-a11d-bb9890d3062f","system_id":"levelo_inurba_marseille","lat":43.27871,"lon":5.39491,"is_reserved":false,"is_disabled":false,"rental_uris":{"android":"levelo://app?vid=b1e0d68f-b5ce-4efc-a11d-bb9890d3062f","ios":"levelo://app?vid=b1e0d68f-b5ce-4efc-a11d-bb9890d3062f"},"vehicle_type_id":"4","last_reported":1701810401,"current_range_meters":27600,"station_id":"","pricing_plan_id":"free"},{"bike_id":"972ad8df-576c-4a6c-98b8-67136b54b8e0","system_id":"levelo_inurba_marseille","lat":43.279952,"lon":5.400085,"is_reserved":false,"is_disabled":false,"rental_uris":{"android":"levelo://app?vid=972ad8df-576c-4a6c-98b8-67136b54b8e0","ios":"levelo://app?vid=972ad8df-576c-4a6c-98b8-67136b54b8e0"},"vehicle_type_id":"4","last_reported":1701810401,"current_range_meters":0,"station_id":"ce4bho92rcd13ifvqh4g","pricing_plan_id":"free"},{"bike_id":"2c337d2b-cceb-4a65-b16d-e1c20cfe6466","system_id":"levelo_inurba_marseille","lat":43.279975,"lon":5.40009,"is_reserved":false,"is_disabled":false,"rental_uris":{"android":"levelo://app?vid=2c337d2b-cceb-4a65-b16d-e1c20cfe6466","ios":"levelo://app?vid=2c337d2b-cceb-4a65-b16d-e1c20cfe6466"},"vehicle_type_id":"4","last_reported":1701810401,"current_range_meters":29600,"station_id":"ce4bho92rcd13ifvqh4g","pricing_plan_id":"free"},{"bike_id":"6f069aab-0dfd-4bb1-a7c7-dafdd20df186","system_id":"levelo_inurba_marseille","lat":43.279952,"lon":5.400085,"is_reserved":false,"is_disabled":false,"rental_uris":{"android":"levelo://app?vid=6f069aab-0dfd-4bb1-a7c7-dafdd20df186","ios":"levelo://app?vid=6f069aab-0dfd-4bb1-a7c7-dafdd20df186"},"vehicle_type_id":"4","last_reported":1701810401,"current_range_meters":29200,"station_id":"ce4bho92rcd13ifvqh4g","pricing_plan_id":"free"},{"bike_id":"4f3c361f-dc39-4eb2-8cb4-572b7625ae11","system_id":"levelo_inurba_marseille","lat":43.279952,"lon":5.400085,"is_reserved":false,"is_disabled":false,"rental_uris":{"android":"levelo://app?vid=4f3c361f-dc39-4eb2-8cb4-572b7625ae11","ios":"levelo://app?vid=4f3c361f-dc39-4eb2-8cb4-572b7625ae11"},"vehicle_type_id":"4","last_reported":1701810401,"current_range_meters":11600,"station_id":"ce4bho92rcd13ifvqh4g","pricing_plan_id":"free"},{"bike_id":"dd6b756e-3032-4bf3-8729-0e0248edbc6c","system_id":"levelo_inurba_marseille","lat":43.317121,"lon":5.423936,"is_reserved":false,"is_disabled":false,"rental_uris":{"android":"levelo://app?vid=dd6b756e-3032-4bf3-8729-0e0248edbc6c","ios":"levelo://app?vid=dd6b756e-3032-4bf3-8729-0e0248edbc6c"},"vehicle_type_id":"4","last_reported":1701810401,"current_range_meters":27200,"station_id":"ce4bhp92rcd13ifvqhbg","pricing_plan_id":"free"},{"bike_id":"910fd3aa-d2e0-4553-894a-6161d41c7fcd","system_id":"levelo_inurba_marseille","lat":43.27574,"lon":5.39544,"is_reserved":false,"is_disabled":false,"rental_uris":{"android":"levelo://app?vid=910fd3aa-d2e0-4553-894a-6161d41c7fcd","ios":"levelo://app?vid=910fd3aa-d2e0-4553-894a-6161d41c7fcd"},"vehicle_type_id":"4","last_reported":1701810401,"current_range_meters":5200,"station_id":"","pricing_plan_id":"free"},{"bike_id":"1c5e4cb4-584a-4b60-848a-6c09a491ed01","system_id":"levelo_inurba_marseille","lat":43.274103,"lon":5.394016,"is_reserved":false,"is_disabled":false,"rental_uris":{"android":"levelo://app?vid=1c5e4cb4-584a-4b60-848a-6c09a491ed01","ios":"levelo://app?vid=1c5e4cb4-584a-4b60-848a-6c09a491ed01"},"vehicle_type_id":"4","last_reported":1701810401,"current_range_meters":22400,"station_id":"ce4bhdp2rcd13ifvqf20","pricing_plan_id":"free"},{"bike_id":"4aaafaa4-5992-4d41-aca4-45ea537c3e9e","system_id":"levelo_inurba_marseille","lat":43.27214,"lon":5.3925,"is_reserved":false,"is_disabled":false,"rental_uris":{"android":"levelo://app?vid=4aaafaa4-5992-4d41-aca4-45ea537c3e9e","ios":"levelo://app?vid=4aaafaa4-5992-4d41-aca4-45ea537c3e9e"},"vehicle_type_id":"4","last_reported":1701810401,"current_range_meters":15600,"station_id":"","pricing_plan_id":"free"},{"bike_id":"2e3cbb3a-4846-45a0-9aae-ab444f76d0aa","system_id":"levelo_inurba_marseille","lat":43.278128,"lon":5.407195,"is_reserved":false,"is_disabled":false,"rental_uris":{"android":"levelo://app?vid=2e3cbb3a-4846-45a0-9aae-ab444f76d0aa","ios":"levelo://app?vid=2e3cbb3a-4846-45a0-9aae-ab444f76d0aa"},"vehicle_type_id":"4","last_reported":1701810401,"current_range_meters":25200,"station_id":"ce4bhnh2rcd13ifvqgtg","pricing_plan_id":"free"},{"bike_id":"3f742ab7-8b73-4aee-bb8a-9b354a191f29","system_id":"levelo_inurba_marseille","lat":43.278128,"lon":5.407195,"is_reserved":false,"is_disabled":false,"rental_uris":{"android":"levelo://app?vid=3f742ab7-8b73-4aee-bb8a-9b354a191f29","ios":"levelo://app?vid=3f742ab7-8b73-4aee-bb8a-9b354a191f29"},"vehicle_type_id":"4","last_reported":1701810401,"current_range_meters":1600,"station_id":"ce4bhnh2rcd13ifvqgtg","pricing_plan_id":"free"},{"bike_id":"dfa25169-f203-4753-93eb-e6a6e2622152","system_id":"levelo_inurba_marseille","lat":43.27812,"lon":5.4071,"is_reserved":false,"is_disabled":false,"rental_uris":{"android":"levelo://app?vid=dfa25169-f203-4753-93eb-e6a6e2622152","ios":"levelo://app?vid=dfa25169-f203-4753-93eb-e6a6e2622152"},"vehicle_type_id":"4","last_reported":1701810401,"current_range_meters":11600,"station_id":"ce4bhnh2rcd13ifvqgtg","pricing_plan_id":"free"},{"bike_id":"b186fe69-d035-4318-8b3e-fbd7b3a8988d","system_id":"levelo_inurba_marseille","lat":43.269467,"lon":5.386439,"is_reserved":false,"is_disabled":false,"rental_uris":{"android":"levelo://app?vid=b186fe69-d035-4318-8b3e-fbd7b3a8988d","ios":"levelo://app?vid=b186fe69-d035-4318-8b3e-fbd7b3a8988d"},"vehicle_type_id":"4","last_reported":1701810401,"current_range_meters":8800,"station_id":"ce4bhh92rcd13ifvqfh0","pricing_plan_id":"free"},{"bike_id":"6e89b011-7732-4e7e-aa31-d04adefd18ba","system_id":"levelo_inurba_marseille","lat":43.269467,"lon":5.386439,"is_reserved":false,"is_disabled":false,"rental_uris":{"android":"levelo://app?vid=6e89b011-7732-4e7e-aa31-d04adefd18ba","ios":"levelo://app?vid=6e89b011-7732-4e7e-aa31-d04adefd18ba"},"vehicle_type_id":"4","last_reported":1701810401,"current_range_meters":25600,"station_id":"ce4bhh92rcd13ifvqfh0","pricing_plan_id":"free"},{"bike_id":"732281a7-1ca1-4193-9ac9-f3d031b09359","system_id":"levelo_inurba_marseille","lat":43.269319,"lon":5.389397,"is_reserved":false,"is_disabled":false,"rental_uris":{"android":"levelo://app?vid=732281a7-1ca1-4193-9ac9-f3d031b09359","ios":"levelo://app?vid=732281a7-1ca1-4193-9ac9-f3d031b09359"},"vehicle_type_id":"4","last_reported":1701810401,"current_range_meters":28800,"station_id":"ce4bhhh2rcd13ifvqfl0","pricing_plan_id":"free"},{"bike_id":"dc4074c4-cc24-403f-a189-9d432876569f","system_id":"levelo_inurba_marseille","lat":43.269912,"lon":5.399076,"is_reserved":false,"is_disabled":false,"rental_uris":{"android":"levelo://app?vid=dc4074c4-cc24-403f-a189-9d432876569f","ios":"levelo://app?vid=dc4074c4-cc24-403f-a189-9d432876569f"},"vehicle_type_id":"4","last_reported":1701810401,"current_range_meters":0,"station_id":"","pricing_plan_id":"free"},{"bike_id":"8e50a2a3-63a6-454e-bfc7-0d30cf65c822","system_id":"levelo_inurba_marseille","lat":43.308051,"lon":5.43527,"is_reserved":false,"is_disabled":false,"rental_uris":{"android":"levelo://app?vid=8e50a2a3-63a6-454e-bfc7-0d30cf65c822","ios":"levelo://app?vid=8e50a2a3-63a6-454e-bfc7-0d30cf65c822"},"vehicle_type_id":"4","last_reported":1701810401,"current_range_meters":30400,"station_id":"ce4bhph2rcd13ifvqheg","pricing_plan_id":"free"},{"bike_id":"4f34044e-b6b5-4f45-aa26-16b610aacef7","system_id":"levelo_inurba_marseille","lat":43.317104,"lon":5.436818,"is_reserved":false,"is_disabled":false,"rental_uris":{"android":"levelo://app?vid=4f34044e-b6b5-4f45-aa26-16b610aacef7","ios":"levelo://app?vid=4f34044e-b6b5-4f45-aa26-16b610aacef7"},"vehicle_type_id":"4","last_reported":1701810401,"current_range_meters":29600,"station_id":"ce4bhp92rcd13ifvqhcg","pricing_plan_id":"free"},{"bike_id":"9ac7abeb-89e8-41a4-9fbb-7ef51af7ee65","system_id":"levelo_inurba_marseille","lat":43.317104,"lon":5.436818,"is_reserved":false,"is_disabled":false,"rental_uris":{"android":"levelo://app?vid=9ac7abeb-89e8-41a4-9fbb-7ef51af7ee65","ios":"levelo://app?vid=9ac7abeb-89e8-41a4-9fbb-7ef51af7ee65"},"vehicle_type_id":"4","last_reported":1701810401,"current_range_meters":10000,"station_id":"ce4bhp92rcd13ifvqhcg","pricing_plan_id":"free"},{"bike_id":"37038aca-97ca-4cb2-81d0-9a4826818ca5","system_id":"levelo_inurba_marseille","lat":43.26202,"lon":5.379299,"is_reserved":false,"is_disabled":false,"rental_uris":{"android":"levelo://app?vid=37038aca-97ca-4cb2-81d0-9a4826818ca5","ios":"levelo://app?vid=37038aca-97ca-4cb2-81d0-9a4826818ca5"},"vehicle_type_id":"4","last_reported":1701810401,"current_range_meters":27200,"station_id":"ce4bhjp2rcd13ifvqg90","pricing_plan_id":"free"},{"bike_id":"8d6df383-5a39-4a30-afcb-9ab54e715027","system_id":"levelo_inurba_marseille","lat":43.271388,"lon":5.409269,"is_reserved":false,"is_disabled":false,"rental_uris":{"android":"levelo://app?vid=8d6df383-5a39-4a30-afcb-9ab54e715027","ios":"levelo://app?vid=8d6df383-5a39-4a30-afcb-9ab54e715027"},"vehicle_type_id":"4","last_reported":1701810401,"current_range_meters":20800,"station_id":"ce4bhl12rcd13ifvqgf0","pricing_plan_id":"free"},{"bike_id":"16076b9d-08c1-4b78-aef5-4c8ec51413f4","system_id":"levelo_inurba_marseille","lat":43.298768,"lon":5.43643,"is_reserved":false,"is_disabled":false,"rental_uris":{"android":"levelo://app?vid=16076b9d-08c1-4b78-aef5-4c8ec51413f4","ios":"levelo://app?vid=16076b9d-08c1-4b78-aef5-4c8ec51413f4"},"vehicle_type_id":"4","last_reported":1701810401,"current_range_meters":17600,"station_id":"ce4bhpp2rcd13ifvqhfg","pricing_plan_id":"free"},{"bike_id":"c54cd023-a6f2-4d68-aabc-4be9f862ccbb","system_id":"levelo_inurba_marseille","lat":43.298768,"lon":5.43643,"is_reserved":false,"is_disabled":false,"rental_uris":{"android":"levelo://app?vid=c54cd023-a6f2-4d68-aabc-4be9f862ccbb","ios":"levelo://app?vid=c54cd023-a6f2-4d68-aabc-4be9f862ccbb"},"vehicle_type_id":"4","last_reported":1701810401,"current_range_meters":32000,"station_id":"ce4bhpp2rcd13ifvqhfg","pricing_plan_id":"free"},{"bike_id":"5eb11eb2-f185-4107-99f2-c9d88b83df4b","system_id":"levelo_inurba_marseille","lat":43.2607,"lon":5.393983,"is_reserved":false,"is_disabled":false,"rental_uris":{"android":"levelo://app?vid=5eb11eb2-f185-4107-99f2-c9d88b83df4b","ios":"levelo://app?vid=5eb11eb2-f185-4107-99f2-c9d88b83df4b"},"vehicle_type_id":"4","last_reported":1701810401,"current_range_meters":12400,"station_id":"ce4bhh92rcd13ifvqfj0","pricing_plan_id":"free"},{"bike_id":"04084ff2-22b3-4d3a-a2b3-330bf0f68d36","system_id":"levelo_inurba_marseille","lat":43.2607,"lon":5.393983,"is_reserved":false,"is_disabled":false,"rental_uris":{"android":"levelo://app?vid=04084ff2-22b3-4d3a-a2b3-330bf0f68d36","ios":"levelo://app?vid=04084ff2-22b3-4d3a-a2b3-330bf0f68d36"},"vehicle_type_id":"4","last_reported":1701810401,"current_range_meters":13600,"station_id":"ce4bhh92rcd13ifvqfj0","pricing_plan_id":"free"},{"bike_id":"cf118c9d-5639-4dad-b7e1-c9f544571c67","system_id":"levelo_inurba_marseille","lat":43.2607,"lon":5.393983,"is_reserved":false,"is_disabled":false,"rental_uris":{"android":"levelo://app?vid=cf118c9d-5639-4dad-b7e1-c9f544571c67","ios":"levelo://app?vid=cf118c9d-5639-4dad-b7e1-c9f544571c67"},"vehicle_type_id":"4","last_reported":1701810401,"current_range_meters":13200,"station_id":"ce4bhh92rcd13ifvqfj0","pricing_plan_id":"free"},{"bike_id":"64dd76e8-c95e-4237-a17b-1e654cdcb968","system_id":"levelo_inurba_marseille","lat":43.2607,"lon":5.393983,"is_reserved":false,"is_disabled":false,"rental_uris":{"android":"levelo://app?vid=64dd76e8-c95e-4237-a17b-1e654cdcb968","ios":"levelo://app?vid=64dd76e8-c95e-4237-a17b-1e654cdcb968"},"vehicle_type_id":"4","last_reported":1701810401,"current_range_meters":22000,"station_id":"ce4bhh92rcd13ifvqfj0","pricing_plan_id":"free"},{"bike_id":"97c974c3-ac7e-4ddb-bea7-d5fdeb802085","system_id":"levelo_inurba_marseille","lat":43.2607,"lon":5.393983,"is_reserved":false,"is_disabled":false,"rental_uris":{"android":"levelo://app?vid=97c974c3-ac7e-4ddb-bea7-d5fdeb802085","ios":"levelo://app?vid=97c974c3-ac7e-4ddb-bea7-d5fdeb802085"},"vehicle_type_id":"4","last_reported":1701810401,"current_range_meters":18800,"station_id":"ce4bhh92rcd13ifvqfj0","pricing_plan_id":"free"},{"bike_id":"c625d6aa-f33a-44f3-91fb-4f8c4434a6f5","system_id":"levelo_inurba_marseille","lat":43.2607,"lon":5.393983,"is_reserved":false,"is_disabled":false,"rental_uris":{"android":"levelo://app?vid=c625d6aa-f33a-44f3-91fb-4f8c4434a6f5","ios":"levelo://app?vid=c625d6aa-f33a-44f3-91fb-4f8c4434a6f5"},"vehicle_type_id":"4","last_reported":1701810401,"current_range_meters":0,"station_id":"ce4bhh92rcd13ifvqfj0","pricing_plan_id":"free"},{"bike_id":"975e0b10-ac13-4585-8057-827f9694c26d","system_id":"levelo_inurba_marseille","lat":43.25581,"lon":5.38233,"is_reserved":false,"is_disabled":false,"rental_uris":{"android":"levelo://app?vid=975e0b10-ac13-4585-8057-827f9694c26d","ios":"levelo://app?vid=975e0b10-ac13-4585-8057-827f9694c26d"},"vehicle_type_id":"4","last_reported":1701810401,"current_range_meters":0,"station_id":"ce4bhih2rcd13ifvqfs0","pricing_plan_id":"free"},{"bike_id":"17f04a7c-4c0d-410b-8b98-175b327b84b8","system_id":"levelo_inurba_marseille","lat":43.258224,"lon":5.394369,"is_reserved":false,"is_disabled":false,"rental_uris":{"android":"levelo://app?vid=17f04a7c-4c0d-410b-8b98-175b327b84b8","ios":"levelo://app?vid=17f04a7c-4c0d-410b-8b98-175b327b84b8"},"vehicle_type_id":"4","last_reported":1701810401,"current_range_meters":29600,"station_id":"ce4bhip2rcd13ifvqft0","pricing_plan_id":"free"},{"bike_id":"d59d4f1f-1c60-4600-8082-37fd57458e13","system_id":"levelo_inurba_marseille","lat":43.254947,"lon":5.376454,"is_reserved":false,"is_disabled":false,"rental_uris":{"android":"levelo://app?vid=d59d4f1f-1c60-4600-8082-37fd57458e13","ios":"levelo://app?vid=d59d4f1f-1c60-4600-8082-37fd57458e13"},"vehicle_type_id":"4","last_reported":1701810401,"current_range_meters":8000,"station_id":"ce4bhh12rcd13ifvqff0","pricing_plan_id":"free"},{"bike_id":"247af584-b3f4-42a0-9236-07d89794d35d","system_id":"levelo_inurba_marseille","lat":43.270721,"lon":5.422764,"is_reserved":false,"is_disabled":false,"rental_uris":{"android":"levelo://app?vid=247af584-b3f4-42a0-9236-07d89794d35d","ios":"levelo://app?vid=247af584-b3f4-42a0-9236-07d89794d35d"},"vehicle_type_id":"4","last_reported":1701810401,"current_range_meters":24000,"station_id":"ce4bhk92rcd13ifvqgb0","pricing_plan_id":"free"},{"bike_id":"734d1982-980c-4704-9ef9-e1bcf2b6565a","system_id":"levelo_inurba_marseille","lat":43.258658,"lon":5.398935,"is_reserved":false,"is_disabled":false,"rental_uris":{"android":"levelo://app?vid=734d1982-980c-4704-9ef9-e1bcf2b6565a","ios":"levelo://app?vid=734d1982-980c-4704-9ef9-e1bcf2b6565a"},"vehicle_type_id":"4","last_reported":1701810401,"current_range_meters":18800,"station_id":"ce4bhl92rcd13ifvqghg","pricing_plan_id":"free"},{"bike_id":"8b3d6b5e-cefe-45c0-903d-452bb75449c8","system_id":"levelo_inurba_marseille","lat":43.259013,"lon":5.409301,"is_reserved":false,"is_disabled":false,"rental_uris":{"android":"levelo://app?vid=8b3d6b5e-cefe-45c0-903d-452bb75449c8","ios":"levelo://app?vid=8b3d6b5e-cefe-45c0-903d-452bb75449c8"},"vehicle_type_id":"4","last_reported":1701810401,"current_range_meters":15600,"station_id":"ce4bhm92rcd13ifvqglg","pricing_plan_id":"free"},{"bike_id":"85461d52-108f-4674-9751-e4e6d032a0f3","system_id":"levelo_inurba_marseille","lat":43.25727,"lon":5.41107,"is_reserved":false,"is_disabled":false,"rental_uris":{"android":"levelo://app?vid=85461d52-108f-4674-9751-e4e6d032a0f3","ios":"levelo://app?vid=85461d52-108f-4674-9751-e4e6d032a0f3"},"vehicle_type_id":"4","last_reported":1701810401,"current_range_meters":13600,"station_id":"ce4bhkp2rcd13ifvqgd0","pricing_plan_id":"free"},{"bike_id":"fe139a46-b394-4f90-a721-da43cd164fb5","system_id":"levelo_inurba_marseille","lat":43.250009,"lon":5.389195,"is_reserved":false,"is_disabled":false,"rental_uris":{"android":"levelo://app?vid=fe139a46-b394-4f90-a721-da43cd164fb5","ios":"levelo://app?vid=fe139a46-b394-4f90-a721-da43cd164fb5"},"vehicle_type_id":"4","last_reported":1701810401,"current_range_meters":14400,"station_id":"ce4bhgp2rcd13ifvqfd0","pricing_plan_id":"free"},{"bike_id":"96da180c-7b6f-4c60-8c7c-dbf05c2d449c","system_id":"levelo_inurba_marseille","lat":43.250966,"lon":5.395186,"is_reserved":false,"is_disabled":false,"rental_uris":{"android":"levelo://app?vid=96da180c-7b6f-4c60-8c7c-dbf05c2d449c","ios":"levelo://app?vid=96da180c-7b6f-4c60-8c7c-dbf05c2d449c"},"vehicle_type_id":"4","last_reported":1701810401,"current_range_meters":24400,"station_id":"ce4bhm12rcd13ifvqgkg","pricing_plan_id":"free"},{"bike_id":"12cbe630-05b0-4088-92e4-99c0ab782742","system_id":"levelo_inurba_marseille","lat":43.250897,"lon":5.39524,"is_reserved":false,"is_disabled":false,"rental_uris":{"android":"levelo://app?vid=12cbe630-05b0-4088-92e4-99c0ab782742","ios":"levelo://app?vid=12cbe630-05b0-4088-92e4-99c0ab782742"},"vehicle_type_id":"4","last_reported":1701810401,"current_range_meters":19200,"station_id":"ce4bhm12rcd13ifvqgkg","pricing_plan_id":"free"},{"bike_id":"2d806185-ffad-417a-84b3-a2e69bec5c0e","system_id":"levelo_inurba_marseille","lat":43.24667,"lon":5.38158,"is_reserved":false,"is_disabled":false,"rental_uris":{"android":"levelo://app?vid=2d806185-ffad-417a-84b3-a2e69bec5c0e","ios":"levelo://app?vid=2d806185-ffad-417a-84b3-a2e69bec5c0e"},"vehicle_type_id":"4","last_reported":1701810401,"current_range_meters":2800,"station_id":"ce4bhih2rcd13ifvqfr0","pricing_plan_id":"free"},{"bike_id":"7fa12c18-a7c6-491a-85c1-eafba9158c72","system_id":"levelo_inurba_marseille","lat":43.24666,"lon":5.38157,"is_reserved":false,"is_disabled":false,"rental_uris":{"android":"levelo://app?vid=7fa12c18-a7c6-491a-85c1-eafba9158c72","ios":"levelo://app?vid=7fa12c18-a7c6-491a-85c1-eafba9158c72"},"vehicle_type_id":"4","last_reported":1701810401,"current_range_meters":24800,"station_id":"ce4bhih2rcd13ifvqfr0","pricing_plan_id":"free"},{"bike_id":"9604456b-7edc-4a91-b91c-eca3cb9c0e41","system_id":"levelo_inurba_marseille","lat":43.25102,"lon":5.403214,"is_reserved":false,"is_disabled":false,"rental_uris":{"android":"levelo://app?vid=9604456b-7edc-4a91-b91c-eca3cb9c0e41","ios":"levelo://app?vid=9604456b-7edc-4a91-b91c-eca3cb9c0e41"},"vehicle_type_id":"4","last_reported":1701810401,"current_range_meters":3200,"station_id":"ce4bhlh2rcd13ifvqgig","pricing_plan_id":"free"},{"bike_id":"4a3a84ac-ee97-499f-9205-df061490b77e","system_id":"levelo_inurba_marseille","lat":43.25102,"lon":5.403214,"is_reserved":false,"is_disabled":false,"rental_uris":{"android":"levelo://app?vid=4a3a84ac-ee97-499f-9205-df061490b77e","ios":"levelo://app?vid=4a3a84ac-ee97-499f-9205-df061490b77e"},"vehicle_type_id":"4","last_reported":1701810401,"current_range_meters":26800,"station_id":"ce4bhlh2rcd13ifvqgig","pricing_plan_id":"free"},{"bike_id":"419609ae-83af-494c-adfe-6c348b157580","system_id":"levelo_inurba_marseille","lat":43.245581,"lon":5.395069,"is_reserved":false,"is_disabled":false,"rental_uris":{"android":"levelo://app?vid=419609ae-83af-494c-adfe-6c348b157580","ios":"levelo://app?vid=419609ae-83af-494c-adfe-6c348b157580"},"vehicle_type_id":"4","last_reported":1701810401,"current_range_meters":25600,"station_id":"ce4bhlp2rcd13ifvqgjg","pricing_plan_id":"free"},{"bike_id":"64819e8f-fad6-4526-a500-f457e33e6bfa","system_id":"levelo_inurba_marseille","lat":43.245581,"lon":5.395069,"is_reserved":false,"is_disabled":false,"rental_uris":{"android":"levelo://app?vid=64819e8f-fad6-4526-a500-f457e33e6bfa","ios":"levelo://app?vid=64819e8f-fad6-4526-a500-f457e33e6bfa"},"vehicle_type_id":"4","last_reported":1701810401,"current_range_meters":25600,"station_id":"ce4bhlp2rcd13ifvqgjg","pricing_plan_id":"free"},{"bike_id":"d4d564c2-4686-4acc-9212-d330934a2983","system_id":"levelo_inurba_marseille","lat":43.245581,"lon":5.395069,"is_reserved":false,"is_disabled":false,"rental_uris":{"android":"levelo://app?vid=d4d564c2-4686-4acc-9212-d330934a2983","ios":"levelo://app?vid=d4d564c2-4686-4acc-9212-d330934a2983"},"vehicle_type_id":"4","last_reported":1701810401,"current_range_meters":19200,"station_id":"ce4bhlp2rcd13ifvqgjg","pricing_plan_id":"free"},{"bike_id":"997fd2e8-a739-42e8-907b-cbaffd16bd36","system_id":"levelo_inurba_marseille","lat":43.240623,"lon":5.377642,"is_reserved":false,"is_disabled":false,"rental_uris":{"android":"levelo://app?vid=997fd2e8-a739-42e8-907b-cbaffd16bd36","ios":"levelo://app?vid=997fd2e8-a739-42e8-907b-cbaffd16bd36"},"vehicle_type_id":"4","last_reported":1701810401,"current_range_meters":31200,"station_id":"ce4bhnp2rcd13ifvqgvg","pricing_plan_id":"free"},{"bike_id":"352f574b-c452-4c3b-8642-6864ebc083d1","system_id":"levelo_inurba_marseille","lat":43.239687,"lon":5.36618,"is_reserved":false,"is_disabled":false,"rental_uris":{"android":"levelo://app?vid=352f574b-c452-4c3b-8642-6864ebc083d1","ios":"levelo://app?vid=352f574b-c452-4c3b-8642-6864ebc083d1"},"vehicle_type_id":"4","last_reported":1701810401,"current_range_meters":0,"station_id":"ce4bhi12rcd13ifvqfp0","pricing_plan_id":"free"},{"bike_id":"04b00323-44dc-4556-add8-5a131157a4f0","system_id":"levelo_inurba_marseille","lat":43.243975,"lon":5.401636,"is_reserved":false,"is_disabled":false,"rental_uris":{"android":"levelo://app?vid=04b00323-44dc-4556-add8-5a131157a4f0","ios":"levelo://app?vid=04b00323-44dc-4556-add8-5a131157a4f0"},"vehicle_type_id":"4","last_reported":1701810401,"current_range_meters":1200,"station_id":"","pricing_plan_id":"free"},{"bike_id":"b647ae29-4a45-4e8d-986c-9155e46c40e4","system_id":"levelo_inurba_marseille","lat":43.231923,"lon":5.355545,"is_reserved":false,"is_disabled":false,"rental_uris":{"android":"levelo://app?vid=b647ae29-4a45-4e8d-986c-9155e46c40e4","ios":"levelo://app?vid=b647ae29-4a45-4e8d-986c-9155e46c40e4"},"vehicle_type_id":"4","last_reported":1701810401,"current_range_meters":19600,"station_id":"ce4bhu92rcd13ifvqi70","pricing_plan_id":"free"},{"bike_id":"d868c0b5-242c-4b9f-b108-cbde91aaec79","system_id":"levelo_inurba_marseille","lat":43.231923,"lon":5.355545,"is_reserved":false,"is_disabled":false,"rental_uris":{"android":"levelo://app?vid=d868c0b5-242c-4b9f-b108-cbde91aaec79","ios":"levelo://app?vid=d868c0b5-242c-4b9f-b108-cbde91aaec79"},"vehicle_type_id":"4","last_reported":1701810401,"current_range_meters":23600,"station_id":"ce4bhu92rcd13ifvqi70","pricing_plan_id":"free"},{"bike_id":"7ae9092d-f687-4103-895b-5b378b9914a3","system_id":"levelo_inurba_marseille","lat":43.231949,"lon":5.355477,"is_reserved":false,"is_disabled":false,"rental_uris":{"android":"levelo://app?vid=7ae9092d-f687-4103-895b-5b378b9914a3","ios":"levelo://app?vid=7ae9092d-f687-4103-895b-5b378b9914a3"},"vehicle_type_id":"4","last_reported":1701810401,"current_range_meters":800,"station_id":"ce4bhu92rcd13ifvqi70","pricing_plan_id":"free"},{"bike_id":"cf3102c4-88e0-4a41-86b7-69a76932d3e6","system_id":"levelo_inurba_marseille","lat":43.231923,"lon":5.355545,"is_reserved":false,"is_disabled":false,"rental_uris":{"android":"levelo://app?vid=cf3102c4-88e0-4a41-86b7-69a76932d3e6","ios":"levelo://app?vid=cf3102c4-88e0-4a41-86b7-69a76932d3e6"},"vehicle_type_id":"4","last_reported":1701810401,"current_range_meters":31200,"station_id":"ce4bhu92rcd13ifvqi70","pricing_plan_id":"free"},{"bike_id":"e2fb0602-0025-4bc2-a80e-ca4c6079bddc","system_id":"levelo_inurba_marseille","lat":43.231923,"lon":5.355545,"is_reserved":false,"is_disabled":false,"rental_uris":{"android":"levelo://app?vid=e2fb0602-0025-4bc2-a80e-ca4c6079bddc","ios":"levelo://app?vid=e2fb0602-0025-4bc2-a80e-ca4c6079bddc"},"vehicle_type_id":"4","last_reported":1701810401,"current_range_meters":5200,"station_id":"ce4bhu92rcd13ifvqi70","pricing_plan_id":"free"},{"bike_id":"b988d3fe-c649-4089-ae26-b7efbdfc136a","system_id":"levelo_inurba_marseille","lat":43.231794,"lon":5.400052,"is_reserved":false,"is_disabled":false,"rental_uris":{"android":"levelo://app?vid=b988d3fe-c649-4089-ae26-b7efbdfc136a","ios":"levelo://app?vid=b988d3fe-c649-4089-ae26-b7efbdfc136a"},"vehicle_type_id":"4","last_reported":1701810401,"current_range_meters":31200,"station_id":"ce4bhn12rcd13ifvqgqg","pricing_plan_id":"free"},{"bike_id":"0df7318c-0d47-4b29-af43-f12c06d1e326","system_id":"levelo_inurba_marseille","lat":43.231793,"lon":5.400044,"is_reserved":false,"is_disabled":false,"rental_uris":{"android":"levelo://app?vid=0df7318c-0d47-4b29-af43-f12c06d1e326","ios":"levelo://app?vid=0df7318c-0d47-4b29-af43-f12c06d1e326"},"vehicle_type_id":"4","last_reported":1701810401,"current_range_meters":6000,"station_id":"ce4bhn12rcd13ifvqgqg","pricing_plan_id":"free"}]}}