{"last_updated":1702145295,"ttl":30,"version":"2.2","data":{"bikes":[{"bike_id":"77b596af-a84d-4260-a8e3-8b60a6534abc","system_id":"levelo_inurba_marseille","lat":43.312239,"lon":5.368562,"is_reserved":false,"is_disabled":false,"rental_uris":{"android":"levelo://app?vid=77b596af-a84d-4260-a8e3-8b60a6534abc","ios":"levelo://app?vid=77b596af-a84d-4260-a8e3-8b60a6534abc"},"vehicle_type_id":"4","last_reported":1702145295,"current_range_meters":14400,"station_id":"ce4bgl92rcd13ifvqbq0","pricing_plan_id":"free"},{"bike_id":"8213fb51-6ca0-4f12-9e9a-b9f26db97a3d","system_id":"levelo_inurba_marseille","lat":43.31502,"lon":5.37317,"is_reserved":false,"is_disabled":false,"rental_uris":{"android":"levelo://app?vid=8213fb51-6ca0-4f12-9e9a-b9f26db97a3d","ios":"levelo://app?vid=8213fb51-6ca0-4f12-9e9a-b9f26db97a3d"},"vehicle_type_id":"4","last_reported":1702145295,"current_range_meters":25600,"station_id":"ce4bgt12rcd13ifvqcd0","pricing_plan_id":"free"},{"bike_id":"4f3e86e1-6fd1-4a17-a35c-a7e2b876ce48","system_id":"levelo_inurba_marseille","lat":43.309039,"lon":5.371797,"is_reserved":false,"is_disabled":false,"rental_uris":{"android":"levelo://app?vid=4f3e86e1-6fd1-4a17-a35c-a7e2b876ce48","ios":"levelo://app?vid=4f3e86e1-6fd1-4a17-a35c-a7e2b876ce48"},"vehicle_type_id":"4","last_reported":1702145295,"current_range_meters":7600,"station_id":"ce4bguh2rcd13ifvqckg","pricing_plan_id":"free"},{"bike_id":"f124c42a-de73-4fc2-ab4d-a76e64f13447","system_id":"levelo_inurba_marseille","lat":43.305714,"lon":5.365633,"is_reserved":false,"is_disabled":false,"rental_uris":{"android":"levelo://app?vid=f124c42a-de73-4fc2-ab4d-a76e64f13447","ios":"levelo://app?vid=f124c42a-de73-4fc2-ab4d-a76e64f13447"},"vehicle_type_id":"4","last_reported":1702145295,"current_range_meters":7600,"station_id":"ce4bgs12rcd13ifvqcag","pricing_plan_id":"free"},{"bike_id":"5a42f65c-2b2c-4fa3-8194-3ff5c632905f","system_id":"levelo_inurba_marseille","lat":43.30617,"lon":5.3723,"is_reserved":false,"is_disabled":false,"rental_uris":{"android":"levelo://app?vid=5a42f65c-2b2c-4fa3-8194-3ff5c632905f","ios":"levelo://app?vid=5a42f65c-2b2c-4fa3-8194-3ff5c632905f"},"vehicle_type_id":"4","last_reported":1702145295,"current_range_meters":6400,"station_id":"ce4bgqh2rcd13ifvqc4g","pricing_plan_id":"free"},{"bike_id":"8f8ca50b-9290-4ad5-9ab3-955dfdf6edee","system_id":"levelo_inurba_marseille","lat":43.306367,"lon":5.373197,"is_reserved":false,"is_disabled":false,"rental_uris":{"android":"levelo://app?vid=8f8ca50b-9290-4ad5-9ab3-955dfdf6edee","ios":"levelo://app?vid=8f8ca50b-9290-4ad5-9ab3-955dfdf6edee"},"vehicle_type_id":"4","last_reported":1702145295,"current_range_meters":20000,"station_id":"","pricing_plan_id":"free"},{"bike_id":"30d8f134-1afe-4dd6-aaf4-b0eb31f030e5","system_id":"levelo_inurba_marseille","lat":43.317075,"lon":5.377367,"is_reserved":false,"is_disabled":false,"rental_uris":{"android":"levelo://app?vid=30d8f134-1afe-4dd6-aaf4-b0eb31f030e5","ios":"levelo://app?vid=30d8f134-1afe-4dd6-aaf4-b0eb31f030e5"},"vehicle_type_id":"4","last_reported":1702145295,"current_range_meters":3200,"station_id":"ce4bgth2rcd13ifvqch0","pricing_plan_id":"free"},{"bike_id":"19e5f95a-4658-48df-ab77-dc4f23756fcc","system_id":"levelo_inurba_marseille","lat":43.304606,"lon":5.379026,"is_reserved":false,"is_disabled":false,"rental_uris":{"android":"levelo://app?vid=19e5f95a-4658-48df-ab77-dc4f23756fcc","ios":"levelo://app?vid=19e5f95a-4658-48df-ab77-dc4f23756fcc"},"vehicle_type_id":"4","last_reported":1702145295,"current_range_meters":18800,"station_id":"ce4bgup2rcd13ifvqcn0","pricing_plan_id":"free"},{"bike_id":"5e9dcc74-c8a0-4d5f-9133-113646558dc2","system_id":"levelo_inurba_marseille","lat":43.304606,"lon":5.379026,"is_reserved":false,"is_disabled":false,"rental_uris":{"android":"levelo://app?vid=5e9dcc74-c8a0-4d5f-9133-113646558dc2","ios":"levelo://app?vid=5e9dcc74-c8a0-4d5f-9133-113646558dc2"},"vehicle_type_id":"4","last_reported":1702145295,"current_range_meters":14000,"station_id":"ce4bgup2rcd13ifvqcn0","pricing_plan_id":"free"},{"bike_id":"59b1982d-0c16-4fb6-a0ee-9acc09a937da","system_id":"levelo_inurba_marseille","lat":43.30152,"lon":5.37385,"is_reserved":false,"is_disabled":false,"rental_uris":{"android":"levelo://app?vid=59b1982d-0c16-4fb6-a0ee-9acc09a937da","ios":"levelo://app?vid=59b1982d-0c16-4fb6-a0ee-9acc09a937da"},"vehicle_type_id":"4","last_reported":1702145295,"current_range_meters":0,"station_id":"ce4bgs92rcd13ifvqcc0","pricing_plan_id":"free"},{"bike_id":"8d419208-98c3-4f47-88c0-67b8ae9840d4","system_id":"levelo_inurba_marseille","lat":43.313571,"lon":5.384829,"is_reserved":false,"is_disabled":false,"rental_uris":{"android":"levelo://app?vid=8d419208-98c3-4f47-88c0-67b8ae9840d4","ios":"levelo://app?vid=8d419208-98c3-4f47-88c0-67b8ae9840d4"},"vehicle_type_id":"4","last_reported":1702145295,"current_range_meters":400,"station_id":"ce4bgt92rcd13ifvqcf0","pricing_plan_id":"free"},{"bike_id":"d8be298e-f4c0-4479-a66b-e307c680d7cc","system_id":"levelo_inurba_marseille","lat":43.31356,"lon":5.38493,"is_reserved":false,"is_disabled":false,"rental_uris":{"android":"levelo://app?vid=d8be298e-f4c0-4479-a66b-e307c680d7cc","ios":"levelo://app?vid=d8be298e-f4c0-4479-a66b-e307c680d7cc"},"vehicle_type_id":"4","last_reported":1702145295,"current_range_meters":23200,"station_id":"ce4bgt92rcd13ifvqcf0","pricing_plan_id":"free"},{"bike_id":"6f285fc5-3606-4df1-a819-0514d494a1df","system_id":"levelo_inurba_marseille","lat":43.299243,"lon":5.374807,"is_reserved":false,"is_disabled":false,"rental_uris":{"android":"levelo://app?vid=6f285fc5-3606-4df1-a819-0514d494a1df","ios":"levelo://app?vid=6f285fc5-3606-4df1-a819-0514d494a1df"},"vehicle_type_id":"4","last_reported":1702145295,"current_range_meters":0,"station_id":"ce4bgjh2rcd13ifvqbg0","pricing_plan_id":"free"},{"bike_id":"0370f0dd-02e1-44c3-b626-7cdd11d7ffac","system_id":"levelo_inurba_marseille","lat":43.322872,"lon":5.382756,"is_reserved":false,"is_disabled":false,"rental_uris":{"android":"levelo://app?vid=0370f0dd-02e1-44c3-b626-7cdd11d7ffac","ios":"levelo://app?vid=0370f0dd-02e1-44c3-b626-7cdd11d7ffac"},"vehicle_type_id":"4","last_reported":1702145295,"current_range_meters":18400,"station_id":"ce4bhr12rcd13ifvqhqg","pricing_plan_id":"free"},{"bike_id":"c60cbb7e-9382-450f-b819-5c2450f4f643","system_id":"levelo_inurba_marseille","lat":43.322872,"lon":5.382756,"is_reserved":false,"is_disabled":false,"rental_uris":{"android":"levelo://app?vid=c60cbb7e-9382-450f-b819-5c2450f4f643","ios":"levelo://app?vid=c60cbb7e-9382-450f-b819-5c2450f4f643"},"vehicle_type_id":"4","last_reported":1702145295,"current_range_meters":6400,"station_id":"ce4bhr12rcd13ifvqhqg","pricing_plan_id":"free"},{"bike_id":"6ac675f1-e0be-498c-ad2f-b742a949d4b0","system_id":"levelo_inurba_marseille","lat":43.298218,"lon":5.374416,"is_reserved":false,"is_disabled":false,"rental_uris":{"android":"levelo://app?vid=6ac675f1-e0be-498c-ad2f-b742a949d4b0","ios":"levelo://app?vid=6ac675f1-e0be-498c-ad2f-b742a949d4b0"},"vehicle_type_id":"4","last_reported":1702145295,"current_range_meters":1200,"station_id":"","pricing_plan_id":"free"},{"bike_id":"ab57076c-b970-4698-a36a-46c87897a74c","system_id":"levelo_inurba_marseille","lat":43.2968,"lon":5.37291,"is_reserved":false,"is_disabled":false,"rental_uris":{"android":"levelo://app?vid=ab57076c-b970-4698-a36a-46c87897a74c","ios":"levelo://app?vid=ab57076c-b970-4698-a36a-46c87897a74c"},"vehicle_type_id":"4","last_reported":1702145295,"current_range_meters":1600,"station_id":"ce4bgk12rcd13ifvqbj0","pricing_plan_id":"free"},{"bike_id":"5c79bc93-8f13-4c40-8a8c-8f35d3902245","system_id":"levelo_inurba_marseille","lat":43.32948,"lon":5.36529,"is_reserved":false,"is_disabled":false,"rental_uris":{"android":"levelo://app?vid=5c79bc93-8f13-4c40-8a8c-8f35d3902245","ios":"levelo://app?vid=5c79bc93-8f13-4c40-8a8c-8f35d3902245"},"vehicle_type_id":"4","last_reported":1702145295,"current_range_meters":12800,"station_id":"","pricing_plan_id":"free"},{"bike_id":"5ed66215-e812-4934-8bd8-05fa06e2778c","system_id":"levelo_inurba_marseille","lat":43.32949,"lon":5.36536,"is_reserved":false,"is_disabled":false,"rental_uris":{"android":"levelo://app?vid=5ed66215-e812-4934-8bd8-05fa06e2778c","ios":"levelo://app?vid=5ed66215-e812-4934-8bd8-05fa06e2778c"},"vehicle_type_id":"4","last_reported":1702145295,"current_range_meters":28000,"station_id":"","pricing_plan_id":"free"},{"bike_id":"92dc65d6-6823-4de3-93d4-056f738f090c","system_id":"levelo_inurba_marseille","lat":43.316538,"lon":5.38954,"is_reserved":false,"is_disabled":false,"rental_uris":{"android":"levelo://app?vid=92dc65d6-6823-4de3-93d4-056f738f090c","ios":"levelo://app?vid=92dc65d6-6823-4de3-93d4-056f738f090c"},"vehicle_type_id":"4","last_reported":1702145295,"current_range_meters":0,"station_id":"","pricing_plan_id":"free"},{"bike_id":"4c466e09-c4ba-4068-8d65-3e8efdbc526e","system_id":"levelo_inurba_marseille","lat":43.296131,"lon":5.370773,"is_reserved":false,"is_disabled":false,"rental_uris":{"android":"levelo://app?vid=4c466e09-c4ba-4068-8d65-3e8efdbc526e","ios":"levelo://app?vid=4c466e09-c4ba-4068-8d65-3e8efdbc526e"},"vehicle_type_id":"4","last_reported":1702145295,"current_range_meters":5200,"station_id":"ce4bgnh2rcd13ifvqc0g","pricing_plan_id":"free"},{"bike_id":"ea2d4f7c-c131-4f14-a7bc-f5c2879d4424","system_id":"levelo_inurba_marseille","lat":43.29624,"lon":5.37216,"is_reserved":false,"is_disabled":false,"rental_uris":{"android":"levelo://app?vid=ea2d4f7c-c131-4f14-a7bc-f5c2879d4424","ios":"levelo://app?vid=ea2d4f7c-c131-4f14-a7bc-f5c2879d4424"},"vehicle_type_id":"4","last_reported":1702145295,"current_range_meters":0,"station_id":"","pricing_plan_id":"free"},{"bike_id":"4763762d-fe78-4536-966e-76e143d9bc93","system_id":"levelo_inurba_marseille","lat":43.299028,"lon":5.381509,"is_reserved":false,"is_disabled":false,"rental_uris":{"android":"levelo://app?vid=4763762d-fe78-4536-966e-76e143d9bc93","ios":"levelo://app?vid=4763762d-fe78-4536-966e-76e143d9bc93"},"vehicle_type_id":"4","last_reported":1702145295,"current_range_meters":28400,"station_id":"ce4bgj12rcd13ifvqbc0","pricing_plan_id":"free"},{"bike_id":"d73de713-9616-414b-bf68-bcd433edf690","system_id":"levelo_inurba_marseille","lat":43.299028,"lon":5.381509,"is_reserved":false,"is_disabled":false,"rental_uris":{"android":"levelo://app?vid=d73de713-9616-414b-bf68-bcd433edf690","ios":"levelo://app?vid=d73de713-9616-414b-bf68-bcd433edf690"},"vehicle_type_id":"4","last_reported":1702145295,"current_range_meters":14000,"station_id":"ce4bgj12rcd13ifvqbc0","pricing_plan_id":"free"},{"bike_id":"81c4f88e-bb53-4e91-81ea-f5f56a1904c8","system_id":"levelo_inurba_marseille","lat":43.317557,"lon":5.390173,"is_reserved":false,"is_disabled":false,"rental_uris":{"android":"levelo://app?vid=81c4f88e-bb53-4e91-81ea-f5f56a1904c8","ios":"levelo://app?vid=81c4f88e-bb53-4e91-81ea-f5f56a1904c8"},"vehicle_type_id":"4","last_reported":1702145295,"current_range_meters":28800,"station_id":"ce4bhqp2rcd13ifvqhng","pricing_plan_id":"free"},{"bike_id":"e2000dcf-4090-4be6-9756-0e131eee5f6c","system_id":"levelo_inurba_marseille","lat":43.29601,"lon":5.381084,"is_reserved":false,"is_disabled":false,"rental_uris":{"android":"levelo://app?vid=e2000dcf-4090-4be6-9756-0e131eee5f6c","ios":"levelo://app?vid=e2000dcf-4090-4be6-9756-0e131eee5f6c"},"vehicle_type_id":"4","last_reported":1702145295,"current_range_meters":0,"station_id":"ce4bgl12rcd13ifvqbo0","pricing_plan_id":"free"},{"bike_id":"8fb95e64-f0bc-44bb-a960-7024ab9db819","system_id":"levelo_inurba_marseille","lat":43.293259,"lon":5.371586,"is_reserved":false,"is_disabled":false,"rental_uris":{"android":"levelo://app?vid=8fb95e64-f0bc-44bb-a960-7024ab9db819","ios":"levelo://app?vid=8fb95e64-f0bc-44bb-a960-7024ab9db819"},"vehicle_type_id":"4","last_reported":1702145295,"current_range_meters":16400,"station_id":"ce4bgh92rcd13ifvqb40","pricing_plan_id":"free"},{"bike_id":"441dd6a1-6810-4c09-9ed8-4ae16c2ef245","system_id":"levelo_inurba_marseille","lat":43.293009,"lon":5.374584,"is_reserved":false,"is_disabled":false,"rental_uris":{"android":"levelo://app?vid=441dd6a1-6810-4c09-9ed8-4ae16c2ef245","ios":"levelo://app?vid=441dd6a1-6810-4c09-9ed8-4ae16c2ef245"},"vehicle_type_id":"4","last_reported":1702145295,"current_range_meters":14400,"station_id":"ce4bgi12rcd13ifvqb70","pricing_plan_id":"free"},{"bike_id":"8e451a2a-42f6-497a-a042-ba8e9376ae64","system_id":"levelo_inurba_marseille","lat":43.2936,"lon":5.37835,"is_reserved":false,"is_disabled":false,"rental_uris":{"android":"levelo://app?vid=8e451a2a-42f6-497a-a042-ba8e9376ae64","ios":"levelo://app?vid=8e451a2a-42f6-497a-a042-ba8e9376ae64"},"vehicle_type_id":"4","last_reported":1702145295,"current_range_meters":17200,"station_id":"ce4bgjh2rcd13ifvqbf0","pricing_plan_id":"free"},{"bike_id":"d2b9b45b-8006-422f-92dd-b99187151269","system_id":"levelo_inurba_marseille","lat":43.292311,"lon":5.360731,"is_reserved":false,"is_disabled":false,"rental_uris":{"android":"levelo://app?vid=d2b9b45b-8006-422f-92dd-b99187151269","ios":"levelo://app?vid=d2b9b45b-8006-422f-92dd-b99187151269"},"vehicle_type_id":"4","last_reported":1702145295,"current_range_meters":23600,"station_id":"ce4bhbh2rcd13ifvqeqg","pricing_plan_id":"free"},{"bike_id":"c6194d83-4b9b-46ee-a648-bc9f75f0bc5f","system_id":"levelo_inurba_marseille","lat":43.300852,"lon":5.390859,"is_reserved":false,"is_disabled":false,"rental_uris":{"android":"levelo://app?vid=c6194d83-4b9b-46ee-a648-bc9f75f0bc5f","ios":"levelo://app?vid=c6194d83-4b9b-46ee-a648-bc9f75f0bc5f"},"vehicle_type_id":"4","last_reported":1702145295,"current_range_meters":22000,"station_id":"ce4bh192rcd13ifvqdb0","pricing_plan_id":"free"},{"bike_id":"7bdd0726-3156-4362-81be-1b30100758de","system_id":"levelo_inurba_marseille","lat":43.292311,"lon":5.360731,"is_reserved":false,"is_disabled":false,"rental_uris":{"android":"levelo://app?vid=7bdd0726-3156-4362-81be-1b30100758de","ios":"levelo://app?vid=7bdd0726-3156-4362-81be-1b30100758de"},"vehicle_type_id":"4","last_reported":1702145295,"current_range_meters":5600,"station_id":"ce4bhbh2rcd13ifvqeqg","pricing_plan_id":"free"},{"bike_id":"d4528dd3-e65b-4892-ac6d-6510d6f924b9","system_id":"levelo_inurba_marseille","lat":43.292311,"lon":5.360731,"is_reserved":false,"is_disabled":false,"rental_uris":{"android":"levelo://app?vid=d4528dd3-e65b-4892-ac6d-6510d6f924b9","ios":"levelo://app?vid=d4528dd3-e65b-4892-ac6d-6510d6f924b9"},"vehicle_type_id":"4","last_reported":1702145295,"current_range_meters":22800,"station_id":"ce4bhbh2rcd13ifvqeqg","pricing_plan_id":"free"},{"bike_id":"ffe8e861-9583-46be-9da3-462d5c1037ee","system_id":"levelo_inurba_marseille","lat":43.29256,"lon":5.37608,"is_reserved":false,"is_disabled":false,"rental_uris":{"android":"levelo://app?vid=ffe8e861-9583-46be-9da3-462d5c1037ee","ios":"levelo://app?vid=ffe8e861-9583-46be-9da3-462d5c1037ee"},"vehicle_type_id":"4","last_reported":1702145295,"current_range_meters":10400,"station_id":"ce4bgi12rcd13ifvqb80","pricing_plan_id":"free"},{"bike_id":"edf443bc-c42f-4718-87a2-1542475eadff","system_id":"levelo_inurba_marseille","lat":43.29197,"lon":5.35809,"is_reserved":false,"is_disabled":false,"rental_uris":{"android":"levelo://app?vid=edf443bc-c42f-4718-87a2-1542475eadff","ios":"levelo://app?vid=edf443bc-c42f-4718-87a2-1542475eadff"},"vehicle_type_id":"4","last_reported":1702145295,"current_range_meters":18000,"station_id":"ce4bhb12rcd13ifvqel0","pricing_plan_id":"free"},{"bike_id":"c97dcb8b-f642-40d2-b00d-7272817db12a","system_id":"levelo_inurba_marseille","lat":43.313291,"lon":5.396838,"is_reserved":false,"is_disabled":false,"rental_uris":{"android":"levelo://app?vid=c97dcb8b-f642-40d2-b00d-7272817db12a","ios":"levelo://app?vid=c97dcb8b-f642-40d2-b00d-7272817db12a"},"vehicle_type_id":"4","last_reported":1702145295,"current_range_meters":11600,"station_id":"ce4bgvp2rcd13ifvqcu0","pricing_plan_id":"free"},{"bike_id":"0e9371e1-af43-441b-afa5-4591e1221440","system_id":"levelo_inurba_marseille","lat":43.31329,"lon":5.39694,"is_reserved":false,"is_disabled":false,"rental_uris":{"android":"levelo://app?vid=0e9371e1-af43-441b-afa5-4591e1221440","ios":"levelo://app?vid=0e9371e1-af43-441b-afa5-4591e1221440"},"vehicle_type_id":"4","last_reported":1702145295,"current_range_meters":12000,"station_id":"ce4bgvp2rcd13ifvqcu0","pricing_plan_id":"free"},{"bike_id":"33629a0f-077c-45b7-8bb1-997a7d232724","system_id":"levelo_inurba_marseille","lat":43.29187,"lon":5.35797,"is_reserved":false,"is_disabled":false,"rental_uris":{"android":"levelo://app?vid=33629a0f-077c-45b7-8bb1-997a7d232724","ios":"levelo://app?vid=33629a0f-077c-45b7-8bb1-997a7d232724"},"vehicle_type_id":"4","last_reported":1702145295,"current_range_meters":16000,"station_id":"ce4bhb12rcd13ifvqel0","pricing_plan_id":"free"},{"bike_id":"601ab329-aee0-41c9-b961-ccb00809460b","system_id":"levelo_inurba_marseille","lat":43.290779,"lon":5.371482,"is_reserved":false,"is_disabled":false,"rental_uris":{"android":"levelo://app?vid=601ab329-aee0-41c9-b961-ccb00809460b","ios":"levelo://app?vid=601ab329-aee0-41c9-b961-ccb00809460b"},"vehicle_type_id":"4","last_reported":1702145295,"current_range_meters":5600,"station_id":"ce4bh5p2rcd13ifvqe4g","pricing_plan_id":"free"},{"bike_id":"14b079bb-74e8-4613-939a-595ff60f8a77","system_id":"levelo_inurba_marseille","lat":43.290631,"lon":5.359244,"is_reserved":false,"is_disabled":false,"rental_uris":{"android":"levelo://app?vid=14b079bb-74e8-4613-939a-595ff60f8a77","ios":"levelo://app?vid=14b079bb-74e8-4613-939a-595ff60f8a77"},"vehicle_type_id":"4","last_reported":1702145295,"current_range_meters":8800,"station_id":"ce4bha92rcd13ifvqeg0","pricing_plan_id":"free"},{"bike_id":"d40b6b70-020c-43af-966e-402b0288483d","system_id":"levelo_inurba_marseille","lat":43.289184,"lon":5.366408,"is_reserved":false,"is_disabled":false,"rental_uris":{"android":"levelo://app?vid=d40b6b70-020c-43af-966e-402b0288483d","ios":"levelo://app?vid=d40b6b70-020c-43af-966e-402b0288483d"},"vehicle_type_id":"4","last_reported":1702145295,"current_range_meters":1200,"station_id":"ce4bhap2rcd13ifvqek0","pricing_plan_id":"free"},{"bike_id":"a07af093-137f-4f95-bcf4-8f8907a569cc","system_id":"levelo_inurba_marseille","lat":43.294153,"lon":5.386305,"is_reserved":false,"is_disabled":false,"rental_uris":{"android":"levelo://app?vid=a07af093-137f-4f95-bcf4-8f8907a569cc","ios":"levelo://app?vid=a07af093-137f-4f95-bcf4-8f8907a569cc"},"vehicle_type_id":"4","last_reported":1702145295,"current_range_meters":7200,"station_id":"ce4bh2h2rcd13ifvqdh0","pricing_plan_id":"free"},{"bike_id":"a02a1b20-1fb1-4951-988a-77389649024d","system_id":"levelo_inurba_marseille","lat":43.289259,"lon":5.366364,"is_reserved":false,"is_disabled":false,"rental_uris":{"android":"levelo://app?vid=a02a1b20-1fb1-4951-988a-77389649024d","ios":"levelo://app?vid=a02a1b20-1fb1-4951-988a-77389649024d"},"vehicle_type_id":"4","last_reported":1702145295,"current_range_meters":11200,"station_id":"","pricing_plan_id":"free"},{"bike_id":"40ef8616-d0c7-4cd3-8a26-9cb6bd117e78","system_id":"levelo_inurba_marseille","lat":43.290995,"lon":5.381361,"is_reserved":false,"is_disabled":false,"rental_uris":{"android":"levelo://app?vid=40ef8616-d0c7-4cd3-8a26-9cb6bd117e78","ios":"levelo://app?vid=40ef8616-d0c7-4cd3-8a26-9cb6bd117e78"},"vehicle_type_id":"4","last_reported":1702145295,"current_range_meters":8000,"station_id":"ce4bh512rcd13ifvqe2g","pricing_plan_id":"free"},{"bike_id":"cc91d695-bb0e-422a-bd0e-fc2ee631ace0","system_id":"levelo_inurba_marseille","lat":43.289741,"lon":5.378306,"is_reserved":false,"is_disabled":false,"rental_uris":{"android":"levelo://app?vid=cc91d695-bb0e-422a-bd0e-fc2ee631ace0","ios":"levelo://app?vid=cc91d695-bb0e-422a-bd0e-fc2ee631ace0"},"vehicle_type_id":"4","last_reported":1702145295,"current_range_meters":24400,"station_id":"ce4bh9p2rcd13ifvqed0","pricing_plan_id":"free"},{"bike_id":"06395a98-1bb6-4736-91bf-328e7cf70f14","system_id":"levelo_inurba_marseille","lat":43.28844,"lon":5.35848,"is_reserved":false,"is_disabled":false,"rental_uris":{"android":"levelo://app?vid=06395a98-1bb6-4736-91bf-328e7cf70f14","ios":"levelo://app?vid=06395a98-1bb6-4736-91bf-328e7cf70f14"},"vehicle_type_id":"4","last_reported":1702145295,"current_range_meters":0,"station_id":"ce4bhb12rcd13ifvqem0","pricing_plan_id":"free"},{"bike_id":"c147ebb3-141d-4c1a-9cd7-cd494fa1ade2","system_id":"levelo_inurba_marseille","lat":43.312609,"lon":5.401662,"is_reserved":false,"is_disabled":false,"rental_uris":{"android":"levelo://app?vid=c147ebb3-141d-4c1a-9cd7-cd494fa1ade2","ios":"levelo://app?vid=c147ebb3-141d-4c1a-9cd7-cd494fa1ade2"},"vehicle_type_id":"4","last_reported":1702145295,"current_range_meters":5600,"station_id":"ce4bh092rcd13ifvqd30","pricing_plan_id":"free"},{"bike_id":"a9f011a4-92a5-4e03-8b5f-8b55d6a70996","system_id":"levelo_inurba_marseille","lat":43.306412,"lon":5.401035,"is_reserved":false,"is_disabled":false,"rental_uris":{"android":"levelo://app?vid=a9f011a4-92a5-4e03-8b5f-8b55d6a70996","ios":"levelo://app?vid=a9f011a4-92a5-4e03-8b5f-8b55d6a70996"},"vehicle_type_id":"4","last_reported":1702145295,"current_range_meters":16800,"station_id":"ce4bh112rcd13ifvqda0","pricing_plan_id":"free"},{"bike_id":"bc3a4952-d56f-4a7b-93cd-079230226e71","system_id":"levelo_inurba_marseille","lat":43.306412,"lon":5.401035,"is_reserved":false,"is_disabled":false,"rental_uris":{"android":"levelo://app?vid=bc3a4952-d56f-4a7b-93cd-079230226e71","ios":"levelo://app?vid=bc3a4952-d56f-4a7b-93cd-079230226e71"},"vehicle_type_id":"4","last_reported":1702145295,"current_range_meters":400,"station_id":"ce4bh112rcd13ifvqda0","pricing_plan_id":"free"},{"bike_id":"f1c32bb3-0f1b-41f4-9300-950707deb379","system_id":"levelo_inurba_marseille","lat":43.309367,"lon":5.401879,"is_reserved":false,"is_disabled":false,"rental_uris":{"android":"levelo://app?vid=f1c32bb3-0f1b-41f4-9300-950707deb379","ios":"levelo://app?vid=f1c32bb3-0f1b-41f4-9300-950707deb379"},"vehicle_type_id":"4","last_reported":1702145295,"current_range_meters":13600,"station_id":"ce4bgvp2rcd13ifvqct0","pricing_plan_id":"free"},{"bike_id":"53c0a97e-fadb-44fa-b0d2-01adafd129cd","system_id":"levelo_inurba_marseille","lat":43.301117,"lon":5.398795,"is_reserved":false,"is_disabled":false,"rental_uris":{"android":"levelo://app?vid=53c0a97e-fadb-44fa-b0d2-01adafd129cd","ios":"levelo://app?vid=53c0a97e-fadb-44fa-b0d2-01adafd129cd"},"vehicle_type_id":"4","last_reported":1702145295,"current_range_meters":10400,"station_id":"ce4bh0h2rcd13ifvqd40","pricing_plan_id":"free"},{"bike_id":"84689402-ddf0-44ed-b9fb-39ef5c1f4775","system_id":"levelo_inurba_marseille","lat":43.301117,"lon":5.398795,"is_reserved":false,"is_disabled":false,"rental_uris":{"android":"levelo://app?vid=84689402-ddf0-44ed-b9fb-39ef5c1f4775","ios":"levelo://app?vid=84689402-ddf0-44ed-b9fb-39ef5c1f4775"},"vehicle_type_id":"4","last_reported":1702145295,"current_range_meters":7200,"station_id":"ce4bh0h2rcd13ifvqd40","pricing_plan_id":"free"},{"bike_id":"e6f6b83e-18af-47ca-90f7-5426c0f088bb","system_id":"levelo_inurba_marseille","lat":43.286591,"lon":5.363346,"is_reserved":false,"is_disabled":false,"rental_uris":{"android":"levelo://app?vid=e6f6b83e-18af-47ca-90f7-5426c0f088bb","ios":"levelo://app?vid=e6f6b83e-18af-47ca-90f7-5426c0f088bb"},"vehicle_type_id":"4","last_reported":1702145295,"current_range_meters":24800,"station_id":"ce4bhah2rcd13ifvqej0","pricing_plan_id":"free"},{"bike_id":"63195b6c-e5b2-4c22-a621-15c692838232","system_id":"levelo_inurba_marseille","lat":43.286591,"lon":5.363346,"is_reserved":false,"is_disabled":false,"rental_uris":{"android":"levelo://app?vid=63195b6c-e5b2-4c22-a621-15c692838232","ios":"levelo://app?vid=63195b6c-e5b2-4c22-a621-15c692838232"},"vehicle_type_id":"4","last_reported":1702145295,"current_range_meters":26400,"station_id":"ce4bhah2rcd13ifvqej0","pricing_plan_id":"free"},{"bike_id":"0eaa458f-628e-45ed-86df-fae4ef6785c6","system_id":"levelo_inurba_marseille","lat":43.289307,"lon":5.38406,"is_reserved":false,"is_disabled":false,"rental_uris":{"android":"levelo://app?vid=0eaa458f-628e-45ed-86df-fae4ef6785c6","ios":"levelo://app?vid=0eaa458f-628e-45ed-86df-fae4ef6785c6"},"vehicle_type_id":"4","last_reported":1702145295,"current_range_meters":6800,"station_id":"ce4bh612rcd13ifvqe6g","pricing_plan_id":"free"},{"bike_id":"3e126926-604f-41fc-83a0-ba39c998c04b","system_id":"levelo_inurba_marseille","lat":43.289307,"lon":5.38406,"is_reserved":false,"is_disabled":false,"rental_uris":{"android":"levelo://app?vid=3e126926-604f-41fc-83a0-ba39c998c04b","ios":"levelo://app?vid=3e126926-604f-41fc-83a0-ba39c998c04b"},"vehicle_type_id":"4","last_reported":1702145295,"current_range_meters":18400,"station_id":"ce4bh612rcd13ifvqe6g","pricing_plan_id":"free"},{"bike_id":"50b0424c-e6d6-4f49-a707-c0ca78fd04b1","system_id":"levelo_inurba_marseille","lat":43.289307,"lon":5.38406,"is_reserved":false,"is_disabled":false,"rental_uris":{"android":"levelo://app?vid=50b0424c-e6d6-4f49-a707-c0ca78fd04b1","ios":"levelo://app?vid=50b0424c-e6d6-4f49-a707-c0ca78fd04b1"},"vehicle_type_id":"4","last_reported":1702145295,"current_range_meters":4000,"station_id":"ce4bh612rcd13ifvqe6g","pricing_plan_id":"free"},{"bike_id":"ce020aff-bd49-463f-823d-812ece4ed730","system_id":"levelo_inurba_marseille","lat":43.289307,"lon":5.38406,"is_reserved":false,"is_disabled":false,"rental_uris":{"android":"levelo://app?vid=ce020aff-bd49-463f-823d-812ece4ed730","ios":"levelo://app?vid=ce020aff-bd49-463f-823d-812ece4ed730"},"vehicle_type_id":"4","last_reported":1702145295,"current_range_meters":17600,"station_id":"ce4bh612rcd13ifvqe6g","pricing_plan_id":"free"},{"bike_id":"1d889798-ff79-4986-b12b-4902bd733520","system_id":"levelo_inurba_marseille","lat":43.286039,"lon":5.370681,"is_reserved":false,"is_disabled":false,"rental_uris":{"android":"levelo://app?vid=1d889798-ff79-4986-b12b-4902bd733520","ios":"levelo://app?vid=1d889798-ff79-4986-b12b-4902bd733520"},"vehicle_type_id":"4","last_reported":1702145295,"current_range_meters":22400,"station_id":"ce4bht12rcd13ifvqi60","pricing_plan_id":"free"},{"bike_id":"54048a74-0f0d-484b-af9d-57816e1727b9","system_id":"levelo_inurba_marseille","lat":43.287184,"lon":5.37937,"is_reserved":false,"is_disabled":false,"rental_uris":{"android":"levelo://app?vid=54048a74-0f0d-484b-af9d-57816e1727b9","ios":"levelo://app?vid=54048a74-0f0d-484b-af9d-57816e1727b9"},"vehicle_type_id":"4","last_reported":1702145295,"current_range_meters":4000,"station_id":"ce4bh9p2rcd13ifvqec0","pricing_plan_id":"free"},{"bike_id":"13a8d491-0d2d-4b79-aba0-944d2a4f313d","system_id":"levelo_inurba_marseille","lat":43.316828,"lon":5.404723,"is_reserved":false,"is_disabled":false,"rental_uris":{"android":"levelo://app?vid=13a8d491-0d2d-4b79-aba0-944d2a4f313d","ios":"levelo://app?vid=13a8d491-0d2d-4b79-aba0-944d2a4f313d"},"vehicle_type_id":"4","last_reported":1702145295,"current_range_meters":0,"station_id":"ce4bh012rcd13ifvqd00","pricing_plan_id":"free"},{"bike_id":"8807cf92-81ad-4541-b92b-fd4d10e4642d","system_id":"levelo_inurba_marseille","lat":43.286961,"lon":5.373785,"is_reserved":false,"is_disabled":false,"rental_uris":{"android":"levelo://app?vid=8807cf92-81ad-4541-b92b-fd4d10e4642d","ios":"levelo://app?vid=8807cf92-81ad-4541-b92b-fd4d10e4642d"},"vehicle_type_id":"4","last_reported":1702145295,"current_range_meters":16800,"station_id":"ce4bh3p2rcd13ifvqdq0","pricing_plan_id":"free"},{"bike_id":"d255e34c-eb8e-47f6-8070-27997e93e716","system_id":"levelo_inurba_marseille","lat":43.284538,"lon":5.358657,"is_reserved":false,"is_disabled":false,"rental_uris":{"android":"levelo://app?vid=d255e34c-eb8e-47f6-8070-27997e93e716","ios":"levelo://app?vid=d255e34c-eb8e-47f6-8070-27997e93e716"},"vehicle_type_id":"4","last_reported":1702145295,"current_range_meters":19200,"station_id":"ce4bhah2rcd13ifvqei0","pricing_plan_id":"free"},{"bike_id":"9e2b1991-fd38-43a5-a8fa-27ed9661a3bd","system_id":"levelo_inurba_marseille","lat":43.284538,"lon":5.358657,"is_reserved":false,"is_disabled":false,"rental_uris":{"android":"levelo://app?vid=9e2b1991-fd38-43a5-a8fa-27ed9661a3bd","ios":"levelo://app?vid=9e2b1991-fd38-43a5-a8fa-27ed9661a3bd"},"vehicle_type_id":"4","last_reported":1702145295,"current_range_meters":0,"station_id":"ce4bhah2rcd13ifvqei0","pricing_plan_id":"free"},{"bike_id":"7ef16812-32bd-4f61-a6e6-f0fd4090995a","system_id":"levelo_inurba_marseille","lat":43.284538,"lon":5.358657,"is_reserved":false,"is_disabled":false,"rental_uris":{"android":"levelo://app?vid=7ef16812-32bd-4f61-a6e6-f0fd4090995a","ios":"levelo://app?vid=7ef16812-32bd-4f61-a6e6-f0fd4090995a"},"vehicle_type_id":"4","last_reported":1702145295,"current_range_meters":0,"station_id":"ce4bhah2rcd13ifvqei0","pricing_plan_id":"free"},{"bike_id":"38fd0941-1b0e-43a0-8114-74debabcccb4","system_id":"levelo_inurba_marseille","lat":43.284538,"lon":5.358657,"is_reserved":false,"is_disabled":false,"rental_uris":{"android":"levelo://app?vid=38fd0941-1b0e-43a0-8114-74debabcccb4","ios":"levelo://app?vid=38fd0941-1b0e-43a0-8114-74debabcccb4"},"vehicle_type_id":"4","last_reported":1702145295,"current_range_meters":9200,"station_id":"ce4bhah2rcd13ifvqei0","pricing_plan_id":"free"},{"bike_id":"908ba5c4-a8d4-49c0-99d6-cf98cadb512b","system_id":"levelo_inurba_marseille","lat":43.284538,"lon":5.358657,"is_reserved":false,"is_disabled":false,"rental_uris":{"android":"levelo://app?vid=908ba5c4-a8d4-49c0-99d6-cf98cadb512b","ios":"levelo://app?vid=908ba5c4-a8d4-49c0-99d6-cf98cadb512b"},"vehicle_type_id":"4","last_reported":1702145295,"current_range_meters":0,"station_id":"ce4bhah2rcd13ifvqei0","pricing_plan_id":"free"},{"bike_id":"39337083-b401-4900-8efd-4654f94e7cac","system_id":"levelo_inurba_marseille","lat":43.284538,"lon":5.358657,"is_reserved":false,"is_disabled":false,"rental_uris":{"android":"levelo://app?vid=39337083-b401-4900-8efd-4654f94e7cac","ios":"levelo://app?vid=39337083-b401-4900-8efd-4654f94e7cac"},"vehicle_type_id":"4","last_reported":1702145295,"current_range_meters":6400,"station_id":"ce4bhah2rcd13ifvqei0","pricing_plan_id":"free"},{"bike_id":"fff83e4d-f834-4f91-9ddc-072156b48a7f","system_id":"levelo_inurba_marseille","lat":43.294314,"lon":5.397498,"is_reserved":false,"is_disabled":false,"rental_uris":{"android":"levelo://app?vid=fff83e4d-f834-4f91-9ddc-072156b48a7f","ios":"levelo://app?vid=fff83e4d-f834-4f91-9ddc-072156b48a7f"},"vehicle_type_id":"4","last_reported":1702145295,"current_range_meters":9200,"station_id":"ce4bh3h2rcd13ifvqdo0","pricing_plan_id":"free"},{"bike_id":"93b582b5-6fca-455b-8eec-64a2ef1549ae","system_id":"levelo_inurba_marseille","lat":43.29174,"lon":5.39424,"is_reserved":false,"is_disabled":false,"rental_uris":{"android":"levelo://app?vid=93b582b5-6fca-455b-8eec-64a2ef1549ae","ios":"levelo://app?vid=93b582b5-6fca-455b-8eec-64a2ef1549ae"},"vehicle_type_id":"4","last_reported":1702145295,"current_range_meters":0,"station_id":"","pricing_plan_id":"free"},{"bike_id":"b1bd4a11-45ff-4de1-957b-004e5c559b95","system_id":"levelo_inurba_marseille","lat":43.285856,"lon":5.350771,"is_reserved":false,"is_disabled":false,"rental_uris":{"android":"levelo://app?vid=b1bd4a11-45ff-4de1-957b-004e5c559b95","ios":"levelo://app?vid=b1bd4a11-45ff-4de1-957b-004e5c559b95"},"vehicle_type_id":"4","last_reported":1702145295,"current_range_meters":0,"station_id":"ce4bhch2rcd13ifvqeug","pricing_plan_id":"free"},{"bike_id":"0de34451-f8fc-4c38-866e-15c9ecda7b9b","system_id":"levelo_inurba_marseille","lat":43.283998,"lon":5.375062,"is_reserved":false,"is_disabled":false,"rental_uris":{"android":"levelo://app?vid=0de34451-f8fc-4c38-866e-15c9ecda7b9b","ios":"levelo://app?vid=0de34451-f8fc-4c38-866e-15c9ecda7b9b"},"vehicle_type_id":"4","last_reported":1702145295,"current_range_meters":4800,"station_id":"ce4bh412rcd13ifvqds0","pricing_plan_id":"free"},{"bike_id":"aaae4f2b-e0b8-4767-8664-0a92239863b0","system_id":"levelo_inurba_marseille","lat":43.284538,"lon":5.358657,"is_reserved":false,"is_disabled":false,"rental_uris":{"android":"levelo://app?vid=aaae4f2b-e0b8-4767-8664-0a92239863b0","ios":"levelo://app?vid=aaae4f2b-e0b8-4767-8664-0a92239863b0"},"vehicle_type_id":"4","last_reported":1702145295,"current_range_meters":2400,"station_id":"ce4bhah2rcd13ifvqei0","pricing_plan_id":"free"},{"bike_id":"b8fa84f3-942e-4e40-bd49-5de47d8f81ca","system_id":"levelo_inurba_marseille","lat":43.283998,"lon":5.375062,"is_reserved":false,"is_disabled":false,"rental_uris":{"android":"levelo://app?vid=b8fa84f3-942e-4e40-bd49-5de47d8f81ca","ios":"levelo://app?vid=b8fa84f3-942e-4e40-bd49-5de47d8f81ca"},"vehicle_type_id":"4","last_reported":1702145295,"current_range_meters":13600,"station_id":"ce4bh412rcd13ifvqds0","pricing_plan_id":"free"},{"bike_id":"e253d206-297b-423e-8b99-3c40b682f092","system_id":"levelo_inurba_marseille","lat":43.283998,"lon":5.375062,"is_reserved":false,"is_disabled":false,"rental_uris":{"android":"levelo://app?vid=e253d206-297b-423e-8b99-3c40b682f092","ios":"levelo://app?vid=e253d206-297b-423e-8b99-3c40b682f092"},"vehicle_type_id":"4","last_reported":1702145295,"current_range_meters":22400,"station_id":"ce4bh412rcd13ifvqds0","pricing_plan_id":"free"},{"bike_id":"d1976df0-735c-4e2b-8900-8a8a0131fe4b","system_id":"levelo_inurba_marseille","lat":43.323464,"lon":5.406297,"is_reserved":false,"is_disabled":false,"rental_uris":{"android":"levelo://app?vid=d1976df0-735c-4e2b-8900-8a8a0131fe4b","ios":"levelo://app?vid=d1976df0-735c-4e2b-8900-8a8a0131fe4b"},"vehicle_type_id":"4","last_reported":1702145295,"current_range_meters":17200,"station_id":"ce4bhq92rcd13ifvqhjg","pricing_plan_id":"free"},{"bike_id":"a5c878a0-5d68-4dac-9879-4d2c2285550e","system_id":"levelo_inurba_marseille","lat":43.323464,"lon":5.406297,"is_reserved":false,"is_disabled":false,"rental_uris":{"android":"levelo://app?vid=a5c878a0-5d68-4dac-9879-4d2c2285550e","ios":"levelo://app?vid=a5c878a0-5d68-4dac-9879-4d2c2285550e"},"vehicle_type_id":"4","last_reported":1702145295,"current_range_meters":6000,"station_id":"ce4bhq92rcd13ifvqhjg","pricing_plan_id":"free"},{"bike_id":"acfef7f4-b10a-4aaa-b99e-bd13d7dcbcb7","system_id":"levelo_inurba_marseille","lat":43.29795,"lon":5.404086,"is_reserved":false,"is_disabled":false,"rental_uris":{"android":"levelo://app?vid=acfef7f4-b10a-4aaa-b99e-bd13d7dcbcb7","ios":"levelo://app?vid=acfef7f4-b10a-4aaa-b99e-bd13d7dcbcb7"},"vehicle_type_id":"4","last_reported":1702145295,"current_range_meters":7200,"station_id":"ce4bh112rcd13ifvqd90","pricing_plan_id":"free"},{"bike_id":"fe3d754c-c6d9-431e-a689-4147d7f49fa2","system_id":"levelo_inurba_marseille","lat":43.288501,"lon":5.393087,"is_reserved":false,"is_disabled":false,"rental_uris":{"android":"levelo://app?vid=fe3d754c-c6d9-431e-a689-4147d7f49fa2","ios":"levelo://app?vid=fe3d754c-c6d9-431e-a689-4147d7f49fa2"},"vehicle_type_id":"4","last_reported":1702145295,"current_range_meters":13600,"station_id":"ce4bh2p2rcd13ifvqdi0","pricing_plan_id":"free"},{"bike_id":"c52ffce4-098b-4f8c-b0f0-d69d59ed11cd","system_id":"levelo_inurba_marseille","lat":43.284219,"lon":5.3497,"is_reserved":false,"is_disabled":false,"rental_uris":{"android":"levelo://app?vid=c52ffce4-098b-4f8c-b0f0-d69d59ed11cd","ios":"levelo://app?vid=c52ffce4-098b-4f8c-b0f0-d69d59ed11cd"},"vehicle_type_id":"4","last_reported":1702145295,"current_range_meters":16400,"station_id":"ce4bhbh2rcd13ifvqepg","pricing_plan_id":"free"},{"bike_id":"b0a7b8ba-33e4-4d51-8f47-64b196ba4361","system_id":"levelo_inurba_marseille","lat":43.28272,"lon":5.35061,"is_reserved":false,"is_disabled":false,"rental_uris":{"android":"levelo://app?vid=b0a7b8ba-33e4-4d51-8f47-64b196ba4361","ios":"levelo://app?vid=b0a7b8ba-33e4-4d51-8f47-64b196ba4361"},"vehicle_type_id":"4","last_reported":1702145295,"current_range_meters":14800,"station_id":"ce4bhbp2rcd13ifvqerg","pricing_plan_id":"free"},{"bike_id":"acad1986-01fd-4f56-aad5-045423634a7e","system_id":"levelo_inurba_marseille","lat":43.283502,"lon":5.386471,"is_reserved":false,"is_disabled":false,"rental_uris":{"android":"levelo://app?vid=acad1986-01fd-4f56-aad5-045423634a7e","ios":"levelo://app?vid=acad1986-01fd-4f56-aad5-045423634a7e"},"vehicle_type_id":"4","last_reported":1702145295,"current_range_meters":0,"station_id":"ce4bh492rcd13ifvqdvg","pricing_plan_id":"free"},{"bike_id":"ab10de77-1186-4682-9120-d3edaf1ec35c","system_id":"levelo_inurba_marseille","lat":43.280382,"lon":5.369291,"is_reserved":false,"is_disabled":false,"rental_uris":{"android":"levelo://app?vid=ab10de77-1186-4682-9120-d3edaf1ec35c","ios":"levelo://app?vid=ab10de77-1186-4682-9120-d3edaf1ec35c"},"vehicle_type_id":"4","last_reported":1702145295,"current_range_meters":25600,"station_id":"ce4bha12rcd13ifvqef0","pricing_plan_id":"free"},{"bike_id":"0cf5e634-92cd-4666-a755-3ed4209b2c8f","system_id":"levelo_inurba_marseille","lat":43.2803,"lon":5.36938,"is_reserved":false,"is_disabled":false,"rental_uris":{"android":"levelo://app?vid=0cf5e634-92cd-4666-a755-3ed4209b2c8f","ios":"levelo://app?vid=0cf5e634-92cd-4666-a755-3ed4209b2c8f"},"vehicle_type_id":"4","last_reported":1702145295,"current_range_meters":16000,"station_id":"ce4bha12rcd13ifvqef0","pricing_plan_id":"free"},{"bike_id":"38a2ad93-a4dd-4c0b-9a8f-ec2a7eb34eb1","system_id":"levelo_inurba_marseille","lat":43.280382,"lon":5.369291,"is_reserved":false,"is_disabled":false,"rental_uris":{"android":"levelo://app?vid=38a2ad93-a4dd-4c0b-9a8f-ec2a7eb34eb1","ios":"levelo://app?vid=38a2ad93-a4dd-4c0b-9a8f-ec2a7eb34eb1"},"vehicle_type_id":"4","last_reported":1702145295,"current_range_meters":14400,"station_id":"ce4bha12rcd13ifvqef0","pricing_plan_id":"free"},{"bike_id":"9fd8e679-b93e-4949-884e-2f39fba186b9","system_id":"levelo_inurba_marseille","lat":43.29046,"lon":5.39967,"is_reserved":false,"is_disabled":false,"rental_uris":{"android":"levelo://app?vid=9fd8e679-b93e-4949-884e-2f39fba186b9","ios":"levelo://app?vid=9fd8e679-b93e-4949-884e-2f39fba186b9"},"vehicle_type_id":"4","last_reported":1702145295,"current_range_meters":0,"station_id":"ce4bh392rcd13ifvqdm0","pricing_plan_id":"free"},{"bike_id":"988cd2fe-1ef3-438c-b221-b87d1664d25e","system_id":"levelo_inurba_marseille","lat":43.296263,"lon":5.40601,"is_reserved":false,"is_disabled":false,"rental_uris":{"android":"levelo://app?vid=988cd2fe-1ef3-438c-b221-b87d1664d25e","ios":"levelo://app?vid=988cd2fe-1ef3-438c-b221-b87d1664d25e"},"vehicle_type_id":"4","last_reported":1702145295,"current_range_meters":6000,"station_id":"ce4bh0h2rcd13ifvqd60","pricing_plan_id":"free"},{"bike_id":"a6c4ca45-f102-499e-93bb-e6108bba4429","system_id":"levelo_inurba_marseille","lat":43.281044,"lon":5.378308,"is_reserved":false,"is_disabled":false,"rental_uris":{"android":"levelo://app?vid=a6c4ca45-f102-499e-93bb-e6108bba4429","ios":"levelo://app?vid=a6c4ca45-f102-499e-93bb-e6108bba4429"},"vehicle_type_id":"4","last_reported":1702145295,"current_range_meters":4400,"station_id":"ce4bha12rcd13ifvqee0","pricing_plan_id":"free"},{"bike_id":"1afc0d4d-d10f-4b3f-beb8-2c04ac2bdac6","system_id":"levelo_inurba_marseille","lat":43.284462,"lon":5.392121,"is_reserved":false,"is_disabled":false,"rental_uris":{"android":"levelo://app?vid=1afc0d4d-d10f-4b3f-beb8-2c04ac2bdac6","ios":"levelo://app?vid=1afc0d4d-d10f-4b3f-beb8-2c04ac2bdac6"},"vehicle_type_id":"4","last_reported":1702145295,"current_range_meters":13200,"station_id":"ce4bhoh2rcd13ifvqh5g","pricing_plan_id":"free"},{"bike_id":"f74250ad-a656-476b-9338-f24f91bb9568","system_id":"levelo_inurba_marseille","lat":43.285742,"lon":5.395004,"is_reserved":false,"is_disabled":false,"rental_uris":{"android":"levelo://app?vid=f74250ad-a656-476b-9338-f24f91bb9568","ios":"levelo://app?vid=f74250ad-a656-476b-9338-f24f91bb9568"},"vehicle_type_id":"4","last_reported":1702145295,"current_range_meters":28400,"station_id":"ce4bh292rcd13ifvqdg0","pricing_plan_id":"free"},{"bike_id":"58f52f1b-f682-43f9-888f-474549184cf8","system_id":"levelo_inurba_marseille","lat":43.32215,"lon":5.41467,"is_reserved":false,"is_disabled":false,"rental_uris":{"android":"levelo://app?vid=58f52f1b-f682-43f9-888f-474549184cf8","ios":"levelo://app?vid=58f52f1b-f682-43f9-888f-474549184cf8"},"vehicle_type_id":"4","last_reported":1702145295,"current_range_meters":16800,"station_id":"","pricing_plan_id":"free"},{"bike_id":"444ce08f-a83e-4c7d-adf3-633504034c71","system_id":"levelo_inurba_marseille","lat":43.27985,"lon":5.38715,"is_reserved":false,"is_disabled":false,"rental_uris":{"android":"levelo://app?vid=444ce08f-a83e-4c7d-adf3-633504034c71","ios":"levelo://app?vid=444ce08f-a83e-4c7d-adf3-633504034c71"},"vehicle_type_id":"4","last_reported":1702145295,"current_range_meters":0,"station_id":"ce4bhg12rcd13ifvqf80","pricing_plan_id":"free"},{"bike_id":"a148b3ad-4229-40c7-b578-15b32d72e96b","system_id":"levelo_inurba_marseille","lat":43.325243,"lon":5.414326,"is_reserved":false,"is_disabled":false,"rental_uris":{"android":"levelo://app?vid=a148b3ad-4229-40c7-b578-15b32d72e96b","ios":"levelo://app?vid=a148b3ad-4229-40c7-b578-15b32d72e96b"},"vehicle_type_id":"4","last_reported":1702145295,"current_range_meters":31200,"station_id":"ce4bhq12rcd13ifvqhhg","pricing_plan_id":"free"},{"bike_id":"ac1af8d2-9cdd-4a46-b1a5-3a53c4b5ef6b","system_id":"levelo_inurba_marseille","lat":43.278773,"lon":5.39498,"is_reserved":false,"is_disabled":false,"rental_uris":{"android":"levelo://app?vid=ac1af8d2-9cdd-4a46-b1a5-3a53c4b5ef6b","ios":"levelo://app?vid=ac1af8d2-9cdd-4a46-b1a5-3a53c4b5ef6b"},"vehicle_type_id":"4","last_reported":1702145295,"current_range_meters":17600,"station_id":"","pricing_plan_id":"free"},{"bike_id":"5dcea534-78fe-476d-9642-e65eac60e17d","system_id":"levelo_inurba_marseille","lat":43.279952,"lon":5.400085,"is_reserved":false,"is_disabled":false,"rental_uris":{"android":"levelo://app?vid=5dcea534-78fe-476d-9642-e65eac60e17d","ios":"levelo://app?vid=5dcea534-78fe-476d-9642-e65eac60e17d"},"vehicle_type_id":"4","last_reported":1702145295,"current_range_meters":13200,"station_id":"ce4bho92rcd13ifvqh4g","pricing_plan_id":"free"},{"bike_id":"fce8ef5a-0f61-4cfb-b8bb-9e1b28bf23ad","system_id":"levelo_inurba_marseille","lat":43.3172,"lon":5.42397,"is_reserved":false,"is_disabled":false,"rental_uris":{"android":"levelo://app?vid=fce8ef5a-0f61-4cfb-b8bb-9e1b28bf23ad","ios":"levelo://app?vid=fce8ef5a-0f61-4cfb-b8bb-9e1b28bf23ad"},"vehicle_type_id":"4","last_reported":1702145295,"current_range_meters":28400,"station_id":"ce4bhp92rcd13ifvqhbg","pricing_plan_id":"free"},{"bike_id":"88e59060-d458-48a8-8abe-8a1913097d92","system_id":"levelo_inurba_marseille","lat":43.31716,"lon":5.42402,"is_reserved":false,"is_disabled":false,"rental_uris":{"android":"levelo://app?vid=88e59060-d458-48a8-8abe-8a1913097d92","ios":"levelo://app?vid=88e59060-d458-48a8-8abe-8a1913097d92"},"vehicle_type_id":"4","last_reported":1702145295,"current_range_meters":24400,"station_id":"ce4bhp92rcd13ifvqhbg","pricing_plan_id":"free"},{"bike_id":"fc4bcc5b-5f4e-42a1-8cca-78d5c651475f","system_id":"levelo_inurba_marseille","lat":43.317121,"lon":5.423936,"is_reserved":false,"is_disabled":false,"rental_uris":{"android":"levelo://app?vid=fc4bcc5b-5f4e-42a1-8cca-78d5c651475f","ios":"levelo://app?vid=fc4bcc5b-5f4e-42a1-8cca-78d5c651475f"},"vehicle_type_id":"4","last_reported":1702145295,"current_range_meters":28000,"station_id":"ce4bhp92rcd13ifvqhbg","pricing_plan_id":"free"},{"bike_id":"e6ff414d-6f05-44d2-b7c6-4a89a6fc64e2","system_id":"levelo_inurba_marseille","lat":43.310785,"lon":5.424305,"is_reserved":false,"is_disabled":false,"rental_uris":{"android":"levelo://app?vid=e6ff414d-6f05-44d2-b7c6-4a89a6fc64e2","ios":"levelo://app?vid=e6ff414d-6f05-44d2-b7c6-4a89a6fc64e2"},"vehicle_type_id":"4","last_reported":1702145295,"current_range_meters":5200,"station_id":"ce4bhp92rcd13ifvqhag","pricing_plan_id":"free"},{"bike_id":"80038031-3601-4c51-b66a-c6c9131d41d1","system_id":"levelo_inurba_marseille","lat":43.310785,"lon":5.424305,"is_reserved":false,"is_disabled":false,"rental_uris":{"android":"levelo://app?vid=80038031-3601-4c51-b66a-c6c9131d41d1","ios":"levelo://app?vid=80038031-3601-4c51-b66a-c6c9131d41d1"},"vehicle_type_id":"4","last_reported":1702145295,"current_range_meters":30800,"station_id":"ce4bhp92rcd13ifvqhag","pricing_plan_id":"free"},{"bike_id":"02791883-a925-42a0-9dd3-b7193f6a574b","system_id":"levelo_inurba_marseille","lat":43.31716,"lon":5.42403,"is_reserved":false,"is_disabled":false,"rental_uris":{"android":"levelo://app?vid=02791883-a925-42a0-9dd3-b7193f6a574b","ios":"levelo://app?vid=02791883-a925-42a0-9dd3-b7193f6a574b"},"vehicle_type_id":"4","last_reported":1702145295,"current_range_meters":30000,"station_id":"ce4bhp92rcd13ifvqhbg","pricing_plan_id":"free"},{"bike_id":"b2b30634-efac-4a39-976a-11b013bebac6","system_id":"levelo_inurba_marseille","lat":43.310785,"lon":5.424305,"is_reserved":false,"is_disabled":false,"rental_uris":{"android":"levelo://app?vid=b2b30634-efac-4a39-976a-11b013bebac6","ios":"levelo://app?vid=b2b30634-efac-4a39-976a-11b013bebac6"},"vehicle_type_id":"4","last_reported":1702145295,"current_range_meters":18400,"station_id":"ce4bhp92rcd13ifvqhag","pricing_plan_id":"free"},{"bike_id":"e7bd1e73-4f86-473d-905c-a7b0f3d6ad8a","system_id":"levelo_inurba_marseille","lat":43.31723,"lon":5.42405,"is_reserved":false,"is_disabled":false,"rental_uris":{"android":"levelo://app?vid=e7bd1e73-4f86-473d-905c-a7b0f3d6ad8a","ios":"levelo://app?vid=e7bd1e73-4f86-473d-905c-a7b0f3d6ad8a"},"vehicle_type_id":"4","last_reported":1702145295,"current_range_meters":16400,"station_id":"ce4bhp92rcd13ifvqhbg","pricing_plan_id":"free"},{"bike_id":"48e3df08-57dc-434d-a06c-f6f751cd351f","system_id":"levelo_inurba_marseille","lat":43.310785,"lon":5.424305,"is_reserved":false,"is_disabled":false,"rental_uris":{"android":"levelo://app?vid=48e3df08-57dc-434d-a06c-f6f751cd351f","ios":"levelo://app?vid=48e3df08-57dc-434d-a06c-f6f751cd351f"},"vehicle_type_id":"4","last_reported":1702145295,"current_range_meters":19600,"station_id":"ce4bhp92rcd13ifvqhag","pricing_plan_id":"free"},{"bike_id":"63133364-316e-458e-b234-bbd4926c63fc","system_id":"levelo_inurba_marseille","lat":43.27583,"lon":5.39474,"is_reserved":false,"is_disabled":false,"rental_uris":{"android":"levelo://app?vid=63133364-316e-458e-b234-bbd4926c63fc","ios":"levelo://app?vid=63133364-316e-458e-b234-bbd4926c63fc"},"vehicle_type_id":"4","last_reported":1702145295,"current_range_meters":6400,"station_id":"","pricing_plan_id":"free"},{"bike_id":"a683ef76-f2f6-4c72-a57e-94c090f63c40","system_id":"levelo_inurba_marseille","lat":43.27198,"lon":5.39178,"is_reserved":false,"is_disabled":false,"rental_uris":{"android":"levelo://app?vid=a683ef76-f2f6-4c72-a57e-94c090f63c40","ios":"levelo://app?vid=a683ef76-f2f6-4c72-a57e-94c090f63c40"},"vehicle_type_id":"4","last_reported":1702145295,"current_range_meters":2800,"station_id":"ce4bhhp2rcd13ifvqfm0","pricing_plan_id":"free"},{"bike_id":"8f021145-48f8-459b-aef0-f8921e18b0a0","system_id":"levelo_inurba_marseille","lat":43.27214,"lon":5.3925,"is_reserved":false,"is_disabled":false,"rental_uris":{"android":"levelo://app?vid=8f021145-48f8-459b-aef0-f8921e18b0a0","ios":"levelo://app?vid=8f021145-48f8-459b-aef0-f8921e18b0a0"},"vehicle_type_id":"4","last_reported":1702145295,"current_range_meters":800,"station_id":"","pricing_plan_id":"free"},{"bike_id":"861abd14-8bd0-4b52-9cd0-5793629d376f","system_id":"levelo_inurba_marseille","lat":43.278128,"lon":5.407195,"is_reserved":false,"is_disabled":false,"rental_uris":{"android":"levelo://app?vid=861abd14-8bd0-4b52-9cd0-5793629d376f","ios":"levelo://app?vid=861abd14-8bd0-4b52-9cd0-5793629d376f"},"vehicle_type_id":"4","last_reported":1702145295,"current_range_meters":17200,"station_id":"ce4bhnh2rcd13ifvqgtg","pricing_plan_id":"free"},{"bike_id":"0073efc0-ec00-4fcf-bce0-edcb15127973","system_id":"levelo_inurba_marseille","lat":43.269467,"lon":5.386439,"is_reserved":false,"is_disabled":false,"rental_uris":{"android":"levelo://app?vid=0073efc0-ec00-4fcf-bce0-edcb15127973","ios":"levelo://app?vid=0073efc0-ec00-4fcf-bce0-edcb15127973"},"vehicle_type_id":"4","last_reported":1702145295,"current_range_meters":1600,"station_id":"ce4bhh92rcd13ifvqfh0","pricing_plan_id":"free"},{"bike_id":"14b6de27-0ccf-464e-aeef-3b7181a07a58","system_id":"levelo_inurba_marseille","lat":43.269467,"lon":5.386439,"is_reserved":false,"is_disabled":false,"rental_uris":{"android":"levelo://app?vid=14b6de27-0ccf-464e-aeef-3b7181a07a58","ios":"levelo://app?vid=14b6de27-0ccf-464e-aeef-3b7181a07a58"},"vehicle_type_id":"4","last_reported":1702145295,"current_range_meters":20800,"station_id":"ce4bhh92rcd13ifvqfh0","pricing_plan_id":"free"},{"bike_id":"ddf58a3c-90da-4197-baab-6c8501d00444","system_id":"levelo_inurba_marseille","lat":43.269467,"lon":5.386439,"is_reserved":false,"is_disabled":false,"rental_uris":{"android":"levelo://app?vid=ddf58a3c-90da-4197-baab-6c8501d00444","ios":"levelo://app?vid=ddf58a3c-90da-4197-baab-6c8501d00444"},"vehicle_type_id":"4","last_reported":1702145295,"current_range_meters":15200,"station_id":"ce4bhh92rcd13ifvqfh0","pricing_plan_id":"free"},{"bike_id":"3401d70b-b91e-40a9-b566-3f15aec70233","system_id":"levelo_inurba_marseille","lat":43.279465,"lon":5.410561,"is_reserved":false,"is_disabled":false,"rental_uris":{"android":"levelo://app?vid=3401d70b-b91e-40a9-b566-3f15aec70233","ios":"levelo://app?vid=3401d70b-b91e-40a9-b566-3f15aec70233"},"vehicle_type_id":"4","last_reported":1702145295,"current_range_meters":13600,"station_id":"ce4bhnp2rcd13ifvqh0g","pricing_plan_id":"free"},{"bike_id":"b92b5360-b821-4da6-ae2c-a0ccfef7873e","system_id":"levelo_inurba_marseille","lat":43.269217,"lon":5.393473,"is_reserved":false,"is_disabled":false,"rental_uris":{"android":"levelo://app?vid=b92b5360-b821-4da6-ae2c-a0ccfef7873e","ios":"levelo://app?vid=b92b5360-b821-4da6-ae2c-a0ccfef7873e"},"vehicle_type_id":"4","last_reported":1702145295,"current_range_meters":12800,"station_id":"","pricing_plan_id":"free"},{"bike_id":"19cc942f-ece9-40d3-8083-cccfba7fe5b1","system_id":"levelo_inurba_marseille","lat":43.279881,"lon":5.416579,"is_reserved":false,"is_disabled":false,"rental_uris":{"android":"levelo://app?vid=19cc942f-ece9-40d3-8083-cccfba7fe5b1","ios":"levelo://app?vid=19cc942f-ece9-40d3-8083-cccfba7fe5b1"},"vehicle_type_id":"4","last_reported":1702145295,"current_range_meters":2400,"station_id":"ce4bho12rcd13ifvqh1g","pricing_plan_id":"free"},{"bike_id":"f5b58947-511a-4bf1-bb05-e4b8764df321","system_id":"levelo_inurba_marseille","lat":43.261782,"lon":5.374515,"is_reserved":false,"is_disabled":false,"rental_uris":{"android":"levelo://app?vid=f5b58947-511a-4bf1-bb05-e4b8764df321","ios":"levelo://app?vid=f5b58947-511a-4bf1-bb05-e4b8764df321"},"vehicle_type_id":"4","last_reported":1702145295,"current_range_meters":3200,"station_id":"ce4bhgp2rcd13ifvqfc0","pricing_plan_id":"free"},{"bike_id":"9b2b1b24-09ce-4a67-b955-8e8d0bf6565f","system_id":"levelo_inurba_marseille","lat":43.261782,"lon":5.374515,"is_reserved":false,"is_disabled":false,"rental_uris":{"android":"levelo://app?vid=9b2b1b24-09ce-4a67-b955-8e8d0bf6565f","ios":"levelo://app?vid=9b2b1b24-09ce-4a67-b955-8e8d0bf6565f"},"vehicle_type_id":"4","last_reported":1702145295,"current_range_meters":22800,"station_id":"ce4bhgp2rcd13ifvqfc0","pricing_plan_id":"free"},{"bike_id":"dbacbb4a-9e99-4a7a-9713-43dac221ae4c","system_id":"levelo_inurba_marseille","lat":43.317104,"lon":5.436818,"is_reserved":false,"is_disabled":false,"rental_uris":{"android":"levelo://app?vid=dbacbb4a-9e99-4a7a-9713-43dac221ae4c","ios":"levelo://app?vid=dbacbb4a-9e99-4a7a-9713-43dac221ae4c"},"vehicle_type_id":"4","last_reported":1702145295,"current_range_meters":17600,"station_id":"ce4bhp92rcd13ifvqhcg","pricing_plan_id":"free"},{"bike_id":"44f517c3-8ca9-43b4-9e02-8262e4fb0881","system_id":"levelo_inurba_marseille","lat":43.317104,"lon":5.436818,"is_reserved":false,"is_disabled":false,"rental_uris":{"android":"levelo://app?vid=44f517c3-8ca9-43b4-9e02-8262e4fb0881","ios":"levelo://app?vid=44f517c3-8ca9-43b4-9e02-8262e4fb0881"},"vehicle_type_id":"4","last_reported":1702145295,"current_range_meters":21200,"station_id":"ce4bhp92rcd13ifvqhcg","pricing_plan_id":"free"},{"bike_id":"d14fddf3-3638-41ff-a2e7-5c41cc7e7327","system_id":"levelo_inurba_marseille","lat":43.271368,"lon":5.40928,"is_reserved":false,"is_disabled":false,"rental_uris":{"android":"levelo://app?vid=d14fddf3-3638-41ff-a2e7-5c41cc7e7327","ios":"levelo://app?vid=d14fddf3-3638-41ff-a2e7-5c41cc7e7327"},"vehicle_type_id":"4","last_reported":1702145295,"current_range_meters":16000,"station_id":"ce4bhl12rcd13ifvqgf0","pricing_plan_id":"free"},{"bike_id":"c4a32d8b-8a0b-4189-aa9f-2983a413dfe8","system_id":"levelo_inurba_marseille","lat":43.299,"lon":5.43662,"is_reserved":false,"is_disabled":false,"rental_uris":{"android":"levelo://app?vid=c4a32d8b-8a0b-4189-aa9f-2983a413dfe8","ios":"levelo://app?vid=c4a32d8b-8a0b-4189-aa9f-2983a413dfe8"},"vehicle_type_id":"4","last_reported":1702145295,"current_range_meters":28800,"station_id":"ce4bhpp2rcd13ifvqhfg","pricing_plan_id":"free"},{"bike_id":"83e2018e-7127-4415-8bbf-2e347a9c6750","system_id":"levelo_inurba_marseille","lat":43.29894,"lon":5.43662,"is_reserved":false,"is_disabled":false,"rental_uris":{"android":"levelo://app?vid=83e2018e-7127-4415-8bbf-2e347a9c6750","ios":"levelo://app?vid=83e2018e-7127-4415-8bbf-2e347a9c6750"},"vehicle_type_id":"4","last_reported":1702145295,"current_range_meters":28800,"station_id":"ce4bhpp2rcd13ifvqhfg","pricing_plan_id":"free"},{"bike_id":"4f68f183-a711-4386-a731-e8ea8e2f115e","system_id":"levelo_inurba_marseille","lat":43.298768,"lon":5.43643,"is_reserved":false,"is_disabled":false,"rental_uris":{"android":"levelo://app?vid=4f68f183-a711-4386-a731-e8ea8e2f115e","ios":"levelo://app?vid=4f68f183-a711-4386-a731-e8ea8e2f115e"},"vehicle_type_id":"4","last_reported":1702145295,"current_range_meters":25200,"station_id":"ce4bhpp2rcd13ifvqhfg","pricing_plan_id":"free"},{"bike_id":"70c52fa1-91be-4fbd-9217-7a0c668f9310","system_id":"levelo_inurba_marseille","lat":43.29899,"lon":5.43665,"is_reserved":false,"is_disabled":false,"rental_uris":{"android":"levelo://app?vid=70c52fa1-91be-4fbd-9217-7a0c668f9310","ios":"levelo://app?vid=70c52fa1-91be-4fbd-9217-7a0c668f9310"},"vehicle_type_id":"4","last_reported":1702145295,"current_range_meters":24800,"station_id":"ce4bhpp2rcd13ifvqhfg","pricing_plan_id":"free"},{"bike_id":"ca4db8a8-5b98-4b78-bc3d-514f38028a3d","system_id":"levelo_inurba_marseille","lat":43.298768,"lon":5.43643,"is_reserved":false,"is_disabled":false,"rental_uris":{"android":"levelo://app?vid=ca4db8a8-5b98-4b78-bc3d-514f38028a3d","ios":"levelo://app?vid=ca4db8a8-5b98-4b78-bc3d-514f38028a3d"},"vehicle_type_id":"4","last_reported":1702145295,"current_range_meters":31200,"station_id":"ce4bhpp2rcd13ifvqhfg","pricing_plan_id":"free"},{"bike_id":"6b17b896-99f2-456b-929e-df3811eeb274","system_id":"levelo_inurba_marseille","lat":43.298768,"lon":5.43643,"is_reserved":false,"is_disabled":false,"rental_uris":{"android":"levelo://app?vid=6b17b896-99f2-456b-929e-df3811eeb274","ios":"levelo://app?vid=6b17b896-99f2-456b-929e-df3811eeb274"},"vehicle_type_id":"4","last_reported":1702145295,"current_range_meters":28000,"station_id":"ce4bhpp2rcd13ifvqhfg","pricing_plan_id":"free"},{"bike_id":"8b52906f-164e-4a6b-aed3-6eef957e6401","system_id":"levelo_inurba_marseille","lat":43.281548,"lon":5.42643,"is_reserved":false,"is_disabled":false,"rental_uris":{"android":"levelo://app?vid=8b52906f-164e-4a6b-aed3-6eef957e6401","ios":"levelo://app?vid=8b52906f-164e-4a6b-aed3-6eef957e6401"},"vehicle_type_id":"4","last_reported":1702145295,"current_range_meters":29200,"station_id":"ce4bhnh2rcd13ifvqgug","pricing_plan_id":"free"},{"bike_id":"ae2ee4ec-e0be-4650-a25d-ad306c6973d5","system_id":"levelo_inurba_marseille","lat":43.281548,"lon":5.42643,"is_reserved":false,"is_disabled":false,"rental_uris":{"android":"levelo://app?vid=ae2ee4ec-e0be-4650-a25d-ad306c6973d5","ios":"levelo://app?vid=ae2ee4ec-e0be-4650-a25d-ad306c6973d5"},"vehicle_type_id":"4","last_reported":1702145295,"current_range_meters":10000,"station_id":"ce4bhnh2rcd13ifvqgug","pricing_plan_id":"free"},{"bike_id":"c03e7c65-94ee-4f51-bb31-7322ab7baa32","system_id":"levelo_inurba_marseille","lat":43.281548,"lon":5.42643,"is_reserved":false,"is_disabled":false,"rental_uris":{"android":"levelo://app?vid=c03e7c65-94ee-4f51-bb31-7322ab7baa32","ios":"levelo://app?vid=c03e7c65-94ee-4f51-bb31-7322ab7baa32"},"vehicle_type_id":"4","last_reported":1702145295,"current_range_meters":0,"station_id":"ce4bhnh2rcd13ifvqgug","pricing_plan_id":"free"},{"bike_id":"5525a139-c8f9-4163-ad42-51992063b245","system_id":"levelo_inurba_marseille","lat":43.281548,"lon":5.42643,"is_reserved":false,"is_disabled":false,"rental_uris":{"android":"levelo://app?vid=5525a139-c8f9-4163-ad42-51992063b245","ios":"levelo://app?vid=5525a139-c8f9-4163-ad42-51992063b245"},"vehicle_type_id":"4","last_reported":1702145295,"current_range_meters":2800,"station_id":"ce4bhnh2rcd13ifvqgug","pricing_plan_id":"free"},{"bike_id":"b9063a33-13b5-4cca-826c-3f51be03f8ec","system_id":"levelo_inurba_marseille","lat":43.281548,"lon":5.42643,"is_reserved":false,"is_disabled":false,"rental_uris":{"android":"levelo://app?vid=b9063a33-13b5-4cca-826c-3f51be03f8ec","ios":"levelo://app?vid=b9063a33-13b5-4cca-826c-3f51be03f8ec"},"vehicle_type_id":"4","last_reported":1702145295,"current_range_meters":27200,"station_id":"ce4bhnh2rcd13ifvqgug","pricing_plan_id":"free"},{"bike_id":"e9a23148-ea63-448e-8189-1ee0e20e4523","system_id":"levelo_inurba_marseille","lat":43.27414,"lon":5.42391,"is_reserved":false,"is_disabled":false,"rental_uris":{"android":"levelo://app?vid=e9a23148-ea63-448e-8189-1ee0e20e4523","ios":"levelo://app?vid=e9a23148-ea63-448e-8189-1ee0e20e4523"},"vehicle_type_id":"4","last_reported":1702145295,"current_range_meters":4000,"station_id":"","pricing_plan_id":"free"},{"bike_id":"aea5944b-e92d-4936-a1a4-ebf829544b4e","system_id":"levelo_inurba_marseille","lat":43.254947,"lon":5.376454,"is_reserved":false,"is_disabled":false,"rental_uris":{"android":"levelo://app?vid=aea5944b-e92d-4936-a1a4-ebf829544b4e","ios":"levelo://app?vid=aea5944b-e92d-4936-a1a4-ebf829544b4e"},"vehicle_type_id":"4","last_reported":1702145295,"current_range_meters":24000,"station_id":"ce4bhh12rcd13ifvqff0","pricing_plan_id":"free"},{"bike_id":"45df50bf-ee3c-4a0f-bfab-2d65e92e855f","system_id":"levelo_inurba_marseille","lat":43.258658,"lon":5.398935,"is_reserved":false,"is_disabled":false,"rental_uris":{"android":"levelo://app?vid=45df50bf-ee3c-4a0f-bfab-2d65e92e855f","ios":"levelo://app?vid=45df50bf-ee3c-4a0f-bfab-2d65e92e855f"},"vehicle_type_id":"4","last_reported":1702145295,"current_range_meters":12400,"station_id":"ce4bhl92rcd13ifvqghg","pricing_plan_id":"free"},{"bike_id":"3567cce1-6ac1-4d77-97aa-629b9c6dc608","system_id":"levelo_inurba_marseille","lat":43.25006,"lon":5.38911,"is_reserved":false,"is_disabled":false,"rental_uris":{"android":"levelo://app?vid=3567cce1-6ac1-4d77-97aa-629b9c6dc608","ios":"levelo://app?vid=3567cce1-6ac1-4d77-97aa-629b9c6dc608"},"vehicle_type_id":"4","last_reported":1702145295,"current_range_meters":8800,"station_id":"ce4bhgp2rcd13ifvqfd0","pricing_plan_id":"free"},{"bike_id":"364529eb-30a8-4e49-b38d-c062771a5e8b","system_id":"levelo_inurba_marseille","lat":43.2479,"lon":5.374457,"is_reserved":false,"is_disabled":false,"rental_uris":{"android":"levelo://app?vid=364529eb-30a8-4e49-b38d-c062771a5e8b","ios":"levelo://app?vid=364529eb-30a8-4e49-b38d-c062771a5e8b"},"vehicle_type_id":"4","last_reported":1702145295,"current_range_meters":25600,"station_id":"ce4bhgh2rcd13ifvqfb0","pricing_plan_id":"free"},{"bike_id":"63b100ec-18e8-48d7-b99d-e452ab39b959","system_id":"levelo_inurba_marseille","lat":43.250966,"lon":5.395186,"is_reserved":false,"is_disabled":false,"rental_uris":{"android":"levelo://app?vid=63b100ec-18e8-48d7-b99d-e452ab39b959","ios":"levelo://app?vid=63b100ec-18e8-48d7-b99d-e452ab39b959"},"vehicle_type_id":"4","last_reported":1702145295,"current_range_meters":14400,"station_id":"ce4bhm12rcd13ifvqgkg","pricing_plan_id":"free"},{"bike_id":"88307ff9-c750-424b-9813-e0b9cde42d0f","system_id":"levelo_inurba_marseille","lat":43.24693,"lon":5.382096,"is_reserved":false,"is_disabled":false,"rental_uris":{"android":"levelo://app?vid=88307ff9-c750-424b-9813-e0b9cde42d0f","ios":"levelo://app?vid=88307ff9-c750-424b-9813-e0b9cde42d0f"},"vehicle_type_id":"4","last_reported":1702145295,"current_range_meters":15600,"station_id":"ce4bhih2rcd13ifvqfr0","pricing_plan_id":"free"},{"bike_id":"3b84ff55-b48c-4c65-9282-c71920fc0fcb","system_id":"levelo_inurba_marseille","lat":43.24661,"lon":5.3817,"is_reserved":false,"is_disabled":false,"rental_uris":{"android":"levelo://app?vid=3b84ff55-b48c-4c65-9282-c71920fc0fcb","ios":"levelo://app?vid=3b84ff55-b48c-4c65-9282-c71920fc0fcb"},"vehicle_type_id":"4","last_reported":1702145295,"current_range_meters":0,"station_id":"ce4bhih2rcd13ifvqfr0","pricing_plan_id":"free"},{"bike_id":"c089e6e9-a5c0-47e8-bf4b-0edc69dd8855","system_id":"levelo_inurba_marseille","lat":43.24693,"lon":5.382096,"is_reserved":false,"is_disabled":false,"rental_uris":{"android":"levelo://app?vid=c089e6e9-a5c0-47e8-bf4b-0edc69dd8855","ios":"levelo://app?vid=c089e6e9-a5c0-47e8-bf4b-0edc69dd8855"},"vehicle_type_id":"4","last_reported":1702145295,"current_range_meters":24400,"station_id":"ce4bhih2rcd13ifvqfr0","pricing_plan_id":"free"},{"bike_id":"6ffa404c-bd43-4ef5-aa2c-7350849e4cbf","system_id":"levelo_inurba_marseille","lat":43.246467,"lon":5.388984,"is_reserved":false,"is_disabled":false,"rental_uris":{"android":"levelo://app?vid=6ffa404c-bd43-4ef5-aa2c-7350849e4cbf","ios":"levelo://app?vid=6ffa404c-bd43-4ef5-aa2c-7350849e4cbf"},"vehicle_type_id":"4","last_reported":1702145295,"current_range_meters":26000,"station_id":"ce4bhg12rcd13ifvqf60","pricing_plan_id":"free"},{"bike_id":"1d260029-f614-4fcd-9e34-5fe59d13160e","system_id":"levelo_inurba_marseille","lat":43.243884,"lon":5.370736,"is_reserved":false,"is_disabled":false,"rental_uris":{"android":"levelo://app?vid=1d260029-f614-4fcd-9e34-5fe59d13160e","ios":"levelo://app?vid=1d260029-f614-4fcd-9e34-5fe59d13160e"},"vehicle_type_id":"4","last_reported":1702145295,"current_range_meters":15200,"station_id":"ce4bhhh2rcd13ifvqfk0","pricing_plan_id":"free"},{"bike_id":"deca7780-f2c1-4759-8489-08cc876e086e","system_id":"levelo_inurba_marseille","lat":43.243884,"lon":5.370737,"is_reserved":false,"is_disabled":false,"rental_uris":{"android":"levelo://app?vid=deca7780-f2c1-4759-8489-08cc876e086e","ios":"levelo://app?vid=deca7780-f2c1-4759-8489-08cc876e086e"},"vehicle_type_id":"4","last_reported":1702145295,"current_range_meters":800,"station_id":"ce4bhhh2rcd13ifvqfk0","pricing_plan_id":"free"},{"bike_id":"bd83e60a-c0a9-42d0-9228-56613594b85e","system_id":"levelo_inurba_marseille","lat":43.240623,"lon":5.377642,"is_reserved":false,"is_disabled":false,"rental_uris":{"android":"levelo://app?vid=bd83e60a-c0a9-42d0-9228-56613594b85e","ios":"levelo://app?vid=bd83e60a-c0a9-42d0-9228-56613594b85e"},"vehicle_type_id":"4","last_reported":1702145295,"current_range_meters":13600,"station_id":"ce4bhnp2rcd13ifvqgvg","pricing_plan_id":"free"},{"bike_id":"15592f1b-d329-4371-97e7-e3e0ba29f7db","system_id":"levelo_inurba_marseille","lat":43.24179,"lon":5.39733,"is_reserved":false,"is_disabled":false,"rental_uris":{"android":"levelo://app?vid=15592f1b-d329-4371-97e7-e3e0ba29f7db","ios":"levelo://app?vid=15592f1b-d329-4371-97e7-e3e0ba29f7db"},"vehicle_type_id":"4","last_reported":1702145295,"current_range_meters":9600,"station_id":"ce4bhn12rcd13ifvqgpg","pricing_plan_id":"free"},{"bike_id":"a8c501f0-1f0c-4126-b8d3-0e787022ce6a","system_id":"levelo_inurba_marseille","lat":43.231919,"lon":5.355532,"is_reserved":false,"is_disabled":false,"rental_uris":{"android":"levelo://app?vid=a8c501f0-1f0c-4126-b8d3-0e787022ce6a","ios":"levelo://app?vid=a8c501f0-1f0c-4126-b8d3-0e787022ce6a"},"vehicle_type_id":"4","last_reported":1702145295,"current_range_meters":28800,"station_id":"ce4bhu92rcd13ifvqi70","pricing_plan_id":"free"},{"bike_id":"0beff761-2f6a-459b-bf02-95296df70ee4","system_id":"levelo_inurba_marseille","lat":43.231919,"lon":5.355532,"is_reserved":false,"is_disabled":false,"rental_uris":{"android":"levelo://app?vid=0beff761-2f6a-459b-bf02-95296df70ee4","ios":"levelo://app?vid=0beff761-2f6a-459b-bf02-95296df70ee4"},"vehicle_type_id":"4","last_reported":1702145295,"current_range_meters":14000,"station_id":"ce4bhu92rcd13ifvqi70","pricing_plan_id":"free"},{"bike_id":"529449ae-9bd0-4a42-b2ad-b913b1c62c25","system_id":"levelo_inurba_marseille","lat":43.23195,"lon":5.3555,"is_reserved":false,"is_disabled":false,"rental_uris":{"android":"levelo://app?vid=529449ae-9bd0-4a42-b2ad-b913b1c62c25","ios":"levelo://app?vid=529449ae-9bd0-4a42-b2ad-b913b1c62c25"},"vehicle_type_id":"4","last_reported":1702145295,"current_range_meters":30400,"station_id":"ce4bhu92rcd13ifvqi70","pricing_plan_id":"free"},{"bike_id":"61aa0a27-01cd-4079-9d0b-d55e5cfaee7e","system_id":"levelo_inurba_marseille","lat":43.231919,"lon":5.355532,"is_reserved":false,"is_disabled":false,"rental_uris":{"android":"levelo://app?vid=61aa0a27-01cd-4079-9d0b-d55e5cfaee7e","ios":"levelo://app?vid=61aa0a27-01cd-4079-9d0b-d55e5cfaee7e"},"vehicle_type_id":"4","last_reported":1702145295,"current_range_meters":29200,"station_id":"ce4bhu92rcd13ifvqi70","pricing_plan_id":"free"},{"bike_id":"2eac3e0a-1cc3-4e75-9865-782906f9549d","system_id":"levelo_inurba_marseille","lat":43.231919,"lon":5.355532,"is_reserved":false,"is_disabled":false,"rental_uris":{"android":"levelo://app?vid=2eac3e0a-1cc3-4e75-9865-782906f9549d","ios":"levelo://app?vid=2eac3e0a-1cc3-4e75-9865-782906f9549d"},"vehicle_type_id":"4","last_reported":1702145295,"current_range_meters":26000,"station_id":"ce4bhu92rcd13ifvqi70","pricing_plan_id":"free"},{"bike_id":"db837267-81e3-439e-98cb-2684c730942d","system_id":"levelo_inurba_marseille","lat":43.231924,"lon":5.355443,"is_reserved":false,"is_disabled":false,"rental_uris":{"android":"levelo://app?vid=db837267-81e3-439e-98cb-2684c730942d","ios":"levelo://app?vid=db837267-81e3-439e-98cb-2684c730942d"},"vehicle_type_id":"4","last_reported":1702145295,"current_range_meters":19600,"station_id":"ce4bhu92rcd13ifvqi70","pricing_plan_id":"free"},{"bike_id":"0a3fd299-d5d6-4cab-87d2-2e0a99e08c7f","system_id":"levelo_inurba_marseille","lat":43.231562,"lon":5.436933,"is_reserved":false,"is_disabled":false,"rental_uris":{"android":"levelo://app?vid=0a3fd299-d5d6-4cab-87d2-2e0a99e08c7f","ios":"levelo://app?vid=0a3fd299-d5d6-4cab-87d2-2e0a99e08c7f"},"vehicle_type_id":"4","last_reported":1702145295,"current_range_meters":4400,"station_id":"ce4bhmp2rcd13ifvqgog","pricing_plan_id":"free"}]}}