{"last_updated":1745791755,"ttl":60,"version":"2.2","data":{"bikes":[{"bike_id":"557a227b-3d69-4745-8e95-e165541f2f63","system_id":"levelo_inurba_marseille","lat":43.28473,"lon":5.359134,"is_reserved":false,"is_disabled":true,"rental_uris":{"android":"levelo://app?vid=557a227b-3d69-4745-8e95-e165541f2f63","ios":"levelo://app?vid=557a227b-3d69-4745-8e95-e165541f2f63"},"vehicle_type_id":"4","last_reported":1745791755,"current_range_meters":0,"station_id":"","pricing_plan_id":"cebpf4jnsgd1na2vs0mg"},{"bike_id":"e03e1053-abd2-4c0e-8c40-ba7b8236642b","system_id":"levelo_inurba_marseille","lat":43.30003,"lon":5.4026,"is_reserved":false,"is_disabled":true,"rental_uris":{"android":"levelo://app?vid=e03e1053-abd2-4c0e-8c40-ba7b8236642b","ios":"levelo://app?vid=e03e1053-abd2-4c0e-8c40-ba7b8236642b"},"vehicle_type_id":"4","last_reported":1745791755,"current_range_meters":0,"station_id":"","pricing_plan_id":"cebpf4jnsgd1na2vs0mg"},{"bike_id":"809e59ac-ee8e-4f79-a65e-a2fad53fd2cc","system_id":"levelo_inurba_marseille","lat":43.29737,"lon":5.40967,"is_reserved":false,"is_disabled":true,"rental_uris":{"android":"levelo://app?vid=809e59ac-ee8e-4f79-a65e-a2fad53fd2cc","ios":"levelo://app?vid=809e59ac-ee8e-4f79-a65e-a2fad53fd2cc"},"vehicle_type_id":"4","last_reported":1745791755,"current_range_meters":0,"station_id":"","pricing_plan_id":"cebpf4jnsgd1na2vs0mg"},{"bike_id":"0b9a7af0-bb1e-499e-9cef-5ca1f43db2fe","system_id":"levelo_inurba_marseille","lat":43.31115,"lon":5.37156,"is_reserved":false,"is_disabled":true,"rental_uris":{"android":"levelo://app?vid=0b9a7af0-bb1e-499e-9cef-5ca1f43db2fe","ios":"levelo://app?vid=0b9a7af0-bb1e-499e-9cef-5ca1f43db2fe"},"vehicle_type_id":"4","last_reported":1745791755,"current_range_meters":0,"station_id":"","pricing_plan_id":"cebpf4jnsgd1na2vs0mg"},{"bike_id":"01664c81-48e3-485e-9687-a57cac0da7fb","system_id":"levelo_inurba_marseille","lat":43.29421,"lon":5.38612,"is_reserved":false,"is_disabled":true,"rental_uris":{"android":"levelo://app?vid=01664c81-48e3-485e-9687-a57cac0da7fb","ios":"levelo://app?vid=01664c81-48e3-485e-9687-a57cac0da7fb"},"vehicle_type_id":"4","last_reported":1745791755,"current_range_meters":0,"station_id":"ce4bh2h2rcd13ifvqdh0","pricing_plan_id":"cebpf4jnsgd1na2vs0mg"},{"bike_id":"c5251972-d279-4ec2-bcf1-956c2d9d91f3","system_id":"levelo_inurba_marseille","lat":43.22523,"lon":5.34797,"is_reserved":false,"is_disabled":true,"rental_uris":{"android":"levelo://app?vid=c5251972-d279-4ec2-bcf1-956c2d9d91f3","ios":"levelo://app?vid=c5251972-d279-4ec2-bcf1-956c2d9d91f3"},"vehicle_type_id":"4","last_reported":1745791755,"current_range_meters":0,"station_id":"st_cvj5dfep6f1abm77gieg","pricing_plan_id":"cebpf4jnsgd1na2vs0mg"},{"bike_id":"597c734b-f343-4817-8915-1b18d2927fa8","system_id":"levelo_inurba_marseille","lat":43.27067,"lon":5.42279,"is_reserved":false,"is_disabled":true,"rental_uris":{"android":"levelo://app?vid=597c734b-f343-4817-8915-1b18d2927fa8","ios":"levelo://app?vid=597c734b-f343-4817-8915-1b18d2927fa8"},"vehicle_type_id":"4","last_reported":1745791755,"current_range_meters":1600,"station_id":"ce4bhk92rcd13ifvqgb0","pricing_plan_id":"cebpf4jnsgd1na2vs0mg"},{"bike_id":"49567d34-daf3-413f-837e-ee3ec76e01ef","system_id":"levelo_inurba_marseille","lat":43.25011,"lon":5.38918,"is_reserved":false,"is_disabled":false,"rental_uris":{"android":"levelo://app?vid=49567d34-daf3-413f-837e-ee3ec76e01ef","ios":"levelo://app?vid=49567d34-daf3-413f-837e-ee3ec76e01ef"},"vehicle_type_id":"4","last_reported":1745791755,"current_range_meters":6000,"station_id":"ce4bhgp2rcd13ifvqfd0","pricing_plan_id":"cebpf4jnsgd1na2vs0mg"},{"bike_id":"c1b1b433-bcb9-4a7d-8963-3218bcdcba1e","system_id":"levelo_inurba_marseille","lat":43.23356,"lon":5.36066,"is_reserved":false,"is_disabled":false,"rental_uris":{"android":"levelo://app?vid=c1b1b433-bcb9-4a7d-8963-3218bcdcba1e","ios":"levelo://app?vid=c1b1b433-bcb9-4a7d-8963-3218bcdcba1e"},"vehicle_type_id":"4","last_reported":1745791755,"current_range_meters":6400,"station_id":"","pricing_plan_id":"cebpf4jnsgd1na2vs0mg"},{"bike_id":"042a36cf-a68c-4f02-8fbe-a3d4f36fa492","system_id":"levelo_inurba_marseille","lat":43.21194,"lon":5.35086,"is_reserved":false,"is_disabled":false,"rental_uris":{"android":"levelo://app?vid=042a36cf-a68c-4f02-8fbe-a3d4f36fa492","ios":"levelo://app?vid=042a36cf-a68c-4f02-8fbe-a3d4f36fa492"},"vehicle_type_id":"4","last_reported":1745791755,"current_range_meters":6400,"station_id":"st_cvj6sg6p6f1abm77japg","pricing_plan_id":"cebpf4jnsgd1na2vs0mg"},{"bike_id":"cfedda18-f895-49da-bc3d-8d22c0dd79d7","system_id":"levelo_inurba_marseille","lat":43.25732,"lon":5.41112,"is_reserved":false,"is_disabled":false,"rental_uris":{"android":"levelo://app?vid=cfedda18-f895-49da-bc3d-8d22c0dd79d7","ios":"levelo://app?vid=cfedda18-f895-49da-bc3d-8d22c0dd79d7"},"vehicle_type_id":"4","last_reported":1745791755,"current_range_meters":6800,"station_id":"ce4bhkp2rcd13ifvqgd0","pricing_plan_id":"cebpf4jnsgd1na2vs0mg"},{"bike_id":"284efe7b-2e61-45b1-a1e4-7089a3b3d2dd","system_id":"levelo_inurba_marseille","lat":43.25938,"lon":5.40895,"is_reserved":false,"is_disabled":false,"rental_uris":{"android":"levelo://app?vid=284efe7b-2e61-45b1-a1e4-7089a3b3d2dd","ios":"levelo://app?vid=284efe7b-2e61-45b1-a1e4-7089a3b3d2dd"},"vehicle_type_id":"4","last_reported":1745791755,"current_range_meters":6800,"station_id":"ce4bhm92rcd13ifvqglg","pricing_plan_id":"cebpf4jnsgd1na2vs0mg"},{"bike_id":"b4ab71dc-7ecc-4fcb-bfaf-2cb4e735be46","system_id":"levelo_inurba_marseille","lat":43.24175,"lon":5.39732,"is_reserved":false,"is_disabled":false,"rental_uris":{"android":"levelo://app?vid=b4ab71dc-7ecc-4fcb-bfaf-2cb4e735be46","ios":"levelo://app?vid=b4ab71dc-7ecc-4fcb-bfaf-2cb4e735be46"},"vehicle_type_id":"4","last_reported":1745791755,"current_range_meters":6800,"station_id":"ce4bhn12rcd13ifvqgpg","pricing_plan_id":"cebpf4jnsgd1na2vs0mg"},{"bike_id":"d9d42592-3084-4d0e-9bdc-dde1c8c2459a","system_id":"levelo_inurba_marseille","lat":43.23194,"lon":5.39977,"is_reserved":false,"is_disabled":false,"rental_uris":{"android":"levelo://app?vid=d9d42592-3084-4d0e-9bdc-dde1c8c2459a","ios":"levelo://app?vid=d9d42592-3084-4d0e-9bdc-dde1c8c2459a"},"vehicle_type_id":"4","last_reported":1745791755,"current_range_meters":6800,"station_id":"ce4bhn12rcd13ifvqgqg","pricing_plan_id":"cebpf4jnsgd1na2vs0mg"},{"bike_id":"b203106f-15ad-4224-a9bb-aef6d708468c","system_id":"levelo_inurba_marseille","lat":43.27516,"lon":5.42446,"is_reserved":false,"is_disabled":false,"rental_uris":{"android":"levelo://app?vid=b203106f-15ad-4224-a9bb-aef6d708468c","ios":"levelo://app?vid=b203106f-15ad-4224-a9bb-aef6d708468c"},"vehicle_type_id":"4","last_reported":1745791755,"current_range_meters":6800,"station_id":"ce4bhn92rcd13ifvqgrg","pricing_plan_id":"cebpf4jnsgd1na2vs0mg"},{"bike_id":"4f237f57-7e6d-4454-a0e6-195d0a8fae7b","system_id":"levelo_inurba_marseille","lat":43.32502,"lon":5.43885,"is_reserved":false,"is_disabled":false,"rental_uris":{"android":"levelo://app?vid=4f237f57-7e6d-4454-a0e6-195d0a8fae7b","ios":"levelo://app?vid=4f237f57-7e6d-4454-a0e6-195d0a8fae7b"},"vehicle_type_id":"4","last_reported":1745791755,"current_range_meters":7200,"station_id":"","pricing_plan_id":"cebpf4jnsgd1na2vs0mg"},{"bike_id":"647eceb0-396c-4b66-9b6a-15942a39bd89","system_id":"levelo_inurba_marseille","lat":43.24171,"lon":5.36388,"is_reserved":false,"is_disabled":false,"rental_uris":{"android":"levelo://app?vid=647eceb0-396c-4b66-9b6a-15942a39bd89","ios":"levelo://app?vid=647eceb0-396c-4b66-9b6a-15942a39bd89"},"vehicle_type_id":"4","last_reported":1745791755,"current_range_meters":8000,"station_id":"cpo36qri1sfpv3e86is0","pricing_plan_id":"cebpf4jnsgd1na2vs0mg"},{"bike_id":"d207e63a-1126-4002-8817-099b9155cf2f","system_id":"levelo_inurba_marseille","lat":43.26175,"lon":5.37871,"is_reserved":false,"is_disabled":false,"rental_uris":{"android":"levelo://app?vid=d207e63a-1126-4002-8817-099b9155cf2f","ios":"levelo://app?vid=d207e63a-1126-4002-8817-099b9155cf2f"},"vehicle_type_id":"4","last_reported":1745791755,"current_range_meters":8400,"station_id":"ce4bhjp2rcd13ifvqg90","pricing_plan_id":"cebpf4jnsgd1na2vs0mg"},{"bike_id":"78489e0f-0b4a-4de4-938c-aa05f1951ddd","system_id":"levelo_inurba_marseille","lat":43.28156,"lon":5.42638,"is_reserved":false,"is_disabled":false,"rental_uris":{"android":"levelo://app?vid=78489e0f-0b4a-4de4-938c-aa05f1951ddd","ios":"levelo://app?vid=78489e0f-0b4a-4de4-938c-aa05f1951ddd"},"vehicle_type_id":"4","last_reported":1745791755,"current_range_meters":8400,"station_id":"ce4bhnh2rcd13ifvqgug","pricing_plan_id":"cebpf4jnsgd1na2vs0mg"},{"bike_id":"721ac694-ddc1-45a4-93fe-2aef08d4b564","system_id":"levelo_inurba_marseille","lat":43.24157,"lon":5.36402,"is_reserved":false,"is_disabled":false,"rental_uris":{"android":"levelo://app?vid=721ac694-ddc1-45a4-93fe-2aef08d4b564","ios":"levelo://app?vid=721ac694-ddc1-45a4-93fe-2aef08d4b564"},"vehicle_type_id":"4","last_reported":1745791755,"current_range_meters":8400,"station_id":"cpo36qri1sfpv3e86is0","pricing_plan_id":"cebpf4jnsgd1na2vs0mg"},{"bike_id":"7285c221-847b-46d9-b086-1b7053cfaa3d","system_id":"levelo_inurba_marseille","lat":43.24205,"lon":5.39706,"is_reserved":false,"is_disabled":false,"rental_uris":{"android":"levelo://app?vid=7285c221-847b-46d9-b086-1b7053cfaa3d","ios":"levelo://app?vid=7285c221-847b-46d9-b086-1b7053cfaa3d"},"vehicle_type_id":"4","last_reported":1745791755,"current_range_meters":8800,"station_id":"ce4bhn12rcd13ifvqgpg","pricing_plan_id":"cebpf4jnsgd1na2vs0mg"},{"bike_id":"c1faacd0-1f5b-4c1f-996a-7cfb70349eca","system_id":"levelo_inurba_marseille","lat":43.25711,"lon":5.41115,"is_reserved":false,"is_disabled":false,"rental_uris":{"android":"levelo://app?vid=c1faacd0-1f5b-4c1f-996a-7cfb70349eca","ios":"levelo://app?vid=c1faacd0-1f5b-4c1f-996a-7cfb70349eca"},"vehicle_type_id":"4","last_reported":1745791755,"current_range_meters":9200,"station_id":"ce4bhkp2rcd13ifvqgd0","pricing_plan_id":"cebpf4jnsgd1na2vs0mg"},{"bike_id":"b9573801-f8cd-450a-943a-86a4083bccfa","system_id":"levelo_inurba_marseille","lat":43.25099,"lon":5.40337,"is_reserved":false,"is_disabled":false,"rental_uris":{"android":"levelo://app?vid=b9573801-f8cd-450a-943a-86a4083bccfa","ios":"levelo://app?vid=b9573801-f8cd-450a-943a-86a4083bccfa"},"vehicle_type_id":"4","last_reported":1745791755,"current_range_meters":9200,"station_id":"ce4bhlh2rcd13ifvqgig","pricing_plan_id":"cebpf4jnsgd1na2vs0mg"},{"bike_id":"91474842-32bf-45c2-856a-80fd91d22aa5","system_id":"levelo_inurba_marseille","lat":43.21208,"lon":5.3506,"is_reserved":false,"is_disabled":false,"rental_uris":{"android":"levelo://app?vid=91474842-32bf-45c2-856a-80fd91d22aa5","ios":"levelo://app?vid=91474842-32bf-45c2-856a-80fd91d22aa5"},"vehicle_type_id":"4","last_reported":1745791755,"current_range_meters":9200,"station_id":"st_cvj6sg6p6f1abm77japg","pricing_plan_id":"cebpf4jnsgd1na2vs0mg"},{"bike_id":"470d2f4f-18f9-40aa-a6ee-c93cc79026b0","system_id":"levelo_inurba_marseille","lat":43.30326,"lon":5.40429,"is_reserved":false,"is_disabled":false,"rental_uris":{"android":"levelo://app?vid=470d2f4f-18f9-40aa-a6ee-c93cc79026b0","ios":"levelo://app?vid=470d2f4f-18f9-40aa-a6ee-c93cc79026b0"},"vehicle_type_id":"4","last_reported":1745791755,"current_range_meters":9600,"station_id":"ce4bh012rcd13ifvqd10","pricing_plan_id":"cebpf4jnsgd1na2vs0mg"},{"bike_id":"30288cb7-e849-4b02-8ab1-96deccfd974f","system_id":"levelo_inurba_marseille","lat":43.23961,"lon":5.366324,"is_reserved":false,"is_disabled":false,"rental_uris":{"android":"levelo://app?vid=30288cb7-e849-4b02-8ab1-96deccfd974f","ios":"levelo://app?vid=30288cb7-e849-4b02-8ab1-96deccfd974f"},"vehicle_type_id":"4","last_reported":1745791755,"current_range_meters":9600,"station_id":"ce4bhi12rcd13ifvqfp0","pricing_plan_id":"cebpf4jnsgd1na2vs0mg"},{"bike_id":"554c7222-d609-4841-a832-33adb157bebb","system_id":"levelo_inurba_marseille","lat":43.21191,"lon":5.3506,"is_reserved":false,"is_disabled":false,"rental_uris":{"android":"levelo://app?vid=554c7222-d609-4841-a832-33adb157bebb","ios":"levelo://app?vid=554c7222-d609-4841-a832-33adb157bebb"},"vehicle_type_id":"4","last_reported":1745791755,"current_range_meters":9600,"station_id":"st_cvj6sg6p6f1abm77japg","pricing_plan_id":"cebpf4jnsgd1na2vs0mg"},{"bike_id":"4d30c610-c7f7-4753-955d-632d26f85af3","system_id":"levelo_inurba_marseille","lat":43.3012,"lon":5.39838,"is_reserved":false,"is_disabled":false,"rental_uris":{"android":"levelo://app?vid=4d30c610-c7f7-4753-955d-632d26f85af3","ios":"levelo://app?vid=4d30c610-c7f7-4753-955d-632d26f85af3"},"vehicle_type_id":"4","last_reported":1745791755,"current_range_meters":10000,"station_id":"ce4bh0h2rcd13ifvqd40","pricing_plan_id":"cebpf4jnsgd1na2vs0mg"},{"bike_id":"980a0cb2-d545-4925-bccb-f686b0fe7d5a","system_id":"levelo_inurba_marseille","lat":43.2926,"lon":5.40894,"is_reserved":false,"is_disabled":false,"rental_uris":{"android":"levelo://app?vid=980a0cb2-d545-4925-bccb-f686b0fe7d5a","ios":"levelo://app?vid=980a0cb2-d545-4925-bccb-f686b0fe7d5a"},"vehicle_type_id":"4","last_reported":1745791755,"current_range_meters":10000,"station_id":"ce4bh192rcd13ifvqdc0","pricing_plan_id":"cebpf4jnsgd1na2vs0mg"},{"bike_id":"42714ffe-c42c-407f-8e86-4a0c4f465a7a","system_id":"levelo_inurba_marseille","lat":43.24547,"lon":5.39522,"is_reserved":false,"is_disabled":false,"rental_uris":{"android":"levelo://app?vid=42714ffe-c42c-407f-8e86-4a0c4f465a7a","ios":"levelo://app?vid=42714ffe-c42c-407f-8e86-4a0c4f465a7a"},"vehicle_type_id":"4","last_reported":1745791755,"current_range_meters":10000,"station_id":"ce4bhlp2rcd13ifvqgjg","pricing_plan_id":"cebpf4jnsgd1na2vs0mg"},{"bike_id":"44530a1d-b48a-47f5-a929-63b20a3c24dc","system_id":"levelo_inurba_marseille","lat":43.24172,"lon":5.36393,"is_reserved":false,"is_disabled":false,"rental_uris":{"android":"levelo://app?vid=44530a1d-b48a-47f5-a929-63b20a3c24dc","ios":"levelo://app?vid=44530a1d-b48a-47f5-a929-63b20a3c24dc"},"vehicle_type_id":"4","last_reported":1745791755,"current_range_meters":10000,"station_id":"cpo36qri1sfpv3e86is0","pricing_plan_id":"cebpf4jnsgd1na2vs0mg"},{"bike_id":"a2e988ca-4cad-46d4-8096-1d1b1de4b0e4","system_id":"levelo_inurba_marseille","lat":43.3235,"lon":5.36765,"is_reserved":false,"is_disabled":false,"rental_uris":{"android":"levelo://app?vid=a2e988ca-4cad-46d4-8096-1d1b1de4b0e4","ios":"levelo://app?vid=a2e988ca-4cad-46d4-8096-1d1b1de4b0e4"},"vehicle_type_id":"4","last_reported":1745791755,"current_range_meters":10800,"station_id":"ce4bhsh2rcd13ifvqi2g","pricing_plan_id":"cebpf4jnsgd1na2vs0mg"},{"bike_id":"8235d872-096e-497c-a719-c2fcbf16281e","system_id":"levelo_inurba_marseille","lat":43.24646,"lon":5.389,"is_reserved":false,"is_disabled":false,"rental_uris":{"android":"levelo://app?vid=8235d872-096e-497c-a719-c2fcbf16281e","ios":"levelo://app?vid=8235d872-096e-497c-a719-c2fcbf16281e"},"vehicle_type_id":"4","last_reported":1745791755,"current_range_meters":11200,"station_id":"ce4bhg12rcd13ifvqf60","pricing_plan_id":"cebpf4jnsgd1na2vs0mg"},{"bike_id":"3ccac05c-9dfe-40ab-8170-c07c58eafdc3","system_id":"levelo_inurba_marseille","lat":43.26228,"lon":5.40439,"is_reserved":false,"is_disabled":false,"rental_uris":{"android":"levelo://app?vid=3ccac05c-9dfe-40ab-8170-c07c58eafdc3","ios":"levelo://app?vid=3ccac05c-9dfe-40ab-8170-c07c58eafdc3"},"vehicle_type_id":"4","last_reported":1745791755,"current_range_meters":11600,"station_id":"ce4bhmh2rcd13ifvqgmg","pricing_plan_id":"cebpf4jnsgd1na2vs0mg"},{"bike_id":"6303aeb8-901b-4f8f-8588-7c345791c8ea","system_id":"levelo_inurba_marseille","lat":43.2475,"lon":5.41184,"is_reserved":false,"is_disabled":false,"rental_uris":{"android":"levelo://app?vid=6303aeb8-901b-4f8f-8588-7c345791c8ea","ios":"levelo://app?vid=6303aeb8-901b-4f8f-8588-7c345791c8ea"},"vehicle_type_id":"4","last_reported":1745791755,"current_range_meters":12000,"station_id":"","pricing_plan_id":"cebpf4jnsgd1na2vs0mg"},{"bike_id":"03bd42f6-231b-41f0-967c-979162658d23","system_id":"levelo_inurba_marseille","lat":43.24675,"lon":5.38159,"is_reserved":false,"is_disabled":false,"rental_uris":{"android":"levelo://app?vid=03bd42f6-231b-41f0-967c-979162658d23","ios":"levelo://app?vid=03bd42f6-231b-41f0-967c-979162658d23"},"vehicle_type_id":"4","last_reported":1745791755,"current_range_meters":12400,"station_id":"ce4bhih2rcd13ifvqfr0","pricing_plan_id":"cebpf4jnsgd1na2vs0mg"},{"bike_id":"0d777af5-4166-475a-a6b9-6a0197032592","system_id":"levelo_inurba_marseille","lat":43.23266,"lon":5.35209,"is_reserved":false,"is_disabled":false,"rental_uris":{"android":"levelo://app?vid=0d777af5-4166-475a-a6b9-6a0197032592","ios":"levelo://app?vid=0d777af5-4166-475a-a6b9-6a0197032592"},"vehicle_type_id":"4","last_reported":1745791755,"current_range_meters":12800,"station_id":"","pricing_plan_id":"cebpf4jnsgd1na2vs0mg"},{"bike_id":"06b75956-2687-4df9-b215-943b6923c19a","system_id":"levelo_inurba_marseille","lat":43.29262,"lon":5.40897,"is_reserved":false,"is_disabled":false,"rental_uris":{"android":"levelo://app?vid=06b75956-2687-4df9-b215-943b6923c19a","ios":"levelo://app?vid=06b75956-2687-4df9-b215-943b6923c19a"},"vehicle_type_id":"4","last_reported":1745791755,"current_range_meters":12800,"station_id":"ce4bh192rcd13ifvqdc0","pricing_plan_id":"cebpf4jnsgd1na2vs0mg"},{"bike_id":"3d934169-6946-46cc-87a4-ce5d03b77075","system_id":"levelo_inurba_marseille","lat":43.21735,"lon":5.34609,"is_reserved":false,"is_disabled":false,"rental_uris":{"android":"levelo://app?vid=3d934169-6946-46cc-87a4-ce5d03b77075","ios":"levelo://app?vid=3d934169-6946-46cc-87a4-ce5d03b77075"},"vehicle_type_id":"4","last_reported":1745791755,"current_range_meters":12800,"station_id":"st_cvj6r9ubvosntc0bgbag","pricing_plan_id":"cebpf4jnsgd1na2vs0mg"},{"bike_id":"16b48bfc-6c24-4779-9c6b-4d823f8fa5ad","system_id":"levelo_inurba_marseille","lat":43.2816,"lon":5.42641,"is_reserved":false,"is_disabled":false,"rental_uris":{"android":"levelo://app?vid=16b48bfc-6c24-4779-9c6b-4d823f8fa5ad","ios":"levelo://app?vid=16b48bfc-6c24-4779-9c6b-4d823f8fa5ad"},"vehicle_type_id":"4","last_reported":1745791755,"current_range_meters":13600,"station_id":"ce4bhnh2rcd13ifvqgug","pricing_plan_id":"cebpf4jnsgd1na2vs0mg"},{"bike_id":"d4ce7eab-d2e5-4dd9-bd61-f458b6331907","system_id":"levelo_inurba_marseille","lat":43.31388,"lon":5.38518,"is_reserved":false,"is_disabled":false,"rental_uris":{"android":"levelo://app?vid=d4ce7eab-d2e5-4dd9-bd61-f458b6331907","ios":"levelo://app?vid=d4ce7eab-d2e5-4dd9-bd61-f458b6331907"},"vehicle_type_id":"4","last_reported":1745791755,"current_range_meters":14400,"station_id":"ce4bgt92rcd13ifvqcf0","pricing_plan_id":"cebpf4jnsgd1na2vs0mg"},{"bike_id":"3a329fe9-deb6-4729-bbed-973ea17872b9","system_id":"levelo_inurba_marseille","lat":43.25121,"lon":5.40311,"is_reserved":false,"is_disabled":false,"rental_uris":{"android":"levelo://app?vid=3a329fe9-deb6-4729-bbed-973ea17872b9","ios":"levelo://app?vid=3a329fe9-deb6-4729-bbed-973ea17872b9"},"vehicle_type_id":"4","last_reported":1745791755,"current_range_meters":14400,"station_id":"ce4bhlh2rcd13ifvqgig","pricing_plan_id":"cebpf4jnsgd1na2vs0mg"},{"bike_id":"4046a82f-66e8-4b55-bd0a-356edea772d8","system_id":"levelo_inurba_marseille","lat":43.30604,"lon":5.38176,"is_reserved":false,"is_disabled":false,"rental_uris":{"android":"levelo://app?vid=4046a82f-66e8-4b55-bd0a-356edea772d8","ios":"levelo://app?vid=4046a82f-66e8-4b55-bd0a-356edea772d8"},"vehicle_type_id":"4","last_reported":1745791755,"current_range_meters":14800,"station_id":"","pricing_plan_id":"cebpf4jnsgd1na2vs0mg"},{"bike_id":"5945c96f-dc72-43d8-9917-6b92842573c7","system_id":"levelo_inurba_marseille","lat":43.28467,"lon":5.35892,"is_reserved":false,"is_disabled":false,"rental_uris":{"android":"levelo://app?vid=5945c96f-dc72-43d8-9917-6b92842573c7","ios":"levelo://app?vid=5945c96f-dc72-43d8-9917-6b92842573c7"},"vehicle_type_id":"4","last_reported":1745791755,"current_range_meters":14800,"station_id":"ce4bhah2rcd13ifvqei0","pricing_plan_id":"cebpf4jnsgd1na2vs0mg"},{"bike_id":"9979a00e-2e44-430d-a52a-2c59b70df091","system_id":"levelo_inurba_marseille","lat":43.2318,"lon":5.39986,"is_reserved":false,"is_disabled":false,"rental_uris":{"android":"levelo://app?vid=9979a00e-2e44-430d-a52a-2c59b70df091","ios":"levelo://app?vid=9979a00e-2e44-430d-a52a-2c59b70df091"},"vehicle_type_id":"4","last_reported":1745791755,"current_range_meters":14800,"station_id":"ce4bhn12rcd13ifvqgqg","pricing_plan_id":"cebpf4jnsgd1na2vs0mg"},{"bike_id":"45d09500-4580-4832-b2a0-d173ab8318b9","system_id":"levelo_inurba_marseille","lat":43.32488,"lon":5.3657,"is_reserved":false,"is_disabled":false,"rental_uris":{"android":"levelo://app?vid=45d09500-4580-4832-b2a0-d173ab8318b9","ios":"levelo://app?vid=45d09500-4580-4832-b2a0-d173ab8318b9"},"vehicle_type_id":"4","last_reported":1745791755,"current_range_meters":14800,"station_id":"ce4bhs12rcd13ifvqhvg","pricing_plan_id":"cebpf4jnsgd1na2vs0mg"},{"bike_id":"f17b8bc9-cb61-461c-a30c-7a4a35ea4852","system_id":"levelo_inurba_marseille","lat":43.28455,"lon":5.3589,"is_reserved":false,"is_disabled":false,"rental_uris":{"android":"levelo://app?vid=f17b8bc9-cb61-461c-a30c-7a4a35ea4852","ios":"levelo://app?vid=f17b8bc9-cb61-461c-a30c-7a4a35ea4852"},"vehicle_type_id":"4","last_reported":1745791755,"current_range_meters":15200,"station_id":"ce4bhah2rcd13ifvqei0","pricing_plan_id":"cebpf4jnsgd1na2vs0mg"},{"bike_id":"4de6f493-e285-48e2-b411-17ea7eea5c29","system_id":"levelo_inurba_marseille","lat":43.32365,"lon":5.38879,"is_reserved":false,"is_disabled":false,"rental_uris":{"android":"levelo://app?vid=4de6f493-e285-48e2-b411-17ea7eea5c29","ios":"levelo://app?vid=4de6f493-e285-48e2-b411-17ea7eea5c29"},"vehicle_type_id":"4","last_reported":1745791755,"current_range_meters":15200,"station_id":"ce4bhqp2rcd13ifvqhog","pricing_plan_id":"cebpf4jnsgd1na2vs0mg"},{"bike_id":"647355cc-822f-41e4-b0fe-856d5a69a337","system_id":"levelo_inurba_marseille","lat":43.21194,"lon":5.35064,"is_reserved":false,"is_disabled":false,"rental_uris":{"android":"levelo://app?vid=647355cc-822f-41e4-b0fe-856d5a69a337","ios":"levelo://app?vid=647355cc-822f-41e4-b0fe-856d5a69a337"},"vehicle_type_id":"4","last_reported":1745791755,"current_range_meters":15200,"station_id":"st_cvj6sg6p6f1abm77japg","pricing_plan_id":"cebpf4jnsgd1na2vs0mg"},{"bike_id":"97fd7a4c-36e8-401d-b12d-1b4015a01ebe","system_id":"levelo_inurba_marseille","lat":43.26559,"lon":5.42204,"is_reserved":false,"is_disabled":false,"rental_uris":{"android":"levelo://app?vid=97fd7a4c-36e8-401d-b12d-1b4015a01ebe","ios":"levelo://app?vid=97fd7a4c-36e8-401d-b12d-1b4015a01ebe"},"vehicle_type_id":"4","last_reported":1745791755,"current_range_meters":16000,"station_id":"","pricing_plan_id":"cebpf4jnsgd1na2vs0mg"},{"bike_id":"7d4859bb-6fe0-424f-a942-9c856aafc025","system_id":"levelo_inurba_marseille","lat":43.31503,"lon":5.37311,"is_reserved":false,"is_disabled":false,"rental_uris":{"android":"levelo://app?vid=7d4859bb-6fe0-424f-a942-9c856aafc025","ios":"levelo://app?vid=7d4859bb-6fe0-424f-a942-9c856aafc025"},"vehicle_type_id":"4","last_reported":1745791755,"current_range_meters":16000,"station_id":"ce4bgt12rcd13ifvqcd0","pricing_plan_id":"cebpf4jnsgd1na2vs0mg"},{"bike_id":"96ad3e58-5141-491d-a6a8-1254059d8810","system_id":"levelo_inurba_marseille","lat":43.28407,"lon":5.37515,"is_reserved":false,"is_disabled":false,"rental_uris":{"android":"levelo://app?vid=96ad3e58-5141-491d-a6a8-1254059d8810","ios":"levelo://app?vid=96ad3e58-5141-491d-a6a8-1254059d8810"},"vehicle_type_id":"4","last_reported":1745791755,"current_range_meters":16000,"station_id":"ce4bh412rcd13ifvqds0","pricing_plan_id":"cebpf4jnsgd1na2vs0mg"},{"bike_id":"5debd579-c045-4892-a39c-8ac3bb501315","system_id":"levelo_inurba_marseille","lat":43.28408,"lon":5.37516,"is_reserved":false,"is_disabled":false,"rental_uris":{"android":"levelo://app?vid=5debd579-c045-4892-a39c-8ac3bb501315","ios":"levelo://app?vid=5debd579-c045-4892-a39c-8ac3bb501315"},"vehicle_type_id":"4","last_reported":1745791755,"current_range_meters":16000,"station_id":"ce4bh412rcd13ifvqds0","pricing_plan_id":"cebpf4jnsgd1na2vs0mg"},{"bike_id":"fbe5fa9c-e8fb-46cf-9f80-4c4dab68ff13","system_id":"levelo_inurba_marseille","lat":43.32492,"lon":5.36562,"is_reserved":false,"is_disabled":false,"rental_uris":{"android":"levelo://app?vid=fbe5fa9c-e8fb-46cf-9f80-4c4dab68ff13","ios":"levelo://app?vid=fbe5fa9c-e8fb-46cf-9f80-4c4dab68ff13"},"vehicle_type_id":"4","last_reported":1745791755,"current_range_meters":16000,"station_id":"ce4bhs12rcd13ifvqhvg","pricing_plan_id":"cebpf4jnsgd1na2vs0mg"},{"bike_id":"cdefb1fb-f28b-4051-a0f5-a9451436b4ed","system_id":"levelo_inurba_marseille","lat":43.25416,"lon":5.38967,"is_reserved":false,"is_disabled":false,"rental_uris":{"android":"levelo://app?vid=cdefb1fb-f28b-4051-a0f5-a9451436b4ed","ios":"levelo://app?vid=cdefb1fb-f28b-4051-a0f5-a9451436b4ed"},"vehicle_type_id":"4","last_reported":1745791755,"current_range_meters":16400,"station_id":"","pricing_plan_id":"cebpf4jnsgd1na2vs0mg"},{"bike_id":"e492037e-60a9-4864-84d6-2fe9ea031f90","system_id":"levelo_inurba_marseille","lat":43.27976,"lon":5.38737,"is_reserved":false,"is_disabled":false,"rental_uris":{"android":"levelo://app?vid=e492037e-60a9-4864-84d6-2fe9ea031f90","ios":"levelo://app?vid=e492037e-60a9-4864-84d6-2fe9ea031f90"},"vehicle_type_id":"4","last_reported":1745791755,"current_range_meters":16400,"station_id":"ce4bhg12rcd13ifvqf80","pricing_plan_id":"cebpf4jnsgd1na2vs0mg"},{"bike_id":"94c15021-409d-4859-9cbd-f2897516165d","system_id":"levelo_inurba_marseille","lat":43.23949,"lon":5.36648,"is_reserved":false,"is_disabled":false,"rental_uris":{"android":"levelo://app?vid=94c15021-409d-4859-9cbd-f2897516165d","ios":"levelo://app?vid=94c15021-409d-4859-9cbd-f2897516165d"},"vehicle_type_id":"4","last_reported":1745791755,"current_range_meters":16400,"station_id":"ce4bhi12rcd13ifvqfp0","pricing_plan_id":"cebpf4jnsgd1na2vs0mg"},{"bike_id":"2e7ac15a-983b-44da-a8d0-533b1e803195","system_id":"levelo_inurba_marseille","lat":43.25578,"lon":5.38223,"is_reserved":false,"is_disabled":false,"rental_uris":{"android":"levelo://app?vid=2e7ac15a-983b-44da-a8d0-533b1e803195","ios":"levelo://app?vid=2e7ac15a-983b-44da-a8d0-533b1e803195"},"vehicle_type_id":"4","last_reported":1745791755,"current_range_meters":16400,"station_id":"ce4bhih2rcd13ifvqfs0","pricing_plan_id":"cebpf4jnsgd1na2vs0mg"},{"bike_id":"e7700b32-7460-4264-83d7-2dd5db8dccaa","system_id":"levelo_inurba_marseille","lat":43.27989,"lon":5.41658,"is_reserved":false,"is_disabled":false,"rental_uris":{"android":"levelo://app?vid=e7700b32-7460-4264-83d7-2dd5db8dccaa","ios":"levelo://app?vid=e7700b32-7460-4264-83d7-2dd5db8dccaa"},"vehicle_type_id":"4","last_reported":1745791755,"current_range_meters":16400,"station_id":"ce4bho12rcd13ifvqh1g","pricing_plan_id":"cebpf4jnsgd1na2vs0mg"},{"bike_id":"3f5f2c9a-9e49-4b78-9b1b-0708da9fec39","system_id":"levelo_inurba_marseille","lat":43.22496,"lon":5.34781,"is_reserved":false,"is_disabled":false,"rental_uris":{"android":"levelo://app?vid=3f5f2c9a-9e49-4b78-9b1b-0708da9fec39","ios":"levelo://app?vid=3f5f2c9a-9e49-4b78-9b1b-0708da9fec39"},"vehicle_type_id":"4","last_reported":1745791755,"current_range_meters":16400,"station_id":"st_cvj5dfep6f1abm77gieg","pricing_plan_id":"cebpf4jnsgd1na2vs0mg"},{"bike_id":"f8b82dd5-2d85-4846-8b9d-5afc30043cf6","system_id":"levelo_inurba_marseille","lat":43.22507,"lon":5.34777,"is_reserved":false,"is_disabled":false,"rental_uris":{"android":"levelo://app?vid=f8b82dd5-2d85-4846-8b9d-5afc30043cf6","ios":"levelo://app?vid=f8b82dd5-2d85-4846-8b9d-5afc30043cf6"},"vehicle_type_id":"4","last_reported":1745791755,"current_range_meters":16400,"station_id":"st_cvj5dfep6f1abm77gieg","pricing_plan_id":"cebpf4jnsgd1na2vs0mg"},{"bike_id":"2d8ee308-03ed-4761-9d96-95839d6c6deb","system_id":"levelo_inurba_marseille","lat":43.28643,"lon":5.3705,"is_reserved":false,"is_disabled":false,"rental_uris":{"android":"levelo://app?vid=2d8ee308-03ed-4761-9d96-95839d6c6deb","ios":"levelo://app?vid=2d8ee308-03ed-4761-9d96-95839d6c6deb"},"vehicle_type_id":"4","last_reported":1745791755,"current_range_meters":16800,"station_id":"","pricing_plan_id":"cebpf4jnsgd1na2vs0mg"},{"bike_id":"5a6ac1ef-2dc1-443e-9eb7-7c540b3b79a7","system_id":"levelo_inurba_marseille","lat":43.31485,"lon":5.37313,"is_reserved":false,"is_disabled":false,"rental_uris":{"android":"levelo://app?vid=5a6ac1ef-2dc1-443e-9eb7-7c540b3b79a7","ios":"levelo://app?vid=5a6ac1ef-2dc1-443e-9eb7-7c540b3b79a7"},"vehicle_type_id":"4","last_reported":1745791755,"current_range_meters":16800,"station_id":"ce4bgt12rcd13ifvqcd0","pricing_plan_id":"cebpf4jnsgd1na2vs0mg"},{"bike_id":"02b3b6da-d67b-490c-8691-301aea41ade1","system_id":"levelo_inurba_marseille","lat":43.28451,"lon":5.3589,"is_reserved":false,"is_disabled":false,"rental_uris":{"android":"levelo://app?vid=02b3b6da-d67b-490c-8691-301aea41ade1","ios":"levelo://app?vid=02b3b6da-d67b-490c-8691-301aea41ade1"},"vehicle_type_id":"4","last_reported":1745791755,"current_range_meters":16800,"station_id":"ce4bhah2rcd13ifvqei0","pricing_plan_id":"cebpf4jnsgd1na2vs0mg"},{"bike_id":"de62cb81-5006-4031-99a8-5646df80e288","system_id":"levelo_inurba_marseille","lat":43.28659,"lon":5.36345,"is_reserved":false,"is_disabled":false,"rental_uris":{"android":"levelo://app?vid=de62cb81-5006-4031-99a8-5646df80e288","ios":"levelo://app?vid=de62cb81-5006-4031-99a8-5646df80e288"},"vehicle_type_id":"4","last_reported":1745791755,"current_range_meters":16800,"station_id":"ce4bhah2rcd13ifvqej0","pricing_plan_id":"cebpf4jnsgd1na2vs0mg"},{"bike_id":"0f708391-a7ed-4e44-bc44-cf2926cd4a0c","system_id":"levelo_inurba_marseille","lat":43.26229,"lon":5.40466,"is_reserved":false,"is_disabled":false,"rental_uris":{"android":"levelo://app?vid=0f708391-a7ed-4e44-bc44-cf2926cd4a0c","ios":"levelo://app?vid=0f708391-a7ed-4e44-bc44-cf2926cd4a0c"},"vehicle_type_id":"4","last_reported":1745791755,"current_range_meters":16800,"station_id":"ce4bhmh2rcd13ifvqgmg","pricing_plan_id":"cebpf4jnsgd1na2vs0mg"},{"bike_id":"6a3ad0ca-897c-414f-a69a-aae8b2ea7b61","system_id":"levelo_inurba_marseille","lat":43.21766,"lon":5.34602,"is_reserved":false,"is_disabled":false,"rental_uris":{"android":"levelo://app?vid=6a3ad0ca-897c-414f-a69a-aae8b2ea7b61","ios":"levelo://app?vid=6a3ad0ca-897c-414f-a69a-aae8b2ea7b61"},"vehicle_type_id":"4","last_reported":1745791755,"current_range_meters":16800,"station_id":"st_cvj6r9ubvosntc0bgbag","pricing_plan_id":"cebpf4jnsgd1na2vs0mg"},{"bike_id":"5c1dd847-b0c0-4fb0-af3c-0609fff8d1e2","system_id":"levelo_inurba_marseille","lat":43.30435,"lon":5.38889,"is_reserved":false,"is_disabled":false,"rental_uris":{"android":"levelo://app?vid=5c1dd847-b0c0-4fb0-af3c-0609fff8d1e2","ios":"levelo://app?vid=5c1dd847-b0c0-4fb0-af3c-0609fff8d1e2"},"vehicle_type_id":"4","last_reported":1745791755,"current_range_meters":17200,"station_id":"ce4bgk12rcd13ifvqbi0","pricing_plan_id":"cebpf4jnsgd1na2vs0mg"},{"bike_id":"510d1b76-27be-4268-aedc-46993a5973e8","system_id":"levelo_inurba_marseille","lat":43.24648,"lon":5.38885,"is_reserved":false,"is_disabled":false,"rental_uris":{"android":"levelo://app?vid=510d1b76-27be-4268-aedc-46993a5973e8","ios":"levelo://app?vid=510d1b76-27be-4268-aedc-46993a5973e8"},"vehicle_type_id":"4","last_reported":1745791755,"current_range_meters":17200,"station_id":"ce4bhg12rcd13ifvqf60","pricing_plan_id":"cebpf4jnsgd1na2vs0mg"},{"bike_id":"5e29bb99-7a29-4bbf-a514-99195c8fa20f","system_id":"levelo_inurba_marseille","lat":43.29898,"lon":5.43664,"is_reserved":false,"is_disabled":false,"rental_uris":{"android":"levelo://app?vid=5e29bb99-7a29-4bbf-a514-99195c8fa20f","ios":"levelo://app?vid=5e29bb99-7a29-4bbf-a514-99195c8fa20f"},"vehicle_type_id":"4","last_reported":1745791755,"current_range_meters":17200,"station_id":"ce4bhpp2rcd13ifvqhfg","pricing_plan_id":"cebpf4jnsgd1na2vs0mg"},{"bike_id":"ff75ad8a-84a8-4e09-b733-5fb0903ef15d","system_id":"levelo_inurba_marseille","lat":43.32295,"lon":5.38281,"is_reserved":false,"is_disabled":false,"rental_uris":{"android":"levelo://app?vid=ff75ad8a-84a8-4e09-b733-5fb0903ef15d","ios":"levelo://app?vid=ff75ad8a-84a8-4e09-b733-5fb0903ef15d"},"vehicle_type_id":"4","last_reported":1745791755,"current_range_meters":17200,"station_id":"ce4bhr12rcd13ifvqhqg","pricing_plan_id":"cebpf4jnsgd1na2vs0mg"},{"bike_id":"d6f5efac-6ee4-4c3c-943a-fc9ab91c85d8","system_id":"levelo_inurba_marseille","lat":43.2925,"lon":5.40897,"is_reserved":false,"is_disabled":false,"rental_uris":{"android":"levelo://app?vid=d6f5efac-6ee4-4c3c-943a-fc9ab91c85d8","ios":"levelo://app?vid=d6f5efac-6ee4-4c3c-943a-fc9ab91c85d8"},"vehicle_type_id":"4","last_reported":1745791755,"current_range_meters":17600,"station_id":"ce4bh192rcd13ifvqdc0","pricing_plan_id":"cebpf4jnsgd1na2vs0mg"},{"bike_id":"b45721df-1911-4bd0-96bb-0c84adb69cfd","system_id":"levelo_inurba_marseille","lat":43.23968,"lon":5.36623,"is_reserved":false,"is_disabled":false,"rental_uris":{"android":"levelo://app?vid=b45721df-1911-4bd0-96bb-0c84adb69cfd","ios":"levelo://app?vid=b45721df-1911-4bd0-96bb-0c84adb69cfd"},"vehicle_type_id":"4","last_reported":1745791755,"current_range_meters":18000,"station_id":"ce4bhi12rcd13ifvqfp0","pricing_plan_id":"cebpf4jnsgd1na2vs0mg"},{"bike_id":"7d642a85-a2ce-4a2b-8b78-82205bdd50c2","system_id":"levelo_inurba_marseille","lat":43.23189,"lon":5.39977,"is_reserved":false,"is_disabled":false,"rental_uris":{"android":"levelo://app?vid=7d642a85-a2ce-4a2b-8b78-82205bdd50c2","ios":"levelo://app?vid=7d642a85-a2ce-4a2b-8b78-82205bdd50c2"},"vehicle_type_id":"4","last_reported":1745791755,"current_range_meters":18000,"station_id":"ce4bhn12rcd13ifvqgqg","pricing_plan_id":"cebpf4jnsgd1na2vs0mg"},{"bike_id":"5d80cec4-cf0d-4b75-87cc-4649871dd5da","system_id":"levelo_inurba_marseille","lat":43.27507,"lon":5.42442,"is_reserved":false,"is_disabled":false,"rental_uris":{"android":"levelo://app?vid=5d80cec4-cf0d-4b75-87cc-4649871dd5da","ios":"levelo://app?vid=5d80cec4-cf0d-4b75-87cc-4649871dd5da"},"vehicle_type_id":"4","last_reported":1745791755,"current_range_meters":18000,"station_id":"ce4bhn92rcd13ifvqgrg","pricing_plan_id":"cebpf4jnsgd1na2vs0mg"},{"bike_id":"daa5fb12-4e0b-4bce-a6b1-6719a5e359ca","system_id":"levelo_inurba_marseille","lat":43.23144,"lon":5.43708,"is_reserved":false,"is_disabled":false,"rental_uris":{"android":"levelo://app?vid=daa5fb12-4e0b-4bce-a6b1-6719a5e359ca","ios":"levelo://app?vid=daa5fb12-4e0b-4bce-a6b1-6719a5e359ca"},"vehicle_type_id":"4","last_reported":1745791755,"current_range_meters":18800,"station_id":"ce4bhmp2rcd13ifvqgog","pricing_plan_id":"cebpf4jnsgd1na2vs0mg"},{"bike_id":"20f39650-9dfb-45df-bdda-86b58245b145","system_id":"levelo_inurba_marseille","lat":43.28728,"lon":5.36083,"is_reserved":false,"is_disabled":false,"rental_uris":{"android":"levelo://app?vid=20f39650-9dfb-45df-bdda-86b58245b145","ios":"levelo://app?vid=20f39650-9dfb-45df-bdda-86b58245b145"},"vehicle_type_id":"4","last_reported":1745791755,"current_range_meters":18800,"station_id":"cki0cbj6b192h4jlfktg","pricing_plan_id":"cebpf4jnsgd1na2vs0mg"},{"bike_id":"6c72de35-de49-45aa-84fb-0f4a50376358","system_id":"levelo_inurba_marseille","lat":43.32984,"lon":5.43841,"is_reserved":false,"is_disabled":false,"rental_uris":{"android":"levelo://app?vid=6c72de35-de49-45aa-84fb-0f4a50376358","ios":"levelo://app?vid=6c72de35-de49-45aa-84fb-0f4a50376358"},"vehicle_type_id":"4","last_reported":1745791755,"current_range_meters":19200,"station_id":"","pricing_plan_id":"cebpf4jnsgd1na2vs0mg"},{"bike_id":"3ec5586e-b7f1-40f6-817e-dfe8ebb714c0","system_id":"levelo_inurba_marseille","lat":43.30617,"lon":5.40076,"is_reserved":false,"is_disabled":false,"rental_uris":{"android":"levelo://app?vid=3ec5586e-b7f1-40f6-817e-dfe8ebb714c0","ios":"levelo://app?vid=3ec5586e-b7f1-40f6-817e-dfe8ebb714c0"},"vehicle_type_id":"4","last_reported":1745791755,"current_range_meters":19200,"station_id":"ce4bh112rcd13ifvqda0","pricing_plan_id":"cebpf4jnsgd1na2vs0mg"},{"bike_id":"ae024c84-7e44-4a33-b963-d7705c42478f","system_id":"levelo_inurba_marseille","lat":43.23954,"lon":5.36642,"is_reserved":false,"is_disabled":false,"rental_uris":{"android":"levelo://app?vid=ae024c84-7e44-4a33-b963-d7705c42478f","ios":"levelo://app?vid=ae024c84-7e44-4a33-b963-d7705c42478f"},"vehicle_type_id":"4","last_reported":1745791755,"current_range_meters":19200,"station_id":"ce4bhi12rcd13ifvqfp0","pricing_plan_id":"cebpf4jnsgd1na2vs0mg"},{"bike_id":"2420ad39-a5b7-4ea3-b775-69cf92e1a47f","system_id":"levelo_inurba_marseille","lat":43.25926,"lon":5.40898,"is_reserved":false,"is_disabled":false,"rental_uris":{"android":"levelo://app?vid=2420ad39-a5b7-4ea3-b775-69cf92e1a47f","ios":"levelo://app?vid=2420ad39-a5b7-4ea3-b775-69cf92e1a47f"},"vehicle_type_id":"4","last_reported":1745791755,"current_range_meters":19200,"station_id":"ce4bhm92rcd13ifvqglg","pricing_plan_id":"cebpf4jnsgd1na2vs0mg"},{"bike_id":"5e92b97c-6256-46c1-9d90-453591401fe0","system_id":"levelo_inurba_marseille","lat":43.30245,"lon":5.4005,"is_reserved":false,"is_disabled":false,"rental_uris":{"android":"levelo://app?vid=5e92b97c-6256-46c1-9d90-453591401fe0","ios":"levelo://app?vid=5e92b97c-6256-46c1-9d90-453591401fe0"},"vehicle_type_id":"4","last_reported":1745791755,"current_range_meters":20000,"station_id":"ce4bgvh2rcd13ifvqcs0","pricing_plan_id":"cebpf4jnsgd1na2vs0mg"},{"bike_id":"1ff4c565-4ed8-4181-835a-4eb8c758b5ec","system_id":"levelo_inurba_marseille","lat":43.286643,"lon":5.36346,"is_reserved":false,"is_disabled":false,"rental_uris":{"android":"levelo://app?vid=1ff4c565-4ed8-4181-835a-4eb8c758b5ec","ios":"levelo://app?vid=1ff4c565-4ed8-4181-835a-4eb8c758b5ec"},"vehicle_type_id":"4","last_reported":1745791755,"current_range_meters":20000,"station_id":"ce4bhah2rcd13ifvqej0","pricing_plan_id":"cebpf4jnsgd1na2vs0mg"},{"bike_id":"dd8ba2ea-896c-46a8-a041-af1fe4723729","system_id":"levelo_inurba_marseille","lat":43.25689,"lon":5.41121,"is_reserved":false,"is_disabled":false,"rental_uris":{"android":"levelo://app?vid=dd8ba2ea-896c-46a8-a041-af1fe4723729","ios":"levelo://app?vid=dd8ba2ea-896c-46a8-a041-af1fe4723729"},"vehicle_type_id":"4","last_reported":1745791755,"current_range_meters":20000,"station_id":"ce4bhkp2rcd13ifvqgd0","pricing_plan_id":"cebpf4jnsgd1na2vs0mg"},{"bike_id":"1c484a84-52df-485c-b15f-8dc40bad3cae","system_id":"levelo_inurba_marseille","lat":43.30818,"lon":5.43524,"is_reserved":false,"is_disabled":false,"rental_uris":{"android":"levelo://app?vid=1c484a84-52df-485c-b15f-8dc40bad3cae","ios":"levelo://app?vid=1c484a84-52df-485c-b15f-8dc40bad3cae"},"vehicle_type_id":"4","last_reported":1745791755,"current_range_meters":20000,"station_id":"ce4bhph2rcd13ifvqheg","pricing_plan_id":"cebpf4jnsgd1na2vs0mg"},{"bike_id":"a2e47faf-602f-4cca-93ab-75d156fc1b99","system_id":"levelo_inurba_marseille","lat":43.29419,"lon":5.38618,"is_reserved":false,"is_disabled":false,"rental_uris":{"android":"levelo://app?vid=a2e47faf-602f-4cca-93ab-75d156fc1b99","ios":"levelo://app?vid=a2e47faf-602f-4cca-93ab-75d156fc1b99"},"vehicle_type_id":"4","last_reported":1745791755,"current_range_meters":20400,"station_id":"ce4bh2h2rcd13ifvqdh0","pricing_plan_id":"cebpf4jnsgd1na2vs0mg"},{"bike_id":"0ab928f1-313f-453f-a075-ecf067324cdb","system_id":"levelo_inurba_marseille","lat":43.26237,"lon":5.4042,"is_reserved":false,"is_disabled":false,"rental_uris":{"android":"levelo://app?vid=0ab928f1-313f-453f-a075-ecf067324cdb","ios":"levelo://app?vid=0ab928f1-313f-453f-a075-ecf067324cdb"},"vehicle_type_id":"4","last_reported":1745791755,"current_range_meters":20400,"station_id":"ce4bhmh2rcd13ifvqgmg","pricing_plan_id":"cebpf4jnsgd1na2vs0mg"},{"bike_id":"120277a4-e644-406f-9354-c1381245ac98","system_id":"levelo_inurba_marseille","lat":43.2873,"lon":5.36073,"is_reserved":false,"is_disabled":false,"rental_uris":{"android":"levelo://app?vid=120277a4-e644-406f-9354-c1381245ac98","ios":"levelo://app?vid=120277a4-e644-406f-9354-c1381245ac98"},"vehicle_type_id":"4","last_reported":1745791755,"current_range_meters":20400,"station_id":"cki0cbj6b192h4jlfktg","pricing_plan_id":"cebpf4jnsgd1na2vs0mg"},{"bike_id":"17f4c0f9-9b6e-4d11-9c77-ceba1591c3d1","system_id":"levelo_inurba_marseille","lat":43.30146,"lon":5.39847,"is_reserved":false,"is_disabled":false,"rental_uris":{"android":"levelo://app?vid=17f4c0f9-9b6e-4d11-9c77-ceba1591c3d1","ios":"levelo://app?vid=17f4c0f9-9b6e-4d11-9c77-ceba1591c3d1"},"vehicle_type_id":"4","last_reported":1745791755,"current_range_meters":20800,"station_id":"ce4bh0h2rcd13ifvqd40","pricing_plan_id":"cebpf4jnsgd1na2vs0mg"},{"bike_id":"abf2dc50-2eb1-45c0-80d0-deafb929859f","system_id":"levelo_inurba_marseille","lat":43.32657,"lon":5.40988,"is_reserved":false,"is_disabled":false,"rental_uris":{"android":"levelo://app?vid=abf2dc50-2eb1-45c0-80d0-deafb929859f","ios":"levelo://app?vid=abf2dc50-2eb1-45c0-80d0-deafb929859f"},"vehicle_type_id":"4","last_reported":1745791755,"current_range_meters":20800,"station_id":"ce4bhpp2rcd13ifvqhgg","pricing_plan_id":"cebpf4jnsgd1na2vs0mg"},{"bike_id":"d8b9b350-6636-4922-af94-8fbc6798af45","system_id":"levelo_inurba_marseille","lat":43.24096,"lon":5.35633,"is_reserved":false,"is_disabled":false,"rental_uris":{"android":"levelo://app?vid=d8b9b350-6636-4922-af94-8fbc6798af45","ios":"levelo://app?vid=d8b9b350-6636-4922-af94-8fbc6798af45"},"vehicle_type_id":"4","last_reported":1745791755,"current_range_meters":21600,"station_id":"","pricing_plan_id":"cebpf4jnsgd1na2vs0mg"},{"bike_id":"504af8b5-2522-4176-8201-9c37815f0fa0","system_id":"levelo_inurba_marseille","lat":43.23968,"lon":5.36624,"is_reserved":false,"is_disabled":false,"rental_uris":{"android":"levelo://app?vid=504af8b5-2522-4176-8201-9c37815f0fa0","ios":"levelo://app?vid=504af8b5-2522-4176-8201-9c37815f0fa0"},"vehicle_type_id":"4","last_reported":1745791755,"current_range_meters":21600,"station_id":"ce4bhi12rcd13ifvqfp0","pricing_plan_id":"cebpf4jnsgd1na2vs0mg"},{"bike_id":"7046c6e0-63e7-4772-821a-9dbb15a79431","system_id":"levelo_inurba_marseille","lat":43.31365,"lon":5.38492,"is_reserved":false,"is_disabled":false,"rental_uris":{"android":"levelo://app?vid=7046c6e0-63e7-4772-821a-9dbb15a79431","ios":"levelo://app?vid=7046c6e0-63e7-4772-821a-9dbb15a79431"},"vehicle_type_id":"4","last_reported":1745791755,"current_range_meters":22000,"station_id":"ce4bgt92rcd13ifvqcf0","pricing_plan_id":"cebpf4jnsgd1na2vs0mg"},{"bike_id":"e065ba09-601e-4e28-adeb-4b5056c4dfcc","system_id":"levelo_inurba_marseille","lat":43.2834,"lon":5.38104,"is_reserved":false,"is_disabled":false,"rental_uris":{"android":"levelo://app?vid=e065ba09-601e-4e28-adeb-4b5056c4dfcc","ios":"levelo://app?vid=e065ba09-601e-4e28-adeb-4b5056c4dfcc"},"vehicle_type_id":"4","last_reported":1745791755,"current_range_meters":22000,"station_id":"ce4bh412rcd13ifvqdr0","pricing_plan_id":"cebpf4jnsgd1na2vs0mg"},{"bike_id":"2d7b50c2-e414-4e82-82a2-7035113690ad","system_id":"levelo_inurba_marseille","lat":43.31475,"lon":5.37281,"is_reserved":false,"is_disabled":false,"rental_uris":{"android":"levelo://app?vid=2d7b50c2-e414-4e82-82a2-7035113690ad","ios":"levelo://app?vid=2d7b50c2-e414-4e82-82a2-7035113690ad"},"vehicle_type_id":"4","last_reported":1745791755,"current_range_meters":22400,"station_id":"ce4bgt12rcd13ifvqcd0","pricing_plan_id":"cebpf4jnsgd1na2vs0mg"},{"bike_id":"2ee98afc-740b-4e97-a955-ebff5e1f8902","system_id":"levelo_inurba_marseille","lat":43.28858,"lon":5.35841,"is_reserved":false,"is_disabled":false,"rental_uris":{"android":"levelo://app?vid=2ee98afc-740b-4e97-a955-ebff5e1f8902","ios":"levelo://app?vid=2ee98afc-740b-4e97-a955-ebff5e1f8902"},"vehicle_type_id":"4","last_reported":1745791755,"current_range_meters":22400,"station_id":"ce4bhb12rcd13ifvqem0","pricing_plan_id":"cebpf4jnsgd1na2vs0mg"},{"bike_id":"b5fe6816-f873-4cb9-8652-42ccdeb37fe9","system_id":"levelo_inurba_marseille","lat":43.27182,"lon":5.40968,"is_reserved":false,"is_disabled":false,"rental_uris":{"android":"levelo://app?vid=b5fe6816-f873-4cb9-8652-42ccdeb37fe9","ios":"levelo://app?vid=b5fe6816-f873-4cb9-8652-42ccdeb37fe9"},"vehicle_type_id":"4","last_reported":1745791755,"current_range_meters":22400,"station_id":"ce4bhl12rcd13ifvqgf0","pricing_plan_id":"cebpf4jnsgd1na2vs0mg"},{"bike_id":"5b8f78a8-a4bf-408e-904d-fb55256215fc","system_id":"levelo_inurba_marseille","lat":43.28941,"lon":5.36639,"is_reserved":false,"is_disabled":false,"rental_uris":{"android":"levelo://app?vid=5b8f78a8-a4bf-408e-904d-fb55256215fc","ios":"levelo://app?vid=5b8f78a8-a4bf-408e-904d-fb55256215fc"},"vehicle_type_id":"4","last_reported":1745791755,"current_range_meters":22800,"station_id":"ce4bhap2rcd13ifvqek0","pricing_plan_id":"cebpf4jnsgd1na2vs0mg"},{"bike_id":"a7a5c59b-8fdc-4ceb-a16c-2fd89466328d","system_id":"levelo_inurba_marseille","lat":43.31662,"lon":5.37247,"is_reserved":false,"is_disabled":false,"rental_uris":{"android":"levelo://app?vid=a7a5c59b-8fdc-4ceb-a16c-2fd89466328d","ios":"levelo://app?vid=a7a5c59b-8fdc-4ceb-a16c-2fd89466328d"},"vehicle_type_id":"4","last_reported":1745791755,"current_range_meters":22800,"station_id":"ce4bhrh2rcd13ifvqhug","pricing_plan_id":"cebpf4jnsgd1na2vs0mg"},{"bike_id":"c3087ea8-3303-4162-b517-cd5a45178f81","system_id":"levelo_inurba_marseille","lat":43.2871,"lon":5.37394,"is_reserved":false,"is_disabled":false,"rental_uris":{"android":"levelo://app?vid=c3087ea8-3303-4162-b517-cd5a45178f81","ios":"levelo://app?vid=c3087ea8-3303-4162-b517-cd5a45178f81"},"vehicle_type_id":"4","last_reported":1745791755,"current_range_meters":23200,"station_id":"ce4bh3p2rcd13ifvqdq0","pricing_plan_id":"cebpf4jnsgd1na2vs0mg"},{"bike_id":"3b73e112-a19d-47d3-8128-205527bc344a","system_id":"levelo_inurba_marseille","lat":43.28414,"lon":5.37517,"is_reserved":false,"is_disabled":false,"rental_uris":{"android":"levelo://app?vid=3b73e112-a19d-47d3-8128-205527bc344a","ios":"levelo://app?vid=3b73e112-a19d-47d3-8128-205527bc344a"},"vehicle_type_id":"4","last_reported":1745791755,"current_range_meters":23200,"station_id":"ce4bh412rcd13ifvqds0","pricing_plan_id":"cebpf4jnsgd1na2vs0mg"},{"bike_id":"008e911f-a94c-446d-9c5d-4a25b0c1eb6f","system_id":"levelo_inurba_marseille","lat":43.28933,"lon":5.36636,"is_reserved":false,"is_disabled":false,"rental_uris":{"android":"levelo://app?vid=008e911f-a94c-446d-9c5d-4a25b0c1eb6f","ios":"levelo://app?vid=008e911f-a94c-446d-9c5d-4a25b0c1eb6f"},"vehicle_type_id":"4","last_reported":1745791755,"current_range_meters":23200,"station_id":"ce4bhap2rcd13ifvqek0","pricing_plan_id":"cebpf4jnsgd1na2vs0mg"},{"bike_id":"aaecc94e-a371-48c8-8300-38cd0d87784e","system_id":"levelo_inurba_marseille","lat":43.24657,"lon":5.38881,"is_reserved":false,"is_disabled":false,"rental_uris":{"android":"levelo://app?vid=aaecc94e-a371-48c8-8300-38cd0d87784e","ios":"levelo://app?vid=aaecc94e-a371-48c8-8300-38cd0d87784e"},"vehicle_type_id":"4","last_reported":1745791755,"current_range_meters":23200,"station_id":"ce4bhg12rcd13ifvqf60","pricing_plan_id":"cebpf4jnsgd1na2vs0mg"},{"bike_id":"c9a186da-b941-47bb-b124-488b5449bd4e","system_id":"levelo_inurba_marseille","lat":43.33602,"lon":5.40998,"is_reserved":false,"is_disabled":false,"rental_uris":{"android":"levelo://app?vid=c9a186da-b941-47bb-b124-488b5449bd4e","ios":"levelo://app?vid=c9a186da-b941-47bb-b124-488b5449bd4e"},"vehicle_type_id":"4","last_reported":1745791755,"current_range_meters":23200,"station_id":"ce4bhqh2rcd13ifvqhmg","pricing_plan_id":"cebpf4jnsgd1na2vs0mg"},{"bike_id":"d7f0f05d-3cc9-442a-8a8d-6275e283d032","system_id":"levelo_inurba_marseille","lat":43.29601,"lon":5.46137,"is_reserved":false,"is_disabled":false,"rental_uris":{"android":"levelo://app?vid=d7f0f05d-3cc9-442a-8a8d-6275e283d032","ios":"levelo://app?vid=d7f0f05d-3cc9-442a-8a8d-6275e283d032"},"vehicle_type_id":"4","last_reported":1745791755,"current_range_meters":24000,"station_id":"","pricing_plan_id":"cebpf4jnsgd1na2vs0mg"},{"bike_id":"7f916b75-2d3e-47bc-8c59-c9c5a970303d","system_id":"levelo_inurba_marseille","lat":43.30644,"lon":5.40069,"is_reserved":false,"is_disabled":false,"rental_uris":{"android":"levelo://app?vid=7f916b75-2d3e-47bc-8c59-c9c5a970303d","ios":"levelo://app?vid=7f916b75-2d3e-47bc-8c59-c9c5a970303d"},"vehicle_type_id":"4","last_reported":1745791755,"current_range_meters":24000,"station_id":"ce4bh112rcd13ifvqda0","pricing_plan_id":"cebpf4jnsgd1na2vs0mg"},{"bike_id":"7c0299c1-21cf-46f7-b65a-7138a191a071","system_id":"levelo_inurba_marseille","lat":43.25497,"lon":5.37649,"is_reserved":false,"is_disabled":false,"rental_uris":{"android":"levelo://app?vid=7c0299c1-21cf-46f7-b65a-7138a191a071","ios":"levelo://app?vid=7c0299c1-21cf-46f7-b65a-7138a191a071"},"vehicle_type_id":"4","last_reported":1745791755,"current_range_meters":24000,"station_id":"ce4bhh12rcd13ifvqff0","pricing_plan_id":"cebpf4jnsgd1na2vs0mg"},{"bike_id":"72822771-67fc-41dc-81f6-8a81f8e72774","system_id":"levelo_inurba_marseille","lat":43.25117,"lon":5.4033,"is_reserved":false,"is_disabled":false,"rental_uris":{"android":"levelo://app?vid=72822771-67fc-41dc-81f6-8a81f8e72774","ios":"levelo://app?vid=72822771-67fc-41dc-81f6-8a81f8e72774"},"vehicle_type_id":"4","last_reported":1745791755,"current_range_meters":24000,"station_id":"ce4bhlh2rcd13ifvqgig","pricing_plan_id":"cebpf4jnsgd1na2vs0mg"},{"bike_id":"2ed76ab3-29f9-4f23-8162-d0d033a13590","system_id":"levelo_inurba_marseille","lat":43.24072,"lon":5.3776,"is_reserved":false,"is_disabled":false,"rental_uris":{"android":"levelo://app?vid=2ed76ab3-29f9-4f23-8162-d0d033a13590","ios":"levelo://app?vid=2ed76ab3-29f9-4f23-8162-d0d033a13590"},"vehicle_type_id":"4","last_reported":1745791755,"current_range_meters":24000,"station_id":"ce4bhnp2rcd13ifvqgvg","pricing_plan_id":"cebpf4jnsgd1na2vs0mg"},{"bike_id":"e0e0a52a-57f9-448e-b7ef-0232403aef34","system_id":"levelo_inurba_marseille","lat":43.24173,"lon":5.36383,"is_reserved":false,"is_disabled":false,"rental_uris":{"android":"levelo://app?vid=e0e0a52a-57f9-448e-b7ef-0232403aef34","ios":"levelo://app?vid=e0e0a52a-57f9-448e-b7ef-0232403aef34"},"vehicle_type_id":"4","last_reported":1745791755,"current_range_meters":24000,"station_id":"cpo36qri1sfpv3e86is0","pricing_plan_id":"cebpf4jnsgd1na2vs0mg"},{"bike_id":"07445598-68fe-40db-b19b-e14bab0e7c33","system_id":"levelo_inurba_marseille","lat":43.31451,"lon":5.3739,"is_reserved":false,"is_disabled":false,"rental_uris":{"android":"levelo://app?vid=07445598-68fe-40db-b19b-e14bab0e7c33","ios":"levelo://app?vid=07445598-68fe-40db-b19b-e14bab0e7c33"},"vehicle_type_id":"4","last_reported":1745791755,"current_range_meters":24400,"station_id":"","pricing_plan_id":"cebpf4jnsgd1na2vs0mg"},{"bike_id":"ae1ea35f-c087-4075-8951-1dc116cdb425","system_id":"levelo_inurba_marseille","lat":43.30434,"lon":5.38897,"is_reserved":false,"is_disabled":false,"rental_uris":{"android":"levelo://app?vid=ae1ea35f-c087-4075-8951-1dc116cdb425","ios":"levelo://app?vid=ae1ea35f-c087-4075-8951-1dc116cdb425"},"vehicle_type_id":"4","last_reported":1745791755,"current_range_meters":24400,"station_id":"ce4bgk12rcd13ifvqbi0","pricing_plan_id":"cebpf4jnsgd1na2vs0mg"},{"bike_id":"9d986fec-547e-4839-8e5f-e0340a61adaf","system_id":"levelo_inurba_marseille","lat":43.30924,"lon":5.40148,"is_reserved":false,"is_disabled":false,"rental_uris":{"android":"levelo://app?vid=9d986fec-547e-4839-8e5f-e0340a61adaf","ios":"levelo://app?vid=9d986fec-547e-4839-8e5f-e0340a61adaf"},"vehicle_type_id":"4","last_reported":1745791755,"current_range_meters":24400,"station_id":"ce4bgvp2rcd13ifvqct0","pricing_plan_id":"cebpf4jnsgd1na2vs0mg"},{"bike_id":"9db023e7-cfd5-42d5-8cd5-7836bd3239c3","system_id":"levelo_inurba_marseille","lat":43.30875,"lon":5.39633,"is_reserved":false,"is_disabled":false,"rental_uris":{"android":"levelo://app?vid=9db023e7-cfd5-42d5-8cd5-7836bd3239c3","ios":"levelo://app?vid=9db023e7-cfd5-42d5-8cd5-7836bd3239c3"},"vehicle_type_id":"4","last_reported":1745791755,"current_range_meters":24400,"station_id":"ce4bh012rcd13ifvqcv0","pricing_plan_id":"cebpf4jnsgd1na2vs0mg"},{"bike_id":"f63bfab8-d07c-4b8c-8faa-93a814367824","system_id":"levelo_inurba_marseille","lat":43.29968,"lon":5.38493,"is_reserved":false,"is_disabled":false,"rental_uris":{"android":"levelo://app?vid=f63bfab8-d07c-4b8c-8faa-93a814367824","ios":"levelo://app?vid=f63bfab8-d07c-4b8c-8faa-93a814367824"},"vehicle_type_id":"4","last_reported":1745791755,"current_range_meters":24400,"station_id":"ce4bh012rcd13ifvqcv0","pricing_plan_id":"cebpf4jnsgd1na2vs0mg"},{"bike_id":"9508c147-ffab-4ccc-b33c-ffdb21da9f90","system_id":"levelo_inurba_marseille","lat":43.29035,"lon":5.359,"is_reserved":false,"is_disabled":false,"rental_uris":{"android":"levelo://app?vid=9508c147-ffab-4ccc-b33c-ffdb21da9f90","ios":"levelo://app?vid=9508c147-ffab-4ccc-b33c-ffdb21da9f90"},"vehicle_type_id":"4","last_reported":1745791755,"current_range_meters":24400,"station_id":"ce4bha92rcd13ifvqeg0","pricing_plan_id":"cebpf4jnsgd1na2vs0mg"},{"bike_id":"ee697298-3646-4939-a4a4-dc9f55d35942","system_id":"levelo_inurba_marseille","lat":43.28676,"lon":5.36341,"is_reserved":false,"is_disabled":false,"rental_uris":{"android":"levelo://app?vid=ee697298-3646-4939-a4a4-dc9f55d35942","ios":"levelo://app?vid=ee697298-3646-4939-a4a4-dc9f55d35942"},"vehicle_type_id":"4","last_reported":1745791755,"current_range_meters":24400,"station_id":"ce4bhah2rcd13ifvqej0","pricing_plan_id":"cebpf4jnsgd1na2vs0mg"},{"bike_id":"499cf8cf-6dc3-483a-bfa0-938414fa5ff8","system_id":"levelo_inurba_marseille","lat":43.32269,"lon":5.38258,"is_reserved":false,"is_disabled":false,"rental_uris":{"android":"levelo://app?vid=499cf8cf-6dc3-483a-bfa0-938414fa5ff8","ios":"levelo://app?vid=499cf8cf-6dc3-483a-bfa0-938414fa5ff8"},"vehicle_type_id":"4","last_reported":1745791755,"current_range_meters":24400,"station_id":"ce4bhr12rcd13ifvqhqg","pricing_plan_id":"cebpf4jnsgd1na2vs0mg"},{"bike_id":"dd0d9de5-5317-433e-924b-4f9f7dfe078e","system_id":"levelo_inurba_marseille","lat":43.30786,"lon":5.38181,"is_reserved":false,"is_disabled":false,"rental_uris":{"android":"levelo://app?vid=dd0d9de5-5317-433e-924b-4f9f7dfe078e","ios":"levelo://app?vid=dd0d9de5-5317-433e-924b-4f9f7dfe078e"},"vehicle_type_id":"4","last_reported":1745791755,"current_range_meters":24800,"station_id":"ce4bgt12rcd13ifvqce0","pricing_plan_id":"cebpf4jnsgd1na2vs0mg"},{"bike_id":"39987612-e249-4f14-80ba-63b3b1ca5fae","system_id":"levelo_inurba_marseille","lat":43.31117,"lon":5.37752,"is_reserved":false,"is_disabled":false,"rental_uris":{"android":"levelo://app?vid=39987612-e249-4f14-80ba-63b3b1ca5fae","ios":"levelo://app?vid=39987612-e249-4f14-80ba-63b3b1ca5fae"},"vehicle_type_id":"4","last_reported":1745791755,"current_range_meters":24800,"station_id":"ce4bgt92rcd13ifvqcg0","pricing_plan_id":"cebpf4jnsgd1na2vs0mg"},{"bike_id":"21045022-01ab-4fb1-9047-e7675b2d0817","system_id":"levelo_inurba_marseille","lat":43.31115,"lon":5.37772,"is_reserved":false,"is_disabled":false,"rental_uris":{"android":"levelo://app?vid=21045022-01ab-4fb1-9047-e7675b2d0817","ios":"levelo://app?vid=21045022-01ab-4fb1-9047-e7675b2d0817"},"vehicle_type_id":"4","last_reported":1745791755,"current_range_meters":24800,"station_id":"ce4bgt92rcd13ifvqcg0","pricing_plan_id":"cebpf4jnsgd1na2vs0mg"},{"bike_id":"b67e3e89-936d-4d8d-8f11-dbd530b676e9","system_id":"levelo_inurba_marseille","lat":43.31073,"lon":5.38357,"is_reserved":false,"is_disabled":false,"rental_uris":{"android":"levelo://app?vid=b67e3e89-936d-4d8d-8f11-dbd530b676e9","ios":"levelo://app?vid=b67e3e89-936d-4d8d-8f11-dbd530b676e9"},"vehicle_type_id":"4","last_reported":1745791755,"current_range_meters":24800,"station_id":"ce4bgv92rcd13ifvqcr0","pricing_plan_id":"cebpf4jnsgd1na2vs0mg"},{"bike_id":"17d6ed41-3161-4c3f-8596-2040f46f95a7","system_id":"levelo_inurba_marseille","lat":43.28417,"lon":5.37517,"is_reserved":false,"is_disabled":false,"rental_uris":{"android":"levelo://app?vid=17d6ed41-3161-4c3f-8596-2040f46f95a7","ios":"levelo://app?vid=17d6ed41-3161-4c3f-8596-2040f46f95a7"},"vehicle_type_id":"4","last_reported":1745791755,"current_range_meters":24800,"station_id":"ce4bh412rcd13ifvqds0","pricing_plan_id":"cebpf4jnsgd1na2vs0mg"},{"bike_id":"287ed198-0161-4dc4-b86f-edc8902314f2","system_id":"levelo_inurba_marseille","lat":43.2408,"lon":5.3775,"is_reserved":false,"is_disabled":false,"rental_uris":{"android":"levelo://app?vid=287ed198-0161-4dc4-b86f-edc8902314f2","ios":"levelo://app?vid=287ed198-0161-4dc4-b86f-edc8902314f2"},"vehicle_type_id":"4","last_reported":1745791755,"current_range_meters":24800,"station_id":"ce4bhnp2rcd13ifvqgvg","pricing_plan_id":"cebpf4jnsgd1na2vs0mg"},{"bike_id":"ded63ce0-b6c6-4275-8aae-28a95aaf954a","system_id":"levelo_inurba_marseille","lat":43.30879,"lon":5.39629,"is_reserved":false,"is_disabled":false,"rental_uris":{"android":"levelo://app?vid=ded63ce0-b6c6-4275-8aae-28a95aaf954a","ios":"levelo://app?vid=ded63ce0-b6c6-4275-8aae-28a95aaf954a"},"vehicle_type_id":"4","last_reported":1745791755,"current_range_meters":25200,"station_id":"ce4bh012rcd13ifvqcv0","pricing_plan_id":"cebpf4jnsgd1na2vs0mg"},{"bike_id":"b62fe0d9-8da4-4a44-9a12-23196ee2755f","system_id":"levelo_inurba_marseille","lat":43.29813,"lon":5.40393,"is_reserved":false,"is_disabled":false,"rental_uris":{"android":"levelo://app?vid=b62fe0d9-8da4-4a44-9a12-23196ee2755f","ios":"levelo://app?vid=b62fe0d9-8da4-4a44-9a12-23196ee2755f"},"vehicle_type_id":"4","last_reported":1745791755,"current_range_meters":25200,"station_id":"ce4bh112rcd13ifvqd90","pricing_plan_id":"cebpf4jnsgd1na2vs0mg"},{"bike_id":"a7ee3b09-76f3-402e-95d2-71cd8af2c46d","system_id":"levelo_inurba_marseille","lat":43.30084,"lon":5.39104,"is_reserved":false,"is_disabled":false,"rental_uris":{"android":"levelo://app?vid=a7ee3b09-76f3-402e-95d2-71cd8af2c46d","ios":"levelo://app?vid=a7ee3b09-76f3-402e-95d2-71cd8af2c46d"},"vehicle_type_id":"4","last_reported":1745791755,"current_range_meters":25200,"station_id":"ce4bh192rcd13ifvqdb0","pricing_plan_id":"cebpf4jnsgd1na2vs0mg"},{"bike_id":"1e4448ba-2167-4f3a-b07d-7b70baaf89c8","system_id":"levelo_inurba_marseille","lat":43.28416,"lon":5.37514,"is_reserved":false,"is_disabled":false,"rental_uris":{"android":"levelo://app?vid=1e4448ba-2167-4f3a-b07d-7b70baaf89c8","ios":"levelo://app?vid=1e4448ba-2167-4f3a-b07d-7b70baaf89c8"},"vehicle_type_id":"4","last_reported":1745791755,"current_range_meters":25200,"station_id":"ce4bh412rcd13ifvqds0","pricing_plan_id":"cebpf4jnsgd1na2vs0mg"},{"bike_id":"d4098261-d412-456c-8e07-f369b13f7358","system_id":"levelo_inurba_marseille","lat":43.28944,"lon":5.36631,"is_reserved":false,"is_disabled":false,"rental_uris":{"android":"levelo://app?vid=d4098261-d412-456c-8e07-f369b13f7358","ios":"levelo://app?vid=d4098261-d412-456c-8e07-f369b13f7358"},"vehicle_type_id":"4","last_reported":1745791755,"current_range_meters":25200,"station_id":"ce4bhap2rcd13ifvqek0","pricing_plan_id":"cebpf4jnsgd1na2vs0mg"},{"bike_id":"3994c53a-428f-479b-9b4b-2f1ca60eb458","system_id":"levelo_inurba_marseille","lat":43.25108,"lon":5.40328,"is_reserved":false,"is_disabled":false,"rental_uris":{"android":"levelo://app?vid=3994c53a-428f-479b-9b4b-2f1ca60eb458","ios":"levelo://app?vid=3994c53a-428f-479b-9b4b-2f1ca60eb458"},"vehicle_type_id":"4","last_reported":1745791755,"current_range_meters":25200,"station_id":"ce4bhlh2rcd13ifvqgig","pricing_plan_id":"cebpf4jnsgd1na2vs0mg"},{"bike_id":"ef107f7d-e1aa-4d06-b7d5-9e10d4a8e4a7","system_id":"levelo_inurba_marseille","lat":43.25126,"lon":5.40317,"is_reserved":false,"is_disabled":false,"rental_uris":{"android":"levelo://app?vid=ef107f7d-e1aa-4d06-b7d5-9e10d4a8e4a7","ios":"levelo://app?vid=ef107f7d-e1aa-4d06-b7d5-9e10d4a8e4a7"},"vehicle_type_id":"4","last_reported":1745791755,"current_range_meters":25200,"station_id":"ce4bhlh2rcd13ifvqgig","pricing_plan_id":"cebpf4jnsgd1na2vs0mg"},{"bike_id":"60ebd736-fcb3-4f4c-8296-ee8470d685bb","system_id":"levelo_inurba_marseille","lat":43.28158,"lon":5.42631,"is_reserved":false,"is_disabled":false,"rental_uris":{"android":"levelo://app?vid=60ebd736-fcb3-4f4c-8296-ee8470d685bb","ios":"levelo://app?vid=60ebd736-fcb3-4f4c-8296-ee8470d685bb"},"vehicle_type_id":"4","last_reported":1745791755,"current_range_meters":25200,"station_id":"ce4bhnh2rcd13ifvqgug","pricing_plan_id":"cebpf4jnsgd1na2vs0mg"},{"bike_id":"d0c37e39-5177-4428-9805-f10a757ba411","system_id":"levelo_inurba_marseille","lat":43.281603,"lon":5.426508,"is_reserved":false,"is_disabled":false,"rental_uris":{"android":"levelo://app?vid=d0c37e39-5177-4428-9805-f10a757ba411","ios":"levelo://app?vid=d0c37e39-5177-4428-9805-f10a757ba411"},"vehicle_type_id":"4","last_reported":1745791755,"current_range_meters":25200,"station_id":"ce4bhnh2rcd13ifvqgug","pricing_plan_id":"cebpf4jnsgd1na2vs0mg"},{"bike_id":"871b00ca-bc51-41f1-85e1-c47972d08559","system_id":"levelo_inurba_marseille","lat":43.24051,"lon":5.37726,"is_reserved":false,"is_disabled":false,"rental_uris":{"android":"levelo://app?vid=871b00ca-bc51-41f1-85e1-c47972d08559","ios":"levelo://app?vid=871b00ca-bc51-41f1-85e1-c47972d08559"},"vehicle_type_id":"4","last_reported":1745791755,"current_range_meters":25200,"station_id":"ce4bhnp2rcd13ifvqgvg","pricing_plan_id":"cebpf4jnsgd1na2vs0mg"},{"bike_id":"ccfa8a49-935d-4411-adfe-72c702fb2679","system_id":"levelo_inurba_marseille","lat":43.23208,"lon":5.39957,"is_reserved":false,"is_disabled":false,"rental_uris":{"android":"levelo://app?vid=ccfa8a49-935d-4411-adfe-72c702fb2679","ios":"levelo://app?vid=ccfa8a49-935d-4411-adfe-72c702fb2679"},"vehicle_type_id":"4","last_reported":1745791755,"current_range_meters":25600,"station_id":"ce4bhn12rcd13ifvqgqg","pricing_plan_id":"cebpf4jnsgd1na2vs0mg"},{"bike_id":"3837d7f1-052c-41c6-8053-8a2ca1b81e7c","system_id":"levelo_inurba_marseille","lat":43.31764,"lon":5.39004,"is_reserved":false,"is_disabled":false,"rental_uris":{"android":"levelo://app?vid=3837d7f1-052c-41c6-8053-8a2ca1b81e7c","ios":"levelo://app?vid=3837d7f1-052c-41c6-8053-8a2ca1b81e7c"},"vehicle_type_id":"4","last_reported":1745791755,"current_range_meters":25600,"station_id":"ce4bhqp2rcd13ifvqhng","pricing_plan_id":"cebpf4jnsgd1na2vs0mg"},{"bike_id":"147db62e-39ba-4013-8b08-fd493c8114b8","system_id":"levelo_inurba_marseille","lat":43.22671,"lon":5.34798,"is_reserved":false,"is_disabled":false,"rental_uris":{"android":"levelo://app?vid=147db62e-39ba-4013-8b08-fd493c8114b8","ios":"levelo://app?vid=147db62e-39ba-4013-8b08-fd493c8114b8"},"vehicle_type_id":"4","last_reported":1745791755,"current_range_meters":26000,"station_id":"","pricing_plan_id":"cebpf4jnsgd1na2vs0mg"},{"bike_id":"f776ed62-cae7-4ec5-a52b-50577312c064","system_id":"levelo_inurba_marseille","lat":43.24652,"lon":5.38889,"is_reserved":false,"is_disabled":false,"rental_uris":{"android":"levelo://app?vid=f776ed62-cae7-4ec5-a52b-50577312c064","ios":"levelo://app?vid=f776ed62-cae7-4ec5-a52b-50577312c064"},"vehicle_type_id":"4","last_reported":1745791755,"current_range_meters":26000,"station_id":"ce4bhg12rcd13ifvqf60","pricing_plan_id":"cebpf4jnsgd1na2vs0mg"},{"bike_id":"71ca96dd-db42-4214-9c4d-38d92215a366","system_id":"levelo_inurba_marseille","lat":43.27182,"lon":5.40973,"is_reserved":false,"is_disabled":false,"rental_uris":{"android":"levelo://app?vid=71ca96dd-db42-4214-9c4d-38d92215a366","ios":"levelo://app?vid=71ca96dd-db42-4214-9c4d-38d92215a366"},"vehicle_type_id":"4","last_reported":1745791755,"current_range_meters":26000,"station_id":"ce4bhl12rcd13ifvqgf0","pricing_plan_id":"cebpf4jnsgd1na2vs0mg"},{"bike_id":"b4fb144b-a847-4890-a9eb-d36b22bbb894","system_id":"levelo_inurba_marseille","lat":43.33584,"lon":5.40953,"is_reserved":false,"is_disabled":false,"rental_uris":{"android":"levelo://app?vid=b4fb144b-a847-4890-a9eb-d36b22bbb894","ios":"levelo://app?vid=b4fb144b-a847-4890-a9eb-d36b22bbb894"},"vehicle_type_id":"4","last_reported":1745791755,"current_range_meters":26000,"station_id":"ce4bhqh2rcd13ifvqhmg","pricing_plan_id":"cebpf4jnsgd1na2vs0mg"},{"bike_id":"2516bfc0-fc6c-441b-9d82-3b77f68540d4","system_id":"levelo_inurba_marseille","lat":43.23201,"lon":5.35549,"is_reserved":false,"is_disabled":false,"rental_uris":{"android":"levelo://app?vid=2516bfc0-fc6c-441b-9d82-3b77f68540d4","ios":"levelo://app?vid=2516bfc0-fc6c-441b-9d82-3b77f68540d4"},"vehicle_type_id":"4","last_reported":1745791755,"current_range_meters":26000,"station_id":"ce4bhu92rcd13ifvqi70","pricing_plan_id":"cebpf4jnsgd1na2vs0mg"},{"bike_id":"3d70467b-d377-46e2-86ad-cb0e65397431","system_id":"levelo_inurba_marseille","lat":43.22929,"lon":5.35388,"is_reserved":false,"is_disabled":false,"rental_uris":{"android":"levelo://app?vid=3d70467b-d377-46e2-86ad-cb0e65397431","ios":"levelo://app?vid=3d70467b-d377-46e2-86ad-cb0e65397431"},"vehicle_type_id":"4","last_reported":1745791755,"current_range_meters":26000,"station_id":"cpo3532slgdg3j2ikp40","pricing_plan_id":"cebpf4jnsgd1na2vs0mg"},{"bike_id":"82d5a32a-d34f-4157-8ce8-8eb3a26c43b8","system_id":"levelo_inurba_marseille","lat":43.24173,"lon":5.36382,"is_reserved":false,"is_disabled":false,"rental_uris":{"android":"levelo://app?vid=82d5a32a-d34f-4157-8ce8-8eb3a26c43b8","ios":"levelo://app?vid=82d5a32a-d34f-4157-8ce8-8eb3a26c43b8"},"vehicle_type_id":"4","last_reported":1745791755,"current_range_meters":26000,"station_id":"cpo36qri1sfpv3e86is0","pricing_plan_id":"cebpf4jnsgd1na2vs0mg"},{"bike_id":"ae755374-e890-4b3b-be32-9701aa01ce00","system_id":"levelo_inurba_marseille","lat":43.30932,"lon":5.40151,"is_reserved":false,"is_disabled":false,"rental_uris":{"android":"levelo://app?vid=ae755374-e890-4b3b-be32-9701aa01ce00","ios":"levelo://app?vid=ae755374-e890-4b3b-be32-9701aa01ce00"},"vehicle_type_id":"4","last_reported":1745791755,"current_range_meters":26800,"station_id":"ce4bgvp2rcd13ifvqct0","pricing_plan_id":"cebpf4jnsgd1na2vs0mg"},{"bike_id":"1b127aea-8373-4eb1-a0fb-cf47cc49d8de","system_id":"levelo_inurba_marseille","lat":43.28945,"lon":5.36635,"is_reserved":false,"is_disabled":false,"rental_uris":{"android":"levelo://app?vid=1b127aea-8373-4eb1-a0fb-cf47cc49d8de","ios":"levelo://app?vid=1b127aea-8373-4eb1-a0fb-cf47cc49d8de"},"vehicle_type_id":"4","last_reported":1745791755,"current_range_meters":26800,"station_id":"ce4bhap2rcd13ifvqek0","pricing_plan_id":"cebpf4jnsgd1na2vs0mg"},{"bike_id":"8fe0beb4-71d6-4047-9923-e71cc28cb8e0","system_id":"levelo_inurba_marseille","lat":43.26067,"lon":5.39384,"is_reserved":false,"is_disabled":false,"rental_uris":{"android":"levelo://app?vid=8fe0beb4-71d6-4047-9923-e71cc28cb8e0","ios":"levelo://app?vid=8fe0beb4-71d6-4047-9923-e71cc28cb8e0"},"vehicle_type_id":"4","last_reported":1745791755,"current_range_meters":26800,"station_id":"ce4bhh92rcd13ifvqfj0","pricing_plan_id":"cebpf4jnsgd1na2vs0mg"},{"bike_id":"3a7c72da-849e-4034-b4df-0d6b684d20d3","system_id":"levelo_inurba_marseille","lat":43.27932,"lon":5.41039,"is_reserved":false,"is_disabled":false,"rental_uris":{"android":"levelo://app?vid=3a7c72da-849e-4034-b4df-0d6b684d20d3","ios":"levelo://app?vid=3a7c72da-849e-4034-b4df-0d6b684d20d3"},"vehicle_type_id":"4","last_reported":1745791755,"current_range_meters":26800,"station_id":"ce4bhnp2rcd13ifvqh0g","pricing_plan_id":"cebpf4jnsgd1na2vs0mg"},{"bike_id":"9068dcc2-3f5d-403c-9d0d-d20e4a116f4d","system_id":"levelo_inurba_marseille","lat":43.323384,"lon":5.406232,"is_reserved":false,"is_disabled":false,"rental_uris":{"android":"levelo://app?vid=9068dcc2-3f5d-403c-9d0d-d20e4a116f4d","ios":"levelo://app?vid=9068dcc2-3f5d-403c-9d0d-d20e4a116f4d"},"vehicle_type_id":"4","last_reported":1745791755,"current_range_meters":26800,"station_id":"ce4bhq92rcd13ifvqhjg","pricing_plan_id":"cebpf4jnsgd1na2vs0mg"},{"bike_id":"24aaf325-26b7-4657-8ec3-ef2f0ff302e4","system_id":"levelo_inurba_marseille","lat":43.23203,"lon":5.35559,"is_reserved":false,"is_disabled":false,"rental_uris":{"android":"levelo://app?vid=24aaf325-26b7-4657-8ec3-ef2f0ff302e4","ios":"levelo://app?vid=24aaf325-26b7-4657-8ec3-ef2f0ff302e4"},"vehicle_type_id":"4","last_reported":1745791755,"current_range_meters":26800,"station_id":"ce4bhu92rcd13ifvqi70","pricing_plan_id":"cebpf4jnsgd1na2vs0mg"},{"bike_id":"5d81d436-0f02-46c5-9ac2-75b1a8d33ad6","system_id":"levelo_inurba_marseille","lat":43.31485,"lon":5.373063,"is_reserved":false,"is_disabled":false,"rental_uris":{"android":"levelo://app?vid=5d81d436-0f02-46c5-9ac2-75b1a8d33ad6","ios":"levelo://app?vid=5d81d436-0f02-46c5-9ac2-75b1a8d33ad6"},"vehicle_type_id":"4","last_reported":1745791755,"current_range_meters":27200,"station_id":"ce4bgt12rcd13ifvqcd0","pricing_plan_id":"cebpf4jnsgd1na2vs0mg"},{"bike_id":"d85c84e9-7885-4bc9-8d32-25d7105b0605","system_id":"levelo_inurba_marseille","lat":43.29029,"lon":5.38623,"is_reserved":false,"is_disabled":false,"rental_uris":{"android":"levelo://app?vid=d85c84e9-7885-4bc9-8d32-25d7105b0605","ios":"levelo://app?vid=d85c84e9-7885-4bc9-8d32-25d7105b0605"},"vehicle_type_id":"4","last_reported":1745791755,"current_range_meters":27200,"station_id":"ce4bh4p2rcd13ifvqe0g","pricing_plan_id":"cebpf4jnsgd1na2vs0mg"},{"bike_id":"ad7d6c46-3737-4a00-b783-7e3d17e32b87","system_id":"levelo_inurba_marseille","lat":43.28458,"lon":5.35877,"is_reserved":false,"is_disabled":false,"rental_uris":{"android":"levelo://app?vid=ad7d6c46-3737-4a00-b783-7e3d17e32b87","ios":"levelo://app?vid=ad7d6c46-3737-4a00-b783-7e3d17e32b87"},"vehicle_type_id":"4","last_reported":1745791755,"current_range_meters":27200,"station_id":"ce4bhah2rcd13ifvqei0","pricing_plan_id":"cebpf4jnsgd1na2vs0mg"},{"bike_id":"7058d16a-52c6-4d0e-9cae-c91d44439c34","system_id":"levelo_inurba_marseille","lat":43.28152,"lon":5.42632,"is_reserved":false,"is_disabled":false,"rental_uris":{"android":"levelo://app?vid=7058d16a-52c6-4d0e-9cae-c91d44439c34","ios":"levelo://app?vid=7058d16a-52c6-4d0e-9cae-c91d44439c34"},"vehicle_type_id":"4","last_reported":1745791755,"current_range_meters":27200,"station_id":"ce4bhnh2rcd13ifvqgug","pricing_plan_id":"cebpf4jnsgd1na2vs0mg"},{"bike_id":"3ffecbf4-5512-4269-ac48-3e0a4bfa4e29","system_id":"levelo_inurba_marseille","lat":43.29564,"lon":5.42256,"is_reserved":false,"is_disabled":false,"rental_uris":{"android":"levelo://app?vid=3ffecbf4-5512-4269-ac48-3e0a4bfa4e29","ios":"levelo://app?vid=3ffecbf4-5512-4269-ac48-3e0a4bfa4e29"},"vehicle_type_id":"4","last_reported":1745791755,"current_range_meters":27200,"station_id":"ce4bhph2rcd13ifvqhdg","pricing_plan_id":"cebpf4jnsgd1na2vs0mg"},{"bike_id":"be74ba03-b3ef-46b9-be90-7ff491bd09a0","system_id":"levelo_inurba_marseille","lat":43.32362,"lon":5.40635,"is_reserved":false,"is_disabled":false,"rental_uris":{"android":"levelo://app?vid=be74ba03-b3ef-46b9-be90-7ff491bd09a0","ios":"levelo://app?vid=be74ba03-b3ef-46b9-be90-7ff491bd09a0"},"vehicle_type_id":"4","last_reported":1745791755,"current_range_meters":27200,"station_id":"ce4bhq92rcd13ifvqhjg","pricing_plan_id":"cebpf4jnsgd1na2vs0mg"},{"bike_id":"9c268fab-d979-4600-8b19-31639af68498","system_id":"levelo_inurba_marseille","lat":43.24171,"lon":5.36396,"is_reserved":false,"is_disabled":false,"rental_uris":{"android":"levelo://app?vid=9c268fab-d979-4600-8b19-31639af68498","ios":"levelo://app?vid=9c268fab-d979-4600-8b19-31639af68498"},"vehicle_type_id":"4","last_reported":1745791755,"current_range_meters":27200,"station_id":"cpo36qri1sfpv3e86is0","pricing_plan_id":"cebpf4jnsgd1na2vs0mg"},{"bike_id":"06d7135f-92dd-41bb-bcb5-deada055d361","system_id":"levelo_inurba_marseille","lat":43.25013,"lon":5.37974,"is_reserved":false,"is_disabled":false,"rental_uris":{"android":"levelo://app?vid=06d7135f-92dd-41bb-bcb5-deada055d361","ios":"levelo://app?vid=06d7135f-92dd-41bb-bcb5-deada055d361"},"vehicle_type_id":"4","last_reported":1745791755,"current_range_meters":27600,"station_id":"","pricing_plan_id":"cebpf4jnsgd1na2vs0mg"},{"bike_id":"1d54e7dc-e662-4a6f-96f9-01721003792d","system_id":"levelo_inurba_marseille","lat":43.31262,"lon":5.372,"is_reserved":false,"is_disabled":false,"rental_uris":{"android":"levelo://app?vid=1d54e7dc-e662-4a6f-96f9-01721003792d","ios":"levelo://app?vid=1d54e7dc-e662-4a6f-96f9-01721003792d"},"vehicle_type_id":"4","last_reported":1745791755,"current_range_meters":27600,"station_id":"","pricing_plan_id":"cebpf4jnsgd1na2vs0mg"},{"bike_id":"8cd88e1e-0127-4f50-9139-191246902330","system_id":"levelo_inurba_marseille","lat":43.255789,"lon":5.382396,"is_reserved":false,"is_disabled":false,"rental_uris":{"android":"levelo://app?vid=8cd88e1e-0127-4f50-9139-191246902330","ios":"levelo://app?vid=8cd88e1e-0127-4f50-9139-191246902330"},"vehicle_type_id":"4","last_reported":1745791755,"current_range_meters":27600,"station_id":"ce4bhih2rcd13ifvqfs0","pricing_plan_id":"cebpf4jnsgd1na2vs0mg"},{"bike_id":"c0ffa066-d466-4b70-bdee-5906a5449479","system_id":"levelo_inurba_marseille","lat":43.24539,"lon":5.39526,"is_reserved":false,"is_disabled":false,"rental_uris":{"android":"levelo://app?vid=c0ffa066-d466-4b70-bdee-5906a5449479","ios":"levelo://app?vid=c0ffa066-d466-4b70-bdee-5906a5449479"},"vehicle_type_id":"4","last_reported":1745791755,"current_range_meters":27600,"station_id":"ce4bhlp2rcd13ifvqgjg","pricing_plan_id":"cebpf4jnsgd1na2vs0mg"},{"bike_id":"962b9356-255a-4380-9199-78a866627fe1","system_id":"levelo_inurba_marseille","lat":43.23154,"lon":5.43698,"is_reserved":false,"is_disabled":false,"rental_uris":{"android":"levelo://app?vid=962b9356-255a-4380-9199-78a866627fe1","ios":"levelo://app?vid=962b9356-255a-4380-9199-78a866627fe1"},"vehicle_type_id":"4","last_reported":1745791755,"current_range_meters":27600,"station_id":"ce4bhmp2rcd13ifvqgog","pricing_plan_id":"cebpf4jnsgd1na2vs0mg"},{"bike_id":"3e2c408b-ceea-45a5-888c-ba93f4913736","system_id":"levelo_inurba_marseille","lat":43.25661,"lon":5.41159,"is_reserved":false,"is_disabled":false,"rental_uris":{"android":"levelo://app?vid=3e2c408b-ceea-45a5-888c-ba93f4913736","ios":"levelo://app?vid=3e2c408b-ceea-45a5-888c-ba93f4913736"},"vehicle_type_id":"4","last_reported":1745791755,"current_range_meters":28000,"station_id":"","pricing_plan_id":"cebpf4jnsgd1na2vs0mg"},{"bike_id":"f72503b4-b27f-4729-bb2a-1f3df14b41e0","system_id":"levelo_inurba_marseille","lat":43.31361,"lon":5.3849,"is_reserved":false,"is_disabled":false,"rental_uris":{"android":"levelo://app?vid=f72503b4-b27f-4729-bb2a-1f3df14b41e0","ios":"levelo://app?vid=f72503b4-b27f-4729-bb2a-1f3df14b41e0"},"vehicle_type_id":"4","last_reported":1745791755,"current_range_meters":28000,"station_id":"ce4bgt92rcd13ifvqcf0","pricing_plan_id":"cebpf4jnsgd1na2vs0mg"},{"bike_id":"f3bf5ef5-43d2-444b-be52-5ba28b116a53","system_id":"levelo_inurba_marseille","lat":43.28935,"lon":5.3664,"is_reserved":false,"is_disabled":false,"rental_uris":{"android":"levelo://app?vid=f3bf5ef5-43d2-444b-be52-5ba28b116a53","ios":"levelo://app?vid=f3bf5ef5-43d2-444b-be52-5ba28b116a53"},"vehicle_type_id":"4","last_reported":1745791755,"current_range_meters":28000,"station_id":"ce4bhap2rcd13ifvqek0","pricing_plan_id":"cebpf4jnsgd1na2vs0mg"},{"bike_id":"7c0f474a-37d0-4fce-8a05-fbc7d4270b18","system_id":"levelo_inurba_marseille","lat":43.26503,"lon":5.39533,"is_reserved":false,"is_disabled":false,"rental_uris":{"android":"levelo://app?vid=7c0f474a-37d0-4fce-8a05-fbc7d4270b18","ios":"levelo://app?vid=7c0f474a-37d0-4fce-8a05-fbc7d4270b18"},"vehicle_type_id":"4","last_reported":1745791755,"current_range_meters":28000,"station_id":"ce4bhi12rcd13ifvqfq0","pricing_plan_id":"cebpf4jnsgd1na2vs0mg"},{"bike_id":"ab1d8a2a-8850-4d84-9dab-0b9fabed96c4","system_id":"levelo_inurba_marseille","lat":43.27072,"lon":5.42286,"is_reserved":false,"is_disabled":false,"rental_uris":{"android":"levelo://app?vid=ab1d8a2a-8850-4d84-9dab-0b9fabed96c4","ios":"levelo://app?vid=ab1d8a2a-8850-4d84-9dab-0b9fabed96c4"},"vehicle_type_id":"4","last_reported":1745791755,"current_range_meters":28000,"station_id":"ce4bhk92rcd13ifvqgb0","pricing_plan_id":"cebpf4jnsgd1na2vs0mg"},{"bike_id":"3b9c87ba-2576-40a5-9c96-db5effb3a9e7","system_id":"levelo_inurba_marseille","lat":43.2816,"lon":5.42656,"is_reserved":false,"is_disabled":false,"rental_uris":{"android":"levelo://app?vid=3b9c87ba-2576-40a5-9c96-db5effb3a9e7","ios":"levelo://app?vid=3b9c87ba-2576-40a5-9c96-db5effb3a9e7"},"vehicle_type_id":"4","last_reported":1745791755,"current_range_meters":28000,"station_id":"ce4bhnh2rcd13ifvqgug","pricing_plan_id":"cebpf4jnsgd1na2vs0mg"},{"bike_id":"e46e06e6-cdff-416b-9396-261c7249a729","system_id":"levelo_inurba_marseille","lat":43.337444,"lon":5.374475,"is_reserved":false,"is_disabled":false,"rental_uris":{"android":"levelo://app?vid=e46e06e6-cdff-416b-9396-261c7249a729","ios":"levelo://app?vid=e46e06e6-cdff-416b-9396-261c7249a729"},"vehicle_type_id":"4","last_reported":1745791755,"current_range_meters":28400,"station_id":"","pricing_plan_id":"cebpf4jnsgd1na2vs0mg"},{"bike_id":"4c59b79c-7f2c-4c2e-8cfc-8d11c3d6c2c3","system_id":"levelo_inurba_marseille","lat":43.30001,"lon":5.37219,"is_reserved":false,"is_disabled":false,"rental_uris":{"android":"levelo://app?vid=4c59b79c-7f2c-4c2e-8cfc-8d11c3d6c2c3","ios":"levelo://app?vid=4c59b79c-7f2c-4c2e-8cfc-8d11c3d6c2c3"},"vehicle_type_id":"4","last_reported":1745791755,"current_range_meters":28400,"station_id":"ce4bgr92rcd13ifvqc7g","pricing_plan_id":"cebpf4jnsgd1na2vs0mg"},{"bike_id":"a8d2fe6c-b1b9-4ef3-99e0-c96f2cbb4e08","system_id":"levelo_inurba_marseille","lat":43.287118,"lon":5.388517,"is_reserved":false,"is_disabled":false,"rental_uris":{"android":"levelo://app?vid=a8d2fe6c-b1b9-4ef3-99e0-c96f2cbb4e08","ios":"levelo://app?vid=a8d2fe6c-b1b9-4ef3-99e0-c96f2cbb4e08"},"vehicle_type_id":"4","last_reported":1745791755,"current_range_meters":28400,"station_id":"ce4bgt92rcd13ifvqcf0","pricing_plan_id":"cebpf4jnsgd1na2vs0mg"},{"bike_id":"a6c50e25-507a-4bca-84b3-6664e513faf0","system_id":"levelo_inurba_marseille","lat":43.292544,"lon":5.409006,"is_reserved":false,"is_disabled":false,"rental_uris":{"android":"levelo://app?vid=a6c50e25-507a-4bca-84b3-6664e513faf0","ios":"levelo://app?vid=a6c50e25-507a-4bca-84b3-6664e513faf0"},"vehicle_type_id":"4","last_reported":1745791755,"current_range_meters":28400,"station_id":"ce4bh192rcd13ifvqdc0","pricing_plan_id":"cebpf4jnsgd1na2vs0mg"},{"bike_id":"d461fb65-5dd5-4b05-b4df-d9613fa841f2","system_id":"levelo_inurba_marseille","lat":43.28455,"lon":5.35879,"is_reserved":false,"is_disabled":false,"rental_uris":{"android":"levelo://app?vid=d461fb65-5dd5-4b05-b4df-d9613fa841f2","ios":"levelo://app?vid=d461fb65-5dd5-4b05-b4df-d9613fa841f2"},"vehicle_type_id":"4","last_reported":1745791755,"current_range_meters":28400,"station_id":"ce4bhah2rcd13ifvqei0","pricing_plan_id":"cebpf4jnsgd1na2vs0mg"},{"bike_id":"844c4e66-7715-41c3-9d71-57e44153211c","system_id":"levelo_inurba_marseille","lat":43.2418,"lon":5.39715,"is_reserved":false,"is_disabled":false,"rental_uris":{"android":"levelo://app?vid=844c4e66-7715-41c3-9d71-57e44153211c","ios":"levelo://app?vid=844c4e66-7715-41c3-9d71-57e44153211c"},"vehicle_type_id":"4","last_reported":1745791755,"current_range_meters":28400,"station_id":"ce4bhn12rcd13ifvqgpg","pricing_plan_id":"cebpf4jnsgd1na2vs0mg"},{"bike_id":"fdde66e7-2d14-4013-a0b8-1a2fc4f9db7b","system_id":"levelo_inurba_marseille","lat":43.32341,"lon":5.40612,"is_reserved":false,"is_disabled":false,"rental_uris":{"android":"levelo://app?vid=fdde66e7-2d14-4013-a0b8-1a2fc4f9db7b","ios":"levelo://app?vid=fdde66e7-2d14-4013-a0b8-1a2fc4f9db7b"},"vehicle_type_id":"4","last_reported":1745791755,"current_range_meters":28400,"station_id":"ce4bhq92rcd13ifvqhjg","pricing_plan_id":"cebpf4jnsgd1na2vs0mg"},{"bike_id":"eed9fe6f-a5f6-4f94-90bf-a5fc8a23f9e8","system_id":"levelo_inurba_marseille","lat":43.32517,"lon":5.36521,"is_reserved":false,"is_disabled":false,"rental_uris":{"android":"levelo://app?vid=eed9fe6f-a5f6-4f94-90bf-a5fc8a23f9e8","ios":"levelo://app?vid=eed9fe6f-a5f6-4f94-90bf-a5fc8a23f9e8"},"vehicle_type_id":"4","last_reported":1745791755,"current_range_meters":28400,"station_id":"ce4bhs12rcd13ifvqhvg","pricing_plan_id":"cebpf4jnsgd1na2vs0mg"},{"bike_id":"a49aeaf9-c071-432a-a6ea-a1869a14e620","system_id":"levelo_inurba_marseille","lat":43.21758,"lon":5.34594,"is_reserved":false,"is_disabled":false,"rental_uris":{"android":"levelo://app?vid=a49aeaf9-c071-432a-a6ea-a1869a14e620","ios":"levelo://app?vid=a49aeaf9-c071-432a-a6ea-a1869a14e620"},"vehicle_type_id":"4","last_reported":1745791755,"current_range_meters":28400,"station_id":"st_cvj6r9ubvosntc0bgbag","pricing_plan_id":"cebpf4jnsgd1na2vs0mg"},{"bike_id":"a638d552-b53d-40ba-afa5-73e8431027c5","system_id":"levelo_inurba_marseille","lat":43.23624,"lon":5.36517,"is_reserved":false,"is_disabled":false,"rental_uris":{"android":"levelo://app?vid=a638d552-b53d-40ba-afa5-73e8431027c5","ios":"levelo://app?vid=a638d552-b53d-40ba-afa5-73e8431027c5"},"vehicle_type_id":"4","last_reported":1745791755,"current_range_meters":28800,"station_id":"","pricing_plan_id":"cebpf4jnsgd1na2vs0mg"},{"bike_id":"780f0921-40ca-448d-9a84-533024521806","system_id":"levelo_inurba_marseille","lat":43.29994,"lon":5.37204,"is_reserved":false,"is_disabled":false,"rental_uris":{"android":"levelo://app?vid=780f0921-40ca-448d-9a84-533024521806","ios":"levelo://app?vid=780f0921-40ca-448d-9a84-533024521806"},"vehicle_type_id":"4","last_reported":1745791755,"current_range_meters":28800,"station_id":"ce4bgr92rcd13ifvqc7g","pricing_plan_id":"cebpf4jnsgd1na2vs0mg"},{"bike_id":"c920997d-a52e-47da-90e6-e6ee5658154c","system_id":"levelo_inurba_marseille","lat":43.31186,"lon":5.387,"is_reserved":false,"is_disabled":false,"rental_uris":{"android":"levelo://app?vid=c920997d-a52e-47da-90e6-e6ee5658154c","ios":"levelo://app?vid=c920997d-a52e-47da-90e6-e6ee5658154c"},"vehicle_type_id":"4","last_reported":1745791755,"current_range_meters":28800,"station_id":"ce4bgv12rcd13ifvqcp0","pricing_plan_id":"cebpf4jnsgd1na2vs0mg"},{"bike_id":"ca5ad7fc-b6c8-4de2-b5f8-b8ca8ae0b369","system_id":"levelo_inurba_marseille","lat":43.29573,"lon":5.39972,"is_reserved":false,"is_disabled":false,"rental_uris":{"android":"levelo://app?vid=ca5ad7fc-b6c8-4de2-b5f8-b8ca8ae0b369","ios":"levelo://app?vid=ca5ad7fc-b6c8-4de2-b5f8-b8ca8ae0b369"},"vehicle_type_id":"4","last_reported":1745791755,"current_range_meters":28800,"station_id":"ce4bh312rcd13ifvqdj0","pricing_plan_id":"cebpf4jnsgd1na2vs0mg"},{"bike_id":"cdfd983b-b844-46e2-80f5-63052182defb","system_id":"levelo_inurba_marseille","lat":43.28854,"lon":5.35839,"is_reserved":false,"is_disabled":false,"rental_uris":{"android":"levelo://app?vid=cdfd983b-b844-46e2-80f5-63052182defb","ios":"levelo://app?vid=cdfd983b-b844-46e2-80f5-63052182defb"},"vehicle_type_id":"4","last_reported":1745791755,"current_range_meters":28800,"station_id":"ce4bhb12rcd13ifvqem0","pricing_plan_id":"cebpf4jnsgd1na2vs0mg"},{"bike_id":"3426c3dd-a0bc-47aa-9dc4-f9c50aef5118","system_id":"levelo_inurba_marseille","lat":43.24175,"lon":5.39728,"is_reserved":false,"is_disabled":false,"rental_uris":{"android":"levelo://app?vid=3426c3dd-a0bc-47aa-9dc4-f9c50aef5118","ios":"levelo://app?vid=3426c3dd-a0bc-47aa-9dc4-f9c50aef5118"},"vehicle_type_id":"4","last_reported":1745791755,"current_range_meters":28800,"station_id":"ce4bhn12rcd13ifvqgpg","pricing_plan_id":"cebpf4jnsgd1na2vs0mg"},{"bike_id":"8d247f18-59f0-4c71-ae69-180e2a5cbe3f","system_id":"levelo_inurba_marseille","lat":43.27495,"lon":5.42454,"is_reserved":false,"is_disabled":false,"rental_uris":{"android":"levelo://app?vid=8d247f18-59f0-4c71-ae69-180e2a5cbe3f","ios":"levelo://app?vid=8d247f18-59f0-4c71-ae69-180e2a5cbe3f"},"vehicle_type_id":"4","last_reported":1745791755,"current_range_meters":28800,"station_id":"ce4bhn92rcd13ifvqgrg","pricing_plan_id":"cebpf4jnsgd1na2vs0mg"},{"bike_id":"faf8a5d0-574c-4c7d-adc1-8a57e4375967","system_id":"levelo_inurba_marseille","lat":43.28152,"lon":5.42638,"is_reserved":false,"is_disabled":false,"rental_uris":{"android":"levelo://app?vid=faf8a5d0-574c-4c7d-adc1-8a57e4375967","ios":"levelo://app?vid=faf8a5d0-574c-4c7d-adc1-8a57e4375967"},"vehicle_type_id":"4","last_reported":1745791755,"current_range_meters":28800,"station_id":"ce4bhnh2rcd13ifvqgug","pricing_plan_id":"cebpf4jnsgd1na2vs0mg"},{"bike_id":"a5af7363-aa60-4a32-b0d2-295daf31fdfe","system_id":"levelo_inurba_marseille","lat":43.30733,"lon":5.42436,"is_reserved":false,"is_disabled":false,"rental_uris":{"android":"levelo://app?vid=a5af7363-aa60-4a32-b0d2-295daf31fdfe","ios":"levelo://app?vid=a5af7363-aa60-4a32-b0d2-295daf31fdfe"},"vehicle_type_id":"4","last_reported":1745791755,"current_range_meters":28800,"station_id":"st_cvj6ca6bvosntc0bfgr0","pricing_plan_id":"cebpf4jnsgd1na2vs0mg"},{"bike_id":"6aa9bb8b-0ee5-4130-b734-4984553f7143","system_id":"levelo_inurba_marseille","lat":43.26164,"lon":5.40733,"is_reserved":false,"is_disabled":false,"rental_uris":{"android":"levelo://app?vid=6aa9bb8b-0ee5-4130-b734-4984553f7143","ios":"levelo://app?vid=6aa9bb8b-0ee5-4130-b734-4984553f7143"},"vehicle_type_id":"4","last_reported":1745791755,"current_range_meters":29600,"station_id":"","pricing_plan_id":"cebpf4jnsgd1na2vs0mg"},{"bike_id":"7e5ad590-6874-4afb-9cdb-dc162eca4aa9","system_id":"levelo_inurba_marseille","lat":43.246652,"lon":5.381699,"is_reserved":false,"is_disabled":false,"rental_uris":{"android":"levelo://app?vid=7e5ad590-6874-4afb-9cdb-dc162eca4aa9","ios":"levelo://app?vid=7e5ad590-6874-4afb-9cdb-dc162eca4aa9"},"vehicle_type_id":"4","last_reported":1745791755,"current_range_meters":29600,"station_id":"","pricing_plan_id":"cebpf4jnsgd1na2vs0mg"},{"bike_id":"642de928-085b-4fd4-8761-ab7497e5d57d","system_id":"levelo_inurba_marseille","lat":43.30885,"lon":5.39649,"is_reserved":false,"is_disabled":false,"rental_uris":{"android":"levelo://app?vid=642de928-085b-4fd4-8761-ab7497e5d57d","ios":"levelo://app?vid=642de928-085b-4fd4-8761-ab7497e5d57d"},"vehicle_type_id":"4","last_reported":1745791755,"current_range_meters":29600,"station_id":"ce4bh012rcd13ifvqcv0","pricing_plan_id":"cebpf4jnsgd1na2vs0mg"},{"bike_id":"eb2cd288-7e6b-4994-946a-d1098a23ff12","system_id":"levelo_inurba_marseille","lat":43.29277,"lon":5.40116,"is_reserved":false,"is_disabled":false,"rental_uris":{"android":"levelo://app?vid=eb2cd288-7e6b-4994-946a-d1098a23ff12","ios":"levelo://app?vid=eb2cd288-7e6b-4994-946a-d1098a23ff12"},"vehicle_type_id":"4","last_reported":1745791755,"current_range_meters":29600,"station_id":"ce4bh312rcd13ifvqdk0","pricing_plan_id":"cebpf4jnsgd1na2vs0mg"},{"bike_id":"d8cd055d-567d-41a9-8065-dca6bee59c73","system_id":"levelo_inurba_marseille","lat":43.28617,"lon":5.35098,"is_reserved":false,"is_disabled":false,"rental_uris":{"android":"levelo://app?vid=d8cd055d-567d-41a9-8065-dca6bee59c73","ios":"levelo://app?vid=d8cd055d-567d-41a9-8065-dca6bee59c73"},"vehicle_type_id":"4","last_reported":1745791755,"current_range_meters":29600,"station_id":"ce4bhch2rcd13ifvqeug","pricing_plan_id":"cebpf4jnsgd1na2vs0mg"},{"bike_id":"32408215-018f-4f63-8f30-8ef7e2be6f73","system_id":"levelo_inurba_marseille","lat":43.24185,"lon":5.39718,"is_reserved":false,"is_disabled":false,"rental_uris":{"android":"levelo://app?vid=32408215-018f-4f63-8f30-8ef7e2be6f73","ios":"levelo://app?vid=32408215-018f-4f63-8f30-8ef7e2be6f73"},"vehicle_type_id":"4","last_reported":1745791755,"current_range_meters":29600,"station_id":"ce4bhn12rcd13ifvqgpg","pricing_plan_id":"cebpf4jnsgd1na2vs0mg"},{"bike_id":"0fb95db4-3758-4383-9f1c-f2e7a306715e","system_id":"levelo_inurba_marseille","lat":43.30105,"lon":5.39065,"is_reserved":false,"is_disabled":false,"rental_uris":{"android":"levelo://app?vid=0fb95db4-3758-4383-9f1c-f2e7a306715e","ios":"levelo://app?vid=0fb95db4-3758-4383-9f1c-f2e7a306715e"},"vehicle_type_id":"4","last_reported":1745791755,"current_range_meters":30000,"station_id":"ce4bh192rcd13ifvqdb0","pricing_plan_id":"cebpf4jnsgd1na2vs0mg"},{"bike_id":"5eeff6e1-4d09-49c3-a22b-92406726c72f","system_id":"levelo_inurba_marseille","lat":43.28857,"lon":5.3584,"is_reserved":false,"is_disabled":false,"rental_uris":{"android":"levelo://app?vid=5eeff6e1-4d09-49c3-a22b-92406726c72f","ios":"levelo://app?vid=5eeff6e1-4d09-49c3-a22b-92406726c72f"},"vehicle_type_id":"4","last_reported":1745791755,"current_range_meters":30000,"station_id":"ce4bhb12rcd13ifvqem0","pricing_plan_id":"cebpf4jnsgd1na2vs0mg"},{"bike_id":"7dd408bd-59be-49b1-b62b-9d19c35ce7ba","system_id":"levelo_inurba_marseille","lat":43.26565,"lon":5.38986,"is_reserved":false,"is_disabled":false,"rental_uris":{"android":"levelo://app?vid=7dd408bd-59be-49b1-b62b-9d19c35ce7ba","ios":"levelo://app?vid=7dd408bd-59be-49b1-b62b-9d19c35ce7ba"},"vehicle_type_id":"4","last_reported":1745791755,"current_range_meters":30000,"station_id":"ce4bhe12rcd13ifvqf30","pricing_plan_id":"cebpf4jnsgd1na2vs0mg"},{"bike_id":"848b722d-d606-4578-ab04-b0d8f10befac","system_id":"levelo_inurba_marseille","lat":43.30931,"lon":5.40134,"is_reserved":false,"is_disabled":false,"rental_uris":{"android":"levelo://app?vid=848b722d-d606-4578-ab04-b0d8f10befac","ios":"levelo://app?vid=848b722d-d606-4578-ab04-b0d8f10befac"},"vehicle_type_id":"4","last_reported":1745791755,"current_range_meters":30400,"station_id":"ce4bgvp2rcd13ifvqct0","pricing_plan_id":"cebpf4jnsgd1na2vs0mg"},{"bike_id":"492b1adf-3a37-42a5-9490-17ce58a2a6b1","system_id":"levelo_inurba_marseille","lat":43.30328,"lon":5.40431,"is_reserved":false,"is_disabled":false,"rental_uris":{"android":"levelo://app?vid=492b1adf-3a37-42a5-9490-17ce58a2a6b1","ios":"levelo://app?vid=492b1adf-3a37-42a5-9490-17ce58a2a6b1"},"vehicle_type_id":"4","last_reported":1745791755,"current_range_meters":30400,"station_id":"ce4bh012rcd13ifvqd10","pricing_plan_id":"cebpf4jnsgd1na2vs0mg"},{"bike_id":"4e26f854-27c2-4a90-87ff-722729d5f32d","system_id":"levelo_inurba_marseille","lat":43.30326,"lon":5.40428,"is_reserved":false,"is_disabled":false,"rental_uris":{"android":"levelo://app?vid=4e26f854-27c2-4a90-87ff-722729d5f32d","ios":"levelo://app?vid=4e26f854-27c2-4a90-87ff-722729d5f32d"},"vehicle_type_id":"4","last_reported":1745791755,"current_range_meters":30400,"station_id":"ce4bh012rcd13ifvqd10","pricing_plan_id":"cebpf4jnsgd1na2vs0mg"},{"bike_id":"94ad02c0-de01-4748-9f24-21a064627bf2","system_id":"levelo_inurba_marseille","lat":43.29529,"lon":5.39027,"is_reserved":false,"is_disabled":false,"rental_uris":{"android":"levelo://app?vid=94ad02c0-de01-4748-9f24-21a064627bf2","ios":"levelo://app?vid=94ad02c0-de01-4748-9f24-21a064627bf2"},"vehicle_type_id":"4","last_reported":1745791755,"current_range_meters":30400,"station_id":"ce4bh3p2rcd13ifvqdp0","pricing_plan_id":"cebpf4jnsgd1na2vs0mg"},{"bike_id":"37f5824e-6533-4d30-9e14-8372f9086c7f","system_id":"levelo_inurba_marseille","lat":43.28346,"lon":5.38093,"is_reserved":false,"is_disabled":false,"rental_uris":{"android":"levelo://app?vid=37f5824e-6533-4d30-9e14-8372f9086c7f","ios":"levelo://app?vid=37f5824e-6533-4d30-9e14-8372f9086c7f"},"vehicle_type_id":"4","last_reported":1745791755,"current_range_meters":30400,"station_id":"ce4bh412rcd13ifvqdr0","pricing_plan_id":"cebpf4jnsgd1na2vs0mg"},{"bike_id":"43265c63-b649-4911-bb73-476e176ec1e3","system_id":"levelo_inurba_marseille","lat":43.28922,"lon":5.36637,"is_reserved":false,"is_disabled":false,"rental_uris":{"android":"levelo://app?vid=43265c63-b649-4911-bb73-476e176ec1e3","ios":"levelo://app?vid=43265c63-b649-4911-bb73-476e176ec1e3"},"vehicle_type_id":"4","last_reported":1745791755,"current_range_meters":30400,"station_id":"ce4bhap2rcd13ifvqek0","pricing_plan_id":"cebpf4jnsgd1na2vs0mg"},{"bike_id":"8d30bcb5-334f-4f3d-8209-eff7048ff965","system_id":"levelo_inurba_marseille","lat":43.28947,"lon":5.36392,"is_reserved":false,"is_disabled":false,"rental_uris":{"android":"levelo://app?vid=8d30bcb5-334f-4f3d-8209-eff7048ff965","ios":"levelo://app?vid=8d30bcb5-334f-4f3d-8209-eff7048ff965"},"vehicle_type_id":"4","last_reported":1745791755,"current_range_meters":30400,"station_id":"ce4bhc92rcd13ifvqetg","pricing_plan_id":"cebpf4jnsgd1na2vs0mg"},{"bike_id":"a77274df-515f-4056-8418-d726ad218bd7","system_id":"levelo_inurba_marseille","lat":43.26066,"lon":5.39389,"is_reserved":false,"is_disabled":false,"rental_uris":{"android":"levelo://app?vid=a77274df-515f-4056-8418-d726ad218bd7","ios":"levelo://app?vid=a77274df-515f-4056-8418-d726ad218bd7"},"vehicle_type_id":"4","last_reported":1745791755,"current_range_meters":30400,"station_id":"ce4bhh92rcd13ifvqfj0","pricing_plan_id":"cebpf4jnsgd1na2vs0mg"},{"bike_id":"f58c2460-447f-4009-aca3-ca32bc86a424","system_id":"levelo_inurba_marseille","lat":43.24662,"lon":5.38161,"is_reserved":false,"is_disabled":false,"rental_uris":{"android":"levelo://app?vid=f58c2460-447f-4009-aca3-ca32bc86a424","ios":"levelo://app?vid=f58c2460-447f-4009-aca3-ca32bc86a424"},"vehicle_type_id":"4","last_reported":1745791755,"current_range_meters":30400,"station_id":"ce4bhih2rcd13ifvqfr0","pricing_plan_id":"cebpf4jnsgd1na2vs0mg"},{"bike_id":"91b1f8ba-2684-459a-aa7a-43dfbb5f8e0d","system_id":"levelo_inurba_marseille","lat":43.25869,"lon":5.39893,"is_reserved":false,"is_disabled":false,"rental_uris":{"android":"levelo://app?vid=91b1f8ba-2684-459a-aa7a-43dfbb5f8e0d","ios":"levelo://app?vid=91b1f8ba-2684-459a-aa7a-43dfbb5f8e0d"},"vehicle_type_id":"4","last_reported":1745791755,"current_range_meters":30400,"station_id":"ce4bhl92rcd13ifvqghg","pricing_plan_id":"cebpf4jnsgd1na2vs0mg"},{"bike_id":"732a5215-d005-4ebe-80f9-98261e7f611f","system_id":"levelo_inurba_marseille","lat":43.27812,"lon":5.40711,"is_reserved":false,"is_disabled":false,"rental_uris":{"android":"levelo://app?vid=732a5215-d005-4ebe-80f9-98261e7f611f","ios":"levelo://app?vid=732a5215-d005-4ebe-80f9-98261e7f611f"},"vehicle_type_id":"4","last_reported":1745791755,"current_range_meters":30400,"station_id":"ce4bhnh2rcd13ifvqgtg","pricing_plan_id":"cebpf4jnsgd1na2vs0mg"},{"bike_id":"241ebc74-8676-4229-b202-f590b7cb234f","system_id":"levelo_inurba_marseille","lat":43.309346,"lon":5.3951,"is_reserved":false,"is_disabled":false,"rental_uris":{"android":"levelo://app?vid=241ebc74-8676-4229-b202-f590b7cb234f","ios":"levelo://app?vid=241ebc74-8676-4229-b202-f590b7cb234f"},"vehicle_type_id":"4","last_reported":1745791755,"current_range_meters":30800,"station_id":"ce4bh012rcd13ifvqcv0","pricing_plan_id":"cebpf4jnsgd1na2vs0mg"},{"bike_id":"c4cd64b5-ffad-4463-93ba-ded4788cd426","system_id":"levelo_inurba_marseille","lat":43.29276,"lon":5.40116,"is_reserved":false,"is_disabled":false,"rental_uris":{"android":"levelo://app?vid=c4cd64b5-ffad-4463-93ba-ded4788cd426","ios":"levelo://app?vid=c4cd64b5-ffad-4463-93ba-ded4788cd426"},"vehicle_type_id":"4","last_reported":1745791755,"current_range_meters":30800,"station_id":"ce4bh312rcd13ifvqdk0","pricing_plan_id":"cebpf4jnsgd1na2vs0mg"},{"bike_id":"af411d7f-7e10-4436-8c31-69bdf635ed76","system_id":"levelo_inurba_marseille","lat":43.28415,"lon":5.37515,"is_reserved":false,"is_disabled":false,"rental_uris":{"android":"levelo://app?vid=af411d7f-7e10-4436-8c31-69bdf635ed76","ios":"levelo://app?vid=af411d7f-7e10-4436-8c31-69bdf635ed76"},"vehicle_type_id":"4","last_reported":1745791755,"current_range_meters":30800,"station_id":"ce4bh412rcd13ifvqds0","pricing_plan_id":"cebpf4jnsgd1na2vs0mg"},{"bike_id":"96e2aab4-0c75-4d91-abed-a9f4c30bf897","system_id":"levelo_inurba_marseille","lat":43.29172,"lon":5.37148,"is_reserved":false,"is_disabled":false,"rental_uris":{"android":"levelo://app?vid=96e2aab4-0c75-4d91-abed-a9f4c30bf897","ios":"levelo://app?vid=96e2aab4-0c75-4d91-abed-a9f4c30bf897"},"vehicle_type_id":"4","last_reported":1745791755,"current_range_meters":30800,"station_id":"ce4bha92rcd13ifvqeh0","pricing_plan_id":"cebpf4jnsgd1na2vs0mg"},{"bike_id":"a11df432-f881-4c85-ac8b-f7dd44d99fcb","system_id":"levelo_inurba_marseille","lat":43.28673,"lon":5.36341,"is_reserved":false,"is_disabled":false,"rental_uris":{"android":"levelo://app?vid=a11df432-f881-4c85-ac8b-f7dd44d99fcb","ios":"levelo://app?vid=a11df432-f881-4c85-ac8b-f7dd44d99fcb"},"vehicle_type_id":"4","last_reported":1745791755,"current_range_meters":30800,"station_id":"ce4bhah2rcd13ifvqej0","pricing_plan_id":"cebpf4jnsgd1na2vs0mg"},{"bike_id":"f1d51bf4-3a40-49e4-a625-0e8703db6000","system_id":"levelo_inurba_marseille","lat":43.28932,"lon":5.36628,"is_reserved":false,"is_disabled":false,"rental_uris":{"android":"levelo://app?vid=f1d51bf4-3a40-49e4-a625-0e8703db6000","ios":"levelo://app?vid=f1d51bf4-3a40-49e4-a625-0e8703db6000"},"vehicle_type_id":"4","last_reported":1745791755,"current_range_meters":30800,"station_id":"ce4bhap2rcd13ifvqek0","pricing_plan_id":"cebpf4jnsgd1na2vs0mg"},{"bike_id":"62819554-518a-49a1-b76c-cab65ac6ee64","system_id":"levelo_inurba_marseille","lat":43.30816,"lon":5.43521,"is_reserved":false,"is_disabled":false,"rental_uris":{"android":"levelo://app?vid=62819554-518a-49a1-b76c-cab65ac6ee64","ios":"levelo://app?vid=62819554-518a-49a1-b76c-cab65ac6ee64"},"vehicle_type_id":"4","last_reported":1745791755,"current_range_meters":30800,"station_id":"ce4bhph2rcd13ifvqheg","pricing_plan_id":"cebpf4jnsgd1na2vs0mg"},{"bike_id":"d29cee01-f64f-4bd3-ad62-59b6268605f1","system_id":"levelo_inurba_marseille","lat":43.3237,"lon":5.38883,"is_reserved":false,"is_disabled":false,"rental_uris":{"android":"levelo://app?vid=d29cee01-f64f-4bd3-ad62-59b6268605f1","ios":"levelo://app?vid=d29cee01-f64f-4bd3-ad62-59b6268605f1"},"vehicle_type_id":"4","last_reported":1745791755,"current_range_meters":30800,"station_id":"ce4bhqp2rcd13ifvqhog","pricing_plan_id":"cebpf4jnsgd1na2vs0mg"},{"bike_id":"cd6b64e7-8e04-461d-a96e-14aef9cd67d1","system_id":"levelo_inurba_marseille","lat":43.24174,"lon":5.36395,"is_reserved":false,"is_disabled":false,"rental_uris":{"android":"levelo://app?vid=cd6b64e7-8e04-461d-a96e-14aef9cd67d1","ios":"levelo://app?vid=cd6b64e7-8e04-461d-a96e-14aef9cd67d1"},"vehicle_type_id":"4","last_reported":1745791755,"current_range_meters":30800,"station_id":"cpo36qri1sfpv3e86is0","pricing_plan_id":"cebpf4jnsgd1na2vs0mg"},{"bike_id":"889eb7ae-0895-4996-908a-f60390a74938","system_id":"levelo_inurba_marseille","lat":43.29562,"lon":5.38693,"is_reserved":false,"is_disabled":false,"rental_uris":{"android":"levelo://app?vid=889eb7ae-0895-4996-908a-f60390a74938","ios":"levelo://app?vid=889eb7ae-0895-4996-908a-f60390a74938"},"vehicle_type_id":"4","last_reported":1745791755,"current_range_meters":31200,"station_id":"","pricing_plan_id":"cebpf4jnsgd1na2vs0mg"},{"bike_id":"64c8a595-335c-477c-9515-0dd3d8d13801","system_id":"levelo_inurba_marseille","lat":43.30928,"lon":5.40136,"is_reserved":false,"is_disabled":false,"rental_uris":{"android":"levelo://app?vid=64c8a595-335c-477c-9515-0dd3d8d13801","ios":"levelo://app?vid=64c8a595-335c-477c-9515-0dd3d8d13801"},"vehicle_type_id":"4","last_reported":1745791755,"current_range_meters":31200,"station_id":"ce4bgvp2rcd13ifvqct0","pricing_plan_id":"cebpf4jnsgd1na2vs0mg"},{"bike_id":"cb3c912b-e354-444c-b3e8-47cef9aa1e69","system_id":"levelo_inurba_marseille","lat":43.288375,"lon":5.392874,"is_reserved":false,"is_disabled":false,"rental_uris":{"android":"levelo://app?vid=cb3c912b-e354-444c-b3e8-47cef9aa1e69","ios":"levelo://app?vid=cb3c912b-e354-444c-b3e8-47cef9aa1e69"},"vehicle_type_id":"4","last_reported":1745791755,"current_range_meters":31200,"station_id":"ce4bh2p2rcd13ifvqdi0","pricing_plan_id":"cebpf4jnsgd1na2vs0mg"},{"bike_id":"a6048654-461c-4ead-adac-b6e3b872ad89","system_id":"levelo_inurba_marseille","lat":43.284607,"lon":5.358907,"is_reserved":false,"is_disabled":false,"rental_uris":{"android":"levelo://app?vid=a6048654-461c-4ead-adac-b6e3b872ad89","ios":"levelo://app?vid=a6048654-461c-4ead-adac-b6e3b872ad89"},"vehicle_type_id":"4","last_reported":1745791755,"current_range_meters":31200,"station_id":"ce4bhah2rcd13ifvqei0","pricing_plan_id":"cebpf4jnsgd1na2vs0mg"},{"bike_id":"979ad6ea-2d04-49c7-8e88-73c4b8b6d81c","system_id":"levelo_inurba_marseille","lat":43.314819,"lon":5.373091,"is_reserved":false,"is_disabled":false,"rental_uris":{"android":"levelo://app?vid=979ad6ea-2d04-49c7-8e88-73c4b8b6d81c","ios":"levelo://app?vid=979ad6ea-2d04-49c7-8e88-73c4b8b6d81c"},"vehicle_type_id":"4","last_reported":1745791755,"current_range_meters":32000,"station_id":"ce4bgt12rcd13ifvqcd0","pricing_plan_id":"cebpf4jnsgd1na2vs0mg"},{"bike_id":"9e3d0093-d574-4ec3-ad9e-ec738dc4d3ff","system_id":"levelo_inurba_marseille","lat":43.30136,"lon":5.39837,"is_reserved":false,"is_disabled":false,"rental_uris":{"android":"levelo://app?vid=9e3d0093-d574-4ec3-ad9e-ec738dc4d3ff","ios":"levelo://app?vid=9e3d0093-d574-4ec3-ad9e-ec738dc4d3ff"},