{"last_updated":1702728713,"ttl":30,"version":"2.2","data":{"bikes":[{"bike_id":"2af8f3b7-ba01-47b0-8651-e9fe15adfc94","system_id":"levelo_inurba_marseille","lat":43.312239,"lon":5.368562,"is_reserved":false,"is_disabled":false,"rental_uris":{"android":"levelo://app?vid=2af8f3b7-ba01-47b0-8651-e9fe15adfc94","ios":"levelo://app?vid=2af8f3b7-ba01-47b0-8651-e9fe15adfc94"},"vehicle_type_id":"4","last_reported":1702728713,"current_range_meters":21600,"station_id":"ce4bgl92rcd13ifvqbq0","pricing_plan_id":"free"},{"bike_id":"4c2c30cc-8d56-49ed-9c18-14e508e9d406","system_id":"levelo_inurba_marseille","lat":43.312239,"lon":5.368562,"is_reserved":false,"is_disabled":false,"rental_uris":{"android":"levelo://app?vid=4c2c30cc-8d56-49ed-9c18-14e508e9d406","ios":"levelo://app?vid=4c2c30cc-8d56-49ed-9c18-14e508e9d406"},"vehicle_type_id":"4","last_reported":1702728713,"current_range_meters":18000,"station_id":"ce4bgl92rcd13ifvqbq0","pricing_plan_id":"free"},{"bike_id":"0a6dcca6-cf4a-45ae-857a-113ebed1fd01","system_id":"levelo_inurba_marseille","lat":43.312239,"lon":5.368562,"is_reserved":false,"is_disabled":false,"rental_uris":{"android":"levelo://app?vid=0a6dcca6-cf4a-45ae-857a-113ebed1fd01","ios":"levelo://app?vid=0a6dcca6-cf4a-45ae-857a-113ebed1fd01"},"vehicle_type_id":"4","last_reported":1702728713,"current_range_meters":5600,"station_id":"ce4bgl92rcd13ifvqbq0","pricing_plan_id":"free"},{"bike_id":"2628431f-da41-45b9-bb5b-b864794506d1","system_id":"levelo_inurba_marseille","lat":43.31433,"lon":5.37334,"is_reserved":false,"is_disabled":false,"rental_uris":{"android":"levelo://app?vid=2628431f-da41-45b9-bb5b-b864794506d1","ios":"levelo://app?vid=2628431f-da41-45b9-bb5b-b864794506d1"},"vehicle_type_id":"4","last_reported":1702728713,"current_range_meters":2400,"station_id":"","pricing_plan_id":"free"},{"bike_id":"579cdc55-849a-44ce-953f-e52eaae88f3c","system_id":"levelo_inurba_marseille","lat":43.309039,"lon":5.371797,"is_reserved":false,"is_disabled":false,"rental_uris":{"android":"levelo://app?vid=579cdc55-849a-44ce-953f-e52eaae88f3c","ios":"levelo://app?vid=579cdc55-849a-44ce-953f-e52eaae88f3c"},"vehicle_type_id":"4","last_reported":1702728713,"current_range_meters":18000,"station_id":"ce4bguh2rcd13ifvqckg","pricing_plan_id":"free"},{"bike_id":"3f8b821f-e430-4a35-bf14-f8b6e777ea11","system_id":"levelo_inurba_marseille","lat":43.313939,"lon":5.375306,"is_reserved":false,"is_disabled":false,"rental_uris":{"android":"levelo://app?vid=3f8b821f-e430-4a35-bf14-f8b6e777ea11","ios":"levelo://app?vid=3f8b821f-e430-4a35-bf14-f8b6e777ea11"},"vehicle_type_id":"4","last_reported":1702728713,"current_range_meters":0,"station_id":"","pricing_plan_id":"free"},{"bike_id":"6fe6f847-a52f-4f3f-bab6-41256a369687","system_id":"levelo_inurba_marseille","lat":43.305712,"lon":5.365641,"is_reserved":false,"is_disabled":false,"rental_uris":{"android":"levelo://app?vid=6fe6f847-a52f-4f3f-bab6-41256a369687","ios":"levelo://app?vid=6fe6f847-a52f-4f3f-bab6-41256a369687"},"vehicle_type_id":"4","last_reported":1702728713,"current_range_meters":11600,"station_id":"ce4bgs12rcd13ifvqcag","pricing_plan_id":"free"},{"bike_id":"b85ec593-7eb7-4a14-b95f-e2a46957c415","system_id":"levelo_inurba_marseille","lat":43.305712,"lon":5.365641,"is_reserved":false,"is_disabled":false,"rental_uris":{"android":"levelo://app?vid=b85ec593-7eb7-4a14-b95f-e2a46957c415","ios":"levelo://app?vid=b85ec593-7eb7-4a14-b95f-e2a46957c415"},"vehicle_type_id":"4","last_reported":1702728713,"current_range_meters":27200,"station_id":"ce4bgs12rcd13ifvqcag","pricing_plan_id":"free"},{"bike_id":"bd559884-b5f8-4d8d-a2c7-833e18301093","system_id":"levelo_inurba_marseille","lat":43.305712,"lon":5.365641,"is_reserved":false,"is_disabled":false,"rental_uris":{"android":"levelo://app?vid=bd559884-b5f8-4d8d-a2c7-833e18301093","ios":"levelo://app?vid=bd559884-b5f8-4d8d-a2c7-833e18301093"},"vehicle_type_id":"4","last_reported":1702728713,"current_range_meters":9200,"station_id":"ce4bgs12rcd13ifvqcag","pricing_plan_id":"free"},{"bike_id":"c0b71835-e43e-4ee7-974c-1f27538f7973","system_id":"levelo_inurba_marseille","lat":43.305368,"lon":5.367343,"is_reserved":false,"is_disabled":false,"rental_uris":{"android":"levelo://app?vid=c0b71835-e43e-4ee7-974c-1f27538f7973","ios":"levelo://app?vid=c0b71835-e43e-4ee7-974c-1f27538f7973"},"vehicle_type_id":"4","last_reported":1702728713,"current_range_meters":27600,"station_id":"ce4bgrp2rcd13ifvqc9g","pricing_plan_id":"free"},{"bike_id":"53732245-d74f-49bd-94a1-83527ae825fa","system_id":"levelo_inurba_marseille","lat":43.30531,"lon":5.36702,"is_reserved":false,"is_disabled":false,"rental_uris":{"android":"levelo://app?vid=53732245-d74f-49bd-94a1-83527ae825fa","ios":"levelo://app?vid=53732245-d74f-49bd-94a1-83527ae825fa"},"vehicle_type_id":"4","last_reported":1702728713,"current_range_meters":0,"station_id":"ce4bgrp2rcd13ifvqc9g","pricing_plan_id":"free"},{"bike_id":"955e4ab2-16e5-44e8-a986-a2f50ff96c06","system_id":"levelo_inurba_marseille","lat":43.305382,"lon":5.365389,"is_reserved":false,"is_disabled":false,"rental_uris":{"android":"levelo://app?vid=955e4ab2-16e5-44e8-a986-a2f50ff96c06","ios":"levelo://app?vid=955e4ab2-16e5-44e8-a986-a2f50ff96c06"},"vehicle_type_id":"4","last_reported":1702728713,"current_range_meters":15600,"station_id":"","pricing_plan_id":"free"},{"bike_id":"49e08614-3569-4283-a5bd-a4bdd78edd11","system_id":"levelo_inurba_marseille","lat":43.305368,"lon":5.367343,"is_reserved":false,"is_disabled":false,"rental_uris":{"android":"levelo://app?vid=49e08614-3569-4283-a5bd-a4bdd78edd11","ios":"levelo://app?vid=49e08614-3569-4283-a5bd-a4bdd78edd11"},"vehicle_type_id":"4","last_reported":1702728713,"current_range_meters":22000,"station_id":"ce4bgrp2rcd13ifvqc9g","pricing_plan_id":"free"},{"bike_id":"8ab68ba8-33ff-4c8e-b6fc-cd7845c320a7","system_id":"levelo_inurba_marseille","lat":43.30525,"lon":5.36717,"is_reserved":false,"is_disabled":false,"rental_uris":{"android":"levelo://app?vid=8ab68ba8-33ff-4c8e-b6fc-cd7845c320a7","ios":"levelo://app?vid=8ab68ba8-33ff-4c8e-b6fc-cd7845c320a7"},"vehicle_type_id":"4","last_reported":1702728713,"current_range_meters":4400,"station_id":"ce4bgrp2rcd13ifvqc9g","pricing_plan_id":"free"},{"bike_id":"2cf38736-5162-4ed8-8ba6-39709262172a","system_id":"levelo_inurba_marseille","lat":43.305706,"lon":5.365654,"is_reserved":false,"is_disabled":false,"rental_uris":{"android":"levelo://app?vid=2cf38736-5162-4ed8-8ba6-39709262172a","ios":"levelo://app?vid=2cf38736-5162-4ed8-8ba6-39709262172a"},"vehicle_type_id":"4","last_reported":1702728713,"current_range_meters":30800,"station_id":"ce4bgs12rcd13ifvqcag","pricing_plan_id":"free"},{"bike_id":"77bb4192-0079-476c-82f6-7c18e34e71e4","system_id":"levelo_inurba_marseille","lat":43.305706,"lon":5.365654,"is_reserved":false,"is_disabled":false,"rental_uris":{"android":"levelo://app?vid=77bb4192-0079-476c-82f6-7c18e34e71e4","ios":"levelo://app?vid=77bb4192-0079-476c-82f6-7c18e34e71e4"},"vehicle_type_id":"4","last_reported":1702728713,"current_range_meters":31200,"station_id":"ce4bgs12rcd13ifvqcag","pricing_plan_id":"free"},{"bike_id":"2386b78f-fa6a-47c4-aafe-2f9c837df8bb","system_id":"levelo_inurba_marseille","lat":43.305706,"lon":5.365654,"is_reserved":false,"is_disabled":false,"rental_uris":{"android":"levelo://app?vid=2386b78f-fa6a-47c4-aafe-2f9c837df8bb","ios":"levelo://app?vid=2386b78f-fa6a-47c4-aafe-2f9c837df8bb"},"vehicle_type_id":"4","last_reported":1702728713,"current_range_meters":28000,"station_id":"ce4bgs12rcd13ifvqcag","pricing_plan_id":"free"},{"bike_id":"6e923ff1-cb95-4f88-89b4-d2bca5a2e001","system_id":"levelo_inurba_marseille","lat":43.305989,"lon":5.37225,"is_reserved":false,"is_disabled":false,"rental_uris":{"android":"levelo://app?vid=6e923ff1-cb95-4f88-89b4-d2bca5a2e001","ios":"levelo://app?vid=6e923ff1-cb95-4f88-89b4-d2bca5a2e001"},"vehicle_type_id":"4","last_reported":1702728713,"current_range_meters":24400,"station_id":"ce4bgqh2rcd13ifvqc4g","pricing_plan_id":"free"},{"bike_id":"9a557d8f-d5f1-4bc5-8063-680898b9e532","system_id":"levelo_inurba_marseille","lat":43.307945,"lon":5.376487,"is_reserved":false,"is_disabled":false,"rental_uris":{"android":"levelo://app?vid=9a557d8f-d5f1-4bc5-8063-680898b9e532","ios":"levelo://app?vid=9a557d8f-d5f1-4bc5-8063-680898b9e532"},"vehicle_type_id":"4","last_reported":1702728713,"current_range_meters":30000,"station_id":"ce4bgv92rcd13ifvqcq0","pricing_plan_id":"free"},{"bike_id":"8f2f2472-686d-4d1b-bd99-8d9acdd0522f","system_id":"levelo_inurba_marseille","lat":43.307713,"lon":5.376487,"is_reserved":false,"is_disabled":false,"rental_uris":{"android":"levelo://app?vid=8f2f2472-686d-4d1b-bd99-8d9acdd0522f","ios":"levelo://app?vid=8f2f2472-686d-4d1b-bd99-8d9acdd0522f"},"vehicle_type_id":"4","last_reported":1702728713,"current_range_meters":22800,"station_id":"ce4bgv92rcd13ifvqcq0","pricing_plan_id":"free"},{"bike_id":"8ca06f85-0a67-4f2f-b47b-6329136aa613","system_id":"levelo_inurba_marseille","lat":43.317075,"lon":5.377367,"is_reserved":false,"is_disabled":false,"rental_uris":{"android":"levelo://app?vid=8ca06f85-0a67-4f2f-b47b-6329136aa613","ios":"levelo://app?vid=8ca06f85-0a67-4f2f-b47b-6329136aa613"},"vehicle_type_id":"4","last_reported":1702728713,"current_range_meters":25600,"station_id":"ce4bgth2rcd13ifvqch0","pricing_plan_id":"free"},{"bike_id":"e293772c-3556-40af-8333-a68eb5adff7d","system_id":"levelo_inurba_marseille","lat":43.317075,"lon":5.377367,"is_reserved":false,"is_disabled":false,"rental_uris":{"android":"levelo://app?vid=e293772c-3556-40af-8333-a68eb5adff7d","ios":"levelo://app?vid=e293772c-3556-40af-8333-a68eb5adff7d"},"vehicle_type_id":"4","last_reported":1702728713,"current_range_meters":24000,"station_id":"ce4bgth2rcd13ifvqch0","pricing_plan_id":"free"},{"bike_id":"52192f43-1552-4f78-943b-af094a05b1ac","system_id":"levelo_inurba_marseille","lat":43.303173,"lon":5.369167,"is_reserved":false,"is_disabled":false,"rental_uris":{"android":"levelo://app?vid=52192f43-1552-4f78-943b-af094a05b1ac","ios":"levelo://app?vid=52192f43-1552-4f78-943b-af094a05b1ac"},"vehicle_type_id":"4","last_reported":1702728713,"current_range_meters":25200,"station_id":"ce4bgqh2rcd13ifvqc5g","pricing_plan_id":"free"},{"bike_id":"81ec0778-c5dc-4f29-bdf0-5025289e69f7","system_id":"levelo_inurba_marseille","lat":43.30312,"lon":5.36895,"is_reserved":false,"is_disabled":false,"rental_uris":{"android":"levelo://app?vid=81ec0778-c5dc-4f29-bdf0-5025289e69f7","ios":"levelo://app?vid=81ec0778-c5dc-4f29-bdf0-5025289e69f7"},"vehicle_type_id":"4","last_reported":1702728713,"current_range_meters":21600,"station_id":"ce4bgqh2rcd13ifvqc5g","pricing_plan_id":"free"},{"bike_id":"b7350a07-9f4a-4a00-9385-5f3be8aecedf","system_id":"levelo_inurba_marseille","lat":43.30304,"lon":5.368987,"is_reserved":false,"is_disabled":false,"rental_uris":{"android":"levelo://app?vid=b7350a07-9f4a-4a00-9385-5f3be8aecedf","ios":"levelo://app?vid=b7350a07-9f4a-4a00-9385-5f3be8aecedf"},"vehicle_type_id":"4","last_reported":1702728713,"current_range_meters":13600,"station_id":"ce4bgqh2rcd13ifvqc5g","pricing_plan_id":"free"},{"bike_id":"c7aa7a1e-7351-4a77-884b-68a733f944cd","system_id":"levelo_inurba_marseille","lat":43.301939,"lon":5.366286,"is_reserved":false,"is_disabled":false,"rental_uris":{"android":"levelo://app?vid=c7aa7a1e-7351-4a77-884b-68a733f944cd","ios":"levelo://app?vid=c7aa7a1e-7351-4a77-884b-68a733f944cd"},"vehicle_type_id":"4","last_reported":1702728713,"current_range_meters":8800,"station_id":"ce4bgrh2rcd13ifvqc8g","pricing_plan_id":"free"},{"bike_id":"b0a25f01-bc9c-4fb0-874f-fb1630882f5a","system_id":"levelo_inurba_marseille","lat":43.30187,"lon":5.36619,"is_reserved":false,"is_disabled":false,"rental_uris":{"android":"levelo://app?vid=b0a25f01-bc9c-4fb0-874f-fb1630882f5a","ios":"levelo://app?vid=b0a25f01-bc9c-4fb0-874f-fb1630882f5a"},"vehicle_type_id":"4","last_reported":1702728713,"current_range_meters":28800,"station_id":"ce4bgrh2rcd13ifvqc8g","pricing_plan_id":"free"},{"bike_id":"1b719976-614e-45c6-8ce5-ae5e2fc8b087","system_id":"levelo_inurba_marseille","lat":43.292644,"lon":5.384257,"is_reserved":false,"is_disabled":false,"rental_uris":{"android":"levelo://app?vid=1b719976-614e-45c6-8ce5-ae5e2fc8b087","ios":"levelo://app?vid=1b719976-614e-45c6-8ce5-ae5e2fc8b087"},"vehicle_type_id":"4","last_reported":1702728713,"current_range_meters":14400,"station_id":"ce4bh692rcd13ifvqea0","pricing_plan_id":"free"},{"bike_id":"1361054f-37c0-4e6d-b080-c146b5b1096b","system_id":"levelo_inurba_marseille","lat":43.308012,"lon":5.381511,"is_reserved":false,"is_disabled":false,"rental_uris":{"android":"levelo://app?vid=1361054f-37c0-4e6d-b080-c146b5b1096b","ios":"levelo://app?vid=1361054f-37c0-4e6d-b080-c146b5b1096b"},"vehicle_type_id":"4","last_reported":1702728713,"current_range_meters":0,"station_id":"ce4bgt12rcd13ifvqce0","pricing_plan_id":"free"},{"bike_id":"dfe62985-6f65-471f-8bdb-4e96693a7937","system_id":"levelo_inurba_marseille","lat":43.324779,"lon":5.365712,"is_reserved":false,"is_disabled":false,"rental_uris":{"android":"levelo://app?vid=dfe62985-6f65-471f-8bdb-4e96693a7937","ios":"levelo://app?vid=dfe62985-6f65-471f-8bdb-4e96693a7937"},"vehicle_type_id":"4","last_reported":1702728713,"current_range_meters":18400,"station_id":"ce4bhs12rcd13ifvqhvg","pricing_plan_id":"free"},{"bike_id":"f1cde3ff-6cd4-4e86-99bc-06e7a73fc0a0","system_id":"levelo_inurba_marseille","lat":43.324771,"lon":5.36557,"is_reserved":false,"is_disabled":false,"rental_uris":{"android":"levelo://app?vid=f1cde3ff-6cd4-4e86-99bc-06e7a73fc0a0","ios":"levelo://app?vid=f1cde3ff-6cd4-4e86-99bc-06e7a73fc0a0"},"vehicle_type_id":"4","last_reported":1702728713,"current_range_meters":17200,"station_id":"ce4bhs12rcd13ifvqhvg","pricing_plan_id":"free"},{"bike_id":"88f7ea2a-62f7-4a88-9e9d-900940b4d7e5","system_id":"levelo_inurba_marseille","lat":43.324771,"lon":5.36557,"is_reserved":false,"is_disabled":false,"rental_uris":{"android":"levelo://app?vid=88f7ea2a-62f7-4a88-9e9d-900940b4d7e5","ios":"levelo://app?vid=88f7ea2a-62f7-4a88-9e9d-900940b4d7e5"},"vehicle_type_id":"4","last_reported":1702728713,"current_range_meters":16400,"station_id":"ce4bhs12rcd13ifvqhvg","pricing_plan_id":"free"},{"bike_id":"3abfb8d2-c9db-4274-acf9-9cb8cb2b1899","system_id":"levelo_inurba_marseille","lat":43.30143,"lon":5.37413,"is_reserved":false,"is_disabled":false,"rental_uris":{"android":"levelo://app?vid=3abfb8d2-c9db-4274-acf9-9cb8cb2b1899","ios":"levelo://app?vid=3abfb8d2-c9db-4274-acf9-9cb8cb2b1899"},"vehicle_type_id":"4","last_reported":1702728713,"current_range_meters":23200,"station_id":"ce4bgs92rcd13ifvqcc0","pricing_plan_id":"free"},{"bike_id":"db814619-100f-4493-a268-998a727ce1a6","system_id":"levelo_inurba_marseille","lat":43.30143,"lon":5.37413,"is_reserved":false,"is_disabled":false,"rental_uris":{"android":"levelo://app?vid=db814619-100f-4493-a268-998a727ce1a6","ios":"levelo://app?vid=db814619-100f-4493-a268-998a727ce1a6"},"vehicle_type_id":"4","last_reported":1702728713,"current_range_meters":28000,"station_id":"ce4bgs92rcd13ifvqcc0","pricing_plan_id":"free"},{"bike_id":"50121288-a7d8-4373-b2b0-061f8e39cbc3","system_id":"levelo_inurba_marseille","lat":43.319935,"lon":5.381699,"is_reserved":false,"is_disabled":false,"rental_uris":{"android":"levelo://app?vid=50121288-a7d8-4373-b2b0-061f8e39cbc3","ios":"levelo://app?vid=50121288-a7d8-4373-b2b0-061f8e39cbc3"},"vehicle_type_id":"4","last_reported":1702728713,"current_range_meters":21200,"station_id":"ce4bhr12rcd13ifvqhpg","pricing_plan_id":"free"},{"bike_id":"c571e01b-84d6-4777-b99c-d51795cb1a66","system_id":"levelo_inurba_marseille","lat":43.3199,"lon":5.38169,"is_reserved":false,"is_disabled":false,"rental_uris":{"android":"levelo://app?vid=c571e01b-84d6-4777-b99c-d51795cb1a66","ios":"levelo://app?vid=c571e01b-84d6-4777-b99c-d51795cb1a66"},"vehicle_type_id":"4","last_reported":1702728713,"current_range_meters":26400,"station_id":"ce4bhr12rcd13ifvqhpg","pricing_plan_id":"free"},{"bike_id":"468ccc7f-0797-47bf-aa1c-950758a1a82c","system_id":"levelo_inurba_marseille","lat":43.31992,"lon":5.38168,"is_reserved":false,"is_disabled":false,"rental_uris":{"android":"levelo://app?vid=468ccc7f-0797-47bf-aa1c-950758a1a82c","ios":"levelo://app?vid=468ccc7f-0797-47bf-aa1c-950758a1a82c"},"vehicle_type_id":"4","last_reported":1702728713,"current_range_meters":30000,"station_id":"ce4bhr12rcd13ifvqhpg","pricing_plan_id":"free"},{"bike_id":"c20b495f-6c37-4e51-92dd-844bfb9465a4","system_id":"levelo_inurba_marseille","lat":43.319935,"lon":5.381699,"is_reserved":false,"is_disabled":false,"rental_uris":{"android":"levelo://app?vid=c20b495f-6c37-4e51-92dd-844bfb9465a4","ios":"levelo://app?vid=c20b495f-6c37-4e51-92dd-844bfb9465a4"},"vehicle_type_id":"4","last_reported":1702728713,"current_range_meters":21200,"station_id":"ce4bhr12rcd13ifvqhpg","pricing_plan_id":"free"},{"bike_id":"e2d97102-879e-409c-a103-f1ccabe83198","system_id":"levelo_inurba_marseille","lat":43.299724,"lon":5.371829,"is_reserved":false,"is_disabled":false,"rental_uris":{"android":"levelo://app?vid=e2d97102-879e-409c-a103-f1ccabe83198","ios":"levelo://app?vid=e2d97102-879e-409c-a103-f1ccabe83198"},"vehicle_type_id":"4","last_reported":1702728713,"current_range_meters":26400,"station_id":"ce4bgr92rcd13ifvqc7g","pricing_plan_id":"free"},{"bike_id":"c4e77394-aef9-4077-b745-e99148625344","system_id":"levelo_inurba_marseille","lat":43.32733,"lon":5.36707,"is_reserved":false,"is_disabled":false,"rental_uris":{"android":"levelo://app?vid=c4e77394-aef9-4077-b745-e99148625344","ios":"levelo://app?vid=c4e77394-aef9-4077-b745-e99148625344"},"vehicle_type_id":"4","last_reported":1702728713,"current_range_meters":22800,"station_id":"","pricing_plan_id":"free"},{"bike_id":"819cb438-2e9c-4e0b-902b-5e19ef554d5c","system_id":"levelo_inurba_marseille","lat":43.305481,"lon":5.384393,"is_reserved":false,"is_disabled":false,"rental_uris":{"android":"levelo://app?vid=819cb438-2e9c-4e0b-902b-5e19ef554d5c","ios":"levelo://app?vid=819cb438-2e9c-4e0b-902b-5e19ef554d5c"},"vehicle_type_id":"4","last_reported":1702728713,"current_range_meters":17200,"station_id":"ce4bgg92rcd13ifvqb30","pricing_plan_id":"free"},{"bike_id":"4408266a-6850-4b87-bfda-d997fa3e4c79","system_id":"levelo_inurba_marseille","lat":43.311722,"lon":5.387247,"is_reserved":false,"is_disabled":false,"rental_uris":{"android":"levelo://app?vid=4408266a-6850-4b87-bfda-d997fa3e4c79","ios":"levelo://app?vid=4408266a-6850-4b87-bfda-d997fa3e4c79"},"vehicle_type_id":"4","last_reported":1702728713,"current_range_meters":19200,"station_id":"ce4bgv12rcd13ifvqcp0","pricing_plan_id":"free"},{"bike_id":"4c40ee06-afaf-4497-b623-4653f37b83a0","system_id":"levelo_inurba_marseille","lat":43.299243,"lon":5.37481,"is_reserved":false,"is_disabled":false,"rental_uris":{"android":"levelo://app?vid=4c40ee06-afaf-4497-b623-4653f37b83a0","ios":"levelo://app?vid=4c40ee06-afaf-4497-b623-4653f37b83a0"},"vehicle_type_id":"4","last_reported":1702728713,"current_range_meters":3600,"station_id":"ce4bgjh2rcd13ifvqbg0","pricing_plan_id":"free"},{"bike_id":"25b26a32-0408-4081-84b1-4b7ffb8b12ff","system_id":"levelo_inurba_marseille","lat":43.311722,"lon":5.387247,"is_reserved":false,"is_disabled":false,"rental_uris":{"android":"levelo://app?vid=25b26a32-0408-4081-84b1-4b7ffb8b12ff","ios":"levelo://app?vid=25b26a32-0408-4081-84b1-4b7ffb8b12ff"},"vehicle_type_id":"4","last_reported":1702728713,"current_range_meters":16000,"station_id":"ce4bgv12rcd13ifvqcp0","pricing_plan_id":"free"},{"bike_id":"e0dafc52-e239-4611-a506-6ce82b94f724","system_id":"levelo_inurba_marseille","lat":43.311722,"lon":5.387247,"is_reserved":false,"is_disabled":false,"rental_uris":{"android":"levelo://app?vid=e0dafc52-e239-4611-a506-6ce82b94f724","ios":"levelo://app?vid=e0dafc52-e239-4611-a506-6ce82b94f724"},"vehicle_type_id":"4","last_reported":1702728713,"current_range_meters":16400,"station_id":"ce4bgv12rcd13ifvqcp0","pricing_plan_id":"free"},{"bike_id":"1737724e-cb2c-4de9-82f2-77dd2021971f","system_id":"levelo_inurba_marseille","lat":43.328371,"lon":5.366909,"is_reserved":false,"is_disabled":false,"rental_uris":{"android":"levelo://app?vid=1737724e-cb2c-4de9-82f2-77dd2021971f","ios":"levelo://app?vid=1737724e-cb2c-4de9-82f2-77dd2021971f"},"vehicle_type_id":"4","last_reported":1702728713,"current_range_meters":16800,"station_id":"ce4bhs92rcd13ifvqi0g","pricing_plan_id":"free"},{"bike_id":"10a57283-682b-4610-a2f4-9836f387a132","system_id":"levelo_inurba_marseille","lat":43.328282,"lon":5.366866,"is_reserved":false,"is_disabled":false,"rental_uris":{"android":"levelo://app?vid=10a57283-682b-4610-a2f4-9836f387a132","ios":"levelo://app?vid=10a57283-682b-4610-a2f4-9836f387a132"},"vehicle_type_id":"4","last_reported":1702728713,"current_range_meters":12800,"station_id":"ce4bhs92rcd13ifvqi0g","pricing_plan_id":"free"},{"bike_id":"741ec595-cde0-45c3-a78c-f84a7feec0d3","system_id":"levelo_inurba_marseille","lat":43.328371,"lon":5.366909,"is_reserved":false,"is_disabled":false,"rental_uris":{"android":"levelo://app?vid=741ec595-cde0-45c3-a78c-f84a7feec0d3","ios":"levelo://app?vid=741ec595-cde0-45c3-a78c-f84a7feec0d3"},"vehicle_type_id":"4","last_reported":1702728713,"current_range_meters":20000,"station_id":"ce4bhs92rcd13ifvqi0g","pricing_plan_id":"free"},{"bike_id":"af9579a9-cbd5-4ff8-9908-90dc8fec2aba","system_id":"levelo_inurba_marseille","lat":43.297163,"lon":5.365866,"is_reserved":false,"is_disabled":false,"rental_uris":{"android":"levelo://app?vid=af9579a9-cbd5-4ff8-9908-90dc8fec2aba","ios":"levelo://app?vid=af9579a9-cbd5-4ff8-9908-90dc8fec2aba"},"vehicle_type_id":"4","last_reported":1702728713,"current_range_meters":17600,"station_id":"ce4bgn12rcd13ifvqbt0","pricing_plan_id":"free"},{"bike_id":"fe0d0017-6549-4b99-909d-f96e177891f6","system_id":"levelo_inurba_marseille","lat":43.297774,"lon":5.370875,"is_reserved":false,"is_disabled":false,"rental_uris":{"android":"levelo://app?vid=fe0d0017-6549-4b99-909d-f96e177891f6","ios":"levelo://app?vid=fe0d0017-6549-4b99-909d-f96e177891f6"},"vehicle_type_id":"4","last_reported":1702728713,"current_range_meters":14400,"station_id":"ce4bgop2rcd13ifvqc1g","pricing_plan_id":"free"},{"bike_id":"c8373d57-5459-4d9d-bfa0-a502f99d015f","system_id":"levelo_inurba_marseille","lat":43.296935,"lon":5.376544,"is_reserved":false,"is_disabled":false,"rental_uris":{"android":"levelo://app?vid=c8373d57-5459-4d9d-bfa0-a502f99d015f","ios":"levelo://app?vid=c8373d57-5459-4d9d-bfa0-a502f99d015f"},"vehicle_type_id":"4","last_reported":1702728713,"current_range_meters":30400,"station_id":"ce4bgkh2rcd13ifvqbl0","pricing_plan_id":"free"},{"bike_id":"b0f0a74f-bb4f-4fdf-a15d-464b4e12f201","system_id":"levelo_inurba_marseille","lat":43.299028,"lon":5.381509,"is_reserved":false,"is_disabled":false,"rental_uris":{"android":"levelo://app?vid=b0f0a74f-bb4f-4fdf-a15d-464b4e12f201","ios":"levelo://app?vid=b0f0a74f-bb4f-4fdf-a15d-464b4e12f201"},"vehicle_type_id":"4","last_reported":1702728713,"current_range_meters":26800,"station_id":"ce4bgj12rcd13ifvqbc0","pricing_plan_id":"free"},{"bike_id":"45882946-b3ea-4ec3-bb54-d18f4d79f128","system_id":"levelo_inurba_marseille","lat":43.296921,"lon":5.376579,"is_reserved":false,"is_disabled":false,"rental_uris":{"android":"levelo://app?vid=45882946-b3ea-4ec3-bb54-d18f4d79f128","ios":"levelo://app?vid=45882946-b3ea-4ec3-bb54-d18f4d79f128"},"vehicle_type_id":"4","last_reported":1702728713,"current_range_meters":20000,"station_id":"ce4bgkh2rcd13ifvqbl0","pricing_plan_id":"free"},{"bike_id":"1435b139-deb0-4a41-8b15-5235a3d51a9e","system_id":"levelo_inurba_marseille","lat":43.296935,"lon":5.376544,"is_reserved":false,"is_disabled":false,"rental_uris":{"android":"levelo://app?vid=1435b139-deb0-4a41-8b15-5235a3d51a9e","ios":"levelo://app?vid=1435b139-deb0-4a41-8b15-5235a3d51a9e"},"vehicle_type_id":"4","last_reported":1702728713,"current_range_meters":26400,"station_id":"ce4bgkh2rcd13ifvqbl0","pricing_plan_id":"free"},{"bike_id":"8a788336-6515-4181-aea0-d6ea3604843b","system_id":"levelo_inurba_marseille","lat":43.296921,"lon":5.376579,"is_reserved":false,"is_disabled":false,"rental_uris":{"android":"levelo://app?vid=8a788336-6515-4181-aea0-d6ea3604843b","ios":"levelo://app?vid=8a788336-6515-4181-aea0-d6ea3604843b"},"vehicle_type_id":"4","last_reported":1702728713,"current_range_meters":24400,"station_id":"ce4bgkh2rcd13ifvqbl0","pricing_plan_id":"free"},{"bike_id":"0b2c23d5-7d00-4eb1-a5a3-9e3cf29d46d4","system_id":"levelo_inurba_marseille","lat":43.309535,"lon":5.390238,"is_reserved":false,"is_disabled":false,"rental_uris":{"android":"levelo://app?vid=0b2c23d5-7d00-4eb1-a5a3-9e3cf29d46d4","ios":"levelo://app?vid=0b2c23d5-7d00-4eb1-a5a3-9e3cf29d46d4"},"vehicle_type_id":"4","last_reported":1702728713,"current_range_meters":26400,"station_id":"","pricing_plan_id":"free"},{"bike_id":"5afa6d39-b2b8-48c5-b6b8-a513f5bebfea","system_id":"levelo_inurba_marseille","lat":43.296921,"lon":5.376579,"is_reserved":false,"is_disabled":false,"rental_uris":{"android":"levelo://app?vid=5afa6d39-b2b8-48c5-b6b8-a513f5bebfea","ios":"levelo://app?vid=5afa6d39-b2b8-48c5-b6b8-a513f5bebfea"},"vehicle_type_id":"4","last_reported":1702728713,"current_range_meters":3200,"station_id":"ce4bgkh2rcd13ifvqbl0","pricing_plan_id":"free"},{"bike_id":"c104a89e-15ce-4f38-b262-54b6109c85e6","system_id":"levelo_inurba_marseille","lat":43.29795,"lon":5.381,"is_reserved":false,"is_disabled":false,"rental_uris":{"android":"levelo://app?vid=c104a89e-15ce-4f38-b262-54b6109c85e6","ios":"levelo://app?vid=c104a89e-15ce-4f38-b262-54b6109c85e6"},"vehicle_type_id":"4","last_reported":1702728713,"current_range_meters":1600,"station_id":"ce4bgip2rcd13ifvqbb0","pricing_plan_id":"free"},{"bike_id":"f75abf37-8136-4496-9d4c-6a18ec6a86cf","system_id":"levelo_inurba_marseille","lat":43.295748,"lon":5.37522,"is_reserved":false,"is_disabled":false,"rental_uris":{"android":"levelo://app?vid=f75abf37-8136-4496-9d4c-6a18ec6a86cf","ios":"levelo://app?vid=f75abf37-8136-4496-9d4c-6a18ec6a86cf"},"vehicle_type_id":"4","last_reported":1702728713,"current_range_meters":25200,"station_id":"ce4bgh92rcd13ifvqb50","pricing_plan_id":"free"},{"bike_id":"bb1a05fd-02ad-4bca-ab6d-0b599f18175e","system_id":"levelo_inurba_marseille","lat":43.295748,"lon":5.37522,"is_reserved":false,"is_disabled":false,"rental_uris":{"android":"levelo://app?vid=bb1a05fd-02ad-4bca-ab6d-0b599f18175e","ios":"levelo://app?vid=bb1a05fd-02ad-4bca-ab6d-0b599f18175e"},"vehicle_type_id":"4","last_reported":1702728713,"current_range_meters":22400,"station_id":"ce4bgh92rcd13ifvqb50","pricing_plan_id":"free"},{"bike_id":"97558514-a790-412f-b646-0f90b2beeec3","system_id":"levelo_inurba_marseille","lat":43.295279,"lon":5.375048,"is_reserved":false,"is_disabled":false,"rental_uris":{"android":"levelo://app?vid=97558514-a790-412f-b646-0f90b2beeec3","ios":"levelo://app?vid=97558514-a790-412f-b646-0f90b2beeec3"},"vehicle_type_id":"4","last_reported":1702728713,"current_range_meters":10000,"station_id":"ce4bgkp2rcd13ifvqbmg","pricing_plan_id":"free"},{"bike_id":"8269a031-93b9-4171-8434-64f7b4e4bbc4","system_id":"levelo_inurba_marseille","lat":43.299724,"lon":5.384848,"is_reserved":false,"is_disabled":false,"rental_uris":{"android":"levelo://app?vid=8269a031-93b9-4171-8434-64f7b4e4bbc4","ios":"levelo://app?vid=8269a031-93b9-4171-8434-64f7b4e4bbc4"},"vehicle_type_id":"4","last_reported":1702728713,"current_range_meters":22800,"station_id":"ce4bgj92rcd13ifvqbd0","pricing_plan_id":"free"},{"bike_id":"5a113e27-934c-4882-9385-e383aa9218ea","system_id":"levelo_inurba_marseille","lat":43.299717,"lon":5.384845,"is_reserved":false,"is_disabled":false,"rental_uris":{"android":"levelo://app?vid=5a113e27-934c-4882-9385-e383aa9218ea","ios":"levelo://app?vid=5a113e27-934c-4882-9385-e383aa9218ea"},"vehicle_type_id":"4","last_reported":1702728713,"current_range_meters":4400,"station_id":"ce4bgj92rcd13ifvqbd0","pricing_plan_id":"free"},{"bike_id":"e7eb27ef-dafc-41fd-9c52-ba57bf099314","system_id":"levelo_inurba_marseille","lat":43.304274,"lon":5.388873,"is_reserved":false,"is_disabled":false,"rental_uris":{"android":"levelo://app?vid=e7eb27ef-dafc-41fd-9c52-ba57bf099314","ios":"levelo://app?vid=e7eb27ef-dafc-41fd-9c52-ba57bf099314"},"vehicle_type_id":"4","last_reported":1702728713,"current_range_meters":8000,"station_id":"ce4bgk12rcd13ifvqbi0","pricing_plan_id":"free"},{"bike_id":"145012c7-20f6-4e4b-a831-7549689f5c4b","system_id":"levelo_inurba_marseille","lat":43.29601,"lon":5.381084,"is_reserved":false,"is_disabled":false,"rental_uris":{"android":"levelo://app?vid=145012c7-20f6-4e4b-a831-7549689f5c4b","ios":"levelo://app?vid=145012c7-20f6-4e4b-a831-7549689f5c4b"},"vehicle_type_id":"4","last_reported":1702728713,"current_range_meters":14000,"station_id":"ce4bgl12rcd13ifvqbo0","pricing_plan_id":"free"},{"bike_id":"d5e6d4a6-cdaf-4108-b314-af5fb3ecccf0","system_id":"levelo_inurba_marseille","lat":43.296,"lon":5.38104,"is_reserved":false,"is_disabled":false,"rental_uris":{"android":"levelo://app?vid=d5e6d4a6-cdaf-4108-b314-af5fb3ecccf0","ios":"levelo://app?vid=d5e6d4a6-cdaf-4108-b314-af5fb3ecccf0"},"vehicle_type_id":"4","last_reported":1702728713,"current_range_meters":24000,"station_id":"ce4bgl12rcd13ifvqbo0","pricing_plan_id":"free"},{"bike_id":"c7ebb6b6-95ab-4519-a691-13a5b303bd74","system_id":"levelo_inurba_marseille","lat":43.29283,"lon":5.36851,"is_reserved":false,"is_disabled":false,"rental_uris":{"android":"levelo://app?vid=c7ebb6b6-95ab-4519-a691-13a5b303bd74","ios":"levelo://app?vid=c7ebb6b6-95ab-4519-a691-13a5b303bd74"},"vehicle_type_id":"4","last_reported":1702728713,"current_range_meters":13200,"station_id":"ce4bhbp2rcd13ifvqesg","pricing_plan_id":"free"},{"bike_id":"b6419e20-b0e9-4ca0-b874-7480ba266b2b","system_id":"levelo_inurba_marseille","lat":43.293009,"lon":5.374584,"is_reserved":false,"is_disabled":false,"rental_uris":{"android":"levelo://app?vid=b6419e20-b0e9-4ca0-b874-7480ba266b2b","ios":"levelo://app?vid=b6419e20-b0e9-4ca0-b874-7480ba266b2b"},"vehicle_type_id":"4","last_reported":1702728713,"current_range_meters":20000,"station_id":"ce4bgi12rcd13ifvqb70","pricing_plan_id":"free"},{"bike_id":"01304f4d-01c7-458d-8e8e-cbc2a6cd28e6","system_id":"levelo_inurba_marseille","lat":43.2936,"lon":5.37835,"is_reserved":false,"is_disabled":false,"rental_uris":{"android":"levelo://app?vid=01304f4d-01c7-458d-8e8e-cbc2a6cd28e6","ios":"levelo://app?vid=01304f4d-01c7-458d-8e8e-cbc2a6cd28e6"},"vehicle_type_id":"4","last_reported":1702728713,"current_range_meters":30400,"station_id":"ce4bgjh2rcd13ifvqbf0","pricing_plan_id":"free"},{"bike_id":"ef39b9bf-1b59-4d4b-8466-0b14010616a8","system_id":"levelo_inurba_marseille","lat":43.2936,"lon":5.37835,"is_reserved":false,"is_disabled":false,"rental_uris":{"android":"levelo://app?vid=ef39b9bf-1b59-4d4b-8466-0b14010616a8","ios":"levelo://app?vid=ef39b9bf-1b59-4d4b-8466-0b14010616a8"},"vehicle_type_id":"4","last_reported":1702728713,"current_range_meters":2000,"station_id":"ce4bgjh2rcd13ifvqbf0","pricing_plan_id":"free"},{"bike_id":"e8f14858-0dc5-47d6-a84d-ec371a7ea7eb","system_id":"levelo_inurba_marseille","lat":43.292633,"lon":5.37622,"is_reserved":false,"is_disabled":false,"rental_uris":{"android":"levelo://app?vid=e8f14858-0dc5-47d6-a84d-ec371a7ea7eb","ios":"levelo://app?vid=e8f14858-0dc5-47d6-a84d-ec371a7ea7eb"},"vehicle_type_id":"4","last_reported":1702728713,"current_range_meters":20400,"station_id":"","pricing_plan_id":"free"},{"bike_id":"27a3dc9e-a894-4cba-bc3b-1266348f1394","system_id":"levelo_inurba_marseille","lat":43.291671,"lon":5.371575,"is_reserved":false,"is_disabled":false,"rental_uris":{"android":"levelo://app?vid=27a3dc9e-a894-4cba-bc3b-1266348f1394","ios":"levelo://app?vid=27a3dc9e-a894-4cba-bc3b-1266348f1394"},"vehicle_type_id":"4","last_reported":1702728713,"current_range_meters":28800,"station_id":"ce4bha92rcd13ifvqeh0","pricing_plan_id":"free"},{"bike_id":"d525be38-46c7-4336-8c9b-a79ec6232d0b","system_id":"levelo_inurba_marseille","lat":43.313291,"lon":5.396838,"is_reserved":false,"is_disabled":false,"rental_uris":{"android":"levelo://app?vid=d525be38-46c7-4336-8c9b-a79ec6232d0b","ios":"levelo://app?vid=d525be38-46c7-4336-8c9b-a79ec6232d0b"},"vehicle_type_id":"4","last_reported":1702728713,"current_range_meters":18400,"station_id":"ce4bgvp2rcd13ifvqcu0","pricing_plan_id":"free"},{"bike_id":"e6d55a12-9011-40ac-b77e-91da39354a99","system_id":"levelo_inurba_marseille","lat":43.313291,"lon":5.396838,"is_reserved":false,"is_disabled":false,"rental_uris":{"android":"levelo://app?vid=e6d55a12-9011-40ac-b77e-91da39354a99","ios":"levelo://app?vid=e6d55a12-9011-40ac-b77e-91da39354a99"},"vehicle_type_id":"4","last_reported":1702728713,"current_range_meters":24800,"station_id":"ce4bgvp2rcd13ifvqcu0","pricing_plan_id":"free"},{"bike_id":"dcba347f-7d08-4561-817a-e666bed82a13","system_id":"levelo_inurba_marseille","lat":43.30085,"lon":5.390856,"is_reserved":false,"is_disabled":false,"rental_uris":{"android":"levelo://app?vid=dcba347f-7d08-4561-817a-e666bed82a13","ios":"levelo://app?vid=dcba347f-7d08-4561-817a-e666bed82a13"},"vehicle_type_id":"4","last_reported":1702728713,"current_range_meters":2800,"station_id":"ce4bh192rcd13ifvqdb0","pricing_plan_id":"free"},{"bike_id":"f14b2966-888e-4957-a2a6-8fedf877886c","system_id":"levelo_inurba_marseille","lat":43.290327,"lon":5.375711,"is_reserved":false,"is_disabled":false,"rental_uris":{"android":"levelo://app?vid=f14b2966-888e-4957-a2a6-8fedf877886c","ios":"levelo://app?vid=f14b2966-888e-4957-a2a6-8fedf877886c"},"vehicle_type_id":"4","last_reported":1702728713,"current_range_meters":28000,"station_id":"ce4bh692rcd13ifvqe90","pricing_plan_id":"free"},{"bike_id":"c28c5694-68ca-42da-92de-3713f3822c59","system_id":"levelo_inurba_marseille","lat":43.292644,"lon":5.384257,"is_reserved":false,"is_disabled":false,"rental_uris":{"android":"levelo://app?vid=c28c5694-68ca-42da-92de-3713f3822c59","ios":"levelo://app?vid=c28c5694-68ca-42da-92de-3713f3822c59"},"vehicle_type_id":"4","last_reported":1702728713,"current_range_meters":17600,"station_id":"ce4bh692rcd13ifvqea0","pricing_plan_id":"free"},{"bike_id":"82b50737-52eb-4295-be42-d9615890f0ef","system_id":"levelo_inurba_marseille","lat":43.304274,"lon":5.397513,"is_reserved":false,"is_disabled":false,"rental_uris":{"android":"levelo://app?vid=82b50737-52eb-4295-be42-d9615890f0ef","ios":"levelo://app?vid=82b50737-52eb-4295-be42-d9615890f0ef"},"vehicle_type_id":"4","last_reported":1702728713,"current_range_meters":29600,"station_id":"ce4bh092rcd13ifvqd20","pricing_plan_id":"free"},{"bike_id":"ac8274f2-02f6-478f-978d-8d63ec6e2239","system_id":"levelo_inurba_marseille","lat":43.3304,"lon":5.38919,"is_reserved":false,"is_disabled":false,"rental_uris":{"android":"levelo://app?vid=ac8274f2-02f6-478f-978d-8d63ec6e2239","ios":"levelo://app?vid=ac8274f2-02f6-478f-978d-8d63ec6e2239"},"vehicle_type_id":"4","last_reported":1702728713,"current_range_meters":7200,"station_id":"ce4bhr92rcd13ifvqhrg","pricing_plan_id":"free"},{"bike_id":"f8b1a56a-43ce-4bc0-b811-90f5d5649462","system_id":"levelo_inurba_marseille","lat":43.290104,"lon":5.356111,"is_reserved":false,"is_disabled":false,"rental_uris":{"android":"levelo://app?vid=f8b1a56a-43ce-4bc0-b811-90f5d5649462","ios":"levelo://app?vid=f8b1a56a-43ce-4bc0-b811-90f5d5649462"},"vehicle_type_id":"4","last_reported":1702728713,"current_range_meters":10000,"station_id":"ce4bhb92rcd13ifvqen0","pricing_plan_id":"free"},{"bike_id":"2af1ec1d-db50-4675-b168-902ca134119a","system_id":"levelo_inurba_marseille","lat":43.33044,"lon":5.38918,"is_reserved":false,"is_disabled":false,"rental_uris":{"android":"levelo://app?vid=2af1ec1d-db50-4675-b168-902ca134119a","ios":"levelo://app?vid=2af1ec1d-db50-4675-b168-902ca134119a"},"vehicle_type_id":"4","last_reported":1702728713,"current_range_meters":0,"station_id":"ce4bhr92rcd13ifvqhrg","pricing_plan_id":"free"},{"bike_id":"ac029dc2-c535-4db0-af54-7e8a9570769a","system_id":"levelo_inurba_marseille","lat":43.290104,"lon":5.356111,"is_reserved":false,"is_disabled":false,"rental_uris":{"android":"levelo://app?vid=ac029dc2-c535-4db0-af54-7e8a9570769a","ios":"levelo://app?vid=ac029dc2-c535-4db0-af54-7e8a9570769a"},"vehicle_type_id":"4","last_reported":1702728713,"current_range_meters":26000,"station_id":"ce4bhb92rcd13ifvqen0","pricing_plan_id":"free"},{"bike_id":"dcb49890-d113-4e8d-9814-51924e3b9fd5","system_id":"levelo_inurba_marseille","lat":43.33047,"lon":5.38924,"is_reserved":false,"is_disabled":false,"rental_uris":{"android":"levelo://app?vid=dcb49890-d113-4e8d-9814-51924e3b9fd5","ios":"levelo://app?vid=dcb49890-d113-4e8d-9814-51924e3b9fd5"},"vehicle_type_id":"4","last_reported":1702728713,"current_range_meters":20400,"station_id":"ce4bhr92rcd13ifvqhrg","pricing_plan_id":"free"},{"bike_id":"18ef6362-e07d-4529-aa85-4a423a557344","system_id":"levelo_inurba_marseille","lat":43.290995,"lon":5.381361,"is_reserved":false,"is_disabled":false,"rental_uris":{"android":"levelo://app?vid=18ef6362-e07d-4529-aa85-4a423a557344","ios":"levelo://app?vid=18ef6362-e07d-4529-aa85-4a423a557344"},"vehicle_type_id":"4","last_reported":1702728713,"current_range_meters":18000,"station_id":"ce4bh512rcd13ifvqe2g","pricing_plan_id":"free"},{"bike_id":"08ceed3f-e012-458b-aef4-bc09915ff9eb","system_id":"levelo_inurba_marseille","lat":43.295169,"lon":5.390426,"is_reserved":false,"is_disabled":false,"rental_uris":{"android":"levelo://app?vid=08ceed3f-e012-458b-aef4-bc09915ff9eb","ios":"levelo://app?vid=08ceed3f-e012-458b-aef4-bc09915ff9eb"},"vehicle_type_id":"4","last_reported":1702728713,"current_range_meters":4800,"station_id":"ce4bh3p2rcd13ifvqdp0","pricing_plan_id":"free"},{"bike_id":"42a9d727-98aa-43b6-8fed-9d74c6228397","system_id":"levelo_inurba_marseille","lat":43.28977,"lon":5.37836,"is_reserved":false,"is_disabled":false,"rental_uris":{"android":"levelo://app?vid=42a9d727-98aa-43b6-8fed-9d74c6228397","ios":"levelo://app?vid=42a9d727-98aa-43b6-8fed-9d74c6228397"},"vehicle_type_id":"4","last_reported":1702728713,"current_range_meters":22400,"station_id":"ce4bh9p2rcd13ifvqed0","pricing_plan_id":"free"},{"bike_id":"0a6a1ed2-fa39-46c3-a9a9-c09441ba9175","system_id":"levelo_inurba_marseille","lat":43.31247,"lon":5.40162,"is_reserved":false,"is_disabled":false,"rental_uris":{"android":"levelo://app?vid=0a6a1ed2-fa39-46c3-a9a9-c09441ba9175","ios":"levelo://app?vid=0a6a1ed2-fa39-46c3-a9a9-c09441ba9175"},"vehicle_type_id":"4","last_reported":1702728713,"current_range_meters":18000,"station_id":"ce4bh092rcd13ifvqd30","pricing_plan_id":"free"},{"bike_id":"f0cd831c-cfb9-44c7-9487-103b6df223ca","system_id":"levelo_inurba_marseille","lat":43.337445,"lon":5.374592,"is_reserved":false,"is_disabled":false,"rental_uris":{"android":"levelo://app?vid=f0cd831c-cfb9-44c7-9487-103b6df223ca","ios":"levelo://app?vid=f0cd831c-cfb9-44c7-9487-103b6df223ca"},"vehicle_type_id":"4","last_reported":1702728713,"current_range_meters":29200,"station_id":"","pricing_plan_id":"free"},{"bike_id":"7dadf4c0-1bee-4a40-abe9-06aa4313a672","system_id":"levelo_inurba_marseille","lat":43.30937,"lon":5.40147,"is_reserved":false,"is_disabled":false,"rental_uris":{"android":"levelo://app?vid=7dadf4c0-1bee-4a40-abe9-06aa4313a672","ios":"levelo://app?vid=7dadf4c0-1bee-4a40-abe9-06aa4313a672"},"vehicle_type_id":"4","last_reported":1702728713,"current_range_meters":18800,"station_id":"ce4bgvp2rcd13ifvqct0","pricing_plan_id":"free"},{"bike_id":"b006c12d-5f42-407c-84fc-30d873b62927","system_id":"levelo_inurba_marseille","lat":43.30924,"lon":5.40146,"is_reserved":false,"is_disabled":false,"rental_uris":{"android":"levelo://app?vid=b006c12d-5f42-407c-84fc-30d873b62927","ios":"levelo://app?vid=b006c12d-5f42-407c-84fc-30d873b62927"},"vehicle_type_id":"4","last_reported":1702728713,"current_range_meters":6400,"station_id":"ce4bgvp2rcd13ifvqct0","pricing_plan_id":"free"},{"bike_id":"a15a6f31-d26a-498f-aab0-fad2629bd007","system_id":"levelo_inurba_marseille","lat":43.337535,"lon":5.37446,"is_reserved":false,"is_disabled":false,"rental_uris":{"android":"levelo://app?vid=a15a6f31-d26a-498f-aab0-fad2629bd007","ios":"levelo://app?vid=a15a6f31-d26a-498f-aab0-fad2629bd007"},"vehicle_type_id":"4","last_reported":1702728713,"current_range_meters":0,"station_id":"","pricing_plan_id":"free"},{"bike_id":"ef80ceab-dc9f-4b6c-8f52-707d5177f481","system_id":"levelo_inurba_marseille","lat":43.33752,"lon":5.37466,"is_reserved":false,"is_disabled":false,"rental_uris":{"android":"levelo://app?vid=ef80ceab-dc9f-4b6c-8f52-707d5177f481","ios":"levelo://app?vid=ef80ceab-dc9f-4b6c-8f52-707d5177f481"},"vehicle_type_id":"4","last_reported":1702728713,"current_range_meters":28800,"station_id":"","pricing_plan_id":"free"},{"bike_id":"681d62b7-e1a4-421f-a221-c69e53b955ac","system_id":"levelo_inurba_marseille","lat":43.306412,"lon":5.401035,"is_reserved":false,"is_disabled":false,"rental_uris":{"android":"levelo://app?vid=681d62b7-e1a4-421f-a221-c69e53b955ac","ios":"levelo://app?vid=681d62b7-e1a4-421f-a221-c69e53b955ac"},"vehicle_type_id":"4","last_reported":1702728713,"current_range_meters":22400,"station_id":"ce4bh112rcd13ifvqda0","pricing_plan_id":"free"},{"bike_id":"01deeb8a-cb94-48e8-a2e2-07e48123a362","system_id":"levelo_inurba_marseille","lat":43.28701,"lon":5.37399,"is_reserved":false,"is_disabled":false,"rental_uris":{"android":"levelo://app?vid=01deeb8a-cb94-48e8-a2e2-07e48123a362","ios":"levelo://app?vid=01deeb8a-cb94-48e8-a2e2-07e48123a362"},"vehicle_type_id":"4","last_reported":1702728713,"current_range_meters":24400,"station_id":"ce4bh3p2rcd13ifvqdq0","pricing_plan_id":"free"},{"bike_id":"a4cbac50-96af-416a-96bd-07660d5c5ff4","system_id":"levelo_inurba_marseille","lat":43.298681,"lon":5.397225,"is_reserved":false,"is_disabled":false,"rental_uris":{"android":"levelo://app?vid=a4cbac50-96af-416a-96bd-07660d5c5ff4","ios":"levelo://app?vid=a4cbac50-96af-416a-96bd-07660d5c5ff4"},"vehicle_type_id":"4","last_reported":1702728713,"current_range_meters":29600,"station_id":"ce4bh0h2rcd13ifvqd50","pricing_plan_id":"free"},{"bike_id":"24d2b1a8-cdf7-4840-8679-7c24e4c8236b","system_id":"levelo_inurba_marseille","lat":43.286961,"lon":5.373785,"is_reserved":false,"is_disabled":false,"rental_uris":{"android":"levelo://app?vid=24d2b1a8-cdf7-4840-8679-7c24e4c8236b","ios":"levelo://app?vid=24d2b1a8-cdf7-4840-8679-7c24e4c8236b"},"vehicle_type_id":"4","last_reported":1702728713,"current_range_meters":15600,"station_id":"ce4bh3p2rcd13ifvqdq0","pricing_plan_id":"free"},{"bike_id":"3ded91c4-cabc-4d4e-bf42-668c9e6709d5","system_id":"levelo_inurba_marseille","lat":43.295194,"lon":5.39397,"is_reserved":false,"is_disabled":false,"rental_uris":{"android":"levelo://app?vid=3ded91c4-cabc-4d4e-bf42-668c9e6709d5","ios":"levelo://app?vid=3ded91c4-cabc-4d4e-bf42-668c9e6709d5"},"vehicle_type_id":"4","last_reported":1702728713,"current_range_meters":3600,"station_id":"ce4bh292rcd13ifvqdf0","pricing_plan_id":"free"},{"bike_id":"46937d05-36c2-495a-9b30-7603f646a5e5","system_id":"levelo_inurba_marseille","lat":43.307484,"lon":5.402741,"is_reserved":false,"is_disabled":false,"rental_uris":{"android":"levelo://app?vid=46937d05-36c2-495a-9b30-7603f646a5e5","ios":"levelo://app?vid=46937d05-36c2-495a-9b30-7603f646a5e5"},"vehicle_type_id":"4","last_reported":1702728713,"current_range_meters":14000,"station_id":"","pricing_plan_id":"free"},{"bike_id":"bd497794-649c-4fb0-b186-4b7f2690dcbb","system_id":"levelo_inurba_marseille","lat":43.286039,"lon":5.370679,"is_reserved":false,"is_disabled":false,"rental_uris":{"android":"levelo://app?vid=bd497794-649c-4fb0-b186-4b7f2690dcbb","ios":"levelo://app?vid=bd497794-649c-4fb0-b186-4b7f2690dcbb"},"vehicle_type_id":"4","last_reported":1702728713,"current_range_meters":10000,"station_id":"ce4bht12rcd13ifvqi60","pricing_plan_id":"free"},{"bike_id":"246d5fa5-c550-48ea-a6ec-41b624ab5d9f","system_id":"levelo_inurba_marseille","lat":43.286039,"lon":5.370679,"is_reserved":false,"is_disabled":false,"rental_uris":{"android":"levelo://app?vid=246d5fa5-c550-48ea-a6ec-41b624ab5d9f","ios":"levelo://app?vid=246d5fa5-c550-48ea-a6ec-41b624ab5d9f"},"vehicle_type_id":"4","last_reported":1702728713,"current_range_meters":29600,"station_id":"ce4bht12rcd13ifvqi60","pricing_plan_id":"free"},{"bike_id":"8fe2ce97-fea6-4d3a-bbd1-6da7a56bb1d4","system_id":"levelo_inurba_marseille","lat":43.31696,"lon":5.404583,"is_reserved":false,"is_disabled":false,"rental_uris":{"android":"levelo://app?vid=8fe2ce97-fea6-4d3a-bbd1-6da7a56bb1d4","ios":"levelo://app?vid=8fe2ce97-fea6-4d3a-bbd1-6da7a56bb1d4"},"vehicle_type_id":"4","last_reported":1702728713,"current_range_meters":27600,"station_id":"ce4bh012rcd13ifvqd00","pricing_plan_id":"free"},{"bike_id":"bda3b6bb-5abc-44b6-afcd-26ffb07c72e3","system_id":"levelo_inurba_marseille","lat":43.291994,"lon":5.392907,"is_reserved":false,"is_disabled":false,"rental_uris":{"android":"levelo://app?vid=bda3b6bb-5abc-44b6-afcd-26ffb07c72e3","ios":"levelo://app?vid=bda3b6bb-5abc-44b6-afcd-26ffb07c72e3"},"vehicle_type_id":"4","last_reported":1702728713,"current_range_meters":16000,"station_id":"ce4bh192rcd13ifvqdd0","pricing_plan_id":"free"},{"bike_id":"6e18839e-a780-4a5e-b588-c9b403e46af7","system_id":"levelo_inurba_marseille","lat":43.294314,"lon":5.397498,"is_reserved":false,"is_disabled":false,"rental_uris":{"android":"levelo://app?vid=6e18839e-a780-4a5e-b588-c9b403e46af7","ios":"levelo://app?vid=6e18839e-a780-4a5e-b588-c9b403e46af7"},"vehicle_type_id":"4","last_reported":1702728713,"current_range_meters":19600,"station_id":"ce4bh3h2rcd13ifvqdo0","pricing_plan_id":"free"},{"bike_id":"44174f35-b0d2-44dc-847d-52717f630dde","system_id":"levelo_inurba_marseille","lat":43.285856,"lon":5.350771,"is_reserved":false,"is_disabled":false,"rental_uris":{"android":"levelo://app?vid=44174f35-b0d2-44dc-847d-52717f630dde","ios":"levelo://app?vid=44174f35-b0d2-44dc-847d-52717f630dde"},"vehicle_type_id":"4","last_reported":1702728713,"current_range_meters":6400,"station_id":"ce4bhch2rcd13ifvqeug","pricing_plan_id":"free"},{"bike_id":"bffebdb0-3416-45e2-998a-7fafd8f967e1","system_id":"levelo_inurba_marseille","lat":43.283998,"lon":5.375062,"is_reserved":false,"is_disabled":false,"rental_uris":{"android":"levelo://app?vid=bffebdb0-3416-45e2-998a-7fafd8f967e1","ios":"levelo://app?vid=bffebdb0-3416-45e2-998a-7fafd8f967e1"},"vehicle_type_id":"4","last_reported":1702728713,"current_range_meters":19600,"station_id":"ce4bh412rcd13ifvqds0","pricing_plan_id":"free"},{"bike_id":"006d6b77-6395-42d8-9d0a-5f6fe542ce8e","system_id":"levelo_inurba_marseille","lat":43.286595,"lon":5.386795,"is_reserved":false,"is_disabled":false,"rental_uris":{"android":"levelo://app?vid=006d6b77-6395-42d8-9d0a-5f6fe542ce8e","ios":"levelo://app?vid=006d6b77-6395-42d8-9d0a-5f6fe542ce8e"},"vehicle_type_id":"4","last_reported":1702728713,"current_range_meters":7600,"station_id":"ce4bh492rcd13ifvqdug","pricing_plan_id":"free"},{"bike_id":"a4bbb0ac-f5ee-4e00-a445-5901b934fed9","system_id":"levelo_inurba_marseille","lat":43.284217,"lon":5.349697,"is_reserved":false,"is_disabled":false,"rental_uris":{"android":"levelo://app?vid=a4bbb0ac-f5ee-4e00-a445-5901b934fed9","ios":"levelo://app?vid=a4bbb0ac-f5ee-4e00-a445-5901b934fed9"},"vehicle_type_id":"4","last_reported":1702728713,"current_range_meters":14800,"station_id":"ce4bhbh2rcd13ifvqepg","pricing_plan_id":"free"},{"bike_id":"74c5cf30-49f6-42f3-835f-9c531e7566b4","system_id":"levelo_inurba_marseille","lat":43.319179,"lon":5.407725,"is_reserved":false,"is_disabled":false,"rental_uris":{"android":"levelo://app?vid=74c5cf30-49f6-42f3-835f-9c531e7566b4","ios":"levelo://app?vid=74c5cf30-49f6-42f3-835f-9c531e7566b4"},"vehicle_type_id":"4","last_reported":1702728713,"current_range_meters":26800,"station_id":"ce4bhq12rcd13ifvqhig","pricing_plan_id":"free"},{"bike_id":"4e7f35df-b5be-41f8-a088-b359fd0719b0","system_id":"levelo_inurba_marseille","lat":43.323464,"lon":5.406297,"is_reserved":false,"is_disabled":false,"rental_uris":{"android":"levelo://app?vid=4e7f35df-b5be-41f8-a088-b359fd0719b0","ios":"levelo://app?vid=4e7f35df-b5be-41f8-a088-b359fd0719b0"},"vehicle_type_id":"4","last_reported":1702728713,"current_range_meters":26800,"station_id":"ce4bhq92rcd13ifvqhjg","pricing_plan_id":"free"},{"bike_id":"16373837-b161-407f-b0fa-3d0f27559010","system_id":"levelo_inurba_marseille","lat":43.323464,"lon":5.406297,"is_reserved":false,"is_disabled":false,"rental_uris":{"android":"levelo://app?vid=16373837-b161-407f-b0fa-3d0f27559010","ios":"levelo://app?vid=16373837-b161-407f-b0fa-3d0f27559010"},"vehicle_type_id":"4","last_reported":1702728713,"current_range_meters":31200,"station_id":"ce4bhq92rcd13ifvqhjg","pricing_plan_id":"free"},{"bike_id":"92d8ad60-768d-4718-bbe8-669fe4db4247","system_id":"levelo_inurba_marseille","lat":43.297946,"lon":5.404063,"is_reserved":false,"is_disabled":false,"rental_uris":{"android":"levelo://app?vid=92d8ad60-768d-4718-bbe8-669fe4db4247","ios":"levelo://app?vid=92d8ad60-768d-4718-bbe8-669fe4db4247"},"vehicle_type_id":"4","last_reported":1702728713,"current_range_meters":25200,"station_id":"ce4bh112rcd13ifvqd90","pricing_plan_id":"free"},{"bike_id":"21db073e-3085-40cb-a111-632f2d638031","system_id":"levelo_inurba_marseille","lat":43.284793,"lon":5.384119,"is_reserved":false,"is_disabled":false,"rental_uris":{"android":"levelo://app?vid=21db073e-3085-40cb-a111-632f2d638031","ios":"levelo://app?vid=21db073e-3085-40cb-a111-632f2d638031"},"vehicle_type_id":"4","last_reported":1702728713,"current_range_meters":21200,"station_id":"ce4bh512rcd13ifvqe3g","pricing_plan_id":"free"},{"bike_id":"f4474e33-7a76-4abc-b335-416cce1d3c80","system_id":"levelo_inurba_marseille","lat":43.2885,"lon":5.3931,"is_reserved":false,"is_disabled":false,"rental_uris":{"android":"levelo://app?vid=f4474e33-7a76-4abc-b335-416cce1d3c80","ios":"levelo://app?vid=f4474e33-7a76-4abc-b335-416cce1d3c80"},"vehicle_type_id":"4","last_reported":1702728713,"current_range_meters":0,"station_id":"ce4bh2p2rcd13ifvqdi0","pricing_plan_id":"free"},{"bike_id":"f1aa5cce-d95b-4beb-b780-d4f7104a0d36","system_id":"levelo_inurba_marseille","lat":43.288501,"lon":5.393087,"is_reserved":false,"is_disabled":false,"rental_uris":{"android":"levelo://app?vid=f1aa5cce-d95b-4beb-b780-d4f7104a0d36","ios":"levelo://app?vid=f1aa5cce-d95b-4beb-b780-d4f7104a0d36"},"vehicle_type_id":"4","last_reported":1702728713,"current_range_meters":21600,"station_id":"ce4bh2p2rcd13ifvqdi0","pricing_plan_id":"free"},{"bike_id":"7db1cc23-35d2-4115-8108-97e230bcd44a","system_id":"levelo_inurba_marseille","lat":43.284214,"lon":5.349706,"is_reserved":false,"is_disabled":false,"rental_uris":{"android":"levelo://app?vid=7db1cc23-35d2-4115-8108-97e230bcd44a","ios":"levelo://app?vid=7db1cc23-35d2-4115-8108-97e230bcd44a"},"vehicle_type_id":"4","last_reported":1702728713,"current_range_meters":25200,"station_id":"ce4bhbh2rcd13ifvqepg","pricing_plan_id":"free"},{"bike_id":"60e06cff-4581-4509-817b-9d470882a63f","system_id":"levelo_inurba_marseille","lat":43.284219,"lon":5.3497,"is_reserved":false,"is_disabled":false,"rental_uris":{"android":"levelo://app?vid=60e06cff-4581-4509-817b-9d470882a63f","ios":"levelo://app?vid=60e06cff-4581-4509-817b-9d470882a63f"},"vehicle_type_id":"4","last_reported":1702728713,"current_range_meters":30800,"station_id":"ce4bhbh2rcd13ifvqepg","pricing_plan_id":"free"},{"bike_id":"c1e0074b-d288-4e16-8e61-cbeac7441a5e","system_id":"levelo_inurba_marseille","lat":43.278399,"lon":5.392139,"is_reserved":false,"is_disabled":false,"rental_uris":{"android":"levelo://app?vid=c1e0074b-d288-4e16-8e61-cbeac7441a5e","ios":"levelo://app?vid=c1e0074b-d288-4e16-8e61-cbeac7441a5e"},"vehicle_type_id":"4","last_reported":1702728713,"current_range_meters":0,"station_id":"ce4bhjp2rcd13ifvqga0","pricing_plan_id":"free"},{"bike_id":"15d5ff8b-c777-4bc5-ac60-dbe77d936de8","system_id":"levelo_inurba_marseille","lat":43.28043,"lon":5.36941,"is_reserved":false,"is_disabled":false,"rental_uris":{"android":"levelo://app?vid=15d5ff8b-c777-4bc5-ac60-dbe77d936de8","ios":"levelo://app?vid=15d5ff8b-c777-4bc5-ac60-dbe77d936de8"},"vehicle_type_id":"4","last_reported":1702728713,"current_range_meters":6000,"station_id":"ce4bha12rcd13ifvqef0","pricing_plan_id":"free"},{"bike_id":"2f4db913-53eb-49f3-9db5-9c3e7b53854c","system_id":"levelo_inurba_marseille","lat":43.283502,"lon":5.386471,"is_reserved":false,"is_disabled":false,"rental_uris":{"android":"levelo://app?vid=2f4db913-53eb-49f3-9db5-9c3e7b53854c","ios":"levelo://app?vid=2f4db913-53eb-49f3-9db5-9c3e7b53854c"},"vehicle_type_id":"4","last_reported":1702728713,"current_range_meters":7200,"station_id":"ce4bh492rcd13ifvqdvg","pricing_plan_id":"free"},{"bike_id":"eaba8ecc-f892-45e3-bc2e-ff520507692b","system_id":"levelo_inurba_marseille","lat":43.28039,"lon":5.369297,"is_reserved":false,"is_disabled":false,"rental_uris":{"android":"levelo://app?vid=eaba8ecc-f892-45e3-bc2e-ff520507692b","ios":"levelo://app?vid=eaba8ecc-f892-45e3-bc2e-ff520507692b"},"vehicle_type_id":"4","last_reported":1702728713,"current_range_meters":17600,"station_id":"ce4bha12rcd13ifvqef0","pricing_plan_id":"free"},{"bike_id":"37f0645b-b56c-41f7-845f-c8ee37b137ed","system_id":"levelo_inurba_marseille","lat":43.280382,"lon":5.369291,"is_reserved":false,"is_disabled":false,"rental_uris":{"android":"levelo://app?vid=37f0645b-b56c-41f7-845f-c8ee37b137ed","ios":"levelo://app?vid=37f0645b-b56c-41f7-845f-c8ee37b137ed"},"vehicle_type_id":"4","last_reported":1702728713,"current_range_meters":24800,"station_id":"ce4bha12rcd13ifvqef0","pricing_plan_id":"free"},{"bike_id":"7745446b-5023-4ade-b1ca-1d34fe6e3b85","system_id":"levelo_inurba_marseille","lat":43.28037,"lon":5.36943,"is_reserved":false,"is_disabled":false,"rental_uris":{"android":"levelo://app?vid=7745446b-5023-4ade-b1ca-1d34fe6e3b85","ios":"levelo://app?vid=7745446b-5023-4ade-b1ca-1d34fe6e3b85"},"vehicle_type_id":"4","last_reported":1702728713,"current_range_meters":13600,"station_id":"ce4bha12rcd13ifvqef0","pricing_plan_id":"free"},{"bike_id":"74157772-672f-4d21-a361-6b54d2e9deab","system_id":"levelo_inurba_marseille","lat":43.28035,"lon":5.36942,"is_reserved":false,"is_disabled":false,"rental_uris":{"android":"levelo://app?vid=74157772-672f-4d21-a361-6b54d2e9deab","ios":"levelo://app?vid=74157772-672f-4d21-a361-6b54d2e9deab"},"vehicle_type_id":"4","last_reported":1702728713,"current_range_meters":26000,"station_id":"ce4bha12rcd13ifvqef0","pricing_plan_id":"free"},{"bike_id":"df82e71d-f3a5-4ff5-8458-5f88bbc12328","system_id":"levelo_inurba_marseille","lat":43.281044,"lon":5.378308,"is_reserved":false,"is_disabled":false,"rental_uris":{"android":"levelo://app?vid=df82e71d-f3a5-4ff5-8458-5f88bbc12328","ios":"levelo://app?vid=df82e71d-f3a5-4ff5-8458-5f88bbc12328"},"vehicle_type_id":"4","last_reported":1702728713,"current_range_meters":18800,"station_id":"ce4bha12rcd13ifvqee0","pricing_plan_id":"free"},{"bike_id":"82c904da-9251-4f56-95f2-5112b893befd","system_id":"levelo_inurba_marseille","lat":43.296263,"lon":5.40601,"is_reserved":false,"is_disabled":false,"rental_uris":{"android":"levelo://app?vid=82c904da-9251-4f56-95f2-5112b893befd","ios":"levelo://app?vid=82c904da-9251-4f56-95f2-5112b893befd"},"vehicle_type_id":"4","last_reported":1702728713,"current_range_meters":6400,"station_id":"ce4bh0h2rcd13ifvqd60","pricing_plan_id":"free"},{"bike_id":"70812c14-5477-49de-8029-a285b2ae1ea3","system_id":"levelo_inurba_marseille","lat":43.284462,"lon":5.392121,"is_reserved":false,"is_disabled":false,"rental_uris":{"android":"levelo://app?vid=70812c14-5477-49de-8029-a285b2ae1ea3","ios":"levelo://app?vid=70812c14-5477-49de-8029-a285b2ae1ea3"},"vehicle_type_id":"4","last_reported":1702728713,"current_range_meters":20800,"station_id":"ce4bhoh2rcd13ifvqh5g","pricing_plan_id":"free"},{"bike_id":"4b4681e8-5ae5-40ac-b6b6-d29c248b4938","system_id":"levelo_inurba_marseille","lat":43.304188,"lon":5.412904,"is_reserved":false,"is_disabled":false,"rental_uris":{"android":"levelo://app?vid=4b4681e8-5ae5-40ac-b6b6-d29c248b4938","ios":"levelo://app?vid=4b4681e8-5ae5-40ac-b6b6-d29c248b4938"},"vehicle_type_id":"4","last_reported":1702728713,"current_range_meters":30400,"station_id":"ce4bhop2rcd13ifvqh8g","pricing_plan_id":"free"},{"bike_id":"2524fe99-ed21-43ad-b09d-6c857861a773","system_id":"levelo_inurba_marseille","lat":43.287154,"lon":5.399979,"is_reserved":false,"is_disabled":false,"rental_uris":{"android":"levelo://app?vid=2524fe99-ed21-43ad-b09d-6c857861a773","ios":"levelo://app?vid=2524fe99-ed21-43ad-b09d-6c857861a773"},"vehicle_type_id":"4","last_reported":1702728713,"current_range_meters":21200,"station_id":"ce4bho92rcd13ifvqh3g","pricing_plan_id":"free"},{"bike_id":"77003e33-0070-4d21-bc8b-d304fc4f0ad4","system_id":"levelo_inurba_marseille","lat":43.320045,"lon":5.415048,"is_reserved":false,"is_disabled":false,"rental_uris":{"android":"levelo://app?vid=77003e33-0070-4d21-bc8b-d304fc4f0ad4","ios":"levelo://app?vid=77003e33-0070-4d21-bc8b-d304fc4f0ad4"},"vehicle_type_id":"4","last_reported":1702728713,"current_range_meters":27200,"station_id":"ce4bhq92rcd13ifvqhkg","pricing_plan_id":"free"},{"bike_id":"54b0ebe0-e0bc-41f4-b26d-2af6bde803ff","system_id":"levelo_inurba_marseille","lat":43.27624,"lon":5.36107,"is_reserved":false,"is_disabled":false,"rental_uris":{"android":"levelo://app?vid=54b0ebe0-e0bc-41f4-b26d-2af6bde803ff","ios":"levelo://app?vid=54b0ebe0-e0bc-41f4-b26d-2af6bde803ff"},"vehicle_type_id":"4","last_reported":1702728713,"current_range_meters":24400,"station_id":"ce4bgj92rcd13ifvqbe0","pricing_plan_id":"free"},{"bike_id":"57e30ff7-e4ef-4b9a-81fa-355cec4434d1","system_id":"levelo_inurba_marseille","lat":43.273609,"lon":5.362708,"is_reserved":false,"is_disabled":false,"rental_uris":{"android":"levelo://app?vid=57e30ff7-e4ef-4b9a-81fa-355cec4434d1","ios":"levelo://app?vid=57e30ff7-e4ef-4b9a-81fa-355cec4434d1"},"vehicle_type_id":"4","last_reported":1702728713,"current_range_meters":18400,"station_id":"ce4bhbh2rcd13ifvqeo0","pricing_plan_id":"free"},{"bike_id":"9b85403a-cfa2-41ed-a26c-d7375e88dd0f","system_id":"levelo_inurba_marseille","lat":43.303837,"lon":5.418724,"is_reserved":false,"is_disabled":false,"rental_uris":{"android":"levelo://app?vid=9b85403a-cfa2-41ed-a26c-d7375e88dd0f","ios":"levelo://app?vid=9b85403a-cfa2-41ed-a26c-d7375e88dd0f"},"vehicle_type_id":"4","last_reported":1702728713,"current_range_meters":19600,"station_id":"ce4bhop2rcd13ifvqh7g","pricing_plan_id":"free"},{"bike_id":"40ba33b1-538c-4a2a-94b2-466c547cee8b","system_id":"levelo_inurba_marseille","lat":43.273613,"lon":5.362705,"is_reserved":false,"is_disabled":false,"rental_uris":{"android":"levelo://app?vid=40ba33b1-538c-4a2a-94b2-466c547cee8b","ios":"levelo://app?vid=40ba33b1-538c-4a2a-94b2-466c547cee8b"},"vehicle_type_id":"4","last_reported":1702728713,"current_range_meters":25600,"station_id":"ce4bhbh2rcd13ifvqeo0","pricing_plan_id":"free"},{"bike_id":"5ebbafd3-4425-4b56-91c5-ba048b8c65b7","system_id":"levelo_inurba_marseille","lat":43.273609,"lon":5.362708,"is_reserved":false,"is_disabled":false,"rental_uris":{"android":"levelo://app?vid=5ebbafd3-4425-4b56-91c5-ba048b8c65b7","ios":"levelo://app?vid=5ebbafd3-4425-4b56-91c5-ba048b8c65b7"},"vehicle_type_id":"4","last_reported":1702728713,"current_range_meters":3600,"station_id":"ce4bhbh2rcd13ifvqeo0","pricing_plan_id":"free"},{"bike_id":"7f2c5036-bbca-45ec-975a-7e0fbea4945c","system_id":"levelo_inurba_marseille","lat":43.273609,"lon":5.362708,"is_reserved":false,"is_disabled":false,"rental_uris":{"android":"levelo://app?vid=7f2c5036-bbca-45ec-975a-7e0fbea4945c","ios":"levelo://app?vid=7f2c5036-bbca-45ec-975a-7e0fbea4945c"},"vehicle_type_id":"4","last_reported":1702728713,"current_range_meters":16800,"station_id":"ce4bhbh2rcd13ifvqeo0","pricing_plan_id":"free"},{"bike_id":"e7f3199b-16c7-4ec8-844a-fb3b2f233e43","system_id":"levelo_inurba_marseille","lat":43.317121,"lon":5.423936,"is_reserved":false,"is_disabled":false,"rental_uris":{"android":"levelo://app?vid=e7f3199b-16c7-4ec8-844a-fb3b2f233e43","ios":"levelo://app?vid=e7f3199b-16c7-4ec8-844a-fb3b2f233e43"},"vehicle_type_id":"4","last_reported":1702728713,"current_range_meters":31200,"station_id":"ce4bhp92rcd13ifvqhbg","pricing_plan_id":"free"},{"bike_id":"13b63d08-aaa3-4985-bf57-1f32727c58d1","system_id":"levelo_inurba_marseille","lat":43.310785,"lon":5.424305,"is_reserved":false,"is_disabled":false,"rental_uris":{"android":"levelo://app?vid=13b63d08-aaa3-4985-bf57-1f32727c58d1","ios":"levelo://app?vid=13b63d08-aaa3-4985-bf57-1f32727c58d1"},"vehicle_type_id":"4","last_reported":1702728713,"current_range_meters":30800,"station_id":"ce4bhp92rcd13ifvqhag","pricing_plan_id":"free"},{"bike_id":"93a9a0b0-f09a-4679-973e-f3ebca0caf36","system_id":"levelo_inurba_marseille","lat":43.310785,"lon":5.424305,"is_reserved":false,"is_disabled":false,"rental_uris":{"android":"levelo://app?vid=93a9a0b0-f09a-4679-973e-f3ebca0caf36","ios":"levelo://app?vid=93a9a0b0-f09a-4679-973e-f3ebca0caf36"},"vehicle_type_id":"4","last_reported":1702728713,"current_range_meters":31600,"station_id":"ce4bhp92rcd13ifvqhag","pricing_plan_id":"free"},{"bike_id":"88d21734-a1ec-434c-836c-b0fde0b8c8e9","system_id":"levelo_inurba_marseille","lat":43.310785,"lon":5.424305,"is_reserved":false,"is_disabled":false,"rental_uris":{"android":"levelo://app?vid=88d21734-a1ec-434c-836c-b0fde0b8c8e9","ios":"levelo://app?vid=88d21734-a1ec-434c-836c-b0fde0b8c8e9"},"vehicle_type_id":"4","last_reported":1702728713,"current_range_meters":31600,"station_id":"ce4bhp92rcd13ifvqhag","pricing_plan_id":"free"},{"bike_id":"cdc69067-dad5-415d-b4f3-0a438e350196","system_id":"levelo_inurba_marseille","lat":43.317121,"lon":5.423936,"is_reserved":false,"is_disabled":false,"rental_uris":{"android":"levelo://app?vid=cdc69067-dad5-415d-b4f3-0a438e350196","ios":"levelo://app?vid=cdc69067-dad5-415d-b4f3-0a438e350196"},"vehicle_type_id":"4","last_reported":1702728713,"current_range_meters":26400,"station_id":"ce4bhp92rcd13ifvqhbg","pricing_plan_id":"free"},{"bike_id":"7b7bfaee-0e53-4459-bbde-886e6805f2a5","system_id":"levelo_inurba_marseille","lat":43.317121,"lon":5.423936,"is_reserved":false,"is_disabled":false,"rental_uris":{"android":"levelo://app?vid=7b7bfaee-0e53-4459-bbde-886e6805f2a5","ios":"levelo://app?vid=7b7bfaee-0e53-4459-bbde-886e6805f2a5"},"vehicle_type_id":"4","last_reported":1702728713,"current_range_meters":31200,"station_id":"ce4bhp92rcd13ifvqhbg","pricing_plan_id":"free"},{"bike_id":"882bb515-0ba4-4c21-83bc-3aa9401cde34","system_id":"levelo_inurba_marseille","lat":43.310785,"lon":5.424305,"is_reserved":false,"is_disabled":false,"rental_uris":{"android":"levelo://app?vid=882bb515-0ba4-4c21-83bc-3aa9401cde34","ios":"levelo://app?vid=882bb515-0ba4-4c21-83bc-3aa9401cde34"},"vehicle_type_id":"4","last_reported":1702728713,"current_range_meters":27200,"station_id":"ce4bhp92rcd13ifvqhag","pricing_plan_id":"free"},{"bike_id":"10eadedf-b2e9-4bb9-a1f0-77df69175439","system_id":"levelo_inurba_marseille","lat":43.28386,"lon":5.40852,"is_reserved":false,"is_disabled":false,"rental_uris":{"android":"levelo://app?vid=10eadedf-b2e9-4bb9-a1f0-77df69175439","ios":"levelo://app?vid=10eadedf-b2e9-4bb9-a1f0-77df69175439"},"vehicle_type_id":"4","last_reported":1702728713,"current_range_meters":12400,"station_id":"","pricing_plan_id":"free"},{"bike_id":"781bbc78-d557-4c33-86ef-52ef6e6c2788","system_id":"levelo_inurba_marseille","lat":43.340804,"lon":5.410219,"is_reserved":false,"is_disabled":false,"rental_uris":{"android":"levelo://app?vid=781bbc78-d557-4c33-86ef-52ef6e6c2788","ios":"levelo://app?vid=781bbc78-d557-4c33-86ef-52ef6e6c2788"},"vehicle_type_id":"4","last_reported":1702728713,"current_range_meters":8000,"station_id":"ce4bhqh2rcd13ifvqhlg","pricing_plan_id":"free"},{"bike_id":"3ca2c2d2-99b0-4aa6-a05d-e30f02e6a7fb","system_id":"levelo_inurba_marseille","lat":43.276092,"lon":5.395289,"is_reserved":false,"is_disabled":false,"rental_uris":{"android":"levelo://app?vid=3ca2c2d2-99b0-4aa6-a05d-e30f02e6a7fb","ios":"levelo://app?vid=3ca2c2d2-99b0-4aa6-a05d-e30f02e6a7fb"},"vehicle_type_id":"4","last_reported":1702728713,"current_range_meters":22800,"station_id":"","pricing_plan_id":"free"},{"bike_id":"b3921e0a-201e-49eb-abe3-426c3d5ec3d4","system_id":"levelo_inurba_marseille","lat":43.274099,"lon":5.394019,"is_reserved":false,"is_disabled":false,"rental_uris":{"android":"levelo://app?vid=b3921e0a-201e-49eb-abe3-426c3d5ec3d4","ios":"levelo://app?vid=b3921e0a-201e-49eb-abe3-426c3d5ec3d4"},"vehicle_type_id":"4","last_reported":1702728713,"current_range_meters":6000,"station_id":"ce4bhdp2rcd13ifvqf20","pricing_plan_id":"free"},{"bike_id":"99bcb4da-9698-4512-a158-470244d69d6c","system_id":"levelo_inurba_marseille","lat":43.30414,"lon":5.42536,"is_reserved":false,"is_disabled":false,"rental_uris":{"android":"levelo://app?vid=99bcb4da-9698-4512-a158-470244d69d6c","ios":"levelo://app?vid=99bcb4da-9698-4512-a158-470244d69d6c"},"vehicle_type_id":"4","last_reported":1702728713,"current_range_meters":28400,"station_id":"ce4bhoh2rcd13ifvqh6g","pricing_plan_id":"free"},{"bike_id":"549600fb-47b9-4312-8242-de53dbdf980c","system_id":"levelo_inurba_marseille","lat":43.304096,"lon":5.425385,"is_reserved":false,"is_disabled":false,"rental_uris":{"android":"levelo://app?vid=549600fb-47b9-4312-8242-de53dbdf980c","ios":"levelo://app?vid=549600fb-47b9-4312-8242-de53dbdf980c"},"vehicle_type_id":"4","last_reported":1702728713,"current_range_meters":6800,"station_id":"ce4bhoh2rcd13ifvqh6g","pricing_plan_id":"free"},{"bike_id":"127120c9-2a95-4892-91e0-d0f0a2b77fe5","system_id":"levelo_inurba_marseille","lat":43.30416,"lon":5.42543,"is_reserved":false,"is_disabled":false,"rental_uris":{"android":"levelo://app?vid=127120c9-2a95-4892-91e0-d0f0a2b77fe5","ios":"levelo://app?vid=127120c9-2a95-4892-91e0-d0f0a2b77fe5"},"vehicle_type_id":"4","last_reported":1702728713,"current_range_meters":26800,"station_id":"ce4bhoh2rcd13ifvqh6g","pricing_plan_id":"free"},{"bike_id":"9fa6895d-0e68-493e-b1fb-bfed75b1d89e","system_id":"levelo_inurba_marseille","lat":43.30408,"lon":5.42547,"is_reserved":false,"is_disabled":false,"rental_uris":{"android":"levelo://app?vid=9fa6895d-0e68-493e-b1fb-bfed75b1d89e","ios":"levelo://app?vid=9fa6895d-0e68-493e-b1fb-bfed75b1d89e"},"vehicle_type_id":"4","last_reported":1702728713,"current_range_meters":13600,"station_id":"ce4bhoh2rcd13ifvqh6g","pricing_plan_id":"free"},{"bike_id":"54598bfe-b463-404d-b0a9-319a9ffed791","system_id":"levelo_inurba_marseille","lat":43.295511,"lon":5.422926,"is_reserved":false,"is_disabled":false,"rental_uris":{"android":"levelo://app?vid=54598bfe-b463-404d-b0a9-319a9ffed791","ios":"levelo://app?vid=54598bfe-b463-404d-b0a9-319a9ffed791"},"vehicle_type_id":"4","last_reported":1702728713,"current_range_meters":21200,"station_id":"ce4bhph2rcd13ifvqhdg","pricing_plan_id":"free"},{"bike_id":"f4430ede-dd2c-4486-acef-e8d711b33594","system_id":"levelo_inurba_marseille","lat":43.272124,"lon":5.391768,"is_reserved":false,"is_disabled":false,"rental_uris":{"android":"levelo://app?vid=f4430ede-dd2c-4486-acef-e8d711b33594","ios":"levelo://app?vid=f4430ede-dd2c-4486-acef-e8d711b33594"},"vehicle_type_id":"4","last_reported":1702728713,"current_range_meters":28000,"station_id":"ce4bhhp2rcd13ifvqfm0","pricing_plan_id":"free"},{"bike_id":"7c5e5a9a-9f39-4a14-9573-d5b8ab599dd5","system_id":"levelo_inurba_marseille","lat":43.27191,"lon":5.39229,"is_reserved":false,"is_disabled":false,"rental_uris":{"android":"levelo://app?vid=7c5e5a9a-9f39-4a14-9573-d5b8ab599dd5","ios":"levelo://app?vid=7c5e5a9a-9f39-4a14-9573-d5b8ab599dd5"},"vehicle_type_id":"4","last_reported":1702728713,"current_range_meters":18800,"station_id":"ce4bhhp2rcd13ifvqfm0","pricing_plan_id":"free"},{"bike_id":"0d6154c5-12de-4f6e-81d9-24ca9aefa44e","system_id":"levelo_inurba_marseille","lat":43.278128,"lon":5.407195,"is_reserved":false,"is_disabled":false,"rental_uris":{"android":"levelo://app?vid=0d6154c5-12de-4f6e-81d9-24ca9aefa44e","ios":"levelo://app?vid=0d6154c5-12de-4f6e-81d9-24ca9aefa44e"},"vehicle_type_id":"4","last_reported":1702728713,"current_range_meters":26400,"station_id":"ce4bhnh2rcd13ifvqgtg","pricing_plan_id":"free"},{"bike_id":"10fa6778-3c32-4fd3-bf6a-cdb281e62c59","system_id":"levelo_inurba_marseille","lat":43.269319,"lon":5.389397,"is_reserved":false,"is_disabled":false,"rental_uris":{"android":"levelo://app?vid=10fa6778-3c32-4fd3-bf6a-cdb281e62c59","ios":"levelo://app?vid=10fa6778-3c32-4fd3-bf6a-cdb281e62c59"},"vehicle_type_id":"4","last_reported":1702728713,"current_range_meters":21600,"station_id":"ce4bhhh2rcd13ifvqfl0","pricing_plan_id":"free"},{"bike_id":"b4d8e382-96f0-40e1-a921-d369744c4141","system_id":"levelo_inurba_marseille","lat":43.269319,"lon":5.389397,"is_reserved":false,"is_disabled":false,"rental_uris":{"android":"levelo://app?vid=b4d8e382-96f0-40e1-a921-d369744c4141","ios":"levelo://app?vid=b4d8e382-96f0-40e1-a921-d369744c4141"},"vehicle_type_id":"4","last_reported":1702728713,"current_range_meters":28800,"station_id":"ce4bhhh2rcd13ifvqfl0","pricing_plan_id":"free"},{"bike_id":"9359160e-e5b0-40d0-9883-6e22f8c2f14f","system_id":"levelo_inurba_marseille","lat":43.269319,"lon":5.389397,"is_reserved":false,"is_disabled":false,"rental_uris":{"android":"levelo://app?vid=9359160e-e5b0-40d0-9883-6e22f8c2f14f","ios":"levelo://app?vid=9359160e-e5b0-40d0-9883-6e22f8c2f14f"},"vehicle_type_id":"4","last_reported":1702728713,"current_range_meters":26800,"station_id":"ce4bhhh2rcd13ifvqfl0","pricing_plan_id":"free"},{"bike_id":"db774753-4382-453e-a138-c32d538f9839","system_id":"levelo_inurba_marseille","lat":43.35865,"lon":5.356722,"is_reserved":false,"is_disabled":false,"rental_uris":{"android":"levelo://app?vid=db774753-4382-453e-a138-c32d538f9839","ios":"levelo://app?vid=db774753-4382-453e-a138-c32d538f9839"},"vehicle_type_id":"4","last_reported":1702728713,"current_range_meters":10000,"station_id":"","pricing_plan_id":"free"},{"bike_id":"a735af23-ccbe-47ec-a243-500db7b550af","system_id":"levelo_inurba_marseille","lat":43.26558,"lon":5.37285,"is_reserved":false,"is_disabled":false,"rental_uris":{"android":"levelo://app?vid=a735af23-ccbe-47ec-a243-500db7b550af","ios":"levelo://app?vid=a735af23-ccbe-47ec-a243-500db7b550af"},"vehicle_type_id":"4","last_reported":1702728713,"current_range_meters":16400,"station_id":"ce4bhg12rcd13ifvqf70","pricing_plan_id":"free"},{"bike_id":"b4d86388-1851-4600-991e-55a975b1ffc5","system_id":"levelo_inurba_marseille","lat":43.26556,"lon":5.37284,"is_reserved":false,"is_disabled":false,"rental_uris":{"android":"levelo://app?vid=b4d86388-1851-4600-991e-55a975b1ffc5","ios":"levelo://app?vid=b4d86388-1851-4600-991e-55a975b1ffc5"},"vehicle_type_id":"4","last_reported":1702728713,"current_range_meters":11200,"station_id":"ce4bhg12rcd13ifvqf70","pricing_plan_id":"free"},{"bike_id":"adaeda46-2754-4a8b-a527-0c7f44bb0c39","system_id":"levelo_inurba_marseille","lat":43.265714,"lon":5.372891,"is_reserved":false,"is_disabled":false,"rental_uris":{"android":"levelo://app?vid=adaeda46-2754-4a8b-a527-0c7f44bb0c39","ios":"levelo://app?vid=adaeda46-2754-4a8b-a527-0c7f44bb0c39"},"vehicle_type_id":"4","last_reported":1702728713,"current_range_meters":26800,"station_id":"ce4bhg12rcd13ifvqf70","pricing_plan_id":"free"},{"bike_id":"e1d6f2dc-23fe-4269-9137-96bbbf9cd898","system_id":"levelo_inurba_marseille","lat":43.265513,"lon":5.372872,"is_reserved":false,"is_disabled":false,"rental_uris":{"android":"levelo://app?vid=e1d6f2dc-23fe-4269-9137-96bbbf9cd898","ios":"levelo://app?vid=e1d6f2dc-23fe-4269-9137-96bbbf9cd898"},"vehicle_type_id":"4","last_reported":1702728713,"current_range_meters":26400,"station_id":"","pricing_plan_id":"free"},{"bike_id":"606a0fa5-3f6e-40c3-93cb-11997652773a","system_id":"levelo_inurba_marseille","lat":43.27996,"lon":5.416624,"is_reserved":false,"is_disabled":false,"rental_uris":{"android":"levelo://app?vid=606a0fa5-3f6e-40c3-93cb-11997652773a","ios":"levelo://app?vid=606a0fa5-3f6e-40c3-93cb-11997652773a"},"vehicle_type_id":"4","last_reported":1702728713,"current_range_meters":20000,"station_id":"ce4bho12rcd13ifvqh1g","pricing_plan_id":"free"},{"bike_id":"f9e63a65-a4b8-444f-9007-eff8dba3eec9","system_id":"levelo_inurba_marseille","lat":43.27996,"lon":5.416624,"is_reserved":false,"is_disabled":false,"rental_uris":{"android":"levelo://app?vid=f9e63a65-a4b8-444f-9007-eff8dba3eec9","ios":"levelo://app?vid=f9e63a65-a4b8-444f-9007-eff8dba3eec9"},"vehicle_type_id":"4","last_reported":1702728713,"current_range_meters":32000,"station_id":"ce4bho12rcd13ifvqh1g","pricing_plan_id":"free"},{"bike_id":"271b8659-9593-4686-b154-0f6d00bbba9a","system_id":"levelo_inurba_marseille","lat":43.265569,"lon":5.390047,"is_reserved":false,"is_disabled":false,"rental_uris":{"android":"levelo://app?vid=271b8659-9593-4686-b154-0f6d00bbba9a","ios":"levelo://app?vid=271b8659-9593-4686-b154-0f6d00bbba9a"},"vehicle_type_id":"4","last_reported":1702728713,"current_range_meters":20000,"station_id":"ce4bhe12rcd13ifvqf30","pricing_plan_id":"free"},{"bike_id":"747f2f3f-ade7-4ff0-9e2d-4ae6380ac6f8","system_id":"levelo_inurba_marseille","lat":43.26573,"lon":5.39004,"is_reserved":false,"is_disabled":false,"rental_uris":{"android":"levelo://app?vid=747f2f3f-ade7-4ff0-9e2d-4ae6380ac6f8","ios":"levelo://app?vid=747f2f3f-ade7-4ff0-9e2d-4ae6380ac6f8"},"vehicle_type_id":"4","last_reported":1702728713,"current_range_meters":22800,"station_id":"ce4bhe12rcd13ifvqf30","pricing_plan_id":"free"},{"bike_id":"7b3acfec-7269-4a55-abfa-7819202d73ef","system_id":"levelo_inurba_marseille","lat":43.308051,"lon":5.43527,"is_reserved":false,"is_disabled":false,"rental_uris":{"android":"levelo://app?vid=7b3acfec-7269-4a55-abfa-7819202d73ef","ios":"levelo://app?vid=7b3acfec-7269-4a55-abfa-7819202d73ef"},"vehicle_type_id":"4","last_reported":1702728713,"current_range_meters":28000,"station_id":"ce4bhph2rcd13ifvqheg","pricing_plan_id":"free"},{"bike_id":"762f3283-1c31-4ebc-ba0b-4061bbd29cc7","system_id":"levelo_inurba_marseille","lat":43.265639,"lon":5.389982,"is_reserved":false,"is_disabled":false,"rental_uris":{"android":"levelo://app?vid=762f3283-1c31-4ebc-ba0b-4061bbd29cc7","ios":"levelo://app?vid=762f3283-1c31-4ebc-ba0b-4061bbd29cc7"},"vehicle_type_id":"4","last_reported":1702728713,"current_range_meters":28800,"station_id":"ce4bhe12rcd13ifvqf30","pricing_plan_id":"free"},{"bike_id":"03e8eb3b-933a-4396-b6b4-928a61b3e083","system_id":"levelo_inurba_marseille","lat":43.2656,"lon":5.39,"is_reserved":false,"is_disabled":false,"rental_uris":{"android":"levelo://app?vid=03e8eb3b-933a-4396-b6b4-928a61b3e083","ios":"levelo://app?vid=03e8eb3b-933a-4396-b6b4-928a61b3e083"},"vehicle_type_id":"4","last_reported":1702728713,"current_range_meters":0,"station_id":"ce4bhe12rcd13ifvqf30","pricing_plan_id":"free"},{"bike_id":"f098ff0a-06e1-4e8e-9afa-9d9beaa22c72","system_id":"levelo_inurba_marseille","lat":43.265571,"lon":5.390032,"is_reserved":false,"is_disabled":false,"rental_uris":{"android":"levelo://app?vid=f098ff0a-06e1-4e8e-9afa-9d9beaa22c72","ios":"levelo://app?vid=f098ff0a-06e1-4e8e-9afa-9d9beaa22c72"},"vehicle_type_id":"4","last_reported":1702728713,"current_range_meters":400,"station_id":"ce4bhe12rcd13ifvqf30","pricing_plan_id":"free"},{"bike_id":"3f89a02b-bdc2-4eb0-bdc8-f06806993e8a","system_id":"levelo_inurba_marseille","lat":43.317104,"lon":5.436818,"is_reserved":false,"is_disabled":false,"rental_uris":{"android":"levelo://app?vid=3f89a02b-bdc2-4eb0-bdc8-f06806993e8a","ios":"levelo://app?vid=3f89a02b-bdc2-4eb0-bdc8-f06806993e8a"},"vehicle_type_id":"4","last_reported":1702728713,"current_range_meters":28800,"station_id":"ce4bhp92rcd13ifvqhcg","pricing_plan_id":"free"},{"bike_id":"3460c20a-49a2-48da-ae53-d070416b2b50","system_id":"levelo_inurba_marseille","lat":43.261782,"lon":5.374515,"is_reserved":false,"is_disabled":false,"rental_uris":{"android":"levelo://app?vid=3460c20a-49a2-48da-ae53-d070416b2b50","ios":"levelo://app?vid=3460c20a-49a2-48da-ae53-d070416b2b50"},"vehicle_type_id":"4","last_reported":1702728713,"current_range_meters":30800,"station_id":"ce4bhgp2rcd13ifvqfc0","pricing_plan_id":"free"},{"bike_id":"541acf58-1318-40b2-9b4b-9e61c725e523","system_id":"levelo_inurba_marseille","lat":43.317104,"lon":5.436818,"is_reserved":false,"is_disabled":false,"rental_uris":{"android":"levelo://app?vid=541acf58-1318-40b2-9b4b-9e61c725e523","ios":"levelo://app?vid=541acf58-1318-40b2-9b4b-9e61c725e523"},"vehicle_type_id":"4","last_reported":1702728713,"current_range_meters":18000,"station_id":"ce4bhp92rcd13ifvqhcg","pricing_plan_id":"free"},{"bike_id":"924dd0b6-11bb-4688-9962-d909c563de41","system_id":"levelo_inurba_marseille","lat":43.26175,"lon":5.37441,"is_reserved":false,"is_disabled":false,"rental_uris":{"android":"levelo://app?vid=924dd0b6-11bb-4688-9962-d909c563de41","ios":"levelo://app?vid=924dd0b6-11bb-4688-9962-d909c563de41"},"vehicle_type_id":"4","last_reported":1702728713,"current_range_meters":18400,"station_id":"ce4bhgp2rcd13ifvqfc0","pricing_plan_id":"free"},{"bike_id":"75b73393-4920-495d-b824-a5684a0b544d","system_id":"levelo_inurba_marseille","lat":43.262012,"lon":5.379307,"is_reserved":false,"is_disabled":false,"rental_uris":{"android":"levelo://app?vid=75b73393-4920-495d-b824-a5684a0b544d","ios":"levelo://app?vid=75b73393-4920-495d-b824-a5684a0b544d"},"vehicle_type_id":"4","last_reported":1702728713,"current_range_meters":14000,"station_id":"ce4bhjp2rcd13ifvqg90","pricing_plan_id":"free"},{"bike_id":"ff0c336e-ee98-4703-ad62-49a2cd40717c","system_id":"levelo_inurba_marseille","lat":43.262012,"lon":5.379307,"is_reserved":false,"is_disabled":false,"rental_uris":{"android":"levelo://app?vid=ff0c336e-ee98-4703-ad62-49a2cd40717c","ios":"levelo://app?vid=ff0c336e-ee98-4703-ad62-49a2cd40717c"},"vehicle_type_id":"4","last_reported":1702728713,"current_range_meters":24400,"station_id":"ce4bhjp2rcd13ifvqg90","pricing_plan_id":"free"},{"bike_id":"35913f82-11aa-4c30-9d74-4ea03a106496","system_id":"levelo_inurba_marseille","lat":43.262,"lon":5.3793,"is_reserved":false,"is_disabled":false,"rental_uris":{"android":"levelo://app?vid=35913f82-11aa-4c30-9d74-4ea03a106496","ios":"levelo://app?vid=35913f82-11aa-4c30-9d74-4ea03a106496"},"vehicle_type_id":"4","last_reported":1702728713,"current_range_meters":4000,"station_id":"","pricing_plan_id":"free"},{"bike_id":"5bbbe66c-61cd-4750-945d-eb3c296f9462","system_id":"levelo_inurba_marseille","lat":43.271388,"lon":5.409269,"is_reserved":false,"is_disabled":false,"rental_uris":{"android":"levelo://app?vid=5bbbe66c-61cd-4750-945d-eb3c296f9462","ios":"levelo://app?vid=5bbbe66c-61cd-4750-945d-eb3c296f9462"},"vehicle_type_id":"4","last_reported":1702728713,"current_range_meters":28400,"station_id":"ce4bhl12rcd13ifvqgf0","pricing_plan_id":"free"},{"bike_id":"d4efdc5f-4e01-4147-a07a-554aa085e938","system_id":"levelo_inurba_marseille","lat":43.271388,"lon":5.409269,"is_reserved":false,"is_disabled":false,"rental_uris":{"android":"levelo://app?vid=d4efdc5f-4e01-4147-a07a-554aa085e938","ios":"levelo://app?vid=d4efdc5f-4e01-4147-a07a-554aa085e938"},"vehicle_type_id":"4","last_reported":1702728713,"current_range_meters":24000,"station_id":"ce4bhl12rcd13ifvqgf0","pricing_plan_id":"free"},{"bike_id":"66d0fe02-42be-4211-8e44-68e0cd5d815e","system_id":"levelo_inurba_marseille","lat":43.26202,"lon":5.379299,"is_reserved":false,"is_disabled":false,"rental_uris":{"android":"levelo://app?vid=66d0fe02-42be-4211-8e44-68e0cd5d815e","ios":"levelo://app?vid=66d0fe02-42be-4211-8e44-68e0cd5d815e"},"vehicle_type_id":"4","last_reported":1702728713,"current_range_meters":31200,"station_id":"ce4bhjp2rcd13ifvqg90","pricing_plan_id":"free"},{"bike_id":"6a654ea6-9f8e-4295-9a25-939126b7a917","system_id":"levelo_inurba_marseille","lat":43.26499,"lon":5.39539,"is_reserved":false,"is_disabled":false,"rental_uris":{"android":"levelo://app?vid=6a654ea6-9f8e-4295-9a25-939126b7a917","ios":"levelo://app?vid=6a654ea6-9f8e-4295-9a25-939126b7a917"},"vehicle_type_id":"4","last_reported":1702728713,"current_range_meters":24800,"station_id":"","pricing_plan_id":"free"},{"bike_id":"7b0436b3-ff96-4c5c-8bad-aa3b2a2477cd","system_id":"levelo_inurba_marseille","lat":43.275028,"lon":5.424534,"is_reserved":false,"is_disabled":false,"rental_uris":{"android":"levelo://app?vid=7b0436b3-ff96-4c5c-8bad-aa3b2a2477cd","ios":"levelo://app?vid=7b0436b3-ff96-4c5c-8bad-aa3b2a2477cd"},"vehicle_type_id":"4","last_reported":1702728713,"current_range_meters":29200,"station_id":"ce4bhn92rcd13ifvqgrg","pricing_plan_id":"free"},{"bike_id":"d49c822c-39f5-4a5d-be91-a7e3c6be2340","system_id":"levelo_inurba_marseille","lat":43.25577,"lon":5.38235,"is_reserved":false,"is_disabled":false,"rental_uris":{"android":"levelo://app?vid=d49c822c-39f5-4a5d-be91-a7e3c6be2340","ios":"levelo://app?vid=d49c822c-39f5-4a5d-be91-a7e3c6be2340"},"vehicle_type_id":"4","last_reported":1702728713,"current_range_meters":12800,"station_id":"ce4bhih2rcd13ifvqfs0","pricing_plan_id":"free"},{"bike_id":"5d3389da-62cc-4477-85f5-d0b0eb32d0fa","system_id":"levelo_inurba_marseille","lat":43.258224,"lon":5.394369,"is_reserved":false,"is_disabled":false,"rental_uris":{"android":"levelo://app?vid=5d3389da-62cc-4477-85f5-d0b0eb32d0fa","ios":"levelo://app?vid=5d3389da-62cc-4477-85f5-d0b0eb32d0fa"},"vehicle_type_id":"4","last_reported":1702728713,"current_range_meters":5200,"station_id":"ce4bhip2rcd13ifvqft0","pricing_plan_id":"free"},{"bike_id":"da207c2a-cc75-43b5-b0f5-8e021d7ed434","system_id":"levelo_inurba_marseille","lat":43.258224,"lon":5.394369,"is_reserved":false,"is_disabled":false,"rental_uris":{"android":"levelo://app?vid=da207c2a-cc75-43b5-b0f5-8e021d7ed434","ios":"levelo://app?vid=da207c2a-cc75-43b5-b0f5-8e021d7ed434"},"vehicle_type_id":"4","last_reported":1702728713,"current_range_meters":17600,"station_id":"ce4bhip2rcd13ifvqft0","pricing_plan_id":"free"},{"bike_id":"b1f63a6a-b115-4c25-9a8f-84eb606e95df","system_id":"levelo_inurba_marseille","lat":43.2594,"lon":5.40898,"is_reserved":false,"is_disabled":false,"rental_uris":{"android":"levelo://app?vid=b1f63a6a-b115-4c25-9a8f-84eb606e95df","ios":"levelo://app?vid=b1f63a6a-b115-4c25-9a8f-84eb606e95df"},"vehicle_type_id":"4","last_reported":1702728713,"current_range_meters":22000,"station_id":"ce4bhm92rcd13ifvqglg","pricing_plan_id":"free"},{"bike_id":"33eb5b06-eabb-4af5-8324-fda3edb03521","system_id":"levelo_inurba_marseille","lat":43.25938,"lon":5.40909,"is_reserved":false,"is_disabled":false,"rental_uris":{"android":"levelo://app?vid=33eb5b06-eabb-4af5-8324-fda3edb03521","ios":"levelo://app?vid=33eb5b06-eabb-4af5-8324-fda3edb03521"},"vehicle_type_id":"4","last_reported":1702728713,"current_range_meters":12800,"station_id":"ce4bhm92rcd13ifvqglg","pricing_plan_id":"free"},{"bike_id":"9e9c1ace-693b-4f7b-8f16-ab8c2f2f9236","system_id":"levelo_inurba_marseille","lat":43.259009,"lon":5.40929,"is_reserved":false,"is_disabled":false,"rental_uris":{"android":"levelo://app?vid=9e9c1ace-693b-4f7b-8f16-ab8c2f2f9236","ios":"levelo://app?vid=9e9c1ace-693b-4f7b-8f16-ab8c2f2f9236"},"vehicle_type_id":"4","last_reported":1702728713,"current_range_meters":29600,"station_id":"ce4bhm92rcd13ifvqglg","pricing_plan_id":"free"},{"bike_id":"07e99022-3a40-4b83-a840-d9fbbc83b647","system_id":"levelo_inurba_marseille","lat":43.259013,"lon":5.409301,"is_reserved":false,"is_disabled":false,"rental_uris":{"android":"levelo://app?vid=07e99022-3a40-4b83-a840-d9fbbc83b647","ios":"levelo://app?vid=07e99022-3a40-4b83-a840-d9fbbc83b647"},"vehicle_type_id":"4","last_reported":1702728713,"current_range_meters":20000,"station_id":"ce4bhm92rcd13ifvqglg","pricing_plan_id":"free"},{"bike_id":"188f54e4-94a6-4d4e-b6f5-be653351d5d5","system_id":"levelo_inurba_marseille","lat":43.257079,"lon":5.411051,"is_reserved":false,"is_disabled":false,"rental_uris":{"android":"levelo://app?vid=188f54e4-94a6-4d4e-b6f5-be653351d5d5","ios":"levelo://app?vid=188f54e4-94a6-4d4e-b6f5-be653351d5d5"},"vehicle_type_id":"4","last_reported":1702728713,"current_range_meters":26000,"station_id":"ce4bhkp2rcd13ifvqgd0","pricing_plan_id":"free"},{"bike_id":"92a5b573-8562-47e1-a561-45f07c83ef04","system_id":"levelo_inurba_marseille","lat":43.2479,"lon":5.374457,"is_reserved":false,"is_disabled":false,"rental_uris":{"android":"levelo://app?vid=92a5b573-8562-47e1-a561-45f07c83ef04","ios":"levelo://app?vid=92a5b573-8562-47e1-a561-45f07c83ef04"},"vehicle_type_id":"4","last_reported":1702728713,"current_range_meters":19200,"station_id":"ce4bhgh2rcd13ifvqfb0","pricing_plan_id":"free"},{"bike_id":"6457eea5-2e99-47d8-8c36-7c72a2ed2512","system_id":"levelo_inurba_marseille","lat":43.250966,"lon":5.395186,"is_reserved":false,"is_disabled":false,"rental_uris":{"android":"levelo://app?vid=6457eea5-2e99-47d8-8c36-7c72a2ed2512","ios":"levelo://app?vid=6457eea5-2e99-47d8-8c36-7c72a2ed2512"},"vehicle_type_id":"4","last_reported":1702728713,"current_range_meters":15600,"station_id":"ce4bhm12rcd13ifvqgkg","pricing_plan_id":"free"},{"bike_id":"0542ed22-aa63-4dd4-ac71-b63bf12b258f","system_id":"levelo_inurba_marseille","lat":43.24693,"lon":5.382096,"is_reserved":false,"is_disabled":false,"rental_uris":{"android":"levelo://app?vid=0542ed22-aa63-4dd4-ac71-b63bf12b258f","ios":"levelo://app?vid=0542ed22-aa63-4dd4-ac71-b63bf12b258f"},"vehicle_type_id":"4","last_reported":1702728713,"current_range_meters":31200,"station_id":"ce4bhih2rcd13ifvqfr0","pricing_plan_id":"free"},{"bike_id":"a19439aa-1637-4652-9bd1-94dcff51ab39","system_id":"levelo_inurba_marseille","lat":43.24693,"lon":5.382096,"is_reserved":false,"is_disabled":false,"rental_uris":{"android":"levelo://app?vid=a19439aa-1637-4652-9bd1-94dcff51ab39","ios":"levelo://app?vid=a19439aa-1637-4652-9bd1-94dcff51ab39"},"vehicle_type_id":"4","last_reported":1702728713,"current_range_meters":21600,"station_id":"ce4bhih2rcd13ifvqfr0","pricing_plan_id":"free"},{"bike_id":"cda151f2-9ad2-46c9-9115-b73ba9a06619","system_id":"levelo_inurba_marseille","lat":43.25204,"lon":5.40639,"is_reserved":false,"is_disabled":false,"rental_uris":{"android":"levelo://app?vid=cda151f2-9ad2-46c9-9115-b73ba9a06619","ios":"levelo://app?vid=cda151f2-9ad2-46c9-9115-b73ba9a06619"},"vehicle_type_id":"4","last_reported":1702728713,"current_range_meters":4400,"station_id":"","pricing_plan_id":"free"},{"bike_id":"949d15e9-8df3-4d8f-90d6-7e91ac0bdddf","system_id":"levelo_inurba_marseille","lat":43.246461,"lon":5.389014,"is_reserved":false,"is_disabled":false,"rental_uris":{"android":"levelo://app?vid=949d15e9-8df3-4d8f-90d6-7e91ac0bdddf","ios":"levelo://app?vid=949d15e9-8df3-4d8f-90d6-7e91ac0bdddf"},"vehicle_type_id":"4","last_reported":1702728713,"current_range_meters":21200,"station_id":"ce4bhg12rcd13ifvqf60","pricing_plan_id":"free"},{"bike_id":"894c0d33-2dcf-48f3-bbf5-0588a24f7a06","system_id":"levelo_inurba_marseille","lat":43.243884,"lon":5.370736,"is_reserved":false,"is_disabled":false,"rental_uris":{"android":"levelo://app?vid=894c0d33-2dcf-48f3-bbf5-0588a24f7a06","ios":"levelo://app?vid=894c0d33-2dcf-48f3-bbf5-0588a24f7a06"},"vehicle_type_id":"4","last_reported":1702728713,"current_range_meters":13200,"station_id":"ce4bhhh2rcd13ifvqfk0","pricing_plan_id":"free"},{"bike_id":"d7ad1369-4c1d-4e0a-99a2-ace60e18ffed","system_id":"levelo_inurba_marseille","lat":43.245581,"lon":5.395069,"is_reserved":false,"is_disabled":false,"rental_uris":{"android":"levelo://app?vid=d7ad1369-4c1d-4e0a-99a2-ace60e18ffed","ios":"levelo://app?vid=d7ad1369-4c1d-4e0a-99a2-ace60e18ffed"},"vehicle_type_id":"4","last_reported":1702728713,"current_range_meters":24800,"station_id":"ce4bhlp2rcd13ifvqgjg","pricing_plan_id":"free"},{"bike_id":"2913b0e3-c44c-49f1-ba84-d9d46d3f68b0","system_id":"levelo_inurba_marseille","lat":43.24869,"lon":5.41,"is_reserved":false,"is_disabled":false,"rental_uris":{"android":"levelo://app?vid=2913b0e3-c44c-49f1-ba84-d9d46d3f68b0","ios":"levelo://app?vid=2913b0e3-c44c-49f1-ba84-d9d46d3f68b0"},"vehicle_type_id":"4","last_reported":1702728713,"current_range_meters":19600,"station_id":"","pricing_plan_id":"free"},{"bike_id":"4491be8c-5ac9-4b9d-83bf-d3ce2cdbb232","system_id":"levelo_inurba_marseille","lat":43.240623,"lon":5.377642,"is_reserved":false,"is_disabled":false,"rental_uris":{"android":"levelo://app?vid=4491be8c-5ac9-4b9d-83bf-d3ce2cdbb232","ios":"levelo://app?vid=4491be8c-5ac9-4b9d-83bf-d3ce2cdbb232"},"vehicle_type_id":"4","last_reported":1702728713,"current_range_meters":16400,"station_id":"ce4bhnp2rcd13ifvqgvg","pricing_plan_id":"free"},{"bike_id":"a29e20d4-18d0-4f9c-a13d-90cc9f50c878","system_id":"levelo_inurba_marseille","lat":43.273609,"lon":5.362708,"is_reserved":false,"is_disabled":false,"rental_uris":{"android":"levelo://app?vid=a29e20d4-18d0-4f9c-a13d-90cc9f50c878","ios":"levelo://app?vid=a29e20d4-18d0-4f9c-a13d-90cc9f50c878"},"vehicle_type_id":"4","last_reported":1702728713,"current_range_meters":19600,"station_id":"ce4bhbh2rcd13ifvqeo0","pricing_plan_id":"free"},{"bike_id":"b1f1efa0-c8a3-4715-a419-6c77c91cb79d","system_id":"levelo_inurba_marseille","lat":43.240618,"lon":5.377636,"is_reserved":false,"is_disabled":false,"rental_uris":{"android":"levelo://app?vid=b1f1efa0-c8a3-4715-a419-6c77c91cb79d","ios":"levelo://app?vid=b1f1efa0-c8a3-4715-a419-6c77c91cb79d"},"vehicle_type_id":"4","last_reported":1702728713,"current_range_meters":21200,"station_id":"ce4bhnp2rcd13ifvqgvg","pricing_plan_id":"free"},{"bike_id":"0800850a-4a11-4692-9742-4844f8d4d521","system_id":"levelo_inurba_marseille","lat":43.239588,"lon":5.366238,"is_reserved":false,"is_disabled":false,"rental_uris":{"android":"levelo://app?vid=0800850a-4a11-4692-9742-4844f8d4d521","ios":"levelo://app?vid=0800850a-4a11-4692-9742-4844f8d4d521"},"vehicle_type_id":"4","last_reported":1702728713,"current_range_meters":15600,"station_id":"ce4bhi12rcd13ifvqfp0","pricing_plan_id":"free"},{"bike_id":"ae3ad7fe-fe7e-4320-bde8-71a385e963a0","system_id":"levelo_inurba_marseille","lat":43.239588,"lon":5.366238,"is_reserved":false,"is_disabled":false,"rental_uris":{"android":"levelo://app?vid=ae3ad7fe-fe7e-4320-bde8-71a385e963a0","ios":"levelo://app?vid=ae3ad7fe-fe7e-4320-bde8-71a385e963a0"},"vehicle_type_id":"4","last_reported":1702728713,"current_range_meters":31200,"station_id":"ce4bhi12rcd13ifvqfp0","pricing_plan_id":"free"},{"bike_id":"338540ff-c6d1-4419-a435-ded26144dfa2","system_id":"levelo_inurba_marseille","lat":43.239538,"lon":5.366338,"is_reserved":false,"is_disabled":false,"rental_uris":{"android":"levelo://app?vid=338540ff-c6d1-4419-a435-ded26144dfa2","ios":"levelo://app?vid=338540ff-c6d1-4419-a435-ded26144dfa2"},"vehicle_type_id":"4","last_reported":1702728713,"current_range_meters":29200,"station_id":"ce4bhi12rcd13ifvqfp0","pricing_plan_id":"free"},{"bike_id":"a5be7a02-752c-452e-81d7-6afcc7acad03","system_id":"levelo_inurba_marseille","lat":43.23202,"lon":5.355513,"is_reserved":false,"is_disabled":false,"rental_uris":{"android":"levelo://app?vid=a5be7a02-752c-452e-81d7-6afcc7acad03","ios":"levelo://app?vid=a5be7a02-752c-452e-81d7-6afcc7acad03"},"vehicle_type_id":"4","last_reported":1702728713,"current_range_meters":17600,"station_id":"ce4bhu92rcd13ifvqi70","pricing_plan_id":"free"},{"bike_id":"bf3e6daf-e882-4943-8888-2e2ca6915d4a","system_id":"levelo_inurba_marseille","lat":43.23198,"lon":5.35554,"is_reserved":false,"is_disabled":false,"rental_uris":{"android":"levelo://app?vid=bf3e6daf-e882-4943-8888-2e2ca6915d4a","ios":"levelo://app?vid=bf3e6daf-e882-4943-8888-2e2ca6915d4a"},"vehicle_type_id":"4","last_reported":1702728713,"current_range_meters":14400,"station_id":"ce4bhu92rcd13ifvqi70","pricing_plan_id":"free"},{"bike_id":"6eb66c81-4f2d-442c-ae6a-a2979e409f48","system_id":"levelo_inurba_marseille","lat":43.231919,"lon":5.355532,"is_reserved":false,"is_disabled":false,"rental_uris":{"android":"levelo://app?vid=6eb66c81-4f2d-442c-ae6a-a2979e409f48","ios":"levelo://app?vid=6eb66c81-4f2d-442c-ae6a-a2979e409f48"},"vehicle_type_id":"4","last_reported":1702728713,"current_range_meters":17600,"station_id":"ce4bhu92rcd13ifvqi70","pricing_plan_id":"free"},{"bike_id":"435d75ee-de91-4ee4-89fb-fa5635ccaf42","system_id":"levelo_inurba_marseille","lat":43.231919,"lon":5.355532,"is_reserved":false,"is_disabled":false,"rental_uris":{"android":"levelo://app?vid=435d75ee-de91-4ee4-89fb-fa5635ccaf42","ios":"levelo://app?vid=435d75ee-de91-4ee4-89fb-fa5635ccaf42"},"vehicle_type_id":"4","last_reported":1702728713,"current_range_meters":6400,"station_id":"ce4bhu92rcd13ifvqi70","pricing_plan_id":"free"},{"bike_id":"bb21ca5a-cb13-451e-943b-2dfa4a3b7fbc","system_id":"levelo_inurba_marseille","lat":43.231919,"lon":5.355532,"is_reserved":false,"is_disabled":false,"rental_uris":{"android":"levelo://app?vid=bb21ca5a-cb13-451e-943b-2dfa4a3b7fbc","ios":"levelo://app?vid=bb21ca5a-cb13-451e-943b-2dfa4a3b7fbc"},"vehicle_type_id":"4","last_reported":1702728713,"current_range_meters":31200,"station_id":"ce4bhu92rcd13ifvqi70","pricing_plan_id":"free"},{"bike_id":"547672b1-18af-4711-b9a3-86e73cab70b4","system_id":"levelo_inurba_marseille","lat":43.231919,"lon":5.355532,"is_reserved":false,"is_disabled":false,"rental_uris":{"android":"levelo://app?vid=547672b1-18af-4711-b9a3-86e73cab70b4","ios":"levelo://app?vid=547672b1-18af-4711-b9a3-86e73cab70b4"},"vehicle_type_id":"4","last_reported":1702728713,"current_range_meters":16400,"station_id":"ce4bhu92rcd13ifvqi70","pricing_plan_id":"free"},{"bike_id":"c1f76b82-4e66-4ae8-8e5d-049d6742016a","system_id":"levelo_inurba_marseille","lat":43.23194,"lon":5.35552,"is_reserved":false,"is_disabled":false,"rental_uris":{"android":"levelo://app?vid=c1f76b82-4e66-4ae8-8e5d-049d6742016a","ios":"levelo://app?vid=c1f76b82-4e66-4ae8-8e5d-049d6742016a"},"vehicle_type_id":"4","last_reported":1702728713,"current_range_meters":19600,"station_id":"ce4bhu92rcd13ifvqi70","pricing_plan_id":"free"},{"bike_id":"039c8836-5750-4239-bfe5-c54c2d49b674","system_id":"levelo_inurba_marseille","lat":43.23194,"lon":5.3555,"is_reserved":false,"is_disabled":false,"rental_uris":{"android":"levelo://app?vid=039c8836-5750-4239-bfe5-c54c2d49b674","ios":"levelo://app?vid=039c8836-5750-4239-bfe5-c54c2d49b674"},"vehicle_type_id":"4","last_reported":1702728713,"current_range_meters":14400,"station_id":"ce4bhu92rcd13ifvqi70","pricing_plan_id":"free"},{"bike_id":"bad9b33d-de7d-4c7c-82d1-be01fc455f93","system_id":"levelo_inurba_marseille","lat":43.23194,"lon":5.35546,"is_reserved":false,"is_disabled":false,"rental_uris":{"android":"levelo://app?vid=bad9b33d-de7d-4c7c-82d1-be01fc455f93","ios":"levelo://app?vid=bad9b33d-de7d-4c7c-82d1-be01fc455f93"},"vehicle_type_id":"4","last_reported":1702728713,"current_range_meters":22800,"station_id":"ce4bhu92rcd13ifvqi70","pricing_plan_id":"free"},{"bike_id":"9c8cce66-4278-48f8-9ce8-4f41e5a392c5","system_id":"levelo_inurba_marseille","lat":43.231919,"lon":5.355532,"is_reserved":false,"is_disabled":false,"rental_uris":{"android":"levelo://app?vid=9c8cce66-4278-48f8-9ce8-4f41e5a392c5","ios":"levelo://app?vid=9c8cce66-4278-48f8-9ce8-4f41e5a392c5"},"vehicle_type_id":"4","last_reported":1702728713,"current_range_meters":5600,"station_id":"ce4bhu92rcd13ifvqi70","pricing_plan_id":"free"},{"bike_id":"64295fcd-ca67-4243-ac5e-95b32e82d391","system_id":"levelo_inurba_marseille","lat":43.231919,"lon":5.355532,"is_reserved":false,"is_disabled":false,"rental_uris":{"android":"levelo://app?vid=64295fcd-ca67-4243-ac5e-95b32e82d391","ios":"levelo://app?vid=64295fcd-ca67-4243-ac5e-95b32e82d391"},"vehicle_type_id":"4","last_reported":1702728713,"current_range_meters":15200,"station_id":"ce4bhu92rcd13ifvqi70","pricing_plan_id":"free"},{"bike_id":"8f40641d-ea03-4e11-8c81-5cd047455ed4","system_id":"levelo_inurba_marseille","lat":43.231919,"lon":5.355532,"is_reserved":false,"is_disabled":false,"rental_uris":{"android":"levelo://app?vid=8f40641d-ea03-4e11-8c81-5cd047455ed4","ios":"levelo://app?vid=8f40641d-ea03-4e11-8c81-5cd047455ed4"},"vehicle_type_id":"4","last_reported":1702728713,"current_range_meters":19600,"station_id":"ce4bhu92rcd13ifvqi70","pricing_plan_id":"free"},{"bike_id":"59a5075d-8f46-4a64-85f3-6c3e0f3bcf1e","system_id":"levelo_inurba_marseille","lat":43.231919,"lon":5.355532,"is_reserved":false,"is_disabled":false,"rental_uris":{"android":"levelo://app?vid=59a5075d-8f46-4a64-85f3-6c3e0f3bcf1e","ios":"levelo://app?vid=59a5075d-8f46-4a64-85f3-6c3e0f3bcf1e"},"vehicle_type_id":"4","last_reported":1702728713,"current_range_meters":22800,"station_id":"ce4bhu92rcd13ifvqi70","pricing_plan_id":"free"},{"bike_id":"73cd9c87-b558-4a96-b49b-b12814d070b1","system_id":"levelo_inurba_marseille","lat":43.231919,"lon":5.355532,"is_reserved":false,"is_disabled":false,"rental_uris":{"android":"levelo://app?vid=73cd9c87-b558-4a96-b49b-b12814d070b1","ios":"levelo://app?vid=73cd9c87-b558-4a96-b49b-b12814d070b1"},"vehicle_type_id":"4","last_reported":1702728713,"current_range_meters":6800,"station_id":"ce4bhu92rcd13ifvqi70","pricing_plan_id":"free"},{"bike_id":"e2effc20-8600-4cb3-88e5-e93a2f872714","system_id":"levelo_inurba_marseille","lat":43.231923,"lon":5.355545,"is_reserved":false,"is_disabled":false,"rental_uris":{"android":"levelo://app?vid=e2effc20-8600-4cb3-88e5-e93a2f872714","ios":"levelo://app?vid=e2effc20-8600-4cb3-88e5-e93a2f872714"},"vehicle_type_id":"4","last_reported":1702728713,"current_range_meters":28800,"station_id":"ce4bhu92rcd13ifvqi70","pricing_plan_id":"free"},{"bike_id":"600bdeb8-ea2a-4d1c-a6da-f7a255388a48","system_id":"levelo_inurba_marseille","lat":43.231919,"lon":5.355532,"is_reserved":false,"is_disabled":false,"rental_uris":{"android":"levelo://app?vid=600bdeb8-ea2a-4d1c-a6da-f7a255388a48","ios":"levelo://app?vid=600bdeb8-ea2a-4d1c-a6da-f7a255388a48"},"vehicle_type_id":"4","last_reported":1702728713,"current_range_meters":10800,"station_id":"ce4bhu92rcd13ifvqi70","pricing_plan_id":"free"},{"bike_id":"a6ab5f0e-f0ee-41be-b237-17726a43f065","system_id":"levelo_inurba_marseille","lat":43.23187,"lon":5.355441,"is_reserved":false,"is_disabled":false,"rental_uris":{"android":"levelo://app?vid=a6ab5f0e-f0ee-41be-b237-17726a43f065","ios":"levelo://app?vid=a6ab5f0e-f0ee-41be-b237-17726a43f065"},"vehicle_type_id":"4","last_reported":1702728713,"current_range_meters":29600,"station_id":"ce4bhu92rcd13ifvqi70","pricing_plan_id":"free"},{"bike_id":"d08692a6-497f-44f3-b22b-37e03efea08b","system_id":"levelo_inurba_marseille","lat":43.231793,"lon":5.400044,"is_reserved":false,"is_disabled":false,"rental_uris":{"android":"levelo://app?vid=d08692a6-497f-44f3-b22b-37e03efea08b","ios":"levelo://app?vid=d08692a6-497f-44f3-b22b-37e03efea08b"},"vehicle_type_id":"4","last_reported":1702728713,"current_range_meters":21200,"station_id":"ce4bhn12rcd13ifvqgqg","pricing_plan_id":"free"},{"bike_id":"0065e935-fe44-4a12-8351-a8d1ec5b7748","system_id":"levelo_inurba_marseille","lat":43.231793,"lon":5.400044,"is_reserved":false,"is_disabled":false,"rental_uris":{"android":"levelo://app?vid=0065e935-fe44-4a12-8351-a8d1ec5b7748","ios":"levelo://app?vid=0065e935-fe44-4a12-8351-a8d1ec5b7748"},"vehicle_type_id":"4","last_reported":1702728713,"current_range_meters":16800,"station_id":"ce4bhn12rcd13ifvqgqg","pricing_plan_id":"free"},{"bike_id":"7591c304-548e-4cab-b2c2-be1de5925a19","system_id":"levelo_inurba_marseille","lat":43.231901,"lon":5.399908,"is_reserved":false,"is_disabled":false,"rental_uris":{"android":"levelo://app?vid=7591c304-548e-4cab-b2c2-be1de5925a19","ios":"levelo://app?vid=7591c304-548e-4cab-b2c2-be1de5925a19"},"vehicle_type_id":"4","last_reported":1702728713,"current_range_meters":18000,"station_id":"ce4bhn12rcd13ifvqgqg","pricing_plan_id":"free"},{"bike_id":"ad4a709a-3bbc-4b66-b7ec-31b555a6fb6f","system_id":"levelo_inurba_marseille","lat":43.231794,"lon":5.400052,"is_reserved":false,"is_disabled":false,"rental_uris":{"android":"levelo://app?vid=ad4a709a-3bbc-4b66-b7ec-31b555a6fb6f","ios":"levelo://app?vid=ad4a709a-3bbc-4b66-b7ec-31b555a6fb6f"},"vehicle_type_id":"4","last_reported":1702728713,"current_range_meters":31200,"station_id":"ce4bhn12rcd13ifvqgqg","pricing_plan_id":"free"},{"bike_id":"5e675e68-5f89-4337-9f5e-8b0067b010c6","system_id":"levelo_inurba_marseille","lat":43.231794,"lon":5.400052,"is_reserved":false,"is_disabled":false,"rental_uris":{"android":"levelo://app?vid=5e675e68-5f89-4337-9f5e-8b0067b010c6","ios":"levelo://app?vid=5e675e68-5f89-4337-9f5e-8b0067b010c6"},