{"last_updated":1744222424,"ttl":60,"version":"2.2","data":{"bikes":[{"bike_id":"01e83df3-066e-4d1f-95ce-857f11507022","system_id":"levelo_inurba_marseille","lat":43.2942,"lon":5.38623,"is_reserved":false,"is_disabled":false,"rental_uris":{"android":"levelo://app?vid=01e83df3-066e-4d1f-95ce-857f11507022","ios":"levelo://app?vid=01e83df3-066e-4d1f-95ce-857f11507022"},"vehicle_type_id":"4","last_reported":1744222424,"current_range_meters":2800,"station_id":"ce4bh2h2rcd13ifvqdh0","pricing_plan_id":"cebpf4jnsgd1na2vs0mg"},{"bike_id":"f39be6f5-2f69-4c37-b021-559d20b299a4","system_id":"levelo_inurba_marseille","lat":43.29925,"lon":5.37487,"is_reserved":false,"is_disabled":false,"rental_uris":{"android":"levelo://app?vid=f39be6f5-2f69-4c37-b021-559d20b299a4","ios":"levelo://app?vid=f39be6f5-2f69-4c37-b021-559d20b299a4"},"vehicle_type_id":"4","last_reported":1744222424,"current_range_meters":2800,"station_id":"ce4bgjh2rcd13ifvqbg0","pricing_plan_id":"cebpf4jnsgd1na2vs0mg"},{"bike_id":"aa617705-05bc-4e55-93fe-6d3f41335f13","system_id":"levelo_inurba_marseille","lat":43.29005,"lon":5.35608,"is_reserved":false,"is_disabled":false,"rental_uris":{"android":"levelo://app?vid=aa617705-05bc-4e55-93fe-6d3f41335f13","ios":"levelo://app?vid=aa617705-05bc-4e55-93fe-6d3f41335f13"},"vehicle_type_id":"4","last_reported":1744222424,"current_range_meters":2800,"station_id":"ce4bhb92rcd13ifvqen0","pricing_plan_id":"cebpf4jnsgd1na2vs0mg"},{"bike_id":"5303fdf0-0327-4451-8df0-f03e82974508","system_id":"levelo_inurba_marseille","lat":43.28263,"lon":5.35055,"is_reserved":false,"is_disabled":false,"rental_uris":{"android":"levelo://app?vid=5303fdf0-0327-4451-8df0-f03e82974508","ios":"levelo://app?vid=5303fdf0-0327-4451-8df0-f03e82974508"},"vehicle_type_id":"4","last_reported":1744222424,"current_range_meters":3200,"station_id":"ce4bhbp2rcd13ifvqerg","pricing_plan_id":"cebpf4jnsgd1na2vs0mg"},{"bike_id":"3576b946-70b3-456f-a60a-d98e227f015c","system_id":"levelo_inurba_marseille","lat":43.3012,"lon":5.38249,"is_reserved":false,"is_disabled":false,"rental_uris":{"android":"levelo://app?vid=3576b946-70b3-456f-a60a-d98e227f015c","ios":"levelo://app?vid=3576b946-70b3-456f-a60a-d98e227f015c"},"vehicle_type_id":"4","last_reported":1744222424,"current_range_meters":3200,"station_id":"","pricing_plan_id":"cebpf4jnsgd1na2vs0mg"},{"bike_id":"3a41dcc0-3418-420e-ae86-b8f63baa6729","system_id":"levelo_inurba_marseille","lat":43.30124,"lon":5.39862,"is_reserved":false,"is_disabled":false,"rental_uris":{"android":"levelo://app?vid=3a41dcc0-3418-420e-ae86-b8f63baa6729","ios":"levelo://app?vid=3a41dcc0-3418-420e-ae86-b8f63baa6729"},"vehicle_type_id":"4","last_reported":1744222424,"current_range_meters":3200,"station_id":"ce4bh0h2rcd13ifvqd40","pricing_plan_id":"cebpf4jnsgd1na2vs0mg"},{"bike_id":"89dfd0e1-42d4-477b-8087-7eeae11c13d5","system_id":"levelo_inurba_marseille","lat":43.286072,"lon":5.370687,"is_reserved":false,"is_disabled":false,"rental_uris":{"android":"levelo://app?vid=89dfd0e1-42d4-477b-8087-7eeae11c13d5","ios":"levelo://app?vid=89dfd0e1-42d4-477b-8087-7eeae11c13d5"},"vehicle_type_id":"4","last_reported":1744222424,"current_range_meters":3200,"station_id":"ce4bht12rcd13ifvqi60","pricing_plan_id":"cebpf4jnsgd1na2vs0mg"},{"bike_id":"1f5ede78-5a10-4766-b4bb-f9ce5bb57107","system_id":"levelo_inurba_marseille","lat":43.31696,"lon":5.43704,"is_reserved":false,"is_disabled":false,"rental_uris":{"android":"levelo://app?vid=1f5ede78-5a10-4766-b4bb-f9ce5bb57107","ios":"levelo://app?vid=1f5ede78-5a10-4766-b4bb-f9ce5bb57107"},"vehicle_type_id":"4","last_reported":1744222424,"current_range_meters":3200,"station_id":"ce4bhp92rcd13ifvqhcg","pricing_plan_id":"cebpf4jnsgd1na2vs0mg"},{"bike_id":"3f31f207-3522-4657-a794-551127701951","system_id":"levelo_inurba_marseille","lat":43.27972,"lon":5.41047,"is_reserved":false,"is_disabled":true,"rental_uris":{"android":"levelo://app?vid=3f31f207-3522-4657-a794-551127701951","ios":"levelo://app?vid=3f31f207-3522-4657-a794-551127701951"},"vehicle_type_id":"4","last_reported":1744222424,"current_range_meters":3600,"station_id":"ce4bhnp2rcd13ifvqh0g","pricing_plan_id":"cebpf4jnsgd1na2vs0mg"},{"bike_id":"9329e610-be2c-4ac3-9d96-910a9ea22771","system_id":"levelo_inurba_marseille","lat":43.25498,"lon":5.37647,"is_reserved":false,"is_disabled":false,"rental_uris":{"android":"levelo://app?vid=9329e610-be2c-4ac3-9d96-910a9ea22771","ios":"levelo://app?vid=9329e610-be2c-4ac3-9d96-910a9ea22771"},"vehicle_type_id":"4","last_reported":1744222424,"current_range_meters":3600,"station_id":"ce4bhh12rcd13ifvqff0","pricing_plan_id":"cebpf4jnsgd1na2vs0mg"},{"bike_id":"e5411c57-82ca-4f32-b1a1-2bece661634c","system_id":"levelo_inurba_marseille","lat":43.30298,"lon":5.3921,"is_reserved":false,"is_disabled":false,"rental_uris":{"android":"levelo://app?vid=e5411c57-82ca-4f32-b1a1-2bece661634c","ios":"levelo://app?vid=e5411c57-82ca-4f32-b1a1-2bece661634c"},"vehicle_type_id":"4","last_reported":1744222424,"current_range_meters":3600,"station_id":"ce4bgkh2rcd13ifvqbk0","pricing_plan_id":"cebpf4jnsgd1na2vs0mg"},{"bike_id":"fc102959-337c-4cf0-a601-45550172d508","system_id":"levelo_inurba_marseille","lat":43.2468,"lon":5.38172,"is_reserved":false,"is_disabled":false,"rental_uris":{"android":"levelo://app?vid=fc102959-337c-4cf0-a601-45550172d508","ios":"levelo://app?vid=fc102959-337c-4cf0-a601-45550172d508"},"vehicle_type_id":"4","last_reported":1744222424,"current_range_meters":3600,"station_id":"ce4bhih2rcd13ifvqfr0","pricing_plan_id":"cebpf4jnsgd1na2vs0mg"},{"bike_id":"f54c418b-6b01-4ff7-928b-00a8763a5267","system_id":"levelo_inurba_marseille","lat":43.28719,"lon":5.3793,"is_reserved":false,"is_disabled":false,"rental_uris":{"android":"levelo://app?vid=f54c418b-6b01-4ff7-928b-00a8763a5267","ios":"levelo://app?vid=f54c418b-6b01-4ff7-928b-00a8763a5267"},"vehicle_type_id":"4","last_reported":1744222424,"current_range_meters":3600,"station_id":"ce4bh9p2rcd13ifvqec0","pricing_plan_id":"cebpf4jnsgd1na2vs0mg"},{"bike_id":"61faeab7-d3b1-42ea-8185-a6bb834269b2","system_id":"levelo_inurba_marseille","lat":43.27119,"lon":5.41459,"is_reserved":false,"is_disabled":false,"rental_uris":{"android":"levelo://app?vid=61faeab7-d3b1-42ea-8185-a6bb834269b2","ios":"levelo://app?vid=61faeab7-d3b1-42ea-8185-a6bb834269b2"},"vehicle_type_id":"4","last_reported":1744222424,"current_range_meters":3600,"station_id":"","pricing_plan_id":"cebpf4jnsgd1na2vs0mg"},{"bike_id":"a5893a1f-7c9d-4af5-acab-6328a27154af","system_id":"levelo_inurba_marseille","lat":43.292785,"lon":5.408999,"is_reserved":false,"is_disabled":true,"rental_uris":{"android":"levelo://app?vid=a5893a1f-7c9d-4af5-acab-6328a27154af","ios":"levelo://app?vid=a5893a1f-7c9d-4af5-acab-6328a27154af"},"vehicle_type_id":"4","last_reported":1744222424,"current_range_meters":3600,"station_id":"","pricing_plan_id":"cebpf4jnsgd1na2vs0mg"},{"bike_id":"02319e00-db03-45e6-8650-1ee5d8b713d7","system_id":"levelo_inurba_marseille","lat":43.30138,"lon":5.3877,"is_reserved":false,"is_disabled":false,"rental_uris":{"android":"levelo://app?vid=02319e00-db03-45e6-8650-1ee5d8b713d7","ios":"levelo://app?vid=02319e00-db03-45e6-8650-1ee5d8b713d7"},"vehicle_type_id":"4","last_reported":1744222424,"current_range_meters":4000,"station_id":"ce4bghh2rcd13ifvqb60","pricing_plan_id":"cebpf4jnsgd1na2vs0mg"},{"bike_id":"a5dc0d51-97b0-4a92-b44c-5ff06436f7f5","system_id":"levelo_inurba_marseille","lat":43.311678,"lon":5.387244,"is_reserved":false,"is_disabled":false,"rental_uris":{"android":"levelo://app?vid=a5dc0d51-97b0-4a92-b44c-5ff06436f7f5","ios":"levelo://app?vid=a5dc0d51-97b0-4a92-b44c-5ff06436f7f5"},"vehicle_type_id":"4","last_reported":1744222424,"current_range_meters":4000,"station_id":"ce4bgv12rcd13ifvqcp0","pricing_plan_id":"cebpf4jnsgd1na2vs0mg"},{"bike_id":"ba728d24-8c4f-46e1-8222-1fa05e7dad6c","system_id":"levelo_inurba_marseille","lat":43.30269,"lon":5.40071,"is_reserved":false,"is_disabled":false,"rental_uris":{"android":"levelo://app?vid=ba728d24-8c4f-46e1-8222-1fa05e7dad6c","ios":"levelo://app?vid=ba728d24-8c4f-46e1-8222-1fa05e7dad6c"},"vehicle_type_id":"4","last_reported":1744222424,"current_range_meters":4000,"station_id":"ce4bgvh2rcd13ifvqcs0","pricing_plan_id":"cebpf4jnsgd1na2vs0mg"},{"bike_id":"4cceeb27-bd13-4e12-ab01-f08225ac5afd","system_id":"levelo_inurba_marseille","lat":43.28346,"lon":5.38138,"is_reserved":false,"is_disabled":false,"rental_uris":{"android":"levelo://app?vid=4cceeb27-bd13-4e12-ab01-f08225ac5afd","ios":"levelo://app?vid=4cceeb27-bd13-4e12-ab01-f08225ac5afd"},"vehicle_type_id":"4","last_reported":1744222424,"current_range_meters":4000,"station_id":"ce4bh412rcd13ifvqdr0","pricing_plan_id":"cebpf4jnsgd1na2vs0mg"},{"bike_id":"5c8405e6-5e9b-4749-ab24-f6fffe27c97d","system_id":"levelo_inurba_marseille","lat":43.25119,"lon":5.40315,"is_reserved":false,"is_disabled":false,"rental_uris":{"android":"levelo://app?vid=5c8405e6-5e9b-4749-ab24-f6fffe27c97d","ios":"levelo://app?vid=5c8405e6-5e9b-4749-ab24-f6fffe27c97d"},"vehicle_type_id":"4","last_reported":1744222424,"current_range_meters":4000,"station_id":"ce4bhlh2rcd13ifvqgig","pricing_plan_id":"cebpf4jnsgd1na2vs0mg"},{"bike_id":"95bd8dc4-6acd-4b29-80b2-0a627281d036","system_id":"levelo_inurba_marseille","lat":43.256485,"lon":5.3903,"is_reserved":false,"is_disabled":false,"rental_uris":{"android":"levelo://app?vid=95bd8dc4-6acd-4b29-80b2-0a627281d036","ios":"levelo://app?vid=95bd8dc4-6acd-4b29-80b2-0a627281d036"},"vehicle_type_id":"4","last_reported":1744222424,"current_range_meters":4400,"station_id":"ce4bhip2rcd13ifvqft0","pricing_plan_id":"cebpf4jnsgd1na2vs0mg"},{"bike_id":"3677f565-2486-420b-a632-bca3910432bd","system_id":"levelo_inurba_marseille","lat":43.28937,"lon":5.36637,"is_reserved":false,"is_disabled":false,"rental_uris":{"android":"levelo://app?vid=3677f565-2486-420b-a632-bca3910432bd","ios":"levelo://app?vid=3677f565-2486-420b-a632-bca3910432bd"},"vehicle_type_id":"4","last_reported":1744222424,"current_range_meters":4400,"station_id":"ce4bhap2rcd13ifvqek0","pricing_plan_id":"cebpf4jnsgd1na2vs0mg"},{"bike_id":"488970c7-ad85-4166-a4ad-456252c5bcc5","system_id":"levelo_inurba_marseille","lat":43.27362,"lon":5.40872,"is_reserved":false,"is_disabled":false,"rental_uris":{"android":"levelo://app?vid=488970c7-ad85-4166-a4ad-456252c5bcc5","ios":"levelo://app?vid=488970c7-ad85-4166-a4ad-456252c5bcc5"},"vehicle_type_id":"4","last_reported":1744222424,"current_range_meters":4400,"station_id":"","pricing_plan_id":"cebpf4jnsgd1na2vs0mg"},{"bike_id":"3ea27e54-f8eb-412e-930d-2d778578f9d0","system_id":"levelo_inurba_marseille","lat":43.24046,"lon":5.37784,"is_reserved":false,"is_disabled":false,"rental_uris":{"android":"levelo://app?vid=3ea27e54-f8eb-412e-930d-2d778578f9d0","ios":"levelo://app?vid=3ea27e54-f8eb-412e-930d-2d778578f9d0"},"vehicle_type_id":"4","last_reported":1744222424,"current_range_meters":4800,"station_id":"ce4bhnp2rcd13ifvqgvg","pricing_plan_id":"cebpf4jnsgd1na2vs0mg"},{"bike_id":"475bdb20-9e68-4012-8629-4f0cbb383336","system_id":"levelo_inurba_marseille","lat":43.28075,"lon":5.3966,"is_reserved":false,"is_disabled":false,"rental_uris":{"android":"levelo://app?vid=475bdb20-9e68-4012-8629-4f0cbb383336","ios":"levelo://app?vid=475bdb20-9e68-4012-8629-4f0cbb383336"},"vehicle_type_id":"4","last_reported":1744222424,"current_range_meters":4800,"station_id":"ce4bho12rcd13ifvqh2g","pricing_plan_id":"cebpf4jnsgd1na2vs0mg"},{"bike_id":"c69f9b16-9819-4346-b59d-e22afe8b3007","system_id":"levelo_inurba_marseille","lat":43.28704,"lon":5.39987,"is_reserved":false,"is_disabled":false,"rental_uris":{"android":"levelo://app?vid=c69f9b16-9819-4346-b59d-e22afe8b3007","ios":"levelo://app?vid=c69f9b16-9819-4346-b59d-e22afe8b3007"},"vehicle_type_id":"4","last_reported":1744222424,"current_range_meters":4800,"station_id":"ce4bho92rcd13ifvqh3g","pricing_plan_id":"cebpf4jnsgd1na2vs0mg"},{"bike_id":"a779724c-b53d-4841-8d7a-a4ad3860260b","system_id":"levelo_inurba_marseille","lat":43.28927,"lon":5.38404,"is_reserved":false,"is_disabled":false,"rental_uris":{"android":"levelo://app?vid=a779724c-b53d-4841-8d7a-a4ad3860260b","ios":"levelo://app?vid=a779724c-b53d-4841-8d7a-a4ad3860260b"},"vehicle_type_id":"4","last_reported":1744222424,"current_range_meters":4800,"station_id":"ce4bh612rcd13ifvqe6g","pricing_plan_id":"cebpf4jnsgd1na2vs0mg"},{"bike_id":"213da2f0-63dc-4b34-9d22-b1391fb5da95","system_id":"levelo_inurba_marseille","lat":43.28688,"lon":5.39948,"is_reserved":false,"is_disabled":false,"rental_uris":{"android":"levelo://app?vid=213da2f0-63dc-4b34-9d22-b1391fb5da95","ios":"levelo://app?vid=213da2f0-63dc-4b34-9d22-b1391fb5da95"},"vehicle_type_id":"4","last_reported":1744222424,"current_range_meters":4800,"station_id":"","pricing_plan_id":"cebpf4jnsgd1na2vs0mg"},{"bike_id":"5ca4a481-67cd-4b65-87d7-ae7989e55ba3","system_id":"levelo_inurba_marseille","lat":43.27946,"lon":5.41048,"is_reserved":false,"is_disabled":false,"rental_uris":{"android":"levelo://app?vid=5ca4a481-67cd-4b65-87d7-ae7989e55ba3","ios":"levelo://app?vid=5ca4a481-67cd-4b65-87d7-ae7989e55ba3"},"vehicle_type_id":"4","last_reported":1744222424,"current_range_meters":4800,"station_id":"ce4bhnp2rcd13ifvqh0g","pricing_plan_id":"cebpf4jnsgd1na2vs0mg"},{"bike_id":"0f83edd4-4bd7-4463-a730-ed9e2bbb730f","system_id":"levelo_inurba_marseille","lat":43.29146,"lon":5.37193,"is_reserved":false,"is_disabled":false,"rental_uris":{"android":"levelo://app?vid=0f83edd4-4bd7-4463-a730-ed9e2bbb730f","ios":"levelo://app?vid=0f83edd4-4bd7-4463-a730-ed9e2bbb730f"},"vehicle_type_id":"4","last_reported":1744222424,"current_range_meters":4400,"station_id":"ce4bgh92rcd13ifvqb40","pricing_plan_id":"cebpf4jnsgd1na2vs0mg"},{"bike_id":"437ecc3b-23e3-4c1b-829b-4a8eb58fc2c2","system_id":"levelo_inurba_marseille","lat":43.29168,"lon":5.37169,"is_reserved":false,"is_disabled":false,"rental_uris":{"android":"levelo://app?vid=437ecc3b-23e3-4c1b-829b-4a8eb58fc2c2","ios":"levelo://app?vid=437ecc3b-23e3-4c1b-829b-4a8eb58fc2c2"},"vehicle_type_id":"4","last_reported":1744222424,"current_range_meters":5600,"station_id":"ce4bha92rcd13ifvqeh0","pricing_plan_id":"cebpf4jnsgd1na2vs0mg"},{"bike_id":"ca012479-a626-4aef-a88a-80afa90ae731","system_id":"levelo_inurba_marseille","lat":43.23958,"lon":5.36642,"is_reserved":false,"is_disabled":false,"rental_uris":{"android":"levelo://app?vid=ca012479-a626-4aef-a88a-80afa90ae731","ios":"levelo://app?vid=ca012479-a626-4aef-a88a-80afa90ae731"},"vehicle_type_id":"4","last_reported":1744222424,"current_range_meters":5600,"station_id":"ce4bhi12rcd13ifvqfp0","pricing_plan_id":"cebpf4jnsgd1na2vs0mg"},{"bike_id":"a84bb7ac-1cd6-4f9d-85ff-a944ac89811a","system_id":"levelo_inurba_marseille","lat":43.28918,"lon":5.38383,"is_reserved":false,"is_disabled":false,"rental_uris":{"android":"levelo://app?vid=a84bb7ac-1cd6-4f9d-85ff-a944ac89811a","ios":"levelo://app?vid=a84bb7ac-1cd6-4f9d-85ff-a944ac89811a"},"vehicle_type_id":"4","last_reported":1744222424,"current_range_meters":5600,"station_id":"ce4bh612rcd13ifvqe6g","pricing_plan_id":"cebpf4jnsgd1na2vs0mg"},{"bike_id":"c741c748-b6ec-4bc6-930e-87d4a5e40466","system_id":"levelo_inurba_marseille","lat":43.29704,"lon":5.366,"is_reserved":false,"is_disabled":false,"rental_uris":{"android":"levelo://app?vid=c741c748-b6ec-4bc6-930e-87d4a5e40466","ios":"levelo://app?vid=c741c748-b6ec-4bc6-930e-87d4a5e40466"},"vehicle_type_id":"4","last_reported":1744222424,"current_range_meters":6000,"station_id":"ce4bgn12rcd13ifvqbt0","pricing_plan_id":"cebpf4jnsgd1na2vs0mg"},{"bike_id":"6090bc0a-6bf5-42df-8ad5-818421a19ba2","system_id":"levelo_inurba_marseille","lat":43.283495,"lon":5.381153,"is_reserved":false,"is_disabled":false,"rental_uris":{"android":"levelo://app?vid=6090bc0a-6bf5-42df-8ad5-818421a19ba2","ios":"levelo://app?vid=6090bc0a-6bf5-42df-8ad5-818421a19ba2"},"vehicle_type_id":"4","last_reported":1744222424,"current_range_meters":6000,"station_id":"ce4bh412rcd13ifvqdr0","pricing_plan_id":"cebpf4jnsgd1na2vs0mg"},{"bike_id":"8b1885c7-c990-486a-9363-3a428e6713c7","system_id":"levelo_inurba_marseille","lat":43.28461,"lon":5.35894,"is_reserved":false,"is_disabled":false,"rental_uris":{"android":"levelo://app?vid=8b1885c7-c990-486a-9363-3a428e6713c7","ios":"levelo://app?vid=8b1885c7-c990-486a-9363-3a428e6713c7"},"vehicle_type_id":"4","last_reported":1744222424,"current_range_meters":6000,"station_id":"ce4bhah2rcd13ifvqei0","pricing_plan_id":"cebpf4jnsgd1na2vs0mg"},{"bike_id":"70810d3e-9936-4863-b211-84f880613e88","system_id":"levelo_inurba_marseille","lat":43.31273,"lon":5.37333,"is_reserved":false,"is_disabled":false,"rental_uris":{"android":"levelo://app?vid=70810d3e-9936-4863-b211-84f880613e88","ios":"levelo://app?vid=70810d3e-9936-4863-b211-84f880613e88"},"vehicle_type_id":"4","last_reported":1744222424,"current_range_meters":6000,"station_id":"","pricing_plan_id":"cebpf4jnsgd1na2vs0mg"},{"bike_id":"ec41b842-c84f-4ab1-894c-fc6101e00efb","system_id":"levelo_inurba_marseille","lat":43.31716,"lon":5.40316,"is_reserved":false,"is_disabled":false,"rental_uris":{"android":"levelo://app?vid=ec41b842-c84f-4ab1-894c-fc6101e00efb","ios":"levelo://app?vid=ec41b842-c84f-4ab1-894c-fc6101e00efb"},"vehicle_type_id":"4","last_reported":1744222424,"current_range_meters":6000,"station_id":"","pricing_plan_id":"cebpf4jnsgd1na2vs0mg"},{"bike_id":"806aabc5-a68c-49c9-9a9a-b9e74a1e0ea6","system_id":"levelo_inurba_marseille","lat":43.24806,"lon":5.37459,"is_reserved":false,"is_disabled":false,"rental_uris":{"android":"levelo://app?vid=806aabc5-a68c-49c9-9a9a-b9e74a1e0ea6","ios":"levelo://app?vid=806aabc5-a68c-49c9-9a9a-b9e74a1e0ea6"},"vehicle_type_id":"4","last_reported":1744222424,"current_range_meters":6000,"station_id":"ce4bhgh2rcd13ifvqfb0","pricing_plan_id":"cebpf4jnsgd1na2vs0mg"},{"bike_id":"122cdde6-9512-4fc1-b3dd-8da01087c3ed","system_id":"levelo_inurba_marseille","lat":43.21192,"lon":5.35076,"is_reserved":false,"is_disabled":false,"rental_uris":{"android":"levelo://app?vid=122cdde6-9512-4fc1-b3dd-8da01087c3ed","ios":"levelo://app?vid=122cdde6-9512-4fc1-b3dd-8da01087c3ed"},"vehicle_type_id":"4","last_reported":1744222424,"current_range_meters":6000,"station_id":"","pricing_plan_id":"cebpf4jnsgd1na2vs0mg"},{"bike_id":"49c26656-96d0-43e4-88f3-4cb3e5f10e29","system_id":"levelo_inurba_marseille","lat":43.295373,"lon":5.385474,"is_reserved":false,"is_disabled":false,"rental_uris":{"android":"levelo://app?vid=49c26656-96d0-43e4-88f3-4cb3e5f10e29","ios":"levelo://app?vid=49c26656-96d0-43e4-88f3-4cb3e5f10e29"},"vehicle_type_id":"4","last_reported":1744222424,"current_range_meters":6000,"station_id":"ce4bhah2rcd13ifvqei0","pricing_plan_id":"cebpf4jnsgd1na2vs0mg"},{"bike_id":"2d0ad4c0-ba5f-46ad-a767-8efa37f7740c","system_id":"levelo_inurba_marseille","lat":43.29422,"lon":5.38575,"is_reserved":false,"is_disabled":false,"rental_uris":{"android":"levelo://app?vid=2d0ad4c0-ba5f-46ad-a767-8efa37f7740c","ios":"levelo://app?vid=2d0ad4c0-ba5f-46ad-a767-8efa37f7740c"},"vehicle_type_id":"4","last_reported":1744222424,"current_range_meters":6000,"station_id":"ce4bh2h2rcd13ifvqdh0","pricing_plan_id":"cebpf4jnsgd1na2vs0mg"},{"bike_id":"79b4a3fe-83b6-4a7e-b62d-fbe80c1f5666","system_id":"levelo_inurba_marseille","lat":43.21754,"lon":5.34605,"is_reserved":false,"is_disabled":false,"rental_uris":{"android":"levelo://app?vid=79b4a3fe-83b6-4a7e-b62d-fbe80c1f5666","ios":"levelo://app?vid=79b4a3fe-83b6-4a7e-b62d-fbe80c1f5666"},"vehicle_type_id":"4","last_reported":1744222424,"current_range_meters":6400,"station_id":"st_cvj6r9ubvosntc0bgbag","pricing_plan_id":"cebpf4jnsgd1na2vs0mg"},{"bike_id":"a1d29561-7f0b-4e1b-b476-e144510a0a47","system_id":"levelo_inurba_marseille","lat":43.28031,"lon":5.36947,"is_reserved":false,"is_disabled":false,"rental_uris":{"android":"levelo://app?vid=a1d29561-7f0b-4e1b-b476-e144510a0a47","ios":"levelo://app?vid=a1d29561-7f0b-4e1b-b476-e144510a0a47"},"vehicle_type_id":"4","last_reported":1744222424,"current_range_meters":6400,"station_id":"ce4bha92rcd13ifvqeh0","pricing_plan_id":"cebpf4jnsgd1na2vs0mg"},{"bike_id":"8c57e666-a946-475d-baef-2589b1d549c9","system_id":"levelo_inurba_marseille","lat":43.26212,"lon":5.3744,"is_reserved":false,"is_disabled":false,"rental_uris":{"android":"levelo://app?vid=8c57e666-a946-475d-baef-2589b1d549c9","ios":"levelo://app?vid=8c57e666-a946-475d-baef-2589b1d549c9"},"vehicle_type_id":"4","last_reported":1744222424,"current_range_meters":6400,"station_id":"ce4bhgp2rcd13ifvqfc0","pricing_plan_id":"cebpf4jnsgd1na2vs0mg"},{"bike_id":"630c3cb1-c135-437c-8026-5612773c538d","system_id":"levelo_inurba_marseille","lat":43.28592,"lon":5.38351,"is_reserved":false,"is_disabled":false,"rental_uris":{"android":"levelo://app?vid=630c3cb1-c135-437c-8026-5612773c538d","ios":"levelo://app?vid=630c3cb1-c135-437c-8026-5612773c538d"},"vehicle_type_id":"4","last_reported":1744222424,"current_range_meters":6400,"station_id":"ce4bh512rcd13ifvqe3g","pricing_plan_id":"cebpf4jnsgd1na2vs0mg"},{"bike_id":"b6990e5d-df02-44bb-9a31-1c611fcc00d7","system_id":"levelo_inurba_marseille","lat":43.29194,"lon":5.35808,"is_reserved":false,"is_disabled":false,"rental_uris":{"android":"levelo://app?vid=b6990e5d-df02-44bb-9a31-1c611fcc00d7","ios":"levelo://app?vid=b6990e5d-df02-44bb-9a31-1c611fcc00d7"},"vehicle_type_id":"4","last_reported":1744222424,"current_range_meters":6400,"station_id":"ce4bhb12rcd13ifvqel0","pricing_plan_id":"cebpf4jnsgd1na2vs0mg"},{"bike_id":"30d1b9f2-05f3-47dd-8bfb-29a1d4c148de","system_id":"levelo_inurba_marseille","lat":43.286102,"lon":5.3511,"is_reserved":false,"is_disabled":false,"rental_uris":{"android":"levelo://app?vid=30d1b9f2-05f3-47dd-8bfb-29a1d4c148de","ios":"levelo://app?vid=30d1b9f2-05f3-47dd-8bfb-29a1d4c148de"},"vehicle_type_id":"4","last_reported":1744222424,"current_range_meters":6400,"station_id":"ce4bhch2rcd13ifvqeug","pricing_plan_id":"cebpf4jnsgd1na2vs0mg"},{"bike_id":"74c04506-0f1c-4d67-90ce-03c3d76c28b4","system_id":"levelo_inurba_marseille","lat":43.28709,"lon":5.40005,"is_reserved":false,"is_disabled":false,"rental_uris":{"android":"levelo://app?vid=74c04506-0f1c-4d67-90ce-03c3d76c28b4","ios":"levelo://app?vid=74c04506-0f1c-4d67-90ce-03c3d76c28b4"},"vehicle_type_id":"4","last_reported":1744222424,"current_range_meters":6400,"station_id":"ce4bho92rcd13ifvqh3g","pricing_plan_id":"cebpf4jnsgd1na2vs0mg"},{"bike_id":"3d0cae43-5b75-4aac-b7cb-471ce1151dd5","system_id":"levelo_inurba_marseille","lat":43.33052,"lon":5.39539,"is_reserved":false,"is_disabled":false,"rental_uris":{"android":"levelo://app?vid=3d0cae43-5b75-4aac-b7cb-471ce1151dd5","ios":"levelo://app?vid=3d0cae43-5b75-4aac-b7cb-471ce1151dd5"},"vehicle_type_id":"4","last_reported":1744222424,"current_range_meters":6400,"station_id":"","pricing_plan_id":"cebpf4jnsgd1na2vs0mg"},{"bike_id":"6806d000-65f7-4912-97c7-24bf8c24ae8f","system_id":"levelo_inurba_marseille","lat":43.31154,"lon":5.38435,"is_reserved":false,"is_disabled":false,"rental_uris":{"android":"levelo://app?vid=6806d000-65f7-4912-97c7-24bf8c24ae8f","ios":"levelo://app?vid=6806d000-65f7-4912-97c7-24bf8c24ae8f"},"vehicle_type_id":"4","last_reported":1744222424,"current_range_meters":6400,"station_id":"","pricing_plan_id":"cebpf4jnsgd1na2vs0mg"},{"bike_id":"0592c2e6-9a7c-452c-ad4b-9c02f4decd43","system_id":"levelo_inurba_marseille","lat":43.308007,"lon":5.381699,"is_reserved":false,"is_disabled":false,"rental_uris":{"android":"levelo://app?vid=0592c2e6-9a7c-452c-ad4b-9c02f4decd43","ios":"levelo://app?vid=0592c2e6-9a7c-452c-ad4b-9c02f4decd43"},"vehicle_type_id":"4","last_reported":1744222424,"current_range_meters":4800,"station_id":"ce4bgt12rcd13ifvqce0","pricing_plan_id":"cebpf4jnsgd1na2vs0mg"},{"bike_id":"64be381f-a4cf-4551-b802-a93e3ca5bc44","system_id":"levelo_inurba_marseille","lat":43.3055,"lon":5.36548,"is_reserved":false,"is_disabled":false,"rental_uris":{"android":"levelo://app?vid=64be381f-a4cf-4551-b802-a93e3ca5bc44","ios":"levelo://app?vid=64be381f-a4cf-4551-b802-a93e3ca5bc44"},"vehicle_type_id":"4","last_reported":1744222424,"current_range_meters":6800,"station_id":"ce4bgs12rcd13ifvqcag","pricing_plan_id":"cebpf4jnsgd1na2vs0mg"},{"bike_id":"3bfd792d-8024-4b3d-8c0a-4428de874fa2","system_id":"levelo_inurba_marseille","lat":43.32042,"lon":5.38592,"is_reserved":false,"is_disabled":false,"rental_uris":{"android":"levelo://app?vid=3bfd792d-8024-4b3d-8c0a-4428de874fa2","ios":"levelo://app?vid=3bfd792d-8024-4b3d-8c0a-4428de874fa2"},"vehicle_type_id":"4","last_reported":1744222424,"current_range_meters":6800,"station_id":"","pricing_plan_id":"cebpf4jnsgd1na2vs0mg"},{"bike_id":"37da48c4-5c0c-4597-9b62-c59df7449568","system_id":"levelo_inurba_marseille","lat":43.26028,"lon":5.37551,"is_reserved":false,"is_disabled":false,"rental_uris":{"android":"levelo://app?vid=37da48c4-5c0c-4597-9b62-c59df7449568","ios":"levelo://app?vid=37da48c4-5c0c-4597-9b62-c59df7449568"},"vehicle_type_id":"4","last_reported":1744222424,"current_range_meters":6400,"station_id":"ce4bhgh2rcd13ifvqfa0","pricing_plan_id":"cebpf4jnsgd1na2vs0mg"},{"bike_id":"68d1cc33-0218-451e-8e10-d32225c21263","system_id":"levelo_inurba_marseille","lat":43.23242,"lon":5.43835,"is_reserved":false,"is_disabled":true,"rental_uris":{"android":"levelo://app?vid=68d1cc33-0218-451e-8e10-d32225c21263","ios":"levelo://app?vid=68d1cc33-0218-451e-8e10-d32225c21263"},"vehicle_type_id":"4","last_reported":1744222424,"current_range_meters":6800,"station_id":"ce4bhmp2rcd13ifvqgog","pricing_plan_id":"cebpf4jnsgd1na2vs0mg"},{"bike_id":"5e6ad826-38da-4531-b4ba-2eda8622ede3","system_id":"levelo_inurba_marseille","lat":43.31096,"lon":5.4047,"is_reserved":false,"is_disabled":false,"rental_uris":{"android":"levelo://app?vid=5e6ad826-38da-4531-b4ba-2eda8622ede3","ios":"levelo://app?vid=5e6ad826-38da-4531-b4ba-2eda8622ede3"},"vehicle_type_id":"4","last_reported":1744222424,"current_range_meters":6800,"station_id":"","pricing_plan_id":"cebpf4jnsgd1na2vs0mg"},{"bike_id":"25091db6-7cbc-4d6a-a8ad-6d6900c5c5e6","system_id":"levelo_inurba_marseille","lat":43.28162,"lon":5.426583,"is_reserved":false,"is_disabled":false,"rental_uris":{"android":"levelo://app?vid=25091db6-7cbc-4d6a-a8ad-6d6900c5c5e6","ios":"levelo://app?vid=25091db6-7cbc-4d6a-a8ad-6d6900c5c5e6"},"vehicle_type_id":"4","last_reported":1744222424,"current_range_meters":6800,"station_id":"ce4bhnh2rcd13ifvqgug","pricing_plan_id":"cebpf4jnsgd1na2vs0mg"},{"bike_id":"2e903744-e0ba-4e85-a71e-b22b9eda58f1","system_id":"levelo_inurba_marseille","lat":43.23973,"lon":5.36682,"is_reserved":false,"is_disabled":false,"rental_uris":{"android":"levelo://app?vid=2e903744-e0ba-4e85-a71e-b22b9eda58f1","ios":"levelo://app?vid=2e903744-e0ba-4e85-a71e-b22b9eda58f1"},"vehicle_type_id":"4","last_reported":1744222424,"current_range_meters":7200,"station_id":"ce4bhi12rcd13ifvqfp0","pricing_plan_id":"cebpf4jnsgd1na2vs0mg"},{"bike_id":"5dca8226-8c41-4c36-9bb7-6898bac28605","system_id":"levelo_inurba_marseille","lat":43.27367,"lon":5.3624,"is_reserved":false,"is_disabled":false,"rental_uris":{"android":"levelo://app?vid=5dca8226-8c41-4c36-9bb7-6898bac28605","ios":"levelo://app?vid=5dca8226-8c41-4c36-9bb7-6898bac28605"},"vehicle_type_id":"4","last_reported":1744222424,"current_range_meters":7200,"station_id":"ce4bhbh2rcd13ifvqeo0","pricing_plan_id":"cebpf4jnsgd1na2vs0mg"},{"bike_id":"9c6e1693-42a7-471c-b03d-ce4b50c60765","system_id":"levelo_inurba_marseille","lat":43.31081,"lon":5.42436,"is_reserved":false,"is_disabled":false,"rental_uris":{"android":"levelo://app?vid=9c6e1693-42a7-471c-b03d-ce4b50c60765","ios":"levelo://app?vid=9c6e1693-42a7-471c-b03d-ce4b50c60765"},"vehicle_type_id":"4","last_reported":1744222424,"current_range_meters":7200,"station_id":"ce4bhp92rcd13ifvqhag","pricing_plan_id":"cebpf4jnsgd1na2vs0mg"},{"bike_id":"03926bc9-f9d8-4451-80fc-eb49eedc74e1","system_id":"levelo_inurba_marseille","lat":43.27816,"lon":5.40711,"is_reserved":false,"is_disabled":false,"rental_uris":{"android":"levelo://app?vid=03926bc9-f9d8-4451-80fc-eb49eedc74e1","ios":"levelo://app?vid=03926bc9-f9d8-4451-80fc-eb49eedc74e1"},"vehicle_type_id":"4","last_reported":1744222424,"current_range_meters":7200,"station_id":"ce4bhnh2rcd13ifvqgtg","pricing_plan_id":"cebpf4jnsgd1na2vs0mg"},{"bike_id":"132a824c-bd67-4599-927a-7e11013256c0","system_id":"levelo_inurba_marseille","lat":43.289363,"lon":5.36643,"is_reserved":false,"is_disabled":false,"rental_uris":{"android":"levelo://app?vid=132a824c-bd67-4599-927a-7e11013256c0","ios":"levelo://app?vid=132a824c-bd67-4599-927a-7e11013256c0"},"vehicle_type_id":"4","last_reported":1744222424,"current_range_meters":7200,"station_id":"ce4bhap2rcd13ifvqek0","pricing_plan_id":"cebpf4jnsgd1na2vs0mg"},{"bike_id":"45324981-c2f9-4f46-a1d2-1239f7bcced9","system_id":"levelo_inurba_marseille","lat":43.21784,"lon":5.34613,"is_reserved":false,"is_disabled":false,"rental_uris":{"android":"levelo://app?vid=45324981-c2f9-4f46-a1d2-1239f7bcced9","ios":"levelo://app?vid=45324981-c2f9-4f46-a1d2-1239f7bcced9"},"vehicle_type_id":"4","last_reported":1744222424,"current_range_meters":7200,"station_id":"","pricing_plan_id":"cebpf4jnsgd1na2vs0mg"},{"bike_id":"def8eb27-700b-4854-81a8-671cf5c8b9f4","system_id":"levelo_inurba_marseille","lat":43.30354,"lon":5.41878,"is_reserved":false,"is_disabled":false,"rental_uris":{"android":"levelo://app?vid=def8eb27-700b-4854-81a8-671cf5c8b9f4","ios":"levelo://app?vid=def8eb27-700b-4854-81a8-671cf5c8b9f4"},"vehicle_type_id":"4","last_reported":1744222424,"current_range_meters":7200,"station_id":"ce4bhop2rcd13ifvqh7g","pricing_plan_id":"cebpf4jnsgd1na2vs0mg"},{"bike_id":"3d330149-9dd5-4c2d-a3e0-5bb066b82a7e","system_id":"levelo_inurba_marseille","lat":43.30727,"lon":5.42439,"is_reserved":false,"is_disabled":false,"rental_uris":{"android":"levelo://app?vid=3d330149-9dd5-4c2d-a3e0-5bb066b82a7e","ios":"levelo://app?vid=3d330149-9dd5-4c2d-a3e0-5bb066b82a7e"},"vehicle_type_id":"4","last_reported":1744222424,"current_range_meters":7200,"station_id":"st_cvj6ca6bvosntc0bfgr0","pricing_plan_id":"cebpf4jnsgd1na2vs0mg"},{"bike_id":"29374ad3-c750-42ae-bd2c-4ec6e77d1bf4","system_id":"levelo_inurba_marseille","lat":43.27982,"lon":5.41667,"is_reserved":false,"is_disabled":false,"rental_uris":{"android":"levelo://app?vid=29374ad3-c750-42ae-bd2c-4ec6e77d1bf4","ios":"levelo://app?vid=29374ad3-c750-42ae-bd2c-4ec6e77d1bf4"},"vehicle_type_id":"4","last_reported":1744222424,"current_range_meters":8000,"station_id":"ce4bho12rcd13ifvqh1g","pricing_plan_id":"cebpf4jnsgd1na2vs0mg"},{"bike_id":"4864a023-dc77-4c69-85ef-eecb5500a664","system_id":"levelo_inurba_marseille","lat":43.250901,"lon":5.395278,"is_reserved":false,"is_disabled":false,"rental_uris":{"android":"levelo://app?vid=4864a023-dc77-4c69-85ef-eecb5500a664","ios":"levelo://app?vid=4864a023-dc77-4c69-85ef-eecb5500a664"},"vehicle_type_id":"4","last_reported":1744222424,"current_range_meters":8000,"station_id":"ce4bhm12rcd13ifvqgkg","pricing_plan_id":"cebpf4jnsgd1na2vs0mg"},{"bike_id":"951a075f-4063-499f-95ef-2ec50db6526c","system_id":"levelo_inurba_marseille","lat":43.22929,"lon":5.3541,"is_reserved":false,"is_disabled":false,"rental_uris":{"android":"levelo://app?vid=951a075f-4063-499f-95ef-2ec50db6526c","ios":"levelo://app?vid=951a075f-4063-499f-95ef-2ec50db6526c"},"vehicle_type_id":"4","last_reported":1744222424,"current_range_meters":8000,"station_id":"cpo3532slgdg3j2ikp40","pricing_plan_id":"cebpf4jnsgd1na2vs0mg"},{"bike_id":"7d9b0f50-2418-49f1-9f95-cbaa34628c44","system_id":"levelo_inurba_marseille","lat":43.27493,"lon":5.42448,"is_reserved":false,"is_disabled":false,"rental_uris":{"android":"levelo://app?vid=7d9b0f50-2418-49f1-9f95-cbaa34628c44","ios":"levelo://app?vid=7d9b0f50-2418-49f1-9f95-cbaa34628c44"},"vehicle_type_id":"4","last_reported":1744222424,"current_range_meters":8000,"station_id":"ce4bhn92rcd13ifvqgrg","pricing_plan_id":"cebpf4jnsgd1na2vs0mg"},{"bike_id":"ab5875ce-7c72-4aa8-8c24-1c4dba9345e3","system_id":"levelo_inurba_marseille","lat":43.28672,"lon":5.38671,"is_reserved":false,"is_disabled":false,"rental_uris":{"android":"levelo://app?vid=ab5875ce-7c72-4aa8-8c24-1c4dba9345e3","ios":"levelo://app?vid=ab5875ce-7c72-4aa8-8c24-1c4dba9345e3"},"vehicle_type_id":"4","last_reported":1744222424,"current_range_meters":8000,"station_id":"ce4bh492rcd13ifvqdug","pricing_plan_id":"cebpf4jnsgd1na2vs0mg"},{"bike_id":"b671479f-a702-4c83-9458-13f46b81690f","system_id":"levelo_inurba_marseille","lat":43.26214,"lon":5.37446,"is_reserved":false,"is_disabled":false,"rental_uris":{"android":"levelo://app?vid=b671479f-a702-4c83-9458-13f46b81690f","ios":"levelo://app?vid=b671479f-a702-4c83-9458-13f46b81690f"},"vehicle_type_id":"4","last_reported":1744222424,"current_range_meters":8000,"station_id":"ce4bhgp2rcd13ifvqfc0","pricing_plan_id":"cebpf4jnsgd1na2vs0mg"},{"bike_id":"6d7969e2-8d1d-43e4-b0fc-b51a96bff5bd","system_id":"levelo_inurba_marseille","lat":43.32586,"lon":5.38376,"is_reserved":false,"is_disabled":false,"rental_uris":{"android":"levelo://app?vid=6d7969e2-8d1d-43e4-b0fc-b51a96bff5bd","ios":"levelo://app?vid=6d7969e2-8d1d-43e4-b0fc-b51a96bff5bd"},"vehicle_type_id":"4","last_reported":1744222424,"current_range_meters":8000,"station_id":"","pricing_plan_id":"cebpf4jnsgd1na2vs0mg"},{"bike_id":"f2e6fbb1-5603-456d-9ac2-e1f2fc181679","system_id":"levelo_inurba_marseille","lat":43.28409,"lon":5.34985,"is_reserved":false,"is_disabled":false,"rental_uris":{"android":"levelo://app?vid=f2e6fbb1-5603-456d-9ac2-e1f2fc181679","ios":"levelo://app?vid=f2e6fbb1-5603-456d-9ac2-e1f2fc181679"},"vehicle_type_id":"4","last_reported":1744222424,"current_range_meters":8000,"station_id":"ce4bhbh2rcd13ifvqepg","pricing_plan_id":"cebpf4jnsgd1na2vs0mg"},{"bike_id":"b62ca712-90d1-40bc-b827-117b1bb8ce73","system_id":"levelo_inurba_marseille","lat":43.28721,"lon":5.37936,"is_reserved":false,"is_disabled":false,"rental_uris":{"android":"levelo://app?vid=b62ca712-90d1-40bc-b827-117b1bb8ce73","ios":"levelo://app?vid=b62ca712-90d1-40bc-b827-117b1bb8ce73"},"vehicle_type_id":"4","last_reported":1744222424,"current_range_meters":8400,"station_id":"ce4bh9p2rcd13ifvqec0","pricing_plan_id":"cebpf4jnsgd1na2vs0mg"},{"bike_id":"1adcfecd-7da9-485c-b40f-e62ffc130e51","system_id":"levelo_inurba_marseille","lat":43.21781,"lon":5.3462,"is_reserved":false,"is_disabled":false,"rental_uris":{"android":"levelo://app?vid=1adcfecd-7da9-485c-b40f-e62ffc130e51","ios":"levelo://app?vid=1adcfecd-7da9-485c-b40f-e62ffc130e51"},"vehicle_type_id":"4","last_reported":1744222424,"current_range_meters":8400,"station_id":"","pricing_plan_id":"cebpf4jnsgd1na2vs0mg"},{"bike_id":"bb13073a-4a8f-4949-a501-69a4a9ffd797","system_id":"levelo_inurba_marseille","lat":43.312798,"lon":5.401754,"is_reserved":false,"is_disabled":false,"rental_uris":{"android":"levelo://app?vid=bb13073a-4a8f-4949-a501-69a4a9ffd797","ios":"levelo://app?vid=bb13073a-4a8f-4949-a501-69a4a9ffd797"},"vehicle_type_id":"4","last_reported":1744222424,"current_range_meters":8000,"station_id":"ce4bhpp2rcd13ifvqhgg","pricing_plan_id":"cebpf4jnsgd1na2vs0mg"},{"bike_id":"7c41bab6-0404-4314-b218-f822072c5aba","system_id":"levelo_inurba_marseille","lat":43.24087,"lon":5.37772,"is_reserved":false,"is_disabled":false,"rental_uris":{"android":"levelo://app?vid=7c41bab6-0404-4314-b218-f822072c5aba","ios":"levelo://app?vid=7c41bab6-0404-4314-b218-f822072c5aba"},"vehicle_type_id":"4","last_reported":1744222424,"current_range_meters":8400,"station_id":"ce4bhnp2rcd13ifvqgvg","pricing_plan_id":"cebpf4jnsgd1na2vs0mg"},{"bike_id":"80663e12-6b64-446d-88c9-20255bde1a8a","system_id":"levelo_inurba_marseille","lat":43.30912,"lon":5.39673,"is_reserved":false,"is_disabled":true,"rental_uris":{"android":"levelo://app?vid=80663e12-6b64-446d-88c9-20255bde1a8a","ios":"levelo://app?vid=80663e12-6b64-446d-88c9-20255bde1a8a"},"vehicle_type_id":"4","last_reported":1744222424,"current_range_meters":8400,"station_id":"ce4bh012rcd13ifvqcv0","pricing_plan_id":"cebpf4jnsgd1na2vs0mg"},{"bike_id":"49ff349b-7717-4d87-aa43-5620842c466e","system_id":"levelo_inurba_marseille","lat":43.27057,"lon":5.40266,"is_reserved":false,"is_disabled":false,"rental_uris":{"android":"levelo://app?vid=49ff349b-7717-4d87-aa43-5620842c466e","ios":"levelo://app?vid=49ff349b-7717-4d87-aa43-5620842c466e"},"vehicle_type_id":"4","last_reported":1744222424,"current_range_meters":8400,"station_id":"ce4bhk92rcd13ifvqgc0","pricing_plan_id":"cebpf4jnsgd1na2vs0mg"},{"bike_id":"08f9c0c8-8b33-4578-8a03-20f44d582241","system_id":"levelo_inurba_marseille","lat":43.30571,"lon":5.37035,"is_reserved":false,"is_disabled":false,"rental_uris":{"android":"levelo://app?vid=08f9c0c8-8b33-4578-8a03-20f44d582241","ios":"levelo://app?vid=08f9c0c8-8b33-4578-8a03-20f44d582241"},"vehicle_type_id":"4","last_reported":1744222424,"current_range_meters":8400,"station_id":"","pricing_plan_id":"cebpf4jnsgd1na2vs0mg"},{"bike_id":"cc0b19bd-0040-40ba-8872-0047c3cc2158","system_id":"levelo_inurba_marseille","lat":43.2737,"lon":5.36255,"is_reserved":false,"is_disabled":false,"rental_uris":{"android":"levelo://app?vid=cc0b19bd-0040-40ba-8872-0047c3cc2158","ios":"levelo://app?vid=cc0b19bd-0040-40ba-8872-0047c3cc2158"},"vehicle_type_id":"4","last_reported":1744222424,"current_range_meters":8400,"station_id":"ce4bhbh2rcd13ifvqeo0","pricing_plan_id":"cebpf4jnsgd1na2vs0mg"},{"bike_id":"feca3d9e-12e9-4a3a-8f8a-211aa953b3fa","system_id":"levelo_inurba_marseille","lat":43.29357,"lon":5.41166,"is_reserved":false,"is_disabled":false,"rental_uris":{"android":"levelo://app?vid=feca3d9e-12e9-4a3a-8f8a-211aa953b3fa","ios":"levelo://app?vid=feca3d9e-12e9-4a3a-8f8a-211aa953b3fa"},"vehicle_type_id":"4","last_reported":1744222424,"current_range_meters":8400,"station_id":"","pricing_plan_id":"cebpf4jnsgd1na2vs0mg"},{"bike_id":"a5f81979-db12-42e6-b86b-94d39f8f2d1c","system_id":"levelo_inurba_marseille","lat":43.310816,"lon":5.424384,"is_reserved":false,"is_disabled":false,"rental_uris":{"android":"levelo://app?vid=a5f81979-db12-42e6-b86b-94d39f8f2d1c","ios":"levelo://app?vid=a5f81979-db12-42e6-b86b-94d39f8f2d1c"},"vehicle_type_id":"4","last_reported":1744222424,"current_range_meters":8400,"station_id":"ce4bhp92rcd13ifvqhag","pricing_plan_id":"cebpf4jnsgd1na2vs0mg"},{"bike_id":"b397701f-0d3d-44bf-ab3e-3ccc7e74fb2e","system_id":"levelo_inurba_marseille","lat":43.26415,"lon":5.42263,"is_reserved":false,"is_disabled":false,"rental_uris":{"android":"levelo://app?vid=b397701f-0d3d-44bf-ab3e-3ccc7e74fb2e","ios":"levelo://app?vid=b397701f-0d3d-44bf-ab3e-3ccc7e74fb2e"},"vehicle_type_id":"4","last_reported":1744222424,"current_range_meters":8400,"station_id":"","pricing_plan_id":"cebpf4jnsgd1na2vs0mg"},{"bike_id":"1911d30d-bd99-42fe-af04-589a56acc94b","system_id":"levelo_inurba_marseille","lat":43.2958,"lon":5.3751,"is_reserved":false,"is_disabled":false,"rental_uris":{"android":"levelo://app?vid=1911d30d-bd99-42fe-af04-589a56acc94b","ios":"levelo://app?vid=1911d30d-bd99-42fe-af04-589a56acc94b"},"vehicle_type_id":"4","last_reported":1744222424,"current_range_meters":8800,"station_id":"ce4bgh92rcd13ifvqb50","pricing_plan_id":"cebpf4jnsgd1na2vs0mg"},{"bike_id":"523f199e-c50d-4cd7-8cb0-ecd6da8f7fb1","system_id":"levelo_inurba_marseille","lat":43.31722,"lon":5.42386,"is_reserved":false,"is_disabled":false,"rental_uris":{"android":"levelo://app?vid=523f199e-c50d-4cd7-8cb0-ecd6da8f7fb1","ios":"levelo://app?vid=523f199e-c50d-4cd7-8cb0-ecd6da8f7fb1"},"vehicle_type_id":"4","last_reported":1744222424,"current_range_meters":8800,"station_id":"ce4bhp92rcd13ifvqhbg","pricing_plan_id":"cebpf4jnsgd1na2vs0mg"},{"bike_id":"a6d1aadc-b912-4afb-bc2b-03e1e58d409e","system_id":"levelo_inurba_marseille","lat":43.26948,"lon":5.3863,"is_reserved":false,"is_disabled":false,"rental_uris":{"android":"levelo://app?vid=a6d1aadc-b912-4afb-bc2b-03e1e58d409e","ios":"levelo://app?vid=a6d1aadc-b912-4afb-bc2b-03e1e58d409e"},"vehicle_type_id":"4","last_reported":1744222424,"current_range_meters":8800,"station_id":"ce4bhh92rcd13ifvqfh0","pricing_plan_id":"cebpf4jnsgd1na2vs0mg"},{"bike_id":"4ce1f9c6-ca43-45f6-bad7-55d7134cb815","system_id":"levelo_inurba_marseille","lat":43.28285,"lon":5.35079,"is_reserved":false,"is_disabled":false,"rental_uris":{"android":"levelo://app?vid=4ce1f9c6-ca43-45f6-bad7-55d7134cb815","ios":"levelo://app?vid=4ce1f9c6-ca43-45f6-bad7-55d7134cb815"},"vehicle_type_id":"4","last_reported":1744222424,"current_range_meters":8800,"station_id":"ce4bhbp2rcd13ifvqerg","pricing_plan_id":"cebpf4jnsgd1na2vs0mg"},{"bike_id":"5a514589-cb88-4d0d-a176-9dcbce6008d2","system_id":"levelo_inurba_marseille","lat":43.24825,"lon":5.37468,"is_reserved":false,"is_disabled":false,"rental_uris":{"android":"levelo://app?vid=5a514589-cb88-4d0d-a176-9dcbce6008d2","ios":"levelo://app?vid=5a514589-cb88-4d0d-a176-9dcbce6008d2"},"vehicle_type_id":"4","last_reported":1744222424,"current_range_meters":8800,"station_id":"ce4bhgh2rcd13ifvqfb0","pricing_plan_id":"cebpf4jnsgd1na2vs0mg"},{"bike_id":"d6440cef-e2fe-4ee7-a9ce-25cca3d3f4a8","system_id":"levelo_inurba_marseille","lat":43.28467,"lon":5.38424,"is_reserved":false,"is_disabled":false,"rental_uris":{"android":"levelo://app?vid=d6440cef-e2fe-4ee7-a9ce-25cca3d3f4a8","ios":"levelo://app?vid=d6440cef-e2fe-4ee7-a9ce-25cca3d3f4a8"},"vehicle_type_id":"4","last_reported":1744222424,"current_range_meters":8800,"station_id":"ce4bh512rcd13ifvqe3g","pricing_plan_id":"cebpf4jnsgd1na2vs0mg"},{"bike_id":"794f8372-c137-464b-a859-e933ddc5f5b4","system_id":"levelo_inurba_marseille","lat":43.27953,"lon":5.41067,"is_reserved":false,"is_disabled":false,"rental_uris":{"android":"levelo://app?vid=794f8372-c137-464b-a859-e933ddc5f5b4","ios":"levelo://app?vid=794f8372-c137-464b-a859-e933ddc5f5b4"},"vehicle_type_id":"4","last_reported":1744222424,"current_range_meters":8800,"station_id":"ce4bhnp2rcd13ifvqh0g","pricing_plan_id":"cebpf4jnsgd1na2vs0mg"},{"bike_id":"921da533-f6a3-4e1c-a7ed-eb1f44b3a31d","system_id":"levelo_inurba_marseille","lat":43.2762,"lon":5.36108,"is_reserved":false,"is_disabled":false,"rental_uris":{"android":"levelo://app?vid=921da533-f6a3-4e1c-a7ed-eb1f44b3a31d","ios":"levelo://app?vid=921da533-f6a3-4e1c-a7ed-eb1f44b3a31d"},"vehicle_type_id":"4","last_reported":1744222424,"current_range_meters":8800,"station_id":"ce4bgj92rcd13ifvqbe0","pricing_plan_id":"cebpf4jnsgd1na2vs0mg"},{"bike_id":"0e7051ad-00f7-4897-9995-929c1987289a","system_id":"levelo_inurba_marseille","lat":43.33043,"lon":5.39065,"is_reserved":false,"is_disabled":false,"rental_uris":{"android":"levelo://app?vid=0e7051ad-00f7-4897-9995-929c1987289a","ios":"levelo://app?vid=0e7051ad-00f7-4897-9995-929c1987289a"},"vehicle_type_id":"4","last_reported":1744222424,"current_range_meters":8800,"station_id":"ce4bhr92rcd13ifvqhrg","pricing_plan_id":"cebpf4jnsgd1na2vs0mg"},{"bike_id":"3c1d2a7a-fd10-4760-bed4-5ab1893bb466","system_id":"levelo_inurba_marseille","lat":43.29938,"lon":5.36549,"is_reserved":false,"is_disabled":false,"rental_uris":{"android":"levelo://app?vid=3c1d2a7a-fd10-4760-bed4-5ab1893bb466","ios":"levelo://app?vid=3c1d2a7a-fd10-4760-bed4-5ab1893bb466"},"vehicle_type_id":"4","last_reported":1744222424,"current_range_meters":8800,"station_id":"ce4bgm92rcd13ifvqbr0","pricing_plan_id":"cebpf4jnsgd1na2vs0mg"},{"bike_id":"b2f49f10-26ef-464f-a199-a59879ec27e0","system_id":"levelo_inurba_marseille","lat":43.29202,"lon":5.39322,"is_reserved":false,"is_disabled":false,"rental_uris":{"android":"levelo://app?vid=b2f49f10-26ef-464f-a199-a59879ec27e0","ios":"levelo://app?vid=b2f49f10-26ef-464f-a199-a59879ec27e0"},"vehicle_type_id":"4","last_reported":1744222424,"current_range_meters":9200,"station_id":"ce4bh192rcd13ifvqdd0","pricing_plan_id":"cebpf4jnsgd1na2vs0mg"},{"bike_id":"895885fe-8209-410c-85c8-fcc3669c615d","system_id":"levelo_inurba_marseille","lat":43.28604,"lon":5.37068,"is_reserved":false,"is_disabled":false,"rental_uris":{"android":"levelo://app?vid=895885fe-8209-410c-85c8-fcc3669c615d","ios":"levelo://app?vid=895885fe-8209-410c-85c8-fcc3669c615d"},"vehicle_type_id":"4","last_reported":1744222424,"current_range_meters":9200,"station_id":"ce4bht12rcd13ifvqi60","pricing_plan_id":"cebpf4jnsgd1na2vs0mg"},{"bike_id":"a4df716a-3ebd-4c20-a0b7-02609222c934","system_id":"levelo_inurba_marseille","lat":43.28443,"lon":5.39209,"is_reserved":false,"is_disabled":false,"rental_uris":{"android":"levelo://app?vid=a4df716a-3ebd-4c20-a0b7-02609222c934","ios":"levelo://app?vid=a4df716a-3ebd-4c20-a0b7-02609222c934"},"vehicle_type_id":"4","last_reported":1744222424,"current_range_meters":9200,"station_id":"ce4bhoh2rcd13ifvqh5g","pricing_plan_id":"cebpf4jnsgd1na2vs0mg"},{"bike_id":"1edab1b3-58b6-4885-8608-6066fb810ed7","system_id":"levelo_inurba_marseille","lat":43.31136,"lon":5.37806,"is_reserved":false,"is_disabled":false,"rental_uris":{"android":"levelo://app?vid=1edab1b3-58b6-4885-8608-6066fb810ed7","ios":"levelo://app?vid=1edab1b3-58b6-4885-8608-6066fb810ed7"},"vehicle_type_id":"4","last_reported":1744222424,"current_range_meters":9200,"station_id":"ce4bgt92rcd13ifvqcg0","pricing_plan_id":"cebpf4jnsgd1na2vs0mg"},{"bike_id":"6885d33b-f8cb-4779-b90d-932974d0cec6","system_id":"levelo_inurba_marseille","lat":43.2621,"lon":5.37439,"is_reserved":false,"is_disabled":false,"rental_uris":{"android":"levelo://app?vid=6885d33b-f8cb-4779-b90d-932974d0cec6","ios":"levelo://app?vid=6885d33b-f8cb-4779-b90d-932974d0cec6"},"vehicle_type_id":"4","last_reported":1744222424,"current_range_meters":9200,"station_id":"ce4bhgp2rcd13ifvqfc0","pricing_plan_id":"cebpf4jnsgd1na2vs0mg"},{"bike_id":"b83f5d56-be0a-4603-8ebb-6e6897497140","system_id":"levelo_inurba_marseille","lat":43.24813,"lon":5.37456,"is_reserved":false,"is_disabled":false,"rental_uris":{"android":"levelo://app?vid=b83f5d56-be0a-4603-8ebb-6e6897497140","ios":"levelo://app?vid=b83f5d56-be0a-4603-8ebb-6e6897497140"},"vehicle_type_id":"4","last_reported":1744222424,"current_range_meters":9200,"station_id":"ce4bhgh2rcd13ifvqfb0","pricing_plan_id":"cebpf4jnsgd1na2vs0mg"},{"bike_id":"841cc48f-644f-4c42-a397-236e943da4b4","system_id":"levelo_inurba_marseille","lat":43.27072,"lon":5.42259,"is_reserved":false,"is_disabled":false,"rental_uris":{"android":"levelo://app?vid=841cc48f-644f-4c42-a397-236e943da4b4","ios":"levelo://app?vid=841cc48f-644f-4c42-a397-236e943da4b4"},"vehicle_type_id":"4","last_reported":1744222424,"current_range_meters":9200,"station_id":"ce4bhk92rcd13ifvqgb0","pricing_plan_id":"cebpf4jnsgd1na2vs0mg"},{"bike_id":"0d05c424-4af6-4961-bebd-f107bfa0153f","system_id":"levelo_inurba_marseille","lat":43.2815,"lon":5.42661,"is_reserved":false,"is_disabled":false,"rental_uris":{"android":"levelo://app?vid=0d05c424-4af6-4961-bebd-f107bfa0153f","ios":"levelo://app?vid=0d05c424-4af6-4961-bebd-f107bfa0153f"},"vehicle_type_id":"4","last_reported":1744222424,"current_range_meters":9200,"station_id":"ce4bhnh2rcd13ifvqgug","pricing_plan_id":"cebpf4jnsgd1na2vs0mg"},{"bike_id":"6de53f62-c763-4de7-879a-84dfda39e571","system_id":"levelo_inurba_marseille","lat":43.28269,"lon":5.35071,"is_reserved":false,"is_disabled":false,"rental_uris":{"android":"levelo://app?vid=6de53f62-c763-4de7-879a-84dfda39e571","ios":"levelo://app?vid=6de53f62-c763-4de7-879a-84dfda39e571"},"vehicle_type_id":"4","last_reported":1744222424,"current_range_meters":9600,"station_id":"ce4bhbp2rcd13ifvqerg","pricing_plan_id":"cebpf4jnsgd1na2vs0mg"},{"bike_id":"ab29a2e3-2fba-480e-905f-aa7fea000cd3","system_id":"levelo_inurba_marseille","lat":43.26803,"lon":5.40268,"is_reserved":false,"is_disabled":false,"rental_uris":{"android":"levelo://app?vid=ab29a2e3-2fba-480e-905f-aa7fea000cd3","ios":"levelo://app?vid=ab29a2e3-2fba-480e-905f-aa7fea000cd3"},"vehicle_type_id":"4","last_reported":1744222424,"current_range_meters":9600,"station_id":"ce501612rcd8frsf0b60","pricing_plan_id":"cebpf4jnsgd1na2vs0mg"},{"bike_id":"775733a9-8be6-4b1a-bfa1-d68b64a4b98a","system_id":"levelo_inurba_marseille","lat":43.27361,"lon":5.36252,"is_reserved":false,"is_disabled":false,"rental_uris":{"android":"levelo://app?vid=775733a9-8be6-4b1a-bfa1-d68b64a4b98a","ios":"levelo://app?vid=775733a9-8be6-4b1a-bfa1-d68b64a4b98a"},"vehicle_type_id":"4","last_reported":1744222424,"current_range_meters":9600,"station_id":"ce4bhbh2rcd13ifvqeo0","pricing_plan_id":"cebpf4jnsgd1na2vs0mg"},{"bike_id":"d2201d12-2a92-4e5d-a406-0f2fcf65b73a","system_id":"levelo_inurba_marseille","lat":43.24063,"lon":5.37758,"is_reserved":false,"is_disabled":false,"rental_uris":{"android":"levelo://app?vid=d2201d12-2a92-4e5d-a406-0f2fcf65b73a","ios":"levelo://app?vid=d2201d12-2a92-4e5d-a406-0f2fcf65b73a"},"vehicle_type_id":"4","last_reported":1744222424,"current_range_meters":9600,"station_id":"ce4bhnp2rcd13ifvqgvg","pricing_plan_id":"cebpf4jnsgd1na2vs0mg"},{"bike_id":"52a71485-526c-49df-a754-dfa1c945cb42","system_id":"levelo_inurba_marseille","lat":43.30378,"lon":5.4249,"is_reserved":false,"is_disabled":false,"rental_uris":{"android":"levelo://app?vid=52a71485-526c-49df-a754-dfa1c945cb42","ios":"levelo://app?vid=52a71485-526c-49df-a754-dfa1c945cb42"},"vehicle_type_id":"4","last_reported":1744222424,"current_range_meters":9600,"station_id":"ce4bhoh2rcd13ifvqh6g","pricing_plan_id":"cebpf4jnsgd1na2vs0mg"},{"bike_id":"801fe174-adb0-4c3d-b586-00ae6206ab4a","system_id":"levelo_inurba_marseille","lat":43.30799,"lon":5.38156,"is_reserved":false,"is_disabled":false,"rental_uris":{"android":"levelo://app?vid=801fe174-adb0-4c3d-b586-00ae6206ab4a","ios":"levelo://app?vid=801fe174-adb0-4c3d-b586-00ae6206ab4a"},"vehicle_type_id":"4","last_reported":1744222424,"current_range_meters":9600,"station_id":"ce4bgt12rcd13ifvqce0","pricing_plan_id":"cebpf4jnsgd1na2vs0mg"},{"bike_id":"85c6c1a7-1e02-4ae5-b680-67cbc15bed7f","system_id":"levelo_inurba_marseille","lat":43.27504,"lon":5.42495,"is_reserved":false,"is_disabled":false,"rental_uris":{"android":"levelo://app?vid=85c6c1a7-1e02-4ae5-b680-67cbc15bed7f","ios":"levelo://app?vid=85c6c1a7-1e02-4ae5-b680-67cbc15bed7f"},"vehicle_type_id":"4","last_reported":1744222424,"current_range_meters":10000,"station_id":"ce4bhn92rcd13ifvqgrg","pricing_plan_id":"cebpf4jnsgd1na2vs0mg"},{"bike_id":"1a8c3bfa-7658-4f5e-93b8-93807ec24b6f","system_id":"levelo_inurba_marseille","lat":43.26565,"lon":5.39005,"is_reserved":false,"is_disabled":true,"rental_uris":{"android":"levelo://app?vid=1a8c3bfa-7658-4f5e-93b8-93807ec24b6f","ios":"levelo://app?vid=1a8c3bfa-7658-4f5e-93b8-93807ec24b6f"},"vehicle_type_id":"4","last_reported":1744222424,"current_range_meters":10000,"station_id":"ce4bhe12rcd13ifvqf30","pricing_plan_id":"cebpf4jnsgd1na2vs0mg"},{"bike_id":"fcf1f2f3-5533-4ea3-be58-d4acaf0b4741","system_id":"levelo_inurba_marseille","lat":43.24818,"lon":5.37451,"is_reserved":false,"is_disabled":false,"rental_uris":{"android":"levelo://app?vid=fcf1f2f3-5533-4ea3-be58-d4acaf0b4741","ios":"levelo://app?vid=fcf1f2f3-5533-4ea3-be58-d4acaf0b4741"},"vehicle_type_id":"4","last_reported":1744222424,"current_range_meters":10000,"station_id":"ce4bhgh2rcd13ifvqfb0","pricing_plan_id":"cebpf4jnsgd1na2vs0mg"},{"bike_id":"59b621ed-81cf-40df-a684-917ebf84494c","system_id":"levelo_inurba_marseille","lat":43.28618,"lon":5.35082,"is_reserved":false,"is_disabled":false,"rental_uris":{"android":"levelo://app?vid=59b621ed-81cf-40df-a684-917ebf84494c","ios":"levelo://app?vid=59b621ed-81cf-40df-a684-917ebf84494c"},"vehicle_type_id":"4","last_reported":1744222424,"current_range_meters":10000,"station_id":"ce4bhch2rcd13ifvqeug","pricing_plan_id":"cebpf4jnsgd1na2vs0mg"},{"bike_id":"78441610-129e-4c39-b251-5947c2cb206d","system_id":"levelo_inurba_marseille","lat":43.23969,"lon":5.36663,"is_reserved":false,"is_disabled":false,"rental_uris":{"android":"levelo://app?vid=78441610-129e-4c39-b251-5947c2cb206d","ios":"levelo://app?vid=78441610-129e-4c39-b251-5947c2cb206d"},"vehicle_type_id":"4","last_reported":1744222424,"current_range_meters":10000,"station_id":"ce4bhi12rcd13ifvqfp0","pricing_plan_id":"cebpf4jnsgd1na2vs0mg"},{"bike_id":"11d1f6c8-c387-48a8-9624-7d0cd559cafb","system_id":"levelo_inurba_marseille","lat":43.27898,"lon":5.38009,"is_reserved":false,"is_disabled":false,"rental_uris":{"android":"levelo://app?vid=11d1f6c8-c387-48a8-9624-7d0cd559cafb","ios":"levelo://app?vid=11d1f6c8-c387-48a8-9624-7d0cd559cafb"},"vehicle_type_id":"4","last_reported":1744222424,"current_range_meters":10000,"station_id":"ce4bhf92rcd13ifvqf50","pricing_plan_id":"cebpf4jnsgd1na2vs0mg"},{"bike_id":"8fa78f52-8834-4b2c-8a1d-e4f911c35cd4","system_id":"levelo_inurba_marseille","lat":43.25723,"lon":5.41082,"is_reserved":false,"is_disabled":true,"rental_uris":{"android":"levelo://app?vid=8fa78f52-8834-4b2c-8a1d-e4f911c35cd4","ios":"levelo://app?vid=8fa78f52-8834-4b2c-8a1d-e4f911c35cd4"},"vehicle_type_id":"4","last_reported":1744222424,"current_range_meters":10800,"station_id":"ce4bhkp2rcd13ifvqgd0","pricing_plan_id":"cebpf4jnsgd1na2vs0mg"},{"bike_id":"49ff83c9-b7ae-4714-8e73-f563a5b3bbce","system_id":"levelo_inurba_marseille","lat":43.28153,"lon":5.42645,"is_reserved":false,"is_disabled":false,"rental_uris":{"android":"levelo://app?vid=49ff83c9-b7ae-4714-8e73-f563a5b3bbce","ios":"levelo://app?vid=49ff83c9-b7ae-4714-8e73-f563a5b3bbce"},"vehicle_type_id":"4","last_reported":1744222424,"current_range_meters":10800,"station_id":"ce4bhnh2rcd13ifvqgug","pricing_plan_id":"cebpf4jnsgd1na2vs0mg"},{"bike_id":"e857c38c-b8e2-4988-a862-d057c2328c90","system_id":"levelo_inurba_marseille","lat":43.2843,"lon":5.34995,"is_reserved":false,"is_disabled":false,"rental_uris":{"android":"levelo://app?vid=e857c38c-b8e2-4988-a862-d057c2328c90","ios":"levelo://app?vid=e857c38c-b8e2-4988-a862-d057c2328c90"},"vehicle_type_id":"4","last_reported":1744222424,"current_range_meters":10800,"station_id":"ce4bhbh2rcd13ifvqepg","pricing_plan_id":"cebpf4jnsgd1na2vs0mg"},{"bike_id":"04fc2ea0-667e-4de0-be7a-592579efddfb","system_id":"levelo_inurba_marseille","lat":43.23952,"lon":5.36631,"is_reserved":false,"is_disabled":false,"rental_uris":{"android":"levelo://app?vid=04fc2ea0-667e-4de0-be7a-592579efddfb","ios":"levelo://app?vid=04fc2ea0-667e-4de0-be7a-592579efddfb"},"vehicle_type_id":"4","last_reported":1744222424,"current_range_meters":10800,"station_id":"ce4bhi12rcd13ifvqfp0","pricing_plan_id":"cebpf4jnsgd1na2vs0mg"},{"bike_id":"a7096ac2-8449-41c2-be54-9f2ae8294c09","system_id":"levelo_inurba_marseille","lat":43.32358,"lon":5.38899,"is_reserved":false,"is_disabled":false,"rental_uris":{"android":"levelo://app?vid=a7096ac2-8449-41c2-be54-9f2ae8294c09","ios":"levelo://app?vid=a7096ac2-8449-41c2-be54-9f2ae8294c09"},"vehicle_type_id":"4","last_reported":1744222424,"current_range_meters":10800,"station_id":"ce4bhqp2rcd13ifvqhog","pricing_plan_id":"cebpf4jnsgd1na2vs0mg"},{"bike_id":"23b8d78f-37d5-4afe-8516-f5388bdb2875","system_id":"levelo_inurba_marseille","lat":43.28106,"lon":5.37839,"is_reserved":false,"is_disabled":false,"rental_uris":{"android":"levelo://app?vid=23b8d78f-37d5-4afe-8516-f5388bdb2875","ios":"levelo://app?vid=23b8d78f-37d5-4afe-8516-f5388bdb2875"},"vehicle_type_id":"4","last_reported":1744222424,"current_range_meters":10000,"station_id":"ce4bha12rcd13ifvqee0","pricing_plan_id":"cebpf4jnsgd1na2vs0mg"},{"bike_id":"9250f7ee-9c09-4ee4-a261-efb6cca51dd7","system_id":"levelo_inurba_marseille","lat":43.23963,"lon":5.36645,"is_reserved":false,"is_disabled":false,"rental_uris":{"android":"levelo://app?vid=9250f7ee-9c09-4ee4-a261-efb6cca51dd7","ios":"levelo://app?vid=9250f7ee-9c09-4ee4-a261-efb6cca51dd7"},"vehicle_type_id":"4","last_reported":1744222424,"current_range_meters":10800,"station_id":"ce4bhi12rcd13ifvqfp0","pricing_plan_id":"cebpf4jnsgd1na2vs0mg"},{"bike_id":"60bc3fb2-7a9c-478d-bae3-531d94541e5b","system_id":"levelo_inurba_marseille","lat":43.27074,"lon":5.42283,"is_reserved":false,"is_disabled":false,"rental_uris":{"android":"levelo://app?vid=60bc3fb2-7a9c-478d-bae3-531d94541e5b","ios":"levelo://app?vid=60bc3fb2-7a9c-478d-bae3-531d94541e5b"},"vehicle_type_id":"4","last_reported":1744222424,"current_range_meters":10800,"station_id":"ce4bhk92rcd13ifvqgb0","pricing_plan_id":"cebpf4jnsgd1na2vs0mg"},{"bike_id":"ae6b4b8e-f43e-44b4-8c81-433b8f32e3ec","system_id":"levelo_inurba_marseille","lat":43.30351,"lon":5.41877,"is_reserved":false,"is_disabled":false,"rental_uris":{"android":"levelo://app?vid=ae6b4b8e-f43e-44b4-8c81-433b8f32e3ec","ios":"levelo://app?vid=ae6b4b8e-f43e-44b4-8c81-433b8f32e3ec"},"vehicle_type_id":"4","last_reported":1744222424,"current_range_meters":10800,"station_id":"ce4bhop2rcd13ifvqh7g","pricing_plan_id":"cebpf4jnsgd1na2vs0mg"},{"bike_id":"e44fda30-6a40-4761-ab8c-d6213ab027d7","system_id":"levelo_inurba_marseille","lat":43.28411,"lon":5.3751,"is_reserved":false,"is_disabled":false,"rental_uris":{"android":"levelo://app?vid=e44fda30-6a40-4761-ab8c-d6213ab027d7","ios":"levelo://app?vid=e44fda30-6a40-4761-ab8c-d6213ab027d7"},"vehicle_type_id":"4","last_reported":1744222424,"current_range_meters":10800,"station_id":"ce4bh412rcd13ifvqds0","pricing_plan_id":"cebpf4jnsgd1na2vs0mg"},{"bike_id":"b77ed6e3-d16d-4ba4-8fb2-0b11cf6ee48b","system_id":"levelo_inurba_marseille","lat":43.30134,"lon":5.38771,"is_reserved":false,"is_disabled":false,"rental_uris":{"android":"levelo://app?vid=b77ed6e3-d16d-4ba4-8fb2-0b11cf6ee48b","ios":"levelo://app?vid=b77ed6e3-d16d-4ba4-8fb2-0b11cf6ee48b"},"vehicle_type_id":"4","last_reported":1744222424,"current_range_meters":11200,"station_id":"ce4bghh2rcd13ifvqb60","pricing_plan_id":"cebpf4jnsgd1na2vs0mg"},{"bike_id":"01e31f15-bc9b-4d18-bebd-edf19bcedef2","system_id":"levelo_inurba_marseille","lat":43.28735,"lon":5.37966,"is_reserved":false,"is_disabled":true,"rental_uris":{"android":"levelo://app?vid=01e31f15-bc9b-4d18-bebd-edf19bcedef2","ios":"levelo://app?vid=01e31f15-bc9b-4d18-bebd-edf19bcedef2"},"vehicle_type_id":"4","last_reported":1744222424,"current_range_meters":11200,"station_id":"ce4bh9p2rcd13ifvqec0","pricing_plan_id":"cebpf4jnsgd1na2vs0mg"},{"bike_id":"518b713e-4dce-40f5-8183-08541e1e24d3","system_id":"levelo_inurba_marseille","lat":43.30094,"lon":5.39106,"is_reserved":false,"is_disabled":false,"rental_uris":{"android":"levelo://app?vid=518b713e-4dce-40f5-8183-08541e1e24d3","ios":"levelo://app?vid=518b713e-4dce-40f5-8183-08541e1e24d3"},"vehicle_type_id":"4","last_reported":1744222424,"current_range_meters":11200,"station_id":"ce4bh192rcd13ifvqdb0","pricing_plan_id":"cebpf4jnsgd1na2vs0mg"},{"bike_id":"49a75308-58ad-4fb6-843b-097dff5c80f0","system_id":"levelo_inurba_marseille","lat":43.27377,"lon":5.36255,"is_reserved":false,"is_disabled":false,"rental_uris":{"android":"levelo://app?vid=49a75308-58ad-4fb6-843b-097dff5c80f0","ios":"levelo://app?vid=49a75308-58ad-4fb6-843b-097dff5c80f0"},"vehicle_type_id":"4","last_reported":1744222424,"current_range_meters":11200,"station_id":"ce4bhbh2rcd13ifvqeo0","pricing_plan_id":"cebpf4jnsgd1na2vs0mg"},{"bike_id":"c9bb4d81-758f-45d9-b336-509a65a125e4","system_id":"levelo_inurba_marseille","lat":43.29628,"lon":5.40595,"is_reserved":false,"is_disabled":false,"rental_uris":{"android":"levelo://app?vid=c9bb4d81-758f-45d9-b336-509a65a125e4","ios":"levelo://app?vid=c9bb4d81-758f-45d9-b336-509a65a125e4"},"vehicle_type_id":"4","last_reported":1744222424,"current_range_meters":11200,"station_id":"ce4bh0h2rcd13ifvqd60","pricing_plan_id":"cebpf4jnsgd1na2vs0mg"},{"bike_id":"249e501a-7f64-4ba8-a9c3-3138ccabea30","system_id":"levelo_inurba_marseille","lat":43.31483,"lon":5.37312,"is_reserved":false,"is_disabled":false,"rental_uris":{"android":"levelo://app?vid=249e501a-7f64-4ba8-a9c3-3138ccabea30","ios":"levelo://app?vid=249e501a-7f64-4ba8-a9c3-3138ccabea30"},"vehicle_type_id":"4","last_reported":1744222424,"current_range_meters":11600,"station_id":"ce4bgt12rcd13ifvqcd0","pricing_plan_id":"cebpf4jnsgd1na2vs0mg"},{"bike_id":"70c0a789-2b32-4eb9-a364-011ff72e0ce0","system_id":"levelo_inurba_marseille","lat":43.29196,"lon":5.39324,"is_reserved":false,"is_disabled":false,"rental_uris":{"android":"levelo://app?vid=70c0a789-2b32-4eb9-a364-011ff72e0ce0","ios":"levelo://app?vid=70c0a789-2b32-4eb9-a364-011ff72e0ce0"},"vehicle_type_id":"4","last_reported":1744222424,"current_range_meters":11600,"station_id":"ce4bh192rcd13ifvqdd0","pricing_plan_id":"cebpf4jnsgd1na2vs0mg"},{"bike_id":"4c75bfd2-790d-4802-bb3c-3205a78cb122","system_id":"levelo_inurba_marseille","lat":43.27919,"lon":5.39579,"is_reserved":false,"is_disabled":false,"rental_uris":{"android":"levelo://app?vid=4c75bfd2-790d-4802-bb3c-3205a78cb122","ios":"levelo://app?vid=4c75bfd2-790d-4802-bb3c-3205a78cb122"},"vehicle_type_id":"4","last_reported":1744222424,"current_range_meters":11600,"station_id":"ce4bhf92rcd13ifvqf40","pricing_plan_id":"cebpf4jnsgd1na2vs0mg"},{"bike_id":"4a4abeb5-dcd5-495b-8a94-1f1baf355e1a","system_id":"levelo_inurba_marseille","lat":43.281,"lon":5.3785,"is_reserved":false,"is_disabled":false,"rental_uris":{"android":"levelo://app?vid=4a4abeb5-dcd5-495b-8a94-1f1baf355e1a","ios":"levelo://app?vid=4a4abeb5-dcd5-495b-8a94-1f1baf355e1a"},"vehicle_type_id":"4","last_reported":1744222424,"current_range_meters":11200,"station_id":"ce4bha12rcd13ifvqee0","pricing_plan_id":"cebpf4jnsgd1na2vs0mg"},{"bike_id":"17f4902e-c861-4806-a819-8e218247cad7","system_id":"levelo_inurba_marseille","lat":43.24661,"lon":5.38161,"is_reserved":false,"is_disabled":false,"rental_uris":{"android":"levelo://app?vid=17f4902e-c861-4806-a819-8e218247cad7","ios":"levelo://app?vid=17f4902e-c861-4806-a819-8e218247cad7"},"vehicle_type_id":"4","last_reported":1744222424,"current_range_meters":11600,"station_id":"ce4bhih2rcd13ifvqfr0","pricing_plan_id":"cebpf4jnsgd1na2vs0mg"},{"bike_id":"5f30a5a4-de9f-499e-b151-b811ebb3b43a","system_id":"levelo_inurba_marseille","lat":43.31065,"lon":5.38343,"is_reserved":false,"is_disabled":true,"rental_uris":{"android":"levelo://app?vid=5f30a5a4-de9f-499e-b151-b811ebb3b43a","ios":"levelo://app?vid=5f30a5a4-de9f-499e-b151-b811ebb3b43a"},"vehicle_type_id":"4","last_reported":1744222424,"current_range_meters":11600,"station_id":"ce4bgv92rcd13ifvqcr0","pricing_plan_id":"cebpf4jnsgd1na2vs0mg"},{"bike_id":"33d0f444-5ab0-48f3-920d-f0d1e43bd811","system_id":"levelo_inurba_marseille","lat":43.2957,"lon":5.37526,"is_reserved":false,"is_disabled":false,"rental_uris":{"android":"levelo://app?vid=33d0f444-5ab0-48f3-920d-f0d1e43bd811","ios":"levelo://app?vid=33d0f444-5ab0-48f3-920d-f0d1e43bd811"},"vehicle_type_id":"4","last_reported":1744222424,"current_range_meters":11600,"station_id":"ce4bgh92rcd13ifvqb50","pricing_plan_id":"cebpf4jnsgd1na2vs0mg"},{"bike_id":"df2354e4-9f4f-40f4-a036-6da29fa06b04","system_id":"levelo_inurba_marseille","lat":43.29717,"lon":5.36612,"is_reserved":false,"is_disabled":false,"rental_uris":{"android":"levelo://app?vid=df2354e4-9f4f-40f4-a036-6da29fa06b04","ios":"levelo://app?vid=df2354e4-9f4f-40f4-a036-6da29fa06b04"},"vehicle_type_id":"4","last_reported":1744222424,"current_range_meters":11600,"station_id":"ce4bgn12rcd13ifvqbt0","pricing_plan_id":"cebpf4jnsgd1na2vs0mg"},{"bike_id":"0035c278-657d-40b7-9713-7501dece4abe","system_id":"levelo_inurba_marseille","lat":43.30141,"lon":5.37414,"is_reserved":false,"is_disabled":false,"rental_uris":{"android":"levelo://app?vid=0035c278-657d-40b7-9713-7501dece4abe","ios":"levelo://app?vid=0035c278-657d-40b7-9713-7501dece4abe"},"vehicle_type_id":"4","last_reported":1744222424,"current_range_meters":12000,"station_id":"ce4bgs92rcd13ifvqcc0","pricing_plan_id":"cebpf4jnsgd1na2vs0mg"},{"bike_id":"c9960ccc-ba3c-430f-8411-993eb9b0cf38","system_id":"levelo_inurba_marseille","lat":43.25697,"lon":5.41092,"is_reserved":false,"is_disabled":false,"rental_uris":{"android":"levelo://app?vid=c9960ccc-ba3c-430f-8411-993eb9b0cf38","ios":"levelo://app?vid=c9960ccc-ba3c-430f-8411-993eb9b0cf38"},"vehicle_type_id":"4","last_reported":1744222424,"current_range_meters":12000,"station_id":"ce4bhkp2rcd13ifvqgd0","pricing_plan_id":"cebpf4jnsgd1na2vs0mg"},{"bike_id":"51220fd5-275f-44db-a81e-280c0ca810af","system_id":"levelo_inurba_marseille","lat":43.32264,"lon":5.38534,"is_reserved":false,"is_disabled":false,"rental_uris":{"android":"levelo://app?vid=51220fd5-275f-44db-a81e-280c0ca810af","ios":"levelo://app?vid=51220fd5-275f-44db-a81e-280c0ca810af"},"vehicle_type_id":"4","last_reported":1744222424,"current_range_meters":12000,"station_id":"","pricing_plan_id":"cebpf4jnsgd1na2vs0mg"},{"bike_id":"b96be04a-adcd-4816-8c18-ee76dccce0e8","system_id":"levelo_inurba_marseille","lat":43.24178,"lon":5.36434,"is_reserved":false,"is_disabled":false,"rental_uris":{"android":"levelo://app?vid=b96be04a-adcd-4816-8c18-ee76dccce0e8","ios":"levelo://app?vid=b96be04a-adcd-4816-8c18-ee76dccce0e8"},"vehicle_type_id":"4","last_reported":1744222424,"current_range_meters":12000,"station_id":"cpo36qri1sfpv3e86is0","pricing_plan_id":"cebpf4jnsgd1na2vs0mg"},{"bike_id":"47eaa986-e4f3-4167-bb42-c6a4334014a6","system_id":"levelo_inurba_marseille","lat":43.25135,"lon":5.40351,"is_reserved":false,"is_disabled":false,"rental_uris":{"android":"levelo://app?vid=47eaa986-e4f3-4167-bb42-c6a4334014a6","ios":"levelo://app?vid=47eaa986-e4f3-4167-bb42-c6a4334014a6"},"vehicle_type_id":"4","last_reported":1744222424,"current_range_meters":12000,"station_id":"ce4bhlh2rcd13ifvqgig","pricing_plan_id":"cebpf4jnsgd1na2vs0mg"},{"bike_id":"125c93bb-4682-42b0-b68f-b740f7b68690","system_id":"levelo_inurba_marseille","lat":43.28275,"lon":5.3507,"is_reserved":false,"is_disabled":false,"rental_uris":{"android":"levelo://app?vid=125c93bb-4682-42b0-b68f-b740f7b68690","ios":"levelo://app?vid=125c93bb-4682-42b0-b68f-b740f7b68690"},"vehicle_type_id":"4","last_reported":1744222424,"current_range_meters":12000,"station_id":"ce4bhbp2rcd13ifvqerg","pricing_plan_id":"cebpf4jnsgd1na2vs0mg"},{"bike_id":"379d8a58-597d-49a0-bb74-671416388891","system_id":"levelo_inurba_marseille","lat":43.28428,"lon":5.34996,"is_reserved":false,"is_disabled":false,"rental_uris":{"android":"levelo://app?vid=379d8a58-597d-49a0-bb74-671416388891","ios":"levelo://app?vid=379d8a58-597d-49a0-bb74-671416388891"},"vehicle_type_id":"4","last_reported":1744222424,"current_range_meters":12000,"station_id":"ce4bhbh2rcd13ifvqepg","pricing_plan_id":"cebpf4jnsgd1na2vs0mg"},{"bike_id":"53fb0077-3a65-43ca-a501-d7c36dc0627d","system_id":"levelo_inurba_marseille","lat":43.317677,"lon":5.387917,"is_reserved":false,"is_disabled":false,"rental_uris":{"android":"levelo://app?vid=53fb0077-3a65-43ca-a501-d7c36dc0627d","ios":"levelo://app?vid=53fb0077-3a65-43ca-a501-d7c36dc0627d"},"vehicle_type_id":"4","last_reported":1744222424,"current_range_meters":12400,"station_id":"","pricing_plan_id":"cebpf4jnsgd1na2vs0mg"},{"bike_id":"42183e06-5978-4858-b301-03ad7c7deda6","system_id":"levelo_inurba_marseille","lat":43.27126,"lon":5.40963,"is_reserved":false,"is_disabled":false,"rental_uris":{"android":"levelo://app?vid=42183e06-5978-4858-b301-03ad7c7deda6","ios":"levelo://app?vid=42183e06-5978-4858-b301-03ad7c7deda6"},"vehicle_type_id":"4","last_reported":1744222424,"current_range_meters":12400,"station_id":"","pricing_plan_id":"cebpf4jnsgd1na2vs0mg"},{"bike_id":"89576fdd-acf9-48e0-ae30-967ac700e978","system_id":"levelo_inurba_marseille","lat":43.24801,"lon":5.37451,"is_reserved":false,"is_disabled":false,"rental_uris":{"android":"levelo://app?vid=89576fdd-acf9-48e0-ae30-967ac700e978","ios":"levelo://app?vid=89576fdd-acf9-48e0-ae30-967ac700e978"},"vehicle_type_id":"4","last_reported":1744222424,"current_range_meters":12400,"station_id":"ce4bhgh2rcd13ifvqfb0","pricing_plan_id":"cebpf4jnsgd1na2vs0mg"},{"bike_id":"4bfcf9c7-7817-40b2-ace6-49e20e927de9","system_id":"levelo_inurba_marseille","lat":43.29177,"lon":5.35802,"is_reserved":false,"is_disabled":false,"rental_uris":{"android":"levelo://app?vid=4bfcf9c7-7817-40b2-ace6-49e20e927de9","ios":"levelo://app?vid=4bfcf9c7-7817-40b2-ace6-49e20e927de9"},"vehicle_type_id":"4","last_reported":1744222424,"current_range_meters":12400,"station_id":"ce4bhb12rcd13ifvqel0","pricing_plan_id":"cebpf4jnsgd1na2vs0mg"},{"bike_id":"8ac5065d-3b85-4f6e-8efb-44c8e31605cc","system_id":"levelo_inurba_marseille","lat":43.21753,"lon":5.34593,"is_reserved":false,"is_disabled":false,"rental_uris":{"android":"levelo://app?vid=8ac5065d-3b85-4f6e-8efb-44c8e31605cc","ios":"levelo://app?vid=8ac5065d-3b85-4f6e-8efb-44c8e31605cc"},"vehicle_type_id":"4","last_reported":1744222424,"current_range_meters":12800,"station_id":"st_cvj6r9ubvosntc0bgbag","pricing_plan_id":"cebpf4jnsgd1na2vs0mg"},{"bike_id":"b9644514-b5bf-4a85-9d0d-8f31eb28bd5b","system_id":"levelo_inurba_marseille","lat":43.28266,"lon":5.35071,"is_reserved":false,"is_disabled":false,"rental_uris":{"android":"levelo://app?vid=b9644514-b5bf-4a85-9d0d-8f31eb28bd5b","ios":"levelo://app?vid=b9644514-b5bf-4a85-9d0d-8f31eb28bd5b"},"vehicle_type_id":"4","last_reported":1744222424,"current_range_meters":12800,"station_id":"ce4bhbp2rcd13ifvqerg","pricing_plan_id":"cebpf4jnsgd1na2vs0mg"},{"bike_id":"9fce7fb9-26b6-4832-9f96-ea1b75c489f0","system_id":"levelo_inurba_marseille","lat":43.21176,"lon":5.35079,"is_reserved":false,"is_disabled":false,"rental_uris":{"android":"levelo://app?vid=9fce7fb9-26b6-4832-9f96-ea1b75c489f0","ios":"levelo://app?vid=9fce7fb9-26b6-4832-9f96-ea1b75c489f0"},"vehicle_type_id":"4","last_reported":1744222424,"current_range_meters":12800,"station_id":"st_cvj6sg6p6f1abm77japg","pricing_plan_id":"cebpf4jnsgd1na2vs0mg"},{"bike_id":"b4b93a64-d083-4ab2-bbd0-53609c602fb5","system_id":"levelo_inurba_marseille","lat":43.30928,"lon":5.4016,"is_reserved":false,"is_disabled":true,"rental_uris":{"android":"levelo://app?vid=b4b93a64-d083-4ab2-bbd0-53609c602fb5","ios":"levelo://app?vid=b4b93a64-d083-4ab2-bbd0-53609c602fb5"},"vehicle_type_id":"4","last_reported":1744222424,"current_range_meters":12800,"station_id":"ce4bgvp2rcd13ifvqct0","pricing_plan_id":"cebpf4jnsgd1na2vs0mg"},{"bike_id":"3eb4db5a-216b-43d3-addc-9c000b4d9b9f","system_id":"levelo_inurba_marseille","lat":43.3089,"lon":5.39657,"is_reserved":false,"is_disabled":false,"rental_uris":{"android":"levelo://app?vid=3eb4db5a-216b-43d3-addc-9c000b4d9b9f","ios":"levelo://app?vid=3eb4db5a-216b-43d3-addc-9c000b4d9b9f"},"vehicle_type_id":"4","last_reported":1744222424,"current_range_meters":12800,"station_id":"ce4bh012rcd13ifvqcv0","pricing_plan_id":"cebpf4jnsgd1na2vs0mg"},{"bike_id":"c05561cd-6439-4083-bc35-a86471874ded","system_id":"levelo_inurba_marseille","lat":43.28615,"lon":5.35099,"is_reserved":false,"is_disabled":false,"rental_uris":{"android":"levelo://app?vid=c05561cd-6439-4083-bc35-a86471874ded","ios":"levelo://app?vid=c05561cd-6439-4083-bc35-a86471874ded"},"vehicle_type_id":"4","last_reported":1744222424,"current_range_meters":12800,"station_id":"ce4bhch2rcd13ifvqeug","pricing_plan_id":"cebpf4jnsgd1na2vs0mg"},{"bike_id":"4c28f3d7-3228-4605-8a0a-01ab16fbb532","system_id":"levelo_inurba_marseille","lat":43.27205,"lon":5.39204,"is_reserved":false,"is_disabled":true,"rental_uris":{"android":"levelo://app?vid=4c28f3d7-3228-4605-8a0a-01ab16fbb532","ios":"levelo://app?vid=4c28f3d7-3228-4605-8a0a-01ab16fbb532"},"vehicle_type_id":"4","last_reported":1744222424,"current_range_meters":12800,"station_id":"ce4bhhp2rcd13ifvqfm0","pricing_plan_id":"cebpf4jnsgd1na2vs0mg"},{"bike_id":"e1e90bf0-2bfc-4aef-b936-361bd74a7346","system_id":"levelo_inurba_marseille","lat":43.2954,"lon":5.3855,"is_reserved":false,"is_disabled":false,"rental_uris":{"android":"levelo://app?vid=e1e90bf0-2bfc-4aef-b936-361bd74a7346","ios":"levelo://app?vid=e1e90bf0-2bfc-4aef-b936-361bd74a7346"},"vehicle_type_id":"4","last_reported":1744222424,"current_range_meters":13600,"station_id":"ce4bgih2rcd13ifvqba0","pricing_plan_id":"cebpf4jnsgd1na2vs0mg"},{"bike_id":"37967cd8-0dc5-40d7-af03-2bbfc2c2b2fc","system_id":"levelo_inurba_marseille","lat":43.2737,"lon":5.36249,"is_reserved":false,"is_disabled":false,"rental_uris":{"android":"levelo://app?vid=37967cd8-0dc5-40d7-af03-2bbfc2c2b2fc","ios":"levelo://app?vid=37967cd8-0dc5-40d7-af03-2bbfc2c2b2fc"},"vehicle_type_id":"4","last_reported":1744222424,"current_range_meters":13600,"station_id":"ce4bhbh2rcd13ifvqeo0","pricing_plan_id":"cebpf4jnsgd1na2vs0mg"},{"bike_id":"f2ddeead-c55a-49b3-90e5-4eec0e251056","system_id":"levelo_inurba_marseille","lat":43.31707,"lon":5.43706,"is_reserved":false,"is_disabled":false,"rental_uris":{"android":"levelo://app?vid=f2ddeead-c55a-49b3-90e5-4eec0e251056","ios":"levelo://app?vid=f2ddeead-c55a-49b3-90e5-4eec0e251056"},"vehicle_type_id":"4","last_reported":1744222424,"current_range_meters":13600,"station_id":"ce4bhp92rcd13ifvqhcg","pricing_plan_id":"cebpf4jnsgd1na2vs0mg"},{"bike_id":"6ea13098-fa17-4d72-9a98-dc3e83f8f184","system_id":"levelo_inurba_marseille","lat":43.308899,"lon":5.396471,"is_reserved":false,"is_disabled":false,"rental_uris":{"android":"levelo://app?vid=6ea13098-fa17-4d72-9a98-dc3e83f8f184","ios":"levelo://app?vid=6ea13098-fa17-4d72-9a98-dc3e83f8f184"},"vehicle_type_id":"4","last_reported":1744222424,"current_range_meters":13600,"station_id":"ce4bh012rcd13ifvqcv0","pricing_plan_id":"cebpf4jnsgd1na2vs0mg"},{"bike_id":"e0a8b8e0-fa79-4063-9cb7-07dabf7bba4a","system_id":"levelo_inurba_marseille","lat":43.25492,"lon":5.37648,"is_reserved":false,"is_disabled":false,"rental_uris":{"android":"levelo://app?vid=e0a8b8e0-fa79-4063-9cb7-07dabf7bba4a","ios":"levelo://app?vid=e0a8b8e0-fa79-4063-9cb7-07dabf7bba4a"},"vehicle_type_id":"4","last_reported":1744222424,"current_range_meters":13600,"station_id":"ce4bhh12rcd13ifvqff0","pricing_plan_id":"cebpf4jnsgd1na2vs0mg"},{"bike_id":"d44ff2b9-417e-4368-bebb-1fc974db3122","system_id":"levelo_inurba_marseille","lat":43.33666,"lon":5.39774,"is_reserved":false,"is_disabled":false,"rental_uris":{"android":"levelo://app?vid=d44ff2b9-417e-4368-bebb-1fc974db3122","ios":"levelo://app?vid=d44ff2b9-417e-4368-bebb-1fc974db3122"},"vehicle_type_id":"4","last_reported":1744222424,"current_range_meters":13600,"station_id":"","pricing_plan_id":"cebpf4jnsgd1na2vs0mg"},{"bike_id":"72b4d964-4db7-4aaf-9336-eaac9bb2889e","system_id":"levelo_inurba_marseille","lat":43.244898,"lon":5.372562,"is_reserved":false,"is_disabled":false,"rental_uris":{"android":"levelo://app?vid=72b4d964-4db7-4aaf-9336-eaac9bb2889e","ios":"levelo://app?vid=72b4d964-4db7-4aaf-9336-eaac9bb2889e"},"vehicle_type_id":"4","last_reported":1744222424,"current_range_meters":13600,"station_id":"ce4bhjp2rcd13ifvqga0","pricing_plan_id":"cebpf4jnsgd1na2vs0mg"},{"bike_id":"a78828a0-81a1-4d48-ad77-3f83d083f568","system_id":"levelo_inurba_marseille","lat":43.31487,"lon":5.37303,"is_reserved":false,"is_disabled":false,"rental_uris":{"android":"levelo://app?vid=a78828a0-81a1-4d48-ad77-3f83d083f568","ios":"levelo://app?vid=a78828a0-81a1-4d48-ad77-3f83d083f568"},"vehicle_type_id":"4","last_reported":1744222424,"current_range_meters":14000,"station_id":"ce4bgt12rcd13ifvqcd0","pricing_plan_id":"cebpf4jnsgd1na2vs0mg"},{"bike_id":"97432439-5848-4e81-ad3d-2c5cc8088768","system_id":"levelo_inurba_marseille","lat":43.318812,"lon":5.407327,"is_reserved":false,"is_disabled":false,"rental_uris":{"android":"levelo://app?vid=97432439-5848-4e81-ad3d-2c5cc8088768","ios":"levelo://app?vid=97432439-5848-4e81-ad3d-2c5cc8088768"},"vehicle_type_id":"4","last_reported":1744222424,"current_range_meters":13600,"station_id":"ce4bhq12rcd13ifvqhig","pricing_plan_id":"cebpf4jnsgd1na2vs0mg"},{"bike_id":"b437bb79-5d68-4b0a-991c-f7cf91cef4b1","system_id":"levelo_inurba_marseille","lat":43.26492,"lon":5.395386,"is_reserved":false,"is_disabled":false,"rental_uris":{"android":"levelo://app?vid=b437bb79-5d68-4b0a-991c-f7cf91cef4b1","ios":"levelo://app?vid=b437bb79-5d68-4b0a-991c-f7cf91cef4b1"},"vehicle_type_id":"4","last_reported":1744222424,"current_range_meters":14000,"station_id":"ce4bhi12rcd13ifvqfq0","pricing_plan_id":"cebpf4jnsgd1na2vs0mg"},{"bike_id":"4a7901df-c919-4147-a2dc-ccae443e447e","system_id":"levelo_inurba_marseille","lat":43.284112,"lon":5.349771,"is_reserved":false,"is_disabled":false,"rental_uris":{"android":"levelo://app?vid=4a7901df-c919-4147-a2dc-ccae443e447e","ios":"levelo://app?vid=4a7901df-c919-4147-a2dc-ccae443e447e"},"vehicle_type_id":"4","last_reported":1744222424,"current_range_meters":14000,"station_id":"ce4bhbh2rcd13ifvqepg","pricing_plan_id":"cebpf4jnsgd1na2vs0mg"},{"bike_id":"4e78f6b1-c541-4270-95bc-54b84d1371cb","system_id":"levelo_inurba_marseille","lat":43.28634,"lon":5.35105,"is_reserved":false,"is_disabled":false,"rental_uris":{"android":"levelo://app?vid=4e78f6b1-c541-4270-95bc-54b84d1371cb","ios":"levelo://app?vid=4e78f6b1-c541-4270-95bc-54b84d1371cb"},"vehicle_type_id":"4","last_reported":1744222424,"current_range_meters":14000,"station_id":"ce4bhch2rcd13ifvqeug","pricing_plan_id":"cebpf4jnsgd1na2vs0mg"},{"bike_id":"8d708f6d-df7e-4b8c-9703-c7e737ed86bd","system_id":"levelo_inurba_marseille","lat":43.29572,"lon":5.39983,"is_reserved":false,"is_disabled":false,"rental_uris":{"android":"levelo://app?vid=8d708f6d-df7e-4b8c-9703-c7e737ed86bd","ios":"levelo://app?vid=8d708f6d-df7e-4b8c-9703-c7e737ed86bd"},"vehicle_type_id":"4","last_reported":1744222424,"current_range_meters":14000,"station_id":"ce4bh312rcd13ifvqdj0","pricing_plan_id":"cebpf4jnsgd1na2vs0mg"},{"bike_id":"5eb34f1b-f00a-4cff-831f-9d358b4749b8","system_id":"levelo_inurba_marseille","lat":43.28612,"lon":5.35106,"is_reserved":false,"is_disabled":false,"rental_uris":{"android":"levelo://app?vid=5eb34f1b-f00a-4cff-831f-9d358b4749b8","ios":"levelo://app?vid=5eb34f1b-f00a-4cff-831f-9d358b4749b8"},"vehicle_type_id":"4","last_reported":1744222424,"current_range_meters":14400,"station_id":"ce4bhch2rcd13ifvqeug","pricing_plan_id":"cebpf4jnsgd1na2vs0mg"},{"bike_id":"24468822-6d20-42c0-b5e8-2691953ea9cf","system_id":"levelo_inurba_marseille","lat":43.25575,"lon":5.3824,"is_reserved":false,"is_disabled":false,"rental_uris":{"android":"levelo://app?vid=24468822-6d20-42c0-b5e8-2691953ea9cf","ios":"levelo://app?vid=24468822-6d20-42c0-b5e8-2691953ea9cf"},"vehicle_type_id":"4","last_reported":1744222424,"current_range_meters":14400,"station_id":"ce4bhih2rcd13ifvqfs0","pricing_plan_id":"cebpf4jnsgd1na2vs0mg"},{"bike_id":"10d7b5be-4029-4300-8c4d-628b706b5625","system_id":"levelo_inurba_marseille","lat":43.29705,"lon":5.37697,"is_reserved":false,"is_disabled":false,"rental_uris":{"android":"levelo://app?vid=10d7b5be-4029-4300-8c4d-628b706b5625","ios":"levelo://app?vid=10d7b5be-4029-4300-8c4d-628b706b5625"},"vehicle_type_id":"4","last_reported":1744222424,"current_range_meters":14000,"station_id":"ce4bgkh2rcd13ifvqbl0","pricing_plan_id":"cebpf4jnsgd1na2vs0mg"},{"bike_id":"c369bf23-f24d-4fbc-a2a6-9db5e7f2adca","system_id":"levelo_inurba_marseille","lat":43.27619,"lon":5.36115,"is_reserved":false,"is_disabled":false,"rental_uris":{"android":"levelo://app?vid=c369bf23-f24d-4fbc-a2a6-9db5e7f2adca","ios":"levelo://app?vid=c369bf23-f24d-4fbc-a2a6-9db5e7f2adca"},"vehicle_type_id":"4","last_reported":1744222424,"current_range_meters":14400,"station_id":"ce4bgj92rcd13ifvqbe0","pricing_plan_id":"cebpf4jnsgd1na2vs0mg"},{"bike_id":"910571f4-4962-4503-b883-b4534b9b6603","system_id":"levelo_inurba_marseille","lat":43.32297,"lon":5.38602,"is_reserved":false,"is_disabled":false,"rental_uris":{"android":"levelo://app?vid=910571f4-4962-4503-b883-b4534b9b6603","ios":"levelo://app?vid=910571f4-4962-4503-b883-b4534b9b6603"},"vehicle_type_id":"4","last_reported":1744222424,"current_range_meters":14400,"station_id":"","pricing_plan_id":"cebpf4jnsgd1na2vs0mg"},{"bike_id":"93a7a1b0-055b-448c-a03e-f998b83d95f8","system_id":"levelo_inurba_marseille","lat":43.31283,"lon":5.40174,"is_reserved":false,"is_disabled":false,"rental_uris":{"android":"levelo://app?vid=93a7a1b0-055b-448c-a03e-f998b83d95f8","ios":"levelo://app?vid=93a7a1b0-055b-448c-a03e-f998b83d95f8"},"vehicle_type_id":"4","last_reported":1744222424,"current_range_meters":14400,"station_id":"ce4bh092rcd13ifvqd30","pricing_plan_id":"cebpf4jnsgd1na2vs0mg"},{"bike_id":"8ab6dcfc-9a38-4d9a-b92d-93ebc3289f5f","system_id":"levelo_inurba_marseille","lat":43.26066,"lon":5.39389,"is_reserved":false,"is_disabled":true,"rental_uris":{"android":"levelo://app?vid=8ab6dcfc-9a38-4d9a-b92d-93ebc3289f5f","ios":"levelo://app?vid=8ab6dcfc-9a38-4d9a-b92d-93ebc3289f5f"},"vehicle_type_id":"4","last_reported":1744222424,"current_range_meters":14400,"station_id":"ce4bhh92rcd13ifvqfj0","pricing_plan_id":"cebpf4jnsgd1na2vs0mg"},{"bike_id":"7a875248-5ae0-4586-ba99-6bf01db4c327","system_id":"levelo_inurba_marseille","lat":43.29419,"lon":5.38626,"is_reserved":false,"is_disabled":false,"rental_uris":{"android":"levelo://app?vid=7a875248-5ae0-4586-ba99-6bf01db4c327","ios":"levelo://app?vid=7a875248-5ae0-4586-ba99-6bf01db4c327"},"vehicle_type_id":"4","last_reported":1744222424,"current_range_meters":14400,"station_id":"ce4bh2h2rcd13ifvqdh0","pricing_plan_id":"cebpf4jnsgd1na2vs0mg"},{"bike_id":"4372f18e-c37f-44c1-abd1-65c34fa89ebc","system_id":"levelo_inurba_marseille","lat":43.2719,"lon":5.4098,"is_reserved":false,"is_disabled":false,"rental_uris":{"android":"levelo://app?vid=4372f18e-c37f-44c1-abd1-65c34fa89ebc","ios":"levelo://app?vid=4372f18e-c37f-44c1-abd1-65c34fa89ebc"},"vehicle_type_id":"4","last_reported":1744222424,"current_range_meters":14800,"station_id":"ce4bhl12rcd13ifvqgf0","pricing_plan_id":"cebpf4jnsgd1na2vs0mg"},{"bike_id":"417095ad-77df-49ea-a5a5-b03d3ddc554e","system_id":"levelo_inurba_marseille","lat":43.28638,"lon":5.3512,"is_reserved":false,"is_disabled":false,"rental_uris":{"android":"levelo://app?vid=417095ad-77df-49ea-a5a5-b03d3ddc554e","ios":"levelo://app?vid=417095ad-77df-49ea-a5a5-b03d3ddc554e"},"vehicle_type_id":"4","last_reported":1744222424,"current_range_meters":14800,"station_id":"ce4bhch2rcd13ifvqeug","pricing_plan_id":"cebpf4jnsgd1na2vs0mg"},{"bike_id":"168bff2f-5204-45e4-9816-1323582a8e96","system_id":"levelo_inurba_marseille","lat":43.2512,"lon":5.40317,"is_reserved":false,"is_disabled":false,"rental_uris":{"android":"levelo://app?vid=168bff2f-5204-45e4-9816-1323582a8e96","ios":"levelo://app?vid=168bff2f-5204-45e4-9816-1323582a8e96"},"vehicle_type_id":"4","last_reported":1744222424,"current_range_meters":14800,"station_id":"ce4bhlh2rcd13ifvqgig","pricing_plan_id":"cebpf4jnsgd1na2vs0mg"},{"bike_id":"3ce3d920-dde9-4fd8-b282-79c836620424","system_id":"levelo_inurba_marseille","lat":43.28154,"lon":5.42646,"is_reserved":false,"is_disabled":false,"rental_uris":{"android":"levelo://app?vid=3ce3d920-dde9-4fd8-b282-79c836620424","ios":"levelo://app?vid=3ce3d920-dde9-4fd8-b282-79c836620424"},"vehicle_type_id":"4","last_reported":1744222424,"current_range_meters":14800,"station_id":"ce4bhnh2rcd13ifvqgug","pricing_plan_id":"cebpf4jnsgd1na2vs0mg"},{"bike_id":"5829cd0d-c17e-4de3-b63f-9cd151926e69","system_id":"levelo_inurba_marseille","lat":43.29619,"lon":5.36779,"is_reserved":false,"is_disabled":true,"rental_uris":{"android":"levelo://app?vid=5829cd0d-c17e-4de3-b63f-9cd151926e69","ios":"levelo://app?vid=5829cd0d-c17e-4de3-b63f-9cd151926e69"},"vehicle_type_id":"4","last_reported":1744222424,"current_range_meters":14800,"station_id":"","pricing_plan_id":"cebpf4jnsgd1na2vs0mg"},{"bike_id":"bcb4b5b6-97ed-4031-a80f-3b35d935d7a9","system_id":"levelo_inurba_marseille","lat":43.3128,"lon":5.40166,"is_reserved":false,"is_disabled":false,"rental_uris":{"android":"levelo://app?vid=bcb4b5b6-97ed-4031-a80f-3b35d935d7a9","ios":"levelo://app?vid=bcb4b5b6-97ed-4031-a80f-3b35d935d7a9"},"vehicle_type_id":"4","last_reported":1744222424,"current_range_meters":15200,"station_id":"ce4bh092rcd13ifvqd30","pricing_plan_id":"cebpf4jnsgd1na2vs0mg"},{"bike_id":"0381581f-8449-438f-a290-095a35b81ec2","system_id":"levelo_inurba_marseille","lat":43.28698,"lon":5.39986,"is_reserved":false,"is_disabled":false,"rental_uris":{"android":"levelo://app?vid=0381581f-8449-438f-a290-095a35b81ec2","ios":"levelo://app?vid=0381581f-8449-438f-a290-095a35b81ec2"},"vehicle_type_id":"4","last_reported":1744222424,"current_range_meters":15200,"station_id":"ce4bho92rcd13ifvqh3g","pricing_plan_id":"cebpf4jnsgd1na2vs0mg"},{"bike_id":"5d14c852-7d39-4daa-9337-9b008497a52a","system_id":"levelo_inurba_marseille","lat":43.2942,"lon":5.38612,"is_reserved":false,"is_disabled":true,"rental_uris":{"android":"levelo://app?vid=5d14c852-7d39-4daa-9337-9b008497a52a","ios":"levelo://app?vid=5d14c852-7d39-4daa-9337-9b008497a52a"},"vehicle_type_id":"4","last_reported":1744222424,"current_range_meters":16000,"station_id":"ce4bh2h2rcd13ifvqdh0","pricing_plan_id":"cebpf4jnsgd1na2vs0mg"},{"bike_id":"b10d6158-07f5-4081-9002-5a76f61c54dc","system_id":"levelo_inurba_marseille","lat":43.27494,"lon":5.42447,"is_reserved":false,"is_disabled":false,"rental_uris":{"android":"levelo://app?vid=b10d6158-07f5-4081-9002-5a76f61c54dc","ios":"levelo://app?vid=b10d6158-07f5-4081-9002-5a76f61c54dc"},"vehicle_type_id":"4","last_reported":1744222424,"current_range_meters":16000,"station_id":"ce4bhn92rcd13ifvqgrg","pricing_plan_id":"cebpf4jnsgd1na2vs0mg"},{"bike_id":"7f67e325-4e03-4b6f-a1a9-491230c62792","system_id":"levelo_inurba_marseille","lat":43.32346,"lon":5.40641,"is_reserved":false,"is_disabled":false,"rental_uris":{"android":"levelo://app?vid=7f67e325-4e03-4b6f-a1a9-491230c62792","ios":"levelo://app?vid=7f67e325-4e03-4b6f-a1a9-491230c62792"},"vehicle_type_id":"4","last_reported":1744222424,"current_range_meters":16000,"station_id":"ce4bhq92rcd13ifvqhjg","pricing_plan_id":"cebpf4jnsgd1na2vs0mg"},{"bike_id":"c0caac97-a957-4f01-bd7d-413a2d6a15d7","system_id":"levelo_inurba_marseille","lat":43.24821,"lon":5.37467,"is_reserved":false,"is_disabled":false,"rental_uris":{"android":"levelo://app?vid=c0caac97-a957-4f01-bd7d-413a2d6a15d7","ios":"levelo://app?vid=c0caac97-a957-4f01-bd7d-413a2d6a15d7"},"vehicle_type_id":"4","last_reported":1744222424,"current_range_meters":16000,"station_id":"ce4bhgh2rcd13ifvqfb0","pricing_plan_id":"cebpf4jnsgd1na2vs0mg"},{"bike_id":"42c1fdc6-38af-4ea1-a910-702e15d5a9b4","system_id":"levelo_inurba_marseille","lat":43.3093,"lon":5.40168,"is_reserved":false,"is_disabled":true,"rental_uris":{"android":"levelo://app?vid=42c1fdc6-38af-4ea1-a910-702e15d5a9b4","ios":"levelo://app?vid=42c1fdc6-38af-4ea1-a910-702e15d5a9b4"},"vehicle_type_id":"4","last_reported":1744222424,"current_range_meters":16000,"station_id":"ce4bgvp2rcd13ifvqct0","pricing_plan_id":"cebpf4jnsgd1na2vs0mg"},{"bike_id":"850d1b62-45a7-48f2-ad81-8c9218ef3260","system_id":"levelo_inurba_marseille","lat":43.30928,"lon":5.40143,"is_reserved":false,"is_disabled":false,"rental_uris":{"android":"levelo://app?vid=850d1b62-45a7-48f2-ad81-8c9218ef3260","ios":"levelo://app?vid=850d1b62-45a7-48f2-ad81-8c9218ef3260"},"vehicle_type_id":"4","last_reported":1744222424,"current_range_meters":16000,"station_id":"ce4bgvp2rcd13ifvqct0","pricing_plan_id":"cebpf4jnsgd1na2vs0mg"},{"bike_id":"3e193bf4-ed71-43ce-9a37-9a250214b00c","system_id":"levelo_inurba_marseille","lat":43.27391,"lon":5.36249,"is_reserved":false,"is_disabled":false,"rental_uris":{"android":"levelo://app?vid=3e193bf4-ed71-43ce-9a37-9a250214b00c","ios":"levelo://app?vid=3e193bf4-ed71-43ce-9a37-9a250214b00c"},"vehicle_type_id":"4","last_reported":1744222424,"current_range_meters":16000,"station_id":"ce4bhbh2rcd13ifvqeo0","pricing_plan_id":"cebpf4jnsgd1na2vs0mg"},{"bike_id":"2929d590-b2ef-43ea-98f7-8a7fee68e0cf","system_id":"levelo_inurba_marseille","lat":43.21788,"lon":5.34604,"is_reserved":false,"is_disabled":false,"rental_uris":{"android":"levelo://app?vid=2929d590-b2ef-43ea-98f7-8a7fee68e0cf","ios":"levelo://app?vid=2929d590-b2ef-43ea-98f7-8a7fee68e0cf"},"vehicle_type_id":"4","last_reported":1744222424,"current_range_meters":16400,"station_id":"","pricing_plan_id":"cebpf4jnsgd1na2vs0mg"},{"bike_id":"a648c7d4-c79b-404d-be09-837ec56372bc","system_id":"levelo_inurba_marseille","lat":43.286135,"lon":5.351017,"is_reserved":false,"is_disabled":false,"rental_uris":{"android":"levelo://app?vid=a648c7d4-c79b-404d-be09-837ec56372bc","ios":"levelo://app?vid=a648c7d4-c79b-404d-be09-837ec56372bc"},"vehicle_type_id":"4","last_reported":1744222424,"current_range_meters":16400,"station_id":"ce4bhch2rcd13ifvqeug","pricing_plan_id":"cebpf4jnsgd1na2vs0mg"},{"bike_id":"85816a38-dbf1-442b-900e-ef781106b76b","system_id":"levelo_inurba_marseille","lat":43.29534,"lon":5.38542,"is_reserved":false,"is_disabled":false,"rental_uris":{"android":"levelo://app?vid=85816a38-dbf1-442b-900e-ef781106b76b","ios":"levelo://app?vid=85816a38-dbf1-442b-900e-ef781106b76b"},"vehicle_type_id":"4","last_reported":1744222424,"current_range_meters":16400,"station_id":"ce4bgih2rcd13ifvqba0","pricing_plan_id":"cebpf4jnsgd1na2vs0mg"},{"bike_id":"7f3294b0-9d67-4339-b0d2-c809d12a790c","system_id":"levelo_inurba_marseille","lat":43.29275,"lon":5.36843,"is_reserved":false,"is_disabled":false,"rental_uris":{"android":"levelo://app?vid=7f3294b0-9d67-4339-b0d2-c809d12a790c","ios":"levelo://app?vid=7f3294b0-9d67-4339-b0d2-c809d12a790c"},"vehicle_type_id":"4","last_reported":1744222424,"current_range_meters":16400,"station_id":"ce4bhbp2rcd13ifvqesg","pricing_plan_id":"cebpf4jnsgd1na2vs0mg"},{"bike_id":"1a3cd0ab-ec77-41b3-982c-74e5093499a8","system_id":"levelo_inurba_marseille","lat":43.30438,"lon":5.38897,"is_reserved":false,"is_disabled":true,"rental_uris":{"android":"levelo://app?vid=1a3cd0ab-ec77-41b3-982c-74e5093499a8","ios":"levelo://app?vid=1a3cd0ab-ec77-41b3-982c-74e5093499a8"},"vehicle_type_id":"4","last_reported":1744222424,"current_range_meters":16400,"station_id":"ce4bgk12rcd13ifvqbi0","pricing_plan_id":"cebpf4jnsgd1na2vs0mg"},{"bike_id":"93fb948d-b430-489d-9e30-07473ac37cc7","system_id":"levelo_inurba_marseille","lat":43.24078,"lon":5.37762,"is_reserved":false,"is_disabled":false,"rental_uris":{"android":"levelo://app?vid=93fb948d-b430-489d-9e30-07473ac37cc7","ios":"levelo://app?vid=93fb948d-b430-489d-9e30-07473ac37cc7"},"vehicle_type_id":"4","last_reported":1744222424,"current_range_meters":16400,"station_id":"ce4bhnp2rcd13ifvqgvg","pricing_plan_id":"cebpf4jnsgd1na2vs0mg"},{"bike_id":"694f36d7-12db-450d-b3d2-2908ade4ba95","system_id":"levelo_inurba_marseille","lat":43.28941,"lon":5.36394,"is_reserved":false,"is_disabled":false,"rental_uris":{"android":"levelo://app?vid=694f36d7-12db-450d-b3d2-2908ade4ba95","ios":"levelo://app?vid=694f36d7-12db-450d-b3d2-2908ade4ba95"},"vehicle_type_id":"4","last_reported":1744222424,"current_range_meters":16800,"station_id":"ce4bhc92rcd13ifvqetg","pricing_plan_id":"cebpf4jnsgd1na2vs0mg"},{"bike_id":"cc6a7507-b541-4f8a-8ea4-63df0cf1be51","system_id":"levelo_inurba_marseille","lat":43.27963,"lon":5.38673,"is_reserved":false,"is_disabled":true,"rental_uris":{"android":"levelo://app?vid=cc6a7507-b541-4f8a-8ea4-63df0cf1be51","ios":"levelo://app?vid=cc6a7507-b541-4f8a-8ea4-63df0cf1be51"},"vehicle_type_id":"4","last_reported":1744222424,"current_range_meters":16400,"station_id":"ce4bhg12rcd13ifvqf80","pricing_plan_id":"cebpf4jnsgd1na2vs0mg"},{"bike_id":"6b7d9c01-6aa8-458f-b8a5-5223640151d3","system_id":"levelo_inurba_marseille","lat":43.29962,"lon":5.41327,"is_reserved":false,"is_disabled":false,"rental_uris":{"android":"levelo://app?vid=6b7d9c01-6aa8-458f-b8a5-5223640151d3","ios":"levelo://app?vid=6b7d9c01-6aa8-458f-b8a5-5223640151d3"},"vehicle_type_id":"4","last_reported":1744222424,"current_range_meters":16800,"station_id":"ce4bhp12rcd13ifvqh9g","pricing_plan_id":"cebpf4jnsgd1na2vs0mg"},{"bike_id":"b4d8b97e-a4e8-4f20-805e-414abb117004","system_id":"levelo_inurba_marseille","lat":43.27567,"lon":5.38397,"is_reserved":false,"is_disabled":false,"rental_uris":{"android":"levelo://app?vid=b4d8b97e-a4e8-4f20-805e-414abb117004","ios":"levelo://app?vid=b4d8b97e-a4e8-4f20-805e-414abb117004"},"vehicle_type_id":"4","last_reported":1744222424,"current_range_meters":16800,"station_id":"ce4bhh92rcd13ifvqfi0","pricing_plan_id":"cebpf4jnsgd1na2vs0mg"},{"bike_id":"5047455d-c97a-4875-9440-a0dd56a0356d","system_id":"levelo_inurba_marseille","lat":43.32195,"lon":5.36753,"is_reserved":false,"is_disabled":false,"rental_uris":{"android":"levelo://app?vid=5047455d-c97a-4875-9440-a0dd56a0356d","ios":"levelo://app?vid=5047455d-c97a-4875-9440-a0dd56a0356d"},"vehicle_type_id":"4","last_reported":1744222424,"current_range_meters":16800,"station_id":"","pricing_plan_id":"cebpf4jnsgd1na2vs0mg"},{"bike_id":"806c4539-d85d-45b4-8d7b-e5bd42bdbf9a","system_id":"levelo_inurba_marseille","lat":43.27171,"lon":5.40992,"is_reserved":false,"is_disabled":false,"rental_uris":{"android":"levelo://app?vid=806c4539-d85d-45b4-8d7b-e5bd42bdbf9a","ios":"levelo://app?vid=806c4539-d85d-45b4-8d7b-e5bd42bdbf9a"},"vehicle_type_id":"4","last_reported":1744222424,"current_range_meters":17200,"station_id":"ce4bhl12rcd13ifvqgf0","pricing_plan_id":"cebpf4jnsgd1na2vs0mg"},{"bike_id":"066918e9-658d-41fb-94df-83bd20a02c25","system_id":"levelo_inurba_marseille","lat":43.23053,"lon":5.35514,"is_reserved":false,"is_disabled":true,"rental_uris":{"android":"levelo://app?vid=066918e9-658d-41fb-94df-83bd20a02c25","ios":"levelo://app?vid=066918e9-658d-41fb-94df-83bd20a02c25"},"vehicle_type_id":"4","last_reported":1744222424,"current_range_meters":17200,"station_id":"cpo3342slgdg3j2ifvpg","pricing_plan_id":"cebpf4jnsgd1na2vs0mg"},{"bike_id":"ba260ce7-c346-4426-9a40-e0bbd6c1a81c","system_id":"levelo_inurba_marseille","lat":43.29622,"lon":5.38172,"is_reserved":false,"is_disabled":false,"rental_uris":{"android":"levelo://app?vid=ba260ce7-c346-4426-9a40-e0bbd6c1a81c","ios":"levelo://app?vid=ba260ce7-c346-4426-9a40-e0bbd6c1a81c"},"vehicle_type_id":"4","last_reported":1744222424,"current_range_meters":17200,"station_id":"","pricing_plan_id":"cebpf4jnsgd1na2vs0mg"},{"bike_id":"6cd64ff2-bd7d-49d7-b665-5127a27396ce","system_id":"levelo_inurba_marseille","lat":43.279506,"lon":5.410601,"is_reserved":false,"is_disabled":false,"rental_uris":{"android":"levelo://app?vid=6cd64ff2-bd7d-49d7-b665-5127a27396ce","ios":"levelo://app?vid=6cd64ff2-bd7d-49d7-b665-5127a27396ce"},"vehicle_type_id":"4","last_reported":1744222424,"current_range_meters":17200,"station_id":"","pricing_plan_id":"cebpf4jnsgd1na2vs0mg"},{"bike_id":"131fa2c5-665e-4766-907d-3fc0b2ad80c9","system_id":"levelo_inurba_marseille","lat":43.295769,"lon":5.375595,"is_reserved":false,"is_disabled":false,"rental_uris":{"android":"levelo://app?vid=131fa2c5-665e-4766-907d-3fc0b2ad80c9","ios":"levelo://app?vid=131fa2c5-665e-4766-907d-3fc0b2ad80c9"},"vehicle_type_id":"4","last_reported":1744222424,"current_range_meters":17200,"station_id":"cki0cbj6b192h4jlfktg","pricing_plan_id":"cebpf4jnsgd1na2vs0mg"},{"bike_id":"9070193a-b298-4380-961b-7746009ae4ab","system_id":"levelo_inurba_marseille","lat":43.27382,"lon":5.36251,"is_reserved":false,"is_disabled":false,"rental_uris":{"android":"levelo://app?vid=9070193a-b298-4380-961b-7746009ae4ab","ios":"levelo://app?vid=9070193a-b298-4380-961b-7746009ae4ab"},"vehicle_type_id":"4","last_reported":1744222424,"current_range_meters":17200,"station_id":"ce4bhbh2rcd13ifvqeo0","pricing_plan_id":"cebpf4jnsgd1na2vs0mg"},{"bike_id":"af1a31b1-b420-487c-bf75-581497b49a99","system_id":"levelo_inurba_marseille","lat":43.2903,"lon":5.38653,"is_reserved":false,"is_disabled":false,"rental_uris":{"android":"levelo://app?vid=af1a31b1-b420-487c-bf75-581497b49a99","ios":"levelo://app?vid=af1a31b1-b420-487c-bf75-581497b49a99"},"vehicle_type_id":"4","last_reported":1744222424,"current_range_meters":17200,"station_id":"ce4bh4p2rcd13ifvqe0g","pricing_plan_id":"cebpf4jnsgd1na2vs0mg"},{"bike_id":"43ddc771-6666-4c58-8204-7835e4ad8e95","system_id":"levelo_inurba_marseille","lat":43.26893,"lon":5.39474,"is_reserved":false,"is_disabled":false,"rental_uris":{"android":"levelo://app?vid=43ddc771-6666-4c58-8204-7835e4ad8e95","ios":"levelo://app?vid=43ddc771-6666-4c58-8204-7835e4ad8e95"},"vehicle_type_id":"4","last_reported":1744222424,"current_range_meters":17200,"station_id":"","pricing_plan_id":"cebpf4jnsgd1na2vs0mg"},{"bike_id":"918c6361-b3a0-48f6-a330-a58081aa4cae","system_id":"levelo_inurba_marseille","lat":43.24811,"lon":5.37457,"is_reserved":false,"is_disabled":false,"rental_uris":{"android":"levelo://app?vid=918c6361-b3a0-48f6-a330-a58081aa4cae","ios":"levelo://app?vid=918c6361-b3a0-48f6-a330-a58081aa4cae"},"vehicle_type_id":"4","last_reported":1744222424,"current_range_meters":17200,"station_id":"ce4bhgh2rcd13ifvqfb0","pricing_plan_id":"cebpf4jnsgd1na2vs0mg"},{"bike_id":"e84b8cf3-23a0-41ed-a7da-d8ee52f95923","system_id":"levelo_inurba_marseille","lat":43.27639,"lon":5.36113,"is_reserved":false,"is_disabled":false,"rental_uris":{"android":"levelo://app?vid=e84b8cf3-23a0-41ed-a7da-d8ee52f95923","ios":"levelo://app?vid=e84b8cf3-23a0-41ed-a7da-d8ee52f95923"},"vehicle_type_id":"4","last_reported":1744222424,"current_range_meters":17200,"station_id":"ce4bgj92rcd13ifvqbe0","pricing_plan_id":"cebpf4jnsgd1na2vs0mg"},{"bike_id":"1a377804-04a6-43e5-a7a9-49b5e069d108","system_id":"levelo_inurba_marseille","lat":43.26941,"lon":5.40266,"is_reserved":false,"is_disabled":false,"rental_uris":{"android":"levelo://app?vid=1a377804-04a6-43e5-a7a9-49b5e069d108","ios":"levelo://app?vid=1a377804-04a6-43e5-a7a9-49b5e069d108"},"vehicle_type_id":"4","last_reported":1744222424,"current_range_meters":17600,"station_id":"cjm6bp8fraef2m0cb0m0","pricing_plan_id":"cebpf4jnsgd1na2vs0mg"},{"bike_id":"f317d701-8ac8-44f7-be9a-43596e14fcca","system_id":"levelo_inurba_marseille","lat":43.25726,"lon":5.41107,"is_reserved":false,"is_disabled":false,"rental_uris":{"android":"levelo://app?vid=f317d701-8ac8-44f7-be9a-43596e14fcca","ios":"levelo://app?vid=f317d701-8ac8-44f7-be9a-43596e14fcca"},"vehicle_type_id":"4","last_reported":1744222424,"current_range_meters":17600,"station_id":"ce4bhkp2rcd13ifvqgd0","pricing_plan_id":"cebpf4jnsgd1na2vs0mg"},{"bike_id":"e3c3a051-8134-4ed3-913b-374aa217874c","system_id":"levelo_inurba_marseille","lat":43.2559,"lon":5.40455,"is_reserved":false,"is_disabled":false,"rental_uris":{"android":"levelo://app?vid=e3c3a051-8134-4ed3-913b-374aa217874c","ios":"levelo://app?vid=e3c3a051-8134-4ed3-913b-374aa217874c"},"vehicle_type_id":"4","last_reported":1744222424,"current_range_meters":17600,"station_id":"","pricing_plan_id":"cebpf4jnsgd1na2vs0mg"},{"bike_id":"3e48886e-f376-4ee9-96ac-e4d888fa90f7","system_id":"levelo_inurba_marseille","lat":43.309056,"lon":5.396545,"is_reserved":false,"is_disabled":false,"rental_uris":{"android":"levelo://app?vid=3e48886e-f376-4ee9-96ac-e4d888fa90f7","ios":"levelo://app?vid=3e48886e-f376-4ee9-96ac-e4d888fa90f7"},"vehicle_type_id":"4","last_reported":1744222424,"current_range_meters":17600,"station_id":"ce4bh012rcd13ifvqcv0","pricing_plan_id":"cebpf4jnsgd1na2vs0mg"},{"bike_id":"3f747af5-768b-4f3e-aa9b-1a1c6b6e0ded","system_id":"levelo_inurba_marseille","lat":43.2694,"lon":5.40252,"is_reserved":false,"is_disabled":false,"rental_uris":{"android":"levelo://app?vid=3f747af5-768b-4f3e-aa9b-1a1c6b6e0ded","ios":"levelo://app?vid=3f747af5-768b-4f3e-aa9b-1a1c6b6e0ded"},"vehicle_type_id":"4","last_reported":1744222424,"current_range_meters":17600,"station_id":"cjm6bp8fraef2m0cb0m0","pricing_plan_id":"cebpf4jnsgd1na2vs0mg"},{"bike_id":"f53e5a17-93b4-48d3-83d4-e353ccfe5980","system_id":"levelo_inurba_marseille","lat":43.336,"lon":5.41035,"is_reserved":false,"is_disabled":false,"rental_uris":{"android":"levelo://app?vid=f53e5a17-93b4-48d3-83d4-e353ccfe5980","ios":"levelo://app?vid=f53e5a17-93b4-48d3-83d4-e353ccfe5980"},"vehicle_type_id":"4","last_reported":1744222424,"current_range_meters":17600,"station_id":"ce4bhqh2rcd13ifvqhmg","pricing_plan_id":"cebpf4jnsgd1na2vs0mg"},{"bike_id":"600f6de6-6067-4f74-9fae-1751075d68b5","system_id":"levelo_inurba_marseille","lat":43.28355,"lon":5.38097,"is_reserved":false,"is_disabled":false,"rental_uris":{"android":"levelo://app?vid=600f6de6-6067-4f74-9fae-1751075d68b5","ios":"levelo://app?vid=600f6de6-6067-4f74-9fae-1751075d68b5"},"vehicle_type_id":"4","last_reported":1744222424,"current_range_meters":17600,"station_id":"ce4bh412rcd13ifvqdr0","pricing_plan_id":"cebpf4jnsgd1na2vs0mg"},{"bike_id":"a987821b-8706-4a5c-9e22-6efad0674af9","system_id":"levelo_inurba_marseille","lat":43.29634,"lon":5.406,"is_reserved":false,"is_disabled":false,"rental_uris":{"android":"levelo://app?vid=a987821b-8706-4a5c-9e22-6efad0674af9","ios":"levelo://app?vid=a987821b-8706-4a5c-9e22-6efad0674af9"},"vehicle_type_id":"4","last_reported":1744222424,"current_range_meters":17200,"station_id":"ce4bh0h2rcd13ifvqd60","pricing_plan_id":"cebpf4jnsgd1na2vs0mg"},