{"last_updated":1727896012,"ttl":60,"version":"2.2","data":{"bikes":[{"bike_id":"56edf063-4465-4465-8fba-a922b551198c","system_id":"levelo_inurba_marseille","lat":43.2847,"lon":5.35896,"is_reserved":false,"is_disabled":false,"rental_uris":{"android":"levelo://app?vid=56edf063-4465-4465-8fba-a922b551198c","ios":"levelo://app?vid=56edf063-4465-4465-8fba-a922b551198c"},"vehicle_type_id":"4","last_reported":1727896013,"current_range_meters":9200,"station_id":"ce4bhah2rcd13ifvqei0","pricing_plan_id":"cebpf4jnsgd1na2vs0mg"},{"bike_id":"ff95fd71-a032-4106-b338-dfc900b7311c","system_id":"levelo_inurba_marseille","lat":43.28158,"lon":5.42651,"is_reserved":false,"is_disabled":false,"rental_uris":{"android":"levelo://app?vid=ff95fd71-a032-4106-b338-dfc900b7311c","ios":"levelo://app?vid=ff95fd71-a032-4106-b338-dfc900b7311c"},"vehicle_type_id":"4","last_reported":1727896013,"current_range_meters":5600,"station_id":"ce4bhnh2rcd13ifvqgug","pricing_plan_id":"cebpf4jnsgd1na2vs0mg"},{"bike_id":"a5b51f93-e0df-44d3-aa1d-78b875114192","system_id":"levelo_inurba_marseille","lat":43.29801,"lon":5.404,"is_reserved":false,"is_disabled":false,"rental_uris":{"android":"levelo://app?vid=a5b51f93-e0df-44d3-aa1d-78b875114192","ios":"levelo://app?vid=a5b51f93-e0df-44d3-aa1d-78b875114192"},"vehicle_type_id":"4","last_reported":1727896013,"current_range_meters":6000,"station_id":"ce4bh112rcd13ifvqd90","pricing_plan_id":"cebpf4jnsgd1na2vs0mg"},{"bike_id":"b8d32f9e-42f8-4564-8290-6be3e340ccec","system_id":"levelo_inurba_marseille","lat":43.28036,"lon":5.36952,"is_reserved":false,"is_disabled":false,"rental_uris":{"android":"levelo://app?vid=b8d32f9e-42f8-4564-8290-6be3e340ccec","ios":"levelo://app?vid=b8d32f9e-42f8-4564-8290-6be3e340ccec"},"vehicle_type_id":"4","last_reported":1727896013,"current_range_meters":12400,"station_id":"ce4bha12rcd13ifvqef0","pricing_plan_id":"cebpf4jnsgd1na2vs0mg"},{"bike_id":"1947d00e-21a3-444f-a561-2847742bc055","system_id":"levelo_inurba_marseille","lat":43.266832,"lon":5.382703,"is_reserved":false,"is_disabled":false,"rental_uris":{"android":"levelo://app?vid=1947d00e-21a3-444f-a561-2847742bc055","ios":"levelo://app?vid=1947d00e-21a3-444f-a561-2847742bc055"},"vehicle_type_id":"4","last_reported":1727896013,"current_range_meters":37600,"station_id":"ce4bhg92rcd13ifvqf90","pricing_plan_id":"cebpf4jnsgd1na2vs0mg"},{"bike_id":"df4ec099-b188-48ab-96c7-11a1ce7c7011","system_id":"levelo_inurba_marseille","lat":43.24661,"lon":5.38904,"is_reserved":false,"is_disabled":false,"rental_uris":{"android":"levelo://app?vid=df4ec099-b188-48ab-96c7-11a1ce7c7011","ios":"levelo://app?vid=df4ec099-b188-48ab-96c7-11a1ce7c7011"},"vehicle_type_id":"4","last_reported":1727896013,"current_range_meters":14800,"station_id":"ce4bhg12rcd13ifvqf60","pricing_plan_id":"cebpf4jnsgd1na2vs0mg"},{"bike_id":"9ade3805-4c4b-4f13-84dc-cbed8d16c5b1","system_id":"levelo_inurba_marseille","lat":43.27997,"lon":5.40019,"is_reserved":false,"is_disabled":false,"rental_uris":{"android":"levelo://app?vid=9ade3805-4c4b-4f13-84dc-cbed8d16c5b1","ios":"levelo://app?vid=9ade3805-4c4b-4f13-84dc-cbed8d16c5b1"},"vehicle_type_id":"4","last_reported":1727896013,"current_range_meters":36400,"station_id":"ce4bho92rcd13ifvqh4g","pricing_plan_id":"cebpf4jnsgd1na2vs0mg"},{"bike_id":"a955c07c-7411-4978-bdef-3a223f18e310","system_id":"levelo_inurba_marseille","lat":43.28857,"lon":5.35853,"is_reserved":false,"is_disabled":false,"rental_uris":{"android":"levelo://app?vid=a955c07c-7411-4978-bdef-3a223f18e310","ios":"levelo://app?vid=a955c07c-7411-4978-bdef-3a223f18e310"},"vehicle_type_id":"4","last_reported":1727896013,"current_range_meters":36000,"station_id":"ce4bhb12rcd13ifvqem0","pricing_plan_id":"cebpf4jnsgd1na2vs0mg"},{"bike_id":"ff89b7e6-8dbb-4502-ae6b-954b46feae02","system_id":"levelo_inurba_marseille","lat":43.25006,"lon":5.38921,"is_reserved":false,"is_disabled":false,"rental_uris":{"android":"levelo://app?vid=ff89b7e6-8dbb-4502-ae6b-954b46feae02","ios":"levelo://app?vid=ff89b7e6-8dbb-4502-ae6b-954b46feae02"},"vehicle_type_id":"4","last_reported":1727896013,"current_range_meters":38800,"station_id":"ce4bhgp2rcd13ifvqfd0","pricing_plan_id":"cebpf4jnsgd1na2vs0mg"},{"bike_id":"4b6721b8-1a28-4ce5-a9fa-1b893f7f0ac0","system_id":"levelo_inurba_marseille","lat":43.325,"lon":5.36561,"is_reserved":false,"is_disabled":false,"rental_uris":{"android":"levelo://app?vid=4b6721b8-1a28-4ce5-a9fa-1b893f7f0ac0","ios":"levelo://app?vid=4b6721b8-1a28-4ce5-a9fa-1b893f7f0ac0"},"vehicle_type_id":"4","last_reported":1727896013,"current_range_meters":38800,"station_id":"ce4bhs12rcd13ifvqhvg","pricing_plan_id":"cebpf4jnsgd1na2vs0mg"},{"bike_id":"56991410-d98c-48b7-8ffa-26c899931d2b","system_id":"levelo_inurba_marseille","lat":43.28028,"lon":5.36951,"is_reserved":false,"is_disabled":false,"rental_uris":{"android":"levelo://app?vid=56991410-d98c-48b7-8ffa-26c899931d2b","ios":"levelo://app?vid=56991410-d98c-48b7-8ffa-26c899931d2b"},"vehicle_type_id":"4","last_reported":1727896013,"current_range_meters":18800,"station_id":"ce4bha12rcd13ifvqef0","pricing_plan_id":"cebpf4jnsgd1na2vs0mg"},{"bike_id":"3321b570-086d-4091-a24d-ba1d97ba7ad9","system_id":"levelo_inurba_marseille","lat":43.27993,"lon":5.41672,"is_reserved":false,"is_disabled":false,"rental_uris":{"android":"levelo://app?vid=3321b570-086d-4091-a24d-ba1d97ba7ad9","ios":"levelo://app?vid=3321b570-086d-4091-a24d-ba1d97ba7ad9"},"vehicle_type_id":"4","last_reported":1727896013,"current_range_meters":16000,"station_id":"ce4bho12rcd13ifvqh1g","pricing_plan_id":"cebpf4jnsgd1na2vs0mg"},{"bike_id":"a48df4b0-8f5d-4b55-9baf-305d220009c3","system_id":"levelo_inurba_marseille","lat":43.28981,"lon":5.37837,"is_reserved":false,"is_disabled":false,"rental_uris":{"android":"levelo://app?vid=a48df4b0-8f5d-4b55-9baf-305d220009c3","ios":"levelo://app?vid=a48df4b0-8f5d-4b55-9baf-305d220009c3"},"vehicle_type_id":"4","last_reported":1727896013,"current_range_meters":4000,"station_id":"ce4bh9p2rcd13ifvqed0","pricing_plan_id":"cebpf4jnsgd1na2vs0mg"},{"bike_id":"52ace432-bb1d-4a3b-a87d-9d7f88f6a69f","system_id":"levelo_inurba_marseille","lat":43.279593,"lon":5.387474,"is_reserved":false,"is_disabled":false,"rental_uris":{"android":"levelo://app?vid=52ace432-bb1d-4a3b-a87d-9d7f88f6a69f","ios":"levelo://app?vid=52ace432-bb1d-4a3b-a87d-9d7f88f6a69f"},"vehicle_type_id":"4","last_reported":1727896013,"current_range_meters":30400,"station_id":"ce4bhg12rcd13ifvqf80","pricing_plan_id":"cebpf4jnsgd1na2vs0mg"},{"bike_id":"0849a4be-4f71-4f29-81ba-a85f5ed34dc6","system_id":"levelo_inurba_marseille","lat":43.30906,"lon":5.37193,"is_reserved":false,"is_disabled":false,"rental_uris":{"android":"levelo://app?vid=0849a4be-4f71-4f29-81ba-a85f5ed34dc6","ios":"levelo://app?vid=0849a4be-4f71-4f29-81ba-a85f5ed34dc6"},"vehicle_type_id":"4","last_reported":1727896013,"current_range_meters":4000,"station_id":"ce4bguh2rcd13ifvqckg","pricing_plan_id":"cebpf4jnsgd1na2vs0mg"},{"bike_id":"808dce31-8e1d-4645-bc4d-735caed9259b","system_id":"levelo_inurba_marseille","lat":43.310699,"lon":5.38299,"is_reserved":false,"is_disabled":false,"rental_uris":{"android":"levelo://app?vid=808dce31-8e1d-4645-bc4d-735caed9259b","ios":"levelo://app?vid=808dce31-8e1d-4645-bc4d-735caed9259b"},"vehicle_type_id":"4","last_reported":1727896013,"current_range_meters":20000,"station_id":"ce4bh392rcd13ifvqdl0","pricing_plan_id":"cebpf4jnsgd1na2vs0mg"},{"bike_id":"7861c563-a554-4c26-99c2-6ab0c6264d2e","system_id":"levelo_inurba_marseille","lat":43.24181,"lon":5.39735,"is_reserved":false,"is_disabled":false,"rental_uris":{"android":"levelo://app?vid=7861c563-a554-4c26-99c2-6ab0c6264d2e","ios":"levelo://app?vid=7861c563-a554-4c26-99c2-6ab0c6264d2e"},"vehicle_type_id":"4","last_reported":1727896013,"current_range_meters":16800,"station_id":"ce4bhn12rcd13ifvqgpg","pricing_plan_id":"cebpf4jnsgd1na2vs0mg"},{"bike_id":"cbf38459-7573-4263-9008-ace0ce4801cf","system_id":"levelo_inurba_marseille","lat":43.25827,"lon":5.39444,"is_reserved":false,"is_disabled":false,"rental_uris":{"android":"levelo://app?vid=cbf38459-7573-4263-9008-ace0ce4801cf","ios":"levelo://app?vid=cbf38459-7573-4263-9008-ace0ce4801cf"},"vehicle_type_id":"4","last_reported":1727896013,"current_range_meters":38800,"station_id":"ce4bhip2rcd13ifvqft0","pricing_plan_id":"cebpf4jnsgd1na2vs0mg"},{"bike_id":"99548866-d078-4079-8b8d-558fe8862ce6","system_id":"levelo_inurba_marseille","lat":43.33029,"lon":5.39038,"is_reserved":false,"is_disabled":false,"rental_uris":{"android":"levelo://app?vid=99548866-d078-4079-8b8d-558fe8862ce6","ios":"levelo://app?vid=99548866-d078-4079-8b8d-558fe8862ce6"},"vehicle_type_id":"4","last_reported":1727896013,"current_range_meters":16000,"station_id":"ce4bhr92rcd13ifvqhrg","pricing_plan_id":"cebpf4jnsgd1na2vs0mg"},{"bike_id":"8fdd6557-ee64-4d16-ad79-3f7248fb6900","system_id":"levelo_inurba_marseille","lat":43.29048,"lon":5.39979,"is_reserved":false,"is_disabled":false,"rental_uris":{"android":"levelo://app?vid=8fdd6557-ee64-4d16-ad79-3f7248fb6900","ios":"levelo://app?vid=8fdd6557-ee64-4d16-ad79-3f7248fb6900"},"vehicle_type_id":"4","last_reported":1727896013,"current_range_meters":38800,"station_id":"ce4bh392rcd13ifvqdm0","pricing_plan_id":"cebpf4jnsgd1na2vs0mg"},{"bike_id":"20e2df69-6255-42bd-888c-ed0bd7e1d034","system_id":"levelo_inurba_marseille","lat":43.32486,"lon":5.36581,"is_reserved":false,"is_disabled":false,"rental_uris":{"android":"levelo://app?vid=20e2df69-6255-42bd-888c-ed0bd7e1d034","ios":"levelo://app?vid=20e2df69-6255-42bd-888c-ed0bd7e1d034"},"vehicle_type_id":"4","last_reported":1727896013,"current_range_meters":38000,"station_id":"ce4bhs12rcd13ifvqhvg","pricing_plan_id":"cebpf4jnsgd1na2vs0mg"},{"bike_id":"a8270c5e-a9e9-4bf6-bdee-51b1590fd95d","system_id":"levelo_inurba_marseille","lat":43.294869,"lon":5.397252,"is_reserved":false,"is_disabled":false,"rental_uris":{"android":"levelo://app?vid=a8270c5e-a9e9-4bf6-bdee-51b1590fd95d","ios":"levelo://app?vid=a8270c5e-a9e9-4bf6-bdee-51b1590fd95d"},"vehicle_type_id":"4","last_reported":1727896013,"current_range_meters":2800,"station_id":"ce4bh3h2rcd13ifvqdo0","pricing_plan_id":"cebpf4jnsgd1na2vs0mg"},{"bike_id":"6b48c6bf-0a6e-463c-8b16-306d108e0836","system_id":"levelo_inurba_marseille","lat":43.29527,"lon":5.38538,"is_reserved":false,"is_disabled":false,"rental_uris":{"android":"levelo://app?vid=6b48c6bf-0a6e-463c-8b16-306d108e0836","ios":"levelo://app?vid=6b48c6bf-0a6e-463c-8b16-306d108e0836"},"vehicle_type_id":"4","last_reported":1727896013,"current_range_meters":2000,"station_id":"ce4bgih2rcd13ifvqba0","pricing_plan_id":"cebpf4jnsgd1na2vs0mg"},{"bike_id":"87ec41e5-ca3d-403e-88fa-9a843e528a7b","system_id":"levelo_inurba_marseille","lat":43.30089,"lon":5.3908,"is_reserved":false,"is_disabled":false,"rental_uris":{"android":"levelo://app?vid=87ec41e5-ca3d-403e-88fa-9a843e528a7b","ios":"levelo://app?vid=87ec41e5-ca3d-403e-88fa-9a843e528a7b"},"vehicle_type_id":"4","last_reported":1727896013,"current_range_meters":24400,"station_id":"ce4bh192rcd13ifvqdb0","pricing_plan_id":"cebpf4jnsgd1na2vs0mg"},{"bike_id":"8975a5a7-278f-4d5f-bd0b-adae377ca66d","system_id":"levelo_inurba_marseille","lat":43.24679,"lon":5.3817,"is_reserved":false,"is_disabled":false,"rental_uris":{"android":"levelo://app?vid=8975a5a7-278f-4d5f-bd0b-adae377ca66d","ios":"levelo://app?vid=8975a5a7-278f-4d5f-bd0b-adae377ca66d"},"vehicle_type_id":"4","last_reported":1727896013,"current_range_meters":38800,"station_id":"ce4bhih2rcd13ifvqfr0","pricing_plan_id":"cebpf4jnsgd1na2vs0mg"},{"bike_id":"f6bc09a7-373c-41eb-b481-60b4c8939d5b","system_id":"levelo_inurba_marseille","lat":43.251139,"lon":5.403345,"is_reserved":false,"is_disabled":false,"rental_uris":{"android":"levelo://app?vid=f6bc09a7-373c-41eb-b481-60b4c8939d5b","ios":"levelo://app?vid=f6bc09a7-373c-41eb-b481-60b4c8939d5b"},"vehicle_type_id":"4","last_reported":1727896013,"current_range_meters":16400,"station_id":"ce4bhlh2rcd13ifvqgig","pricing_plan_id":"cebpf4jnsgd1na2vs0mg"},{"bike_id":"59f1bb81-6a4b-4063-b7a2-5fc8ce8aa2a6","system_id":"levelo_inurba_marseille","lat":43.31326,"lon":5.39697,"is_reserved":false,"is_disabled":false,"rental_uris":{"android":"levelo://app?vid=59f1bb81-6a4b-4063-b7a2-5fc8ce8aa2a6","ios":"levelo://app?vid=59f1bb81-6a4b-4063-b7a2-5fc8ce8aa2a6"},"vehicle_type_id":"4","last_reported":1727896013,"current_range_meters":3600,"station_id":"ce4bgvp2rcd13ifvqcu0","pricing_plan_id":"cebpf4jnsgd1na2vs0mg"},{"bike_id":"baf545b0-7fa5-41ff-9fdc-e94b60c0513e","system_id":"levelo_inurba_marseille","lat":43.27822,"lon":5.40705,"is_reserved":false,"is_disabled":false,"rental_uris":{"android":"levelo://app?vid=baf545b0-7fa5-41ff-9fdc-e94b60c0513e","ios":"levelo://app?vid=baf545b0-7fa5-41ff-9fdc-e94b60c0513e"},"vehicle_type_id":"4","last_reported":1727896013,"current_range_meters":36000,"station_id":"ce4bhnh2rcd13ifvqgtg","pricing_plan_id":"cebpf4jnsgd1na2vs0mg"},{"bike_id":"e892a682-8f0d-45b4-9511-6f7eaf94e86f","system_id":"levelo_inurba_marseille","lat":43.28644,"lon":5.39307,"is_reserved":false,"is_disabled":false,"rental_uris":{"android":"levelo://app?vid=e892a682-8f0d-45b4-9511-6f7eaf94e86f","ios":"levelo://app?vid=e892a682-8f0d-45b4-9511-6f7eaf94e86f"},"vehicle_type_id":"4","last_reported":1727896013,"current_range_meters":30400,"station_id":"","pricing_plan_id":"cebpf4jnsgd1na2vs0mg"},{"bike_id":"a5bc78e8-0ff4-4da0-acba-f17ca5d6e61c","system_id":"levelo_inurba_marseille","lat":43.28036,"lon":5.36949,"is_reserved":false,"is_disabled":false,"rental_uris":{"android":"levelo://app?vid=a5bc78e8-0ff4-4da0-acba-f17ca5d6e61c","ios":"levelo://app?vid=a5bc78e8-0ff4-4da0-acba-f17ca5d6e61c"},"vehicle_type_id":"4","last_reported":1727896013,"current_range_meters":38800,"station_id":"ce4bha12rcd13ifvqef0","pricing_plan_id":"cebpf4jnsgd1na2vs0mg"},{"bike_id":"8ef1aa7a-90d3-4a66-b477-dd547b72bc37","system_id":"levelo_inurba_marseille","lat":43.31491,"lon":5.37308,"is_reserved":false,"is_disabled":false,"rental_uris":{"android":"levelo://app?vid=8ef1aa7a-90d3-4a66-b477-dd547b72bc37","ios":"levelo://app?vid=8ef1aa7a-90d3-4a66-b477-dd547b72bc37"},"vehicle_type_id":"4","last_reported":1727896013,"current_range_meters":35600,"station_id":"ce4bgt12rcd13ifvqcd0","pricing_plan_id":"cebpf4jnsgd1na2vs0mg"},{"bike_id":"94945039-c769-48e5-963d-b65d040459b1","system_id":"levelo_inurba_marseille","lat":43.29032,"lon":5.38635,"is_reserved":false,"is_disabled":false,"rental_uris":{"android":"levelo://app?vid=94945039-c769-48e5-963d-b65d040459b1","ios":"levelo://app?vid=94945039-c769-48e5-963d-b65d040459b1"},"vehicle_type_id":"4","last_reported":1727896013,"current_range_meters":38800,"station_id":"ce4bh4p2rcd13ifvqe0g","pricing_plan_id":"cebpf4jnsgd1na2vs0mg"},{"bike_id":"0c7936cf-f508-4786-bc01-68b5384c5cce","system_id":"levelo_inurba_marseille","lat":43.3301,"lon":5.39046,"is_reserved":false,"is_disabled":false,"rental_uris":{"android":"levelo://app?vid=0c7936cf-f508-4786-bc01-68b5384c5cce","ios":"levelo://app?vid=0c7936cf-f508-4786-bc01-68b5384c5cce"},"vehicle_type_id":"4","last_reported":1727896013,"current_range_meters":14000,"station_id":"ce4bhr92rcd13ifvqhrg","pricing_plan_id":"cebpf4jnsgd1na2vs0mg"},{"bike_id":"1788357e-4d2c-46b7-a391-26a4e6c6111c","system_id":"levelo_inurba_marseille","lat":43.3093,"lon":5.40144,"is_reserved":false,"is_disabled":false,"rental_uris":{"android":"levelo://app?vid=1788357e-4d2c-46b7-a391-26a4e6c6111c","ios":"levelo://app?vid=1788357e-4d2c-46b7-a391-26a4e6c6111c"},"vehicle_type_id":"4","last_reported":1727896013,"current_range_meters":23200,"station_id":"ce4bgvp2rcd13ifvqct0","pricing_plan_id":"cebpf4jnsgd1na2vs0mg"},{"bike_id":"6543dd9b-af06-4696-b17f-461aae609e05","system_id":"levelo_inurba_marseille","lat":43.29265,"lon":5.38432,"is_reserved":false,"is_disabled":false,"rental_uris":{"android":"levelo://app?vid=6543dd9b-af06-4696-b17f-461aae609e05","ios":"levelo://app?vid=6543dd9b-af06-4696-b17f-461aae609e05"},"vehicle_type_id":"4","last_reported":1727896013,"current_range_meters":6400,"station_id":"ce4bh692rcd13ifvqea0","pricing_plan_id":"cebpf4jnsgd1na2vs0mg"},{"bike_id":"1d75505e-ffb7-4a18-8a0b-7195700d7697","system_id":"levelo_inurba_marseille","lat":43.29994,"lon":5.37184,"is_reserved":false,"is_disabled":false,"rental_uris":{"android":"levelo://app?vid=1d75505e-ffb7-4a18-8a0b-7195700d7697","ios":"levelo://app?vid=1d75505e-ffb7-4a18-8a0b-7195700d7697"},"vehicle_type_id":"4","last_reported":1727896013,"current_range_meters":19200,"station_id":"ce4bgr92rcd13ifvqc7g","pricing_plan_id":"cebpf4jnsgd1na2vs0mg"},{"bike_id":"edcec755-5e83-4e40-86bc-adc5a35e2a82","system_id":"levelo_inurba_marseille","lat":43.29262,"lon":5.38448,"is_reserved":false,"is_disabled":false,"rental_uris":{"android":"levelo://app?vid=edcec755-5e83-4e40-86bc-adc5a35e2a82","ios":"levelo://app?vid=edcec755-5e83-4e40-86bc-adc5a35e2a82"},"vehicle_type_id":"4","last_reported":1727896013,"current_range_meters":6400,"station_id":"ce4bh692rcd13ifvqea0","pricing_plan_id":"cebpf4jnsgd1na2vs0mg"},{"bike_id":"f62171c3-3a5a-42f9-889e-39e223d1fdfe","system_id":"levelo_inurba_marseille","lat":43.29036,"lon":5.35919,"is_reserved":false,"is_disabled":false,"rental_uris":{"android":"levelo://app?vid=f62171c3-3a5a-42f9-889e-39e223d1fdfe","ios":"levelo://app?vid=f62171c3-3a5a-42f9-889e-39e223d1fdfe"},"vehicle_type_id":"4","last_reported":1727896013,"current_range_meters":9600,"station_id":"ce4bha92rcd13ifvqeg0","pricing_plan_id":"cebpf4jnsgd1na2vs0mg"},{"bike_id":"24d92f51-0476-4c2e-838c-c91673ebb0c9","system_id":"levelo_inurba_marseille","lat":43.28155,"lon":5.42637,"is_reserved":false,"is_disabled":false,"rental_uris":{"android":"levelo://app?vid=24d92f51-0476-4c2e-838c-c91673ebb0c9","ios":"levelo://app?vid=24d92f51-0476-4c2e-838c-c91673ebb0c9"},"vehicle_type_id":"4","last_reported":1727896013,"current_range_meters":38800,"station_id":"ce4bhnh2rcd13ifvqgug","pricing_plan_id":"cebpf4jnsgd1na2vs0mg"},{"bike_id":"149ff410-e6d0-4c7a-9459-cc82bab3c39f","system_id":"levelo_inurba_marseille","lat":43.30818,"lon":5.38154,"is_reserved":false,"is_disabled":false,"rental_uris":{"android":"levelo://app?vid=149ff410-e6d0-4c7a-9459-cc82bab3c39f","ios":"levelo://app?vid=149ff410-e6d0-4c7a-9459-cc82bab3c39f"},"vehicle_type_id":"4","last_reported":1727896013,"current_range_meters":38800,"station_id":"ce4bgt12rcd13ifvqce0","pricing_plan_id":"cebpf4jnsgd1na2vs0mg"},{"bike_id":"26f4fa96-9593-4436-ab13-072e33826eaf","system_id":"levelo_inurba_marseille","lat":43.29267,"lon":5.38448,"is_reserved":false,"is_disabled":false,"rental_uris":{"android":"levelo://app?vid=26f4fa96-9593-4436-ab13-072e33826eaf","ios":"levelo://app?vid=26f4fa96-9593-4436-ab13-072e33826eaf"},"vehicle_type_id":"4","last_reported":1727896013,"current_range_meters":20800,"station_id":"ce4bh692rcd13ifvqea0","pricing_plan_id":"cebpf4jnsgd1na2vs0mg"},{"bike_id":"0d38caac-4e1b-4bc6-8634-fba8549655ca","system_id":"levelo_inurba_marseille","lat":43.32126,"lon":5.36767,"is_reserved":false,"is_disabled":false,"rental_uris":{"android":"levelo://app?vid=0d38caac-4e1b-4bc6-8634-fba8549655ca","ios":"levelo://app?vid=0d38caac-4e1b-4bc6-8634-fba8549655ca"},"vehicle_type_id":"4","last_reported":1727896013,"current_range_meters":38800,"station_id":"ce4bhrh2rcd13ifvqhug","pricing_plan_id":"cebpf4jnsgd1na2vs0mg"},{"bike_id":"e2c709ab-362f-4f28-8df2-e58b4fabe9a9","system_id":"levelo_inurba_marseille","lat":43.28105,"lon":5.37844,"is_reserved":false,"is_disabled":false,"rental_uris":{"android":"levelo://app?vid=e2c709ab-362f-4f28-8df2-e58b4fabe9a9","ios":"levelo://app?vid=e2c709ab-362f-4f28-8df2-e58b4fabe9a9"},"vehicle_type_id":"4","last_reported":1727896013,"current_range_meters":9600,"station_id":"ce4bha12rcd13ifvqee0","pricing_plan_id":"cebpf4jnsgd1na2vs0mg"},{"bike_id":"92ed6235-df8f-4623-a8c0-c242d077be0c","system_id":"levelo_inurba_marseille","lat":43.2944,"lon":5.39771,"is_reserved":false,"is_disabled":false,"rental_uris":{"android":"levelo://app?vid=92ed6235-df8f-4623-a8c0-c242d077be0c","ios":"levelo://app?vid=92ed6235-df8f-4623-a8c0-c242d077be0c"},"vehicle_type_id":"4","last_reported":1727896013,"current_range_meters":20000,"station_id":"ce4bh3h2rcd13ifvqdo0","pricing_plan_id":"cebpf4jnsgd1na2vs0mg"},{"bike_id":"71d5e172-e35a-48d2-95ad-031cef6fbb44","system_id":"levelo_inurba_marseille","lat":43.29553,"lon":5.42297,"is_reserved":false,"is_disabled":false,"rental_uris":{"android":"levelo://app?vid=71d5e172-e35a-48d2-95ad-031cef6fbb44","ios":"levelo://app?vid=71d5e172-e35a-48d2-95ad-031cef6fbb44"},"vehicle_type_id":"4","last_reported":1727896013,"current_range_meters":38800,"station_id":"ce4bhph2rcd13ifvqhdg","pricing_plan_id":"cebpf4jnsgd1na2vs0mg"},{"bike_id":"b5391f7d-6232-46eb-bcca-0e380cdafe75","system_id":"levelo_inurba_marseille","lat":43.30477,"lon":5.37921,"is_reserved":false,"is_disabled":false,"rental_uris":{"android":"levelo://app?vid=b5391f7d-6232-46eb-bcca-0e380cdafe75","ios":"levelo://app?vid=b5391f7d-6232-46eb-bcca-0e380cdafe75"},"vehicle_type_id":"4","last_reported":1727896013,"current_range_meters":10800,"station_id":"ce4bgup2rcd13ifvqcn0","pricing_plan_id":"cebpf4jnsgd1na2vs0mg"},{"bike_id":"244b6c9b-f197-4618-a8c9-5e3c388ab8d8","system_id":"levelo_inurba_marseille","lat":43.292,"lon":5.39314,"is_reserved":false,"is_disabled":false,"rental_uris":{"android":"levelo://app?vid=244b6c9b-f197-4618-a8c9-5e3c388ab8d8","ios":"levelo://app?vid=244b6c9b-f197-4618-a8c9-5e3c388ab8d8"},"vehicle_type_id":"4","last_reported":1727896013,"current_range_meters":24000,"station_id":"ce4bh192rcd13ifvqdd0","pricing_plan_id":"cebpf4jnsgd1na2vs0mg"},{"bike_id":"499cb64c-6fb8-4407-89d8-a118e3c5c28d","system_id":"levelo_inurba_marseille","lat":43.27996,"lon":5.40006,"is_reserved":false,"is_disabled":false,"rental_uris":{"android":"levelo://app?vid=499cb64c-6fb8-4407-89d8-a118e3c5c28d","ios":"levelo://app?vid=499cb64c-6fb8-4407-89d8-a118e3c5c28d"},"vehicle_type_id":"4","last_reported":1727896013,"current_range_meters":24800,"station_id":"ce4bho92rcd13ifvqh4g","pricing_plan_id":"cebpf4jnsgd1na2vs0mg"},{"bike_id":"7defd3dc-b176-43a6-85a3-35947f1de603","system_id":"levelo_inurba_marseille","lat":43.30266,"lon":5.40082,"is_reserved":false,"is_disabled":false,"rental_uris":{"android":"levelo://app?vid=7defd3dc-b176-43a6-85a3-35947f1de603","ios":"levelo://app?vid=7defd3dc-b176-43a6-85a3-35947f1de603"},"vehicle_type_id":"4","last_reported":1727896013,"current_range_meters":8000,"station_id":"ce4bgvh2rcd13ifvqcs0","pricing_plan_id":"cebpf4jnsgd1na2vs0mg"},{"bike_id":"1234d396-3226-4fcd-9c2b-d34a16682e5e","system_id":"levelo_inurba_marseille","lat":43.28475,"lon":5.38414,"is_reserved":false,"is_disabled":false,"rental_uris":{"android":"levelo://app?vid=1234d396-3226-4fcd-9c2b-d34a16682e5e","ios":"levelo://app?vid=1234d396-3226-4fcd-9c2b-d34a16682e5e"},"vehicle_type_id":"4","last_reported":1727896013,"current_range_meters":8800,"station_id":"ce4bh512rcd13ifvqe3g","pricing_plan_id":"cebpf4jnsgd1na2vs0mg"},{"bike_id":"137bd883-3746-4c09-ab43-f05b829b4560","system_id":"levelo_inurba_marseille","lat":43.28074,"lon":5.3933,"is_reserved":false,"is_disabled":false,"rental_uris":{"android":"levelo://app?vid=137bd883-3746-4c09-ab43-f05b829b4560","ios":"levelo://app?vid=137bd883-3746-4c09-ab43-f05b829b4560"},"vehicle_type_id":"4","last_reported":1727896013,"current_range_meters":9200,"station_id":"ce4bhjp2rcd13ifvqga0","pricing_plan_id":"cebpf4jnsgd1na2vs0mg"},{"bike_id":"0a5750bc-f85d-437a-b4f0-458da63ac446","system_id":"levelo_inurba_marseille","lat":43.288822,"lon":5.360974,"is_reserved":false,"is_disabled":false,"rental_uris":{"android":"levelo://app?vid=0a5750bc-f85d-437a-b4f0-458da63ac446","ios":"levelo://app?vid=0a5750bc-f85d-437a-b4f0-458da63ac446"},"vehicle_type_id":"4","last_reported":1727896013,"current_range_meters":34000,"station_id":"","pricing_plan_id":"cebpf4jnsgd1na2vs0mg"},{"bike_id":"6e891133-2313-4211-bc29-347ec48d865c","system_id":"levelo_inurba_marseille","lat":43.29057,"lon":5.3998,"is_reserved":false,"is_disabled":false,"rental_uris":{"android":"levelo://app?vid=6e891133-2313-4211-bc29-347ec48d865c","ios":"levelo://app?vid=6e891133-2313-4211-bc29-347ec48d865c"},"vehicle_type_id":"4","last_reported":1727896013,"current_range_meters":38800,"station_id":"ce4bh392rcd13ifvqdm0","pricing_plan_id":"cebpf4jnsgd1na2vs0mg"},{"bike_id":"80528afb-5ee9-4f47-9381-7cd05b948a03","system_id":"levelo_inurba_marseille","lat":43.27997,"lon":5.40016,"is_reserved":false,"is_disabled":false,"rental_uris":{"android":"levelo://app?vid=80528afb-5ee9-4f47-9381-7cd05b948a03","ios":"levelo://app?vid=80528afb-5ee9-4f47-9381-7cd05b948a03"},"vehicle_type_id":"4","last_reported":1727896013,"current_range_meters":37600,"station_id":"ce4bho92rcd13ifvqh4g","pricing_plan_id":"cebpf4jnsgd1na2vs0mg"},{"bike_id":"9bb1827b-7858-47e7-aca0-f7469a633994","system_id":"levelo_inurba_marseille","lat":43.30323,"lon":5.40439,"is_reserved":false,"is_disabled":false,"rental_uris":{"android":"levelo://app?vid=9bb1827b-7858-47e7-aca0-f7469a633994","ios":"levelo://app?vid=9bb1827b-7858-47e7-aca0-f7469a633994"},"vehicle_type_id":"4","last_reported":1727896013,"current_range_meters":36400,"station_id":"ce4bh012rcd13ifvqd10","pricing_plan_id":"cebpf4jnsgd1na2vs0mg"},{"bike_id":"99ff6a93-9afd-403c-83e9-6bb6100170e6","system_id":"levelo_inurba_marseille","lat":43.32545,"lon":5.41454,"is_reserved":false,"is_disabled":false,"rental_uris":{"android":"levelo://app?vid=99ff6a93-9afd-403c-83e9-6bb6100170e6","ios":"levelo://app?vid=99ff6a93-9afd-403c-83e9-6bb6100170e6"},"vehicle_type_id":"4","last_reported":1727896013,"current_range_meters":38800,"station_id":"ce4bhq12rcd13ifvqhhg","pricing_plan_id":"cebpf4jnsgd1na2vs0mg"},{"bike_id":"1f8d1e3d-9d2a-4e06-afd4-5fea70da48f3","system_id":"levelo_inurba_marseille","lat":43.24669,"lon":5.38167,"is_reserved":false,"is_disabled":false,"rental_uris":{"android":"levelo://app?vid=1f8d1e3d-9d2a-4e06-afd4-5fea70da48f3","ios":"levelo://app?vid=1f8d1e3d-9d2a-4e06-afd4-5fea70da48f3"},"vehicle_type_id":"4","last_reported":1727896013,"current_range_meters":38400,"station_id":"ce4bhih2rcd13ifvqfr0","pricing_plan_id":"cebpf4jnsgd1na2vs0mg"},{"bike_id":"2d0137f8-a1d5-48e0-bae5-a62e552756ce","system_id":"levelo_inurba_marseille","lat":43.31498,"lon":5.37309,"is_reserved":false,"is_disabled":false,"rental_uris":{"android":"levelo://app?vid=2d0137f8-a1d5-48e0-bae5-a62e552756ce","ios":"levelo://app?vid=2d0137f8-a1d5-48e0-bae5-a62e552756ce"},"vehicle_type_id":"4","last_reported":1727896013,"current_range_meters":12000,"station_id":"ce4bgt12rcd13ifvqcd0","pricing_plan_id":"cebpf4jnsgd1na2vs0mg"},{"bike_id":"23866f54-4f5e-4d91-8798-34b0a879fd45","system_id":"levelo_inurba_marseille","lat":43.3042,"lon":5.41281,"is_reserved":false,"is_disabled":false,"rental_uris":{"android":"levelo://app?vid=23866f54-4f5e-4d91-8798-34b0a879fd45","ios":"levelo://app?vid=23866f54-4f5e-4d91-8798-34b0a879fd45"},"vehicle_type_id":"4","last_reported":1727896013,"current_range_meters":22800,"station_id":"ce4bhop2rcd13ifvqh8g","pricing_plan_id":"cebpf4jnsgd1na2vs0mg"},{"bike_id":"a2218257-1c7d-45f5-b3eb-81697fb85e05","system_id":"levelo_inurba_marseille","lat":43.29801,"lon":5.39349,"is_reserved":false,"is_disabled":false,"rental_uris":{"android":"levelo://app?vid=a2218257-1c7d-45f5-b3eb-81697fb85e05","ios":"levelo://app?vid=a2218257-1c7d-45f5-b3eb-81697fb85e05"},"vehicle_type_id":"4","last_reported":1727896013,"current_range_meters":26800,"station_id":"chh1huq6cuj3fo74tm60","pricing_plan_id":"cebpf4jnsgd1na2vs0mg"},{"bike_id":"bb311a06-44e1-42e0-aa35-7754c03fb24a","system_id":"levelo_inurba_marseille","lat":43.287323,"lon":5.379345,"is_reserved":false,"is_disabled":false,"rental_uris":{"android":"levelo://app?vid=bb311a06-44e1-42e0-aa35-7754c03fb24a","ios":"levelo://app?vid=bb311a06-44e1-42e0-aa35-7754c03fb24a"},"vehicle_type_id":"4","last_reported":1727896013,"current_range_meters":20400,"station_id":"ce4bh9p2rcd13ifvqec0","pricing_plan_id":"cebpf4jnsgd1na2vs0mg"},{"bike_id":"5d8041cf-19b6-4f04-b6db-837ad2e405c1","system_id":"levelo_inurba_marseille","lat":43.28467,"lon":5.35903,"is_reserved":false,"is_disabled":false,"rental_uris":{"android":"levelo://app?vid=5d8041cf-19b6-4f04-b6db-837ad2e405c1","ios":"levelo://app?vid=5d8041cf-19b6-4f04-b6db-837ad2e405c1"},"vehicle_type_id":"4","last_reported":1727896013,"current_range_meters":24800,"station_id":"ce4bhah2rcd13ifvqei0","pricing_plan_id":"cebpf4jnsgd1na2vs0mg"},{"bike_id":"e865db4a-278f-4374-8259-819184dcd8f4","system_id":"levelo_inurba_marseille","lat":43.29796,"lon":5.39346,"is_reserved":false,"is_disabled":false,"rental_uris":{"android":"levelo://app?vid=e865db4a-278f-4374-8259-819184dcd8f4","ios":"levelo://app?vid=e865db4a-278f-4374-8259-819184dcd8f4"},"vehicle_type_id":"4","last_reported":1727896013,"current_range_meters":11600,"station_id":"chh1huq6cuj3fo74tm60","pricing_plan_id":"cebpf4jnsgd1na2vs0mg"},{"bike_id":"3f102560-f707-462b-b7fb-bb04cf6446bd","system_id":"levelo_inurba_marseille","lat":43.30927,"lon":5.40144,"is_reserved":false,"is_disabled":false,"rental_uris":{"android":"levelo://app?vid=3f102560-f707-462b-b7fb-bb04cf6446bd","ios":"levelo://app?vid=3f102560-f707-462b-b7fb-bb04cf6446bd"},"vehicle_type_id":"4","last_reported":1727896013,"current_range_meters":23200,"station_id":"ce4bgvp2rcd13ifvqct0","pricing_plan_id":"cebpf4jnsgd1na2vs0mg"},{"bike_id":"ee63a36a-1a3b-4781-9e50-ea7b0e0a2162","system_id":"levelo_inurba_marseille","lat":43.25578,"lon":5.38244,"is_reserved":false,"is_disabled":false,"rental_uris":{"android":"levelo://app?vid=ee63a36a-1a3b-4781-9e50-ea7b0e0a2162","ios":"levelo://app?vid=ee63a36a-1a3b-4781-9e50-ea7b0e0a2162"},"vehicle_type_id":"4","last_reported":1727896013,"current_range_meters":32800,"station_id":"ce4bhih2rcd13ifvqfs0","pricing_plan_id":"cebpf4jnsgd1na2vs0mg"},{"bike_id":"5b95b53b-de42-4354-8e1a-9524026b6a69","system_id":"levelo_inurba_marseille","lat":43.27915,"lon":5.39589,"is_reserved":false,"is_disabled":false,"rental_uris":{"android":"levelo://app?vid=5b95b53b-de42-4354-8e1a-9524026b6a69","ios":"levelo://app?vid=5b95b53b-de42-4354-8e1a-9524026b6a69"},"vehicle_type_id":"4","last_reported":1727896013,"current_range_meters":35200,"station_id":"ce4bhf92rcd13ifvqf40","pricing_plan_id":"cebpf4jnsgd1na2vs0mg"},{"bike_id":"508b3170-34e3-430c-b754-dd4ea96fae6e","system_id":"levelo_inurba_marseille","lat":43.28722,"lon":5.36093,"is_reserved":false,"is_disabled":false,"rental_uris":{"android":"levelo://app?vid=508b3170-34e3-430c-b754-dd4ea96fae6e","ios":"levelo://app?vid=508b3170-34e3-430c-b754-dd4ea96fae6e"},"vehicle_type_id":"4","last_reported":1727896013,"current_range_meters":38800,"station_id":"cki0cbj6b192h4jlfktg","pricing_plan_id":"cebpf4jnsgd1na2vs0mg"},{"bike_id":"30077ecd-1d3c-4ffe-bf30-a1a2991e1aca","system_id":"levelo_inurba_marseille","lat":43.23055,"lon":5.35498,"is_reserved":false,"is_disabled":false,"rental_uris":{"android":"levelo://app?vid=30077ecd-1d3c-4ffe-bf30-a1a2991e1aca","ios":"levelo://app?vid=30077ecd-1d3c-4ffe-bf30-a1a2991e1aca"},"vehicle_type_id":"4","last_reported":1727896013,"current_range_meters":36800,"station_id":"cpo3342slgdg3j2ifvpg","pricing_plan_id":"cebpf4jnsgd1na2vs0mg"},{"bike_id":"dae7f961-7b24-445c-9d73-f7c5a15ebe66","system_id":"levelo_inurba_marseille","lat":43.2795,"lon":5.41043,"is_reserved":false,"is_disabled":false,"rental_uris":{"android":"levelo://app?vid=dae7f961-7b24-445c-9d73-f7c5a15ebe66","ios":"levelo://app?vid=dae7f961-7b24-445c-9d73-f7c5a15ebe66"},"vehicle_type_id":"4","last_reported":1727896013,"current_range_meters":33200,"station_id":"ce4bhnp2rcd13ifvqh0g","pricing_plan_id":"cebpf4jnsgd1na2vs0mg"},{"bike_id":"6c69fdf6-1ddd-40c0-9eeb-61e40157e46d","system_id":"levelo_inurba_marseille","lat":43.28673,"lon":5.38663,"is_reserved":false,"is_disabled":false,"rental_uris":{"android":"levelo://app?vid=6c69fdf6-1ddd-40c0-9eeb-61e40157e46d","ios":"levelo://app?vid=6c69fdf6-1ddd-40c0-9eeb-61e40157e46d"},"vehicle_type_id":"4","last_reported":1727896013,"current_range_meters":26000,"station_id":"ce4bh492rcd13ifvqdug","pricing_plan_id":"cebpf4jnsgd1na2vs0mg"},{"bike_id":"123ff6ed-4385-4a10-999b-eb298bcab43c","system_id":"levelo_inurba_marseille","lat":43.33025,"lon":5.39044,"is_reserved":false,"is_disabled":false,"rental_uris":{"android":"levelo://app?vid=123ff6ed-4385-4a10-999b-eb298bcab43c","ios":"levelo://app?vid=123ff6ed-4385-4a10-999b-eb298bcab43c"},"vehicle_type_id":"4","last_reported":1727896013,"current_range_meters":39200,"station_id":"ce4bhr92rcd13ifvqhrg","pricing_plan_id":"cebpf4jnsgd1na2vs0mg"},{"bike_id":"ad9bd38c-6e21-41e8-8513-132c1c15c21b","system_id":"levelo_inurba_marseille","lat":43.29904,"lon":5.43669,"is_reserved":false,"is_disabled":false,"rental_uris":{"android":"levelo://app?vid=ad9bd38c-6e21-41e8-8513-132c1c15c21b","ios":"levelo://app?vid=ad9bd38c-6e21-41e8-8513-132c1c15c21b"},"vehicle_type_id":"4","last_reported":1727896013,"current_range_meters":20000,"station_id":"ce4bhpp2rcd13ifvqhfg","pricing_plan_id":"cebpf4jnsgd1na2vs0mg"},{"bike_id":"a4965f4a-14d9-4262-bebf-3d2d5b88c161","system_id":"levelo_inurba_marseille","lat":43.29799,"lon":5.39346,"is_reserved":false,"is_disabled":false,"rental_uris":{"android":"levelo://app?vid=a4965f4a-14d9-4262-bebf-3d2d5b88c161","ios":"levelo://app?vid=a4965f4a-14d9-4262-bebf-3d2d5b88c161"},"vehicle_type_id":"4","last_reported":1727896013,"current_range_meters":21600,"station_id":"chh1huq6cuj3fo74tm60","pricing_plan_id":"cebpf4jnsgd1na2vs0mg"},{"bike_id":"9a2d3eb4-5bb0-446a-b10a-38f2501ad9e5","system_id":"levelo_inurba_marseille","lat":43.28084,"lon":5.39662,"is_reserved":false,"is_disabled":false,"rental_uris":{"android":"levelo://app?vid=9a2d3eb4-5bb0-446a-b10a-38f2501ad9e5","ios":"levelo://app?vid=9a2d3eb4-5bb0-446a-b10a-38f2501ad9e5"},"vehicle_type_id":"4","last_reported":1727896013,"current_range_meters":38800,"station_id":"ce4bho12rcd13ifvqh2g","pricing_plan_id":"cebpf4jnsgd1na2vs0mg"},{"bike_id":"2cd7a31a-0227-453b-92ae-4d49db02a971","system_id":"levelo_inurba_marseille","lat":43.29284,"lon":5.40115,"is_reserved":false,"is_disabled":false,"rental_uris":{"android":"levelo://app?vid=2cd7a31a-0227-453b-92ae-4d49db02a971","ios":"levelo://app?vid=2cd7a31a-0227-453b-92ae-4d49db02a971"},"vehicle_type_id":"4","last_reported":1727896013,"current_range_meters":3200,"station_id":"ce4bh312rcd13ifvqdk0","pricing_plan_id":"cebpf4jnsgd1na2vs0mg"},{"bike_id":"751769b1-62db-464a-bf18-4222d99d9e30","system_id":"levelo_inurba_marseille","lat":43.24996,"lon":5.38935,"is_reserved":false,"is_disabled":false,"rental_uris":{"android":"levelo://app?vid=751769b1-62db-464a-bf18-4222d99d9e30","ios":"levelo://app?vid=751769b1-62db-464a-bf18-4222d99d9e30"},"vehicle_type_id":"4","last_reported":1727896013,"current_range_meters":38800,"station_id":"ce4bhgp2rcd13ifvqfd0","pricing_plan_id":"cebpf4jnsgd1na2vs0mg"},{"bike_id":"d972cf52-d373-4ba8-87e3-95f4d1e64eee","system_id":"levelo_inurba_marseille","lat":43.29789,"lon":5.37107,"is_reserved":false,"is_disabled":false,"rental_uris":{"android":"levelo://app?vid=d972cf52-d373-4ba8-87e3-95f4d1e64eee","ios":"levelo://app?vid=d972cf52-d373-4ba8-87e3-95f4d1e64eee"},"vehicle_type_id":"4","last_reported":1727896013,"current_range_meters":3600,"station_id":"ce4bgop2rcd13ifvqc1g","pricing_plan_id":"cebpf4jnsgd1na2vs0mg"},{"bike_id":"0c96b1bb-428c-438b-9e93-a7688a1db556","system_id":"levelo_inurba_marseille","lat":43.317583,"lon":5.390177,"is_reserved":false,"is_disabled":false,"rental_uris":{"android":"levelo://app?vid=0c96b1bb-428c-438b-9e93-a7688a1db556","ios":"levelo://app?vid=0c96b1bb-428c-438b-9e93-a7688a1db556"},"vehicle_type_id":"4","last_reported":1727896013,"current_range_meters":11600,"station_id":"ce4bhqp2rcd13ifvqhng","pricing_plan_id":"cebpf4jnsgd1na2vs0mg"},{"bike_id":"6cb6d0f1-ac09-4935-b320-1a23b7279ae8","system_id":"levelo_inurba_marseille","lat":43.24185,"lon":5.39736,"is_reserved":false,"is_disabled":false,"rental_uris":{"android":"levelo://app?vid=6cb6d0f1-ac09-4935-b320-1a23b7279ae8","ios":"levelo://app?vid=6cb6d0f1-ac09-4935-b320-1a23b7279ae8"},"vehicle_type_id":"4","last_reported":1727896013,"current_range_meters":11600,"station_id":"ce4bhn12rcd13ifvqgpg","pricing_plan_id":"cebpf4jnsgd1na2vs0mg"},{"bike_id":"5bd58d62-3e59-4583-9f27-c2849b27bd5c","system_id":"levelo_inurba_marseille","lat":43.24193,"lon":5.39731,"is_reserved":false,"is_disabled":false,"rental_uris":{"android":"levelo://app?vid=5bd58d62-3e59-4583-9f27-c2849b27bd5c","ios":"levelo://app?vid=5bd58d62-3e59-4583-9f27-c2849b27bd5c"},"vehicle_type_id":"4","last_reported":1727896013,"current_range_meters":12400,"station_id":"ce4bhn12rcd13ifvqgpg","pricing_plan_id":"cebpf4jnsgd1na2vs0mg"},{"bike_id":"bceeceef-28be-4631-befc-7ca2509a7015","system_id":"levelo_inurba_marseille","lat":43.28866,"lon":5.35848,"is_reserved":false,"is_disabled":false,"rental_uris":{"android":"levelo://app?vid=bceeceef-28be-4631-befc-7ca2509a7015","ios":"levelo://app?vid=bceeceef-28be-4631-befc-7ca2509a7015"},"vehicle_type_id":"4","last_reported":1727896013,"current_range_meters":26000,"station_id":"ce4bhb12rcd13ifvqem0","pricing_plan_id":"cebpf4jnsgd1na2vs0mg"},{"bike_id":"51fc207a-2558-409f-a00c-5f7a969e338b","system_id":"levelo_inurba_marseille","lat":43.31886,"lon":5.42266,"is_reserved":false,"is_disabled":false,"rental_uris":{"android":"levelo://app?vid=51fc207a-2558-409f-a00c-5f7a969e338b","ios":"levelo://app?vid=51fc207a-2558-409f-a00c-5f7a969e338b"},"vehicle_type_id":"4","last_reported":1727896013,"current_range_meters":14000,"station_id":"ce4bhp92rcd13ifvqhcg","pricing_plan_id":"cebpf4jnsgd1na2vs0mg"},{"bike_id":"cddc9843-fee7-437e-b2f3-26f36fa987eb","system_id":"levelo_inurba_marseille","lat":43.27182,"lon":5.40998,"is_reserved":false,"is_disabled":false,"rental_uris":{"android":"levelo://app?vid=cddc9843-fee7-437e-b2f3-26f36fa987eb","ios":"levelo://app?vid=cddc9843-fee7-437e-b2f3-26f36fa987eb"},"vehicle_type_id":"4","last_reported":1727896013,"current_range_meters":18000,"station_id":"ce4bhl12rcd13ifvqgf0","pricing_plan_id":"cebpf4jnsgd1na2vs0mg"},{"bike_id":"8b12e281-9bfa-4550-a9dd-53e8ee9c5408","system_id":"levelo_inurba_marseille","lat":43.28711,"lon":5.37403,"is_reserved":false,"is_disabled":false,"rental_uris":{"android":"levelo://app?vid=8b12e281-9bfa-4550-a9dd-53e8ee9c5408","ios":"levelo://app?vid=8b12e281-9bfa-4550-a9dd-53e8ee9c5408"},"vehicle_type_id":"4","last_reported":1727896013,"current_range_meters":22000,"station_id":"ce4bh3p2rcd13ifvqdq0","pricing_plan_id":"cebpf4jnsgd1na2vs0mg"},{"bike_id":"05ea7464-f5d1-462f-b9c6-e544cfc28818","system_id":"levelo_inurba_marseille","lat":43.29516,"lon":5.39045,"is_reserved":false,"is_disabled":false,"rental_uris":{"android":"levelo://app?vid=05ea7464-f5d1-462f-b9c6-e544cfc28818","ios":"levelo://app?vid=05ea7464-f5d1-462f-b9c6-e544cfc28818"},"vehicle_type_id":"4","last_reported":1727896013,"current_range_meters":29600,"station_id":"ce4bh3p2rcd13ifvqdp0","pricing_plan_id":"cebpf4jnsgd1na2vs0mg"},{"bike_id":"b482df99-7ee8-4eea-8d8b-1d22667db679","system_id":"levelo_inurba_marseille","lat":43.29333,"lon":5.42835,"is_reserved":false,"is_disabled":false,"rental_uris":{"android":"levelo://app?vid=b482df99-7ee8-4eea-8d8b-1d22667db679","ios":"levelo://app?vid=b482df99-7ee8-4eea-8d8b-1d22667db679"},"vehicle_type_id":"4","last_reported":1727896013,"current_range_meters":20000,"station_id":"","pricing_plan_id":"cebpf4jnsgd1na2vs0mg"},{"bike_id":"ef531ee4-2820-4dff-98a7-e3a605e42506","system_id":"levelo_inurba_marseille","lat":43.30329,"lon":5.4044,"is_reserved":false,"is_disabled":false,"rental_uris":{"android":"levelo://app?vid=ef531ee4-2820-4dff-98a7-e3a605e42506","ios":"levelo://app?vid=ef531ee4-2820-4dff-98a7-e3a605e42506"},"vehicle_type_id":"4","last_reported":1727896013,"current_range_meters":38800,"station_id":"ce4bh012rcd13ifvqd10","pricing_plan_id":"cebpf4jnsgd1na2vs0mg"},{"bike_id":"2396aba7-c99b-4b8e-97f0-cc89734783f1","system_id":"levelo_inurba_marseille","lat":43.26215,"lon":5.37921,"is_reserved":false,"is_disabled":false,"rental_uris":{"android":"levelo://app?vid=2396aba7-c99b-4b8e-97f0-cc89734783f1","ios":"levelo://app?vid=2396aba7-c99b-4b8e-97f0-cc89734783f1"},"vehicle_type_id":"4","last_reported":1727896013,"current_range_meters":30000,"station_id":"ce4bhjp2rcd13ifvqg90","pricing_plan_id":"cebpf4jnsgd1na2vs0mg"},{"bike_id":"a9221054-aa03-45a2-88ee-239a3560c045","system_id":"levelo_inurba_marseille","lat":43.26561,"lon":5.37284,"is_reserved":false,"is_disabled":false,"rental_uris":{"android":"levelo://app?vid=a9221054-aa03-45a2-88ee-239a3560c045","ios":"levelo://app?vid=a9221054-aa03-45a2-88ee-239a3560c045"},"vehicle_type_id":"4","last_reported":1727896013,"current_range_meters":38000,"station_id":"ce4bhg12rcd13ifvqf70","pricing_plan_id":"cebpf4jnsgd1na2vs0mg"},{"bike_id":"dbf30839-29e6-4bda-94a3-d68e2cdb83e1","system_id":"levelo_inurba_marseille","lat":43.26216,"lon":5.37447,"is_reserved":false,"is_disabled":false,"rental_uris":{"android":"levelo://app?vid=dbf30839-29e6-4bda-94a3-d68e2cdb83e1","ios":"levelo://app?vid=dbf30839-29e6-4bda-94a3-d68e2cdb83e1"},"vehicle_type_id":"4","last_reported":1727896013,"current_range_meters":36800,"station_id":"ce4bhgp2rcd13ifvqfc0","pricing_plan_id":"cebpf4jnsgd1na2vs0mg"},{"bike_id":"53c6fe7a-c5f0-4c29-bdb6-08c6c7db5c71","system_id":"levelo_inurba_marseille","lat":43.32065,"lon":5.36775,"is_reserved":false,"is_disabled":false,"rental_uris":{"android":"levelo://app?vid=53c6fe7a-c5f0-4c29-bdb6-08c6c7db5c71","ios":"levelo://app?vid=53c6fe7a-c5f0-4c29-bdb6-08c6c7db5c71"},"vehicle_type_id":"4","last_reported":1727896013,"current_range_meters":14800,"station_id":"ce4bhrh2rcd13ifvqhug","pricing_plan_id":"cebpf4jnsgd1na2vs0mg"},{"bike_id":"e35a199c-c4c8-46cb-afce-efee42ad4498","system_id":"levelo_inurba_marseille","lat":43.29024,"lon":5.35935,"is_reserved":false,"is_disabled":false,"rental_uris":{"android":"levelo://app?vid=e35a199c-c4c8-46cb-afce-efee42ad4498","ios":"levelo://app?vid=e35a199c-c4c8-46cb-afce-efee42ad4498"},"vehicle_type_id":"4","last_reported":1727896013,"current_range_meters":38400,"station_id":"ce4bha92rcd13ifvqeg0","pricing_plan_id":"cebpf4jnsgd1na2vs0mg"},{"bike_id":"6ce60676-3f86-4aaa-a5df-572436c32ad4","system_id":"levelo_inurba_marseille","lat":43.23192,"lon":5.35551,"is_reserved":false,"is_disabled":false,"rental_uris":{"android":"levelo://app?vid=6ce60676-3f86-4aaa-a5df-572436c32ad4","ios":"levelo://app?vid=6ce60676-3f86-4aaa-a5df-572436c32ad4"},"vehicle_type_id":"4","last_reported":1727896013,"current_range_meters":24400,"station_id":"ce4bhu92rcd13ifvqi70","pricing_plan_id":"cebpf4jnsgd1na2vs0mg"},{"bike_id":"92956c01-9282-4d6d-af22-88b69ff8ad02","system_id":"levelo_inurba_marseille","lat":43.29522,"lon":5.39042,"is_reserved":false,"is_disabled":false,"rental_uris":{"android":"levelo://app?vid=92956c01-9282-4d6d-af22-88b69ff8ad02","ios":"levelo://app?vid=92956c01-9282-4d6d-af22-88b69ff8ad02"},"vehicle_type_id":"4","last_reported":1727896013,"current_range_meters":35200,"station_id":"ce4bh3p2rcd13ifvqdp0","pricing_plan_id":"cebpf4jnsgd1na2vs0mg"},{"bike_id":"15bc2474-416b-4ea7-ae8a-edd4eaaadae5","system_id":"levelo_inurba_marseille","lat":43.31533,"lon":5.38043,"is_reserved":false,"is_disabled":false,"rental_uris":{"android":"levelo://app?vid=15bc2474-416b-4ea7-ae8a-edd4eaaadae5","ios":"levelo://app?vid=15bc2474-416b-4ea7-ae8a-edd4eaaadae5"},"vehicle_type_id":"4","last_reported":1727896013,"current_range_meters":8000,"station_id":"ce4bhsp2rcd13ifvqi50","pricing_plan_id":"cebpf4jnsgd1na2vs0mg"},{"bike_id":"8fca1e2c-2b8f-4833-8179-ab1b9eea0206","system_id":"levelo_inurba_marseille","lat":43.28927,"lon":5.38405,"is_reserved":false,"is_disabled":false,"rental_uris":{"android":"levelo://app?vid=8fca1e2c-2b8f-4833-8179-ab1b9eea0206","ios":"levelo://app?vid=8fca1e2c-2b8f-4833-8179-ab1b9eea0206"},"vehicle_type_id":"4","last_reported":1727896013,"current_range_meters":19600,"station_id":"ce4bh612rcd13ifvqe6g","pricing_plan_id":"cebpf4jnsgd1na2vs0mg"},{"bike_id":"3f52831f-d1ca-4522-99f2-ca762dcd1821","system_id":"levelo_inurba_marseille","lat":43.31759,"lon":5.39019,"is_reserved":false,"is_disabled":false,"rental_uris":{"android":"levelo://app?vid=3f52831f-d1ca-4522-99f2-ca762dcd1821","ios":"levelo://app?vid=3f52831f-d1ca-4522-99f2-ca762dcd1821"},"vehicle_type_id":"4","last_reported":1727896013,"current_range_meters":10000,"station_id":"ce4bhqp2rcd13ifvqhng","pricing_plan_id":"cebpf4jnsgd1na2vs0mg"},{"bike_id":"79969aca-f395-48cf-b2c9-66f8a6c266af","system_id":"levelo_inurba_marseille","lat":43.26495,"lon":5.39553,"is_reserved":false,"is_disabled":false,"rental_uris":{"android":"levelo://app?vid=79969aca-f395-48cf-b2c9-66f8a6c266af","ios":"levelo://app?vid=79969aca-f395-48cf-b2c9-66f8a6c266af"},"vehicle_type_id":"4","last_reported":1727896013,"current_range_meters":24800,"station_id":"ce4bhi12rcd13ifvqfq0","pricing_plan_id":"cebpf4jnsgd1na2vs0mg"},{"bike_id":"1b871990-f9c1-463b-986e-f24f6263be6d","system_id":"levelo_inurba_marseille","lat":43.27674,"lon":5.38881,"is_reserved":false,"is_disabled":false,"rental_uris":{"android":"levelo://app?vid=1b871990-f9c1-463b-986e-f24f6263be6d","ios":"levelo://app?vid=1b871990-f9c1-463b-986e-f24f6263be6d"},"vehicle_type_id":"4","last_reported":1727896013,"current_range_meters":12800,"station_id":"ce4bhi12rcd13ifvqfo0","pricing_plan_id":"cebpf4jnsgd1na2vs0mg"},{"bike_id":"2dbfc124-aed4-490b-99da-d41b2e392df6","system_id":"levelo_inurba_marseille","lat":43.31498,"lon":5.37312,"is_reserved":false,"is_disabled":false,"rental_uris":{"android":"levelo://app?vid=2dbfc124-aed4-490b-99da-d41b2e392df6","ios":"levelo://app?vid=2dbfc124-aed4-490b-99da-d41b2e392df6"},"vehicle_type_id":"4","last_reported":1727896013,"current_range_meters":29600,"station_id":"ce4bgt12rcd13ifvqcd0","pricing_plan_id":"cebpf4jnsgd1na2vs0mg"},{"bike_id":"8eba8700-4522-463d-bcb5-aa0653ad1026","system_id":"levelo_inurba_marseille","lat":43.3237,"lon":5.38894,"is_reserved":false,"is_disabled":false,"rental_uris":{"android":"levelo://app?vid=8eba8700-4522-463d-bcb5-aa0653ad1026","ios":"levelo://app?vid=8eba8700-4522-463d-bcb5-aa0653ad1026"},"vehicle_type_id":"4","last_reported":1727896013,"current_range_meters":34000,"station_id":"ce4bhqp2rcd13ifvqhog","pricing_plan_id":"cebpf4jnsgd1na2vs0mg"},{"bike_id":"9eaaa8ab-9680-499b-b6a8-ddaffe4a859d","system_id":"levelo_inurba_marseille","lat":43.31325,"lon":5.397,"is_reserved":false,"is_disabled":false,"rental_uris":{"android":"levelo://app?vid=9eaaa8ab-9680-499b-b6a8-ddaffe4a859d","ios":"levelo://app?vid=9eaaa8ab-9680-499b-b6a8-ddaffe4a859d"},"vehicle_type_id":"4","last_reported":1727896013,"current_range_meters":32800,"station_id":"ce4bgvp2rcd13ifvqcu0","pricing_plan_id":"cebpf4jnsgd1na2vs0mg"},{"bike_id":"74925788-746e-4704-86a3-45ee3bc0ed44","system_id":"levelo_inurba_marseille","lat":43.28003,"lon":5.41662,"is_reserved":false,"is_disabled":false,"rental_uris":{"android":"levelo://app?vid=74925788-746e-4704-86a3-45ee3bc0ed44","ios":"levelo://app?vid=74925788-746e-4704-86a3-45ee3bc0ed44"},"vehicle_type_id":"4","last_reported":1727896013,"current_range_meters":6400,"station_id":"ce4bho12rcd13ifvqh1g","pricing_plan_id":"cebpf4jnsgd1na2vs0mg"},{"bike_id":"785ff0d2-ad8b-4a28-aec8-f07bea988d3e","system_id":"levelo_inurba_marseille","lat":43.25869,"lon":5.39903,"is_reserved":false,"is_disabled":false,"rental_uris":{"android":"levelo://app?vid=785ff0d2-ad8b-4a28-aec8-f07bea988d3e","ios":"levelo://app?vid=785ff0d2-ad8b-4a28-aec8-f07bea988d3e"},"vehicle_type_id":"4","last_reported":1727896013,"current_range_meters":6000,"station_id":"ce4bhl92rcd13ifvqghg","pricing_plan_id":"cebpf4jnsgd1na2vs0mg"},{"bike_id":"418d7258-530e-44a3-a585-36caaf0158c4","system_id":"levelo_inurba_marseille","lat":43.29268,"lon":5.38448,"is_reserved":false,"is_disabled":false,"rental_uris":{"android":"levelo://app?vid=418d7258-530e-44a3-a585-36caaf0158c4","ios":"levelo://app?vid=418d7258-530e-44a3-a585-36caaf0158c4"},"vehicle_type_id":"4","last_reported":1727896013,"current_range_meters":24800,"station_id":"ce4bh692rcd13ifvqea0","pricing_plan_id":"cebpf4jnsgd1na2vs0mg"},{"bike_id":"44a0c29e-f923-49c6-ab58-518e409e8b20","system_id":"levelo_inurba_marseille","lat":43.2867,"lon":5.3636,"is_reserved":false,"is_disabled":false,"rental_uris":{"android":"levelo://app?vid=44a0c29e-f923-49c6-ab58-518e409e8b20","ios":"levelo://app?vid=44a0c29e-f923-49c6-ab58-518e409e8b20"},"vehicle_type_id":"4","last_reported":1727896013,"current_range_meters":20000,"station_id":"ce4bhah2rcd13ifvqej0","pricing_plan_id":"cebpf4jnsgd1na2vs0mg"},{"bike_id":"2b769238-5ec5-4162-b52b-987ddf715384","system_id":"levelo_inurba_marseille","lat":43.30801,"lon":5.4353,"is_reserved":false,"is_disabled":false,"rental_uris":{"android":"levelo://app?vid=2b769238-5ec5-4162-b52b-987ddf715384","ios":"levelo://app?vid=2b769238-5ec5-4162-b52b-987ddf715384"},"vehicle_type_id":"4","last_reported":1727896013,"current_range_meters":17200,"station_id":"ce4bhph2rcd13ifvqheg","pricing_plan_id":"cebpf4jnsgd1na2vs0mg"},{"bike_id":"c8e4ff73-620c-4248-92f7-758d5098242c","system_id":"levelo_inurba_marseille","lat":43.229225,"lon":5.353527,"is_reserved":false,"is_disabled":false,"rental_uris":{"android":"levelo://app?vid=c8e4ff73-620c-4248-92f7-758d5098242c","ios":"levelo://app?vid=c8e4ff73-620c-4248-92f7-758d5098242c"},"vehicle_type_id":"4","last_reported":1727896013,"current_range_meters":30800,"station_id":"cpo3532slgdg3j2ikp40","pricing_plan_id":"cebpf4jnsgd1na2vs0mg"},{"bike_id":"495aae2d-d3f1-4a03-94f5-3df855a311d1","system_id":"levelo_inurba_marseille","lat":43.290314,"lon":5.37564,"is_reserved":false,"is_disabled":false,"rental_uris":{"android":"levelo://app?vid=495aae2d-d3f1-4a03-94f5-3df855a311d1","ios":"levelo://app?vid=495aae2d-d3f1-4a03-94f5-3df855a311d1"},"vehicle_type_id":"4","last_reported":1727896013,"current_range_meters":26000,"station_id":"ce4bh692rcd13ifvqe90","pricing_plan_id":"cebpf4jnsgd1na2vs0mg"},{"bike_id":"a2c9d47a-1ac9-412d-9066-c56e5bab3cc7","system_id":"levelo_inurba_marseille","lat":43.30073,"lon":5.38376,"is_reserved":false,"is_disabled":false,"rental_uris":{"android":"levelo://app?vid=a2c9d47a-1ac9-412d-9066-c56e5bab3cc7","ios":"levelo://app?vid=a2c9d47a-1ac9-412d-9066-c56e5bab3cc7"},"vehicle_type_id":"4","last_reported":1727896013,"current_range_meters":5600,"station_id":"","pricing_plan_id":"cebpf4jnsgd1na2vs0mg"},{"bike_id":"c7a565ca-ebb1-4958-88cb-d740bd8d80b3","system_id":"levelo_inurba_marseille","lat":43.30781,"lon":5.37657,"is_reserved":false,"is_disabled":false,"rental_uris":{"android":"levelo://app?vid=c7a565ca-ebb1-4958-88cb-d740bd8d80b3","ios":"levelo://app?vid=c7a565ca-ebb1-4958-88cb-d740bd8d80b3"},"vehicle_type_id":"4","last_reported":1727896013,"current_range_meters":33600,"station_id":"ce4bgv92rcd13ifvqcq0","pricing_plan_id":"cebpf4jnsgd1na2vs0mg"},{"bike_id":"ca25664f-f297-4866-8cab-99b9ee6f7693","system_id":"levelo_inurba_marseille","lat":43.29528,"lon":5.39403,"is_reserved":false,"is_disabled":false,"rental_uris":{"android":"levelo://app?vid=ca25664f-f297-4866-8cab-99b9ee6f7693","ios":"levelo://app?vid=ca25664f-f297-4866-8cab-99b9ee6f7693"},"vehicle_type_id":"4","last_reported":1727896013,"current_range_meters":24800,"station_id":"ce4bh292rcd13ifvqdf0","pricing_plan_id":"cebpf4jnsgd1na2vs0mg"},{"bike_id":"bf6c284e-628a-4b5f-9004-3c185baed596","system_id":"levelo_inurba_marseille","lat":43.24997,"lon":5.3894,"is_reserved":false,"is_disabled":false,"rental_uris":{"android":"levelo://app?vid=bf6c284e-628a-4b5f-9004-3c185baed596","ios":"levelo://app?vid=bf6c284e-628a-4b5f-9004-3c185baed596"},"vehicle_type_id":"4","last_reported":1727896013,"current_range_meters":2800,"station_id":"ce4bhgp2rcd13ifvqfd0","pricing_plan_id":"cebpf4jnsgd1na2vs0mg"},{"bike_id":"0ba19bbe-24c3-4243-bc03-3328513efa76","system_id":"levelo_inurba_marseille","lat":43.27328,"lon":5.39075,"is_reserved":false,"is_disabled":false,"rental_uris":{"android":"levelo://app?vid=0ba19bbe-24c3-4243-bc03-3328513efa76","ios":"levelo://app?vid=0ba19bbe-24c3-4243-bc03-3328513efa76"},"vehicle_type_id":"4","last_reported":1727896013,"current_range_meters":12400,"station_id":"ce4bhgp2rcd13ifvqfe0","pricing_plan_id":"cebpf4jnsgd1na2vs0mg"},{"bike_id":"851c4c6d-843f-4e6a-843d-dae3870eef83","system_id":"levelo_inurba_marseille","lat":43.28979,"lon":5.37825,"is_reserved":false,"is_disabled":false,"rental_uris":{"android":"levelo://app?vid=851c4c6d-843f-4e6a-843d-dae3870eef83","ios":"levelo://app?vid=851c4c6d-843f-4e6a-843d-dae3870eef83"},"vehicle_type_id":"4","last_reported":1727896013,"current_range_meters":3200,"station_id":"ce4bh9p2rcd13ifvqed0","pricing_plan_id":"cebpf4jnsgd1na2vs0mg"},{"bike_id":"ada97698-d425-48f5-978b-22bfa2249aae","system_id":"levelo_inurba_marseille","lat":43.32128,"lon":5.41492,"is_reserved":false,"is_disabled":false,"rental_uris":{"android":"levelo://app?vid=ada97698-d425-48f5-978b-22bfa2249aae","ios":"levelo://app?vid=ada97698-d425-48f5-978b-22bfa2249aae"},"vehicle_type_id":"4","last_reported":1727896013,"current_range_meters":14400,"station_id":"ce4bhpp2rcd13ifvqhgg","pricing_plan_id":"cebpf4jnsgd1na2vs0mg"},{"bike_id":"151fdf4d-fb88-40c5-95db-88049874738d","system_id":"levelo_inurba_marseille","lat":43.31293,"lon":5.40164,"is_reserved":false,"is_disabled":false,"rental_uris":{"android":"levelo://app?vid=151fdf4d-fb88-40c5-95db-88049874738d","ios":"levelo://app?vid=151fdf4d-fb88-40c5-95db-88049874738d"},"vehicle_type_id":"4","last_reported":1727896013,"current_range_meters":36400,"station_id":"ce4bh092rcd13ifvqd30","pricing_plan_id":"cebpf4jnsgd1na2vs0mg"},{"bike_id":"cfcf8e81-4269-453d-a074-1782586f28da","system_id":"levelo_inurba_marseille","lat":43.29519,"lon":5.39413,"is_reserved":false,"is_disabled":false,"rental_uris":{"android":"levelo://app?vid=cfcf8e81-4269-453d-a074-1782586f28da","ios":"levelo://app?vid=cfcf8e81-4269-453d-a074-1782586f28da"},"vehicle_type_id":"4","last_reported":1727896013,"current_range_meters":19600,"station_id":"ce4bh292rcd13ifvqdf0","pricing_plan_id":"cebpf4jnsgd1na2vs0mg"},{"bike_id":"5a78075f-8b7e-4940-a443-d3d4988ecca2","system_id":"levelo_inurba_marseille","lat":43.30798,"lon":5.38169,"is_reserved":false,"is_disabled":false,"rental_uris":{"android":"levelo://app?vid=5a78075f-8b7e-4940-a443-d3d4988ecca2","ios":"levelo://app?vid=5a78075f-8b7e-4940-a443-d3d4988ecca2"},"vehicle_type_id":"4","last_reported":1727896013,"current_range_meters":17600,"station_id":"ce4bgt12rcd13ifvqce0","pricing_plan_id":"cebpf4jnsgd1na2vs0mg"},{"bike_id":"0f1d436e-28c5-418b-8ef7-2905f0b9c49c","system_id":"levelo_inurba_marseille","lat":43.24085,"lon":5.37756,"is_reserved":false,"is_disabled":false,"rental_uris":{"android":"levelo://app?vid=0f1d436e-28c5-418b-8ef7-2905f0b9c49c","ios":"levelo://app?vid=0f1d436e-28c5-418b-8ef7-2905f0b9c49c"},"vehicle_type_id":"4","last_reported":1727896013,"current_range_meters":5600,"station_id":"ce4bhnp2rcd13ifvqgvg","pricing_plan_id":"cebpf4jnsgd1na2vs0mg"},{"bike_id":"aca3585a-5230-4eb3-a65e-727c519285cd","system_id":"levelo_inurba_marseille","lat":43.32658,"lon":5.4099,"is_reserved":false,"is_disabled":false,"rental_uris":{"android":"levelo://app?vid=aca3585a-5230-4eb3-a65e-727c519285cd","ios":"levelo://app?vid=aca3585a-5230-4eb3-a65e-727c519285cd"},"vehicle_type_id":"4","last_reported":1727896013,"current_range_meters":14400,"station_id":"ce4bhpp2rcd13ifvqhgg","pricing_plan_id":"cebpf4jnsgd1na2vs0mg"},{"bike_id":"0ad9f8f8-ca80-42a4-9f55-c0ac3f6ded09","system_id":"levelo_inurba_marseille","lat":43.2808,"lon":5.39658,"is_reserved":false,"is_disabled":false,"rental_uris":{"android":"levelo://app?vid=0ad9f8f8-ca80-42a4-9f55-c0ac3f6ded09","ios":"levelo://app?vid=0ad9f8f8-ca80-42a4-9f55-c0ac3f6ded09"},"vehicle_type_id":"4","last_reported":1727896013,"current_range_meters":37600,"station_id":"ce4bho12rcd13ifvqh2g","pricing_plan_id":"cebpf4jnsgd1na2vs0mg"},{"bike_id":"0f4aded7-79e1-4e49-b159-f126fd9ce6d2","system_id":"levelo_inurba_marseille","lat":43.26067,"lon":5.394,"is_reserved":false,"is_disabled":false,"rental_uris":{"android":"levelo://app?vid=0f4aded7-79e1-4e49-b159-f126fd9ce6d2","ios":"levelo://app?vid=0f4aded7-79e1-4e49-b159-f126fd9ce6d2"},"vehicle_type_id":"4","last_reported":1727896013,"current_range_meters":21600,"station_id":"ce4bhh92rcd13ifvqfj0","pricing_plan_id":"cebpf4jnsgd1na2vs0mg"},{"bike_id":"38677c3c-b9ff-436a-b386-d766bfba54a1","system_id":"levelo_inurba_marseille","lat":43.28006,"lon":5.40016,"is_reserved":false,"is_disabled":false,"rental_uris":{"android":"levelo://app?vid=38677c3c-b9ff-436a-b386-d766bfba54a1","ios":"levelo://app?vid=38677c3c-b9ff-436a-b386-d766bfba54a1"},"vehicle_type_id":"4","last_reported":1727896013,"current_range_meters":30800,"station_id":"ce4bho92rcd13ifvqh4g","pricing_plan_id":"cebpf4jnsgd1na2vs0mg"},{"bike_id":"54d16307-c546-486b-95c7-fa70e57efb41","system_id":"levelo_inurba_marseille","lat":43.29802,"lon":5.39346,"is_reserved":false,"is_disabled":false,"rental_uris":{"android":"levelo://app?vid=54d16307-c546-486b-95c7-fa70e57efb41","ios":"levelo://app?vid=54d16307-c546-486b-95c7-fa70e57efb41"},"vehicle_type_id":"4","last_reported":1727896013,"current_range_meters":8800,"station_id":"chh1huq6cuj3fo74tm60","pricing_plan_id":"cebpf4jnsgd1na2vs0mg"},{"bike_id":"d79ae66b-397c-4581-b417-ed20cf093fe1","system_id":"levelo_inurba_marseille","lat":43.31235,"lon":5.36859,"is_reserved":false,"is_disabled":false,"rental_uris":{"android":"levelo://app?vid=d79ae66b-397c-4581-b417-ed20cf093fe1","ios":"levelo://app?vid=d79ae66b-397c-4581-b417-ed20cf093fe1"},"vehicle_type_id":"4","last_reported":1727896013,"current_range_meters":40000,"station_id":"ce4bgl92rcd13ifvqbq0","pricing_plan_id":"cebpf4jnsgd1na2vs0mg"},{"bike_id":"a5270d38-8392-4ac8-a27f-22a4b6ad7297","system_id":"levelo_inurba_marseille","lat":43.31334,"lon":5.39697,"is_reserved":false,"is_disabled":false,"rental_uris":{"android":"levelo://app?vid=a5270d38-8392-4ac8-a27f-22a4b6ad7297","ios":"levelo://app?vid=a5270d38-8392-4ac8-a27f-22a4b6ad7297"},"vehicle_type_id":"4","last_reported":1727896013,"current_range_meters":38800,"station_id":"ce4bgvp2rcd13ifvqcu0","pricing_plan_id":"cebpf4jnsgd1na2vs0mg"},{"bike_id":"23fcd5dc-52e3-40b6-b601-8da82c35b64a","system_id":"levelo_inurba_marseille","lat":43.23192,"lon":5.3555,"is_reserved":false,"is_disabled":false,"rental_uris":{"android":"levelo://app?vid=23fcd5dc-52e3-40b6-b601-8da82c35b64a","ios":"levelo://app?vid=23fcd5dc-52e3-40b6-b601-8da82c35b64a"},"vehicle_type_id":"4","last_reported":1727896013,"current_range_meters":5600,"station_id":"ce4bhu92rcd13ifvqi70","pricing_plan_id":"cebpf4jnsgd1na2vs0mg"},{"bike_id":"c31b9c32-1716-4eec-aa79-f48f50ec5f06","system_id":"levelo_inurba_marseille","lat":43.23187,"lon":5.4,"is_reserved":false,"is_disabled":false,"rental_uris":{"android":"levelo://app?vid=c31b9c32-1716-4eec-aa79-f48f50ec5f06","ios":"levelo://app?vid=c31b9c32-1716-4eec-aa79-f48f50ec5f06"},"vehicle_type_id":"4","last_reported":1727896013,"current_range_meters":38800,"station_id":"ce4bhn12rcd13ifvqgqg","pricing_plan_id":"cebpf4jnsgd1na2vs0mg"},{"bike_id":"a9d0588a-c455-4f2e-9d71-f09eb6d52023","system_id":"levelo_inurba_marseille","lat":43.29578,"lon":5.39078,"is_reserved":false,"is_disabled":false,"rental_uris":{"android":"levelo://app?vid=a9d0588a-c455-4f2e-9d71-f09eb6d52023","ios":"levelo://app?vid=a9d0588a-c455-4f2e-9d71-f09eb6d52023"},"vehicle_type_id":"4","last_reported":1727896013,"current_range_meters":20000,"station_id":"","pricing_plan_id":"cebpf4jnsgd1na2vs0mg"},{"bike_id":"5d859c5d-dff8-4b20-81e1-72960281c79d","system_id":"levelo_inurba_marseille","lat":43.3248,"lon":5.36582,"is_reserved":false,"is_disabled":false,"rental_uris":{"android":"levelo://app?vid=5d859c5d-dff8-4b20-81e1-72960281c79d","ios":"levelo://app?vid=5d859c5d-dff8-4b20-81e1-72960281c79d"},"vehicle_type_id":"4","last_reported":1727896013,"current_range_meters":38800,"station_id":"ce4bhs12rcd13ifvqhvg","pricing_plan_id":"cebpf4jnsgd1na2vs0mg"},{"bike_id":"1ce39c1f-ffa6-47f0-a91a-48ff7de3a9e8","system_id":"levelo_inurba_marseille","lat":43.289541,"lon":5.366471,"is_reserved":false,"is_disabled":false,"rental_uris":{"android":"levelo://app?vid=1ce39c1f-ffa6-47f0-a91a-48ff7de3a9e8","ios":"levelo://app?vid=1ce39c1f-ffa6-47f0-a91a-48ff7de3a9e8"},"vehicle_type_id":"4","last_reported":1727896013,"current_range_meters":9200,"station_id":"","pricing_plan_id":"cebpf4jnsgd1na2vs0mg"},{"bike_id":"60e94a07-6f41-4780-97f2-417e38e582d5","system_id":"levelo_inurba_marseille","lat":43.29581,"lon":5.36747,"is_reserved":false,"is_disabled":false,"rental_uris":{"android":"levelo://app?vid=60e94a07-6f41-4780-97f2-417e38e582d5","ios":"levelo://app?vid=60e94a07-6f41-4780-97f2-417e38e582d5"},"vehicle_type_id":"4","last_reported":1727896013,"current_range_meters":38800,"station_id":"ce4bgph2rcd13ifvqc2g","pricing_plan_id":"cebpf4jnsgd1na2vs0mg"},{"bike_id":"1c7b42bf-32d8-4ce8-aa4b-48d5e754dce2","system_id":"levelo_inurba_marseille","lat":43.30326,"lon":5.40448,"is_reserved":false,"is_disabled":false,"rental_uris":{"android":"levelo://app?vid=1c7b42bf-32d8-4ce8-aa4b-48d5e754dce2","ios":"levelo://app?vid=1c7b42bf-32d8-4ce8-aa4b-48d5e754dce2"},"vehicle_type_id":"4","last_reported":1727896013,"current_range_meters":12000,"station_id":"ce4bh012rcd13ifvqd10","pricing_plan_id":"cebpf4jnsgd1na2vs0mg"},{"bike_id":"20cf269b-8f10-4396-9b59-76159a6c601f","system_id":"levelo_inurba_marseille","lat":43.29541,"lon":5.39043,"is_reserved":false,"is_disabled":false,"rental_uris":{"android":"levelo://app?vid=20cf269b-8f10-4396-9b59-76159a6c601f","ios":"levelo://app?vid=20cf269b-8f10-4396-9b59-76159a6c601f"},"vehicle_type_id":"4","last_reported":1727896013,"current_range_meters":17200,"station_id":"ce4bh3p2rcd13ifvqdp0","pricing_plan_id":"cebpf4jnsgd1na2vs0mg"},{"bike_id":"d9513a24-3235-43a7-b9a5-1c5cfe37603f","system_id":"levelo_inurba_marseille","lat":43.23055,"lon":5.35499,"is_reserved":false,"is_disabled":false,"rental_uris":{"android":"levelo://app?vid=d9513a24-3235-43a7-b9a5-1c5cfe37603f","ios":"levelo://app?vid=d9513a24-3235-43a7-b9a5-1c5cfe37603f"},"vehicle_type_id":"4","last_reported":1727896013,"current_range_meters":33600,"station_id":"cpo3342slgdg3j2ifvpg","pricing_plan_id":"cebpf4jnsgd1na2vs0mg"},{"bike_id":"772088a0-7828-4f69-ba5d-0f6cdb83dec2","system_id":"levelo_inurba_marseille","lat":43.337444,"lon":5.374475,"is_reserved":false,"is_disabled":false,"rental_uris":{"android":"levelo://app?vid=772088a0-7828-4f69-ba5d-0f6cdb83dec2","ios":"levelo://app?vid=772088a0-7828-4f69-ba5d-0f6cdb83dec2"},"vehicle_type_id":"4","last_reported":1727896013,"current_range_meters":4800,"station_id":"","pricing_plan_id":"cebpf4jnsgd1na2vs0mg"},{"bike_id":"8be221a7-905a-4bba-a14e-cff48d84f8b2","system_id":"levelo_inurba_marseille","lat":43.312686,"lon":5.401673,"is_reserved":false,"is_disabled":false,"rental_uris":{"android":"levelo://app?vid=8be221a7-905a-4bba-a14e-cff48d84f8b2","ios":"levelo://app?vid=8be221a7-905a-4bba-a14e-cff48d84f8b2"},"vehicle_type_id":"4","last_reported":1727896013,"current_range_meters":6800,"station_id":"ce4bh092rcd13ifvqd30","pricing_plan_id":"cebpf4jnsgd1na2vs0mg"},{"bike_id":"ec4c179f-d579-4b68-b1a2-144a6359fa6c","system_id":"levelo_inurba_marseille","lat":43.30319,"lon":5.40439,"is_reserved":false,"is_disabled":false,"rental_uris":{"android":"levelo://app?vid=ec4c179f-d579-4b68-b1a2-144a6359fa6c","ios":"levelo://app?vid=ec4c179f-d579-4b68-b1a2-144a6359fa6c"},"vehicle_type_id":"4","last_reported":1727896013,"current_range_meters":38800,"station_id":"ce4bh012rcd13ifvqd10","pricing_plan_id":"cebpf4jnsgd1na2vs0mg"},{"bike_id":"89f79560-9417-4d80-afea-9f3796d9baaf","system_id":"levelo_inurba_marseille","lat":43.337444,"lon":5.374475,"is_reserved":false,"is_disabled":false,"rental_uris":{"android":"levelo://app?vid=89f79560-9417-4d80-afea-9f3796d9baaf","ios":"levelo://app?vid=89f79560-9417-4d80-afea-9f3796d9baaf"},"vehicle_type_id":"4","last_reported":1727896013,"current_range_meters":13600,"station_id":"","pricing_plan_id":"cebpf4jnsgd1na2vs0mg"},{"bike_id":"20261d7d-d2c8-40f2-b1c6-bc88e81dae24","system_id":"levelo_inurba_marseille","lat":43.32357,"lon":5.38709,"is_reserved":false,"is_disabled":false,"rental_uris":{"android":"levelo://app?vid=20261d7d-d2c8-40f2-b1c6-bc88e81dae24","ios":"levelo://app?vid=20261d7d-d2c8-40f2-b1c6-bc88e81dae24"},"vehicle_type_id":"4","last_reported":1727896013,"current_range_meters":38400,"station_id":"","pricing_plan_id":"cebpf4jnsgd1na2vs0mg"},{"bike_id":"fc806e01-6bdf-4c8c-9859-acf6230a62d6","system_id":"levelo_inurba_marseille","lat":43.23975,"lon":5.36623,"is_reserved":false,"is_disabled":false,"rental_uris":{"android":"levelo://app?vid=fc806e01-6bdf-4c8c-9859-acf6230a62d6","ios":"levelo://app?vid=fc806e01-6bdf-4c8c-9859-acf6230a62d6"},"vehicle_type_id":"4","last_reported":1727896013,"current_range_meters":38000,"station_id":"ce4bhi12rcd13ifvqfp0","pricing_plan_id":"cebpf4jnsgd1na2vs0mg"},{"bike_id":"690de1ae-55a3-4612-a4d6-f4fc6a1327b7","system_id":"levelo_inurba_marseille","lat":43.313305,"lon":5.396878,"is_reserved":false,"is_disabled":false,"rental_uris":{"android":"levelo://app?vid=690de1ae-55a3-4612-a4d6-f4fc6a1327b7","ios":"levelo://app?vid=690de1ae-55a3-4612-a4d6-f4fc6a1327b7"},"vehicle_type_id":"4","last_reported":1727896013,"current_range_meters":38800,"station_id":"ce4bgvp2rcd13ifvqcu0","pricing_plan_id":"cebpf4jnsgd1na2vs0mg"},{"bike_id":"d16c4aea-47c5-4f92-9b60-c8b0af8a4c9f","system_id":"levelo_inurba_marseille","lat":43.2873,"lon":5.36104,"is_reserved":false,"is_disabled":false,"rental_uris":{"android":"levelo://app?vid=d16c4aea-47c5-4f92-9b60-c8b0af8a4c9f","ios":"levelo://app?vid=d16c4aea-47c5-4f92-9b60-c8b0af8a4c9f"},"vehicle_type_id":"4","last_reported":1727896013,"current_range_meters":38800,"station_id":"cki0cbj6b192h4jlfktg","pricing_plan_id":"cebpf4jnsgd1na2vs0mg"},{"bike_id":"2b0693c0-ad8d-424c-befa-3b85cb467101","system_id":"levelo_inurba_marseille","lat":43.27991,"lon":5.41666,"is_reserved":false,"is_disabled":false,"rental_uris":{"android":"levelo://app?vid=2b0693c0-ad8d-424c-befa-3b85cb467101","ios":"levelo://app?vid=2b0693c0-ad8d-424c-befa-3b85cb467101"},"vehicle_type_id":"4","last_reported":1727896013,"current_range_meters":30800,"station_id":"ce4bho12rcd13ifvqh1g","pricing_plan_id":"cebpf4jnsgd1na2vs0mg"},{"bike_id":"30f7e0da-0005-4b87-82a4-8969ce48d0db","system_id":"levelo_inurba_marseille","lat":43.2466,"lon":5.38158,"is_reserved":false,"is_disabled":false,"rental_uris":{"android":"levelo://app?vid=30f7e0da-0005-4b87-82a4-8969ce48d0db","ios":"levelo://app?vid=30f7e0da-0005-4b87-82a4-8969ce48d0db"},"vehicle_type_id":"4","last_reported":1727896013,"current_range_meters":38800,"station_id":"ce4bhih2rcd13ifvqfr0","pricing_plan_id":"cebpf4jnsgd1na2vs0mg"},{"bike_id":"698d281f-c077-466c-ad7e-3ebe508cc17b","system_id":"levelo_inurba_marseille","lat":43.24164,"lon":5.36405,"is_reserved":false,"is_disabled":false,"rental_uris":{"android":"levelo://app?vid=698d281f-c077-466c-ad7e-3ebe508cc17b","ios":"levelo://app?vid=698d281f-c077-466c-ad7e-3ebe508cc17b"},"vehicle_type_id":"4","last_reported":1727896013,"current_range_meters":16000,"station_id":"cpo36qri1sfpv3e86is0","pricing_plan_id":"cebpf4jnsgd1na2vs0mg"},{"bike_id":"86b6ffeb-c661-4b35-8926-30261314de9f","system_id":"levelo_inurba_marseille","lat":43.30334,"lon":5.40438,"is_reserved":false,"is_disabled":false,"rental_uris":{"android":"levelo://app?vid=86b6ffeb-c661-4b35-8926-30261314de9f","ios":"levelo://app?vid=86b6ffeb-c661-4b35-8926-30261314de9f"},"vehicle_type_id":"4","last_reported":1727896013,"current_range_meters":38000,"station_id":"ce4bh012rcd13ifvqd10","pricing_plan_id":"cebpf4jnsgd1na2vs0mg"},{"bike_id":"0927edc0-a2c0-428a-a1e9-31ec3c4f6f54","system_id":"levelo_inurba_marseille","lat":43.305584,"lon":5.392092,"is_reserved":false,"is_disabled":false,"rental_uris":{"android":"levelo://app?vid=0927edc0-a2c0-428a-a1e9-31ec3c4f6f54","ios":"levelo://app?vid=0927edc0-a2c0-428a-a1e9-31ec3c4f6f54"},"vehicle_type_id":"4","last_reported":1727896013,"current_range_meters":14400,"station_id":"","pricing_plan_id":"cebpf4jnsgd1na2vs0mg"},{"bike_id":"a9920997-d2ab-49fe-ad83-8fc7656c55f5","system_id":"levelo_inurba_marseille","lat":43.2743,"lon":5.39429,"is_reserved":false,"is_disabled":false,"rental_uris":{"android":"levelo://app?vid=a9920997-d2ab-49fe-ad83-8fc7656c55f5","ios":"levelo://app?vid=a9920997-d2ab-49fe-ad83-8fc7656c55f5"},"vehicle_type_id":"4","last_reported":1727896013,"current_range_meters":15200,"station_id":"ce4bhdp2rcd13ifvqf20","pricing_plan_id":"cebpf4jnsgd1na2vs0mg"},{"bike_id":"c33f1dd7-4706-4981-a6e8-453f1d0522a7","system_id":"levelo_inurba_marseille","lat":43.28731,"lon":5.36089,"is_reserved":false,"is_disabled":false,"rental_uris":{"android":"levelo://app?vid=c33f1dd7-4706-4981-a6e8-453f1d0522a7","ios":"levelo://app?vid=c33f1dd7-4706-4981-a6e8-453f1d0522a7"},"vehicle_type_id":"4","last_reported":1727896013,"current_range_meters":39200,"station_id":"cki0cbj6b192h4jlfktg","pricing_plan_id":"cebpf4jnsgd1na2vs0mg"},{"bike_id":"ce7b1945-dfc5-4550-9476-edb3ebb4bdd9","system_id":"levelo_inurba_marseille","lat":43.30236,"lon":5.4006,"is_reserved":false,"is_disabled":false,"rental_uris":{"android":"levelo://app?vid=ce7b1945-dfc5-4550-9476-edb3ebb4bdd9","ios":"levelo://app?vid=ce7b1945-dfc5-4550-9476-edb3ebb4bdd9"},"vehicle_type_id":"4","last_reported":1727896013,"current_range_meters":24800,"station_id":"ce4bgvh2rcd13ifvqcs0","pricing_plan_id":"cebpf4jnsgd1na2vs0mg"},{"bike_id":"c389ab88-8014-4e2f-b139-4bd8a30c7985","system_id":"levelo_inurba_marseille","lat":43.31367,"lon":5.38495,"is_reserved":false,"is_disabled":false,"rental_uris":{"android":"levelo://app?vid=c389ab88-8014-4e2f-b139-4bd8a30c7985","ios":"levelo://app?vid=c389ab88-8014-4e2f-b139-4bd8a30c7985"},"vehicle_type_id":"4","last_reported":1727896013,"current_range_meters":6000,"station_id":"ce4bgt92rcd13ifvqcf0","pricing_plan_id":"cebpf4jnsgd1na2vs0mg"},{"bike_id":"6637cce3-944a-473d-80a3-90b69ab6fd46","system_id":"levelo_inurba_marseille","lat":43.30878,"lon":5.39635,"is_reserved":false,"is_disabled":false,"rental_uris":{"android":"levelo://app?vid=6637cce3-944a-473d-80a3-90b69ab6fd46","ios":"levelo://app?vid=6637cce3-944a-473d-80a3-90b69ab6fd46"},"vehicle_type_id":"4","last_reported":1727896013,"current_range_meters":6400,"station_id":"ce4bh012rcd13ifvqcv0","pricing_plan_id":"cebpf4jnsgd1na2vs0mg"},{"bike_id":"a0f4c405-4cd3-4cf2-a782-20ba027f9099","system_id":"levelo_inurba_marseille","lat":43.30091,"lon":5.39086,"is_reserved":false,"is_disabled":false,"rental_uris":{"android":"levelo://app?vid=a0f4c405-4cd3-4cf2-a782-20ba027f9099","ios":"levelo://app?vid=a0f4c405-4cd3-4cf2-a782-20ba027f9099"},"vehicle_type_id":"4","last_reported":1727896013,"current_range_meters":6400,"station_id":"ce4bh192rcd13ifvqdb0","pricing_plan_id":"cebpf4jnsgd1na2vs0mg"},{"bike_id":"5084d4e8-22d7-4248-aec8-4997331ff1e0","system_id":"levelo_inurba_marseille","lat":43.22933,"lon":5.35373,"is_reserved":false,"is_disabled":false,"rental_uris":{"android":"levelo://app?vid=5084d4e8-22d7-4248-aec8-4997331ff1e0","ios":"levelo://app?vid=5084d4e8-22d7-4248-aec8-4997331ff1e0"},"vehicle_type_id":"4","last_reported":1727896013,"current_range_meters":37600,"station_id":"cpo3532slgdg3j2ikp40","pricing_plan_id":"cebpf4jnsgd1na2vs0mg"},{"bike_id":"e709fe29-94b3-42d7-912c-4a09c261cd10","system_id":"levelo_inurba_marseille","lat":43.28432,"lon":5.34983,"is_reserved":false,"is_disabled":false,"rental_uris":{"android":"levelo://app?vid=e709fe29-94b3-42d7-912c-4a09c261cd10","ios":"levelo://app?vid=e709fe29-94b3-42d7-912c-4a09c261cd10"},"vehicle_type_id":"4","last_reported":1727896013,"current_range_meters":16000,"station_id":"ce4bhbh2rcd13ifvqepg","pricing_plan_id":"cebpf4jnsgd1na2vs0mg"},{"bike_id":"6dd5df39-f796-47c2-b7f4-cc412ae77bc8","system_id":"levelo_inurba_marseille","lat":43.27812,"lon":5.40715,"is_reserved":false,"is_disabled":false,"rental_uris":{"android":"levelo://app?vid=6dd5df39-f796-47c2-b7f4-cc412ae77bc8","ios":"levelo://app?vid=6dd5df39-f796-47c2-b7f4-cc412ae77bc8"},"vehicle_type_id":"4","last_reported":1727896013,"current_range_meters":28800,"station_id":"ce4bhnh2rcd13ifvqgtg","pricing_plan_id":"cebpf4jnsgd1na2vs0mg"},{"bike_id":"be339fa6-5a97-4908-9540-4deea773cd86","system_id":"levelo_inurba_marseille","lat":43.308,"lon":5.38145,"is_reserved":false,"is_disabled":false,"rental_uris":{"android":"levelo://app?vid=be339fa6-5a97-4908-9540-4deea773cd86","ios":"levelo://app?vid=be339fa6-5a97-4908-9540-4deea773cd86"},"vehicle_type_id":"4","last_reported":1727896013,"current_range_meters":38800,"station_id":"ce4bgt12rcd13ifvqce0","pricing_plan_id":"cebpf4jnsgd1na2vs0mg"},{"bike_id":"d159a850-ac71-4235-bd46-064a751116b0","system_id":"levelo_inurba_marseille","lat":43.26686,"lon":5.38277,"is_reserved":false,"is_disabled":false,"rental_uris":{"android":"levelo://app?vid=d159a850-ac71-4235-bd46-064a751116b0","ios":"levelo://app?vid=d159a850-ac71-4235-bd46-064a751116b0"},"vehicle_type_id":"4","last_reported":1727896013,"current_range_meters":39200,"station_id":"ce4bhg92rcd13ifvqf90","pricing_plan_id":"cebpf4jnsgd1na2vs0mg"},{"bike_id":"5c975bbb-ffb1-4634-be84-1b5c5e61db2e","system_id":"levelo_inurba_marseille","lat":43.3373,"lon":5.39184,"is_reserved":false,"is_disabled":false,"rental_uris":{"android":"levelo://app?vid=5c975bbb-ffb1-4634-be84-1b5c5e61db2e","ios":"levelo://app?vid=5c975bbb-ffb1-4634-be84-1b5c5e61db2e"},"vehicle_type_id":"4","last_reported":1727896013,"current_range_meters":22800,"station_id":"ce4bhr92rcd13ifvqhsg","pricing_plan_id":"cebpf4jnsgd1na2vs0mg"},{"bike_id":"bd61f1ee-33a7-423b-b8ef-fae5a7fac529","system_id":"levelo_inurba_marseille","lat":43.27185,"lon":5.40994,"is_reserved":false,"is_disabled":false,"rental_uris":{"android":"levelo://app?vid=bd61f1ee-33a7-423b-b8ef-fae5a7fac529","ios":"levelo://app?vid=bd61f1ee-33a7-423b-b8ef-fae5a7fac529"},"vehicle_type_id":"4","last_reported":1727896013,"current_range_meters":24800,"station_id":"ce4bhl12rcd13ifvqgf0","pricing_plan_id":"cebpf4jnsgd1na2vs0mg"},{"bike_id":"3e24a06d-fe9a-4a01-86c8-86f391f7062e","system_id":"levelo_inurba_marseille","lat":43.28669,"lon":5.36359,"is_reserved":false,"is_disabled":false,"rental_uris":{"android":"levelo://app?vid=3e24a06d-fe9a-4a01-86c8-86f391f7062e","ios":"levelo://app?vid=3e24a06d-fe9a-4a01-86c8-86f391f7062e"},"vehicle_type_id":"4","last_reported":1727896013,"current_range_meters":9600,"station_id":"ce4bhah2rcd13ifvqej0","pricing_plan_id":"cebpf4jnsgd1na2vs0mg"},{"bike_id":"379809b6-73f4-410f-beb0-70fde21f3c14","system_id":"levelo_inurba_marseille","lat":43.26218,"lon":5.37452,"is_reserved":false,"is_disabled":false,"rental_uris":{"android":"levelo://app?vid=379809b6-73f4-410f-beb0-70fde21f3c14","ios":"levelo://app?vid=379809b6-73f4-410f-beb0-70fde21f3c14"},"vehicle_type_id":"4","last_reported":1727896013,"current_range_meters":38800,"station_id":"ce4bhgp2rcd13ifvqfc0","pricing_plan_id":"cebpf4jnsgd1na2vs0mg"},{"bike_id":"ba34426c-cb7d-43ac-a5fb-f2616cd2c0d0","system_id":"levelo_inurba_marseille","lat":43.28017,"lon":5.36923,"is_reserved":false,"is_disabled":false,"rental_uris":{"android":"levelo://app?vid=ba34426c-cb7d-43ac-a5fb-f2616cd2c0d0","ios":"levelo://app?vid=ba34426c-cb7d-43ac-a5fb-f2616cd2c0d0"},"vehicle_type_id":"4","last_reported":1727896013,"current_range_meters":38800,"station_id":"ce4bha12rcd13ifvqef0","pricing_plan_id":"cebpf4jnsgd1na2vs0mg"},{"bike_id":"82c9c03c-aabc-4a3a-a32e-ed68eee7ad93","system_id":"levelo_inurba_marseille","lat":43.28729,"lon":5.36105,"is_reserved":false,"is_disabled":false,"rental_uris":{"android":"levelo://app?vid=82c9c03c-aabc-4a3a-a32e-ed68eee7ad93","ios":"levelo://app?vid=82c9c03c-aabc-4a3a-a32e-ed68eee7ad93"},"vehicle_type_id":"4","last_reported":1727896013,"current_range_meters":36800,"station_id":"cki0cbj6b192h4jlfktg","pricing_plan_id":"cebpf4jnsgd1na2vs0mg"},{"bike_id":"080d037e-509b-4bfd-aaca-5957b7531b39","system_id":"levelo_inurba_marseille","lat":43.30882,"lon":5.39645,"is_reserved":false,"is_disabled":false,"rental_uris":{"android":"levelo://app?vid=080d037e-509b-4bfd-aaca-5957b7531b39","ios":"levelo://app?vid=080d037e-509b-4bfd-aaca-5957b7531b39"},"vehicle_type_id":"4","last_reported":1727896013,"current_range_meters":32400,"station_id":"ce4bh012rcd13ifvqcv0","pricing_plan_id":"cebpf4jnsgd1na2vs0mg"},{"bike_id":"64bd957e-b978-44cb-a85c-928d627d24ec","system_id":"levelo_inurba_marseille","lat":43.35752,"lon":5.35888,"is_reserved":false,"is_disabled":false,"rental_uris":{"android":"levelo://app?vid=64bd957e-b978-44cb-a85c-928d627d24ec","ios":"levelo://app?vid=64bd957e-b978-44cb-a85c-928d627d24ec"},"vehicle_type_id":"4","last_reported":1727896013,"current_range_meters":17200,"station_id":"","pricing_plan_id":"cebpf4jnsgd1na2vs0mg"},{"bike_id":"eac9c19b-9e15-4b8f-b382-45f73981aa6f","system_id":"levelo_inurba_marseille","lat":43.28086,"lon":5.39656,"is_reserved":false,"is_disabled":false,"rental_uris":{"android":"levelo://app?vid=eac9c19b-9e15-4b8f-b382-45f73981aa6f","ios":"levelo://app?vid=eac9c19b-9e15-4b8f-b382-45f73981aa6f"},"vehicle_type_id":"4","last_reported":1727896013,"current_range_meters":39200,"station_id":"ce4bho12rcd13ifvqh2g","pricing_plan_id":"cebpf4jnsgd1na2vs0mg"},{"bike_id":"9eecd779-c6c0-4e07-ac55-d8d18d2fd278","system_id":"levelo_inurba_marseille","lat":43.27995,"lon":5.40016,"is_reserved":false,"is_disabled":false,"rental_uris":{"android":"levelo://app?vid=9eecd779-c6c0-4e07-ac55-d8d18d2fd278","ios":"levelo://app?vid=9eecd779-c6c0-4e07-ac55-d8d18d2fd278"},"vehicle_type_id":"4","last_reported":1727896013,"current_range_meters":28400,"station_id":"ce4bho92rcd13ifvqh4g","pricing_plan_id":"cebpf4jnsgd1na2vs0mg"},{"bike_id":"586dfe32-4996-4b1b-bd79-144564ff30f0","system_id":"levelo_inurba_marseille","lat":43.25001,"lon":5.38924,"is_reserved":false,"is_disabled":false,"rental_uris":{"android":"levelo://app?vid=586dfe32-4996-4b1b-bd79-144564ff30f0","ios":"levelo://app?vid=586dfe32-4996-4b1b-bd79-144564ff30f0"},"vehicle_type_id":"4","last_reported":1727896013,"current_range_meters":2800,"station_id":"ce4bhgp2rcd13ifvqfd0","pricing_plan_id":"cebpf4jnsgd1na2vs0mg"},{"bike_id":"b228a2b7-3965-4d01-a04d-8a3019548aff","system_id":"levelo_inurba_marseille","lat":43.28099,"lon":5.37852,"is_reserved":false,"is_disabled":false,"rental_uris":{"android":"levelo://app?vid=b228a2b7-3965-4d01-a04d-8a3019548aff","ios":"levelo://app?vid=b228a2b7-3965-4d01-a04d-8a3019548aff"},"vehicle_type_id":"4","last_reported":1727896013,"current_range_meters":14800,"station_id":"ce4bha12rcd13ifvqee0","pricing_plan_id":"cebpf4jnsgd1na2vs0mg"},{"bike_id":"9980db2d-b78a-49f2-8c3e-c251718c3fd0","system_id":"levelo_inurba_marseille","lat":43.30318,"lon":5.40444,"is_reserved":false,"is_disabled":false,"rental_uris":{"android":"levelo://app?vid=9980db2d-b78a-49f2-8c3e-c251718c3fd0","ios":"levelo://app?vid=9980db2d-b78a-49f2-8c3e-c251718c3fd0"},"vehicle_type_id":"4","last_reported":1727896013,"current_range_meters":38800,"station_id":"ce4bh012rcd13ifvqd10","pricing_plan_id":"cebpf4jnsgd1na2vs0mg"},{"bike_id":"02299b85-fe43-4214-a7f4-fa336f1ac30f","system_id":"levelo_inurba_marseille","lat":43.30892,"lon":5.37201,"is_reserved":false,"is_disabled":false,"rental_uris":{"android":"levelo://app?vid=02299b85-fe43-4214-a7f4-fa336f1ac30f","ios":"levelo://app?vid=02299b85-fe43-4214-a7f4-fa336f1ac30f"},"vehicle_type_id":"4","last_reported":1727896013,"current_range_meters":32000,"station_id":"ce4bguh2rcd13ifvqckg","pricing_plan_id":"cebpf4jnsgd1na2vs0mg"},{"bike_id":"82db99c3-9f7b-44a4-97ad-2095aa2de016","system_id":"levelo_inurba_marseille","lat":43.29972,"lon":5.37163,"is_reserved":false,"is_disabled":false,"rental_uris":{"android":"levelo://app?vid=82db99c3-9f7b-44a4-97ad-2095aa2de016","ios":"levelo://app?vid=82db99c3-9f7b-44a4-97ad-2095aa2de016"},"vehicle_type_id":"4","last_reported":1727896013,"current_range_meters":27600,"station_id":"ce4bgr92rcd13ifvqc7g","pricing_plan_id":"cebpf4jnsgd1na2vs0mg"},{"bike_id":"4ac5b21d-f552-4c0b-a28d-986f107a6b95","system_id":"levelo_inurba_marseille","lat":43.32406,"lon":5.39005,"is_reserved":false,"is_disabled":false,"rental_uris":{"android":"levelo://app?vid=4ac5b21d-f552-4c0b-a28d-986f107a6b95","ios":"levelo://app?vid=4ac5b21d-f552-4c0b-a28d-986f107a6b95"},"vehicle_type_id":"4","last_reported":1727896013,"current_range_meters":10800,"station_id":"","pricing_plan_id":"cebpf4jnsgd1na2vs0mg"},{"bike_id":"cb9a0c83-0b26-4d90-a7cd-d920d2813da8","system_id":"levelo_inurba_marseille","lat":43.312189,"lon":5.368587,"is_reserved":false,"is_disabled":false,"rental_uris":{"android":"levelo://app?vid=cb9a0c83-0b26-4d90-a7cd-d920d2813da8","ios":"levelo://app?vid=cb9a0c83-0b26-4d90-a7cd-d920d2813da8"},"vehicle_type_id":"4","last_reported":1727896013,"current_range_meters":4800,"station_id":"ce4bgl92rcd13ifvqbq0","pricing_plan_id":"cebpf4jnsgd1na2vs0mg"},{"bike_id":"006b76f7-a0b8-4c14-a5ab-25039e37f00b","system_id":"levelo_inurba_marseille","lat":43.288695,"lon":5.358355,"is_reserved":false,"is_disabled":false,"rental_uris":{"android":"levelo://app?vid=006b76f7-a0b8-4c14-a5ab-25039e37f00b","ios":"levelo://app?vid=006b76f7-a0b8-4c14-a5ab-25039e37f00b"},"vehicle_type_id":"4","last_reported":1727896013,"current_range_meters":25200,"station_id":"ce4bhb12rcd13ifvqem0","pricing_plan_id":"cebpf4jnsgd1na2vs0mg"},{"bike_id":"f62b617f-7022-4db6-a8ba-521721a277df","system_id":"levelo_inurba_marseille","lat":43.29035,"lon":5.38657,"is_reserved":false,"is_disabled":false,"rental_uris":{"android":"levelo://app?vid=f62b617f-7022-4db6-a8ba-521721a277df","ios":"levelo://app?vid=f62b617f-7022-4db6-a8ba-521721a277df"},"vehicle_type_id":"4","last_reported":1727896013,"current_range_meters":39200,"station_id":"ce4bh4p2rcd13ifvqe0g","pricing_plan_id":"cebpf4jnsgd1na2vs0mg"},{"bike_id":"2b1b3753-e762-418b-b14b-2bff4c5269b2","system_id":"levelo_inurba_marseille","lat":43.24183,"lon":5.39737,"is_reserved":false,"is_disabled":false,"rental_uris":{"android":"levelo://app?vid=2b1b3753-e762-418b-b14b-2bff4c5269b2","ios":"levelo://app?vid=2b1b3753-e762-418b-b14b-2bff4c5269b2"},"vehicle_type_id":"4","last_reported":1727896013,"current_range_meters":38800,"station_id":"ce4bhn12rcd13ifvqgpg","pricing_plan_id":"cebpf4jnsgd1na2vs0mg"},{"bike_id":"9b62e35f-6e3c-4a85-b72c-da5d726e7be0","system_id":"levelo_inurba_marseille","lat":43.24996,"lon":5.38938,"is_reserved":false,"is_disabled":false,"rental_uris":{"android":"levelo://app?vid=9b62e35f-6e3c-4a85-b72c-da5d726e7be0","ios":"levelo://app?vid=9b62e35f-6e3c-4a85-b72c-da5d726e7be0"},"vehicle_type_id":"4","last_reported":1727896013,"current_range_meters":10000,"station_id":"ce4bhgp2rcd13ifvqfd0","pricing_plan_id":"cebpf4jnsgd1na2vs0mg"},{"bike_id":"59cb3bb3-ed83-4d56-a892-848e258666bd","system_id":"levelo_inurba_marseille","lat":43.26563,"lon":5.37292,"is_reserved":false,"is_disabled":false,"rental_uris":{"android":"levelo://app?vid=59cb3bb3-ed83-4d56-a892-848e258666bd","ios":"levelo://app?vid=59cb3bb3-ed83-4d56-a892-848e258666bd"},"vehicle_type_id":"4","last_reported":1727896013,"current_range_meters":38800,"station_id":"ce4bhg12rcd13ifvqf70","pricing_plan_id":"cebpf4jnsgd1na2vs0mg"},{"bike_id":"7f459d03-f1a5-43c6-a3ad-7e9e74d84cf7","system_id":"levelo_inurba_marseille","lat":43.29052,"lon":5.39976,"is_reserved":false,"is_disabled":false,"rental_uris":{"android":"levelo://app?vid=7f459d03-f1a5-43c6-a3ad-7e9e74d84cf7","ios":"levelo://app?vid=7f459d03-f1a5-43c6-a3ad-7e9e74d84cf7"},"vehicle_type_id":"4","last_reported":1727896013,"current_range_meters":38800,"station_id":"ce4bh392rcd13ifvqdm0","pricing_plan_id":"cebpf4jnsgd1na2vs0mg"},{"bike_id":"de4eb35a-e0cd-4fdd-a642-1c98927d8347","system_id":"levelo_inurba_marseille","lat":43.28668,"lon":5.3636,"is_reserved":false,"is_disabled":false,"rental_uris":{"android":"levelo://app?vid=de4eb35a-e0cd-4fdd-a642-1c98927d8347","ios":"levelo://app?vid=de4eb35a-e0cd-4fdd-a642-1c98927d8347"},"vehicle_type_id":"4","last_reported":1727896013,"current_range_meters":8800,"station_id":"ce4bhah2rcd13ifvqej0","pricing_plan_id":"cebpf4jnsgd1na2vs0mg"},{"bike_id":"01e77b0f-7cc2-4f21-bca1-292aaef4dbf5","system_id":"levelo_inurba_marseille","lat":43.23062,"lon":5.35491,"is_reserved":false,"is_disabled":false,"rental_uris":{"android":"levelo://app?vid=01e77b0f-7cc2-4f21-bca1-292aaef4dbf5","ios":"levelo://app?vid=01e77b0f-7cc2-4f21-bca1-292aaef4dbf5"},"vehicle_type_id":"4","last_reported":1727896013,"current_range_meters":24800,"station_id":"cpo3342slgdg3j2ifvpg","pricing_plan_id":"cebpf4jnsgd1na2vs0mg"},{"bike_id":"5dac9f59-99d8-47f9-b99a-06c3eeec022f","system_id":"levelo_inurba_marseille","lat":43.23062,"lon":5.35493,"is_reserved":false,"is_disabled":false,"rental_uris":{"android":"levelo://app?vid=5dac9f59-99d8-47f9-b99a-06c3eeec022f","ios":"levelo://app?vid=5dac9f59-99d8-47f9-b99a-06c3eeec022f"},"vehicle_type_id":"4","last_reported":1727896013,"current_range_meters":33200,"station_id":"cpo3342slgdg3j2ifvpg","pricing_plan_id":"cebpf4jnsgd1na2vs0mg"},{"bike_id":"d68db39d-d40c-48e5-948e-53d5be7db247","system_id":"levelo_inurba_marseille","lat":43.241646,"lon":5.394038,"is_reserved":false,"is_disabled":false,"rental_uris":{"android":"levelo://app?vid=d68db39d-d40c-48e5-948e-53d5be7db247","ios":"levelo://app?vid=d68db39d-d40c-48e5-948e-53d5be7db247"},"vehicle_type_id":"4","last_reported":1727896013,"current_range_meters":24400,"station_id":"ce4bhkp2rcd13ifvqgd0","pricing_plan_id":"cebpf4jnsgd1na2vs0mg"},{"bike_id":"c1af8858-809d-433a-99d1-bd878d9252e4","system_id":"levelo_inurba_marseille","lat":43.29872,"lon":5.38906,"is_reserved":false,"is_disabled":false,"rental_uris":{"android":"levelo://app?vid=c1af8858-809d-433a-99d1-bd878d9252e4","ios":"levelo://app?vid=c1af8858-809d-433a-99d1-bd878d9252e4"},"vehicle_type_id":"4","last_reported":1727896013,"current_range_meters":36800,"station_id":"ce4bh392rcd13ifvqdl0","pricing_plan_id":"cebpf4jnsgd1na2vs0mg"},{"bike_id":"93abd138-ca66-449e-9b7e-6b25e4462043","system_id":"levelo_inurba_marseille","lat":43.33032,"lon":5.39042,"is_reserved":false,"is_disabled":false,"rental_uris":{"android":"levelo://app?vid=93abd138-ca66-449e-9b7e-6b25e4462043","ios":"levelo://app?vid=93abd138-ca66-449e-9b7e-6b25e4462043"},"vehicle_type_id":"4","last_reported":1727896013,"current_range_meters":12000,"station_id":"ce4bhr92rcd13ifvqhrg","pricing_plan_id":"cebpf4jnsgd1na2vs0mg"},{"bike_id":"2656314f-982e-4541-9a98-b333567c157a","system_id":"levelo_inurba_marseille","lat":43.29538,"lon":5.38547,"is_reserved":false,"is_disabled":false,"rental_uris":{"android":"levelo://app?vid=2656314f-982e-4541-9a98-b333567c157a","ios":"levelo://app?vid=2656314f-982e-4541-9a98-b333567c157a"},"vehicle_type_id":"4","last_reported":1727896013,"current_range_meters":38400,"station_id":"ce4bgih2rcd13ifvqba0","pricing_plan_id":"cebpf4jnsgd1na2vs0mg"},{"bike_id":"b45f3d79-2597-4061-9609-fd9050ba7321","system_id":"levelo_inurba_marseille","lat":43.2945,"lon":5.39746,"is_reserved":false,"is_disabled":false,"rental_uris":{"android":"levelo://app?vid=b45f3d79-2597-4061-9609-fd9050ba7321","ios":"levelo://app?vid=b45f3d79-2597-4061-9609-fd9050ba7321"},"vehicle_type_id":"4","last_reported":1727896013,"current_range_meters":17200,"station_id":"ce4bh3h2rcd13ifvqdo0","pricing_plan_id":"cebpf4jnsgd1na2vs0mg"},{"bike_id":"34a40bdb-ea12-49ce-a44e-9d927ff7712f","system_id":"levelo_inurba_marseille","lat":43.30893,"lon":5.37204,"is_reserved":false,"is_disabled":false,"rental_uris":{"android":"levelo://app?vid=34a40bdb-ea12-49ce-a44e-9d927ff7712f","ios":"levelo://app?vid=34a40bdb-ea12-49ce-a44e-9d927ff7712f"},"vehicle_type_id":"4","last_reported":1727896013,"current_range_meters":38400,"station_id":"ce4bguh2rcd13ifvqckg","pricing_plan_id":"cebpf4jnsgd1na2vs0mg"},{"bike_id":"a9fc60fc-7de6-47a8-8957-5f7344656439","system_id":"levelo_inurba_marseille","lat":43.29505,"lon":5.39402,"is_reserved":false,"is_disabled":false,"rental_uris":{"android":"levelo://app?vid=a9fc60fc-7de6-47a8-8957-5f7344656439","ios":"levelo://app?vid=a9fc60fc-7de6-47a8-8957-5f7344656439"},"vehicle_type_id":"4","last_reported":1727896013,"current_range_meters":38800,"station_id":"ce4bh292rcd13ifvqdf0","pricing_plan_id":"cebpf4jnsgd1na2vs0mg"},{"bike_id":"67fe5807-ebe6-4d1d-8c3e-df55c840cfbb","system_id":"levelo_inurba_marseille","lat":43.31722,"lon":5.42407,"is_reserved":false,"is_disabled":false,"rental_uris":{"android":"levelo://app?vid=67fe5807-ebe6-4d1d-8c3e-df55c840cfbb","ios":"levelo://app?vid=67fe5807-ebe6-4d1d-8c3e-df55c840cfbb"},"vehicle_type_id":"4","last_reported":1727896013,"current_range_meters":20800,"station_id":"ce4bhp92rcd13ifvqhbg","pricing_plan_id":"cebpf4jnsgd1na2vs0mg"},{"bike_id":"fd457a21-952f-4967-95f1-bcd8e5e37c2f","system_id":"levelo_inurba_marseille","lat":43.27434,"lon":5.3942,"is_reserved":false,"is_disabled":false,"rental_uris":{"android":"levelo://app?vid=fd457a21-952f-4967-95f1-bcd8e5e37c2f","ios":"levelo://app?vid=fd457a21-952f-4967-95f1-bcd8e5e37c2f"},"vehicle_type_id":"4","last_reported":1727896013,"current_range_meters":14400,"station_id":"ce4bhdp2rcd13ifvqf20","pricing_plan_id":"cebpf4jnsgd1na2vs0mg"},{"bike_id":"9eaecae0-c493-4469-b799-9ce2e112833c","system_id":"levelo_inurba_marseille","lat":43.298157,"lon":5.380922,"is_reserved":false,"is_disabled":false,"rental_uris":{"android":"levelo://app?vid=9eaecae0-c493-4469-b799-9ce2e112833c","ios":"levelo://app?vid=9eaecae0-c493-4469-b799-9ce2e112833c"},"vehicle_type_id":"4","last_reported":1727896013,"current_range_meters":27200,"station_id":"ce4bhb12rcd13ifvqel0","pricing_plan_id":"cebpf4jnsgd1na2vs0mg"},{"bike_id":"025b9e2f-fa2a-447f-aee2-ca9ca105069e","system_id":"levelo_inurba_marseille","lat":43.26487,"lon":5.39545,"is_reserved":false,"is_disabled":false,"rental_uris":{"android":"levelo://app?vid=025b9e2f-fa2a-447f-aee2-ca9ca105069e","ios":"levelo://app?vid=025b9e2f-fa2a-447f-aee2-ca9ca105069e"},"vehicle_type_id":"4","last_reported":1727896013,"current_range_meters":32000,"station_id":"ce4bhi12rcd13ifvqfq0","pricing_plan_id":"cebpf4jnsgd1na2vs0mg"},{"bike_id":"bca45c17-7f4a-4afe-a1ca-6cf4a298f998","system_id":"levelo_inurba_marseille","lat":43.29266,"lon":5.38447,"is_reserved":false,"is_disabled":false,"rental_uris":{"android":"levelo://app?vid=bca45c17-7f4a-4afe-a1ca-6cf4a298f998","ios":"levelo://app?vid=bca45c17-7f4a-4afe-a1ca-6cf4a298f998"},"vehicle_type_id":"4","last_reported":1727896013,"current_range_meters":28000,"station_id":"ce4bh692rcd13ifvqea0","pricing_plan_id":"cebpf4jnsgd1na2vs0mg"},{"bike_id":"0284f6bc-29aa-4334-bf16-4dfa1978370c","system_id":"levelo_inurba_marseille","lat":43.25853,"lon":5.39909,"is_reserved":false,"is_disabled":false,"rental_uris":{"android":"levelo://app?vid=0284f6bc-29aa-4334-bf16-4dfa1978370c","ios":"levelo://app?vid=0284f6bc-29aa-4334-bf16-4dfa1978370c"},"vehicle_type_id":"4","last_reported":1727896013,"current_range_meters":28800,"station_id":"ce4bhl92rcd13ifvqghg","pricing_plan_id":"cebpf4jnsgd1na2vs0mg"},{"bike_id":"95cce204-2c86-4399-8898-a582490a5029","system_id":"levelo_inurba_marseille","lat":43.28669,"lon":5.38663,"is_reserved":false,"is_disabled":false,"rental_uris":{"android":"levelo://app?vid=95cce204-2c86-4399-8898-a582490a5029","ios":"levelo://app?vid=95cce204-2c86-4399-8898-a582490a5029"},"vehicle_type_id":"4","last_reported":1727896013,"current_range_meters":17200,"station_id":"ce4bhc92rcd13ifvqetg","pricing_plan_id":"cebpf4jnsgd1na2vs0mg"},{"bike_id":"9d47ca29-dd0b-4b53-9c73-277d81d6db79","system_id":"levelo_inurba_marseille","lat":43.290145,"lon":5.386532,"is_reserved":false,"is_disabled":false,"rental_uris":{"android":"levelo://app?vid=9d47ca29-dd0b-4b53-9c73-277d81d6db79","ios":"levelo://app?vid=9d47ca29-dd0b-4b53-9c73-277d81d6db79"},"vehicle_type_id":"4","last_reported":1727896013,"current_range_meters":27200,"station_id":"ce4bh4p2rcd13ifvqe0g","pricing_plan_id":"cebpf4jnsgd1na2vs0mg"},{"bike_id":"952f6095-5fe6-46d8-81af-24fc12c297a7","system_id":"levelo_inurba_marseille","lat":43.2846,"lon":5.35887,"is_reserved":false,"is_disabled":false,"rental_uris":{"android":"levelo://app?vid=952f6095-5fe6-46d8-81af-24fc12c297a7","ios":"levelo://app?vid=952f6095-5fe6-46d8-81af-24fc12c297a7"},"vehicle_type_id":"4","last_reported":1727896013,"current_range_meters":8400,"station_id":"ce4bhah2rcd13ifvqei0","pricing_plan_id":"cebpf4jnsgd1na2vs0mg"},{"bike_id":"17ecf758-1c1b-4441-8d1d-610b651df0f2","system_id":"levelo_inurba_marseille","lat":43.29173,"lon":5.37169,"is_reserved":false,"is_disabled":false,"rental_uris":{"android":"levelo://app?vid=17ecf758-1c1b-4441-8d1d-610b651df0f2","ios":"levelo://app?vid=17ecf758-1c1b-4441-8d1d-610b651df0f2"},"vehicle_type_id":"4","last_reported":1727896013,"current_range_meters":28800,"station_id":"ce4bha92rcd13ifvqeh0","pricing_plan_id":"cebpf4jnsgd1na2vs0mg"},{"bike_id":"1eac6906-423b-4d9a-ab99-ac137135ba48","system_id":"levelo_inurba_marseille","lat":43.308885,"lon":5.396429,"is_reserved":false,"is_disabled":false,"rental_uris":{"android":"levelo://app?vid=1eac6906-423b-4d9a-ab99-ac137135ba48","ios":"levelo://app?vid=1eac6906-423b-4d9a-ab99-ac137135ba48"},"vehicle_type_id":"4","last_reported":1727896013,"current_range_meters":38800,"station_id":"ce4bh012rcd13ifvqcv0","pricing_plan_id":"cebpf4jnsgd1na2vs0mg"},{"bike_id":"3835ed04-7ba2-4dfe-b030-c702cf5902ec","system_id":"levelo_inurba_marseille","lat":43.24078,"lon":5.37757,"is_reserved":false,"is_disabled":false,"rental_uris":{"android":"levelo://app?vid=3835ed04-7ba2-4dfe-b030-c702cf5902ec","ios":"levelo://app?vid=3835ed04-7ba2-4dfe-b030-c702cf5902ec"},"vehicle_type_id":"4","last_reported":1727896013,"current_range_meters":35600,"station_id":"ce4bhnp2rcd13ifvqgvg","pricing_plan_id":"cebpf4jnsgd1na2vs0mg"},{"bike_id":"b09e9d62-8877-4b8a-9f59-a8e3afeccef6","system_id":"levelo_inurba_marseille","lat":43.28003,"lon":5.40023,"is_reserved":false,"is_disabled":false,"rental_uris":{"android":"levelo://app?vid=b09e9d62-8877-4b8a-9f59-a8e3afeccef6","ios":"levelo://app?vid=b09e9d62-8877-4b8a-9f59-a8e3afeccef6"},"vehicle_type_id":"4","last_reported":1727896013,"current_range_meters":30000,"station_id":"ce4bho92rcd13ifvqh4g","pricing_plan_id":"cebpf4jnsgd1na2vs0mg"},{"bike_id":"824d2cae-8043-4d73-8df4-e64d057b4175","system_id":"levelo_inurba_marseille","lat":43.24998,"lon":5.38935,"is_reserved":false,"is_disabled":false,"rental_uris":{"android":"levelo://app?vid=824d2cae-8043-4d73-8df4-e64d057b4175","ios":"levelo://app?vid=824d2cae-8043-4d73-8df4-e64d057b4175"},"vehicle_type_id":"4","last_reported":1727896013,"current_range_meters":28000,"station_id":"ce4bhgp2rcd13ifvqfd0","pricing_plan_id":"cebpf4jnsgd1na2vs0mg"},{"bike_id":"9ad439ca-d0fd-48f9-965d-ad843ecef950","system_id":"levelo_inurba_marseille","lat":43.30804,"lon":5.38146,"is_reserved":false,"is_disabled":false,"rental_uris":{"android":"levelo://app?vid=9ad439ca-d0fd-48f9-965d-ad843ecef950","ios":"levelo://app?vid=9ad439ca-d0fd-48f9-965d-ad843ecef950"},"vehicle_type_id":"4","last_reported":1727896013,"current_range_meters":38800,"station_id":"ce4bgt12rcd13ifvqce0","pricing_plan_id":"cebpf4jnsgd1na2vs0mg"},{"bike_id":"7be2c816-5d53-4ede-9234-eb765ba5009c","system_id":"levelo_inurba_marseille","lat":43.29057,"lon":5.37577,"is_reserved":false,"is_disabled":false,"rental_uris":{"android":"levelo://app?vid=7be2c816-5d53-4ede-9234-eb765ba5009c","ios":"levelo://app?vid=7be2c816-5d53-4ede-9234-eb765ba5009c"},"vehicle_type_id":"4","last_reported":1727896013,"current_range_meters":10800,"station_id":"ce4bh692rcd13ifvqe90","pricing_plan_id":"cebpf4jnsgd1na2vs0mg"},{"bike_id":"1e5c272f-4332-43d7-b3bb-d55fe018ad3f","system_id":"levelo_inurba_marseille","lat":43.323579,"lon":5.389716,"is_reserved":false,"is_disabled":false,"rental_uris":{"android":"levelo://app?vid=1e5c272f-4332-43d7-b3bb-d55fe018ad3f","ios":"levelo://app?vid=1e5c272f-4332-43d7-b3bb-d55fe018ad3f"},"vehicle_type_id":"4","last_reported":1727896013,"current_range_meters":10800,"station_id":"ce4bhqp2rcd13ifvqhog","pricing_plan_id":"cebpf4jnsgd1na2vs0mg"},{"bike_id":"c903368d-a15b-4f89-897f-9fea01ff95ce","system_id":"levelo_inurba_marseille","lat":43.25716,"lon":5.41121,"is_reserved":false,"is_disabled":false,"rental_uris":{"android":"levelo://app?vid=c903368d-a15b-4f89-897f-9fea01ff95ce","ios":"levelo://app?vid=c903368d-a15b-4f89-897f-9fea01ff95ce"},"vehicle_type_id":"4","last_reported":1727896013,"current_range_meters":38800,"station_id":"ce4bhkp2rcd13ifvqgd0","pricing_plan_id":"cebpf4jnsgd1na2vs0mg"},{"bike_id":"260dc4d2-b71e-4825-aa8f-1a8f99eec461","system_id":"levelo_inurba_marseille","lat":43.31531,"lon":5.38032,"is_reserved":false,"is_disabled":false,"rental_uris":{"android":"levelo://app?vid=260dc4d2-b71e-4825-aa8f-1a8f99eec461","ios":"levelo://app?vid=260dc4d2-b71e-4825-aa8f-1a8f99eec461"},"vehicle_type_id":"4","last_reported":1727896013,"current_range_meters":12000,"station_id":"ce4bhsp2rcd13ifvqi50","pricing_plan_id":"cebpf4jnsgd1na2vs0mg"},{"bike_id":"b55974ec-e0dc-4c1e-bcc0-e5c6852e1e49","system_id":"levelo_inurba_marseille","lat":43.29532,"lon":5.38538,"is_reserved":false,"is_disabled":false,"rental_uris":{"android":"levelo://app?vid=b55974ec-e0dc-4c1e-bcc0-e5c6852e1e49","ios":"levelo://app?vid=b55974ec-e0dc-4c1e-bcc0-e5c6852e1e49"},"vehicle_type_id":"4","last_reported":1727896013,"current_range_meters":10000,"station_id":"ce4bgih2rcd13ifvqba0","pricing_plan_id":"cebpf4jnsgd1na2vs0mg"},{"bike_id":"b0efe4fa-a9db-46ee-8a74-8eafae3e6c89","system_id":"levelo_inurba_marseille","lat":43.29255,"lon":5.3844,"is_reserved":false,"is_disabled":false,"rental_uris":{"android":"levelo://app?vid=b0efe4fa-a9db-46ee-8a74-8eafae3e6c89","ios":"levelo://app?vid=b0efe4fa-a9db-46ee-8a74-8eafae3e6c89"},"vehicle_type_id":"4","last_reported":1727896013,"current_range_meters":7200,"station_id":"ce4bh692rcd13ifvqea0","pricing_plan_id":"cebpf4jnsgd1na2vs0mg"},{"bike_id":"2667e45a-51c5-4059-bd16-5d9028d8c61b","system_id":"levelo_inurba_marseille","lat":43.28666,"lon":5.36355,"is_reserved":false,"is_disabled":false,"rental_uris":{"android":"levelo://app?vid=2667e45a-51c5-4059-bd16-5d9028d8c61b","ios":"levelo://app?vid=2667e45a-51c5-4059-bd16-5d9028d8c61b"},"vehicle_type_id":"4","last_reported":1727896013,"current_range_meters":22400,"station_id":"ce4bhah2rcd13ifvqej0","pricing_plan_id":"cebpf4jnsgd1na2vs0mg"},{"bike_id":"1975f4df-a4f1-409f-a883-83ab5c7e29f6","system_id":"levelo_inurba_marseille","lat":43.26934,"lon":5.38926,"is_reserved":false,"is_disabled":false,"rental_uris":{"android":"levelo://app?vid=1975f4df-a4f1-409f-a883-83ab5c7e29f6","ios":"levelo://app?vid=1975f4df-a4f1-409f-a883-83ab5c7e29f6"},"vehicle_type_id":"4","last_reported":1727896013,"current_range_meters":28400,"station_id":"ce4bhhh2rcd13ifvqfl0","pricing_plan_id":"cebpf4jnsgd1na2vs0mg"},{"bike_id":"424995ad-0ba5-4d5b-83d4-ef2ef11209e6","system_id":"levelo_inurba_marseille","lat":43.3154,"lon":5.38036,"is_reserved":false,"is_disabled":false,"rental_uris":{"android":"levelo://app?vid=424995ad-0ba5-4d5b-83d4-ef2ef11209e6","ios":"levelo://app?vid=424995ad-0ba5-4d5b-83d4-ef2ef11209e6"},"vehicle_type_id":"4","last_reported":1727896013,"current_range_meters":6000,"station_id":"ce4bhsp2rcd13ifvqi50","pricing_plan_id":"cebpf4jnsgd1na2vs0mg"},{"bike_id":"62984046-62b1-413e-8c65-d1726e35c7d2","system_id":"levelo_inurba_marseille","lat":43.32484,"lon":5.36567,"is_reserved":false,"is_disabled":false,"rental_uris":{"android":"levelo://app?vid=62984046-62b1-413e-8c65-d1726e35c7d2","ios":"levelo://app?vid=62984046-62b1-413e-8c65-d1726e35c7d2"},"vehicle_type_id":"4","last_reported":1727896013,"current_range_meters":26000,"station_id":"ce4bhs12rcd13ifvqhvg","pricing_plan_id":"cebpf4jnsgd1na2vs0mg"},{"bike_id":"58f5a139-a3c2-4f1c-a896-25430e5700d5","system_id":"levelo_inurba_marseille","lat":43.26799,"lon":5.39406,"is_reserved":false,"is_disabled":false,"rental_uris":{"android":"levelo://app?vid=58f5a139-a3c2-4f1c-a896-25430e5700d5","ios":"levelo://app?vid=58f5a139-a3c2-4f1c-a896-25430e5700d5"},"vehicle_type_id":"4","last_reported":1727896013,"current_range_meters":6400,"station_id":"ce4bhh12rcd13ifvqfg0","pricing_plan_id":"cebpf4jnsgd1na2vs0mg"},