{"last_updated":1737137537,"ttl":60,"version":"2.2","data":{"bikes":[{"bike_id":"69e32280-6e98-4445-91f9-7eb6d8634aa1","system_id":"levelo_inurba_marseille","lat":43.29045,"lon":5.35924,"is_reserved":false,"is_disabled":false,"rental_uris":{"android":"levelo://app?vid=69e32280-6e98-4445-91f9-7eb6d8634aa1","ios":"levelo://app?vid=69e32280-6e98-4445-91f9-7eb6d8634aa1"},"vehicle_type_id":"4","last_reported":1737137537,"current_range_meters":20800,"station_id":"ce4bha92rcd13ifvqeg0","pricing_plan_id":"cebpf4jnsgd1na2vs0mg"},{"bike_id":"fdd68440-3b55-4223-ae90-b0d431a5ff9e","system_id":"levelo_inurba_marseille","lat":43.30485,"lon":5.36574,"is_reserved":false,"is_disabled":false,"rental_uris":{"android":"levelo://app?vid=fdd68440-3b55-4223-ae90-b0d431a5ff9e","ios":"levelo://app?vid=fdd68440-3b55-4223-ae90-b0d431a5ff9e"},"vehicle_type_id":"4","last_reported":1737137537,"current_range_meters":20400,"station_id":"","pricing_plan_id":"cebpf4jnsgd1na2vs0mg"},{"bike_id":"69d9c4e4-f930-40b3-bf28-de71ea316dcc","system_id":"levelo_inurba_marseille","lat":43.29038,"lon":5.39964,"is_reserved":false,"is_disabled":true,"rental_uris":{"android":"levelo://app?vid=69d9c4e4-f930-40b3-bf28-de71ea316dcc","ios":"levelo://app?vid=69d9c4e4-f930-40b3-bf28-de71ea316dcc"},"vehicle_type_id":"4","last_reported":1737137537,"current_range_meters":0,"station_id":"ce4bh392rcd13ifvqdm0","pricing_plan_id":"cebpf4jnsgd1na2vs0mg"},{"bike_id":"83423ef3-b993-424a-99e2-60978295cc1a","system_id":"levelo_inurba_marseille","lat":43.28004,"lon":5.41672,"is_reserved":false,"is_disabled":false,"rental_uris":{"android":"levelo://app?vid=83423ef3-b993-424a-99e2-60978295cc1a","ios":"levelo://app?vid=83423ef3-b993-424a-99e2-60978295cc1a"},"vehicle_type_id":"4","last_reported":1737137537,"current_range_meters":14000,"station_id":"ce4bho12rcd13ifvqh1g","pricing_plan_id":"cebpf4jnsgd1na2vs0mg"},{"bike_id":"f9345283-1454-4d51-8f14-1a4b848568d0","system_id":"levelo_inurba_marseille","lat":43.29794,"lon":5.38115,"is_reserved":false,"is_disabled":false,"rental_uris":{"android":"levelo://app?vid=f9345283-1454-4d51-8f14-1a4b848568d0","ios":"levelo://app?vid=f9345283-1454-4d51-8f14-1a4b848568d0"},"vehicle_type_id":"4","last_reported":1737137537,"current_range_meters":34800,"station_id":"ce4bgip2rcd13ifvqbb0","pricing_plan_id":"cebpf4jnsgd1na2vs0mg"},{"bike_id":"dea3821d-86eb-471e-9d64-9abb9d8e257b","system_id":"levelo_inurba_marseille","lat":43.29038,"lon":5.359103,"is_reserved":false,"is_disabled":false,"rental_uris":{"android":"levelo://app?vid=dea3821d-86eb-471e-9d64-9abb9d8e257b","ios":"levelo://app?vid=dea3821d-86eb-471e-9d64-9abb9d8e257b"},"vehicle_type_id":"4","last_reported":1737137537,"current_range_meters":28400,"station_id":"ce4bha92rcd13ifvqeg0","pricing_plan_id":"cebpf4jnsgd1na2vs0mg"},{"bike_id":"71b32f88-1aef-44a0-bf22-1e644f4e3f87","system_id":"levelo_inurba_marseille","lat":43.26212,"lon":5.37449,"is_reserved":false,"is_disabled":false,"rental_uris":{"android":"levelo://app?vid=71b32f88-1aef-44a0-bf22-1e644f4e3f87","ios":"levelo://app?vid=71b32f88-1aef-44a0-bf22-1e644f4e3f87"},"vehicle_type_id":"4","last_reported":1737137537,"current_range_meters":32800,"station_id":"ce4bhgp2rcd13ifvqfc0","pricing_plan_id":"cebpf4jnsgd1na2vs0mg"},{"bike_id":"63944c13-1dbc-4b8e-892d-53ea6e8c8f43","system_id":"levelo_inurba_marseille","lat":43.27996,"lon":5.40007,"is_reserved":false,"is_disabled":false,"rental_uris":{"android":"levelo://app?vid=63944c13-1dbc-4b8e-892d-53ea6e8c8f43","ios":"levelo://app?vid=63944c13-1dbc-4b8e-892d-53ea6e8c8f43"},"vehicle_type_id":"4","last_reported":1737137537,"current_range_meters":11600,"station_id":"ce4bho92rcd13ifvqh4g","pricing_plan_id":"cebpf4jnsgd1na2vs0mg"},{"bike_id":"1c5b4cd9-9d82-4cdf-8b85-273762ba9aeb","system_id":"levelo_inurba_marseille","lat":43.28104,"lon":5.37823,"is_reserved":false,"is_disabled":false,"rental_uris":{"android":"levelo://app?vid=1c5b4cd9-9d82-4cdf-8b85-273762ba9aeb","ios":"levelo://app?vid=1c5b4cd9-9d82-4cdf-8b85-273762ba9aeb"},"vehicle_type_id":"4","last_reported":1737137537,"current_range_meters":24000,"station_id":"ce4bha12rcd13ifvqee0","pricing_plan_id":"cebpf4jnsgd1na2vs0mg"},{"bike_id":"75d8f0a6-e099-4c97-914c-445fb134b064","system_id":"levelo_inurba_marseille","lat":43.29372,"lon":5.37874,"is_reserved":false,"is_disabled":false,"rental_uris":{"android":"levelo://app?vid=75d8f0a6-e099-4c97-914c-445fb134b064","ios":"levelo://app?vid=75d8f0a6-e099-4c97-914c-445fb134b064"},"vehicle_type_id":"4","last_reported":1737137537,"current_range_meters":37600,"station_id":"ce4bgjh2rcd13ifvqbf0","pricing_plan_id":"cebpf4jnsgd1na2vs0mg"},{"bike_id":"5ff1c1c1-92c2-43f7-8f5e-7f9a3f2cf9a0","system_id":"levelo_inurba_marseille","lat":43.24195,"lon":5.397173,"is_reserved":false,"is_disabled":false,"rental_uris":{"android":"levelo://app?vid=5ff1c1c1-92c2-43f7-8f5e-7f9a3f2cf9a0","ios":"levelo://app?vid=5ff1c1c1-92c2-43f7-8f5e-7f9a3f2cf9a0"},"vehicle_type_id":"4","last_reported":1737137537,"current_range_meters":38800,"station_id":"ce4bhn12rcd13ifvqgpg","pricing_plan_id":"cebpf4jnsgd1na2vs0mg"},{"bike_id":"1d461443-aacd-475f-a2e6-57c782362445","system_id":"levelo_inurba_marseille","lat":43.29842,"lon":5.3627,"is_reserved":false,"is_disabled":false,"rental_uris":{"android":"levelo://app?vid=1d461443-aacd-475f-a2e6-57c782362445","ios":"levelo://app?vid=1d461443-aacd-475f-a2e6-57c782362445"},"vehicle_type_id":"4","last_reported":1737137537,"current_range_meters":38800,"station_id":"ce4bgpp2rcd13ifvqc3g","pricing_plan_id":"cebpf4jnsgd1na2vs0mg"},{"bike_id":"eb4a1749-fb84-4f30-8bac-ca10b933ee21","system_id":"levelo_inurba_marseille","lat":43.24049,"lon":5.37741,"is_reserved":false,"is_disabled":false,"rental_uris":{"android":"levelo://app?vid=eb4a1749-fb84-4f30-8bac-ca10b933ee21","ios":"levelo://app?vid=eb4a1749-fb84-4f30-8bac-ca10b933ee21"},"vehicle_type_id":"4","last_reported":1737137537,"current_range_meters":28800,"station_id":"ce4bhnp2rcd13ifvqgvg","pricing_plan_id":"cebpf4jnsgd1na2vs0mg"},{"bike_id":"ad19c412-a6cc-4c1c-9242-26f8b14b305d","system_id":"levelo_inurba_marseille","lat":43.28425,"lon":5.39185,"is_reserved":false,"is_disabled":false,"rental_uris":{"android":"levelo://app?vid=ad19c412-a6cc-4c1c-9242-26f8b14b305d","ios":"levelo://app?vid=ad19c412-a6cc-4c1c-9242-26f8b14b305d"},"vehicle_type_id":"4","last_reported":1737137537,"current_range_meters":16800,"station_id":"ce4bhoh2rcd13ifvqh5g","pricing_plan_id":"cebpf4jnsgd1na2vs0mg"},{"bike_id":"d8876122-ff1e-42bb-a9ac-c66c39d72467","system_id":"levelo_inurba_marseille","lat":43.24386,"lon":5.37056,"is_reserved":false,"is_disabled":false,"rental_uris":{"android":"levelo://app?vid=d8876122-ff1e-42bb-a9ac-c66c39d72467","ios":"levelo://app?vid=d8876122-ff1e-42bb-a9ac-c66c39d72467"},"vehicle_type_id":"4","last_reported":1737137537,"current_range_meters":28800,"station_id":"ce4bhhh2rcd13ifvqfk0","pricing_plan_id":"cebpf4jnsgd1na2vs0mg"},{"bike_id":"f62770e2-2ef1-4a19-aa9a-6f653e74a837","system_id":"levelo_inurba_marseille","lat":43.31066,"lon":5.38348,"is_reserved":false,"is_disabled":false,"rental_uris":{"android":"levelo://app?vid=f62770e2-2ef1-4a19-aa9a-6f653e74a837","ios":"levelo://app?vid=f62770e2-2ef1-4a19-aa9a-6f653e74a837"},"vehicle_type_id":"4","last_reported":1737137537,"current_range_meters":18800,"station_id":"ce4bgv92rcd13ifvqcr0","pricing_plan_id":"cebpf4jnsgd1na2vs0mg"},{"bike_id":"cc7e2609-cc0e-4546-8354-9ff8fc688632","system_id":"levelo_inurba_marseille","lat":43.29714,"lon":5.40486,"is_reserved":false,"is_disabled":false,"rental_uris":{"android":"levelo://app?vid=cc7e2609-cc0e-4546-8354-9ff8fc688632","ios":"levelo://app?vid=cc7e2609-cc0e-4546-8354-9ff8fc688632"},"vehicle_type_id":"4","last_reported":1737137537,"current_range_meters":11600,"station_id":"ce4bh0h2rcd13ifvqd60","pricing_plan_id":"cebpf4jnsgd1na2vs0mg"},{"bike_id":"760858e3-be43-4f37-8c6c-a412abbd9db1","system_id":"levelo_inurba_marseille","lat":43.2926,"lon":5.38446,"is_reserved":false,"is_disabled":false,"rental_uris":{"android":"levelo://app?vid=760858e3-be43-4f37-8c6c-a412abbd9db1","ios":"levelo://app?vid=760858e3-be43-4f37-8c6c-a412abbd9db1"},"vehicle_type_id":"4","last_reported":1737137537,"current_range_meters":23200,"station_id":"ce4bh692rcd13ifvqea0","pricing_plan_id":"cebpf4jnsgd1na2vs0mg"},{"bike_id":"8b6a8b78-4966-4fb6-9b29-4d80005f6d28","system_id":"levelo_inurba_marseille","lat":43.28418,"lon":5.37515,"is_reserved":false,"is_disabled":false,"rental_uris":{"android":"levelo://app?vid=8b6a8b78-4966-4fb6-9b29-4d80005f6d28","ios":"levelo://app?vid=8b6a8b78-4966-4fb6-9b29-4d80005f6d28"},"vehicle_type_id":"4","last_reported":1737137537,"current_range_meters":3200,"station_id":"ce4bh412rcd13ifvqds0","pricing_plan_id":"cebpf4jnsgd1na2vs0mg"},{"bike_id":"33c68e3e-4c40-495e-8bc5-9bc8141ad80d","system_id":"levelo_inurba_marseille","lat":43.27203,"lon":5.39183,"is_reserved":false,"is_disabled":false,"rental_uris":{"android":"levelo://app?vid=33c68e3e-4c40-495e-8bc5-9bc8141ad80d","ios":"levelo://app?vid=33c68e3e-4c40-495e-8bc5-9bc8141ad80d"},"vehicle_type_id":"4","last_reported":1737137537,"current_range_meters":38000,"station_id":"ce4bhhp2rcd13ifvqfm0","pricing_plan_id":"cebpf4jnsgd1na2vs0mg"},{"bike_id":"ee026cb9-61c5-4c55-af01-2065b506a21f","system_id":"levelo_inurba_marseille","lat":43.29633,"lon":5.40602,"is_reserved":false,"is_disabled":false,"rental_uris":{"android":"levelo://app?vid=ee026cb9-61c5-4c55-af01-2065b506a21f","ios":"levelo://app?vid=ee026cb9-61c5-4c55-af01-2065b506a21f"},"vehicle_type_id":"4","last_reported":1737137537,"current_range_meters":16000,"station_id":"ce4bh0h2rcd13ifvqd60","pricing_plan_id":"cebpf4jnsgd1na2vs0mg"},{"bike_id":"6357cb88-398d-4b40-b59b-47d87bf0b82f","system_id":"levelo_inurba_marseille","lat":43.29535,"lon":5.38548,"is_reserved":false,"is_disabled":false,"rental_uris":{"android":"levelo://app?vid=6357cb88-398d-4b40-b59b-47d87bf0b82f","ios":"levelo://app?vid=6357cb88-398d-4b40-b59b-47d87bf0b82f"},"vehicle_type_id":"4","last_reported":1737137537,"current_range_meters":33600,"station_id":"ce4bgih2rcd13ifvqba0","pricing_plan_id":"cebpf4jnsgd1na2vs0mg"},{"bike_id":"ea820ade-d81d-428e-82b9-7f165f7e8e75","system_id":"levelo_inurba_marseille","lat":43.30763,"lon":5.38161,"is_reserved":false,"is_disabled":false,"rental_uris":{"android":"levelo://app?vid=ea820ade-d81d-428e-82b9-7f165f7e8e75","ios":"levelo://app?vid=ea820ade-d81d-428e-82b9-7f165f7e8e75"},"vehicle_type_id":"4","last_reported":1737137537,"current_range_meters":30000,"station_id":"ce4bgt12rcd13ifvqce0","pricing_plan_id":"cebpf4jnsgd1na2vs0mg"},{"bike_id":"a09bc6cd-d469-496f-b200-7c4ff6e6d2ca","system_id":"levelo_inurba_marseille","lat":43.292,"lon":5.39319,"is_reserved":false,"is_disabled":false,"rental_uris":{"android":"levelo://app?vid=a09bc6cd-d469-496f-b200-7c4ff6e6d2ca","ios":"levelo://app?vid=a09bc6cd-d469-496f-b200-7c4ff6e6d2ca"},"vehicle_type_id":"4","last_reported":1737137537,"current_range_meters":26800,"station_id":"ce4bh192rcd13ifvqdd0","pricing_plan_id":"cebpf4jnsgd1na2vs0mg"},{"bike_id":"b41597f0-30e4-4731-a821-d808d1574cbb","system_id":"levelo_inurba_marseille","lat":43.33025,"lon":5.39043,"is_reserved":false,"is_disabled":false,"rental_uris":{"android":"levelo://app?vid=b41597f0-30e4-4731-a821-d808d1574cbb","ios":"levelo://app?vid=b41597f0-30e4-4731-a821-d808d1574cbb"},"vehicle_type_id":"4","last_reported":1737137537,"current_range_meters":38800,"station_id":"ce4bhr92rcd13ifvqhrg","pricing_plan_id":"cebpf4jnsgd1na2vs0mg"},{"bike_id":"15c9bac7-063b-4008-8233-689b3351f329","system_id":"levelo_inurba_marseille","lat":43.24802,"lon":5.37455,"is_reserved":false,"is_disabled":false,"rental_uris":{"android":"levelo://app?vid=15c9bac7-063b-4008-8233-689b3351f329","ios":"levelo://app?vid=15c9bac7-063b-4008-8233-689b3351f329"},"vehicle_type_id":"4","last_reported":1737137537,"current_range_meters":38800,"station_id":"ce4bhgh2rcd13ifvqfb0","pricing_plan_id":"cebpf4jnsgd1na2vs0mg"},{"bike_id":"88f5dbd0-5095-470c-9345-6a35673836c6","system_id":"levelo_inurba_marseille","lat":43.26208,"lon":5.37928,"is_reserved":false,"is_disabled":true,"rental_uris":{"android":"levelo://app?vid=88f5dbd0-5095-470c-9345-6a35673836c6","ios":"levelo://app?vid=88f5dbd0-5095-470c-9345-6a35673836c6"},"vehicle_type_id":"4","last_reported":1737137537,"current_range_meters":1200,"station_id":"ce4bhjp2rcd13ifvqg90","pricing_plan_id":"cebpf4jnsgd1na2vs0mg"},{"bike_id":"04df8c54-30eb-4774-a35f-923127a8731f","system_id":"levelo_inurba_marseille","lat":43.2979,"lon":5.38106,"is_reserved":false,"is_disabled":true,"rental_uris":{"android":"levelo://app?vid=04df8c54-30eb-4774-a35f-923127a8731f","ios":"levelo://app?vid=04df8c54-30eb-4774-a35f-923127a8731f"},"vehicle_type_id":"4","last_reported":1737137537,"current_range_meters":0,"station_id":"ce4bgip2rcd13ifvqbb0","pricing_plan_id":"cebpf4jnsgd1na2vs0mg"},{"bike_id":"33a27f13-5f23-4984-8323-e12bba922a06","system_id":"levelo_inurba_marseille","lat":43.290453,"lon":5.359198,"is_reserved":false,"is_disabled":false,"rental_uris":{"android":"levelo://app?vid=33a27f13-5f23-4984-8323-e12bba922a06","ios":"levelo://app?vid=33a27f13-5f23-4984-8323-e12bba922a06"},"vehicle_type_id":"4","last_reported":1737137537,"current_range_meters":38800,"station_id":"ce4bha92rcd13ifvqeg0","pricing_plan_id":"cebpf4jnsgd1na2vs0mg"},{"bike_id":"d20b3e47-b5de-460c-89c0-ba33bec973a1","system_id":"levelo_inurba_marseille","lat":43.29032,"lon":5.38667,"is_reserved":false,"is_disabled":false,"rental_uris":{"android":"levelo://app?vid=d20b3e47-b5de-460c-89c0-ba33bec973a1","ios":"levelo://app?vid=d20b3e47-b5de-460c-89c0-ba33bec973a1"},"vehicle_type_id":"4","last_reported":1737137537,"current_range_meters":16400,"station_id":"ce4bh4p2rcd13ifvqe0g","pricing_plan_id":"cebpf4jnsgd1na2vs0mg"},{"bike_id":"835db956-1cf0-49b1-b7c0-a9f7cb79e4cc","system_id":"levelo_inurba_marseille","lat":43.28729,"lon":5.36082,"is_reserved":false,"is_disabled":false,"rental_uris":{"android":"levelo://app?vid=835db956-1cf0-49b1-b7c0-a9f7cb79e4cc","ios":"levelo://app?vid=835db956-1cf0-49b1-b7c0-a9f7cb79e4cc"},"vehicle_type_id":"4","last_reported":1737137537,"current_range_meters":26800,"station_id":"cki0cbj6b192h4jlfktg","pricing_plan_id":"cebpf4jnsgd1na2vs0mg"},{"bike_id":"66ec8711-3dbc-48f7-b091-25773ac6b77c","system_id":"levelo_inurba_marseille","lat":43.28184,"lon":5.44255,"is_reserved":false,"is_disabled":true,"rental_uris":{"android":"levelo://app?vid=66ec8711-3dbc-48f7-b091-25773ac6b77c","ios":"levelo://app?vid=66ec8711-3dbc-48f7-b091-25773ac6b77c"},"vehicle_type_id":"4","last_reported":1737137537,"current_range_meters":0,"station_id":"","pricing_plan_id":"cebpf4jnsgd1na2vs0mg"},{"bike_id":"051fe390-8107-417a-b18f-34bc1bf2e59c","system_id":"levelo_inurba_marseille","lat":43.30186,"lon":5.36635,"is_reserved":false,"is_disabled":false,"rental_uris":{"android":"levelo://app?vid=051fe390-8107-417a-b18f-34bc1bf2e59c","ios":"levelo://app?vid=051fe390-8107-417a-b18f-34bc1bf2e59c"},"vehicle_type_id":"4","last_reported":1737137537,"current_range_meters":8800,"station_id":"ce4bgrh2rcd13ifvqc8g","pricing_plan_id":"cebpf4jnsgd1na2vs0mg"},{"bike_id":"58e31c92-8da4-49c6-ad74-b9ffb3b3d639","system_id":"levelo_inurba_marseille","lat":43.24809,"lon":5.37462,"is_reserved":false,"is_disabled":false,"rental_uris":{"android":"levelo://app?vid=58e31c92-8da4-49c6-ad74-b9ffb3b3d639","ios":"levelo://app?vid=58e31c92-8da4-49c6-ad74-b9ffb3b3d639"},"vehicle_type_id":"4","last_reported":1737137537,"current_range_meters":27600,"station_id":"ce4bhgh2rcd13ifvqfb0","pricing_plan_id":"cebpf4jnsgd1na2vs0mg"},{"bike_id":"964d10fe-bd57-47b6-b03c-7b4d03fa0231","system_id":"levelo_inurba_marseille","lat":43.29259,"lon":5.38443,"is_reserved":false,"is_disabled":false,"rental_uris":{"android":"levelo://app?vid=964d10fe-bd57-47b6-b03c-7b4d03fa0231","ios":"levelo://app?vid=964d10fe-bd57-47b6-b03c-7b4d03fa0231"},"vehicle_type_id":"4","last_reported":1737137537,"current_range_meters":11600,"station_id":"ce4bh692rcd13ifvqea0","pricing_plan_id":"cebpf4jnsgd1na2vs0mg"},{"bike_id":"0ce2ff96-cf7c-44da-8785-cacc89ceb5f3","system_id":"levelo_inurba_marseille","lat":43.27551,"lon":5.38429,"is_reserved":false,"is_disabled":true,"rental_uris":{"android":"levelo://app?vid=0ce2ff96-cf7c-44da-8785-cacc89ceb5f3","ios":"levelo://app?vid=0ce2ff96-cf7c-44da-8785-cacc89ceb5f3"},"vehicle_type_id":"4","last_reported":1737137537,"current_range_meters":1200,"station_id":"ce4bhh92rcd13ifvqfi0","pricing_plan_id":"cebpf4jnsgd1na2vs0mg"},{"bike_id":"67060ec2-7ed3-4d11-b3c6-8f907cb51077","system_id":"levelo_inurba_marseille","lat":43.2903,"lon":5.35904,"is_reserved":false,"is_disabled":false,"rental_uris":{"android":"levelo://app?vid=67060ec2-7ed3-4d11-b3c6-8f907cb51077","ios":"levelo://app?vid=67060ec2-7ed3-4d11-b3c6-8f907cb51077"},"vehicle_type_id":"4","last_reported":1737137537,"current_range_meters":20400,"station_id":"ce4bha92rcd13ifvqeg0","pricing_plan_id":"cebpf4jnsgd1na2vs0mg"},{"bike_id":"a81ea5b1-9317-453a-bcfd-4915654f0b73","system_id":"levelo_inurba_marseille","lat":43.32482,"lon":5.36572,"is_reserved":false,"is_disabled":false,"rental_uris":{"android":"levelo://app?vid=a81ea5b1-9317-453a-bcfd-4915654f0b73","ios":"levelo://app?vid=a81ea5b1-9317-453a-bcfd-4915654f0b73"},"vehicle_type_id":"4","last_reported":1737137537,"current_range_meters":38400,"station_id":"ce4bhs12rcd13ifvqhvg","pricing_plan_id":"cebpf4jnsgd1na2vs0mg"},{"bike_id":"8d22f8c5-ad80-43dc-98d7-5495be9f6849","system_id":"levelo_inurba_marseille","lat":43.28422,"lon":5.39181,"is_reserved":false,"is_disabled":true,"rental_uris":{"android":"levelo://app?vid=8d22f8c5-ad80-43dc-98d7-5495be9f6849","ios":"levelo://app?vid=8d22f8c5-ad80-43dc-98d7-5495be9f6849"},"vehicle_type_id":"4","last_reported":1737137537,"current_range_meters":0,"station_id":"ce4bhoh2rcd13ifvqh5g","pricing_plan_id":"cebpf4jnsgd1na2vs0mg"},{"bike_id":"4bcbd349-bdab-40c9-9aeb-55d852e9309f","system_id":"levelo_inurba_marseille","lat":43.26551,"lon":5.37289,"is_reserved":false,"is_disabled":false,"rental_uris":{"android":"levelo://app?vid=4bcbd349-bdab-40c9-9aeb-55d852e9309f","ios":"levelo://app?vid=4bcbd349-bdab-40c9-9aeb-55d852e9309f"},"vehicle_type_id":"4","last_reported":1737137537,"current_range_meters":6800,"station_id":"ce4bhg12rcd13ifvqf70","pricing_plan_id":"cebpf4jnsgd1na2vs0mg"},{"bike_id":"c35f475e-8144-4be4-95dc-7f5f1eaed87d","system_id":"levelo_inurba_marseille","lat":43.29268,"lon":5.38448,"is_reserved":false,"is_disabled":false,"rental_uris":{"android":"levelo://app?vid=c35f475e-8144-4be4-95dc-7f5f1eaed87d","ios":"levelo://app?vid=c35f475e-8144-4be4-95dc-7f5f1eaed87d"},"vehicle_type_id":"4","last_reported":1737137537,"current_range_meters":15200,"station_id":"ce4bh692rcd13ifvqea0","pricing_plan_id":"cebpf4jnsgd1na2vs0mg"},{"bike_id":"8a5e32b2-8ba1-400d-a5a3-eca567e51378","system_id":"levelo_inurba_marseille","lat":43.2872,"lon":5.37932,"is_reserved":false,"is_disabled":false,"rental_uris":{"android":"levelo://app?vid=8a5e32b2-8ba1-400d-a5a3-eca567e51378","ios":"levelo://app?vid=8a5e32b2-8ba1-400d-a5a3-eca567e51378"},"vehicle_type_id":"4","last_reported":1737137537,"current_range_meters":2800,"station_id":"ce4bh9p2rcd13ifvqec0","pricing_plan_id":"cebpf4jnsgd1na2vs0mg"},{"bike_id":"866ae56e-7735-44e8-b9b4-b19f29175db2","system_id":"levelo_inurba_marseille","lat":43.29806,"lon":5.3809,"is_reserved":false,"is_disabled":false,"rental_uris":{"android":"levelo://app?vid=866ae56e-7735-44e8-b9b4-b19f29175db2","ios":"levelo://app?vid=866ae56e-7735-44e8-b9b4-b19f29175db2"},"vehicle_type_id":"4","last_reported":1737137537,"current_range_meters":32000,"station_id":"ce4bgip2rcd13ifvqbb0","pricing_plan_id":"cebpf4jnsgd1na2vs0mg"},{"bike_id":"749596cc-fc66-4fe5-8b5a-964af2c4f1fa","system_id":"levelo_inurba_marseille","lat":43.29425,"lon":5.38622,"is_reserved":false,"is_disabled":false,"rental_uris":{"android":"levelo://app?vid=749596cc-fc66-4fe5-8b5a-964af2c4f1fa","ios":"levelo://app?vid=749596cc-fc66-4fe5-8b5a-964af2c4f1fa"},"vehicle_type_id":"4","last_reported":1737137537,"current_range_meters":36400,"station_id":"ce4bh2h2rcd13ifvqdh0","pricing_plan_id":"cebpf4jnsgd1na2vs0mg"},{"bike_id":"2d9037ef-a3e6-4ff1-9d35-8bf49f0a59fd","system_id":"levelo_inurba_marseille","lat":43.29298,"lon":5.37459,"is_reserved":false,"is_disabled":false,"rental_uris":{"android":"levelo://app?vid=2d9037ef-a3e6-4ff1-9d35-8bf49f0a59fd","ios":"levelo://app?vid=2d9037ef-a3e6-4ff1-9d35-8bf49f0a59fd"},"vehicle_type_id":"4","last_reported":1737137537,"current_range_meters":22000,"station_id":"ce4bgi12rcd13ifvqb70","pricing_plan_id":"cebpf4jnsgd1na2vs0mg"},{"bike_id":"6d133f16-5a1d-4f3e-aa86-5db5b3a6e8a4","system_id":"levelo_inurba_marseille","lat":43.24802,"lon":5.37457,"is_reserved":false,"is_disabled":false,"rental_uris":{"android":"levelo://app?vid=6d133f16-5a1d-4f3e-aa86-5db5b3a6e8a4","ios":"levelo://app?vid=6d133f16-5a1d-4f3e-aa86-5db5b3a6e8a4"},"vehicle_type_id":"4","last_reported":1737137537,"current_range_meters":37600,"station_id":"ce4bhgh2rcd13ifvqfb0","pricing_plan_id":"cebpf4jnsgd1na2vs0mg"},{"bike_id":"d464e816-fb5f-4265-ab2c-a78861980cfd","system_id":"levelo_inurba_marseille","lat":43.29792,"lon":5.38114,"is_reserved":false,"is_disabled":false,"rental_uris":{"android":"levelo://app?vid=d464e816-fb5f-4265-ab2c-a78861980cfd","ios":"levelo://app?vid=d464e816-fb5f-4265-ab2c-a78861980cfd"},"vehicle_type_id":"4","last_reported":1737137537,"current_range_meters":38400,"station_id":"ce4bgip2rcd13ifvqbb0","pricing_plan_id":"cebpf4jnsgd1na2vs0mg"},{"bike_id":"2ea86359-c9cc-4aab-ba1c-a5d8074f2c0c","system_id":"levelo_inurba_marseille","lat":43.27066,"lon":5.42281,"is_reserved":false,"is_disabled":false,"rental_uris":{"android":"levelo://app?vid=2ea86359-c9cc-4aab-ba1c-a5d8074f2c0c","ios":"levelo://app?vid=2ea86359-c9cc-4aab-ba1c-a5d8074f2c0c"},"vehicle_type_id":"4","last_reported":1737137537,"current_range_meters":25600,"station_id":"ce4bhk92rcd13ifvqgb0","pricing_plan_id":"cebpf4jnsgd1na2vs0mg"},{"bike_id":"034764a4-57b8-404a-9faa-15d67a8b57f9","system_id":"levelo_inurba_marseille","lat":43.2808,"lon":5.39654,"is_reserved":false,"is_disabled":false,"rental_uris":{"android":"levelo://app?vid=034764a4-57b8-404a-9faa-15d67a8b57f9","ios":"levelo://app?vid=034764a4-57b8-404a-9faa-15d67a8b57f9"},"vehicle_type_id":"4","last_reported":1737137537,"current_range_meters":8000,"station_id":"ce4bho12rcd13ifvqh2g","pricing_plan_id":"cebpf4jnsgd1na2vs0mg"},{"bike_id":"30579412-b6f8-4825-8642-ca471e06d7d6","system_id":"levelo_inurba_marseille","lat":43.28672,"lon":5.36339,"is_reserved":false,"is_disabled":false,"rental_uris":{"android":"levelo://app?vid=30579412-b6f8-4825-8642-ca471e06d7d6","ios":"levelo://app?vid=30579412-b6f8-4825-8642-ca471e06d7d6"},"vehicle_type_id":"4","last_reported":1737137537,"current_range_meters":38800,"station_id":"ce4bhah2rcd13ifvqej0","pricing_plan_id":"cebpf4jnsgd1na2vs0mg"},{"bike_id":"4d3ae85f-fca1-4538-88e2-4786cf0763ec","system_id":"levelo_inurba_marseille","lat":43.285156,"lon":5.357608,"is_reserved":false,"is_disabled":false,"rental_uris":{"android":"levelo://app?vid=4d3ae85f-fca1-4538-88e2-4786cf0763ec","ios":"levelo://app?vid=4d3ae85f-fca1-4538-88e2-4786cf0763ec"},"vehicle_type_id":"4","last_reported":1737137537,"current_range_meters":28800,"station_id":"ce4bh692rcd13ifvqe90","pricing_plan_id":"cebpf4jnsgd1na2vs0mg"},{"bike_id":"2acf518f-a7d8-44b5-b861-bf4c55988270","system_id":"levelo_inurba_marseille","lat":43.27894,"lon":5.38017,"is_reserved":false,"is_disabled":false,"rental_uris":{"android":"levelo://app?vid=2acf518f-a7d8-44b5-b861-bf4c55988270","ios":"levelo://app?vid=2acf518f-a7d8-44b5-b861-bf4c55988270"},"vehicle_type_id":"4","last_reported":1737137537,"current_range_meters":18800,"station_id":"ce4bhf92rcd13ifvqf50","pricing_plan_id":"cebpf4jnsgd1na2vs0mg"},{"bike_id":"7804de62-0eea-40a8-8d82-51a406eb0aec","system_id":"levelo_inurba_marseille","lat":43.28717,"lon":5.36107,"is_reserved":false,"is_disabled":false,"rental_uris":{"android":"levelo://app?vid=7804de62-0eea-40a8-8d82-51a406eb0aec","ios":"levelo://app?vid=7804de62-0eea-40a8-8d82-51a406eb0aec"},"vehicle_type_id":"4","last_reported":1737137537,"current_range_meters":9200,"station_id":"cki0cbj6b192h4jlfktg","pricing_plan_id":"cebpf4jnsgd1na2vs0mg"},{"bike_id":"c6b2298b-e3ea-4ff5-9aea-4dedd2e2a126","system_id":"levelo_inurba_marseille","lat":43.29523,"lon":5.39032,"is_reserved":false,"is_disabled":true,"rental_uris":{"android":"levelo://app?vid=c6b2298b-e3ea-4ff5-9aea-4dedd2e2a126","ios":"levelo://app?vid=c6b2298b-e3ea-4ff5-9aea-4dedd2e2a126"},"vehicle_type_id":"4","last_reported":1737137537,"current_range_meters":32000,"station_id":"ce4bh3p2rcd13ifvqdp0","pricing_plan_id":"cebpf4jnsgd1na2vs0mg"},{"bike_id":"b6b15eac-0d9c-4583-b37f-0f4d649fd5db","system_id":"levelo_inurba_marseille","lat":43.2989,"lon":5.39726,"is_reserved":false,"is_disabled":false,"rental_uris":{"android":"levelo://app?vid=b6b15eac-0d9c-4583-b37f-0f4d649fd5db","ios":"levelo://app?vid=b6b15eac-0d9c-4583-b37f-0f4d649fd5db"},"vehicle_type_id":"4","last_reported":1737137537,"current_range_meters":33600,"station_id":"ce4bh0h2rcd13ifvqd50","pricing_plan_id":"cebpf4jnsgd1na2vs0mg"},{"bike_id":"9901340c-2f45-4336-a3e0-f3b1b3c21d39","system_id":"levelo_inurba_marseille","lat":43.2789,"lon":5.38018,"is_reserved":false,"is_disabled":false,"rental_uris":{"android":"levelo://app?vid=9901340c-2f45-4336-a3e0-f3b1b3c21d39","ios":"levelo://app?vid=9901340c-2f45-4336-a3e0-f3b1b3c21d39"},"vehicle_type_id":"4","last_reported":1737137537,"current_range_meters":19200,"station_id":"ce4bhf92rcd13ifvqf50","pricing_plan_id":"cebpf4jnsgd1na2vs0mg"},{"bike_id":"c29c09ef-1999-4d84-aafa-017171b454ff","system_id":"levelo_inurba_marseille","lat":43.31067,"lon":5.38344,"is_reserved":false,"is_disabled":false,"rental_uris":{"android":"levelo://app?vid=c29c09ef-1999-4d84-aafa-017171b454ff","ios":"levelo://app?vid=c29c09ef-1999-4d84-aafa-017171b454ff"},"vehicle_type_id":"4","last_reported":1737137537,"current_range_meters":8000,"station_id":"ce4bgv92rcd13ifvqcr0","pricing_plan_id":"cebpf4jnsgd1na2vs0mg"},{"bike_id":"6ea4d259-06b8-4e0f-9494-4eae2040b46d","system_id":"levelo_inurba_marseille","lat":43.24181,"lon":5.39722,"is_reserved":false,"is_disabled":false,"rental_uris":{"android":"levelo://app?vid=6ea4d259-06b8-4e0f-9494-4eae2040b46d","ios":"levelo://app?vid=6ea4d259-06b8-4e0f-9494-4eae2040b46d"},"vehicle_type_id":"4","last_reported":1737137537,"current_range_meters":27600,"station_id":"ce4bhn12rcd13ifvqgpg","pricing_plan_id":"cebpf4jnsgd1na2vs0mg"},{"bike_id":"9d1aebc5-b2bb-40f1-ac25-2d42e5ddad28","system_id":"levelo_inurba_marseille","lat":43.28461,"lon":5.35902,"is_reserved":false,"is_disabled":true,"rental_uris":{"android":"levelo://app?vid=9d1aebc5-b2bb-40f1-ac25-2d42e5ddad28","ios":"levelo://app?vid=9d1aebc5-b2bb-40f1-ac25-2d42e5ddad28"},"vehicle_type_id":"4","last_reported":1737137537,"current_range_meters":0,"station_id":"ce4bhah2rcd13ifvqei0","pricing_plan_id":"cebpf4jnsgd1na2vs0mg"},{"bike_id":"693e2dc4-8e5f-4221-a977-14cc5ef39a01","system_id":"levelo_inurba_marseille","lat":43.24074,"lon":5.3776,"is_reserved":false,"is_disabled":false,"rental_uris":{"android":"levelo://app?vid=693e2dc4-8e5f-4221-a977-14cc5ef39a01","ios":"levelo://app?vid=693e2dc4-8e5f-4221-a977-14cc5ef39a01"},"vehicle_type_id":"4","last_reported":1737137537,"current_range_meters":38400,"station_id":"ce4bhnp2rcd13ifvqgvg","pricing_plan_id":"cebpf4jnsgd1na2vs0mg"},{"bike_id":"0aacbbb4-b4df-4112-9f3e-9c8b0c3a36b2","system_id":"levelo_inurba_marseille","lat":43.24399,"lon":5.37052,"is_reserved":false,"is_disabled":false,"rental_uris":{"android":"levelo://app?vid=0aacbbb4-b4df-4112-9f3e-9c8b0c3a36b2","ios":"levelo://app?vid=0aacbbb4-b4df-4112-9f3e-9c8b0c3a36b2"},"vehicle_type_id":"4","last_reported":1737137537,"current_range_meters":39200,"station_id":"ce4bhhh2rcd13ifvqfk0","pricing_plan_id":"cebpf4jnsgd1na2vs0mg"},{"bike_id":"811a1ec0-366e-4fd8-8f3c-3e594a31f929","system_id":"levelo_inurba_marseille","lat":43.2558,"lon":5.3824,"is_reserved":false,"is_disabled":false,"rental_uris":{"android":"levelo://app?vid=811a1ec0-366e-4fd8-8f3c-3e594a31f929","ios":"levelo://app?vid=811a1ec0-366e-4fd8-8f3c-3e594a31f929"},"vehicle_type_id":"4","last_reported":1737137537,"current_range_meters":32800,"station_id":"ce4bhih2rcd13ifvqfs0","pricing_plan_id":"cebpf4jnsgd1na2vs0mg"},{"bike_id":"891d5aa4-b1b0-4e0c-90ac-49e97bf9c382","system_id":"levelo_inurba_marseille","lat":43.23196,"lon":5.39998,"is_reserved":false,"is_disabled":false,"rental_uris":{"android":"levelo://app?vid=891d5aa4-b1b0-4e0c-90ac-49e97bf9c382","ios":"levelo://app?vid=891d5aa4-b1b0-4e0c-90ac-49e97bf9c382"},"vehicle_type_id":"4","last_reported":1737137537,"current_range_meters":32800,"station_id":"ce4bhn12rcd13ifvqgqg","pricing_plan_id":"cebpf4jnsgd1na2vs0mg"},{"bike_id":"47cb5028-ece3-4b1a-8815-2c9803feb9c1","system_id":"levelo_inurba_marseille","lat":43.30525,"lon":5.36719,"is_reserved":false,"is_disabled":false,"rental_uris":{"android":"levelo://app?vid=47cb5028-ece3-4b1a-8815-2c9803feb9c1","ios":"levelo://app?vid=47cb5028-ece3-4b1a-8815-2c9803feb9c1"},"vehicle_type_id":"4","last_reported":1737137537,"current_range_meters":8000,"station_id":"ce4bgrp2rcd13ifvqc9g","pricing_plan_id":"cebpf4jnsgd1na2vs0mg"},{"bike_id":"5450a61f-23a6-4f67-a11d-6aa8f4b0f147","system_id":"levelo_inurba_marseille","lat":43.29377,"lon":5.37868,"is_reserved":false,"is_disabled":false,"rental_uris":{"android":"levelo://app?vid=5450a61f-23a6-4f67-a11d-6aa8f4b0f147","ios":"levelo://app?vid=5450a61f-23a6-4f67-a11d-6aa8f4b0f147"},"vehicle_type_id":"4","last_reported":1737137537,"current_range_meters":24800,"station_id":"ce4bgjh2rcd13ifvqbf0","pricing_plan_id":"cebpf4jnsgd1na2vs0mg"},{"bike_id":"357eaeda-fef2-41f2-9ad0-621ae2cc5c09","system_id":"levelo_inurba_marseille","lat":43.33768,"lon":5.37496,"is_reserved":false,"is_disabled":false,"rental_uris":{"android":"levelo://app?vid=357eaeda-fef2-41f2-9ad0-621ae2cc5c09","ios":"levelo://app?vid=357eaeda-fef2-41f2-9ad0-621ae2cc5c09"},"vehicle_type_id":"4","last_reported":1737137537,"current_range_meters":35200,"station_id":"","pricing_plan_id":"cebpf4jnsgd1na2vs0mg"},{"bike_id":"bbf89091-a58a-422c-9b9c-0195987d5ea3","system_id":"levelo_inurba_marseille","lat":43.2926,"lon":5.38429,"is_reserved":false,"is_disabled":false,"rental_uris":{"android":"levelo://app?vid=bbf89091-a58a-422c-9b9c-0195987d5ea3","ios":"levelo://app?vid=bbf89091-a58a-422c-9b9c-0195987d5ea3"},"vehicle_type_id":"4","last_reported":1737137537,"current_range_meters":28800,"station_id":"ce4bh692rcd13ifvqea0","pricing_plan_id":"cebpf4jnsgd1na2vs0mg"},{"bike_id":"8339b4c9-5197-4743-a08d-96d1990a249b","system_id":"levelo_inurba_marseille","lat":43.2841,"lon":5.37518,"is_reserved":false,"is_disabled":false,"rental_uris":{"android":"levelo://app?vid=8339b4c9-5197-4743-a08d-96d1990a249b","ios":"levelo://app?vid=8339b4c9-5197-4743-a08d-96d1990a249b"},"vehicle_type_id":"4","last_reported":1737137537,"current_range_meters":28800,"station_id":"ce4bh412rcd13ifvqds0","pricing_plan_id":"cebpf4jnsgd1na2vs0mg"},{"bike_id":"21e77e5e-acba-478f-9462-6f9373cd3b89","system_id":"levelo_inurba_marseille","lat":43.24171,"lon":5.39716,"is_reserved":false,"is_disabled":true,"rental_uris":{"android":"levelo://app?vid=21e77e5e-acba-478f-9462-6f9373cd3b89","ios":"levelo://app?vid=21e77e5e-acba-478f-9462-6f9373cd3b89"},"vehicle_type_id":"4","last_reported":1737137537,"current_range_meters":1200,"station_id":"ce4bhn12rcd13ifvqgpg","pricing_plan_id":"cebpf4jnsgd1na2vs0mg"},{"bike_id":"c216eff2-fe6e-47c0-81e9-9d71c932b2e5","system_id":"levelo_inurba_marseille","lat":43.28551,"lon":5.39482,"is_reserved":false,"is_disabled":false,"rental_uris":{"android":"levelo://app?vid=c216eff2-fe6e-47c0-81e9-9d71c932b2e5","ios":"levelo://app?vid=c216eff2-fe6e-47c0-81e9-9d71c932b2e5"},"vehicle_type_id":"4","last_reported":1737137537,"current_range_meters":6400,"station_id":"ce4bh292rcd13ifvqdg0","pricing_plan_id":"cebpf4jnsgd1na2vs0mg"},{"bike_id":"312b622b-01c5-426d-8513-fedfcbcce3bf","system_id":"levelo_inurba_marseille","lat":43.30801,"lon":5.43529,"is_reserved":false,"is_disabled":false,"rental_uris":{"android":"levelo://app?vid=312b622b-01c5-426d-8513-fedfcbcce3bf","ios":"levelo://app?vid=312b622b-01c5-426d-8513-fedfcbcce3bf"},"vehicle_type_id":"4","last_reported":1737137537,"current_range_meters":24800,"station_id":"ce4bhph2rcd13ifvqheg","pricing_plan_id":"cebpf4jnsgd1na2vs0mg"},{"bike_id":"f2129519-babc-409f-a213-feee81e4aa25","system_id":"levelo_inurba_marseille","lat":43.29286,"lon":5.36846,"is_reserved":false,"is_disabled":false,"rental_uris":{"android":"levelo://app?vid=f2129519-babc-409f-a213-feee81e4aa25","ios":"levelo://app?vid=f2129519-babc-409f-a213-feee81e4aa25"},"vehicle_type_id":"4","last_reported":1737137537,"current_range_meters":3200,"station_id":"ce4bhbp2rcd13ifvqesg","pricing_plan_id":"cebpf4jnsgd1na2vs0mg"},{"bike_id":"5b76f427-64cd-45d3-9800-3fa0b93657e9","system_id":"levelo_inurba_marseille","lat":43.27618,"lon":5.361,"is_reserved":false,"is_disabled":false,"rental_uris":{"android":"levelo://app?vid=5b76f427-64cd-45d3-9800-3fa0b93657e9","ios":"levelo://app?vid=5b76f427-64cd-45d3-9800-3fa0b93657e9"},"vehicle_type_id":"4","last_reported":1737137537,"current_range_meters":38800,"station_id":"ce4bgj92rcd13ifvqbe0","pricing_plan_id":"cebpf4jnsgd1na2vs0mg"},{"bike_id":"7975a0c2-37ee-487f-804f-1164e539cf9a","system_id":"levelo_inurba_marseille","lat":43.24669,"lon":5.38176,"is_reserved":false,"is_disabled":false,"rental_uris":{"android":"levelo://app?vid=7975a0c2-37ee-487f-804f-1164e539cf9a","ios":"levelo://app?vid=7975a0c2-37ee-487f-804f-1164e539cf9a"},"vehicle_type_id":"4","last_reported":1737137537,"current_range_meters":38800,"station_id":"ce4bhih2rcd13ifvqfr0","pricing_plan_id":"cebpf4jnsgd1na2vs0mg"},{"bike_id":"6c2027b2-249d-40ed-9516-47e0b3806b63","system_id":"levelo_inurba_marseille","lat":43.34141,"lon":5.40909,"is_reserved":false,"is_disabled":false,"rental_uris":{"android":"levelo://app?vid=6c2027b2-249d-40ed-9516-47e0b3806b63","ios":"levelo://app?vid=6c2027b2-249d-40ed-9516-47e0b3806b63"},"vehicle_type_id":"4","last_reported":1737137537,"current_range_meters":28400,"station_id":"ce4bhqh2rcd13ifvqhlg","pricing_plan_id":"cebpf4jnsgd1na2vs0mg"},{"bike_id":"042eb156-6d27-477a-baca-70c102a462d5","system_id":"levelo_inurba_marseille","lat":43.2953,"lon":5.39032,"is_reserved":false,"is_disabled":false,"rental_uris":{"android":"levelo://app?vid=042eb156-6d27-477a-baca-70c102a462d5","ios":"levelo://app?vid=042eb156-6d27-477a-baca-70c102a462d5"},"vehicle_type_id":"4","last_reported":1737137537,"current_range_meters":6400,"station_id":"ce4bh3p2rcd13ifvqdp0","pricing_plan_id":"cebpf4jnsgd1na2vs0mg"},{"bike_id":"a94c7588-7d7e-41d3-ab38-2ec63bb9fca8","system_id":"levelo_inurba_marseille","lat":43.26057,"lon":5.394,"is_reserved":false,"is_disabled":false,"rental_uris":{"android":"levelo://app?vid=a94c7588-7d7e-41d3-ab38-2ec63bb9fca8","ios":"levelo://app?vid=a94c7588-7d7e-41d3-ab38-2ec63bb9fca8"},"vehicle_type_id":"4","last_reported":1737137537,"current_range_meters":17600,"station_id":"ce4bhh92rcd13ifvqfj0","pricing_plan_id":"cebpf4jnsgd1na2vs0mg"},{"bike_id":"9b573dc0-d798-40a9-84c6-158ca000c74b","system_id":"levelo_inurba_marseille","lat":43.27496,"lon":5.42453,"is_reserved":false,"is_disabled":false,"rental_uris":{"android":"levelo://app?vid=9b573dc0-d798-40a9-84c6-158ca000c74b","ios":"levelo://app?vid=9b573dc0-d798-40a9-84c6-158ca000c74b"},"vehicle_type_id":"4","last_reported":1737137537,"current_range_meters":24000,"station_id":"ce4bhn92rcd13ifvqgrg","pricing_plan_id":"cebpf4jnsgd1na2vs0mg"},{"bike_id":"d615d74e-143c-44d0-9a61-fef9d499e25b","system_id":"levelo_inurba_marseille","lat":43.26037,"lon":5.37543,"is_reserved":false,"is_disabled":false,"rental_uris":{"android":"levelo://app?vid=d615d74e-143c-44d0-9a61-fef9d499e25b","ios":"levelo://app?vid=d615d74e-143c-44d0-9a61-fef9d499e25b"},"vehicle_type_id":"4","last_reported":1737137537,"current_range_meters":37600,"station_id":"ce4bhgh2rcd13ifvqfa0","pricing_plan_id":"cebpf4jnsgd1na2vs0mg"},{"bike_id":"9be957d2-26d1-49a4-9f85-b06ee3432064","system_id":"levelo_inurba_marseille","lat":43.33731,"lon":5.39198,"is_reserved":false,"is_disabled":false,"rental_uris":{"android":"levelo://app?vid=9be957d2-26d1-49a4-9f85-b06ee3432064","ios":"levelo://app?vid=9be957d2-26d1-49a4-9f85-b06ee3432064"},"vehicle_type_id":"4","last_reported":1737137537,"current_range_meters":29600,"station_id":"ce4bhr92rcd13ifvqhsg","pricing_plan_id":"cebpf4jnsgd1na2vs0mg"},{"bike_id":"52ebaf0a-f0a9-43a6-bdc7-d3217090cb24","system_id":"levelo_inurba_marseille","lat":43.29786,"lon":5.39338,"is_reserved":false,"is_disabled":false,"rental_uris":{"android":"levelo://app?vid=52ebaf0a-f0a9-43a6-bdc7-d3217090cb24","ios":"levelo://app?vid=52ebaf0a-f0a9-43a6-bdc7-d3217090cb24"},"vehicle_type_id":"4","last_reported":1737137537,"current_range_meters":20000,"station_id":"chh1huq6cuj3fo74tm60","pricing_plan_id":"cebpf4jnsgd1na2vs0mg"},{"bike_id":"c4f658c2-d3ea-4813-b742-95f0600303ca","system_id":"levelo_inurba_marseille","lat":43.31223,"lon":5.36847,"is_reserved":false,"is_disabled":true,"rental_uris":{"android":"levelo://app?vid=c4f658c2-d3ea-4813-b742-95f0600303ca","ios":"levelo://app?vid=c4f658c2-d3ea-4813-b742-95f0600303ca"},"vehicle_type_id":"4","last_reported":1737137537,"current_range_meters":2000,"station_id":"ce4bgl92rcd13ifvqbq0","pricing_plan_id":"cebpf4jnsgd1na2vs0mg"},{"bike_id":"93eaaa03-9c47-4080-88a3-408e4b6ee6c4","system_id":"levelo_inurba_marseille","lat":43.30876,"lon":5.37194,"is_reserved":false,"is_disabled":true,"rental_uris":{"android":"levelo://app?vid=93eaaa03-9c47-4080-88a3-408e4b6ee6c4","ios":"levelo://app?vid=93eaaa03-9c47-4080-88a3-408e4b6ee6c4"},"vehicle_type_id":"4","last_reported":1737137537,"current_range_meters":1600,"station_id":"ce4bguh2rcd13ifvqckg","pricing_plan_id":"cebpf4jnsgd1na2vs0mg"},{"bike_id":"4f2b33bf-5340-41d8-832a-14d80612ba43","system_id":"levelo_inurba_marseille","lat":43.25084,"lon":5.39513,"is_reserved":false,"is_disabled":false,"rental_uris":{"android":"levelo://app?vid=4f2b33bf-5340-41d8-832a-14d80612ba43","ios":"levelo://app?vid=4f2b33bf-5340-41d8-832a-14d80612ba43"},"vehicle_type_id":"4","last_reported":1737137537,"current_range_meters":38800,"station_id":"ce4bhm12rcd13ifvqgkg","pricing_plan_id":"cebpf4jnsgd1na2vs0mg"},{"bike_id":"2026c448-07ec-415d-9bd1-67da4edd1d13","system_id":"levelo_inurba_marseille","lat":43.29608,"lon":5.3812,"is_reserved":false,"is_disabled":false,"rental_uris":{"android":"levelo://app?vid=2026c448-07ec-415d-9bd1-67da4edd1d13","ios":"levelo://app?vid=2026c448-07ec-415d-9bd1-67da4edd1d13"},"vehicle_type_id":"4","last_reported":1737137537,"current_range_meters":21600,"station_id":"ce4bgl12rcd13ifvqbo0","pricing_plan_id":"cebpf4jnsgd1na2vs0mg"},{"bike_id":"015345ae-a454-4a87-93a5-89eed37c898f","system_id":"levelo_inurba_marseille","lat":43.28346,"lon":5.38113,"is_reserved":false,"is_disabled":false,"rental_uris":{"android":"levelo://app?vid=015345ae-a454-4a87-93a5-89eed37c898f","ios":"levelo://app?vid=015345ae-a454-4a87-93a5-89eed37c898f"},"vehicle_type_id":"4","last_reported":1737137537,"current_range_meters":35200,"station_id":"ce4bh412rcd13ifvqdr0","pricing_plan_id":"cebpf4jnsgd1na2vs0mg"},{"bike_id":"71651d20-aced-43c3-aa11-a12e6da36820","system_id":"levelo_inurba_marseille","lat":43.29749,"lon":5.38161,"is_reserved":false,"is_disabled":true,"rental_uris":{"android":"levelo://app?vid=71651d20-aced-43c3-aa11-a12e6da36820","ios":"levelo://app?vid=71651d20-aced-43c3-aa11-a12e6da36820"},"vehicle_type_id":"4","last_reported":1737137537,"current_range_meters":36000,"station_id":"ce4bgip2rcd13ifvqbb0","pricing_plan_id":"cebpf4jnsgd1na2vs0mg"},{"bike_id":"47276e44-7d2a-4602-ae63-73878459c6e1","system_id":"levelo_inurba_marseille","lat":43.30425,"lon":5.39752,"is_reserved":false,"is_disabled":false,"rental_uris":{"android":"levelo://app?vid=47276e44-7d2a-4602-ae63-73878459c6e1","ios":"levelo://app?vid=47276e44-7d2a-4602-ae63-73878459c6e1"},"vehicle_type_id":"4","last_reported":1737137537,"current_range_meters":19200,"station_id":"ce4bh092rcd13ifvqd20","pricing_plan_id":"cebpf4jnsgd1na2vs0mg"},{"bike_id":"2f8323ce-59e6-451b-8899-796352a9f28c","system_id":"levelo_inurba_marseille","lat":43.30143,"lon":5.37413,"is_reserved":false,"is_disabled":false,"rental_uris":{"android":"levelo://app?vid=2f8323ce-59e6-451b-8899-796352a9f28c","ios":"levelo://app?vid=2f8323ce-59e6-451b-8899-796352a9f28c"},"vehicle_type_id":"4","last_reported":1737137537,"current_range_meters":25200,"station_id":"ce4bgs92rcd13ifvqcc0","pricing_plan_id":"cebpf4jnsgd1na2vs0mg"},{"bike_id":"f02609cc-defe-461f-ac25-29f93533a230","system_id":"levelo_inurba_marseille","lat":43.3228,"lon":5.38278,"is_reserved":false,"is_disabled":false,"rental_uris":{"android":"levelo://app?vid=f02609cc-defe-461f-ac25-29f93533a230","ios":"levelo://app?vid=f02609cc-defe-461f-ac25-29f93533a230"},"vehicle_type_id":"4","last_reported":1737137537,"current_range_meters":38400,"station_id":"ce4bhr12rcd13ifvqhqg","pricing_plan_id":"cebpf4jnsgd1na2vs0mg"},{"bike_id":"0c78501f-94ef-4487-8415-220f25dc395f","system_id":"levelo_inurba_marseille","lat":43.280986,"lon":5.378352,"is_reserved":false,"is_disabled":false,"rental_uris":{"android":"levelo://app?vid=0c78501f-94ef-4487-8415-220f25dc395f","ios":"levelo://app?vid=0c78501f-94ef-4487-8415-220f25dc395f"},"vehicle_type_id":"4","last_reported":1737137537,"current_range_meters":36800,"station_id":"ce4bhh92rcd13ifvqfi0","pricing_plan_id":"cebpf4jnsgd1na2vs0mg"},{"bike_id":"de1f8d9a-961d-41a2-ac6e-036d6954faf1","system_id":"levelo_inurba_marseille","lat":43.3302,"lon":5.39045,"is_reserved":false,"is_disabled":false,"rental_uris":{"android":"levelo://app?vid=de1f8d9a-961d-41a2-ac6e-036d6954faf1","ios":"levelo://app?vid=de1f8d9a-961d-41a2-ac6e-036d6954faf1"},"vehicle_type_id":"4","last_reported":1737137537,"current_range_meters":31200,"station_id":"ce4bhr92rcd13ifvqhrg","pricing_plan_id":"cebpf4jnsgd1na2vs0mg"},{"bike_id":"8850e6e9-607c-4707-a35e-396796b7213c","system_id":"levelo_inurba_marseille","lat":43.25589,"lon":5.38235,"is_reserved":false,"is_disabled":true,"rental_uris":{"android":"levelo://app?vid=8850e6e9-607c-4707-a35e-396796b7213c","ios":"levelo://app?vid=8850e6e9-607c-4707-a35e-396796b7213c"},"vehicle_type_id":"4","last_reported":1737137537,"current_range_meters":0,"station_id":"ce4bhih2rcd13ifvqfs0","pricing_plan_id":"cebpf4jnsgd1na2vs0mg"},{"bike_id":"2f4bf420-3325-488b-a54b-1f6887aa9595","system_id":"levelo_inurba_marseille","lat":43.31046,"lon":5.40082,"is_reserved":false,"is_disabled":false,"rental_uris":{"android":"levelo://app?vid=2f4bf420-3325-488b-a54b-1f6887aa9595","ios":"levelo://app?vid=2f4bf420-3325-488b-a54b-1f6887aa9595"},"vehicle_type_id":"4","last_reported":1737137537,"current_range_meters":37600,"station_id":"","pricing_plan_id":"cebpf4jnsgd1na2vs0mg"},{"bike_id":"72ee35ea-34ee-4b89-a819-27a2e564f7ec","system_id":"levelo_inurba_marseille","lat":43.25836,"lon":5.3943,"is_reserved":false,"is_disabled":false,"rental_uris":{"android":"levelo://app?vid=72ee35ea-34ee-4b89-a819-27a2e564f7ec","ios":"levelo://app?vid=72ee35ea-34ee-4b89-a819-27a2e564f7ec"},"vehicle_type_id":"4","last_reported":1737137537,"current_range_meters":16400,"station_id":"ce4bhip2rcd13ifvqft0","pricing_plan_id":"cebpf4jnsgd1na2vs0mg"},{"bike_id":"dabaa9ed-d73a-4f65-a26e-437d029e622e","system_id":"levelo_inurba_marseille","lat":43.306652,"lon":5.400852,"is_reserved":false,"is_disabled":false,"rental_uris":{"android":"levelo://app?vid=dabaa9ed-d73a-4f65-a26e-437d029e622e","ios":"levelo://app?vid=dabaa9ed-d73a-4f65-a26e-437d029e622e"},"vehicle_type_id":"4","last_reported":1737137537,"current_range_meters":12000,"station_id":"ce4bh112rcd13ifvqda0","pricing_plan_id":"cebpf4jnsgd1na2vs0mg"},{"bike_id":"4e396b93-4dd7-4cda-8395-278f5c5c4f46","system_id":"levelo_inurba_marseille","lat":43.29546,"lon":5.38534,"is_reserved":false,"is_disabled":false,"rental_uris":{"android":"levelo://app?vid=4e396b93-4dd7-4cda-8395-278f5c5c4f46","ios":"levelo://app?vid=4e396b93-4dd7-4cda-8395-278f5c5c4f46"},"vehicle_type_id":"4","last_reported":1737137537,"current_range_meters":18000,"station_id":"ce4bgih2rcd13ifvqba0","pricing_plan_id":"cebpf4jnsgd1na2vs0mg"},{"bike_id":"b2269802-94da-4df1-a94f-c0120e22dfba","system_id":"levelo_inurba_marseille","lat":43.23058,"lon":5.35502,"is_reserved":false,"is_disabled":false,"rental_uris":{"android":"levelo://app?vid=b2269802-94da-4df1-a94f-c0120e22dfba","ios":"levelo://app?vid=b2269802-94da-4df1-a94f-c0120e22dfba"},"vehicle_type_id":"4","last_reported":1737137537,"current_range_meters":19600,"station_id":"cpo3342slgdg3j2ifvpg","pricing_plan_id":"cebpf4jnsgd1na2vs0mg"},{"bike_id":"f4a4a406-b0a5-42fc-9236-32e93ac6f6b2","system_id":"levelo_inurba_marseille","lat":43.231581,"lon":5.437096,"is_reserved":false,"is_disabled":true,"rental_uris":{"android":"levelo://app?vid=f4a4a406-b0a5-42fc-9236-32e93ac6f6b2","ios":"levelo://app?vid=f4a4a406-b0a5-42fc-9236-32e93ac6f6b2"},"vehicle_type_id":"4","last_reported":1737137537,"current_range_meters":32800,"station_id":"ce4bhmp2rcd13ifvqgog","pricing_plan_id":"cebpf4jnsgd1na2vs0mg"},{"bike_id":"2570091a-a97a-4f99-a0b1-fad7497d49ed","system_id":"levelo_inurba_marseille","lat":43.29607,"lon":5.38106,"is_reserved":false,"is_disabled":false,"rental_uris":{"android":"levelo://app?vid=2570091a-a97a-4f99-a0b1-fad7497d49ed","ios":"levelo://app?vid=2570091a-a97a-4f99-a0b1-fad7497d49ed"},"vehicle_type_id":"4","last_reported":1737137537,"current_range_meters":16400,"station_id":"ce4bgl12rcd13ifvqbo0","pricing_plan_id":"cebpf4jnsgd1na2vs0mg"},{"bike_id":"3b750f66-4442-4e12-803e-ecf70a5b7ea2","system_id":"levelo_inurba_marseille","lat":43.30416,"lon":5.3974,"is_reserved":false,"is_disabled":false,"rental_uris":{"android":"levelo://app?vid=3b750f66-4442-4e12-803e-ecf70a5b7ea2","ios":"levelo://app?vid=3b750f66-4442-4e12-803e-ecf70a5b7ea2"},"vehicle_type_id":"4","last_reported":1737137537,"current_range_meters":32000,"station_id":"ce4bh092rcd13ifvqd20","pricing_plan_id":"cebpf4jnsgd1na2vs0mg"},{"bike_id":"b095c97c-efa1-4fe3-b9e6-2a4178465c06","system_id":"levelo_inurba_marseille","lat":43.30804,"lon":5.38148,"is_reserved":false,"is_disabled":true,"rental_uris":{"android":"levelo://app?vid=b095c97c-efa1-4fe3-b9e6-2a4178465c06","ios":"levelo://app?vid=b095c97c-efa1-4fe3-b9e6-2a4178465c06"},"vehicle_type_id":"4","last_reported":1737137537,"current_range_meters":2000,"station_id":"ce4bgk12rcd13ifvqbi0","pricing_plan_id":"cebpf4jnsgd1na2vs0mg"},{"bike_id":"5e5bd2c7-4f71-4930-8ada-8c9b53bbe155","system_id":"levelo_inurba_marseille","lat":43.29948,"lon":5.38509,"is_reserved":false,"is_disabled":true,"rental_uris":{"android":"levelo://app?vid=5e5bd2c7-4f71-4930-8ada-8c9b53bbe155","ios":"levelo://app?vid=5e5bd2c7-4f71-4930-8ada-8c9b53bbe155"},"vehicle_type_id":"4","last_reported":1737137537,"current_range_meters":0,"station_id":"ce4bgj92rcd13ifvqbd0","pricing_plan_id":"cebpf4jnsgd1na2vs0mg"},{"bike_id":"678e6c21-ae33-4211-9534-682ad57c39c7","system_id":"levelo_inurba_marseille","lat":43.23199,"lon":5.39981,"is_reserved":false,"is_disabled":false,"rental_uris":{"android":"levelo://app?vid=678e6c21-ae33-4211-9534-682ad57c39c7","ios":"levelo://app?vid=678e6c21-ae33-4211-9534-682ad57c39c7"},"vehicle_type_id":"4","last_reported":1737137537,"current_range_meters":12400,"station_id":"ce4bhn12rcd13ifvqgqg","pricing_plan_id":"cebpf4jnsgd1na2vs0mg"},{"bike_id":"67c549d5-ce81-408a-a146-d43915340e7f","system_id":"levelo_inurba_marseille","lat":43.337205,"lon":5.391876,"is_reserved":false,"is_disabled":false,"rental_uris":{"android":"levelo://app?vid=67c549d5-ce81-408a-a146-d43915340e7f","ios":"levelo://app?vid=67c549d5-ce81-408a-a146-d43915340e7f"},"vehicle_type_id":"4","last_reported":1737137537,"current_range_meters":38800,"station_id":"ce4bhr92rcd13ifvqhsg","pricing_plan_id":"cebpf4jnsgd1na2vs0mg"},{"bike_id":"fa546e5c-a68a-4a86-a5bb-1d856af38d7e","system_id":"levelo_inurba_marseille","lat":43.2357,"lon":5.43619,"is_reserved":false,"is_disabled":true,"rental_uris":{"android":"levelo://app?vid=fa546e5c-a68a-4a86-a5bb-1d856af38d7e","ios":"levelo://app?vid=fa546e5c-a68a-4a86-a5bb-1d856af38d7e"},"vehicle_type_id":"4","last_reported":1737137537,"current_range_meters":0,"station_id":"","pricing_plan_id":"cebpf4jnsgd1na2vs0mg"},{"bike_id":"34b4297c-3aa9-49ec-8c3e-4dc835fa76e0","system_id":"levelo_inurba_marseille","lat":43.31332,"lon":5.39693,"is_reserved":false,"is_disabled":false,"rental_uris":{"android":"levelo://app?vid=34b4297c-3aa9-49ec-8c3e-4dc835fa76e0","ios":"levelo://app?vid=34b4297c-3aa9-49ec-8c3e-4dc835fa76e0"},"vehicle_type_id":"4","last_reported":1737137537,"current_range_meters":32000,"station_id":"ce4bgvp2rcd13ifvqcu0","pricing_plan_id":"cebpf4jnsgd1na2vs0mg"},{"bike_id":"984655ff-0f8e-47bd-8a3d-17b0cd68c617","system_id":"levelo_inurba_marseille","lat":43.29271,"lon":5.3844,"is_reserved":false,"is_disabled":false,"rental_uris":{"android":"levelo://app?vid=984655ff-0f8e-47bd-8a3d-17b0cd68c617","ios":"levelo://app?vid=984655ff-0f8e-47bd-8a3d-17b0cd68c617"},"vehicle_type_id":"4","last_reported":1737137537,"current_range_meters":12000,"station_id":"","pricing_plan_id":"cebpf4jnsgd1na2vs0mg"},{"bike_id":"a6bf0cda-8552-40e1-8929-b1fe9f2fa294","system_id":"levelo_inurba_marseille","lat":43.28264,"lon":5.35068,"is_reserved":false,"is_disabled":false,"rental_uris":{"android":"levelo://app?vid=a6bf0cda-8552-40e1-8929-b1fe9f2fa294","ios":"levelo://app?vid=a6bf0cda-8552-40e1-8929-b1fe9f2fa294"},"vehicle_type_id":"4","last_reported":1737137537,"current_range_meters":2000,"station_id":"ce4bhbp2rcd13ifvqerg","pricing_plan_id":"cebpf4jnsgd1na2vs0mg"},{"bike_id":"eb3945bb-0dee-4606-9773-4f4e0d091e4a","system_id":"levelo_inurba_marseille","lat":43.30408,"lon":5.41274,"is_reserved":false,"is_disabled":false,"rental_uris":{"android":"levelo://app?vid=eb3945bb-0dee-4606-9773-4f4e0d091e4a","ios":"levelo://app?vid=eb3945bb-0dee-4606-9773-4f4e0d091e4a"},"vehicle_type_id":"4","last_reported":1737137537,"current_range_meters":27200,"station_id":"ce4bhop2rcd13ifvqh8g","pricing_plan_id":"cebpf4jnsgd1na2vs0mg"},{"bike_id":"4530ef47-ad49-4d18-b7e3-954f3326c9ad","system_id":"levelo_inurba_marseille","lat":43.29531,"lon":5.38552,"is_reserved":false,"is_disabled":false,"rental_uris":{"android":"levelo://app?vid=4530ef47-ad49-4d18-b7e3-954f3326c9ad","ios":"levelo://app?vid=4530ef47-ad49-4d18-b7e3-954f3326c9ad"},"vehicle_type_id":"4","last_reported":1737137537,"current_range_meters":19200,"station_id":"ce4bgih2rcd13ifvqba0","pricing_plan_id":"cebpf4jnsgd1na2vs0mg"},{"bike_id":"4a3a266d-a7af-4027-8b96-803bbbced3ef","system_id":"levelo_inurba_marseille","lat":43.30467,"lon":5.37903,"is_reserved":false,"is_disabled":false,"rental_uris":{"android":"levelo://app?vid=4a3a266d-a7af-4027-8b96-803bbbced3ef","ios":"levelo://app?vid=4a3a266d-a7af-4027-8b96-803bbbced3ef"},"vehicle_type_id":"4","last_reported":1737137537,"current_range_meters":32400,"station_id":"ce4bgup2rcd13ifvqcn0","pricing_plan_id":"cebpf4jnsgd1na2vs0mg"},{"bike_id":"34709e64-d1c8-4538-88a5-33805792c0a5","system_id":"levelo_inurba_marseille","lat":43.25834,"lon":5.3943,"is_reserved":false,"is_disabled":false,"rental_uris":{"android":"levelo://app?vid=34709e64-d1c8-4538-88a5-33805792c0a5","ios":"levelo://app?vid=34709e64-d1c8-4538-88a5-33805792c0a5"},"vehicle_type_id":"4","last_reported":1737137537,"current_range_meters":38000,"station_id":"ce4bhip2rcd13ifvqft0","pricing_plan_id":"cebpf4jnsgd1na2vs0mg"},{"bike_id":"d4c5158e-511e-4c0e-af6f-6a3bbf5cc0e5","system_id":"levelo_inurba_marseille","lat":43.27118,"lon":5.42248,"is_reserved":false,"is_disabled":true,"rental_uris":{"android":"levelo://app?vid=d4c5158e-511e-4c0e-af6f-6a3bbf5cc0e5","ios":"levelo://app?vid=d4c5158e-511e-4c0e-af6f-6a3bbf5cc0e5"},"vehicle_type_id":"4","last_reported":1737137537,"current_range_meters":0,"station_id":"","pricing_plan_id":"cebpf4jnsgd1na2vs0mg"},{"bike_id":"aca082de-fce7-4fa5-a618-4bacba7212ed","system_id":"levelo_inurba_marseille","lat":43.30133,"lon":5.39841,"is_reserved":false,"is_disabled":false,"rental_uris":{"android":"levelo://app?vid=aca082de-fce7-4fa5-a618-4bacba7212ed","ios":"levelo://app?vid=aca082de-fce7-4fa5-a618-4bacba7212ed"},"vehicle_type_id":"4","last_reported":1737137537,"current_range_meters":10800,"station_id":"ce4bh0h2rcd13ifvqd40","pricing_plan_id":"cebpf4jnsgd1na2vs0mg"},{"bike_id":"7b73b80d-a1dd-430b-aa67-950539e6457d","system_id":"levelo_inurba_marseille","lat":43.28002,"lon":5.40015,"is_reserved":false,"is_disabled":false,"rental_uris":{"android":"levelo://app?vid=7b73b80d-a1dd-430b-aa67-950539e6457d","ios":"levelo://app?vid=7b73b80d-a1dd-430b-aa67-950539e6457d"},"vehicle_type_id":"4","last_reported":1737137537,"current_range_meters":14000,"station_id":"ce4bho92rcd13ifvqh4g","pricing_plan_id":"cebpf4jnsgd1na2vs0mg"},{"bike_id":"7b8f7bd1-462b-4c39-87d5-fe02dbd05801","system_id":"levelo_inurba_marseille","lat":43.30588,"lon":5.39371,"is_reserved":false,"is_disabled":true,"rental_uris":{"android":"levelo://app?vid=7b8f7bd1-462b-4c39-87d5-fe02dbd05801","ios":"levelo://app?vid=7b8f7bd1-462b-4c39-87d5-fe02dbd05801"},"vehicle_type_id":"4","last_reported":1737137537,"current_range_meters":0,"station_id":"ce4bh0p2rcd13ifvqd80","pricing_plan_id":"cebpf4jnsgd1na2vs0mg"},{"bike_id":"f8aad85d-54d6-4ca2-81ac-46c1a831eb57","system_id":"levelo_inurba_marseille","lat":43.28077,"lon":5.3966,"is_reserved":false,"is_disabled":false,"rental_uris":{"android":"levelo://app?vid=f8aad85d-54d6-4ca2-81ac-46c1a831eb57","ios":"levelo://app?vid=f8aad85d-54d6-4ca2-81ac-46c1a831eb57"},"vehicle_type_id":"4","last_reported":1737137537,"current_range_meters":38000,"station_id":"ce4bho12rcd13ifvqh2g","pricing_plan_id":"cebpf4jnsgd1na2vs0mg"},{"bike_id":"2ca57f47-5d25-4583-9e97-fada344a3c54","system_id":"levelo_inurba_marseille","lat":43.29979,"lon":5.37156,"is_reserved":false,"is_disabled":false,"rental_uris":{"android":"levelo://app?vid=2ca57f47-5d25-4583-9e97-fada344a3c54","ios":"levelo://app?vid=2ca57f47-5d25-4583-9e97-fada344a3c54"},"vehicle_type_id":"4","last_reported":1737137537,"current_range_meters":36800,"station_id":"ce4bgr92rcd13ifvqc7g","pricing_plan_id":"cebpf4jnsgd1na2vs0mg"},{"bike_id":"8653901e-c4c2-4ba9-bee5-636bedbe2064","system_id":"levelo_inurba_marseille","lat":43.28155,"lon":5.4264,"is_reserved":false,"is_disabled":false,"rental_uris":{"android":"levelo://app?vid=8653901e-c4c2-4ba9-bee5-636bedbe2064","ios":"levelo://app?vid=8653901e-c4c2-4ba9-bee5-636bedbe2064"},"vehicle_type_id":"4","last_reported":1737137537,"current_range_meters":31200,"station_id":"ce4bhnh2rcd13ifvqgug","pricing_plan_id":"cebpf4jnsgd1na2vs0mg"},{"bike_id":"56b8e9bc-f750-4815-bc98-9098414d16db","system_id":"levelo_inurba_marseille","lat":43.23195,"lon":5.35554,"is_reserved":false,"is_disabled":true,"rental_uris":{"android":"levelo://app?vid=56b8e9bc-f750-4815-bc98-9098414d16db","ios":"levelo://app?vid=56b8e9bc-f750-4815-bc98-9098414d16db"},"vehicle_type_id":"4","last_reported":1737137537,"current_range_meters":0,"station_id":"ce4bhu92rcd13ifvqi70","pricing_plan_id":"cebpf4jnsgd1na2vs0mg"},{"bike_id":"0e91b70c-1e42-4d65-a90a-72cbd40954b0","system_id":"levelo_inurba_marseille","lat":43.30572,"lon":5.38388,"is_reserved":false,"is_disabled":false,"rental_uris":{"android":"levelo://app?vid=0e91b70c-1e42-4d65-a90a-72cbd40954b0","ios":"levelo://app?vid=0e91b70c-1e42-4d65-a90a-72cbd40954b0"},"vehicle_type_id":"4","last_reported":1737137537,"current_range_meters":18800,"station_id":"ce4bgg92rcd13ifvqb30","pricing_plan_id":"cebpf4jnsgd1na2vs0mg"},{"bike_id":"57ef9cb0-beed-4346-9a14-0e969ef4cc09","system_id":"levelo_inurba_marseille","lat":43.29417,"lon":5.38628,"is_reserved":false,"is_disabled":false,"rental_uris":{"android":"levelo://app?vid=57ef9cb0-beed-4346-9a14-0e969ef4cc09","ios":"levelo://app?vid=57ef9cb0-beed-4346-9a14-0e969ef4cc09"},"vehicle_type_id":"4","last_reported":1737137537,"current_range_meters":25600,"station_id":"ce4bh2h2rcd13ifvqdh0","pricing_plan_id":"cebpf4jnsgd1na2vs0mg"},{"bike_id":"4916c5da-e318-4472-84cf-aee3a54ce3c4","system_id":"levelo_inurba_marseille","lat":43.24637,"lon":5.43504,"is_reserved":false,"is_disabled":true,"rental_uris":{"android":"levelo://app?vid=4916c5da-e318-4472-84cf-aee3a54ce3c4","ios":"levelo://app?vid=4916c5da-e318-4472-84cf-aee3a54ce3c4"},"vehicle_type_id":"4","last_reported":1737137537,"current_range_meters":0,"station_id":"","pricing_plan_id":"cebpf4jnsgd1na2vs0mg"},{"bike_id":"acf79f04-3422-42de-9eb7-cf80f01b6dff","system_id":"levelo_inurba_marseille","lat":43.29971,"lon":5.37191,"is_reserved":false,"is_disabled":false,"rental_uris":{"android":"levelo://app?vid=acf79f04-3422-42de-9eb7-cf80f01b6dff","ios":"levelo://app?vid=acf79f04-3422-42de-9eb7-cf80f01b6dff"},"vehicle_type_id":"4","last_reported":1737137537,"current_range_meters":38000,"station_id":"ce4bgr92rcd13ifvqc7g","pricing_plan_id":"cebpf4jnsgd1na2vs0mg"},{"bike_id":"89f094a3-84a6-4a3f-a7be-368eadfc0b2d","system_id":"levelo_inurba_marseille","lat":43.25725,"lon":5.4109,"is_reserved":false,"is_disabled":true,"rental_uris":{"android":"levelo://app?vid=89f094a3-84a6-4a3f-a7be-368eadfc0b2d","ios":"levelo://app?vid=89f094a3-84a6-4a3f-a7be-368eadfc0b2d"},"vehicle_type_id":"4","last_reported":1737137537,"current_range_meters":1200,"station_id":"ce4bhkp2rcd13ifvqgd0","pricing_plan_id":"cebpf4jnsgd1na2vs0mg"},{"bike_id":"ec4ba6b3-fd73-4de8-9175-284150dfd1f9","system_id":"levelo_inurba_marseille","lat":43.24651,"lon":5.38897,"is_reserved":false,"is_disabled":false,"rental_uris":{"android":"levelo://app?vid=ec4ba6b3-fd73-4de8-9175-284150dfd1f9","ios":"levelo://app?vid=ec4ba6b3-fd73-4de8-9175-284150dfd1f9"},"vehicle_type_id":"4","last_reported":1737137537,"current_range_meters":6800,"station_id":"ce4bhg12rcd13ifvqf60","pricing_plan_id":"cebpf4jnsgd1na2vs0mg"},{"bike_id":"1b0abdf0-ebc9-477b-9a5c-20d604bc88e3","system_id":"levelo_inurba_marseille","lat":43.25084,"lon":5.39512,"is_reserved":false,"is_disabled":false,"rental_uris":{"android":"levelo://app?vid=1b0abdf0-ebc9-477b-9a5c-20d604bc88e3","ios":"levelo://app?vid=1b0abdf0-ebc9-477b-9a5c-20d604bc88e3"},"vehicle_type_id":"4","last_reported":1737137537,"current_range_meters":38800,"station_id":"ce4bhm12rcd13ifvqgkg","pricing_plan_id":"cebpf4jnsgd1na2vs0mg"},{"bike_id":"5dd8c40d-bd16-42bf-b8a7-f9228dd0ef4f","system_id":"levelo_inurba_marseille","lat":43.26928,"lon":5.38915,"is_reserved":false,"is_disabled":true,"rental_uris":{"android":"levelo://app?vid=5dd8c40d-bd16-42bf-b8a7-f9228dd0ef4f","ios":"levelo://app?vid=5dd8c40d-bd16-42bf-b8a7-f9228dd0ef4f"},"vehicle_type_id":"4","last_reported":1737137537,"current_range_meters":800,"station_id":"ce4bhhh2rcd13ifvqfl0","pricing_plan_id":"cebpf4jnsgd1na2vs0mg"},{"bike_id":"ba0b60cd-79f7-4271-8338-bde69b1515f4","system_id":"levelo_inurba_marseille","lat":43.30137,"lon":5.39853,"is_reserved":false,"is_disabled":false,"rental_uris":{"android":"levelo://app?vid=ba0b60cd-79f7-4271-8338-bde69b1515f4","ios":"levelo://app?vid=ba0b60cd-79f7-4271-8338-bde69b1515f4"},"vehicle_type_id":"4","last_reported":1737137537,"current_range_meters":12000,"station_id":"ce4bh0h2rcd13ifvqd40","pricing_plan_id":"cebpf4jnsgd1na2vs0mg"},{"bike_id":"ae1b3ae9-04be-4496-8656-7f1d588d6036","system_id":"levelo_inurba_marseille","lat":43.29748,"lon":5.37657,"is_reserved":false,"is_disabled":false,"rental_uris":{"android":"levelo://app?vid=ae1b3ae9-04be-4496-8656-7f1d588d6036","ios":"levelo://app?vid=ae1b3ae9-04be-4496-8656-7f1d588d6036"},"vehicle_type_id":"4","last_reported":1737137537,"current_range_meters":20000,"station_id":"","pricing_plan_id":"cebpf4jnsgd1na2vs0mg"},{"bike_id":"22465212-93af-4e0b-b803-6ee82bba56d5","system_id":"levelo_inurba_marseille","lat":43.33763,"lon":5.37492,"is_reserved":false,"is_disabled":false,"rental_uris":{"android":"levelo://app?vid=22465212-93af-4e0b-b803-6ee82bba56d5","ios":"levelo://app?vid=22465212-93af-4e0b-b803-6ee82bba56d5"},"vehicle_type_id":"4","last_reported":1737137537,"current_range_meters":32400,"station_id":"","pricing_plan_id":"cebpf4jnsgd1na2vs0mg"},{"bike_id":"979d7a5c-00ce-4dcf-a15c-0fc9c9e35c10","system_id":"levelo_inurba_marseille","lat":43.33783,"lon":5.37456,"is_reserved":false,"is_disabled":false,"rental_uris":{"android":"levelo://app?vid=979d7a5c-00ce-4dcf-a15c-0fc9c9e35c10","ios":"levelo://app?vid=979d7a5c-00ce-4dcf-a15c-0fc9c9e35c10"},"vehicle_type_id":"4","last_reported":1737137537,"current_range_meters":28400,"station_id":"","pricing_plan_id":"cebpf4jnsgd1na2vs0mg"},{"bike_id":"730df4ba-4772-4a0e-9e4a-bb6bde6caaeb","system_id":"levelo_inurba_marseille","lat":43.30145,"lon":5.39891,"is_reserved":false,"is_disabled":true,"rental_uris":{"android":"levelo://app?vid=730df4ba-4772-4a0e-9e4a-bb6bde6caaeb","ios":"levelo://app?vid=730df4ba-4772-4a0e-9e4a-bb6bde6caaeb"},"vehicle_type_id":"4","last_reported":1737137537,"current_range_meters":37600,"station_id":"ce4bh0h2rcd13ifvqd40","pricing_plan_id":"cebpf4jnsgd1na2vs0mg"},{"bike_id":"44131982-6d25-4caf-9dfd-07df823acdd9","system_id":"levelo_inurba_marseille","lat":43.2904,"lon":5.37562,"is_reserved":false,"is_disabled":false,"rental_uris":{"android":"levelo://app?vid=44131982-6d25-4caf-9dfd-07df823acdd9","ios":"levelo://app?vid=44131982-6d25-4caf-9dfd-07df823acdd9"},"vehicle_type_id":"4","last_reported":1737137537,"current_range_meters":4400,"station_id":"ce4bh692rcd13ifvqe90","pricing_plan_id":"cebpf4jnsgd1na2vs0mg"},{"bike_id":"492bb2a4-bb26-45e4-9edc-d3f9691e28d1","system_id":"levelo_inurba_marseille","lat":43.317616,"lon":5.390032,"is_reserved":false,"is_disabled":false,"rental_uris":{"android":"levelo://app?vid=492bb2a4-bb26-45e4-9edc-d3f9691e28d1","ios":"levelo://app?vid=492bb2a4-bb26-45e4-9edc-d3f9691e28d1"},"vehicle_type_id":"4","last_reported":1737137537,"current_range_meters":38800,"station_id":"ce4bhqp2rcd13ifvqhng","pricing_plan_id":"cebpf4jnsgd1na2vs0mg"},{"bike_id":"ce680e54-563c-4aec-af2b-f614be0be02a","system_id":"levelo_inurba_marseille","lat":43.28345,"lon":5.381,"is_reserved":false,"is_disabled":false,"rental_uris":{"android":"levelo://app?vid=ce680e54-563c-4aec-af2b-f614be0be02a","ios":"levelo://app?vid=ce680e54-563c-4aec-af2b-f614be0be02a"},"vehicle_type_id":"4","last_reported":1737137537,"current_range_meters":11600,"station_id":"ce4bh412rcd13ifvqdr0","pricing_plan_id":"cebpf4jnsgd1na2vs0mg"},{"bike_id":"2852113b-49ee-4cbf-9a16-ea68797906c2","system_id":"levelo_inurba_marseille","lat":43.33777,"lon":5.37467,"is_reserved":false,"is_disabled":false,"rental_uris":{"android":"levelo://app?vid=2852113b-49ee-4cbf-9a16-ea68797906c2","ios":"levelo://app?vid=2852113b-49ee-4cbf-9a16-ea68797906c2"},"vehicle_type_id":"4","last_reported":1737137537,"current_range_meters":37600,"station_id":"","pricing_plan_id":"cebpf4jnsgd1na2vs0mg"},{"bike_id":"0c5e855f-b56a-402c-ae21-d2d17f9d6d2e","system_id":"levelo_inurba_marseille","lat":43.29447,"lon":5.39746,"is_reserved":false,"is_disabled":false,"rental_uris":{"android":"levelo://app?vid=0c5e855f-b56a-402c-ae21-d2d17f9d6d2e","ios":"levelo://app?vid=0c5e855f-b56a-402c-ae21-d2d17f9d6d2e"},"vehicle_type_id":"4","last_reported":1737137537,"current_range_meters":14800,"station_id":"ce4bh3h2rcd13ifvqdo0","pricing_plan_id":"cebpf4jnsgd1na2vs0mg"},{"bike_id":"d52a5bd6-5e88-4931-a4a2-71bdf27759c4","system_id":"levelo_inurba_marseille","lat":43.26487,"lon":5.39552,"is_reserved":false,"is_disabled":false,"rental_uris":{"android":"levelo://app?vid=d52a5bd6-5e88-4931-a4a2-71bdf27759c4","ios":"levelo://app?vid=d52a5bd6-5e88-4931-a4a2-71bdf27759c4"},"vehicle_type_id":"4","last_reported":1737137537,"current_range_meters":38800,"station_id":"ce4bhi12rcd13ifvqfq0","pricing_plan_id":"cebpf4jnsgd1na2vs0mg"},{"bike_id":"8768daec-ecdf-4b7e-9f2a-4f36b9c53248","system_id":"levelo_inurba_marseille","lat":43.28001,"lon":5.41676,"is_reserved":false,"is_disabled":false,"rental_uris":{"android":"levelo://app?vid=8768daec-ecdf-4b7e-9f2a-4f36b9c53248","ios":"levelo://app?vid=8768daec-ecdf-4b7e-9f2a-4f36b9c53248"},"vehicle_type_id":"4","last_reported":1737137537,"current_range_meters":27600,"station_id":"ce4bho12rcd13ifvqh1g","pricing_plan_id":"cebpf4jnsgd1na2vs0mg"},{"bike_id":"cefc250c-1baa-4a78-8fed-eb20c7fbb95c","system_id":"levelo_inurba_marseille","lat":43.23187,"lon":5.35567,"is_reserved":false,"is_disabled":false,"rental_uris":{"android":"levelo://app?vid=cefc250c-1baa-4a78-8fed-eb20c7fbb95c","ios":"levelo://app?vid=cefc250c-1baa-4a78-8fed-eb20c7fbb95c"},"vehicle_type_id":"4","last_reported":1737137537,"current_range_meters":38800,"station_id":"ce4bhu92rcd13ifvqi70","pricing_plan_id":"cebpf4jnsgd1na2vs0mg"},{"bike_id":"6a7366d7-ed8c-4629-bf0c-70c2abcda36d","system_id":"levelo_inurba_marseille","lat":43.23198,"lon":5.35528,"is_reserved":false,"is_disabled":false,"rental_uris":{"android":"levelo://app?vid=6a7366d7-ed8c-4629-bf0c-70c2abcda36d","ios":"levelo://app?vid=6a7366d7-ed8c-4629-bf0c-70c2abcda36d"},"vehicle_type_id":"4","last_reported":1737137537,"current_range_meters":38800,"station_id":"ce4bhu92rcd13ifvqi70","pricing_plan_id":"cebpf4jnsgd1na2vs0mg"},{"bike_id":"bbc8e30b-9433-4e71-b586-bd96e83757bf","system_id":"levelo_inurba_marseille","lat":43.27946,"lon":5.38671,"is_reserved":false,"is_disabled":false,"rental_uris":{"android":"levelo://app?vid=bbc8e30b-9433-4e71-b586-bd96e83757bf","ios":"levelo://app?vid=bbc8e30b-9433-4e71-b586-bd96e83757bf"},"vehicle_type_id":"4","last_reported":1737137537,"current_range_meters":6000,"station_id":"ce4bhg12rcd13ifvqf80","pricing_plan_id":"cebpf4jnsgd1na2vs0mg"},{"bike_id":"0f72d5ab-2e32-4451-adf9-467171dc22e8","system_id":"levelo_inurba_marseille","lat":43.2586,"lon":5.39915,"is_reserved":false,"is_disabled":false,"rental_uris":{"android":"levelo://app?vid=0f72d5ab-2e32-4451-adf9-467171dc22e8","ios":"levelo://app?vid=0f72d5ab-2e32-4451-adf9-467171dc22e8"},"vehicle_type_id":"4","last_reported":1737137537,"current_range_meters":24000,"station_id":"ce4bhl92rcd13ifvqghg","pricing_plan_id":"cebpf4jnsgd1na2vs0mg"},{"bike_id":"df379878-3860-4dce-a52b-f37aee755f5d","system_id":"levelo_inurba_marseille","lat":43.27552,"lon":5.38405,"is_reserved":false,"is_disabled":false,"rental_uris":{"android":"levelo://app?vid=df379878-3860-4dce-a52b-f37aee755f5d","ios":"levelo://app?vid=df379878-3860-4dce-a52b-f37aee755f5d"},"vehicle_type_id":"4","last_reported":1737137537,"current_range_meters":36400,"station_id":"ce4bhh92rcd13ifvqfi0","pricing_plan_id":"cebpf4jnsgd1na2vs0mg"},{"bike_id":"e038d9a9-8617-43b5-b012-d7d195739f30","system_id":"levelo_inurba_marseille","lat":43.30179,"lon":5.37401,"is_reserved":false,"is_disabled":false,"rental_uris":{"android":"levelo://app?vid=e038d9a9-8617-43b5-b012-d7d195739f30","ios":"levelo://app?vid=e038d9a9-8617-43b5-b012-d7d195739f30"},"vehicle_type_id":"4","last_reported":1737137537,"current_range_meters":6800,"station_id":"ce4bgs92rcd13ifvqcc0","pricing_plan_id":"cebpf4jnsgd1na2vs0mg"},{"bike_id":"35deb437-7ef2-4ee7-9ea5-27ce0001ca7b","system_id":"levelo_inurba_marseille","lat":43.26064,"lon":5.39397,"is_reserved":false,"is_disabled":false,"rental_uris":{"android":"levelo://app?vid=35deb437-7ef2-4ee7-9ea5-27ce0001ca7b","ios":"levelo://app?vid=35deb437-7ef2-4ee7-9ea5-27ce0001ca7b"},"vehicle_type_id":"4","last_reported":1737137537,"current_range_meters":38800,"station_id":"ce4bhh92rcd13ifvqfj0","pricing_plan_id":"cebpf4jnsgd1na2vs0mg"},{"bike_id":"8950ad97-12b3-4231-a25a-a92e6e418d6d","system_id":"levelo_inurba_marseille","lat":43.28614,"lon":5.37048,"is_reserved":false,"is_disabled":false,"rental_uris":{"android":"levelo://app?vid=8950ad97-12b3-4231-a25a-a92e6e418d6d","ios":"levelo://app?vid=8950ad97-12b3-4231-a25a-a92e6e418d6d"},"vehicle_type_id":"4","last_reported":1737137537,"current_range_meters":18800,"station_id":"ce4bht12rcd13ifvqi60","pricing_plan_id":"cebpf4jnsgd1na2vs0mg"},{"bike_id":"523b6566-5e7c-4b9e-a44f-ef720526bb85","system_id":"levelo_inurba_marseille","lat":43.31762,"lon":5.3902,"is_reserved":false,"is_disabled":false,"rental_uris":{"android":"levelo://app?vid=523b6566-5e7c-4b9e-a44f-ef720526bb85","ios":"levelo://app?vid=523b6566-5e7c-4b9e-a44f-ef720526bb85"},"vehicle_type_id":"4","last_reported":1737137537,"current_range_meters":12000,"station_id":"ce4bhqp2rcd13ifvqhng","pricing_plan_id":"cebpf4jnsgd1na2vs0mg"},{"bike_id":"f2390374-e060-4fe1-bcfa-cb2711193e58","system_id":"levelo_inurba_marseille","lat":43.25089,"lon":5.39524,"is_reserved":false,"is_disabled":false,"rental_uris":{"android":"levelo://app?vid=f2390374-e060-4fe1-bcfa-cb2711193e58","ios":"levelo://app?vid=f2390374-e060-4fe1-bcfa-cb2711193e58"},"vehicle_type_id":"4","last_reported":1737137537,"current_range_meters":14400,"station_id":"ce4bhm12rcd13ifvqgkg","pricing_plan_id":"cebpf4jnsgd1na2vs0mg"},{"bike_id":"9c12ae3e-e3ae-477c-9709-1c0114560f18","system_id":"levelo_inurba_marseille","lat":43.3088,"lon":5.39659,"is_reserved":false,"is_disabled":false,"rental_uris":{"android":"levelo://app?vid=9c12ae3e-e3ae-477c-9709-1c0114560f18","ios":"levelo://app?vid=9c12ae3e-e3ae-477c-9709-1c0114560f18"},"vehicle_type_id":"4","last_reported":1737137537,"current_range_meters":11200,"station_id":"ce4bh012rcd13ifvqcv0","pricing_plan_id":"cebpf4jnsgd1na2vs0mg"},{"bike_id":"a5b26f2d-89ef-477a-8eeb-7f78f74e6e59","system_id":"levelo_inurba_marseille","lat":43.28481,"lon":5.38421,"is_reserved":false,"is_disabled":false,"rental_uris":{"android":"levelo://app?vid=a5b26f2d-89ef-477a-8eeb-7f78f74e6e59","ios":"levelo://app?vid=a5b26f2d-89ef-477a-8eeb-7f78f74e6e59"},"vehicle_type_id":"4","last_reported":1737137537,"current_range_meters":11200,"station_id":"ce4bh512rcd13ifvqe3g","pricing_plan_id":"cebpf4jnsgd1na2vs0mg"},{"bike_id":"031e5600-8cd1-41ad-b759-8f7d96d84e7d","system_id":"levelo_inurba_marseille","lat":43.29518,"lon":5.39059,"is_reserved":false,"is_disabled":false,"rental_uris":{"android":"levelo://app?vid=031e5600-8cd1-41ad-b759-8f7d96d84e7d","ios":"levelo://app?vid=031e5600-8cd1-41ad-b759-8f7d96d84e7d"},"vehicle_type_id":"4","last_reported":1737137537,"current_range_meters":28800,"station_id":"ce4bh3p2rcd13ifvqdp0","pricing_plan_id":"cebpf4jnsgd1na2vs0mg"},{"bike_id":"447906b7-f760-4505-a710-864da3fa6c88","system_id":"levelo_inurba_marseille","lat":43.32344,"lon":5.4062,"is_reserved":false,"is_disabled":false,"rental_uris":{"android":"levelo://app?vid=447906b7-f760-4505-a710-864da3fa6c88","ios":"levelo://app?vid=447906b7-f760-4505-a710-864da3fa6c88"},"vehicle_type_id":"4","last_reported":1737137537,"current_range_meters":12000,"station_id":"ce4bhq92rcd13ifvqhjg","pricing_plan_id":"cebpf4jnsgd1na2vs0mg"},{"bike_id":"c96bb255-99eb-4470-b898-c875ab1cd04f","system_id":"levelo_inurba_marseille","lat":43.29639,"lon":5.40597,"is_reserved":false,"is_disabled":false,"rental_uris":{"android":"levelo://app?vid=c96bb255-99eb-4470-b898-c875ab1cd04f","ios":"levelo://app?vid=c96bb255-99eb-4470-b898-c875ab1cd04f"},"vehicle_type_id":"4","last_reported":1737137537,"current_range_meters":28000,"station_id":"ce4bh0h2rcd13ifvqd60","pricing_plan_id":"cebpf4jnsgd1na2vs0mg"},{"bike_id":"7ae468b0-0e73-4609-b947-3b7dfb1c3890","system_id":"levelo_inurba_marseille","lat":43.28419,"lon":5.37499,"is_reserved":false,"is_disabled":false,"rental_uris":{"android":"levelo://app?vid=7ae468b0-0e73-4609-b947-3b7dfb1c3890","ios":"levelo://app?vid=7ae468b0-0e73-4609-b947-3b7dfb1c3890"},"vehicle_type_id":"4","last_reported":1737137537,"current_range_meters":36000,"station_id":"ce4bh412rcd13ifvqds0","pricing_plan_id":"cebpf4jnsgd1na2vs0mg"},{"bike_id":"c4ab3838-1d61-4e29-a39f-fbac00aa12d4","system_id":"levelo_inurba_marseille","lat":43.31229,"lon":5.36874,"is_reserved":false,"is_disabled":false,"rental_uris":{"android":"levelo://app?vid=c4ab3838-1d61-4e29-a39f-fbac00aa12d4","ios":"levelo://app?vid=c4ab3838-1d61-4e29-a39f-fbac00aa12d4"},"vehicle_type_id":"4","last_reported":1737137537,"current_range_meters":38800,"station_id":"ce4bgl92rcd13ifvqbq0","pricing_plan_id":"cebpf4jnsgd1na2vs0mg"},{"bike_id":"5b22c99f-9b1a-4384-8e8c-44ca531724ac","system_id":"levelo_inurba_marseille","lat":43.27176,"lon":5.41004,"is_reserved":false,"is_disabled":false,"rental_uris":{"android":"levelo://app?vid=5b22c99f-9b1a-4384-8e8c-44ca531724ac","ios":"levelo://app?vid=5b22c99f-9b1a-4384-8e8c-44ca531724ac"},"vehicle_type_id":"4","last_reported":1737137537,"current_range_meters":19200,"station_id":"ce4bhl12rcd13ifvqgf0","pricing_plan_id":"cebpf4jnsgd1na2vs0mg"},{"bike_id":"0842d5ae-ed3a-4621-b09e-a5d93c93eb70","system_id":"levelo_inurba_marseille","lat":43.29794,"lon":5.381,"is_reserved":false,"is_disabled":false,"rental_uris":{"android":"levelo://app?vid=0842d5ae-ed3a-4621-b09e-a5d93c93eb70","ios":"levelo://app?vid=0842d5ae-ed3a-4621-b09e-a5d93c93eb70"},"vehicle_type_id":"4","last_reported":1737137537,"current_range_meters":26800,"station_id":"ce4bgip2rcd13ifvqbb0","pricing_plan_id":"cebpf4jnsgd1na2vs0mg"},{"bike_id":"9586e3bf-df83-4cf3-abd5-107fefc4baa0","system_id":"levelo_inurba_marseille","lat":43.26039,"lon":5.37553,"is_reserved":false,"is_disabled":false,"rental_uris":{"android":"levelo://app?vid=9586e3bf-df83-4cf3-abd5-107fefc4baa0","ios":"levelo://app?vid=9586e3bf-df83-4cf3-abd5-107fefc4baa0"},"vehicle_type_id":"4","last_reported":1737137537,"current_range_meters":36000,"station_id":"ce4bhgh2rcd13ifvqfa0","pricing_plan_id":"cebpf4jnsgd1na2vs0mg"},{"bike_id":"8b21fe6f-93c3-4032-aa43-50f0dce377f1","system_id":"levelo_inurba_marseille","lat":43.23178,"lon":5.39987,"is_reserved":false,"is_disabled":false,"rental_uris":{"android":"levelo://app?vid=8b21fe6f-93c3-4032-aa43-50f0dce377f1","ios":"levelo://app?vid=8b21fe6f-93c3-4032-aa43-50f0dce377f1"},"vehicle_type_id":"4","last_reported":1737137537,"current_range_meters":30400,"station_id":"ce4bhn12rcd13ifvqgqg","pricing_plan_id":"cebpf4jnsgd1na2vs0mg"},{"bike_id":"85f365d5-194e-4102-8500-4e44aa6e2a33","system_id":"levelo_inurba_marseille","lat":43.24997,"lon":5.3894,"is_reserved":false,"is_disabled":false,"rental_uris":{"android":"levelo://app?vid=85f365d5-194e-4102-8500-4e44aa6e2a33","ios":"levelo://app?vid=85f365d5-194e-4102-8500-4e44aa6e2a33"},"vehicle_type_id":"4","last_reported":1737137537,"current_range_meters":14400,"station_id":"ce4bhgp2rcd13ifvqfd0","pricing_plan_id":"cebpf4jnsgd1na2vs0mg"},{"bike_id":"c248864c-e161-4718-8c42-20a1064043b4","system_id":"levelo_inurba_marseille","lat":43.2841,"lon":5.37509,"is_reserved":false,"is_disabled":false,"rental_uris":{"android":"levelo://app?vid=c248864c-e161-4718-8c42-20a1064043b4","ios":"levelo://app?vid=c248864c-e161-4718-8c42-20a1064043b4"},"vehicle_type_id":"4","last_reported":1737137537,"current_range_meters":24800,"station_id":"ce4bh412rcd13ifvqds0","pricing_plan_id":"cebpf4jnsgd1na2vs0mg"},{"bike_id":"72ca0742-1df6-4026-87cc-098e9e8db1ab","system_id":"levelo_inurba_marseille","lat":43.23969,"lon":5.36633,"is_reserved":false,"is_disabled":false,"rental_uris":{"android":"levelo://app?vid=72ca0742-1df6-4026-87cc-098e9e8db1ab","ios":"levelo://app?vid=72ca0742-1df6-4026-87cc-098e9e8db1ab"},"vehicle_type_id":"4","last_reported":1737137537,"current_range_meters":27600,"station_id":"ce4bhi12rcd13ifvqfp0","pricing_plan_id":"cebpf4jnsgd1na2vs0mg"},{"bike_id":"1e2f115e-489f-4c45-b5ad-3280ad4c66fe","system_id":"levelo_inurba_marseille","lat":43.3171,"lon":5.43707,"is_reserved":false,"is_disabled":false,"rental_uris":{"android":"levelo://app?vid=1e2f115e-489f-4c45-b5ad-3280ad4c66fe","ios":"levelo://app?vid=1e2f115e-489f-4c45-b5ad-3280ad4c66fe"},"vehicle_type_id":"4","last_reported":1737137537,"current_range_meters":22800,"station_id":"ce4bhp92rcd13ifvqhcg","pricing_plan_id":"cebpf4jnsgd1na2vs0mg"},{"bike_id":"877335f2-1d0c-4446-b226-f5b795b060eb","system_id":"levelo_inurba_marseille","lat":43.28978,"lon":5.37826,"is_reserved":false,"is_disabled":false,"rental_uris":{"android":"levelo://app?vid=877335f2-1d0c-4446-b226-f5b795b060eb","ios":"levelo://app?vid=877335f2-1d0c-4446-b226-f5b795b060eb"},"vehicle_type_id":"4","last_reported":1737137537,"current_range_meters":38800,"station_id":"ce4bh9p2rcd13ifvqed0","pricing_plan_id":"cebpf4jnsgd1na2vs0mg"},{"bike_id":"5ed39e30-6df6-4cb7-b9e5-8eddd4f008ab","system_id":"levelo_inurba_marseille","lat":43.30355,"lon":5.39101,"is_reserved":false,"is_disabled":true,"rental_uris":{"android":"levelo://app?vid=5ed39e30-6df6-4cb7-b9e5-8eddd4f008ab","ios":"levelo://app?vid=5ed39e30-6df6-4cb7-b9e5-8eddd4f008ab"},"vehicle_type_id":"4","last_reported":1737137537,"current_range_meters":0,"station_id":"ce4bgkh2rcd13ifvqbk0","pricing_plan_id":"cebpf4jnsgd1na2vs0mg"},{"bike_id":"79376c4e-0cb2-4e60-95e1-7a5e734ab53b","system_id":"levelo_inurba_marseille","lat":43.30479,"lon":5.37901,"is_reserved":false,"is_disabled":false,"rental_uris":{"android":"levelo://app?vid=79376c4e-0cb2-4e60-95e1-7a5e734ab53b","ios":"levelo://app?vid=79376c4e-0cb2-4e60-95e1-7a5e734ab53b"},"vehicle_type_id":"4","last_reported":1737137537,"current_range_meters":33600,"station_id":"ce4bgup2rcd13ifvqcn0","pricing_plan_id":"cebpf4jnsgd1na2vs0mg"},{"bike_id":"e27e74b2-2c71-43d5-8029-588d7007cb32","system_id":"levelo_inurba_marseille","lat":43.31719,"lon":5.37731,"is_reserved":false,"is_disabled":false,"rental_uris":{"android":"levelo://app?vid=e27e74b2-2c71-43d5-8029-588d7007cb32","ios":"levelo://app?vid=e27e74b2-2c71-43d5-8029-588d7007cb32"},"vehicle_type_id":"4","last_reported":1737137537,"current_range_meters":36400,"station_id":"ce4bgth2rcd13ifvqch0","pricing_plan_id":"cebpf4jnsgd1na2vs0mg"},{"bike_id":"4b49763f-0299-415d-bdc5-9e878c0c98ca","system_id":"levelo_inurba_marseille","lat":43.27941,"lon":5.41054,"is_reserved":false,"is_disabled":false,"rental_uris":{"android":"levelo://app?vid=4b49763f-0299-415d-bdc5-9e878c0c98ca","ios":"levelo://app?vid=4b49763f-0299-415d-bdc5-9e878c0c98ca"},"vehicle_type_id":"4","last_reported":1737137537,"current_range_meters":22800,"station_id":"ce4bhnp2rcd13ifvqh0g","pricing_plan_id":"cebpf4jnsgd1na2vs0mg"},{"bike_id":"7383474c-b45a-4438-837c-99d7ae866fe7","system_id":"levelo_inurba_marseille","lat":43.260668,"lon":5.394059,"is_reserved":false,"is_disabled":false,"rental_uris":{"android":"levelo://app?vid=7383474c-b45a-4438-837c-99d7ae866fe7","ios":"levelo://app?vid=7383474c-b45a-4438-837c-99d7ae866fe7"},"vehicle_type_id":"4","last_reported":1737137537,"current_range_meters":38800,"station_id":"ce4bhh92rcd13ifvqfj0","pricing_plan_id":"cebpf4jnsgd1na2vs0mg"},{"bike_id":"1c84ca9e-f68c-4a22-88dd-f8cfa991482c","system_id":"levelo_inurba_marseille","lat":43.29758,"lon":5.37098,"is_reserved":false,"is_disabled":false,"rental_uris":{"android":"levelo://app?vid=1c84ca9e-f68c-4a22-88dd-f8cfa991482c","ios":"levelo://app?vid=1c84ca9e-f68c-4a22-88dd-f8cfa991482c"},"vehicle_type_id":"4","last_reported":1737137537,"current_range_meters":38800,"station_id":"ce4bgop2rcd13ifvqc1g","pricing_plan_id":"cebpf4jnsgd1na2vs0mg"},{"bike_id":"ecf97f17-8bf9-4029-a8e8-8dc7a2e7b78a","system_id":"levelo_inurba_marseille","lat":43.30793,"lon":5.37663,"is_reserved":false,"is_disabled":false,"rental_uris":{"android":"levelo://app?vid=ecf97f17-8bf9-4029-a8e8-8dc7a2e7b78a","ios":"levelo://app?vid=ecf97f17-8bf9-4029-a8e8-8dc7a2e7b78a"},"vehicle_type_id":"4","last_reported":1737137537,"current_range_meters":38800,"station_id":"ce4bgv92rcd13ifvqcq0","pricing_plan_id":"cebpf4jnsgd1na2vs0mg"},{"bike_id":"5eb40368-485d-4448-adb7-45b6b813df64","system_id":"levelo_inurba_marseille","lat":43.29266,"lon":5.38444,"is_reserved":false,"is_disabled":false,"rental_uris":{"android":"levelo://app?vid=5eb40368-485d-4448-adb7-45b6b813df64","ios":"levelo://app?vid=5eb40368-485d-4448-adb7-45b6b813df64"},"vehicle_type_id":"4","last_reported":1737137537,"current_range_meters":38800,"station_id":"ce4bh692rcd13ifvqea0","pricing_plan_id":"cebpf4jnsgd1na2vs0mg"},{"bike_id":"17f06e7c-22e9-4160-b018-5268dc59b16d","system_id":"levelo_inurba_marseille","lat":43.30948,"lon":5.3905,"is_reserved":false,"is_disabled":false,"rental_uris":{"android":"levelo://app?vid=17f06e7c-22e9-4160-b018-5268dc59b16d","ios":"levelo://app?vid=17f06e7c-22e9-4160-b018-5268dc59b16d"},"vehicle_type_id":"4","last_reported":1737137537,"current_range_meters":27600,"station_id":"ce4bgup2rcd13ifvqco0","pricing_plan_id":"cebpf4jnsgd1na2vs0mg"},{"bike_id":"2a47961c-e68d-4515-88b0-b02fc667685e","system_id":"levelo_inurba_marseille","lat":43.29528,"lon":5.38553,"is_reserved":false,"is_disabled":false,"rental_uris":{"android":"levelo://app?vid=2a47961c-e68d-4515-88b0-b02fc667685e","ios":"levelo://app?vid=2a47961c-e68d-4515-88b0-b02fc667685e"},"vehicle_type_id":"4","last_reported":1737137537,"current_range_meters":4000,"station_id":"ce4bgih2rcd13ifvqba0","pricing_plan_id":"cebpf4jnsgd1na2vs0mg"},{"bike_id":"4ca3bcbd-2c05-4d5c-8ebd-13ef5985c9fc","system_id":"levelo_inurba_marseille","lat":43.28396,"lon":5.3753,"is_reserved":false,"is_disabled":false,"rental_uris":{"android":"levelo://app?vid=4ca3bcbd-2c05-4d5c-8ebd-13ef5985c9fc","ios":"levelo://app?vid=4ca3bcbd-2c05-4d5c-8ebd-13ef5985c9fc"},"vehicle_type_id":"4","last_reported":1737137537,"current_range_meters":27200,"station_id":"ce4bh412rcd13ifvqds0","pricing_plan_id":"cebpf4jnsgd1na2vs0mg"},{"bike_id":"3958b03d-b591-4d79-80a4-059614f22dc2","system_id":"levelo_inurba_marseille","lat":43.29894,"lon":5.4367,"is_reserved":false,"is_disabled":false,"rental_uris":{"android":"levelo://app?vid=3958b03d-b591-4d79-80a4-059614f22dc2","ios":"levelo://app?vid=3958b03d-b591-4d79-80a4-059614f22dc2"},"vehicle_type_id":"4","last_reported":1737137537,"current_range_meters":35200,"station_id":"ce4bhpp2rcd13ifvqhfg","pricing_plan_id":"cebpf4jnsgd1na2vs0mg"},{"bike_id":"5985db0a-d1af-4636-b1c7-be7d73c7f444","system_id":"levelo_inurba_marseille","lat":43.28157,"lon":5.42647,"is_reserved":false,"is_disabled":false,"rental_uris":{"android":"levelo://app?vid=5985db0a-d1af-4636-b1c7-be7d73c7f444","ios":"levelo://app?vid=5985db0a-d1af-4636-b1c7-be7d73c7f444"},"vehicle_type_id":"4","last_reported":1737137537,"current_range_meters":27200,"station_id":"ce4bhnh2rcd13ifvqgug","pricing_plan_id":"cebpf4jnsgd1na2vs0mg"},{"bike_id":"fe05968b-c8f7-4ac8-b0b1-043b0ba4ed21","system_id":"levelo_inurba_marseille","lat":43.30136,"lon":5.39865,"is_reserved":false,"is_disabled":false,"rental_uris":{"android":"levelo://app?vid=fe05968b-c8f7-4ac8-b0b1-043b0ba4ed21","ios":"levelo://app?vid=fe05968b-c8f7-4ac8-b0b1-043b0ba4ed21"},"vehicle_type_id":"4","last_reported":1737137537,"current_range_meters":30400,"station_id":"ce4bh0h2rcd13ifvqd40","pricing_plan_id":"cebpf4jnsgd1na2vs0mg"},{"bike_id":"8718434f-bdb4-44ea-8cf1-505dc338502e","system_id":"levelo_inurba_marseille","lat":43.27614,"lon":5.36105,"is_reserved":false,"is_disabled":false,"rental_uris":{"android":"levelo://app?vid=8718434f-bdb4-44ea-8cf1-505dc338502e","ios":"levelo://app?vid=8718434f-bdb4-44ea-8cf1-505dc338502e"},"vehicle_type_id":"4","last_reported":1737137537,"current_range_meters":38400,"station_id":"ce4bgj92rcd13ifvqbe0","pricing_plan_id":"cebpf4jnsgd1na2vs0mg"},{"bike_id":"dbc84289-e424-421f-8922-80495ae94fa1","system_id":"levelo_inurba_marseille","lat":43.30599,"lon":5.39349,"is_reserved":false,"is_disabled":true,"rental_uris":{"android":"levelo://app?vid=dbc84289-e424-421f-8922-80495ae94fa1","ios":"levelo://app?vid=dbc84289-e424-421f-8922-80495ae94fa1"},"vehicle_type_id":"4","last_reported":1737137537,"current_range_meters":25600,"station_id":"ce4bh0p2rcd13ifvqd80","pricing_plan_id":"cebpf4jnsgd1na2vs0mg"},{"bike_id":"a9a0e60f-8e94-490a-988c-5a9cfc45d626","system_id":"levelo_inurba_marseille","lat":43.24171,"lon":5.36389,"is_reserved":false,"is_disabled":false,"rental_uris":{"android":"levelo://app?vid=a9a0e60f-8e94-490a-988c-5a9cfc45d626","ios":"levelo://app?vid=a9a0e60f-8e94-490a-988c-5a9cfc45d626"},"vehicle_type_id":"4","last_reported":1737137537,"current_range_meters":14800,"station_id":"cpo36qri1sfpv3e86is0","pricing_plan_id":"cebpf4jnsgd1na2vs0mg"},{"bike_id":"d16b89a9-1e27-4353-ad98-e667998efb26","system_id":"levelo_inurba_marseille","lat":43.28618,"lon":5.35108,"is_reserved":false,"is_disabled":false,"rental_uris":{"android":"levelo://app?vid=d16b89a9-1e27-4353-ad98-e667998efb26","ios":"levelo://app?vid=d16b89a9-1e27-4353-ad98-e667998efb26"},"vehicle_type_id":"4","last_reported":1737137537,"current_range_meters":12400,"station_id":"ce4bhch2rcd13ifvqeug","pricing_plan_id":"cebpf4jnsgd1na2vs0mg"},{"bike_id":"3808c5a1-d5da-42c6-b995-7d09e6c7030d","system_id":"levelo_inurba_marseille","lat":43.29798,"lon":5.38106,"is_reserved":false,"is_disabled":false,"rental_uris":{"android":"levelo://app?vid=3808c5a1-d5da-42c6-b995-7d09e6c7030d","ios":"levelo://app?vid=3808c5a1-d5da-42c6-b995-7d09e6c7030d"},"vehicle_type_id":"4","last_reported":1737137537,"current_range_meters":29600,"station_id":"ce4bgip2rcd13ifvqbb0","pricing_plan_id":"cebpf4jnsgd1na2vs0mg"},{"bike_id":"4af58063-c51d-4c74-b7d3-15cb72f58163","system_id":"levelo_inurba_marseille","lat":43.29528,"lon":5.38548,"is_reserved":false,"is_disabled":false,"rental_uris":{"android":"levelo://app?vid=4af58063-c51d-4c74-b7d3-15cb72f58163","ios":"levelo://app?vid=4af58063-c51d-4c74-b7d3-15cb72f58163"},"vehicle_type_id":"4","last_reported":1737137537,"current_range_meters":24400,"station_id":"ce4bgih2rcd13ifvqba0","pricing_plan_id":"cebpf4jnsgd1na2vs0mg"},{"bike_id":"29f1794c-11c2-4507-bbd5-ad28336fcfd4","system_id":"levelo_inurba_marseille","lat":43.28926,"lon":5.36639,"is_reserved":false,"is_disabled":false,"rental_uris":{"android":"levelo://app?vid=29f1794c-11c2-4507-bbd5-ad28336fcfd4","ios":"levelo://app?vid=29f1794c-11c2-4507-bbd5-ad28336fcfd4"},"vehicle_type_id":"4","last_reported":1737137537,"current_range_meters":8400,"station_id":"ce4bhap2rcd13ifvqek0","pricing_plan_id":"cebpf4jnsgd1na2vs0mg"},{"bike_id":"52f53058-281b-4e6c-b438-ee639771a3e8","system_id":"levelo_inurba_marseille","lat":43.28463,"lon":5.35871,"is_reserved":false,"is_disabled":false,"rental_uris":{"android":"levelo://app?vid=52f53058-281b-4e6c-b438-ee639771a3e8","ios":"levelo://app?vid=52f53058-281b-4e6c-b438-ee639771a3e8"},"vehicle_type_id":"4","last_reported":1737137537,"current_range_meters":18000,"station_id":"ce4bhah2rcd13ifvqei0","pricing_plan_id":"cebpf4jnsgd1na2vs0mg"},{"bike_id":"9c9aee0f-b118-4a4d-8d61-23c444f82a04","system_id":"levelo_inurba_marseille","lat":43.2756,"lon":5.38416,"is_reserved":false,"is_disabled":false,"rental_uris":{"android":"levelo://app?vid=9c9aee0f-b118-4a4d-8d61-23c444f82a04","ios":"levelo://app?vid=9c9aee0f-b118-4a4d-8d61-23c444f82a04"},"vehicle_type_id":"4","last_reported":1737137537,"current_range_meters":38800,"station_id":"ce4bhh92rcd13ifvqfi0","pricing_plan_id":"cebpf4jnsgd1na2vs0mg"},{"bike_id":"b9448605-8887-4883-a788-ae2fc503e99d","system_id":"levelo_inurba_marseille","lat":43.28932,"lon":5.36648,"is_reserved":false,"is_disabled":true,"rental_uris":{"android":"levelo://app?vid=b9448605-8887-4883-a788-ae2fc503e99d","ios":"levelo://app?vid=b9448605-8887-4883-a788-ae2fc503e99d"},"vehicle_type_id":"4","last_reported":1737137537,"current_range_meters":1200,"station_id":"ce4bhap2rcd13ifvqek0","pricing_plan_id":"cebpf4jnsgd1na2vs0mg"},{"bike_id":"2c27878e-d42e-44dc-b789-949f1ee17504","system_id":"levelo_inurba_marseille","lat":43.33743,"lon":5.39196,"is_reserved":false,"is_disabled":false,"rental_uris":{"android":"levelo://app?vid=2c27878e-d42e-44dc-b789-949f1ee17504","ios":"levelo://app?vid=2c27878e-d42e-44dc-b789-949f1ee17504"},"vehicle_type_id":"4","last_reported":1737137537,"current_range_meters":29600,"station_id":"ce4bhr92rcd13ifvqhsg","pricing_plan_id":"cebpf4jnsgd1na2vs0mg"},{"bike_id":"16214de5-398d-4885-bfb5-ca423aa8cefa","system_id":"levelo_inurba_marseille","lat":43.23964,"lon":5.36616,"is_reserved":false,"is_disabled":false,"rental_uris":{"android":"levelo://app?vid=16214de5-398d-4885-bfb5-ca423aa8cefa","ios":"levelo://app?vid=16214de5-398d-4885-bfb5-ca423aa8cefa"},"vehicle_type_id":"4","last_reported":1737137537,"current_range_meters":6400,"station_id":"ce4bhi12rcd13ifvqfp0","pricing_plan_id":"cebpf4jnsgd1na2vs0mg"},{"bike_id":"f5863b18-13a1-4c6e-92de-5668ea912ad3","system_id":"levelo_inurba_marseille","lat":43.26195,"lon":5.40429,"is_reserved":false,"is_disabled":true,"rental_uris":{"android":"levelo://app?vid=f5863b18-13a1-4c6e-92de-5668ea912ad3","ios":"levelo://app?vid=f5863b18-13a1-4c6e-92de-5668ea912ad3"},"vehicle_type_id":"4","last_reported":1737137537,"current_range_meters":0,"station_id":"","pricing_plan_id":"cebpf4jnsgd1na2vs0mg"},{"bike_id":"a8fad254-19bb-48fe-801d-9e93d4767cef","system_id":"levelo_inurba_marseille","lat":43.31425,"lon":5.37389,"is_reserved":false,"is_disabled":true,"rental_uris":{"android":"levelo://app?vid=a8fad254-19bb-48fe-801d-9e93d4767cef","ios":"levelo://app?vid=a8fad254-19bb-48fe-801d-9e93d4767cef"},"vehicle_type_id":"4","last_reported":1737137537,"current_range_meters":0,"station_id":"","pricing_plan_id":"cebpf4jnsgd1na2vs0mg"},{"bike_id":"d5e88f11-8902-4e60-8e5e-7248fb6efb07","system_id":"levelo_inurba_marseille","lat":43.24803,"lon":5.37459,"is_reserved":false,"is_disabled":false,"rental_uris":{"android":"levelo://app?vid=d5e88f11-8902-4e60-8e5e-7248fb6efb07","ios":"levelo://app?vid=d5e88f11-8902-4e60-8e5e-7248fb6efb07"},"vehicle_type_id":"4","last_reported":1737137537,"current_range_meters":31200,"station_id":"ce4bhgh2rcd13ifvqfb0","pricing_plan_id":"cebpf4jnsgd1na2vs0mg"},{"bike_id":"a9a9ecdf-2a2f-490c-b70c-c2427184108b","system_id":"levelo_inurba_marseille","lat":43.2991,"lon":5.38147,"is_reserved":false,"is_disabled":false,"rental_uris":{"android":"levelo://app?vid=a9a9ecdf-2a2f-490c-b70c-c2427184108b","ios":"levelo://app?vid=a9a9ecdf-2a2f-490c-b70c-c2427184108b"},"vehicle_type_id":"4","last_reported":1737137537,"current_range_meters":15200,"station_id":"ce4bgj12rcd13ifvqbc0","pricing_plan_id":"cebpf4jnsgd1na2vs0mg"},{"bike_id":"e5f71037-c3e2-4a5c-b185-51bcddd625d8","system_id":"levelo_inurba_marseille","lat":43.23068,"lon":5.35495,"is_reserved":false,"is_disabled":false,"rental_uris":{"android":"levelo://app?vid=e5f71037-c3e2-4a5c-b185-51bcddd625d8","ios":"levelo://app?vid=e5f71037-c3e2-4a5c-b185-51bcddd625d8"},"vehicle_type_id":"4","last_reported":1737137537,"current_range_meters":38800,"station_id":"cpo3342slgdg3j2ifvpg","pricing_plan_id":"cebpf4jnsgd1na2vs0mg"},{"bike_id":"46686b70-f375-4947-b209-2f4548c2edcf","system_id":"levelo_inurba_marseille","lat":43.28884,"lon":5.39466,"is_reserved":false,"is_disabled":true,"rental_uris":{"android":"levelo://app?vid=46686b70-f375-4947-b209-2f4548c2edcf","ios":"levelo://app?vid=46686b70-f375-4947-b209-2f4548c2edcf"},"vehicle_type_id":"4","last_reported":1737137537,"current_range_meters":0,"station_id":"","pricing_plan_id":"cebpf4jnsgd1na2vs0mg"},{"bike_id":"c3dcdf4d-5280-4d62-9cd4-44d537c8279d","system_id":"levelo_inurba_marseille","lat":43.3129,"lon":5.37309,"is_reserved":false,"is_disabled":false,"rental_uris":{"android":"levelo://app?vid=c3dcdf4d-5280-4d62-9cd4-44d537c8279d","ios":"levelo://app?vid=c3dcdf4d-5280-4d62-9cd4-44d537c8279d"},"vehicle_type_id":"4","last_reported":1737137537,"current_range_meters":28000,"station_id":"","pricing_plan_id":"cebpf4jnsgd1na2vs0mg"},{"bike_id":"b2924a9a-ad19-4327-af6a-b21e3ed23824","system_id":"levelo_inurba_marseille","lat":43.32365,"lon":5.38892,"is_reserved":false,"is_disabled":false,"rental_uris":{"android":"levelo://app?vid=b2924a9a-ad19-4327-af6a-b21e3ed23824","ios":"levelo://app?vid=b2924a9a-ad19-4327-af6a-b21e3ed23824"},"vehicle_type_id":"4","last_reported":1737137537,"current_range_meters":7200,"station_id":"ce4bhqp2rcd13ifvqhog","pricing_plan_id":"cebpf4jnsgd1na2vs0mg"},{"bike_id":"dfca3b8c-23d1-4ceb-8351-cd493817b63f","system_id":"levelo_inurba_marseille","lat":43.28847,"lon":5.3587,"is_reserved":false,"is_disabled":false,"rental_uris":{"android":"levelo://app?vid=dfca3b8c-23d1-4ceb-8351-cd493817b63f","ios":"levelo://app?vid=dfca3b8c-23d1-4ceb-8351-cd493817b63f"},"vehicle_type_id":"4","last_reported":1737137537,"current_range_meters":35200,"station_id":"ce4bhb12rcd13ifvqem0","pricing_plan_id":"cebpf4jnsgd1na2vs0mg"},{"bike_id":"cea6cd1c-bb35-47b0-8759-ebcdb3037d31","system_id":"levelo_inurba_marseille","lat":43.29279,"lon":5.36852,"is_reserved":false,"is_disabled":false,"rental_uris":{"android":"levelo://app?vid=cea6cd1c-bb35-47b0-8759-ebcdb3037d31","ios":"levelo://app?vid=cea6cd1c-bb35-47b0-8759-ebcdb3037d31"},"vehicle_type_id":"4","last_reported":1737137537,"current_range_meters":23200,"station_id":"ce4bhbp2rcd13ifvqesg","pricing_plan_id":"cebpf4jnsgd1na2vs0mg"},{"bike_id":"aee77450-e637-4195-bb0f-578307372c59","system_id":"levelo_inurba_marseille","lat":43.29896,"lon":5.43674,"is_reserved":false,"is_disabled":false,"rental_uris":{"android":"levelo://app?vid=aee77450-e637-4195-bb0f-578307372c59","ios":"levelo://app?vid=aee77450-e637-4195-bb0f-578307372c59"},"vehicle_type_id":"4","last_reported":1737137537,"current_range_meters":37600,"station_id":"ce4bhpp2rcd13ifvqhfg","pricing_plan_id":"cebpf4jnsgd1na2vs0mg"},{"bike_id":"78dbb58f-e766-49bc-99f2-24e38d69f139","system_id":"levelo_inurba_marseille","lat":43.28839,"lon":5.39293,"is_reserved":false,"is_disabled":false,"rental_uris":{"android":"levelo://app?vid=78dbb58f-e766-49bc-99f2-24e38d69f139","ios":"levelo://app?vid=78dbb58f-e766-49bc-99f2-24e38d69f139"},"vehicle_type_id":"4","last_reported":1737137537,"current_range_meters":30400,"station_id":"ce4bh2p2rcd13ifvqdi0","pricing_plan_id":"cebpf4jnsgd1na2vs0mg"},{"bike_id":"0dbeb0b2-e019-4335-8a33-9d8aca4ccee8","system_id":"levelo_inurba_marseille","lat":43.29893,"lon":5.39756,"is_reserved":false,"is_disabled":false,"rental_uris":{"android":"levelo://app?vid=0dbeb0b2-e019-4335-8a33-9d8aca4ccee8","ios":"levelo://app?vid=0dbeb0b2-e019-4335-8a33-9d8aca4ccee8"},"vehicle_type_id":"4","last_reported":1737137537,"current_range_meters":28000,"station_id":"ce4bh0h2rcd13ifvqd50","pricing_plan_id":"cebpf4jnsgd1na2vs0mg"},{"bike_id":"6870a9e0-7988-452a-a0a6-84e136278682","system_id":"levelo_inurba_marseille","lat":43.26556,"lon":5.37299,"is_reserved":false,"is_disabled":true,"rental_uris":{"android":"levelo://app?vid=6870a9e0-7988-452a-a0a6-84e136278682","ios":"levelo://app?vid=6870a9e0-7988-452a-a0a6-84e136278682"},"vehicle_type_id":"4","last_reported":1737137537,"current_range_meters":400,"station_id":"ce4bhg12rcd13ifvqf70","pricing_plan_id":"cebpf4jnsgd1na2vs0mg"},{"bike_id":"a27817a3-63e6-496f-8562-aae328411ccf","system_id":"levelo_inurba_marseille","lat":43.30127,"lon":5.38758,"is_reserved":false,"is_disabled":true,"rental_uris":{"android":"levelo://app?vid=a27817a3-63e6-496f-8562-aae328411ccf","ios":"levelo://app?vid=a27817a3-63e6-496f-8562-aae328411ccf"},"vehicle_type_id":"4","last_reported":1737137537,"current_range_meters":0,"station_id":"ce4bghh2rcd13ifvqb60","pricing_plan_id":"cebpf4jnsgd1na2vs0mg"},{"bike_id":"e2e42c8f-e717-48a7-bc22-a022ae7d50b0","system_id":"levelo_inurba_marseille","lat":43.28153,"lon":5.42643,"is_reserved":false,"is_disabled":false,"rental_uris":{"android":"levelo://app?vid=e2e42c8f-e717-48a7-bc22-a022ae7d50b0","ios":"levelo://app?vid=e2e42c8f-e717-48a7-bc22-a022ae7d50b0"},"vehicle_type_id":"4","last_reported":1737137537,"current_range_meters":22400,"station_id":"ce4bhnh2rcd13ifvqgug","pricing_plan_id":"cebpf4jnsgd1na2vs0mg"},{"bike_id":"7ce2b343-ce6f-4f9f-bb89-e1648f70c906","system_id":"levelo_inurba_marseille","lat":43.24805,"lon":5.37459,"is_reserved":false,"is_disabled":false,"rental_uris":{"android":"levelo://app?vid=7ce2b343-ce6f-4f9f-bb89-e1648f70c906","ios":"levelo://app?vid=7ce2b343-ce6f-4f9f-bb89-e1648f70c906"},"vehicle_type_id":"4","last_reported":1737137537,"current_range_meters":26800,"station_id":"ce4bhgh2rcd13ifvqfb0","pricing_plan_id":"cebpf4jnsgd1na2vs0mg"},{"bike_id":"aea7bf98-ca4c-480e-ba38-8307c7dde144","system_id":"levelo_inurba_marseille","lat":43.24789,"lon":5.37451,"is_reserved":false,"is_disabled":false,"rental_uris":{"android":"levelo://app?vid=aea7bf98-ca4c-480e-ba38-8307c7dde144","ios":"levelo://app?vid=aea7bf98-ca4c-480e-ba38-8307c7dde144"},"vehicle_type_id":"4","last_reported":1737137537,"current_range_meters":36800,"station_id":"ce4bhgh2rcd13ifvqfb0","pricing_plan_id":"cebpf4jnsgd1na2vs0mg"},{"bike_id":"1711e43f-bc44-4f10-86e7-1b990c9589d3","system_id":"levelo_inurba_marseille","lat":43.29036,"lon":5.39964,"is_reserved":false,"is_disabled":false,"rental_uris":{"android":"levelo://app?vid=1711e43f-bc44-4f10-86e7-1b990c9589d3","ios":"levelo://app?vid=1711e43f-bc44-4f10-86e7-1b990c9589d3"},"vehicle_type_id":"4","last_reported":1737137537,"current_range_meters":28800,"station_id":"ce4bh392rcd13ifvqdm0","pricing_plan_id":"cebpf4jnsgd1na2vs0mg"},{"bike_id":"e3dc09b9-3428-49a4-b101-7626b1a84c1f","system_id":"levelo_inurba_marseille","lat":43.25862,"lon":5.39911,"is_reserved":false,"is_disabled":false,"rental_uris":{"android":"levelo://app?vid=e3dc09b9-3428-49a4-b101-7626b1a84c1f","ios":"levelo://app?vid=e3dc09b9-3428-49a4-b101-7626b1a84c1f"},"vehicle_type_id":"4","last_reported":1737137537,"current_range_meters":17600,"station_id":"ce4bhl92rcd13ifvqghg","pricing_plan_id":"cebpf4jnsgd1na2vs0mg"},{"bike_id":"397d6ba9-97d8-4f53-bdbd-79107cea97fe","system_id":"levelo_inurba_marseille","lat":43.31177,"lon":5.38722,"is_reserved":false,"is_disabled":false,"rental_uris":{"android":"levelo://app?vid=397d6ba9-97d8-4f53-bdbd-79107cea97fe","ios":"levelo://app?vid=397d6ba9-97d8-4f53-bdbd-79107cea97fe"},"vehicle_type_id":"4","last_reported":1737137537,"current_range_meters":21600,"station_id":"ce4bgv12rcd13ifvqcp0","pricing_plan_id":"cebpf4jnsgd1na2vs0mg"},{"bike_id":"fd54f3c9-0679-445e-8eed-39daf3f7ab14","system_id":"levelo_inurba_marseille","lat":43.29524,"lon":5.39043,"is_reserved":false,"is_disabled":false,"rental_uris":{"android":"levelo://app?vid=fd54f3c9-0679-445e-8eed-39daf3f7ab14","ios":"levelo://app?vid=fd54f3c9-0679-445e-8eed-39daf3f7ab14"},"vehicle_type_id":"4","last_reported":1737137537,"current_range_meters":25600,"station_id":"ce4bh3p2rcd13ifvqdp0","pricing_plan_id":"cebpf4jnsgd1na2vs0mg"},{"bike_id":"7b095187-6dee-4f8a-869d-470718b7a0b4","system_id":"levelo_inurba_marseille","lat":43.30521,"lon":5.3654,"is_reserved":false,"is_disabled":false,"rental_uris":{"android":"levelo://app?vid=7b095187-6dee-4f8a-869d-470718b7a0b4","ios":"levelo://app?vid=7b095187-6dee-4f8a-869d-470718b7a0b4"},"vehicle_type_id":"4","last_reported":1737137537,"current_range_meters":21600,"station_id":"ce4bgs12rcd13ifvqcag","pricing_plan_id":"cebpf4jnsgd1na2vs0mg"},{"bike_id":"e0465de2-1648-4504-9618-59b63e2acad8","system_id":"levelo_inurba_marseille","lat":43.32109,"lon":5.36788,"is_reserved":false,"is_disabled":false,"rental_uris":{"android":"levelo://app?vid=e0465de2-1648-4504-9618-59b63e2acad8","ios":"levelo://app?vid=e0465de2-1648-4504-9618-59b63e2acad8"},"vehicle_type_id":"4","last_reported":1737137537,"current_range_meters":34800,"station_id":"ce4bhrh2rcd13ifvqhug","pricing_plan_id":"cebpf4jnsgd1na2vs0mg"},{"bike_id":"aee46743-f0f7-4648-88e1-fa3d3a7aa9c0","system_id":"levelo_inurba_marseille","lat":43.25091,"lon":5.39525,"is_reserved":false,"is_disabled":false,"rental_uris":{"android":"levelo://app?vid=aee46743-f0f7-4648-88e1-fa3d3a7aa9c0","ios":"levelo://app?vid=aee46743-f0f7-4648-88e1-fa3d3a7aa9c0"},"vehicle_type_id":"4","last_reported":1737137537,"current_range_meters":27600,"station_id":"ce4bhm12rcd13ifvqgkg","pricing_plan_id":"cebpf4jnsgd1na2vs0mg"},{"bike_id":"ba7809ce-09c4-4440-b776-1b65312d6afc","system_id":"levelo_inurba_marseille","lat":43.28464,"lon":5.35885,"is_reserved":false,"is_disabled":false,"rental_uris":{"android":"levelo://app?vid=ba7809ce-09c4-4440-b776-1b65312d6afc","ios":"levelo://app?vid=ba7809ce-09c4-4440-b776-1b65312d6afc"},"vehicle_type_id":"4","last_reported":1737137537,"current_range_meters":12800,"station_id":"ce4bhah2rcd13ifvqei0","pricing_plan_id":"cebpf4jnsgd1na2vs0mg"},{"bike_id":"42df02ff-8252-4dd6-8b30-db4314b78dbb","system_id":"levelo_inurba_marseille","lat":43.24678,"lon":5.38148,"is_reserved":false,"is_disabled":false,"rental_uris":{"android":"levelo://app?vid=42df02ff-8252-4dd6-8b30-db4314b78dbb","ios":"levelo://app?vid=42df02ff-8252-4dd6-8b30-db4314b78dbb"},