{"last_updated":1744564068,"ttl":60,"version":"2.2","data":{"bikes":[{"bike_id":"f96c0c65-7fce-4b6c-8bb2-232128e93959","system_id":"levelo_inurba_marseille","lat":43.30494,"lon":5.39295,"is_reserved":false,"is_disabled":false,"rental_uris":{"android":"levelo://app?vid=f96c0c65-7fce-4b6c-8bb2-232128e93959","ios":"levelo://app?vid=f96c0c65-7fce-4b6c-8bb2-232128e93959"},"vehicle_type_id":"4","last_reported":1744564068,"current_range_meters":2800,"station_id":"","pricing_plan_id":"cebpf4jnsgd1na2vs0mg"},{"bike_id":"3f08cc69-711e-4264-b923-68891203ffa4","system_id":"levelo_inurba_marseille","lat":43.32285,"lon":5.38243,"is_reserved":false,"is_disabled":true,"rental_uris":{"android":"levelo://app?vid=3f08cc69-711e-4264-b923-68891203ffa4","ios":"levelo://app?vid=3f08cc69-711e-4264-b923-68891203ffa4"},"vehicle_type_id":"4","last_reported":1744564068,"current_range_meters":2800,"station_id":"ce4bhr12rcd13ifvqhqg","pricing_plan_id":"cebpf4jnsgd1na2vs0mg"},{"bike_id":"e3828467-5145-4b40-a836-722c61030e40","system_id":"levelo_inurba_marseille","lat":43.28157,"lon":5.42636,"is_reserved":false,"is_disabled":false,"rental_uris":{"android":"levelo://app?vid=e3828467-5145-4b40-a836-722c61030e40","ios":"levelo://app?vid=e3828467-5145-4b40-a836-722c61030e40"},"vehicle_type_id":"4","last_reported":1744564068,"current_range_meters":3200,"station_id":"ce4bhnh2rcd13ifvqgug","pricing_plan_id":"cebpf4jnsgd1na2vs0mg"},{"bike_id":"b6ff7e66-b821-4f07-a3cf-b9f4abde04e1","system_id":"levelo_inurba_marseille","lat":43.27992,"lon":5.40051,"is_reserved":false,"is_disabled":true,"rental_uris":{"android":"levelo://app?vid=b6ff7e66-b821-4f07-a3cf-b9f4abde04e1","ios":"levelo://app?vid=b6ff7e66-b821-4f07-a3cf-b9f4abde04e1"},"vehicle_type_id":"4","last_reported":1744564068,"current_range_meters":3200,"station_id":"ce4bho92rcd13ifvqh4g","pricing_plan_id":"cebpf4jnsgd1na2vs0mg"},{"bike_id":"6711efce-d182-4bc5-a23b-7775226da104","system_id":"levelo_inurba_marseille","lat":43.29895,"lon":5.43673,"is_reserved":false,"is_disabled":false,"rental_uris":{"android":"levelo://app?vid=6711efce-d182-4bc5-a23b-7775226da104","ios":"levelo://app?vid=6711efce-d182-4bc5-a23b-7775226da104"},"vehicle_type_id":"4","last_reported":1744564068,"current_range_meters":3600,"station_id":"ce4bhpp2rcd13ifvqhfg","pricing_plan_id":"cebpf4jnsgd1na2vs0mg"},{"bike_id":"3438c5bd-1787-489f-9a0e-5eb33ff8500a","system_id":"levelo_inurba_marseille","lat":43.29549,"lon":5.42233,"is_reserved":false,"is_disabled":true,"rental_uris":{"android":"levelo://app?vid=3438c5bd-1787-489f-9a0e-5eb33ff8500a","ios":"levelo://app?vid=3438c5bd-1787-489f-9a0e-5eb33ff8500a"},"vehicle_type_id":"4","last_reported":1744564068,"current_range_meters":4000,"station_id":"ce4bhph2rcd13ifvqhdg","pricing_plan_id":"cebpf4jnsgd1na2vs0mg"},{"bike_id":"534e41cc-b45a-4276-96fb-ee435dfb41de","system_id":"levelo_inurba_marseille","lat":43.29005,"lon":5.35623,"is_reserved":false,"is_disabled":false,"rental_uris":{"android":"levelo://app?vid=534e41cc-b45a-4276-96fb-ee435dfb41de","ios":"levelo://app?vid=534e41cc-b45a-4276-96fb-ee435dfb41de"},"vehicle_type_id":"4","last_reported":1744564068,"current_range_meters":4000,"station_id":"ce4bhb92rcd13ifvqen0","pricing_plan_id":"cebpf4jnsgd1na2vs0mg"},{"bike_id":"8a8d8e40-19c8-4489-bd98-605f5a7b497f","system_id":"levelo_inurba_marseille","lat":43.28278,"lon":5.35068,"is_reserved":false,"is_disabled":false,"rental_uris":{"android":"levelo://app?vid=8a8d8e40-19c8-4489-bd98-605f5a7b497f","ios":"levelo://app?vid=8a8d8e40-19c8-4489-bd98-605f5a7b497f"},"vehicle_type_id":"4","last_reported":1744564068,"current_range_meters":6800,"station_id":"ce4bhbp2rcd13ifvqerg","pricing_plan_id":"cebpf4jnsgd1na2vs0mg"},{"bike_id":"6945f6f7-ff52-4ef1-ba3a-a8e38f27e863","system_id":"levelo_inurba_marseille","lat":43.28158,"lon":5.42651,"is_reserved":false,"is_disabled":false,"rental_uris":{"android":"levelo://app?vid=6945f6f7-ff52-4ef1-ba3a-a8e38f27e863","ios":"levelo://app?vid=6945f6f7-ff52-4ef1-ba3a-a8e38f27e863"},"vehicle_type_id":"4","last_reported":1744564068,"current_range_meters":4400,"station_id":"ce4bhnh2rcd13ifvqgug","pricing_plan_id":"cebpf4jnsgd1na2vs0mg"},{"bike_id":"4c893399-b4ed-40ed-a49f-713da320f269","system_id":"levelo_inurba_marseille","lat":43.29861,"lon":5.37841,"is_reserved":false,"is_disabled":false,"rental_uris":{"android":"levelo://app?vid=4c893399-b4ed-40ed-a49f-713da320f269","ios":"levelo://app?vid=4c893399-b4ed-40ed-a49f-713da320f269"},"vehicle_type_id":"4","last_reported":1744564068,"current_range_meters":4800,"station_id":"","pricing_plan_id":"cebpf4jnsgd1na2vs0mg"},{"bike_id":"e0bfb9d5-5e8b-4ea3-83c7-a8113879b2ef","system_id":"levelo_inurba_marseille","lat":43.26215,"lon":5.37439,"is_reserved":false,"is_disabled":true,"rental_uris":{"android":"levelo://app?vid=e0bfb9d5-5e8b-4ea3-83c7-a8113879b2ef","ios":"levelo://app?vid=e0bfb9d5-5e8b-4ea3-83c7-a8113879b2ef"},"vehicle_type_id":"4","last_reported":1744564068,"current_range_meters":4800,"station_id":"ce4bhgp2rcd13ifvqfc0","pricing_plan_id":"cebpf4jnsgd1na2vs0mg"},{"bike_id":"fd759760-3eaa-4a0c-9cab-cfbb536777a6","system_id":"levelo_inurba_marseille","lat":43.32965,"lon":5.39186,"is_reserved":false,"is_disabled":false,"rental_uris":{"android":"levelo://app?vid=fd759760-3eaa-4a0c-9cab-cfbb536777a6","ios":"levelo://app?vid=fd759760-3eaa-4a0c-9cab-cfbb536777a6"},"vehicle_type_id":"4","last_reported":1744564068,"current_range_meters":4800,"station_id":"","pricing_plan_id":"cebpf4jnsgd1na2vs0mg"},{"bike_id":"f915ac58-55ab-4ba3-b885-a6a3dc326f9d","system_id":"levelo_inurba_marseille","lat":43.26808,"lon":5.40269,"is_reserved":false,"is_disabled":false,"rental_uris":{"android":"levelo://app?vid=f915ac58-55ab-4ba3-b885-a6a3dc326f9d","ios":"levelo://app?vid=f915ac58-55ab-4ba3-b885-a6a3dc326f9d"},"vehicle_type_id":"4","last_reported":1744564068,"current_range_meters":4800,"station_id":"ce501612rcd8frsf0b60","pricing_plan_id":"cebpf4jnsgd1na2vs0mg"},{"bike_id":"249eeeea-b872-4802-9ece-9857c0a0311e","system_id":"levelo_inurba_marseille","lat":43.29008,"lon":5.35625,"is_reserved":false,"is_disabled":false,"rental_uris":{"android":"levelo://app?vid=249eeeea-b872-4802-9ece-9857c0a0311e","ios":"levelo://app?vid=249eeeea-b872-4802-9ece-9857c0a0311e"},"vehicle_type_id":"4","last_reported":1744564068,"current_range_meters":5600,"station_id":"ce4bhb92rcd13ifvqen0","pricing_plan_id":"cebpf4jnsgd1na2vs0mg"},{"bike_id":"cfadcc33-5bb8-4f29-9a84-ae98565bb4a2","system_id":"levelo_inurba_marseille","lat":43.24087,"lon":5.37797,"is_reserved":false,"is_disabled":false,"rental_uris":{"android":"levelo://app?vid=cfadcc33-5bb8-4f29-9a84-ae98565bb4a2","ios":"levelo://app?vid=cfadcc33-5bb8-4f29-9a84-ae98565bb4a2"},"vehicle_type_id":"4","last_reported":1744564068,"current_range_meters":5600,"station_id":"ce4bhnp2rcd13ifvqgvg","pricing_plan_id":"cebpf4jnsgd1na2vs0mg"},{"bike_id":"ee37d139-b142-4b50-a9e7-ebe3a284e80c","system_id":"levelo_inurba_marseille","lat":43.22933,"lon":5.35394,"is_reserved":false,"is_disabled":false,"rental_uris":{"android":"levelo://app?vid=ee37d139-b142-4b50-a9e7-ebe3a284e80c","ios":"levelo://app?vid=ee37d139-b142-4b50-a9e7-ebe3a284e80c"},"vehicle_type_id":"4","last_reported":1744564068,"current_range_meters":5600,"station_id":"cpo3532slgdg3j2ikp40","pricing_plan_id":"cebpf4jnsgd1na2vs0mg"},{"bike_id":"fb3bf63f-cb8b-4e2d-97b5-e2bd30164ab5","system_id":"levelo_inurba_marseille","lat":43.310511,"lon":5.367126,"is_reserved":false,"is_disabled":false,"rental_uris":{"android":"levelo://app?vid=fb3bf63f-cb8b-4e2d-97b5-e2bd30164ab5","ios":"levelo://app?vid=fb3bf63f-cb8b-4e2d-97b5-e2bd30164ab5"},"vehicle_type_id":"4","last_reported":1744564068,"current_range_meters":5600,"station_id":"","pricing_plan_id":"cebpf4jnsgd1na2vs0mg"},{"bike_id":"93d0edb4-46be-43c7-bb98-9ffe08caf198","system_id":"levelo_inurba_marseille","lat":43.26041,"lon":5.37531,"is_reserved":false,"is_disabled":false,"rental_uris":{"android":"levelo://app?vid=93d0edb4-46be-43c7-bb98-9ffe08caf198","ios":"levelo://app?vid=93d0edb4-46be-43c7-bb98-9ffe08caf198"},"vehicle_type_id":"4","last_reported":1744564068,"current_range_meters":6000,"station_id":"ce4bhgh2rcd13ifvqfa0","pricing_plan_id":"cebpf4jnsgd1na2vs0mg"},{"bike_id":"ef291804-1477-432e-b153-82ea15725418","system_id":"levelo_inurba_marseille","lat":43.33742,"lon":5.37454,"is_reserved":false,"is_disabled":false,"rental_uris":{"android":"levelo://app?vid=ef291804-1477-432e-b153-82ea15725418","ios":"levelo://app?vid=ef291804-1477-432e-b153-82ea15725418"},"vehicle_type_id":"4","last_reported":1744564068,"current_range_meters":6000,"station_id":"","pricing_plan_id":"cebpf4jnsgd1na2vs0mg"},{"bike_id":"5299612d-2fd0-4fb7-b051-fd036729cf55","system_id":"levelo_inurba_marseille","lat":43.30145,"lon":5.39866,"is_reserved":false,"is_disabled":false,"rental_uris":{"android":"levelo://app?vid=5299612d-2fd0-4fb7-b051-fd036729cf55","ios":"levelo://app?vid=5299612d-2fd0-4fb7-b051-fd036729cf55"},"vehicle_type_id":"4","last_reported":1744564068,"current_range_meters":6000,"station_id":"ce4bh0h2rcd13ifvqd40","pricing_plan_id":"cebpf4jnsgd1na2vs0mg"},{"bike_id":"a7eb2ea5-c854-47fc-b02b-c7a0cbba5c3b","system_id":"levelo_inurba_marseille","lat":43.24654,"lon":5.38895,"is_reserved":false,"is_disabled":false,"rental_uris":{"android":"levelo://app?vid=a7eb2ea5-c854-47fc-b02b-c7a0cbba5c3b","ios":"levelo://app?vid=a7eb2ea5-c854-47fc-b02b-c7a0cbba5c3b"},"vehicle_type_id":"4","last_reported":1744564068,"current_range_meters":6400,"station_id":"ce4bhg12rcd13ifvqf60","pricing_plan_id":"cebpf4jnsgd1na2vs0mg"},{"bike_id":"d53356ed-34e7-4ce0-8d94-e073954cdd85","system_id":"levelo_inurba_marseille","lat":43.270659,"lon":5.402611,"is_reserved":false,"is_disabled":true,"rental_uris":{"android":"levelo://app?vid=d53356ed-34e7-4ce0-8d94-e073954cdd85","ios":"levelo://app?vid=d53356ed-34e7-4ce0-8d94-e073954cdd85"},"vehicle_type_id":"4","last_reported":1744564068,"current_range_meters":6800,"station_id":"ce4bhk92rcd13ifvqgc0","pricing_plan_id":"cebpf4jnsgd1na2vs0mg"},{"bike_id":"1130922e-9ccc-463b-9207-aadecd794edb","system_id":"levelo_inurba_marseille","lat":43.32001,"lon":5.38163,"is_reserved":false,"is_disabled":true,"rental_uris":{"android":"levelo://app?vid=1130922e-9ccc-463b-9207-aadecd794edb","ios":"levelo://app?vid=1130922e-9ccc-463b-9207-aadecd794edb"},"vehicle_type_id":"4","last_reported":1744564068,"current_range_meters":6400,"station_id":"ce4bhr12rcd13ifvqhpg","pricing_plan_id":"cebpf4jnsgd1na2vs0mg"},{"bike_id":"c013d600-5e08-48f0-830e-8c965978436b","system_id":"levelo_inurba_marseille","lat":43.30457,"lon":5.38898,"is_reserved":false,"is_disabled":true,"rental_uris":{"android":"levelo://app?vid=c013d600-5e08-48f0-830e-8c965978436b","ios":"levelo://app?vid=c013d600-5e08-48f0-830e-8c965978436b"},"vehicle_type_id":"4","last_reported":1744564068,"current_range_meters":6400,"station_id":"ce4bgk12rcd13ifvqbi0","pricing_plan_id":"cebpf4jnsgd1na2vs0mg"},{"bike_id":"0fc3221c-4949-4bf2-98b7-f87d173b7a18","system_id":"levelo_inurba_marseille","lat":43.29261,"lon":5.40914,"is_reserved":false,"is_disabled":false,"rental_uris":{"android":"levelo://app?vid=0fc3221c-4949-4bf2-98b7-f87d173b7a18","ios":"levelo://app?vid=0fc3221c-4949-4bf2-98b7-f87d173b7a18"},"vehicle_type_id":"4","last_reported":1744564068,"current_range_meters":6000,"station_id":"ce4bh192rcd13ifvqdc0","pricing_plan_id":"cebpf4jnsgd1na2vs0mg"},{"bike_id":"b728cc3d-67a5-4f52-a85a-ea469caebb23","system_id":"levelo_inurba_marseille","lat":43.2903,"lon":5.38639,"is_reserved":false,"is_disabled":true,"rental_uris":{"android":"levelo://app?vid=b728cc3d-67a5-4f52-a85a-ea469caebb23","ios":"levelo://app?vid=b728cc3d-67a5-4f52-a85a-ea469caebb23"},"vehicle_type_id":"4","last_reported":1744564068,"current_range_meters":6400,"station_id":"ce4bh4p2rcd13ifvqe0g","pricing_plan_id":"cebpf4jnsgd1na2vs0mg"},{"bike_id":"d185f7a2-6136-496a-83f6-3acf32292f4c","system_id":"levelo_inurba_marseille","lat":43.29302,"lon":5.37184,"is_reserved":false,"is_disabled":true,"rental_uris":{"android":"levelo://app?vid=d185f7a2-6136-496a-83f6-3acf32292f4c","ios":"levelo://app?vid=d185f7a2-6136-496a-83f6-3acf32292f4c"},"vehicle_type_id":"4","last_reported":1744564068,"current_range_meters":6800,"station_id":"ce4bgh92rcd13ifvqb40","pricing_plan_id":"cebpf4jnsgd1na2vs0mg"},{"bike_id":"d8f603cd-3b83-4148-bab8-3a185ad2a59f","system_id":"levelo_inurba_marseille","lat":43.32416,"lon":5.3913,"is_reserved":false,"is_disabled":false,"rental_uris":{"android":"levelo://app?vid=d8f603cd-3b83-4148-bab8-3a185ad2a59f","ios":"levelo://app?vid=d8f603cd-3b83-4148-bab8-3a185ad2a59f"},"vehicle_type_id":"4","last_reported":1744564068,"current_range_meters":6800,"station_id":"","pricing_plan_id":"cebpf4jnsgd1na2vs0mg"},{"bike_id":"6a36e1be-2c5b-4782-ad82-295976c1b92f","system_id":"levelo_inurba_marseille","lat":43.27813,"lon":5.40715,"is_reserved":false,"is_disabled":false,"rental_uris":{"android":"levelo://app?vid=6a36e1be-2c5b-4782-ad82-295976c1b92f","ios":"levelo://app?vid=6a36e1be-2c5b-4782-ad82-295976c1b92f"},"vehicle_type_id":"4","last_reported":1744564068,"current_range_meters":6800,"station_id":"ce4bhnh2rcd13ifvqgtg","pricing_plan_id":"cebpf4jnsgd1na2vs0mg"},{"bike_id":"4a0973b0-92a0-41e8-9b0d-a99e944bafe0","system_id":"levelo_inurba_marseille","lat":43.34479,"lon":5.41286,"is_reserved":false,"is_disabled":false,"rental_uris":{"android":"levelo://app?vid=4a0973b0-92a0-41e8-9b0d-a99e944bafe0","ios":"levelo://app?vid=4a0973b0-92a0-41e8-9b0d-a99e944bafe0"},"vehicle_type_id":"4","last_reported":1744564068,"current_range_meters":7200,"station_id":"","pricing_plan_id":"cebpf4jnsgd1na2vs0mg"},{"bike_id":"1f6be261-82c4-4a04-bf9d-b88879150a4f","system_id":"levelo_inurba_marseille","lat":43.2781,"lon":5.40716,"is_reserved":false,"is_disabled":false,"rental_uris":{"android":"levelo://app?vid=1f6be261-82c4-4a04-bf9d-b88879150a4f","ios":"levelo://app?vid=1f6be261-82c4-4a04-bf9d-b88879150a4f"},"vehicle_type_id":"4","last_reported":1744564068,"current_range_meters":6800,"station_id":"ce4bhnh2rcd13ifvqgtg","pricing_plan_id":"cebpf4jnsgd1na2vs0mg"},{"bike_id":"5b77a833-8185-45c2-9fe3-07eb40df54ca","system_id":"levelo_inurba_marseille","lat":43.33995,"lon":5.38057,"is_reserved":false,"is_disabled":false,"rental_uris":{"android":"levelo://app?vid=5b77a833-8185-45c2-9fe3-07eb40df54ca","ios":"levelo://app?vid=5b77a833-8185-45c2-9fe3-07eb40df54ca"},"vehicle_type_id":"4","last_reported":1744564068,"current_range_meters":6800,"station_id":"","pricing_plan_id":"cebpf4jnsgd1na2vs0mg"},{"bike_id":"019576dd-4d5b-449f-bee3-6016e550c1da","system_id":"levelo_inurba_marseille","lat":43.30389,"lon":5.42505,"is_reserved":false,"is_disabled":false,"rental_uris":{"android":"levelo://app?vid=019576dd-4d5b-449f-bee3-6016e550c1da","ios":"levelo://app?vid=019576dd-4d5b-449f-bee3-6016e550c1da"},"vehicle_type_id":"4","last_reported":1744564068,"current_range_meters":7200,"station_id":"ce4bhoh2rcd13ifvqh6g","pricing_plan_id":"cebpf4jnsgd1na2vs0mg"},{"bike_id":"fc72173d-65ee-4dd9-872d-56407d6910fb","system_id":"levelo_inurba_marseille","lat":43.29536,"lon":5.38538,"is_reserved":false,"is_disabled":false,"rental_uris":{"android":"levelo://app?vid=fc72173d-65ee-4dd9-872d-56407d6910fb","ios":"levelo://app?vid=fc72173d-65ee-4dd9-872d-56407d6910fb"},"vehicle_type_id":"4","last_reported":1744564068,"current_range_meters":7200,"station_id":"ce4bgih2rcd13ifvqba0","pricing_plan_id":"cebpf4jnsgd1na2vs0mg"},{"bike_id":"86825189-9374-464b-bacc-841a99eac2d7","system_id":"levelo_inurba_marseille","lat":43.295081,"lon":5.375166,"is_reserved":false,"is_disabled":false,"rental_uris":{"android":"levelo://app?vid=86825189-9374-464b-bacc-841a99eac2d7","ios":"levelo://app?vid=86825189-9374-464b-bacc-841a99eac2d7"},"vehicle_type_id":"4","last_reported":1744564068,"current_range_meters":7200,"station_id":"ce4bgkp2rcd13ifvqbmg","pricing_plan_id":"cebpf4jnsgd1na2vs0mg"},{"bike_id":"abbb7d6d-8711-4e54-85b5-10ef42f41014","system_id":"levelo_inurba_marseille","lat":43.312216,"lon":5.368495,"is_reserved":false,"is_disabled":false,"rental_uris":{"android":"levelo://app?vid=abbb7d6d-8711-4e54-85b5-10ef42f41014","ios":"levelo://app?vid=abbb7d6d-8711-4e54-85b5-10ef42f41014"},"vehicle_type_id":"4","last_reported":1744564068,"current_range_meters":7200,"station_id":"ce4bgl92rcd13ifvqbq0","pricing_plan_id":"cebpf4jnsgd1na2vs0mg"},{"bike_id":"c8bc13bd-7854-4908-bd9b-3ba854825470","system_id":"levelo_inurba_marseille","lat":43.286691,"lon":5.386657,"is_reserved":false,"is_disabled":false,"rental_uris":{"android":"levelo://app?vid=c8bc13bd-7854-4908-bd9b-3ba854825470","ios":"levelo://app?vid=c8bc13bd-7854-4908-bd9b-3ba854825470"},"vehicle_type_id":"4","last_reported":1744564068,"current_range_meters":10000,"station_id":"ce4bh492rcd13ifvqdug","pricing_plan_id":"cebpf4jnsgd1na2vs0mg"},{"bike_id":"c2beed1d-6f4a-4898-8d0d-a15f11353eb8","system_id":"levelo_inurba_marseille","lat":43.2815,"lon":5.42651,"is_reserved":false,"is_disabled":false,"rental_uris":{"android":"levelo://app?vid=c2beed1d-6f4a-4898-8d0d-a15f11353eb8","ios":"levelo://app?vid=c2beed1d-6f4a-4898-8d0d-a15f11353eb8"},"vehicle_type_id":"4","last_reported":1744564068,"current_range_meters":7200,"station_id":"ce4bhnh2rcd13ifvqgug","pricing_plan_id":"cebpf4jnsgd1na2vs0mg"},{"bike_id":"d66109f0-0468-4c1d-94c3-e100435b1735","system_id":"levelo_inurba_marseille","lat":43.312703,"lon":5.368862,"is_reserved":false,"is_disabled":false,"rental_uris":{"android":"levelo://app?vid=d66109f0-0468-4c1d-94c3-e100435b1735","ios":"levelo://app?vid=d66109f0-0468-4c1d-94c3-e100435b1735"},"vehicle_type_id":"4","last_reported":1744564068,"current_range_meters":8000,"station_id":"","pricing_plan_id":"cebpf4jnsgd1na2vs0mg"},{"bike_id":"f7d1eee0-1715-419d-beac-1b98ec9e62ed","system_id":"levelo_inurba_marseille","lat":43.30949,"lon":5.39038,"is_reserved":false,"is_disabled":true,"rental_uris":{"android":"levelo://app?vid=f7d1eee0-1715-419d-beac-1b98ec9e62ed","ios":"levelo://app?vid=f7d1eee0-1715-419d-beac-1b98ec9e62ed"},"vehicle_type_id":"4","last_reported":1744564068,"current_range_meters":8000,"station_id":"ce4bgup2rcd13ifvqco0","pricing_plan_id":"cebpf4jnsgd1na2vs0mg"},{"bike_id":"ff029ecd-bca1-4a2e-b614-f53bb875ec56","system_id":"levelo_inurba_marseille","lat":43.27575,"lon":5.38414,"is_reserved":false,"is_disabled":false,"rental_uris":{"android":"levelo://app?vid=ff029ecd-bca1-4a2e-b614-f53bb875ec56","ios":"levelo://app?vid=ff029ecd-bca1-4a2e-b614-f53bb875ec56"},"vehicle_type_id":"4","last_reported":1744564068,"current_range_meters":8000,"station_id":"ce4bhh92rcd13ifvqfi0","pricing_plan_id":"cebpf4jnsgd1na2vs0mg"},{"bike_id":"493cde9e-7859-4c26-a2e6-f744ee5d8553","system_id":"levelo_inurba_marseille","lat":43.31806,"lon":5.36798,"is_reserved":false,"is_disabled":false,"rental_uris":{"android":"levelo://app?vid=493cde9e-7859-4c26-a2e6-f744ee5d8553","ios":"levelo://app?vid=493cde9e-7859-4c26-a2e6-f744ee5d8553"},"vehicle_type_id":"4","last_reported":1744564068,"current_range_meters":8000,"station_id":"","pricing_plan_id":"cebpf4jnsgd1na2vs0mg"},{"bike_id":"97c5290c-6dcd-4f81-953a-f5953018fa5b","system_id":"levelo_inurba_marseille","lat":43.31047,"lon":5.3755,"is_reserved":false,"is_disabled":false,"rental_uris":{"android":"levelo://app?vid=97c5290c-6dcd-4f81-953a-f5953018fa5b","ios":"levelo://app?vid=97c5290c-6dcd-4f81-953a-f5953018fa5b"},"vehicle_type_id":"4","last_reported":1744564068,"current_range_meters":8000,"station_id":"","pricing_plan_id":"cebpf4jnsgd1na2vs0mg"},{"bike_id":"43be8288-6cac-4733-b754-45a0725da88f","system_id":"levelo_inurba_marseille","lat":43.28042,"lon":5.36952,"is_reserved":false,"is_disabled":false,"rental_uris":{"android":"levelo://app?vid=43be8288-6cac-4733-b754-45a0725da88f","ios":"levelo://app?vid=43be8288-6cac-4733-b754-45a0725da88f"},"vehicle_type_id":"4","last_reported":1744564068,"current_range_meters":8000,"station_id":"ce4bha12rcd13ifvqef0","pricing_plan_id":"cebpf4jnsgd1na2vs0mg"},{"bike_id":"0e7bf4ae-5aed-4055-a1f8-96debbb9847e","system_id":"levelo_inurba_marseille","lat":43.24175,"lon":5.36406,"is_reserved":false,"is_disabled":false,"rental_uris":{"android":"levelo://app?vid=0e7bf4ae-5aed-4055-a1f8-96debbb9847e","ios":"levelo://app?vid=0e7bf4ae-5aed-4055-a1f8-96debbb9847e"},"vehicle_type_id":"4","last_reported":1744564068,"current_range_meters":8000,"station_id":"cpo36qri1sfpv3e86is0","pricing_plan_id":"cebpf4jnsgd1na2vs0mg"},{"bike_id":"2f5bc015-0a98-4a0d-a50f-f7181e1d6abe","system_id":"levelo_inurba_marseille","lat":43.23428,"lon":5.41256,"is_reserved":false,"is_disabled":false,"rental_uris":{"android":"levelo://app?vid=2f5bc015-0a98-4a0d-a50f-f7181e1d6abe","ios":"levelo://app?vid=2f5bc015-0a98-4a0d-a50f-f7181e1d6abe"},"vehicle_type_id":"4","last_reported":1744564068,"current_range_meters":8400,"station_id":"","pricing_plan_id":"cebpf4jnsgd1na2vs0mg"},{"bike_id":"0e807996-af1e-4a8d-801c-ca5520f4df40","system_id":"levelo_inurba_marseille","lat":43.28372,"lon":5.38634,"is_reserved":false,"is_disabled":false,"rental_uris":{"android":"levelo://app?vid=0e807996-af1e-4a8d-801c-ca5520f4df40","ios":"levelo://app?vid=0e807996-af1e-4a8d-801c-ca5520f4df40"},"vehicle_type_id":"4","last_reported":1744564068,"current_range_meters":8400,"station_id":"ce4bh492rcd13ifvqdvg","pricing_plan_id":"cebpf4jnsgd1na2vs0mg"},{"bike_id":"4f38e127-be9f-468e-8871-e9cd4f365dca","system_id":"levelo_inurba_marseille","lat":43.24699,"lon":5.41159,"is_reserved":false,"is_disabled":false,"rental_uris":{"android":"levelo://app?vid=4f38e127-be9f-468e-8871-e9cd4f365dca","ios":"levelo://app?vid=4f38e127-be9f-468e-8871-e9cd4f365dca"},"vehicle_type_id":"4","last_reported":1744564068,"current_range_meters":8400,"station_id":"","pricing_plan_id":"cebpf4jnsgd1na2vs0mg"},{"bike_id":"b7e965ff-4854-44fc-8e2a-103893462049","system_id":"levelo_inurba_marseille","lat":43.337444,"lon":5.374475,"is_reserved":false,"is_disabled":true,"rental_uris":{"android":"levelo://app?vid=b7e965ff-4854-44fc-8e2a-103893462049","ios":"levelo://app?vid=b7e965ff-4854-44fc-8e2a-103893462049"},"vehicle_type_id":"4","last_reported":1744564068,"current_range_meters":8400,"station_id":"","pricing_plan_id":"cebpf4jnsgd1na2vs0mg"},{"bike_id":"52ee9cf9-a1f4-4d32-b37e-22cc5eb5d2b9","system_id":"levelo_inurba_marseille","lat":43.31124,"lon":5.37758,"is_reserved":false,"is_disabled":false,"rental_uris":{"android":"levelo://app?vid=52ee9cf9-a1f4-4d32-b37e-22cc5eb5d2b9","ios":"levelo://app?vid=52ee9cf9-a1f4-4d32-b37e-22cc5eb5d2b9"},"vehicle_type_id":"4","last_reported":1744564068,"current_range_meters":8400,"station_id":"ce4bgt92rcd13ifvqcg0","pricing_plan_id":"cebpf4jnsgd1na2vs0mg"},{"bike_id":"30cc8b33-f5d2-402b-bc22-73b6e88b3714","system_id":"levelo_inurba_marseille","lat":43.24702,"lon":5.38126,"is_reserved":false,"is_disabled":false,"rental_uris":{"android":"levelo://app?vid=30cc8b33-f5d2-402b-bc22-73b6e88b3714","ios":"levelo://app?vid=30cc8b33-f5d2-402b-bc22-73b6e88b3714"},"vehicle_type_id":"4","last_reported":1744564068,"current_range_meters":8400,"station_id":"","pricing_plan_id":"cebpf4jnsgd1na2vs0mg"},{"bike_id":"f0abafdd-31c0-48c0-9415-1288246191e2","system_id":"levelo_inurba_marseille","lat":43.29264,"lon":5.38425,"is_reserved":false,"is_disabled":false,"rental_uris":{"android":"levelo://app?vid=f0abafdd-31c0-48c0-9415-1288246191e2","ios":"levelo://app?vid=f0abafdd-31c0-48c0-9415-1288246191e2"},"vehicle_type_id":"4","last_reported":1744564068,"current_range_meters":8400,"station_id":"ce4bh692rcd13ifvqea0","pricing_plan_id":"cebpf4jnsgd1na2vs0mg"},{"bike_id":"f7843f46-58aa-4cf6-a1d0-1b94b16f71c2","system_id":"levelo_inurba_marseille","lat":43.29853,"lon":5.39682,"is_reserved":false,"is_disabled":false,"rental_uris":{"android":"levelo://app?vid=f7843f46-58aa-4cf6-a1d0-1b94b16f71c2","ios":"levelo://app?vid=f7843f46-58aa-4cf6-a1d0-1b94b16f71c2"},"vehicle_type_id":"4","last_reported":1744564068,"current_range_meters":8800,"station_id":"ce4bh0h2rcd13ifvqd50","pricing_plan_id":"cebpf4jnsgd1na2vs0mg"},{"bike_id":"49ee7a2d-b87d-42ef-bdb3-cf1b5b3fae9b","system_id":"levelo_inurba_marseille","lat":43.241688,"lon":5.364004,"is_reserved":false,"is_disabled":false,"rental_uris":{"android":"levelo://app?vid=49ee7a2d-b87d-42ef-bdb3-cf1b5b3fae9b","ios":"levelo://app?vid=49ee7a2d-b87d-42ef-bdb3-cf1b5b3fae9b"},"vehicle_type_id":"4","last_reported":1744564068,"current_range_meters":8800,"station_id":"cpo36qri1sfpv3e86is0","pricing_plan_id":"cebpf4jnsgd1na2vs0mg"},{"bike_id":"d8882802-b017-4387-abb3-89a05ed51508","system_id":"levelo_inurba_marseille","lat":43.29958,"lon":5.4132,"is_reserved":false,"is_disabled":false,"rental_uris":{"android":"levelo://app?vid=d8882802-b017-4387-abb3-89a05ed51508","ios":"levelo://app?vid=d8882802-b017-4387-abb3-89a05ed51508"},"vehicle_type_id":"4","last_reported":1744564068,"current_range_meters":8800,"station_id":"ce4bhp12rcd13ifvqh9g","pricing_plan_id":"cebpf4jnsgd1na2vs0mg"},{"bike_id":"eef662bd-49fa-4185-a5f5-5664aa402854","system_id":"levelo_inurba_marseille","lat":43.22956,"lon":5.35371,"is_reserved":false,"is_disabled":false,"rental_uris":{"android":"levelo://app?vid=eef662bd-49fa-4185-a5f5-5664aa402854","ios":"levelo://app?vid=eef662bd-49fa-4185-a5f5-5664aa402854"},"vehicle_type_id":"4","last_reported":1744564068,"current_range_meters":8800,"station_id":"cpo3532slgdg3j2ikp40","pricing_plan_id":"cebpf4jnsgd1na2vs0mg"},{"bike_id":"998bf81d-ad9f-4ed4-abc9-e0d2ed6ed276","system_id":"levelo_inurba_marseille","lat":43.23187,"lon":5.35558,"is_reserved":false,"is_disabled":true,"rental_uris":{"android":"levelo://app?vid=998bf81d-ad9f-4ed4-abc9-e0d2ed6ed276","ios":"levelo://app?vid=998bf81d-ad9f-4ed4-abc9-e0d2ed6ed276"},"vehicle_type_id":"4","last_reported":1744564068,"current_range_meters":8800,"station_id":"ce4bhu92rcd13ifvqi70","pricing_plan_id":"cebpf4jnsgd1na2vs0mg"},{"bike_id":"878e4a10-3a5b-4afb-832d-d9790fb32131","system_id":"levelo_inurba_marseille","lat":43.28274,"lon":5.35061,"is_reserved":false,"is_disabled":false,"rental_uris":{"android":"levelo://app?vid=878e4a10-3a5b-4afb-832d-d9790fb32131","ios":"levelo://app?vid=878e4a10-3a5b-4afb-832d-d9790fb32131"},"vehicle_type_id":"4","last_reported":1744564068,"current_range_meters":9200,"station_id":"ce4bhbp2rcd13ifvqerg","pricing_plan_id":"cebpf4jnsgd1na2vs0mg"},{"bike_id":"76450c2c-888f-4d08-a5c0-d825237615aa","system_id":"levelo_inurba_marseille","lat":43.2724,"lon":5.42296,"is_reserved":false,"is_disabled":false,"rental_uris":{"android":"levelo://app?vid=76450c2c-888f-4d08-a5c0-d825237615aa","ios":"levelo://app?vid=76450c2c-888f-4d08-a5c0-d825237615aa"},"vehicle_type_id":"4","last_reported":1744564068,"current_range_meters":9200,"station_id":"","pricing_plan_id":"cebpf4jnsgd1na2vs0mg"},{"bike_id":"6e2ac28e-dfb7-46b8-8016-b7ae92b2a4f0","system_id":"levelo_inurba_marseille","lat":43.27992,"lon":5.40031,"is_reserved":false,"is_disabled":false,"rental_uris":{"android":"levelo://app?vid=6e2ac28e-dfb7-46b8-8016-b7ae92b2a4f0","ios":"levelo://app?vid=6e2ac28e-dfb7-46b8-8016-b7ae92b2a4f0"},"vehicle_type_id":"4","last_reported":1744564068,"current_range_meters":9200,"station_id":"ce4bho92rcd13ifvqh4g","pricing_plan_id":"cebpf4jnsgd1na2vs0mg"},{"bike_id":"0c30a5d7-82b9-4bb2-9032-224893c69d2f","system_id":"levelo_inurba_marseille","lat":43.26494,"lon":5.39579,"is_reserved":false,"is_disabled":true,"rental_uris":{"android":"levelo://app?vid=0c30a5d7-82b9-4bb2-9032-224893c69d2f","ios":"levelo://app?vid=0c30a5d7-82b9-4bb2-9032-224893c69d2f"},"vehicle_type_id":"4","last_reported":1744564068,"current_range_meters":9200,"station_id":"ce4bhi12rcd13ifvqfq0","pricing_plan_id":"cebpf4jnsgd1na2vs0mg"},{"bike_id":"2bb6b5da-a4a8-4544-9220-ce73d140bbc1","system_id":"levelo_inurba_marseille","lat":43.28441,"lon":5.39186,"is_reserved":false,"is_disabled":false,"rental_uris":{"android":"levelo://app?vid=2bb6b5da-a4a8-4544-9220-ce73d140bbc1","ios":"levelo://app?vid=2bb6b5da-a4a8-4544-9220-ce73d140bbc1"},"vehicle_type_id":"4","last_reported":1744564068,"current_range_meters":9200,"station_id":"ce4bhoh2rcd13ifvqh5g","pricing_plan_id":"cebpf4jnsgd1na2vs0mg"},{"bike_id":"6bec2495-4902-44c3-ae07-d8eded489e79","system_id":"levelo_inurba_marseille","lat":43.24804,"lon":5.37452,"is_reserved":false,"is_disabled":false,"rental_uris":{"android":"levelo://app?vid=6bec2495-4902-44c3-ae07-d8eded489e79","ios":"levelo://app?vid=6bec2495-4902-44c3-ae07-d8eded489e79"},"vehicle_type_id":"4","last_reported":1744564068,"current_range_meters":9200,"station_id":"ce4bhgh2rcd13ifvqfb0","pricing_plan_id":"cebpf4jnsgd1na2vs0mg"},{"bike_id":"ffd806a9-4ea8-4801-af6b-82557c693616","system_id":"levelo_inurba_marseille","lat":43.29092,"lon":5.38121,"is_reserved":false,"is_disabled":false,"rental_uris":{"android":"levelo://app?vid=ffd806a9-4ea8-4801-af6b-82557c693616","ios":"levelo://app?vid=ffd806a9-4ea8-4801-af6b-82557c693616"},"vehicle_type_id":"4","last_reported":1744564068,"current_range_meters":12000,"station_id":"ce4bh512rcd13ifvqe2g","pricing_plan_id":"cebpf4jnsgd1na2vs0mg"},{"bike_id":"c14a3d0e-03f7-430a-80a8-18644645ea89","system_id":"levelo_inurba_marseille","lat":43.32389,"lon":5.40719,"is_reserved":false,"is_disabled":false,"rental_uris":{"android":"levelo://app?vid=c14a3d0e-03f7-430a-80a8-18644645ea89","ios":"levelo://app?vid=c14a3d0e-03f7-430a-80a8-18644645ea89"},"vehicle_type_id":"4","last_reported":1744564068,"current_range_meters":9200,"station_id":"ce4bhq92rcd13ifvqhjg","pricing_plan_id":"cebpf4jnsgd1na2vs0mg"},{"bike_id":"f7cd819f-b752-47cc-848d-ff43c669ccb8","system_id":"levelo_inurba_marseille","lat":43.30984,"lon":5.41722,"is_reserved":false,"is_disabled":false,"rental_uris":{"android":"levelo://app?vid=f7cd819f-b752-47cc-848d-ff43c669ccb8","ios":"levelo://app?vid=f7cd819f-b752-47cc-848d-ff43c669ccb8"},"vehicle_type_id":"4","last_reported":1744564068,"current_range_meters":9600,"station_id":"","pricing_plan_id":"cebpf4jnsgd1na2vs0mg"},{"bike_id":"5f141aa8-12ce-4f1a-a780-25143a8dc6df","system_id":"levelo_inurba_marseille","lat":43.30417,"lon":5.41286,"is_reserved":false,"is_disabled":false,"rental_uris":{"android":"levelo://app?vid=5f141aa8-12ce-4f1a-a780-25143a8dc6df","ios":"levelo://app?vid=5f141aa8-12ce-4f1a-a780-25143a8dc6df"},"vehicle_type_id":"4","last_reported":1744564068,"current_range_meters":9600,"station_id":"ce4bhop2rcd13ifvqh8g","pricing_plan_id":"cebpf4jnsgd1na2vs0mg"},{"bike_id":"647ea8e5-6922-4aea-a920-10b0290dad47","system_id":"levelo_inurba_marseille","lat":43.29789,"lon":5.38103,"is_reserved":false,"is_disabled":false,"rental_uris":{"android":"levelo://app?vid=647ea8e5-6922-4aea-a920-10b0290dad47","ios":"levelo://app?vid=647ea8e5-6922-4aea-a920-10b0290dad47"},"vehicle_type_id":"4","last_reported":1744564068,"current_range_meters":9600,"station_id":"ce4bgip2rcd13ifvqbb0","pricing_plan_id":"cebpf4jnsgd1na2vs0mg"},{"bike_id":"a39772cc-b47d-49e9-a867-e8f165d3d3be","system_id":"levelo_inurba_marseille","lat":43.26952,"lon":5.3863,"is_reserved":false,"is_disabled":false,"rental_uris":{"android":"levelo://app?vid=a39772cc-b47d-49e9-a867-e8f165d3d3be","ios":"levelo://app?vid=a39772cc-b47d-49e9-a867-e8f165d3d3be"},"vehicle_type_id":"4","last_reported":1744564068,"current_range_meters":9600,"station_id":"ce4bhh92rcd13ifvqfh0","pricing_plan_id":"cebpf4jnsgd1na2vs0mg"},{"bike_id":"91fffdcd-2fa7-4f34-b242-95e7e93ac05b","system_id":"levelo_inurba_marseille","lat":43.26318,"lon":5.39775,"is_reserved":false,"is_disabled":false,"rental_uris":{"android":"levelo://app?vid=91fffdcd-2fa7-4f34-b242-95e7e93ac05b","ios":"levelo://app?vid=91fffdcd-2fa7-4f34-b242-95e7e93ac05b"},"vehicle_type_id":"4","last_reported":1744564068,"current_range_meters":9600,"station_id":"","pricing_plan_id":"cebpf4jnsgd1na2vs0mg"},{"bike_id":"36946fcf-e8ed-4ee9-b3ba-d37181d94256","system_id":"levelo_inurba_marseille","lat":43.29613,"lon":5.38092,"is_reserved":false,"is_disabled":false,"rental_uris":{"android":"levelo://app?vid=36946fcf-e8ed-4ee9-b3ba-d37181d94256","ios":"levelo://app?vid=36946fcf-e8ed-4ee9-b3ba-d37181d94256"},"vehicle_type_id":"4","last_reported":1744564068,"current_range_meters":9600,"station_id":"ce4bgl12rcd13ifvqbo0","pricing_plan_id":"cebpf4jnsgd1na2vs0mg"},{"bike_id":"82d38bd3-c046-4f55-aec8-4eb686f05e29","system_id":"levelo_inurba_marseille","lat":43.22922,"lon":5.35376,"is_reserved":false,"is_disabled":true,"rental_uris":{"android":"levelo://app?vid=82d38bd3-c046-4f55-aec8-4eb686f05e29","ios":"levelo://app?vid=82d38bd3-c046-4f55-aec8-4eb686f05e29"},"vehicle_type_id":"4","last_reported":1744564068,"current_range_meters":9600,"station_id":"cpo3532slgdg3j2ikp40","pricing_plan_id":"cebpf4jnsgd1na2vs0mg"},{"bike_id":"50cc96d1-87d3-4883-a58f-e2a5b6c765a4","system_id":"levelo_inurba_marseille","lat":43.28264,"lon":5.35065,"is_reserved":false,"is_disabled":false,"rental_uris":{"android":"levelo://app?vid=50cc96d1-87d3-4883-a58f-e2a5b6c765a4","ios":"levelo://app?vid=50cc96d1-87d3-4883-a58f-e2a5b6c765a4"},"vehicle_type_id":"4","last_reported":1744564068,"current_range_meters":9200,"station_id":"ce4bhbp2rcd13ifvqerg","pricing_plan_id":"cebpf4jnsgd1na2vs0mg"},{"bike_id":"4d49d7bf-c387-4802-8134-39419f66ab07","system_id":"levelo_inurba_marseille","lat":43.25095,"lon":5.39505,"is_reserved":false,"is_disabled":false,"rental_uris":{"android":"levelo://app?vid=4d49d7bf-c387-4802-8134-39419f66ab07","ios":"levelo://app?vid=4d49d7bf-c387-4802-8134-39419f66ab07"},"vehicle_type_id":"4","last_reported":1744564068,"current_range_meters":9600,"station_id":"ce4bhm12rcd13ifvqgkg","pricing_plan_id":"cebpf4jnsgd1na2vs0mg"},{"bike_id":"12aec038-db5e-4d5d-a5cf-e01dc2e28ea3","system_id":"levelo_inurba_marseille","lat":43.30116,"lon":5.40492,"is_reserved":false,"is_disabled":true,"rental_uris":{"android":"levelo://app?vid=12aec038-db5e-4d5d-a5cf-e01dc2e28ea3","ios":"levelo://app?vid=12aec038-db5e-4d5d-a5cf-e01dc2e28ea3"},"vehicle_type_id":"4","last_reported":1744564068,"current_range_meters":10000,"station_id":"","pricing_plan_id":"cebpf4jnsgd1na2vs0mg"},{"bike_id":"1578cdda-fa32-4486-ac62-617f457b0927","system_id":"levelo_inurba_marseille","lat":43.29002,"lon":5.35595,"is_reserved":false,"is_disabled":true,"rental_uris":{"android":"levelo://app?vid=1578cdda-fa32-4486-ac62-617f457b0927","ios":"levelo://app?vid=1578cdda-fa32-4486-ac62-617f457b0927"},"vehicle_type_id":"4","last_reported":1744564068,"current_range_meters":10000,"station_id":"ce4bhb92rcd13ifvqen0","pricing_plan_id":"cebpf4jnsgd1na2vs0mg"},{"bike_id":"28810d45-b6b5-4dcf-9d4a-96d0ffe5af80","system_id":"levelo_inurba_marseille","lat":43.29009,"lon":5.35613,"is_reserved":false,"is_disabled":false,"rental_uris":{"android":"levelo://app?vid=28810d45-b6b5-4dcf-9d4a-96d0ffe5af80","ios":"levelo://app?vid=28810d45-b6b5-4dcf-9d4a-96d0ffe5af80"},"vehicle_type_id":"4","last_reported":1744564068,"current_range_meters":3200,"station_id":"ce4bhb92rcd13ifvqen0","pricing_plan_id":"cebpf4jnsgd1na2vs0mg"},{"bike_id":"020e9999-d552-48d0-ae5f-b725af0dbea2","system_id":"levelo_inurba_marseille","lat":43.29909,"lon":5.43793,"is_reserved":false,"is_disabled":false,"rental_uris":{"android":"levelo://app?vid=020e9999-d552-48d0-ae5f-b725af0dbea2","ios":"levelo://app?vid=020e9999-d552-48d0-ae5f-b725af0dbea2"},"vehicle_type_id":"4","last_reported":1744564068,"current_range_meters":10000,"station_id":"","pricing_plan_id":"cebpf4jnsgd1na2vs0mg"},{"bike_id":"ac88e31d-9c9d-4a3a-8f47-e99ed560831c","system_id":"levelo_inurba_marseille","lat":43.31273,"lon":5.40167,"is_reserved":false,"is_disabled":false,"rental_uris":{"android":"levelo://app?vid=ac88e31d-9c9d-4a3a-8f47-e99ed560831c","ios":"levelo://app?vid=ac88e31d-9c9d-4a3a-8f47-e99ed560831c"},"vehicle_type_id":"4","last_reported":1744564068,"current_range_meters":10000,"station_id":"ce4bh092rcd13ifvqd30","pricing_plan_id":"cebpf4jnsgd1na2vs0mg"},{"bike_id":"a3bf51d9-08b7-458c-9b6d-ef5680cc95d6","system_id":"levelo_inurba_marseille","lat":43.21746,"lon":5.34601,"is_reserved":false,"is_disabled":true,"rental_uris":{"android":"levelo://app?vid=a3bf51d9-08b7-458c-9b6d-ef5680cc95d6","ios":"levelo://app?vid=a3bf51d9-08b7-458c-9b6d-ef5680cc95d6"},"vehicle_type_id":"4","last_reported":1744564068,"current_range_meters":10000,"station_id":"st_cvj6r9ubvosntc0bgbag","pricing_plan_id":"cebpf4jnsgd1na2vs0mg"},{"bike_id":"c630f77a-c4e4-4894-99a6-695037c4e498","system_id":"levelo_inurba_marseille","lat":43.28032,"lon":5.36961,"is_reserved":false,"is_disabled":false,"rental_uris":{"android":"levelo://app?vid=c630f77a-c4e4-4894-99a6-695037c4e498","ios":"levelo://app?vid=c630f77a-c4e4-4894-99a6-695037c4e498"},"vehicle_type_id":"4","last_reported":1744564068,"current_range_meters":14800,"station_id":"ce4bha12rcd13ifvqef0","pricing_plan_id":"cebpf4jnsgd1na2vs0mg"},{"bike_id":"efd328ca-f8bf-4550-bd94-c2fd75978f3c","system_id":"levelo_inurba_marseille","lat":43.33063,"lon":5.38091,"is_reserved":false,"is_disabled":false,"rental_uris":{"android":"levelo://app?vid=efd328ca-f8bf-4550-bd94-c2fd75978f3c","ios":"levelo://app?vid=efd328ca-f8bf-4550-bd94-c2fd75978f3c"},"vehicle_type_id":"4","last_reported":1744564068,"current_range_meters":10000,"station_id":"","pricing_plan_id":"cebpf4jnsgd1na2vs0mg"},{"bike_id":"e3033e51-0403-4e5c-9649-cc323385bf93","system_id":"levelo_inurba_marseille","lat":43.27491,"lon":5.42453,"is_reserved":false,"is_disabled":false,"rental_uris":{"android":"levelo://app?vid=e3033e51-0403-4e5c-9649-cc323385bf93","ios":"levelo://app?vid=e3033e51-0403-4e5c-9649-cc323385bf93"},"vehicle_type_id":"4","last_reported":1744564068,"current_range_meters":10800,"station_id":"ce4bhn92rcd13ifvqgrg","pricing_plan_id":"cebpf4jnsgd1na2vs0mg"},{"bike_id":"c70dc66c-d4a1-4e50-81d7-22e212eff3e3","system_id":"levelo_inurba_marseille","lat":43.24658,"lon":5.38151,"is_reserved":false,"is_disabled":false,"rental_uris":{"android":"levelo://app?vid=c70dc66c-d4a1-4e50-81d7-22e212eff3e3","ios":"levelo://app?vid=c70dc66c-d4a1-4e50-81d7-22e212eff3e3"},"vehicle_type_id":"4","last_reported":1744564068,"current_range_meters":11200,"station_id":"ce4bhih2rcd13ifvqfr0","pricing_plan_id":"cebpf4jnsgd1na2vs0mg"},{"bike_id":"5bd83869-317c-4f7d-93ed-182a084c5a24","system_id":"levelo_inurba_marseille","lat":43.2571,"lon":5.41129,"is_reserved":false,"is_disabled":false,"rental_uris":{"android":"levelo://app?vid=5bd83869-317c-4f7d-93ed-182a084c5a24","ios":"levelo://app?vid=5bd83869-317c-4f7d-93ed-182a084c5a24"},"vehicle_type_id":"4","last_reported":1744564068,"current_range_meters":10800,"station_id":"ce4bhkp2rcd13ifvqgd0","pricing_plan_id":"cebpf4jnsgd1na2vs0mg"},{"bike_id":"b55dd5e7-54b2-4035-b945-7b626dd7afc7","system_id":"levelo_inurba_marseille","lat":43.27558,"lon":5.40868,"is_reserved":false,"is_disabled":false,"rental_uris":{"android":"levelo://app?vid=b55dd5e7-54b2-4035-b945-7b626dd7afc7","ios":"levelo://app?vid=b55dd5e7-54b2-4035-b945-7b626dd7afc7"},"vehicle_type_id":"4","last_reported":1744564068,"current_range_meters":10800,"station_id":"","pricing_plan_id":"cebpf4jnsgd1na2vs0mg"},{"bike_id":"982bb1bc-457f-43d7-ae21-85035c856353","system_id":"levelo_inurba_marseille","lat":43.22503,"lon":5.34761,"is_reserved":false,"is_disabled":true,"rental_uris":{"android":"levelo://app?vid=982bb1bc-457f-43d7-ae21-85035c856353","ios":"levelo://app?vid=982bb1bc-457f-43d7-ae21-85035c856353"},"vehicle_type_id":"4","last_reported":1744564068,"current_range_meters":10800,"station_id":"st_cvj5dfep6f1abm77gieg","pricing_plan_id":"cebpf4jnsgd1na2vs0mg"},{"bike_id":"0715be5d-6deb-4d46-8f4f-738975fc02ae","system_id":"levelo_inurba_marseille","lat":43.28383,"lon":5.38646,"is_reserved":false,"is_disabled":false,"rental_uris":{"android":"levelo://app?vid=0715be5d-6deb-4d46-8f4f-738975fc02ae","ios":"levelo://app?vid=0715be5d-6deb-4d46-8f4f-738975fc02ae"},"vehicle_type_id":"4","last_reported":1744564068,"current_range_meters":12800,"station_id":"ce4bh492rcd13ifvqdvg","pricing_plan_id":"cebpf4jnsgd1na2vs0mg"},{"bike_id":"73bbc97d-2b39-4276-bc22-fd7aa78f429c","system_id":"levelo_inurba_marseille","lat":43.29903,"lon":5.43656,"is_reserved":false,"is_disabled":false,"rental_uris":{"android":"levelo://app?vid=73bbc97d-2b39-4276-bc22-fd7aa78f429c","ios":"levelo://app?vid=73bbc97d-2b39-4276-bc22-fd7aa78f429c"},"vehicle_type_id":"4","last_reported":1744564068,"current_range_meters":10800,"station_id":"ce4bhpp2rcd13ifvqhfg","pricing_plan_id":"cebpf4jnsgd1na2vs0mg"},{"bike_id":"71d758d9-e1f9-440e-be18-d9a62c8ebcd3","system_id":"levelo_inurba_marseille","lat":43.2792,"lon":5.39579,"is_reserved":false,"is_disabled":false,"rental_uris":{"android":"levelo://app?vid=71d758d9-e1f9-440e-be18-d9a62c8ebcd3","ios":"levelo://app?vid=71d758d9-e1f9-440e-be18-d9a62c8ebcd3"},"vehicle_type_id":"4","last_reported":1744564068,"current_range_meters":10800,"station_id":"ce4bhf92rcd13ifvqf40","pricing_plan_id":"cebpf4jnsgd1na2vs0mg"},{"bike_id":"82a29ea2-c9af-4d0a-b4df-56c9dc8b8340","system_id":"levelo_inurba_marseille","lat":43.31709,"lon":5.43716,"is_reserved":false,"is_disabled":false,"rental_uris":{"android":"levelo://app?vid=82a29ea2-c9af-4d0a-b4df-56c9dc8b8340","ios":"levelo://app?vid=82a29ea2-c9af-4d0a-b4df-56c9dc8b8340"},"vehicle_type_id":"4","last_reported":1744564068,"current_range_meters":10800,"station_id":"ce4bhp92rcd13ifvqhcg","pricing_plan_id":"cebpf4jnsgd1na2vs0mg"},{"bike_id":"bb035562-0d08-4b52-a81a-3649fd2bad87","system_id":"levelo_inurba_marseille","lat":43.2409,"lon":5.37736,"is_reserved":false,"is_disabled":false,"rental_uris":{"android":"levelo://app?vid=bb035562-0d08-4b52-a81a-3649fd2bad87","ios":"levelo://app?vid=bb035562-0d08-4b52-a81a-3649fd2bad87"},"vehicle_type_id":"4","last_reported":1744564068,"current_range_meters":10800,"station_id":"ce4bhnp2rcd13ifvqgvg","pricing_plan_id":"cebpf4jnsgd1na2vs0mg"},{"bike_id":"4bbe6e48-9bfa-4dec-aab0-5597477f7da1","system_id":"levelo_inurba_marseille","lat":43.32412,"lon":5.39141,"is_reserved":false,"is_disabled":false,"rental_uris":{"android":"levelo://app?vid=4bbe6e48-9bfa-4dec-aab0-5597477f7da1","ios":"levelo://app?vid=4bbe6e48-9bfa-4dec-aab0-5597477f7da1"},"vehicle_type_id":"4","last_reported":1744564068,"current_range_meters":10800,"station_id":"","pricing_plan_id":"cebpf4jnsgd1na2vs0mg"},{"bike_id":"55495987-2443-43d2-8ae8-9127d46d44ee","system_id":"levelo_inurba_marseille","lat":43.3015,"lon":5.37409,"is_reserved":false,"is_disabled":false,"rental_uris":{"android":"levelo://app?vid=55495987-2443-43d2-8ae8-9127d46d44ee","ios":"levelo://app?vid=55495987-2443-43d2-8ae8-9127d46d44ee"},"vehicle_type_id":"4","last_reported":1744564068,"current_range_meters":11200,"station_id":"ce4bgs92rcd13ifvqcc0","pricing_plan_id":"cebpf4jnsgd1na2vs0mg"},{"bike_id":"2324a8f3-ef45-48af-92df-af37bc4c5102","system_id":"levelo_inurba_marseille","lat":43.293762,"lon":5.378509,"is_reserved":false,"is_disabled":false,"rental_uris":{"android":"levelo://app?vid=2324a8f3-ef45-48af-92df-af37bc4c5102","ios":"levelo://app?vid=2324a8f3-ef45-48af-92df-af37bc4c5102"},"vehicle_type_id":"4","last_reported":1744564068,"current_range_meters":11200,"station_id":"ce4bgop2rcd13ifvqc1g","pricing_plan_id":"cebpf4jnsgd1na2vs0mg"},{"bike_id":"d8b9884b-4022-4710-9f87-50e0dbfd421d","system_id":"levelo_inurba_marseille","lat":43.241708,"lon":5.363904,"is_reserved":false,"is_disabled":false,"rental_uris":{"android":"levelo://app?vid=d8b9884b-4022-4710-9f87-50e0dbfd421d","ios":"levelo://app?vid=d8b9884b-4022-4710-9f87-50e0dbfd421d"},"vehicle_type_id":"4","last_reported":1744564068,"current_range_meters":11200,"station_id":"cpo36qri1sfpv3e86is0","pricing_plan_id":"cebpf4jnsgd1na2vs0mg"},{"bike_id":"d49ed5f3-63dd-41d8-a7c3-7b7860b035b1","system_id":"levelo_inurba_marseille","lat":43.24848,"lon":5.37471,"is_reserved":false,"is_disabled":true,"rental_uris":{"android":"levelo://app?vid=d49ed5f3-63dd-41d8-a7c3-7b7860b035b1","ios":"levelo://app?vid=d49ed5f3-63dd-41d8-a7c3-7b7860b035b1"},"vehicle_type_id":"4","last_reported":1744564068,"current_range_meters":11200,"station_id":"ce4bhgh2rcd13ifvqfb0","pricing_plan_id":"cebpf4jnsgd1na2vs0mg"},{"bike_id":"5591936e-ca63-41c7-89f3-9c9493c86f89","system_id":"levelo_inurba_marseille","lat":43.241736,"lon":5.363975,"is_reserved":false,"is_disabled":false,"rental_uris":{"android":"levelo://app?vid=5591936e-ca63-41c7-89f3-9c9493c86f89","ios":"levelo://app?vid=5591936e-ca63-41c7-89f3-9c9493c86f89"},"vehicle_type_id":"4","last_reported":1744564068,"current_range_meters":11600,"station_id":"cpo36qri1sfpv3e86is0","pricing_plan_id":"cebpf4jnsgd1na2vs0mg"},{"bike_id":"dc6aad21-ae61-4621-9ef0-c9bd2b9caa5a","system_id":"levelo_inurba_marseille","lat":43.22502,"lon":5.34782,"is_reserved":false,"is_disabled":false,"rental_uris":{"android":"levelo://app?vid=dc6aad21-ae61-4621-9ef0-c9bd2b9caa5a","ios":"levelo://app?vid=dc6aad21-ae61-4621-9ef0-c9bd2b9caa5a"},"vehicle_type_id":"4","last_reported":1744564068,"current_range_meters":11200,"station_id":"st_cvj5dfep6f1abm77gieg","pricing_plan_id":"cebpf4jnsgd1na2vs0mg"},{"bike_id":"57be3e98-9cbb-4096-b924-9a7ce8e7678a","system_id":"levelo_inurba_marseille","lat":43.255066,"lon":5.376544,"is_reserved":false,"is_disabled":false,"rental_uris":{"android":"levelo://app?vid=57be3e98-9cbb-4096-b924-9a7ce8e7678a","ios":"levelo://app?vid=57be3e98-9cbb-4096-b924-9a7ce8e7678a"},"vehicle_type_id":"4","last_reported":1744564068,"current_range_meters":14400,"station_id":"ce4bgl92rcd13ifvqbq0","pricing_plan_id":"cebpf4jnsgd1na2vs0mg"},{"bike_id":"578ed75c-ac7c-4cce-a91d-84ec0beb45a3","system_id":"levelo_inurba_marseille","lat":43.32685,"lon":5.41022,"is_reserved":false,"is_disabled":false,"rental_uris":{"android":"levelo://app?vid=578ed75c-ac7c-4cce-a91d-84ec0beb45a3","ios":"levelo://app?vid=578ed75c-ac7c-4cce-a91d-84ec0beb45a3"},"vehicle_type_id":"4","last_reported":1744564068,"current_range_meters":11600,"station_id":"ce4bhpp2rcd13ifvqhgg","pricing_plan_id":"cebpf4jnsgd1na2vs0mg"},{"bike_id":"36e38036-f767-4b78-bdb4-ad91dc519fe6","system_id":"levelo_inurba_marseille","lat":43.26933,"lon":5.40269,"is_reserved":false,"is_disabled":false,"rental_uris":{"android":"levelo://app?vid=36e38036-f767-4b78-bdb4-ad91dc519fe6","ios":"levelo://app?vid=36e38036-f767-4b78-bdb4-ad91dc519fe6"},"vehicle_type_id":"4","last_reported":1744564068,"current_range_meters":11600,"station_id":"cjm6bp8fraef2m0cb0m0","pricing_plan_id":"cebpf4jnsgd1na2vs0mg"},{"bike_id":"670350e7-8b16-4095-8222-1a9ab089eb5a","system_id":"levelo_inurba_marseille","lat":43.27942,"lon":5.41046,"is_reserved":false,"is_disabled":false,"rental_uris":{"android":"levelo://app?vid=670350e7-8b16-4095-8222-1a9ab089eb5a","ios":"levelo://app?vid=670350e7-8b16-4095-8222-1a9ab089eb5a"},"vehicle_type_id":"4","last_reported":1744564068,"current_range_meters":11600,"station_id":"ce4bhnp2rcd13ifvqh0g","pricing_plan_id":"cebpf4jnsgd1na2vs0mg"},{"bike_id":"f0c42fab-e412-4214-817b-6df9af2b69bd","system_id":"levelo_inurba_marseille","lat":43.2706,"lon":5.40276,"is_reserved":false,"is_disabled":false,"rental_uris":{"android":"levelo://app?vid=f0c42fab-e412-4214-817b-6df9af2b69bd","ios":"levelo://app?vid=f0c42fab-e412-4214-817b-6df9af2b69bd"},"vehicle_type_id":"4","last_reported":1744564068,"current_range_meters":11600,"station_id":"ce4bhk92rcd13ifvqgc0","pricing_plan_id":"cebpf4jnsgd1na2vs0mg"},{"bike_id":"eeecd2fe-6254-4002-abf4-dbb4c5b284dc","system_id":"levelo_inurba_marseille","lat":43.27959,"lon":5.41665,"is_reserved":false,"is_disabled":true,"rental_uris":{"android":"levelo://app?vid=eeecd2fe-6254-4002-abf4-dbb4c5b284dc","ios":"levelo://app?vid=eeecd2fe-6254-4002-abf4-dbb4c5b284dc"},"vehicle_type_id":"4","last_reported":1744564068,"current_range_meters":12000,"station_id":"ce4bho12rcd13ifvqh1g","pricing_plan_id":"cebpf4jnsgd1na2vs0mg"},{"bike_id":"5e120263-75d5-4027-bdcc-a11e2bb1686a","system_id":"levelo_inurba_marseille","lat":43.30293,"lon":5.36891,"is_reserved":false,"is_disabled":false,"rental_uris":{"android":"levelo://app?vid=5e120263-75d5-4027-bdcc-a11e2bb1686a","ios":"levelo://app?vid=5e120263-75d5-4027-bdcc-a11e2bb1686a"},"vehicle_type_id":"4","last_reported":1744564068,"current_range_meters":12000,"station_id":"ce4bgqh2rcd13ifvqc5g","pricing_plan_id":"cebpf4jnsgd1na2vs0mg"},{"bike_id":"c9f46d3e-c63c-4e05-915e-856fac3e615f","system_id":"levelo_inurba_marseille","lat":43.2997,"lon":5.38497,"is_reserved":false,"is_disabled":false,"rental_uris":{"android":"levelo://app?vid=c9f46d3e-c63c-4e05-915e-856fac3e615f","ios":"levelo://app?vid=c9f46d3e-c63c-4e05-915e-856fac3e615f"},"vehicle_type_id":"4","last_reported":1744564068,"current_range_meters":12000,"station_id":"ce4bgj92rcd13ifvqbd0","pricing_plan_id":"cebpf4jnsgd1na2vs0mg"},{"bike_id":"4d874086-2615-45ee-92bb-518b7ad00a4d","system_id":"levelo_inurba_marseille","lat":43.30943,"lon":5.39029,"is_reserved":false,"is_disabled":true,"rental_uris":{"android":"levelo://app?vid=4d874086-2615-45ee-92bb-518b7ad00a4d","ios":"levelo://app?vid=4d874086-2615-45ee-92bb-518b7ad00a4d"},"vehicle_type_id":"4","last_reported":1744564068,"current_range_meters":12000,"station_id":"ce4bgup2rcd13ifvqco0","pricing_plan_id":"cebpf4jnsgd1na2vs0mg"},{"bike_id":"4308b492-75fc-4e59-85e1-eb5f4c41b29f","system_id":"levelo_inurba_marseille","lat":43.32344,"lon":5.40626,"is_reserved":false,"is_disabled":false,"rental_uris":{"android":"levelo://app?vid=4308b492-75fc-4e59-85e1-eb5f4c41b29f","ios":"levelo://app?vid=4308b492-75fc-4e59-85e1-eb5f4c41b29f"},"vehicle_type_id":"4","last_reported":1744564068,"current_range_meters":12000,"station_id":"ce4bhq92rcd13ifvqhjg","pricing_plan_id":"cebpf4jnsgd1na2vs0mg"},{"bike_id":"7a9e84dd-004f-43d7-98dd-bb6c45f56716","system_id":"levelo_inurba_marseille","lat":43.32663,"lon":5.40992,"is_reserved":false,"is_disabled":false,"rental_uris":{"android":"levelo://app?vid=7a9e84dd-004f-43d7-98dd-bb6c45f56716","ios":"levelo://app?vid=7a9e84dd-004f-43d7-98dd-bb6c45f56716"},"vehicle_type_id":"4","last_reported":1744564068,"current_range_meters":12000,"station_id":"ce4bhpp2rcd13ifvqhgg","pricing_plan_id":"cebpf4jnsgd1na2vs0mg"},{"bike_id":"cec9fed2-74bc-4f07-a628-035c465b00b6","system_id":"levelo_inurba_marseille","lat":43.24189,"lon":5.39738,"is_reserved":false,"is_disabled":false,"rental_uris":{"android":"levelo://app?vid=cec9fed2-74bc-4f07-a628-035c465b00b6","ios":"levelo://app?vid=cec9fed2-74bc-4f07-a628-035c465b00b6"},"vehicle_type_id":"4","last_reported":1744564068,"current_range_meters":12000,"station_id":"ce4bhn12rcd13ifvqgpg","pricing_plan_id":"cebpf4jnsgd1na2vs0mg"},{"bike_id":"239b457a-7da8-49b2-9197-3c47133b2b7d","system_id":"levelo_inurba_marseille","lat":43.29036,"lon":5.39971,"is_reserved":false,"is_disabled":true,"rental_uris":{"android":"levelo://app?vid=239b457a-7da8-49b2-9197-3c47133b2b7d","ios":"levelo://app?vid=239b457a-7da8-49b2-9197-3c47133b2b7d"},"vehicle_type_id":"4","last_reported":1744564068,"current_range_meters":12000,"station_id":"ce4bh392rcd13ifvqdm0","pricing_plan_id":"cebpf4jnsgd1na2vs0mg"},{"bike_id":"641d9b5e-3f1e-4633-8b5f-b811ed2b7da4","system_id":"levelo_inurba_marseille","lat":43.286903,"lon":5.373809,"is_reserved":false,"is_disabled":false,"rental_uris":{"android":"levelo://app?vid=641d9b5e-3f1e-4633-8b5f-b811ed2b7da4","ios":"levelo://app?vid=641d9b5e-3f1e-4633-8b5f-b811ed2b7da4"},"vehicle_type_id":"4","last_reported":1744564068,"current_range_meters":12000,"station_id":"ce4bh3p2rcd13ifvqdq0","pricing_plan_id":"cebpf4jnsgd1na2vs0mg"},{"bike_id":"73905670-6672-4dc0-933c-231ca8769af6","system_id":"levelo_inurba_marseille","lat":43.26932,"lon":5.4026,"is_reserved":false,"is_disabled":false,"rental_uris":{"android":"levelo://app?vid=73905670-6672-4dc0-933c-231ca8769af6","ios":"levelo://app?vid=73905670-6672-4dc0-933c-231ca8769af6"},"vehicle_type_id":"4","last_reported":1744564068,"current_range_meters":12400,"station_id":"cjm6bp8fraef2m0cb0m0","pricing_plan_id":"cebpf4jnsgd1na2vs0mg"},{"bike_id":"84e1de95-1d8e-4ac7-aebe-64f93a12df3a","system_id":"levelo_inurba_marseille","lat":43.31536,"lon":5.38021,"is_reserved":false,"is_disabled":false,"rental_uris":{"android":"levelo://app?vid=84e1de95-1d8e-4ac7-aebe-64f93a12df3a","ios":"levelo://app?vid=84e1de95-1d8e-4ac7-aebe-64f93a12df3a"},"vehicle_type_id":"4","last_reported":1744564068,"current_range_meters":12400,"station_id":"ce4bhsp2rcd13ifvqi50","pricing_plan_id":"cebpf4jnsgd1na2vs0mg"},{"bike_id":"d7a1af26-2e79-4cdc-a443-1ec7881b3017","system_id":"levelo_inurba_marseille","lat":43.29833,"lon":5.36282,"is_reserved":false,"is_disabled":false,"rental_uris":{"android":"levelo://app?vid=d7a1af26-2e79-4cdc-a443-1ec7881b3017","ios":"levelo://app?vid=d7a1af26-2e79-4cdc-a443-1ec7881b3017"},"vehicle_type_id":"4","last_reported":1744564068,"current_range_meters":12400,"station_id":"ce4bgpp2rcd13ifvqc3g","pricing_plan_id":"cebpf4jnsgd1na2vs0mg"},{"bike_id":"4becb65c-ee5c-4170-97bf-48861f49b98f","system_id":"levelo_inurba_marseille","lat":43.28708,"lon":5.37388,"is_reserved":false,"is_disabled":false,"rental_uris":{"android":"levelo://app?vid=4becb65c-ee5c-4170-97bf-48861f49b98f","ios":"levelo://app?vid=4becb65c-ee5c-4170-97bf-48861f49b98f"},"vehicle_type_id":"4","last_reported":1744564068,"current_range_meters":12400,"station_id":"ce4bh3p2rcd13ifvqdq0","pricing_plan_id":"cebpf4jnsgd1na2vs0mg"},{"bike_id":"114e524a-8e04-4f7f-97f3-1b140c248ad3","system_id":"levelo_inurba_marseille","lat":43.29258,"lon":5.36747,"is_reserved":false,"is_disabled":false,"rental_uris":{"android":"levelo://app?vid=114e524a-8e04-4f7f-97f3-1b140c248ad3","ios":"levelo://app?vid=114e524a-8e04-4f7f-97f3-1b140c248ad3"},"vehicle_type_id":"4","last_reported":1744564068,"current_range_meters":12800,"station_id":"","pricing_plan_id":"cebpf4jnsgd1na2vs0mg"},{"bike_id":"482d0109-0e17-4c57-b51d-942b343a12ac","system_id":"levelo_inurba_marseille","lat":43.30549,"lon":5.38433,"is_reserved":false,"is_disabled":false,"rental_uris":{"android":"levelo://app?vid=482d0109-0e17-4c57-b51d-942b343a12ac","ios":"levelo://app?vid=482d0109-0e17-4c57-b51d-942b343a12ac"},"vehicle_type_id":"4","last_reported":1744564068,"current_range_meters":12800,"station_id":"ce4bgg92rcd13ifvqb30","pricing_plan_id":"cebpf4jnsgd1na2vs0mg"},{"bike_id":"394a4f49-7881-4296-ae54-c1b75e4fa84f","system_id":"levelo_inurba_marseille","lat":43.27829,"lon":5.39216,"is_reserved":false,"is_disabled":false,"rental_uris":{"android":"levelo://app?vid=394a4f49-7881-4296-ae54-c1b75e4fa84f","ios":"levelo://app?vid=394a4f49-7881-4296-ae54-c1b75e4fa84f"},"vehicle_type_id":"4","last_reported":1744564068,"current_range_meters":12400,"station_id":"ce4bhjp2rcd13ifvqga0","pricing_plan_id":"cebpf4jnsgd1na2vs0mg"},{"bike_id":"6a003e47-a1cc-4c38-b762-6e37af426d05","system_id":"levelo_inurba_marseille","lat":43.32373,"lon":5.36757,"is_reserved":false,"is_disabled":false,"rental_uris":{"android":"levelo://app?vid=6a003e47-a1cc-4c38-b762-6e37af426d05","ios":"levelo://app?vid=6a003e47-a1cc-4c38-b762-6e37af426d05"},"vehicle_type_id":"4","last_reported":1744564068,"current_range_meters":12800,"station_id":"ce4bhsh2rcd13ifvqi2g","pricing_plan_id":"cebpf4jnsgd1na2vs0mg"},{"bike_id":"c7026c90-e159-49ca-aec1-fbb14b5f8710","system_id":"levelo_inurba_marseille","lat":43.29379,"lon":5.37844,"is_reserved":false,"is_disabled":false,"rental_uris":{"android":"levelo://app?vid=c7026c90-e159-49ca-aec1-fbb14b5f8710","ios":"levelo://app?vid=c7026c90-e159-49ca-aec1-fbb14b5f8710"},"vehicle_type_id":"4","last_reported":1744564068,"current_range_meters":12800,"station_id":"ce4bgjh2rcd13ifvqbf0","pricing_plan_id":"cebpf4jnsgd1na2vs0mg"},{"bike_id":"3468da11-b552-430d-b07b-9e8a785eafd9","system_id":"levelo_inurba_marseille","lat":43.29924,"lon":5.36555,"is_reserved":false,"is_disabled":false,"rental_uris":{"android":"levelo://app?vid=3468da11-b552-430d-b07b-9e8a785eafd9","ios":"levelo://app?vid=3468da11-b552-430d-b07b-9e8a785eafd9"},"vehicle_type_id":"4","last_reported":1744564068,"current_range_meters":12800,"station_id":"ce4bgm92rcd13ifvqbr0","pricing_plan_id":"cebpf4jnsgd1na2vs0mg"},{"bike_id":"ba0617bc-a737-4e7c-be8e-b25cef28a43b","system_id":"levelo_inurba_marseille","lat":43.30317,"lon":5.40447,"is_reserved":false,"is_disabled":false,"rental_uris":{"android":"levelo://app?vid=ba0617bc-a737-4e7c-be8e-b25cef28a43b","ios":"levelo://app?vid=ba0617bc-a737-4e7c-be8e-b25cef28a43b"},"vehicle_type_id":"4","last_reported":1744564068,"current_range_meters":13600,"station_id":"ce4bh012rcd13ifvqd10","pricing_plan_id":"cebpf4jnsgd1na2vs0mg"},{"bike_id":"cb918d5b-8793-4d93-bf83-5042608ad86c","system_id":"levelo_inurba_marseille","lat":43.33195,"lon":5.39568,"is_reserved":false,"is_disabled":false,"rental_uris":{"android":"levelo://app?vid=cb918d5b-8793-4d93-bf83-5042608ad86c","ios":"levelo://app?vid=cb918d5b-8793-4d93-bf83-5042608ad86c"},"vehicle_type_id":"4","last_reported":1744564068,"current_range_meters":13600,"station_id":"","pricing_plan_id":"cebpf4jnsgd1na2vs0mg"},{"bike_id":"fc8e8165-f38e-4490-95a5-d03625d6bb52","system_id":"levelo_inurba_marseille","lat":43.30424,"lon":5.38892,"is_reserved":false,"is_disabled":false,"rental_uris":{"android":"levelo://app?vid=fc8e8165-f38e-4490-95a5-d03625d6bb52","ios":"levelo://app?vid=fc8e8165-f38e-4490-95a5-d03625d6bb52"},"vehicle_type_id":"4","last_reported":1744564068,"current_range_meters":13600,"station_id":"ce4bgk12rcd13ifvqbi0","pricing_plan_id":"cebpf4jnsgd1na2vs0mg"},{"bike_id":"d9214e74-30ad-45b9-bf16-f3f0709b1cbf","system_id":"levelo_inurba_marseille","lat":43.23204,"lon":5.35544,"is_reserved":false,"is_disabled":false,"rental_uris":{"android":"levelo://app?vid=d9214e74-30ad-45b9-bf16-f3f0709b1cbf","ios":"levelo://app?vid=d9214e74-30ad-45b9-bf16-f3f0709b1cbf"},"vehicle_type_id":"4","last_reported":1744564068,"current_range_meters":14000,"station_id":"ce4bhu92rcd13ifvqi70","pricing_plan_id":"cebpf4jnsgd1na2vs0mg"},{"bike_id":"8e5eef57-7a88-4cfc-ba39-56723ead3c28","system_id":"levelo_inurba_marseille","lat":43.30255,"lon":5.40074,"is_reserved":false,"is_disabled":false,"rental_uris":{"android":"levelo://app?vid=8e5eef57-7a88-4cfc-ba39-56723ead3c28","ios":"levelo://app?vid=8e5eef57-7a88-4cfc-ba39-56723ead3c28"},"vehicle_type_id":"4","last_reported":1744564068,"current_range_meters":14000,"station_id":"ce4bgvh2rcd13ifvqcs0","pricing_plan_id":"cebpf4jnsgd1na2vs0mg"},{"bike_id":"c5de9f04-a68c-4314-9995-789e3d717983","system_id":"levelo_inurba_marseille","lat":43.24442,"lon":5.37087,"is_reserved":false,"is_disabled":true,"rental_uris":{"android":"levelo://app?vid=c5de9f04-a68c-4314-9995-789e3d717983","ios":"levelo://app?vid=c5de9f04-a68c-4314-9995-789e3d717983"},"vehicle_type_id":"4","last_reported":1744564068,"current_range_meters":14000,"station_id":"","pricing_plan_id":"cebpf4jnsgd1na2vs0mg"},{"bike_id":"7fc46cb5-b979-4dbf-aadc-200bbef28d10","system_id":"levelo_inurba_marseille","lat":43.30554,"lon":5.3656,"is_reserved":false,"is_disabled":false,"rental_uris":{"android":"levelo://app?vid=7fc46cb5-b979-4dbf-aadc-200bbef28d10","ios":"levelo://app?vid=7fc46cb5-b979-4dbf-aadc-200bbef28d10"},"vehicle_type_id":"4","last_reported":1744564068,"current_range_meters":14000,"station_id":"ce4bgs12rcd13ifvqcag","pricing_plan_id":"cebpf4jnsgd1na2vs0mg"},{"bike_id":"2d7e058e-ea5e-4e2d-9414-2241dd0c280b","system_id":"levelo_inurba_marseille","lat":43.28036,"lon":5.36945,"is_reserved":false,"is_disabled":false,"rental_uris":{"android":"levelo://app?vid=2d7e058e-ea5e-4e2d-9414-2241dd0c280b","ios":"levelo://app?vid=2d7e058e-ea5e-4e2d-9414-2241dd0c280b"},"vehicle_type_id":"4","last_reported":1744564068,"current_range_meters":14000,"station_id":"ce4bha12rcd13ifvqef0","pricing_plan_id":"cebpf4jnsgd1na2vs0mg"},{"bike_id":"fbcffd98-9af3-437e-a238-670cf1dcb555","system_id":"levelo_inurba_marseille","lat":43.289534,"lon":5.366457,"is_reserved":false,"is_disabled":true,"rental_uris":{"android":"levelo://app?vid=fbcffd98-9af3-437e-a238-670cf1dcb555","ios":"levelo://app?vid=fbcffd98-9af3-437e-a238-670cf1dcb555"},"vehicle_type_id":"4","last_reported":1744564068,"current_range_meters":14000,"station_id":"ce4bhap2rcd13ifvqek0","pricing_plan_id":"cebpf4jnsgd1na2vs0mg"},{"bike_id":"0d05b4e3-3732-447b-9281-ac594bb4184d","system_id":"levelo_inurba_marseille","lat":43.31231,"lon":5.36853,"is_reserved":false,"is_disabled":false,"rental_uris":{"android":"levelo://app?vid=0d05b4e3-3732-447b-9281-ac594bb4184d","ios":"levelo://app?vid=0d05b4e3-3732-447b-9281-ac594bb4184d"},"vehicle_type_id":"4","last_reported":1744564068,"current_range_meters":12800,"station_id":"ce4bgl92rcd13ifvqbq0","pricing_plan_id":"cebpf4jnsgd1na2vs0mg"},{"bike_id":"d7eac028-2fd0-4f39-be58-fbce5fdcab81","system_id":"levelo_inurba_marseille","lat":43.28431,"lon":5.34988,"is_reserved":false,"is_disabled":true,"rental_uris":{"android":"levelo://app?vid=d7eac028-2fd0-4f39-be58-fbce5fdcab81","ios":"levelo://app?vid=d7eac028-2fd0-4f39-be58-fbce5fdcab81"},"vehicle_type_id":"4","last_reported":1744564068,"current_range_meters":14400,"station_id":"ce4bhbh2rcd13ifvqepg","pricing_plan_id":"cebpf4jnsgd1na2vs0mg"},{"bike_id":"4671866b-1b85-46bf-bb2d-6ddf168622b9","system_id":"levelo_inurba_marseille","lat":43.29525,"lon":5.38537,"is_reserved":false,"is_disabled":false,"rental_uris":{"android":"levelo://app?vid=4671866b-1b85-46bf-bb2d-6ddf168622b9","ios":"levelo://app?vid=4671866b-1b85-46bf-bb2d-6ddf168622b9"},"vehicle_type_id":"4","last_reported":1744564068,"current_range_meters":14400,"station_id":"ce4bgih2rcd13ifvqba0","pricing_plan_id":"cebpf4jnsgd1na2vs0mg"},{"bike_id":"c2a31b7c-37b8-460a-a9ba-47af7e49c6b9","system_id":"levelo_inurba_marseille","lat":43.275,"lon":5.42444,"is_reserved":false,"is_disabled":false,"rental_uris":{"android":"levelo://app?vid=c2a31b7c-37b8-460a-a9ba-47af7e49c6b9","ios":"levelo://app?vid=c2a31b7c-37b8-460a-a9ba-47af7e49c6b9"},"vehicle_type_id":"4","last_reported":1744564068,"current_range_meters":14400,"station_id":"ce4bhn92rcd13ifvqgrg","pricing_plan_id":"cebpf4jnsgd1na2vs0mg"},{"bike_id":"d437e2e9-dda3-469f-88db-04e3e265d04d","system_id":"levelo_inurba_marseille","lat":43.24179,"lon":5.39697,"is_reserved":false,"is_disabled":false,"rental_uris":{"android":"levelo://app?vid=d437e2e9-dda3-469f-88db-04e3e265d04d","ios":"levelo://app?vid=d437e2e9-dda3-469f-88db-04e3e265d04d"},"vehicle_type_id":"4","last_reported":1744564068,"current_range_meters":14400,"station_id":"ce4bhn12rcd13ifvqgpg","pricing_plan_id":"cebpf4jnsgd1na2vs0mg"},{"bike_id":"ca858d8a-0de6-46b6-aa9c-b375c2a81341","system_id":"levelo_inurba_marseille","lat":43.31406,"lon":5.36691,"is_reserved":false,"is_disabled":false,"rental_uris":{"android":"levelo://app?vid=ca858d8a-0de6-46b6-aa9c-b375c2a81341","ios":"levelo://app?vid=ca858d8a-0de6-46b6-aa9c-b375c2a81341"},"vehicle_type_id":"4","last_reported":1744564068,"current_range_meters":14800,"station_id":"ce4bgr92rcd13ifvqc6g","pricing_plan_id":"cebpf4jnsgd1na2vs0mg"},{"bike_id":"c4b3d907-e9cb-4be7-88c1-1455cdf608ce","system_id":"levelo_inurba_marseille","lat":43.29719,"lon":5.36626,"is_reserved":false,"is_disabled":false,"rental_uris":{"android":"levelo://app?vid=c4b3d907-e9cb-4be7-88c1-1455cdf608ce","ios":"levelo://app?vid=c4b3d907-e9cb-4be7-88c1-1455cdf608ce"},"vehicle_type_id":"4","last_reported":1744564068,"current_range_meters":14800,"station_id":"ce4bgn12rcd13ifvqbt0","pricing_plan_id":"cebpf4jnsgd1na2vs0mg"},{"bike_id":"e617923d-5e38-4ab5-9f0a-d006b9dcc88d","system_id":"levelo_inurba_marseille","lat":43.2952,"lon":5.38548,"is_reserved":false,"is_disabled":true,"rental_uris":{"android":"levelo://app?vid=e617923d-5e38-4ab5-9f0a-d006b9dcc88d","ios":"levelo://app?vid=e617923d-5e38-4ab5-9f0a-d006b9dcc88d"},"vehicle_type_id":"4","last_reported":1744564068,"current_range_meters":14800,"station_id":"ce4bgih2rcd13ifvqba0","pricing_plan_id":"cebpf4jnsgd1na2vs0mg"},{"bike_id":"88b96f11-ff89-49dd-8144-67096bc8c168","system_id":"levelo_inurba_marseille","lat":43.3055,"lon":5.38428,"is_reserved":false,"is_disabled":false,"rental_uris":{"android":"levelo://app?vid=88b96f11-ff89-49dd-8144-67096bc8c168","ios":"levelo://app?vid=88b96f11-ff89-49dd-8144-67096bc8c168"},"vehicle_type_id":"4","last_reported":1744564068,"current_range_meters":15200,"station_id":"ce4bgg92rcd13ifvqb30","pricing_plan_id":"cebpf4jnsgd1na2vs0mg"},{"bike_id":"c1f010bb-3686-4dea-b4eb-02f8223db5be","system_id":"levelo_inurba_marseille","lat":43.285706,"lon":5.394006,"is_reserved":false,"is_disabled":false,"rental_uris":{"android":"levelo://app?vid=c1f010bb-3686-4dea-b4eb-02f8223db5be","ios":"levelo://app?vid=c1f010bb-3686-4dea-b4eb-02f8223db5be"},"vehicle_type_id":"4","last_reported":1744564068,"current_range_meters":14800,"station_id":"ce4bh292rcd13ifvqdg0","pricing_plan_id":"cebpf4jnsgd1na2vs0mg"},{"bike_id":"67868cb0-fe57-4755-a0f4-83fc5971e42b","system_id":"levelo_inurba_marseille","lat":43.26837,"lon":5.40235,"is_reserved":false,"is_disabled":false,"rental_uris":{"android":"levelo://app?vid=67868cb0-fe57-4755-a0f4-83fc5971e42b","ios":"levelo://app?vid=67868cb0-fe57-4755-a0f4-83fc5971e42b"},"vehicle_type_id":"4","last_reported":1744564068,"current_range_meters":15200,"station_id":"ce501612rcd8frsf0b60","pricing_plan_id":"cebpf4jnsgd1na2vs0mg"},{"bike_id":"a202517f-1418-4351-ab52-88b300791b41","system_id":"levelo_inurba_marseille","lat":43.29791,"lon":5.37099,"is_reserved":false,"is_disabled":false,"rental_uris":{"android":"levelo://app?vid=a202517f-1418-4351-ab52-88b300791b41","ios":"levelo://app?vid=a202517f-1418-4351-ab52-88b300791b41"},"vehicle_type_id":"4","last_reported":1744564068,"current_range_meters":15200,"station_id":"ce4bgop2rcd13ifvqc1g","pricing_plan_id":"cebpf4jnsgd1na2vs0mg"},{"bike_id":"08e33c8c-d8f7-4761-bd78-750c8c9fd6d8","system_id":"levelo_inurba_marseille","lat":43.31329,"lon":5.39692,"is_reserved":false,"is_disabled":false,"rental_uris":{"android":"levelo://app?vid=08e33c8c-d8f7-4761-bd78-750c8c9fd6d8","ios":"levelo://app?vid=08e33c8c-d8f7-4761-bd78-750c8c9fd6d8"},"vehicle_type_id":"4","last_reported":1744564068,"current_range_meters":16400,"station_id":"ce4bgvp2rcd13ifvqcu0","pricing_plan_id":"cebpf4jnsgd1na2vs0mg"},{"bike_id":"72795014-e60d-4831-88a1-e24f7bb1743d","system_id":"levelo_inurba_marseille","lat":43.323645,"lon":5.388913,"is_reserved":false,"is_disabled":false,"rental_uris":{"android":"levelo://app?vid=72795014-e60d-4831-88a1-e24f7bb1743d","ios":"levelo://app?vid=72795014-e60d-4831-88a1-e24f7bb1743d"},"vehicle_type_id":"4","last_reported":1744564068,"current_range_meters":15200,"station_id":"ce4bhqp2rcd13ifvqhog","pricing_plan_id":"cebpf4jnsgd1na2vs0mg"},{"bike_id":"81bf90ee-d266-4f01-9990-ee23f4a7546d","system_id":"levelo_inurba_marseille","lat":43.3045,"lon":5.38875,"is_reserved":false,"is_disabled":false,"rental_uris":{"android":"levelo://app?vid=81bf90ee-d266-4f01-9990-ee23f4a7546d","ios":"levelo://app?vid=81bf90ee-d266-4f01-9990-ee23f4a7546d"},"vehicle_type_id":"4","last_reported":1744564068,"current_range_meters":16000,"station_id":"ce4bgk12rcd13ifvqbi0","pricing_plan_id":"cebpf4jnsgd1na2vs0mg"},{"bike_id":"d968ed16-80f3-48b6-9e8b-f205d73dfe0d","system_id":"levelo_inurba_marseille","lat":43.25577,"lon":5.38234,"is_reserved":false,"is_disabled":false,"rental_uris":{"android":"levelo://app?vid=d968ed16-80f3-48b6-9e8b-f205d73dfe0d","ios":"levelo://app?vid=d968ed16-80f3-48b6-9e8b-f205d73dfe0d"},"vehicle_type_id":"4","last_reported":1744564068,"current_range_meters":15200,"station_id":"ce4bhih2rcd13ifvqfs0","pricing_plan_id":"cebpf4jnsgd1na2vs0mg"},{"bike_id":"f443c66b-64c4-4a2d-9847-6c0e9d7b65fe","system_id":"levelo_inurba_marseille","lat":43.278618,"lon":5.427055,"is_reserved":false,"is_disabled":false,"rental_uris":{"android":"levelo://app?vid=f443c66b-64c4-4a2d-9847-6c0e9d7b65fe","ios":"levelo://app?vid=f443c66b-64c4-4a2d-9847-6c0e9d7b65fe"},"vehicle_type_id":"4","last_reported":1744564068,"current_range_meters":16000,"station_id":"ce4bhnh2rcd13ifvqgug","pricing_plan_id":"cebpf4jnsgd1na2vs0mg"},{"bike_id":"b685ddfd-dae1-4f83-8180-4c8c75cc6933","system_id":"levelo_inurba_marseille","lat":43.279853,"lon":5.40031,"is_reserved":false,"is_disabled":true,"rental_uris":{"android":"levelo://app?vid=b685ddfd-dae1-4f83-8180-4c8c75cc6933","ios":"levelo://app?vid=b685ddfd-dae1-4f83-8180-4c8c75cc6933"},"vehicle_type_id":"4","last_reported":1744564068,"current_range_meters":16000,"station_id":"ce4bho92rcd13ifvqh4g","pricing_plan_id":"cebpf4jnsgd1na2vs0mg"},{"bike_id":"a7a066dd-0e3d-4752-b55d-0248ea942ca0","system_id":"levelo_inurba_marseille","lat":43.283531,"lon":5.381087,"is_reserved":false,"is_disabled":false,"rental_uris":{"android":"levelo://app?vid=a7a066dd-0e3d-4752-b55d-0248ea942ca0","ios":"levelo://app?vid=a7a066dd-0e3d-4752-b55d-0248ea942ca0"},"vehicle_type_id":"4","last_reported":1744564068,"current_range_meters":16000,"station_id":"","pricing_plan_id":"cebpf4jnsgd1na2vs0mg"},{"bike_id":"ca64aa6c-3b2c-4db7-a891-fd4c0149a934","system_id":"levelo_inurba_marseille","lat":43.31723,"lon":5.42441,"is_reserved":false,"is_disabled":false,"rental_uris":{"android":"levelo://app?vid=ca64aa6c-3b2c-4db7-a891-fd4c0149a934","ios":"levelo://app?vid=ca64aa6c-3b2c-4db7-a891-fd4c0149a934"},"vehicle_type_id":"4","last_reported":1744564068,"current_range_meters":16400,"station_id":"ce4bhp92rcd13ifvqhbg","pricing_plan_id":"cebpf4jnsgd1na2vs0mg"},{"bike_id":"c6af6e3e-7350-4c8c-a287-20251d38d55b","system_id":"levelo_inurba_marseille","lat":43.30881,"lon":5.39664,"is_reserved":false,"is_disabled":false,"rental_uris":{"android":"levelo://app?vid=c6af6e3e-7350-4c8c-a287-20251d38d55b","ios":"levelo://app?vid=c6af6e3e-7350-4c8c-a287-20251d38d55b"},"vehicle_type_id":"4","last_reported":1744564068,"current_range_meters":16400,"station_id":"ce4bh012rcd13ifvqcv0","pricing_plan_id":"cebpf4jnsgd1na2vs0mg"},{"bike_id":"4e8024e4-c295-4704-8292-da493048c985","system_id":"levelo_inurba_marseille","lat":43.29948,"lon":5.36535,"is_reserved":false,"is_disabled":false,"rental_uris":{"android":"levelo://app?vid=4e8024e4-c295-4704-8292-da493048c985","ios":"levelo://app?vid=4e8024e4-c295-4704-8292-da493048c985"},"vehicle_type_id":"4","last_reported":1744564068,"current_range_meters":16400,"station_id":"ce4bgm92rcd13ifvqbr0","pricing_plan_id":"cebpf4jnsgd1na2vs0mg"},{"bike_id":"50f3a6ca-1b32-4e17-a21b-a50e16960e96","system_id":"levelo_inurba_marseille","lat":43.337766,"lon":5.374441,"is_reserved":false,"is_disabled":false,"rental_uris":{"android":"levelo://app?vid=50f3a6ca-1b32-4e17-a21b-a50e16960e96","ios":"levelo://app?vid=50f3a6ca-1b32-4e17-a21b-a50e16960e96"},"vehicle_type_id":"4","last_reported":1744564068,"current_range_meters":16400,"station_id":"","pricing_plan_id":"cebpf4jnsgd1na2vs0mg"},{"bike_id":"fba700d3-5c16-415f-9e80-2d0f9aa491d2","system_id":"levelo_inurba_marseille","lat":43.30379,"lon":5.42486,"is_reserved":false,"is_disabled":false,"rental_uris":{"android":"levelo://app?vid=fba700d3-5c16-415f-9e80-2d0f9aa491d2","ios":"levelo://app?vid=fba700d3-5c16-415f-9e80-2d0f9aa491d2"},"vehicle_type_id":"4","last_reported":1744564068,"current_range_meters":16400,"station_id":"ce4bhoh2rcd13ifvqh6g","pricing_plan_id":"cebpf4jnsgd1na2vs0mg"},{"bike_id":"805878a0-8d6b-4a5c-bcf4-c14cbcf0e226","system_id":"levelo_inurba_marseille","lat":43.30263,"lon":5.40076,"is_reserved":false,"is_disabled":false,"rental_uris":{"android":"levelo://app?vid=805878a0-8d6b-4a5c-bcf4-c14cbcf0e226","ios":"levelo://app?vid=805878a0-8d6b-4a5c-bcf4-c14cbcf0e226"},"vehicle_type_id":"4","last_reported":1744564068,"current_range_meters":16400,"station_id":"ce4bgvh2rcd13ifvqcs0","pricing_plan_id":"cebpf4jnsgd1na2vs0mg"},{"bike_id":"0720a4b8-a545-4be1-a87b-ef12ecf1ee6b","system_id":"levelo_inurba_marseille","lat":43.29798,"lon":5.38078,"is_reserved":false,"is_disabled":false,"rental_uris":{"android":"levelo://app?vid=0720a4b8-a545-4be1-a87b-ef12ecf1ee6b","ios":"levelo://app?vid=0720a4b8-a545-4be1-a87b-ef12ecf1ee6b"},"vehicle_type_id":"4","last_reported":1744564068,"current_range_meters":17200,"station_id":"ce4bgip2rcd13ifvqbb0","pricing_plan_id":"cebpf4jnsgd1na2vs0mg"},{"bike_id":"2551df23-46eb-4dc9-b328-33c9a95ff7ca","system_id":"levelo_inurba_marseille","lat":43.292297,"lon":5.360607,"is_reserved":false,"is_disabled":true,"rental_uris":{"android":"levelo://app?vid=2551df23-46eb-4dc9-b328-33c9a95ff7ca","ios":"levelo://app?vid=2551df23-46eb-4dc9-b328-33c9a95ff7ca"},"vehicle_type_id":"4","last_reported":1744564068,"current_range_meters":16400,"station_id":"ce4bhbh2rcd13ifvqeqg","pricing_plan_id":"cebpf4jnsgd1na2vs0mg"},{"bike_id":"935a7e55-4cea-4394-8ed2-15f7e1ee706c","system_id":"levelo_inurba_marseille","lat":43.27242,"lon":5.43172,"is_reserved":false,"is_disabled":false,"rental_uris":{"android":"levelo://app?vid=935a7e55-4cea-4394-8ed2-15f7e1ee706c","ios":"levelo://app?vid=935a7e55-4cea-4394-8ed2-15f7e1ee706c"},"vehicle_type_id":"4","last_reported":1744564068,"current_range_meters":16800,"station_id":"","pricing_plan_id":"cebpf4jnsgd1na2vs0mg"},{"bike_id":"da48e56b-5b98-4592-a2ea-cf5907cac18b","system_id":"levelo_inurba_marseille","lat":43.337652,"lon":5.374374,"is_reserved":false,"is_disabled":false,"rental_uris":{"android":"levelo://app?vid=da48e56b-5b98-4592-a2ea-cf5907cac18b","ios":"levelo://app?vid=da48e56b-5b98-4592-a2ea-cf5907cac18b"},"vehicle_type_id":"4","last_reported":1744564068,"current_range_meters":16800,"station_id":"","pricing_plan_id":"cebpf4jnsgd1na2vs0mg"},{"bike_id":"2e404f60-aaf6-46a9-aa79-c568c66bbec1","system_id":"levelo_inurba_marseille","lat":43.30588,"lon":5.39353,"is_reserved":false,"is_disabled":false,"rental_uris":{"android":"levelo://app?vid=2e404f60-aaf6-46a9-aa79-c568c66bbec1","ios":"levelo://app?vid=2e404f60-aaf6-46a9-aa79-c568c66bbec1"},"vehicle_type_id":"4","last_reported":1744564068,"current_range_meters":16800,"station_id":"ce4bh0p2rcd13ifvqd80","pricing_plan_id":"cebpf4jnsgd1na2vs0mg"},{"bike_id":"e23a2fbf-390c-4634-8902-fbe9c490d2fe","system_id":"levelo_inurba_marseille","lat":43.25931,"lon":5.40913,"is_reserved":false,"is_disabled":false,"rental_uris":{"android":"levelo://app?vid=e23a2fbf-390c-4634-8902-fbe9c490d2fe","ios":"levelo://app?vid=e23a2fbf-390c-4634-8902-fbe9c490d2fe"},"vehicle_type_id":"4","last_reported":1744564068,"current_range_meters":16800,"station_id":"ce4bhm92rcd13ifvqglg","pricing_plan_id":"cebpf4jnsgd1na2vs0mg"},{"bike_id":"38540423-4fc9-4fd5-a9d7-4bf440cfcee7","system_id":"levelo_inurba_marseille","lat":43.29252,"lon":5.38438,"is_reserved":false,"is_disabled":false,"rental_uris":{"android":"levelo://app?vid=38540423-4fc9-4fd5-a9d7-4bf440cfcee7","ios":"levelo://app?vid=38540423-4fc9-4fd5-a9d7-4bf440cfcee7"},"vehicle_type_id":"4","last_reported":1744564068,"current_range_meters":16800,"station_id":"ce4bh692rcd13ifvqea0","pricing_plan_id":"cebpf4jnsgd1na2vs0mg"},{"bike_id":"037e6d66-8cf6-48a0-adb9-4244c34eaf82","system_id":"levelo_inurba_marseille","lat":43.25087,"lon":5.39526,"is_reserved":false,"is_disabled":false,"rental_uris":{"android":"levelo://app?vid=037e6d66-8cf6-48a0-adb9-4244c34eaf82","ios":"levelo://app?vid=037e6d66-8cf6-48a0-adb9-4244c34eaf82"},"vehicle_type_id":"4","last_reported":1744564068,"current_range_meters":16800,"station_id":"ce4bhm12rcd13ifvqgkg","pricing_plan_id":"cebpf4jnsgd1na2vs0mg"},{"bike_id":"f2318ad7-66c0-475b-9243-d611799ea2b7","system_id":"levelo_inurba_marseille","lat":43.29948,"lon":5.36541,"is_reserved":false,"is_disabled":false,"rental_uris":{"android":"levelo://app?vid=f2318ad7-66c0-475b-9243-d611799ea2b7","ios":"levelo://app?vid=f2318ad7-66c0-475b-9243-d611799ea2b7"},"vehicle_type_id":"4","last_reported":1744564068,"current_range_meters":16800,"station_id":"ce4bgm92rcd13ifvqbr0","pricing_plan_id":"cebpf4jnsgd1na2vs0mg"},{"bike_id":"609a6afe-9483-4be7-b863-4e32637c458c","system_id":"levelo_inurba_marseille","lat":43.28422,"lon":5.34976,"is_reserved":false,"is_disabled":false,"rental_uris":{"android":"levelo://app?vid=609a6afe-9483-4be7-b863-4e32637c458c","ios":"levelo://app?vid=609a6afe-9483-4be7-b863-4e32637c458c"},"vehicle_type_id":"4","last_reported":1744564068,"current_range_meters":16800,"station_id":"ce4bhbh2rcd13ifvqepg","pricing_plan_id":"cebpf4jnsgd1na2vs0mg"},{"bike_id":"6f9cf811-1927-4a51-a336-b458bdfafc6f","system_id":"levelo_inurba_marseille","lat":43.30013,"lon":5.38578,"is_reserved":false,"is_disabled":false,"rental_uris":{"android":"levelo://app?vid=6f9cf811-1927-4a51-a336-b458bdfafc6f","ios":"levelo://app?vid=6f9cf811-1927-4a51-a336-b458bdfafc6f"},"vehicle_type_id":"4","last_reported":1744564068,"current_range_meters":16800,"station_id":"","pricing_plan_id":"cebpf4jnsgd1na2vs0mg"},{"bike_id":"70678c9a-44ed-4571-841d-a85340267238","system_id":"levelo_inurba_marseille","lat":43.26817,"lon":5.39416,"is_reserved":false,"is_disabled":false,"rental_uris":{"android":"levelo://app?vid=70678c9a-44ed-4571-841d-a85340267238","ios":"levelo://app?vid=70678c9a-44ed-4571-841d-a85340267238"},"vehicle_type_id":"4","last_reported":1744564068,"current_range_meters":17200,"station_id":"ce4bhh12rcd13ifvqfg0","pricing_plan_id":"cebpf4jnsgd1na2vs0mg"},{"bike_id":"5ca820d9-223e-4616-87ef-60b2a72a241a","system_id":"levelo_inurba_marseille","lat":43.290039,"lon":5.35613,"is_reserved":false,"is_disabled":false,"rental_uris":{"android":"levelo://app?vid=5ca820d9-223e-4616-87ef-60b2a72a241a","ios":"levelo://app?vid=5ca820d9-223e-4616-87ef-60b2a72a241a"},"vehicle_type_id":"4","last_reported":1744564068,"current_range_meters":17200,"station_id":"ce4bhb92rcd13ifvqen0","pricing_plan_id":"cebpf4jnsgd1na2vs0mg"},{"bike_id":"86ac3ad7-4349-4b45-82d1-b61ad882a2f6","system_id":"levelo_inurba_marseille","lat":43.21758,"lon":5.34592,"is_reserved":false,"is_disabled":true,"rental_uris":{"android":"levelo://app?vid=86ac3ad7-4349-4b45-82d1-b61ad882a2f6","ios":"levelo://app?vid=86ac3ad7-4349-4b45-82d1-b61ad882a2f6"},"vehicle_type_id":"4","last_reported":1744564068,"current_range_meters":17200,"station_id":"st_cvj6r9ubvosntc0bgbag","pricing_plan_id":"cebpf4jnsgd1na2vs0mg"},{"bike_id":"da27b599-cdb3-4198-b616-72f0b42a3ad1","system_id":"levelo_inurba_marseille","lat":43.27827,"lon":5.40715,"is_reserved":false,"is_disabled":false,"rental_uris":{"android":"levelo://app?vid=da27b599-cdb3-4198-b616-72f0b42a3ad1","ios":"levelo://app?vid=da27b599-cdb3-4198-b616-72f0b42a3ad1"},"vehicle_type_id":"4","last_reported":1744564068,"current_range_meters":17600,"station_id":"ce4bhnh2rcd13ifvqgtg","pricing_plan_id":"cebpf4jnsgd1na2vs0mg"},{"bike_id":"7397fdfe-7e90-496c-9947-80ce65e17a33","system_id":"levelo_inurba_marseille","lat":43.27838,"lon":5.39213,"is_reserved":false,"is_disabled":false,"rental_uris":{"android":"levelo://app?vid=7397fdfe-7e90-496c-9947-80ce65e17a33","ios":"levelo://app?vid=7397fdfe-7e90-496c-9947-80ce65e17a33"},"vehicle_type_id":"4","last_reported":1744564068,"current_range_meters":17600,"station_id":"ce4bhjp2rcd13ifvqga0","pricing_plan_id":"cebpf4jnsgd1na2vs0mg"},{"bike_id":"b786d35a-9692-4b08-8f31-8cb7cfa8b01d","system_id":"levelo_inurba_marseille","lat":43.23179,"lon":5.39989,"is_reserved":false,"is_disabled":false,"rental_uris":{"android":"levelo://app?vid=b786d35a-9692-4b08-8f31-8cb7cfa8b01d","ios":"levelo://app?vid=b786d35a-9692-4b08-8f31-8cb7cfa8b01d"},"vehicle_type_id":"4","last_reported":1744564068,"current_range_meters":18000,"station_id":"ce4bhn12rcd13ifvqgqg","pricing_plan_id":"cebpf4jnsgd1na2vs0mg"},{"bike_id":"c4f75673-ac30-4ea3-904c-59c389dcac87","system_id":"levelo_inurba_marseille","lat":43.29625,"lon":5.37714,"is_reserved":false,"is_disabled":false,"rental_uris":{"android":"levelo://app?vid=c4f75673-ac30-4ea3-904c-59c389dcac87","ios":"levelo://app?vid=c4f75673-ac30-4ea3-904c-59c389dcac87"},"vehicle_type_id":"4","last_reported":1744564068,"current_range_meters":18000,"station_id":"ce4bgi92rcd13ifvqb90","pricing_plan_id":"cebpf4jnsgd1na2vs0mg"},{"bike_id":"df49f249-4aa5-4aa6-9193-27ea889ed0d0","system_id":"levelo_inurba_marseille","lat":43.3044,"lon":5.38891,"is_reserved":false,"is_disabled":true,"rental_uris":{"android":"levelo://app?vid=df49f249-4aa5-4aa6-9193-27ea889ed0d0","ios":"levelo://app?vid=df49f249-4aa5-4aa6-9193-27ea889ed0d0"},"vehicle_type_id":"4","last_reported":1744564068,"current_range_meters":18000,"station_id":"ce4bgk12rcd13ifvqbi0","pricing_plan_id":"cebpf4jnsgd1na2vs0mg"},{"bike_id":"e31def71-8891-422b-94fe-ae35c2b1343b","system_id":"levelo_inurba_marseille","lat":43.2835,"lon":5.38118,"is_reserved":false,"is_disabled":false,"rental_uris":{"android":"levelo://app?vid=e31def71-8891-422b-94fe-ae35c2b1343b","ios":"levelo://app?vid=e31def71-8891-422b-94fe-ae35c2b1343b"},"vehicle_type_id":"4","last_reported":1744564068,"current_range_meters":18000,"station_id":"ce4bh412rcd13ifvqdr0","pricing_plan_id":"cebpf4jnsgd1na2vs0mg"},{"bike_id":"27a55245-8dd2-4f1a-af63-95a9d7b71690","system_id":"levelo_inurba_marseille","lat":43.31089,"lon":5.37857,"is_reserved":false,"is_disabled":true,"rental_uris":{"android":"levelo://app?vid=27a55245-8dd2-4f1a-af63-95a9d7b71690","ios":"levelo://app?vid=27a55245-8dd2-4f1a-af63-95a9d7b71690"},"vehicle_type_id":"4","last_reported":1744564068,"current_range_meters":18000,"station_id":"","pricing_plan_id":"cebpf4jnsgd1na2vs0mg"},{"bike_id":"59c7d7f9-492d-4240-b3d4-e8d1015f1ebd","system_id":"levelo_inurba_marseille","lat":43.21743,"lon":5.3459,"is_reserved":false,"is_disabled":true,"rental_uris":{"android":"levelo://app?vid=59c7d7f9-492d-4240-b3d4-e8d1015f1ebd","ios":"levelo://app?vid=59c7d7f9-492d-4240-b3d4-e8d1015f1ebd"},"vehicle_type_id":"4","last_reported":1744564068,"current_range_meters":18800,"station_id":"st_cvj6r9ubvosntc0bgbag","pricing_plan_id":"cebpf4jnsgd1na2vs0mg"},{"bike_id":"9304c3ac-39d2-4629-9c5c-71c6a0917da7","system_id":"levelo_inurba_marseille","lat":43.30389,"lon":5.42004,"is_reserved":false,"is_disabled":false,"rental_uris":{"android":"levelo://app?vid=9304c3ac-39d2-4629-9c5c-71c6a0917da7","ios":"levelo://app?vid=9304c3ac-39d2-4629-9c5c-71c6a0917da7"},"vehicle_type_id":"4","last_reported":1744564068,"current_range_meters":18800,"station_id":"ce4bhop2rcd13ifvqh7g","pricing_plan_id":"cebpf4jnsgd1na2vs0mg"},{"bike_id":"9c09c787-1aa6-4e23-a572-d40d2eca255f","system_id":"levelo_inurba_marseille","lat":43.25828,"lon":5.39438,"is_reserved":false,"is_disabled":false,"rental_uris":{"android":"levelo://app?vid=9c09c787-1aa6-4e23-a572-d40d2eca255f","ios":"levelo://app?vid=9c09c787-1aa6-4e23-a572-d40d2eca255f"},"vehicle_type_id":"4","last_reported":1744564068,"current_range_meters":18800,"station_id":"ce4bhip2rcd13ifvqft0","pricing_plan_id":"cebpf4jnsgd1na2vs0mg"},{"bike_id":"b01cfc93-b544-4ec8-94c2-4dc0f4a8e379","system_id":"levelo_inurba_marseille","lat":43.3038,"lon":5.42498,"is_reserved":false,"is_disabled":false,"rental_uris":{"android":"levelo://app?vid=b01cfc93-b544-4ec8-94c2-4dc0f4a8e379","ios":"levelo://app?vid=b01cfc93-b544-4ec8-94c2-4dc0f4a8e379"},"vehicle_type_id":"4","last_reported":1744564068,"current_range_meters":18800,"station_id":"ce4bhoh2rcd13ifvqh6g","pricing_plan_id":"cebpf4jnsgd1na2vs0mg"},{"bike_id":"c065705a-c405-4791-906a-7a81b895a8d8","system_id":"levelo_inurba_marseille","lat":43.28035,"lon":5.36955,"is_reserved":false,"is_disabled":false,"rental_uris":{"android":"levelo://app?vid=c065705a-c405-4791-906a-7a81b895a8d8","ios":"levelo://app?vid=c065705a-c405-4791-906a-7a81b895a8d8"},"vehicle_type_id":"4","last_reported":1744564068,"current_range_meters":19600,"station_id":"ce4bha12rcd13ifvqef0","pricing_plan_id":"cebpf4jnsgd1na2vs0mg"},{"bike_id":"105e10ed-15c6-4ee2-a209-78b379922a25","system_id":"levelo_inurba_marseille","lat":43.29728,"lon":5.3799,"is_reserved":false,"is_disabled":false,"rental_uris":{"android":"levelo://app?vid=105e10ed-15c6-4ee2-a209-78b379922a25","ios":"levelo://app?vid=105e10ed-15c6-4ee2-a209-78b379922a25"},"vehicle_type_id":"4","last_reported":1744564068,"current_range_meters":18800,"station_id":"","pricing_plan_id":"cebpf4jnsgd1na2vs0mg"},{"bike_id":"2a8d556e-6eb0-4a94-9523-009ab65d9e3a","system_id":"levelo_inurba_marseille","lat":43.28415,"lon":5.37524,"is_reserved":false,"is_disabled":false,"rental_uris":{"android":"levelo://app?vid=2a8d556e-6eb0-4a94-9523-009ab65d9e3a","ios":"levelo://app?vid=2a8d556e-6eb0-4a94-9523-009ab65d9e3a"},"vehicle_type_id":"4","last_reported":1744564068,"current_range_meters":18800,"station_id":"ce4bh412rcd13ifvqds0","pricing_plan_id":"cebpf4jnsgd1na2vs0mg"},{"bike_id":"2d962046-2b76-4390-af88-3785c3666147","system_id":"levelo_inurba_marseille","lat":43.26825,"lon":5.39462,"is_reserved":false,"is_disabled":false,"rental_uris":{"android":"levelo://app?vid=2d962046-2b76-4390-af88-3785c3666147","ios":"levelo://app?vid=2d962046-2b76-4390-af88-3785c3666147"},"vehicle_type_id":"4","last_reported":1744564068,"current_range_meters":18800,"station_id":"","pricing_plan_id":"cebpf4jnsgd1na2vs0mg"},{"bike_id":"a6535ba8-9ced-4cad-b71b-a79f16af244f","system_id":"levelo_inurba_marseille","lat":43.2469,"lon":5.38167,"is_reserved":false,"is_disabled":false,"rental_uris":{"android":"levelo://app?vid=a6535ba8-9ced-4cad-b71b-a79f16af244f","ios":"levelo://app?vid=a6535ba8-9ced-4cad-b71b-a79f16af244f"},"vehicle_type_id":"4","last_reported":1744564068,"current_range_meters":19200,"station_id":"ce4bhih2rcd13ifvqfr0","pricing_plan_id":"cebpf4jnsgd1na2vs0mg"},{"bike_id":"8e84781a-82c3-4b14-a541-78f95f1999c0","system_id":"levelo_inurba_marseille","lat":43.27472,"lon":5.393,"is_reserved":false,"is_disabled":true,"rental_uris":{"android":"levelo://app?vid=8e84781a-82c3-4b14-a541-78f95f1999c0","ios":"levelo://app?vid=8e84781a-82c3-4b14-a541-78f95f1999c0"},"vehicle_type_id":"4","last_reported":1744564068,"current_range_meters":19200,"station_id":"ce4bhdp2rcd13ifvqf20","pricing_plan_id":"cebpf4jnsgd1na2vs0mg"},{"bike_id":"fb13c941-1858-46a4-86ad-2a5e302996c3","system_id":"levelo_inurba_marseille","lat":43.25855,"lon":5.39904,"is_reserved":false,"is_disabled":true,"rental_uris":{"android":"levelo://app?vid=fb13c941-1858-46a4-86ad-2a5e302996c3","ios":"levelo://app?vid=fb13c941-1858-46a4-86ad-2a5e302996c3"},"vehicle_type_id":"4","last_reported":1744564068,"current_range_meters":19200,"station_id":"ce4bhl92rcd13ifvqghg","pricing_plan_id":"cebpf4jnsgd1na2vs0mg"},{"bike_id":"607b9ab3-cb8b-4340-a8ef-422c4dc752bc","system_id":"levelo_inurba_marseille","lat":43.28,"lon":5.40032,"is_reserved":false,"is_disabled":false,"rental_uris":{"android":"levelo://app?vid=607b9ab3-cb8b-4340-a8ef-422c4dc752bc","ios":"levelo://app?vid=607b9ab3-cb8b-4340-a8ef-422c4dc752bc"},"vehicle_type_id":"4","last_reported":1744564068,"current_range_meters":19200,"station_id":"ce4bho92rcd13ifvqh4g","pricing_plan_id":"cebpf4jnsgd1na2vs0mg"},{"bike_id":"6dfb8f83-2530-4143-8ef5-449b76a9fef3","system_id":"levelo_inurba_marseille","lat":43.29179,"lon":5.39315,"is_reserved":false,"is_disabled":false,"rental_uris":{"android":"levelo://app?vid=6dfb8f83-2530-4143-8ef5-449b76a9fef3","ios":"levelo://app?vid=6dfb8f83-2530-4143-8ef5-449b76a9fef3"},"vehicle_type_id":"4","last_reported":1744564068,"current_range_meters":19200,"station_id":"ce4bh192rcd13ifvqdd0","pricing_plan_id":"cebpf4jnsgd1na2vs0mg"},{"bike_id":"855e5ed2-3b45-4338-b2af-0f183a07df56","system_id":"levelo_inurba_marseille","lat":43.28,"lon":5.40017,"is_reserved":false,"is_disabled":false,"rental_uris":{"android":"levelo://app?vid=855e5ed2-3b45-4338-b2af-0f183a07df56","ios":"levelo://app?vid=855e5ed2-3b45-4338-b2af-0f183a07df56"},"vehicle_type_id":"4","last_reported":1744564068,"current_range_meters":18800,"station_id":"ce4bho92rcd13ifvqh4g","pricing_plan_id":"cebpf4jnsgd1na2vs0mg"},{"bike_id":"cbd86b54-1d20-44bd-bc82-23f586bacead","system_id":"levelo_inurba_marseille","lat":43.3046,"lon":5.37901,"is_reserved":false,"is_disabled":false,"rental_uris":{"android":"levelo://app?vid=cbd86b54-1d20-44bd-bc82-23f586bacead","ios":"levelo://app?vid=cbd86b54-1d20-44bd-bc82-23f586bacead"},"vehicle_type_id":"4","last_reported":1744564068,"current_range_meters":20400,"station_id":"ce4bgup2rcd13ifvqcn0","pricing_plan_id":"cebpf4jnsgd1na2vs0mg"},{"bike_id":"b456b85c-8928-4a5a-9171-1132c2572ebe","system_id":"levelo_inurba_marseille","lat":43.267947,"lon":5.402543,"is_reserved":false,"is_disabled":false,"rental_uris":{"android":"levelo://app?vid=b456b85c-8928-4a5a-9171-1132c2572ebe","ios":"levelo://app?vid=b456b85c-8928-4a5a-9171-1132c2572ebe"},"vehicle_type_id":"4","last_reported":1744564068,"current_range_meters":19600,"station_id":"ce501612rcd8frsf0b60","pricing_plan_id":"cebpf4jnsgd1na2vs0mg"},{"bike_id":"407a54c4-ce42-4e1a-bc9b-9b8f2ef8a27a","system_id":"levelo_inurba_marseille","lat":43.32413,"lon":5.39122,"is_reserved":false,"is_disabled":false,"rental_uris":{"android":"levelo://app?vid=407a54c4-ce42-4e1a-bc9b-9b8f2ef8a27a","ios":"levelo://app?vid=407a54c4-ce42-4e1a-bc9b-9b8f2ef8a27a"},"vehicle_type_id":"4","last_reported":1744564068,"current_range_meters":19600,"station_id":"","pricing_plan_id":"cebpf4jnsgd1na2vs0mg"},{"bike_id":"d9a6efe7-3849-4777-8867-3e33a6079bec","system_id":"levelo_inurba_marseille","lat":43.25491,"lon":5.37649,"is_reserved":false,"is_disabled":false,"rental_uris":{"android":"levelo://app?vid=d9a6efe7-3849-4777-8867-3e33a6079bec","ios":"levelo://app?vid=d9a6efe7-3849-4777-8867-3e33a6079bec"},"vehicle_type_id":"4","last_reported":1744564068,"current_range_meters":19600,"station_id":"ce4bhh12rcd13ifvqff0","pricing_plan_id":"cebpf4jnsgd1na2vs0mg"},{"bike_id":"e58c5a4f-c5a7-442d-8c34-8fa10357b227","system_id":"levelo_inurba_marseille","lat":43.255827,"lon":5.382266,"is_reserved":false,"is_disabled":false,"rental_uris":{"android":"levelo://app?vid=e58c5a4f-c5a7-442d-8c34-8fa10357b227","ios":"levelo://app?vid=e58c5a4f-c5a7-442d-8c34-8fa10357b227"},"vehicle_type_id":"4","last_reported":1744564068,"current_range_meters":19600,"station_id":"ce4bhih2rcd13ifvqfs0","pricing_plan_id":"cebpf4jnsgd1na2vs0mg"},{"bike_id":"ff6fdf14-b0fb-4ff9-a568-88691cbb6f07","system_id":"levelo_inurba_marseille","lat":43.26231,"lon":5.40449,"is_reserved":false,"is_disabled":false,"rental_uris":{"android":"levelo://app?vid=ff6fdf14-b0fb-4ff9-a568-88691cbb6f07","ios":"levelo://app?vid=ff6fdf14-b0fb-4ff9-a568-88691cbb6f07"},"vehicle_type_id":"4","last_reported":1744564068,"current_range_meters":19600,"station_id":"ce4bhmh2rcd13ifvqgmg","pricing_plan_id":"cebpf4jnsgd1na2vs0mg"},{"bike_id":"56135a82-d19f-45ea-a72c-58b1131d0fcb","system_id":"levelo_inurba_marseille","lat":43.280856,"lon":5.396643,"is_reserved":false,"is_disabled":true,"rental_uris":{"android":"levelo://app?vid=56135a82-d19f-45ea-a72c-58b1131d0fcb","ios":"levelo://app?vid=56135a82-d19f-45ea-a72c-58b1131d0fcb"},"vehicle_type_id":"4","last_reported":1744564068,"current_range_meters":19600,"station_id":"ce4bho12rcd13ifvqh2g","pricing_plan_id":"cebpf4jnsgd1na2vs0mg"},{"bike_id":"8c5851ba-e6eb-41c0-9785-23c4ca518913","system_id":"levelo_inurba_marseille","lat":43.2861,"lon":5.35126,"is_reserved":false,"is_disabled":false,"rental_uris":{"android":"levelo://app?vid=8c5851ba-e6eb-41c0-9785-23c4ca518913","ios":"levelo://app?vid=8c5851ba-e6eb-41c0-9785-23c4ca518913"},"vehicle_type_id":"4","last_reported":1744564068,"current_range_meters":20000,"station_id":"ce4bhch2rcd13ifvqeug","pricing_plan_id":"cebpf4jnsgd1na2vs0mg"},{"bike_id":"ec21190a-faf1-41a4-a07a-e3f7322dbead","system_id":"levelo_inurba_marseille","lat":43.29869,"lon":5.3978,"is_reserved":false,"is_disabled":false,"rental_uris":{"android":"levelo://app?vid=ec21190a-faf1-41a4-a07a-e3f7322dbead","ios":"levelo://app?vid=ec21190a-faf1-41a4-a07a-e3f7322dbead"},"vehicle_type_id":"4","last_reported":1744564068,"current_range_meters":20000,"station_id":"ce4bh0h2rcd13ifvqd50","pricing_plan_id":"cebpf4jnsgd1na2vs0mg"},{"bike_id":"626065a0-5dba-4dd3-94f8-76bb3800d58f","system_id":"levelo_inurba_marseille","lat":43.25705,"lon":5.41049,"is_reserved":false,"is_disabled":false,"rental_uris":{"android":"levelo://app?vid=626065a0-5dba-4dd3-94f8-76bb3800d58f","ios":"levelo://app?vid=626065a0-5dba-4dd3-94f8-76bb3800d58f"},"vehicle_type_id":"4","last_reported":1744564068,"current_range_meters":20000,"station_id":"ce4bhkp2rcd13ifvqgd0","pricing_plan_id":"cebpf4jnsgd1na2vs0mg"},{"bike_id":"a818834f-725d-4dbb-9bab-d3518b1b13c4","system_id":"levelo_inurba_marseille","lat":43.32293,"lon":5.36524,"is_reserved":false,"is_disabled":false,"rental_uris":{"android":"levelo://app?vid=a818834f-725d-4dbb-9bab-d3518b1b13c4","ios":"levelo://app?vid=a818834f-725d-4dbb-9bab-d3518b1b13c4"},"vehicle_type_id":"4","last_reported":1744564068,"current_range_meters":20000,"station_id":"ce4bhsh2rcd13ifvqi2g","pricing_plan_id":"cebpf4jnsgd1na2vs0mg"},{"bike_id":"08e69920-6699-44a2-bf5e-065531bec167","system_id":"levelo_inurba_marseille","lat":43.29269,"lon":5.40125,"is_reserved":false,"is_disabled":true,"rental_uris":{"android":"levelo://app?vid=08e69920-6699-44a2-bf5e-065531bec167","ios":"levelo://app?vid=08e69920-6699-44a2-bf5e-065531bec167"},"vehicle_type_id":"4","last_reported":1744564068,"current_range_meters":20000,"station_id":"ce4bh312rcd13ifvqdk0","pricing_plan_id":"cebpf4jnsgd1na2vs0mg"},{"bike_id":"89207559-af4d-4726-bcba-9f7bd8506ae9","system_id":"levelo_inurba_marseille","lat":43.27511,"lon":5.42468,"is_reserved":false,"is_disabled":false,"rental_uris":{"android":"levelo://app?vid=89207559-af4d-4726-bcba-9f7bd8506ae9","ios":"levelo://app?vid=89207559-af4d-4726-bcba-9f7bd8506ae9"},"vehicle_type_id":"4","last_reported":1744564068,"current_range_meters":20000,"station_id":"ce4bhn92rcd13ifvqgrg","pricing_plan_id":"cebpf4jnsgd1na2vs0mg"},{"bike_id":"67b0ca15-faa0-4af4-8125-ae45cf90c92f","system_id":"levelo_inurba_marseille","lat":43.31133,"lon":5.37756,"is_reserved":false,"is_disabled":false,"rental_uris":{"android":"levelo://app?vid=67b0ca15-faa0-4af4-8125-ae45cf90c92f","ios":"levelo://app?vid=67b0ca15-faa0-4af4-8125-ae45cf90c92f"},"vehicle_type_id":"4","last_reported":1744564068,"current_range_meters":20400,"station_id":"ce4bgt92rcd13ifvqcg0","pricing_plan_id":"cebpf4jnsgd1na2vs0mg"},{"bike_id":"708411ea-378a-450c-bf71-00138e05fe3f","system_id":"levelo_inurba_marseille","lat":43.29604,"lon":5.38096,"is_reserved":false,"is_disabled":false,"rental_uris":{"android":"levelo://app?vid=708411ea-378a-450c-bf71-00138e05fe3f","ios":"levelo://app?vid=708411ea-378a-450c-bf71-00138e05fe3f"},"vehicle_type_id":"4","last_reported":1744564068,"current_range_meters":20000,"station_id":"ce4bgl12rcd13ifvqbo0","pricing_plan_id":"cebpf4jnsgd1na2vs0mg"},{"bike_id":"5485bccc-764e-42c9-a347-f93da8eedb61","system_id":"levelo_inurba_marseille","lat":43.315,"lon":5.37306,"is_reserved":false,"is_disabled":false,"rental_uris":{"android":"levelo://app?vid=5485bccc-764e-42c9-a347-f93da8eedb61","ios":"levelo://app?vid=5485bccc-764e-42c9-a347-f93da8eedb61"},"vehicle_type_id":"4","last_reported":1744564068,"current_range_meters":20400,"station_id":"ce4bgt12rcd13ifvqcd0","pricing_plan_id":"cebpf4jnsgd1na2vs0mg"},{"bike_id":"ad9e98da-ad6b-429d-ac46-3089f335e4aa","system_id":"levelo_inurba_marseille","lat":43.33612,"lon":5.41037,"is_reserved":false,"is_disabled":false,"rental_uris":{"android":"levelo://app?vid=ad9e98da-ad6b-429d-ac46-3089f335e4aa","ios":"levelo://app?vid=ad9e98da-ad6b-429d-ac46-3089f335e4aa"},"vehicle_type_id":"4","last_reported":1744564068,"current_range_meters":20400,"station_id":"ce4bhqh2rcd13ifvqhmg","pricing_plan_id":"cebpf4jnsgd1na2vs0mg"},{"bike_id":"df8f9521-d77d-4eae-8db3-4a1afa43aef1","system_id":"levelo_inurba_marseille","lat":43.31491,"lon":5.37309,"is_reserved":false,"is_disabled":false,"rental_uris":{"android":"levelo://app?vid=df8f9521-d77d-4eae-8db3-4a1afa43aef1","ios":"levelo://app?vid=df8f9521-d77d-4eae-8db3-4a1afa43aef1"},"vehicle_type_id":"4","last_reported":1744564068,"current_range_meters":20400,"station_id":"ce4bgt12rcd13ifvqcd0","pricing_plan_id":"cebpf4jnsgd1na2vs0mg"},{"bike_id":"bbabed49-02b8-4088-bff5-10aa8764dd8e","system_id":"levelo_inurba_marseille","lat":43.26069,"lon":5.39364,"is_reserved":false,"is_disabled":false,"rental_uris":{"android":"levelo://app?vid=bbabed49-02b8-4088-bff5-10aa8764dd8e","ios":"levelo://app?vid=bbabed49-02b8-4088-bff5-10aa8764dd8e"},"vehicle_type_id":"4","last_reported":1744564068,"current_range_meters":20800,"station_id":"ce4bhh92rcd13ifvqfj0","pricing_plan_id":"cebpf4jnsgd1na2vs0mg"},{"bike_id":"9ccaf1e8-d14c-4218-be36-430bac425c11","system_id":"levelo_inurba_marseille","lat":43.30607,"lon":5.39351,"is_reserved":false,"is_disabled":true,"rental_uris":{"android":"levelo://app?vid=9ccaf1e8-d14c-4218-be36-430bac425c11","ios":"levelo://app?vid=9ccaf1e8-d14c-4218-be36-430bac425c11"},"vehicle_type_id":"4","last_reported":1744564068,"current_range_meters":20800,"station_id":"ce4bh0p2rcd13ifvqd80","pricing_plan_id":"cebpf4jnsgd1na2vs0mg"},{"bike_id":"d1840edc-4007-44cb-9286-4a07d3517f99","system_id":"levelo_inurba_marseille","lat":43.29554,"lon":5.3745,"is_reserved":false,"is_disabled":false,"rental_uris":{"android":"levelo://app?vid=d1840edc-4007-44cb-9286-4a07d3517f99","ios":"levelo://app?vid=d1840edc-4007-44cb-9286-4a07d3517f99"},"vehicle_type_id":"4","last_reported":1744564068,"current_range_meters":20800,"station_id":"ce4bgkp2rcd13ifvqbmg","pricing_plan_id":"cebpf4jnsgd1na2vs0mg"},{"bike_id":"86c06b03-5d3d-487a-bec3-c7d20381f28b","system_id":"levelo_inurba_marseille","lat":43.29022,"lon":5.38157,"is_reserved":false,"is_disabled":true,"rental_uris":{"android":"levelo://app?vid=86c06b03-5d3d-487a-bec3-c7d20381f28b","ios":"levelo://app?vid=86c06b03-5d3d-487a-bec3-c7d20381f28b"},"vehicle_type_id":"4","last_reported":1744564068,"current_range_meters":20800,"station_id":"ce4bh4p2rcd13ifvqe1g","pricing_plan_id":"cebpf4jnsgd1na2vs0mg"},{"bike_id":"aff14e61-9904-4d51-a07c-ae05b263df76","system_id":"levelo_inurba_marseille","lat":43.2883,"lon":5.35284,"is_reserved":false,"is_disabled":false,"rental_uris":{"android":"levelo://app?vid=aff14e61-9904-4d51-a07c-ae05b263df76","ios":"levelo://app?vid=aff14e61-9904-4d51-a07c-ae05b263df76"},"vehicle_type_id":"4","last_reported":1744564068,"current_range_meters":20800,"station_id":"ce4bgi12rcd13ifvqb70","pricing_plan_id":"cebpf4jnsgd1na2vs0mg"},{"bike_id":"86507adb-43c1-4a89-acc7-c74cd80a099f","system_id":"levelo_inurba_marseille","lat":43.23161,"lon":5.36667,"is_reserved":false,"is_disabled":false,"rental_uris":{"android":"levelo://app?vid=86507adb-43c1-4a89-acc7-c74cd80a099f","ios":"levelo://app?vid=86507adb-43c1-4a89-acc7-c74cd80a099f"},"vehicle_type_id":"4","last_reported":1744564068,"current_range_meters":20800,"station_id":"","pricing_plan_id":"cebpf4jnsgd1na2vs0mg"},{"bike_id":"213e8c2c-0b1d-4fe1-b218-8ab17eeaf541","system_id":"levelo_inurba_marseille","lat":43.26558,"lon":5.37286,"is_reserved":false,"is_disabled":false,"rental_uris":{"android":"levelo://app?vid=213e8c2c-0b1d-4fe1-b218-8ab17eeaf541","ios":"levelo://app?vid=213e8c2c-0b1d-4fe1-b218-8ab17eeaf541"},"vehicle_type_id":"4","last_reported":1744564068,"current_range_meters":20800,"station_id":"ce4bhg12rcd13ifvqf70","pricing_plan_id":"cebpf4jnsgd1na2vs0mg"},{"bike_id":"fb699e76-3264-4e44-9571-0622c9467b82","system_id":"levelo_inurba_marseille","lat":43.27925,"lon":5.3958,"is_reserved":false,"is_disabled":false,"rental_uris":{"android":"levelo://app?vid=fb699e76-3264-4e44-9571-0622c9467b82","ios":"levelo://app?vid=fb699e76-3264-4e44-9571-0622c9467b82"},"vehicle_type_id":"4","last_reported":1744564068,"current_range_meters":21600,"station_id":"ce4bhf92rcd13ifvqf40","pricing_plan_id":"cebpf4jnsgd1na2vs0mg"},{"bike_id":"8e1ea44e-3a0d-4d7d-8070-17ec93060454","system_id":"levelo_inurba_marseille","lat":43.241671,"lon":5.363909,"is_reserved":false,"is_disabled":false,"rental_uris":{"android":"levelo://app?vid=8e1ea44e-3a0d-4d7d-8070-17ec93060454","ios":"levelo://app?vid=8e1ea44e-3a0d-4d7d-8070-17ec93060454"},"vehicle_type_id":"4","last_reported":1744564068,"current_range_meters":21600,"station_id":"cpo36qri1sfpv3e86is0","pricing_plan_id":"cebpf4jnsgd1na2vs0mg"},{"bike_id":"ec55715f-50ef-4b62-b932-d89df8729be7","system_id":"levelo_inurba_marseille","lat":43.31629,"lon":5.38821,"is_reserved":false,"is_disabled":false,"rental_uris":{"android":"levelo://app?vid=ec55715f-50ef-4b62-b932-d89df8729be7","ios":"levelo://app?vid=ec55715f-50ef-4b62-b932-d89df8729be7"},"vehicle_type_id":"4","last_reported":1744564068,"current_range_meters":21600,"station_id":"","pricing_plan_id":"cebpf4jnsgd1na2vs0mg"},