{"last_updated":1742033370,"ttl":60,"version":"2.2","data":{"bikes":[{"bike_id":"78222df5-54d6-405e-9b07-37a40c589e89","system_id":"levelo_inurba_marseille","lat":43.26209,"lon":5.37439,"is_reserved":false,"is_disabled":false,"rental_uris":{"android":"levelo://app?vid=78222df5-54d6-405e-9b07-37a40c589e89","ios":"levelo://app?vid=78222df5-54d6-405e-9b07-37a40c589e89"},"vehicle_type_id":"4","last_reported":1742033370,"current_range_meters":2800,"station_id":"ce4bhgp2rcd13ifvqfc0","pricing_plan_id":"cebpf4jnsgd1na2vs0mg"},{"bike_id":"df72de8d-3db5-4864-a6e0-f643623f7709","system_id":"levelo_inurba_marseille","lat":43.31378,"lon":5.38492,"is_reserved":false,"is_disabled":false,"rental_uris":{"android":"levelo://app?vid=df72de8d-3db5-4864-a6e0-f643623f7709","ios":"levelo://app?vid=df72de8d-3db5-4864-a6e0-f643623f7709"},"vehicle_type_id":"4","last_reported":1742033370,"current_range_meters":2800,"station_id":"ce4bgt92rcd13ifvqcf0","pricing_plan_id":"cebpf4jnsgd1na2vs0mg"},{"bike_id":"4ca56da7-12a7-440f-9650-55d63670dc6e","system_id":"levelo_inurba_marseille","lat":43.22924,"lon":5.35384,"is_reserved":false,"is_disabled":false,"rental_uris":{"android":"levelo://app?vid=4ca56da7-12a7-440f-9650-55d63670dc6e","ios":"levelo://app?vid=4ca56da7-12a7-440f-9650-55d63670dc6e"},"vehicle_type_id":"4","last_reported":1742033370,"current_range_meters":3200,"station_id":"cpo3532slgdg3j2ikp40","pricing_plan_id":"cebpf4jnsgd1na2vs0mg"},{"bike_id":"78f06663-748a-4474-a9b1-4dc89ab2bea7","system_id":"levelo_inurba_marseille","lat":43.22927,"lon":5.35373,"is_reserved":false,"is_disabled":false,"rental_uris":{"android":"levelo://app?vid=78f06663-748a-4474-a9b1-4dc89ab2bea7","ios":"levelo://app?vid=78f06663-748a-4474-a9b1-4dc89ab2bea7"},"vehicle_type_id":"4","last_reported":1742033370,"current_range_meters":3200,"station_id":"cpo3532slgdg3j2ikp40","pricing_plan_id":"cebpf4jnsgd1na2vs0mg"},{"bike_id":"04ce8147-af4f-45a6-8062-4730f7d788c8","system_id":"levelo_inurba_marseille","lat":43.27628,"lon":5.3895,"is_reserved":false,"is_disabled":false,"rental_uris":{"android":"levelo://app?vid=04ce8147-af4f-45a6-8062-4730f7d788c8","ios":"levelo://app?vid=04ce8147-af4f-45a6-8062-4730f7d788c8"},"vehicle_type_id":"4","last_reported":1742033370,"current_range_meters":3200,"station_id":"ce4bhi12rcd13ifvqfo0","pricing_plan_id":"cebpf4jnsgd1na2vs0mg"},{"bike_id":"ee74655d-0140-407b-8329-fcb30d56a191","system_id":"levelo_inurba_marseille","lat":43.2657,"lon":5.39002,"is_reserved":false,"is_disabled":false,"rental_uris":{"android":"levelo://app?vid=ee74655d-0140-407b-8329-fcb30d56a191","ios":"levelo://app?vid=ee74655d-0140-407b-8329-fcb30d56a191"},"vehicle_type_id":"4","last_reported":1742033370,"current_range_meters":3200,"station_id":"ce4bhe12rcd13ifvqf30","pricing_plan_id":"cebpf4jnsgd1na2vs0mg"},{"bike_id":"2b1b02a6-9287-47af-bb72-9efa79a6434e","system_id":"levelo_inurba_marseille","lat":43.29617,"lon":5.37736,"is_reserved":false,"is_disabled":false,"rental_uris":{"android":"levelo://app?vid=2b1b02a6-9287-47af-bb72-9efa79a6434e","ios":"levelo://app?vid=2b1b02a6-9287-47af-bb72-9efa79a6434e"},"vehicle_type_id":"4","last_reported":1742033370,"current_range_meters":3600,"station_id":"ce4bgi92rcd13ifvqb90","pricing_plan_id":"cebpf4jnsgd1na2vs0mg"},{"bike_id":"aa3c5349-766e-4992-8e95-c670f1f543fb","system_id":"levelo_inurba_marseille","lat":43.22937,"lon":5.40189,"is_reserved":false,"is_disabled":false,"rental_uris":{"android":"levelo://app?vid=aa3c5349-766e-4992-8e95-c670f1f543fb","ios":"levelo://app?vid=aa3c5349-766e-4992-8e95-c670f1f543fb"},"vehicle_type_id":"4","last_reported":1742033370,"current_range_meters":4000,"station_id":"","pricing_plan_id":"cebpf4jnsgd1na2vs0mg"},{"bike_id":"fb25c0f6-5882-4734-a76a-2aeb0b117f9b","system_id":"levelo_inurba_marseille","lat":43.31759,"lon":5.39013,"is_reserved":false,"is_disabled":false,"rental_uris":{"android":"levelo://app?vid=fb25c0f6-5882-4734-a76a-2aeb0b117f9b","ios":"levelo://app?vid=fb25c0f6-5882-4734-a76a-2aeb0b117f9b"},"vehicle_type_id":"4","last_reported":1742033370,"current_range_meters":4800,"station_id":"ce4bhqp2rcd13ifvqhng","pricing_plan_id":"cebpf4jnsgd1na2vs0mg"},{"bike_id":"8600e973-6bae-49e6-a541-074b0686e3d2","system_id":"levelo_inurba_marseille","lat":43.3235,"lon":5.38883,"is_reserved":false,"is_disabled":false,"rental_uris":{"android":"levelo://app?vid=8600e973-6bae-49e6-a541-074b0686e3d2","ios":"levelo://app?vid=8600e973-6bae-49e6-a541-074b0686e3d2"},"vehicle_type_id":"4","last_reported":1742033370,"current_range_meters":4800,"station_id":"ce4bhqp2rcd13ifvqhog","pricing_plan_id":"cebpf4jnsgd1na2vs0mg"},{"bike_id":"36ec5a15-215b-4367-a3ca-336aadd9a251","system_id":"levelo_inurba_marseille","lat":43.33746,"lon":5.3745,"is_reserved":false,"is_disabled":false,"rental_uris":{"android":"levelo://app?vid=36ec5a15-215b-4367-a3ca-336aadd9a251","ios":"levelo://app?vid=36ec5a15-215b-4367-a3ca-336aadd9a251"},"vehicle_type_id":"4","last_reported":1742033370,"current_range_meters":4800,"station_id":"","pricing_plan_id":"cebpf4jnsgd1na2vs0mg"},{"bike_id":"cfbfae81-2b5a-4512-adc5-3545d5eb48ff","system_id":"levelo_inurba_marseille","lat":43.32349,"lon":5.38899,"is_reserved":false,"is_disabled":false,"rental_uris":{"android":"levelo://app?vid=cfbfae81-2b5a-4512-adc5-3545d5eb48ff","ios":"levelo://app?vid=cfbfae81-2b5a-4512-adc5-3545d5eb48ff"},"vehicle_type_id":"4","last_reported":1742033370,"current_range_meters":5600,"station_id":"ce4bhqp2rcd13ifvqhog","pricing_plan_id":"cebpf4jnsgd1na2vs0mg"},{"bike_id":"436bf6fd-98f0-4c70-968c-7fcac8f398a5","system_id":"levelo_inurba_marseille","lat":43.25096,"lon":5.41053,"is_reserved":false,"is_disabled":false,"rental_uris":{"android":"levelo://app?vid=436bf6fd-98f0-4c70-968c-7fcac8f398a5","ios":"levelo://app?vid=436bf6fd-98f0-4c70-968c-7fcac8f398a5"},"vehicle_type_id":"4","last_reported":1742033370,"current_range_meters":6000,"station_id":"","pricing_plan_id":"cebpf4jnsgd1na2vs0mg"},{"bike_id":"e6e8f8dd-dda0-43b3-bdd7-e5e81a312194","system_id":"levelo_inurba_marseille","lat":43.27209,"lon":5.39193,"is_reserved":false,"is_disabled":false,"rental_uris":{"android":"levelo://app?vid=e6e8f8dd-dda0-43b3-bdd7-e5e81a312194","ios":"levelo://app?vid=e6e8f8dd-dda0-43b3-bdd7-e5e81a312194"},"vehicle_type_id":"4","last_reported":1742033370,"current_range_meters":6000,"station_id":"ce4bhhp2rcd13ifvqfm0","pricing_plan_id":"cebpf4jnsgd1na2vs0mg"},{"bike_id":"703a27ab-78c1-4da2-9977-9c24f54834c8","system_id":"levelo_inurba_marseille","lat":43.32482,"lon":5.36575,"is_reserved":false,"is_disabled":false,"rental_uris":{"android":"levelo://app?vid=703a27ab-78c1-4da2-9977-9c24f54834c8","ios":"levelo://app?vid=703a27ab-78c1-4da2-9977-9c24f54834c8"},"vehicle_type_id":"4","last_reported":1742033370,"current_range_meters":6000,"station_id":"ce4bhs12rcd13ifvqhvg","pricing_plan_id":"cebpf4jnsgd1na2vs0mg"},{"bike_id":"27a5838b-e5fc-4a35-a5fd-447aeff52f0f","system_id":"levelo_inurba_marseille","lat":43.24799,"lon":5.37445,"is_reserved":false,"is_disabled":false,"rental_uris":{"android":"levelo://app?vid=27a5838b-e5fc-4a35-a5fd-447aeff52f0f","ios":"levelo://app?vid=27a5838b-e5fc-4a35-a5fd-447aeff52f0f"},"vehicle_type_id":"4","last_reported":1742033370,"current_range_meters":6000,"station_id":"ce4bhgh2rcd13ifvqfb0","pricing_plan_id":"cebpf4jnsgd1na2vs0mg"},{"bike_id":"f2ee8bc0-312d-4388-b78b-2fe33c2c7cb8","system_id":"levelo_inurba_marseille","lat":43.24548,"lon":5.39536,"is_reserved":false,"is_disabled":false,"rental_uris":{"android":"levelo://app?vid=f2ee8bc0-312d-4388-b78b-2fe33c2c7cb8","ios":"levelo://app?vid=f2ee8bc0-312d-4388-b78b-2fe33c2c7cb8"},"vehicle_type_id":"4","last_reported":1742033370,"current_range_meters":6000,"station_id":"ce4bhlp2rcd13ifvqgjg","pricing_plan_id":"cebpf4jnsgd1na2vs0mg"},{"bike_id":"36aad7e9-4791-4984-8df9-a8cded192aa8","system_id":"levelo_inurba_marseille","lat":43.27497,"lon":5.4245,"is_reserved":false,"is_disabled":false,"rental_uris":{"android":"levelo://app?vid=36aad7e9-4791-4984-8df9-a8cded192aa8","ios":"levelo://app?vid=36aad7e9-4791-4984-8df9-a8cded192aa8"},"vehicle_type_id":"4","last_reported":1742033370,"current_range_meters":6400,"station_id":"ce4bhn92rcd13ifvqgrg","pricing_plan_id":"cebpf4jnsgd1na2vs0mg"},{"bike_id":"f2d00548-a5af-43a5-9ad4-5205ddc617dc","system_id":"levelo_inurba_marseille","lat":43.30985,"lon":5.41728,"is_reserved":false,"is_disabled":false,"rental_uris":{"android":"levelo://app?vid=f2d00548-a5af-43a5-9ad4-5205ddc617dc","ios":"levelo://app?vid=f2d00548-a5af-43a5-9ad4-5205ddc617dc"},"vehicle_type_id":"4","last_reported":1742033370,"current_range_meters":6400,"station_id":"","pricing_plan_id":"cebpf4jnsgd1na2vs0mg"},{"bike_id":"3363e5ed-aafd-4c83-9f97-12270e6ffcf4","system_id":"levelo_inurba_marseille","lat":43.24848,"lon":5.40638,"is_reserved":false,"is_disabled":false,"rental_uris":{"android":"levelo://app?vid=3363e5ed-aafd-4c83-9f97-12270e6ffcf4","ios":"levelo://app?vid=3363e5ed-aafd-4c83-9f97-12270e6ffcf4"},"vehicle_type_id":"4","last_reported":1742033370,"current_range_meters":6400,"station_id":"","pricing_plan_id":"cebpf4jnsgd1na2vs0mg"},{"bike_id":"594a33ea-5c85-49b0-893b-48b1f5e1011a","system_id":"levelo_inurba_marseille","lat":43.30927,"lon":5.40144,"is_reserved":false,"is_disabled":true,"rental_uris":{"android":"levelo://app?vid=594a33ea-5c85-49b0-893b-48b1f5e1011a","ios":"levelo://app?vid=594a33ea-5c85-49b0-893b-48b1f5e1011a"},"vehicle_type_id":"4","last_reported":1742033370,"current_range_meters":6400,"station_id":"ce4bgvp2rcd13ifvqct0","pricing_plan_id":"cebpf4jnsgd1na2vs0mg"},{"bike_id":"faf4c27a-d7eb-4435-bbca-3d07a59b2d3c","system_id":"levelo_inurba_marseille","lat":43.31267,"lon":5.40182,"is_reserved":false,"is_disabled":false,"rental_uris":{"android":"levelo://app?vid=faf4c27a-d7eb-4435-bbca-3d07a59b2d3c","ios":"levelo://app?vid=faf4c27a-d7eb-4435-bbca-3d07a59b2d3c"},"vehicle_type_id":"4","last_reported":1742033370,"current_range_meters":6800,"station_id":"ce4bh092rcd13ifvqd30","pricing_plan_id":"cebpf4jnsgd1na2vs0mg"},{"bike_id":"bd59c4d2-2d74-42b6-b1ba-0107e8014db3","system_id":"levelo_inurba_marseille","lat":43.30613,"lon":5.37229,"is_reserved":false,"is_disabled":false,"rental_uris":{"android":"levelo://app?vid=bd59c4d2-2d74-42b6-b1ba-0107e8014db3","ios":"levelo://app?vid=bd59c4d2-2d74-42b6-b1ba-0107e8014db3"},"vehicle_type_id":"4","last_reported":1742033370,"current_range_meters":7200,"station_id":"ce4bgqh2rcd13ifvqc4g","pricing_plan_id":"cebpf4jnsgd1na2vs0mg"},{"bike_id":"c319887f-b1ab-4c13-8ddc-9f57e60f8873","system_id":"levelo_inurba_marseille","lat":43.33629,"lon":5.40998,"is_reserved":false,"is_disabled":false,"rental_uris":{"android":"levelo://app?vid=c319887f-b1ab-4c13-8ddc-9f57e60f8873","ios":"levelo://app?vid=c319887f-b1ab-4c13-8ddc-9f57e60f8873"},"vehicle_type_id":"4","last_reported":1742033370,"current_range_meters":7200,"station_id":"ce4bhqh2rcd13ifvqhmg","pricing_plan_id":"cebpf4jnsgd1na2vs0mg"},{"bike_id":"77f0430f-3350-4963-ac6b-e35c49a943e2","system_id":"levelo_inurba_marseille","lat":43.31656,"lon":5.39561,"is_reserved":false,"is_disabled":false,"rental_uris":{"android":"levelo://app?vid=77f0430f-3350-4963-ac6b-e35c49a943e2","ios":"levelo://app?vid=77f0430f-3350-4963-ac6b-e35c49a943e2"},"vehicle_type_id":"4","last_reported":1742033370,"current_range_meters":7200,"station_id":"","pricing_plan_id":"cebpf4jnsgd1na2vs0mg"},{"bike_id":"886259f7-d5b4-4258-b9b1-334bcf1ab143","system_id":"levelo_inurba_marseille","lat":43.27063,"lon":5.4229,"is_reserved":false,"is_disabled":false,"rental_uris":{"android":"levelo://app?vid=886259f7-d5b4-4258-b9b1-334bcf1ab143","ios":"levelo://app?vid=886259f7-d5b4-4258-b9b1-334bcf1ab143"},"vehicle_type_id":"4","last_reported":1742033370,"current_range_meters":8000,"station_id":"ce4bhk92rcd13ifvqgb0","pricing_plan_id":"cebpf4jnsgd1na2vs0mg"},{"bike_id":"48f968e9-2670-450c-9a50-b12a7ac1907f","system_id":"levelo_inurba_marseille","lat":43.25728,"lon":5.41103,"is_reserved":false,"is_disabled":false,"rental_uris":{"android":"levelo://app?vid=48f968e9-2670-450c-9a50-b12a7ac1907f","ios":"levelo://app?vid=48f968e9-2670-450c-9a50-b12a7ac1907f"},"vehicle_type_id":"4","last_reported":1742033370,"current_range_meters":8000,"station_id":"ce4bhkp2rcd13ifvqgd0","pricing_plan_id":"cebpf4jnsgd1na2vs0mg"},{"bike_id":"a8e67676-89ba-43e0-82dc-5ef4b0a5e328","system_id":"levelo_inurba_marseille","lat":43.3137,"lon":5.39209,"is_reserved":false,"is_disabled":false,"rental_uris":{"android":"levelo://app?vid=a8e67676-89ba-43e0-82dc-5ef4b0a5e328","ios":"levelo://app?vid=a8e67676-89ba-43e0-82dc-5ef4b0a5e328"},"vehicle_type_id":"4","last_reported":1742033370,"current_range_meters":8000,"station_id":"","pricing_plan_id":"cebpf4jnsgd1na2vs0mg"},{"bike_id":"ce53b4e8-5470-422d-96e3-f2b390da4906","system_id":"levelo_inurba_marseille","lat":43.29803,"lon":5.38085,"is_reserved":false,"is_disabled":false,"rental_uris":{"android":"levelo://app?vid=ce53b4e8-5470-422d-96e3-f2b390da4906","ios":"levelo://app?vid=ce53b4e8-5470-422d-96e3-f2b390da4906"},"vehicle_type_id":"4","last_reported":1742033370,"current_range_meters":8000,"station_id":"ce4bgip2rcd13ifvqbb0","pricing_plan_id":"cebpf4jnsgd1na2vs0mg"},{"bike_id":"2ec0f046-4e68-4150-a618-5c892d6b2cb5","system_id":"levelo_inurba_marseille","lat":43.26235,"lon":5.40451,"is_reserved":false,"is_disabled":false,"rental_uris":{"android":"levelo://app?vid=2ec0f046-4e68-4150-a618-5c892d6b2cb5","ios":"levelo://app?vid=2ec0f046-4e68-4150-a618-5c892d6b2cb5"},"vehicle_type_id":"4","last_reported":1742033370,"current_range_meters":8000,"station_id":"ce4bhmh2rcd13ifvqgmg","pricing_plan_id":"cebpf4jnsgd1na2vs0mg"},{"bike_id":"c75cb7d9-9c4c-44e7-bd33-ecf4015fd20e","system_id":"levelo_inurba_marseille","lat":43.27814,"lon":5.4071,"is_reserved":false,"is_disabled":false,"rental_uris":{"android":"levelo://app?vid=c75cb7d9-9c4c-44e7-bd33-ecf4015fd20e","ios":"levelo://app?vid=c75cb7d9-9c4c-44e7-bd33-ecf4015fd20e"},"vehicle_type_id":"4","last_reported":1742033370,"current_range_meters":8400,"station_id":"ce4bhnh2rcd13ifvqgtg","pricing_plan_id":"cebpf4jnsgd1na2vs0mg"},{"bike_id":"d9d112ab-bb0c-48a8-b7d7-88dde0b5d086","system_id":"levelo_inurba_marseille","lat":43.32287,"lon":5.3828,"is_reserved":false,"is_disabled":false,"rental_uris":{"android":"levelo://app?vid=d9d112ab-bb0c-48a8-b7d7-88dde0b5d086","ios":"levelo://app?vid=d9d112ab-bb0c-48a8-b7d7-88dde0b5d086"},"vehicle_type_id":"4","last_reported":1742033370,"current_range_meters":8400,"station_id":"ce4bhr12rcd13ifvqhqg","pricing_plan_id":"cebpf4jnsgd1na2vs0mg"},{"bike_id":"fdf30adf-69b0-4413-801c-f434999c6005","system_id":"levelo_inurba_marseille","lat":43.2796,"lon":5.38722,"is_reserved":false,"is_disabled":false,"rental_uris":{"android":"levelo://app?vid=fdf30adf-69b0-4413-801c-f434999c6005","ios":"levelo://app?vid=fdf30adf-69b0-4413-801c-f434999c6005"},"vehicle_type_id":"4","last_reported":1742033370,"current_range_meters":8400,"station_id":"ce4bhg12rcd13ifvqf80","pricing_plan_id":"cebpf4jnsgd1na2vs0mg"},{"bike_id":"8a426378-1e66-4cf8-a4e5-601b569a4048","system_id":"levelo_inurba_marseille","lat":43.28916,"lon":5.40026,"is_reserved":false,"is_disabled":false,"rental_uris":{"android":"levelo://app?vid=8a426378-1e66-4cf8-a4e5-601b569a4048","ios":"levelo://app?vid=8a426378-1e66-4cf8-a4e5-601b569a4048"},"vehicle_type_id":"4","last_reported":1742033370,"current_range_meters":8400,"station_id":"","pricing_plan_id":"cebpf4jnsgd1na2vs0mg"},{"bike_id":"bd7fb638-a561-41df-90ca-f32685780427","system_id":"levelo_inurba_marseille","lat":43.229238,"lon":5.353768,"is_reserved":false,"is_disabled":false,"rental_uris":{"android":"levelo://app?vid=bd7fb638-a561-41df-90ca-f32685780427","ios":"levelo://app?vid=bd7fb638-a561-41df-90ca-f32685780427"},"vehicle_type_id":"4","last_reported":1742033370,"current_range_meters":8400,"station_id":"cpo3532slgdg3j2ikp40","pricing_plan_id":"cebpf4jnsgd1na2vs0mg"},{"bike_id":"8a5bd971-61c1-4475-933b-dffdb284dd01","system_id":"levelo_inurba_marseille","lat":43.25007,"lon":5.38914,"is_reserved":false,"is_disabled":false,"rental_uris":{"android":"levelo://app?vid=8a5bd971-61c1-4475-933b-dffdb284dd01","ios":"levelo://app?vid=8a5bd971-61c1-4475-933b-dffdb284dd01"},"vehicle_type_id":"4","last_reported":1742033370,"current_range_meters":8800,"station_id":"ce4bhgp2rcd13ifvqfd0","pricing_plan_id":"cebpf4jnsgd1na2vs0mg"},{"bike_id":"6170d7be-4461-458b-9663-a1e8634b2902","system_id":"levelo_inurba_marseille","lat":43.29614,"lon":5.37721,"is_reserved":false,"is_disabled":false,"rental_uris":{"android":"levelo://app?vid=6170d7be-4461-458b-9663-a1e8634b2902","ios":"levelo://app?vid=6170d7be-4461-458b-9663-a1e8634b2902"},"vehicle_type_id":"4","last_reported":1742033370,"current_range_meters":8800,"station_id":"ce4bgi92rcd13ifvqb90","pricing_plan_id":"cebpf4jnsgd1na2vs0mg"},{"bike_id":"160bfb45-ff11-4fcf-a7de-39a5ae6b63ee","system_id":"levelo_inurba_marseille","lat":43.26211,"lon":5.3744,"is_reserved":false,"is_disabled":false,"rental_uris":{"android":"levelo://app?vid=160bfb45-ff11-4fcf-a7de-39a5ae6b63ee","ios":"levelo://app?vid=160bfb45-ff11-4fcf-a7de-39a5ae6b63ee"},"vehicle_type_id":"4","last_reported":1742033370,"current_range_meters":8800,"station_id":"ce4bhgp2rcd13ifvqfc0","pricing_plan_id":"cebpf4jnsgd1na2vs0mg"},{"bike_id":"041ac2b9-13e8-4da1-922a-402a224c919f","system_id":"levelo_inurba_marseille","lat":43.313624,"lon":5.384874,"is_reserved":false,"is_disabled":false,"rental_uris":{"android":"levelo://app?vid=041ac2b9-13e8-4da1-922a-402a224c919f","ios":"levelo://app?vid=041ac2b9-13e8-4da1-922a-402a224c919f"},"vehicle_type_id":"4","last_reported":1742033370,"current_range_meters":8800,"station_id":"ce4bgt92rcd13ifvqcf0","pricing_plan_id":"cebpf4jnsgd1na2vs0mg"},{"bike_id":"9ae97f87-5988-434e-be02-4825dd7943b7","system_id":"levelo_inurba_marseille","lat":43.25935,"lon":5.40904,"is_reserved":false,"is_disabled":false,"rental_uris":{"android":"levelo://app?vid=9ae97f87-5988-434e-be02-4825dd7943b7","ios":"levelo://app?vid=9ae97f87-5988-434e-be02-4825dd7943b7"},"vehicle_type_id":"4","last_reported":1742033370,"current_range_meters":8800,"station_id":"ce4bhm92rcd13ifvqglg","pricing_plan_id":"cebpf4jnsgd1na2vs0mg"},{"bike_id":"0d1b2129-b18b-4dfa-b355-90ec4e4e0735","system_id":"levelo_inurba_marseille","lat":43.29689,"lon":5.36597,"is_reserved":false,"is_disabled":false,"rental_uris":{"android":"levelo://app?vid=0d1b2129-b18b-4dfa-b355-90ec4e4e0735","ios":"levelo://app?vid=0d1b2129-b18b-4dfa-b355-90ec4e4e0735"},"vehicle_type_id":"4","last_reported":1742033370,"current_range_meters":9200,"station_id":"ce4bgn12rcd13ifvqbt0","pricing_plan_id":"cebpf4jnsgd1na2vs0mg"},{"bike_id":"2a069566-a5df-437d-bb2d-6e0c024e474a","system_id":"levelo_inurba_marseille","lat":43.29277,"lon":5.3762,"is_reserved":false,"is_disabled":false,"rental_uris":{"android":"levelo://app?vid=2a069566-a5df-437d-bb2d-6e0c024e474a","ios":"levelo://app?vid=2a069566-a5df-437d-bb2d-6e0c024e474a"},"vehicle_type_id":"4","last_reported":1742033370,"current_range_meters":9200,"station_id":"ce4bgi12rcd13ifvqb80","pricing_plan_id":"cebpf4jnsgd1na2vs0mg"},{"bike_id":"b277fbd0-7274-483c-bb32-41c3dbcee2be","system_id":"levelo_inurba_marseille","lat":43.2705,"lon":5.40256,"is_reserved":false,"is_disabled":false,"rental_uris":{"android":"levelo://app?vid=b277fbd0-7274-483c-bb32-41c3dbcee2be","ios":"levelo://app?vid=b277fbd0-7274-483c-bb32-41c3dbcee2be"},"vehicle_type_id":"4","last_reported":1742033370,"current_range_meters":9600,"station_id":"ce4bhk92rcd13ifvqgc0","pricing_plan_id":"cebpf4jnsgd1na2vs0mg"},{"bike_id":"9fd8a695-1141-48a7-a275-ae03aade4f9e","system_id":"levelo_inurba_marseille","lat":43.2455,"lon":5.39522,"is_reserved":false,"is_disabled":false,"rental_uris":{"android":"levelo://app?vid=9fd8a695-1141-48a7-a275-ae03aade4f9e","ios":"levelo://app?vid=9fd8a695-1141-48a7-a275-ae03aade4f9e"},"vehicle_type_id":"4","last_reported":1742033370,"current_range_meters":9600,"station_id":"ce4bhlp2rcd13ifvqgjg","pricing_plan_id":"cebpf4jnsgd1na2vs0mg"},{"bike_id":"553f88c6-6125-4e11-9f10-81e7edf1b7e6","system_id":"levelo_inurba_marseille","lat":43.29916,"lon":5.37464,"is_reserved":false,"is_disabled":false,"rental_uris":{"android":"levelo://app?vid=553f88c6-6125-4e11-9f10-81e7edf1b7e6","ios":"levelo://app?vid=553f88c6-6125-4e11-9f10-81e7edf1b7e6"},"vehicle_type_id":"4","last_reported":1742033370,"current_range_meters":9600,"station_id":"ce4bgjh2rcd13ifvqbg0","pricing_plan_id":"cebpf4jnsgd1na2vs0mg"},{"bike_id":"5c09fa10-66af-4d08-984a-1d41e4e2c41b","system_id":"levelo_inurba_marseille","lat":43.23182,"lon":5.39994,"is_reserved":false,"is_disabled":false,"rental_uris":{"android":"levelo://app?vid=5c09fa10-66af-4d08-984a-1d41e4e2c41b","ios":"levelo://app?vid=5c09fa10-66af-4d08-984a-1d41e4e2c41b"},"vehicle_type_id":"4","last_reported":1742033370,"current_range_meters":9600,"station_id":"ce4bhn12rcd13ifvqgqg","pricing_plan_id":"cebpf4jnsgd1na2vs0mg"},{"bike_id":"18a1cfa4-0583-4465-858e-41f769d09057","system_id":"levelo_inurba_marseille","lat":43.31273,"lon":5.40174,"is_reserved":false,"is_disabled":false,"rental_uris":{"android":"levelo://app?vid=18a1cfa4-0583-4465-858e-41f769d09057","ios":"levelo://app?vid=18a1cfa4-0583-4465-858e-41f769d09057"},"vehicle_type_id":"4","last_reported":1742033370,"current_range_meters":9600,"station_id":"ce4bh092rcd13ifvqd30","pricing_plan_id":"cebpf4jnsgd1na2vs0mg"},{"bike_id":"04f149c6-a120-4218-b435-a952d9eb67d0","system_id":"levelo_inurba_marseille","lat":43.2487,"lon":5.40641,"is_reserved":false,"is_disabled":false,"rental_uris":{"android":"levelo://app?vid=04f149c6-a120-4218-b435-a952d9eb67d0","ios":"levelo://app?vid=04f149c6-a120-4218-b435-a952d9eb67d0"},"vehicle_type_id":"4","last_reported":1742033370,"current_range_meters":9600,"station_id":"","pricing_plan_id":"cebpf4jnsgd1na2vs0mg"},{"bike_id":"385ae15c-2c3c-4490-a507-5eb20fb883a5","system_id":"levelo_inurba_marseille","lat":43.25929,"lon":5.40892,"is_reserved":false,"is_disabled":false,"rental_uris":{"android":"levelo://app?vid=385ae15c-2c3c-4490-a507-5eb20fb883a5","ios":"levelo://app?vid=385ae15c-2c3c-4490-a507-5eb20fb883a5"},"vehicle_type_id":"4","last_reported":1742033370,"current_range_meters":9600,"station_id":"ce4bhm92rcd13ifvqglg","pricing_plan_id":"cebpf4jnsgd1na2vs0mg"},{"bike_id":"42011162-8124-4852-8fd0-190f2342eac5","system_id":"levelo_inurba_marseille","lat":43.30539,"lon":5.36696,"is_reserved":false,"is_disabled":false,"rental_uris":{"android":"levelo://app?vid=42011162-8124-4852-8fd0-190f2342eac5","ios":"levelo://app?vid=42011162-8124-4852-8fd0-190f2342eac5"},"vehicle_type_id":"4","last_reported":1742033370,"current_range_meters":9600,"station_id":"ce4bgrp2rcd13ifvqc9g","pricing_plan_id":"cebpf4jnsgd1na2vs0mg"},{"bike_id":"41ba19a0-0e14-4479-a30d-99eb9075edc9","system_id":"levelo_inurba_marseille","lat":43.23209,"lon":5.35551,"is_reserved":false,"is_disabled":false,"rental_uris":{"android":"levelo://app?vid=41ba19a0-0e14-4479-a30d-99eb9075edc9","ios":"levelo://app?vid=41ba19a0-0e14-4479-a30d-99eb9075edc9"},"vehicle_type_id":"4","last_reported":1742033370,"current_range_meters":10000,"station_id":"ce4bhu92rcd13ifvqi70","pricing_plan_id":"cebpf4jnsgd1na2vs0mg"},{"bike_id":"676e66c6-8e50-404c-b512-5f94c7d6a8fc","system_id":"levelo_inurba_marseille","lat":43.24214,"lon":5.36392,"is_reserved":false,"is_disabled":false,"rental_uris":{"android":"levelo://app?vid=676e66c6-8e50-404c-b512-5f94c7d6a8fc","ios":"levelo://app?vid=676e66c6-8e50-404c-b512-5f94c7d6a8fc"},"vehicle_type_id":"4","last_reported":1742033370,"current_range_meters":10000,"station_id":"cpo36qri1sfpv3e86is0","pricing_plan_id":"cebpf4jnsgd1na2vs0mg"},{"bike_id":"cabd3d2d-330e-43b2-8d0b-3e86699f79e1","system_id":"levelo_inurba_marseille","lat":43.2417,"lon":5.36398,"is_reserved":false,"is_disabled":false,"rental_uris":{"android":"levelo://app?vid=cabd3d2d-330e-43b2-8d0b-3e86699f79e1","ios":"levelo://app?vid=cabd3d2d-330e-43b2-8d0b-3e86699f79e1"},"vehicle_type_id":"4","last_reported":1742033370,"current_range_meters":10000,"station_id":"cpo36qri1sfpv3e86is0","pricing_plan_id":"cebpf4jnsgd1na2vs0mg"},{"bike_id":"cd2eb4ba-77cf-40ae-a991-34cec5701430","system_id":"levelo_inurba_marseille","lat":43.23154,"lon":5.43713,"is_reserved":false,"is_disabled":false,"rental_uris":{"android":"levelo://app?vid=cd2eb4ba-77cf-40ae-a991-34cec5701430","ios":"levelo://app?vid=cd2eb4ba-77cf-40ae-a991-34cec5701430"},"vehicle_type_id":"4","last_reported":1742033370,"current_range_meters":10000,"station_id":"ce4bhmp2rcd13ifvqgog","pricing_plan_id":"cebpf4jnsgd1na2vs0mg"},{"bike_id":"65bea2c5-78a7-4fbf-92b5-f338edebb748","system_id":"levelo_inurba_marseille","lat":43.26106,"lon":5.41458,"is_reserved":false,"is_disabled":false,"rental_uris":{"android":"levelo://app?vid=65bea2c5-78a7-4fbf-92b5-f338edebb748","ios":"levelo://app?vid=65bea2c5-78a7-4fbf-92b5-f338edebb748"},"vehicle_type_id":"4","last_reported":1742033370,"current_range_meters":10000,"station_id":"","pricing_plan_id":"cebpf4jnsgd1na2vs0mg"},{"bike_id":"62750819-90ea-49db-b059-da19472d9390","system_id":"levelo_inurba_marseille","lat":43.315632,"lon":5.422785,"is_reserved":false,"is_disabled":false,"rental_uris":{"android":"levelo://app?vid=62750819-90ea-49db-b059-da19472d9390","ios":"levelo://app?vid=62750819-90ea-49db-b059-da19472d9390"},"vehicle_type_id":"4","last_reported":1742033370,"current_range_meters":10000,"station_id":"","pricing_plan_id":"cebpf4jnsgd1na2vs0mg"},{"bike_id":"08d7ad39-29b9-4d1d-ab44-5a56dd13dd34","system_id":"levelo_inurba_marseille","lat":43.24059,"lon":5.37696,"is_reserved":false,"is_disabled":false,"rental_uris":{"android":"levelo://app?vid=08d7ad39-29b9-4d1d-ab44-5a56dd13dd34","ios":"levelo://app?vid=08d7ad39-29b9-4d1d-ab44-5a56dd13dd34"},"vehicle_type_id":"4","last_reported":1742033370,"current_range_meters":10800,"station_id":"","pricing_plan_id":"cebpf4jnsgd1na2vs0mg"},{"bike_id":"03d5c30f-9b67-4c42-b496-00580617f460","system_id":"levelo_inurba_marseille","lat":43.31064,"lon":5.38361,"is_reserved":false,"is_disabled":false,"rental_uris":{"android":"levelo://app?vid=03d5c30f-9b67-4c42-b496-00580617f460","ios":"levelo://app?vid=03d5c30f-9b67-4c42-b496-00580617f460"},"vehicle_type_id":"4","last_reported":1742033370,"current_range_meters":10800,"station_id":"ce4bgv92rcd13ifvqcr0","pricing_plan_id":"cebpf4jnsgd1na2vs0mg"},{"bike_id":"269491db-b98a-49e3-a3b5-e04159ff8cbf","system_id":"levelo_inurba_marseille","lat":43.26943,"lon":5.40248,"is_reserved":false,"is_disabled":false,"rental_uris":{"android":"levelo://app?vid=269491db-b98a-49e3-a3b5-e04159ff8cbf","ios":"levelo://app?vid=269491db-b98a-49e3-a3b5-e04159ff8cbf"},"vehicle_type_id":"4","last_reported":1742033370,"current_range_meters":10800,"station_id":"cjm6bp8fraef2m0cb0m0","pricing_plan_id":"cebpf4jnsgd1na2vs0mg"},{"bike_id":"392814a7-3b37-4ab7-9c03-6413ca1d419e","system_id":"levelo_inurba_marseille","lat":43.29615,"lon":5.37735,"is_reserved":false,"is_disabled":false,"rental_uris":{"android":"levelo://app?vid=392814a7-3b37-4ab7-9c03-6413ca1d419e","ios":"levelo://app?vid=392814a7-3b37-4ab7-9c03-6413ca1d419e"},"vehicle_type_id":"4","last_reported":1742033370,"current_range_meters":10800,"station_id":"ce4bgi92rcd13ifvqb90","pricing_plan_id":"cebpf4jnsgd1na2vs0mg"},{"bike_id":"4ef323ec-55a6-4673-9998-ca7fe4a3fb37","system_id":"levelo_inurba_marseille","lat":43.330229,"lon":5.390365,"is_reserved":false,"is_disabled":false,"rental_uris":{"android":"levelo://app?vid=4ef323ec-55a6-4673-9998-ca7fe4a3fb37","ios":"levelo://app?vid=4ef323ec-55a6-4673-9998-ca7fe4a3fb37"},"vehicle_type_id":"4","last_reported":1742033370,"current_range_meters":10800,"station_id":"ce4bhr92rcd13ifvqhrg","pricing_plan_id":"cebpf4jnsgd1na2vs0mg"},{"bike_id":"64986549-2c9e-4b9f-8464-f74cc2571bf2","system_id":"levelo_inurba_marseille","lat":43.24079,"lon":5.37712,"is_reserved":false,"is_disabled":false,"rental_uris":{"android":"levelo://app?vid=64986549-2c9e-4b9f-8464-f74cc2571bf2","ios":"levelo://app?vid=64986549-2c9e-4b9f-8464-f74cc2571bf2"},"vehicle_type_id":"4","last_reported":1742033370,"current_range_meters":10800,"station_id":"ce4bhnp2rcd13ifvqgvg","pricing_plan_id":"cebpf4jnsgd1na2vs0mg"},{"bike_id":"9d9bd579-ca4a-49a8-84d8-e0a9c1600b5e","system_id":"levelo_inurba_marseille","lat":43.250844,"lon":5.395249,"is_reserved":false,"is_disabled":false,"rental_uris":{"android":"levelo://app?vid=9d9bd579-ca4a-49a8-84d8-e0a9c1600b5e","ios":"levelo://app?vid=9d9bd579-ca4a-49a8-84d8-e0a9c1600b5e"},"vehicle_type_id":"4","last_reported":1742033370,"current_range_meters":11200,"station_id":"ce4bhm12rcd13ifvqgkg","pricing_plan_id":"cebpf4jnsgd1na2vs0mg"},{"bike_id":"5f51be28-0822-4b51-a237-145201c147d9","system_id":"levelo_inurba_marseille","lat":43.3046,"lon":5.37911,"is_reserved":false,"is_disabled":false,"rental_uris":{"android":"levelo://app?vid=5f51be28-0822-4b51-a237-145201c147d9","ios":"levelo://app?vid=5f51be28-0822-4b51-a237-145201c147d9"},"vehicle_type_id":"4","last_reported":1742033370,"current_range_meters":11200,"station_id":"ce4bgup2rcd13ifvqcn0","pricing_plan_id":"cebpf4jnsgd1na2vs0mg"},{"bike_id":"0b7bfdb8-fd03-4687-9225-8085184f929c","system_id":"levelo_inurba_marseille","lat":43.32353,"lon":5.36742,"is_reserved":false,"is_disabled":false,"rental_uris":{"android":"levelo://app?vid=0b7bfdb8-fd03-4687-9225-8085184f929c","ios":"levelo://app?vid=0b7bfdb8-fd03-4687-9225-8085184f929c"},"vehicle_type_id":"4","last_reported":1742033370,"current_range_meters":11200,"station_id":"ce4bhsh2rcd13ifvqi2g","pricing_plan_id":"cebpf4jnsgd1na2vs0mg"},{"bike_id":"2c5aa530-b47f-422b-9cfb-8ea5a70fd9b1","system_id":"levelo_inurba_marseille","lat":43.31337,"lon":5.39707,"is_reserved":false,"is_disabled":false,"rental_uris":{"android":"levelo://app?vid=2c5aa530-b47f-422b-9cfb-8ea5a70fd9b1","ios":"levelo://app?vid=2c5aa530-b47f-422b-9cfb-8ea5a70fd9b1"},"vehicle_type_id":"4","last_reported":1742033370,"current_range_meters":11200,"station_id":"ce4bgvp2rcd13ifvqcu0","pricing_plan_id":"cebpf4jnsgd1na2vs0mg"},{"bike_id":"83783ead-721f-4d82-86e9-a8ac641b2edd","system_id":"levelo_inurba_marseille","lat":43.26237,"lon":5.40451,"is_reserved":false,"is_disabled":false,"rental_uris":{"android":"levelo://app?vid=83783ead-721f-4d82-86e9-a8ac641b2edd","ios":"levelo://app?vid=83783ead-721f-4d82-86e9-a8ac641b2edd"},"vehicle_type_id":"4","last_reported":1742033370,"current_range_meters":11200,"station_id":"ce4bhmh2rcd13ifvqgmg","pricing_plan_id":"cebpf4jnsgd1na2vs0mg"},{"bike_id":"7137f0c1-e937-471d-bfc2-9a2400fc4913","system_id":"levelo_inurba_marseille","lat":43.31271,"lon":5.4017,"is_reserved":false,"is_disabled":false,"rental_uris":{"android":"levelo://app?vid=7137f0c1-e937-471d-bfc2-9a2400fc4913","ios":"levelo://app?vid=7137f0c1-e937-471d-bfc2-9a2400fc4913"},"vehicle_type_id":"4","last_reported":1742033370,"current_range_meters":11200,"station_id":"ce4bh092rcd13ifvqd30","pricing_plan_id":"cebpf4jnsgd1na2vs0mg"},{"bike_id":"8586b868-e2d7-4255-9e17-aa145b302dae","system_id":"levelo_inurba_marseille","lat":43.29412,"lon":5.37391,"is_reserved":false,"is_disabled":false,"rental_uris":{"android":"levelo://app?vid=8586b868-e2d7-4255-9e17-aa145b302dae","ios":"levelo://app?vid=8586b868-e2d7-4255-9e17-aa145b302dae"},"vehicle_type_id":"4","last_reported":1742033370,"current_range_meters":11200,"station_id":"","pricing_plan_id":"cebpf4jnsgd1na2vs0mg"},{"bike_id":"250df0df-32c5-4ab5-a034-b9294215e763","system_id":"levelo_inurba_marseille","lat":43.269476,"lon":5.386393,"is_reserved":false,"is_disabled":false,"rental_uris":{"android":"levelo://app?vid=250df0df-32c5-4ab5-a034-b9294215e763","ios":"levelo://app?vid=250df0df-32c5-4ab5-a034-b9294215e763"},"vehicle_type_id":"4","last_reported":1742033370,"current_range_meters":11600,"station_id":"ce4bhh92rcd13ifvqfh0","pricing_plan_id":"cebpf4jnsgd1na2vs0mg"},{"bike_id":"99f8340a-c78a-438d-8739-45a32568e585","system_id":"levelo_inurba_marseille","lat":43.24801,"lon":5.37451,"is_reserved":false,"is_disabled":false,"rental_uris":{"android":"levelo://app?vid=99f8340a-c78a-438d-8739-45a32568e585","ios":"levelo://app?vid=99f8340a-c78a-438d-8739-45a32568e585"},"vehicle_type_id":"4","last_reported":1742033370,"current_range_meters":11200,"station_id":"ce4bhgh2rcd13ifvqfb0","pricing_plan_id":"cebpf4jnsgd1na2vs0mg"},{"bike_id":"e52b41b5-52df-4c67-a85c-3cebb3bf7504","system_id":"levelo_inurba_marseille","lat":43.32369,"lon":5.36757,"is_reserved":false,"is_disabled":false,"rental_uris":{"android":"levelo://app?vid=e52b41b5-52df-4c67-a85c-3cebb3bf7504","ios":"levelo://app?vid=e52b41b5-52df-4c67-a85c-3cebb3bf7504"},"vehicle_type_id":"4","last_reported":1742033370,"current_range_meters":11600,"station_id":"ce4bhsh2rcd13ifvqi2g","pricing_plan_id":"cebpf4jnsgd1na2vs0mg"},{"bike_id":"3fbdbed3-81eb-4ebd-99e8-fe7ae5272906","system_id":"levelo_inurba_marseille","lat":43.25827,"lon":5.39416,"is_reserved":false,"is_disabled":false,"rental_uris":{"android":"levelo://app?vid=3fbdbed3-81eb-4ebd-99e8-fe7ae5272906","ios":"levelo://app?vid=3fbdbed3-81eb-4ebd-99e8-fe7ae5272906"},"vehicle_type_id":"4","last_reported":1742033370,"current_range_meters":11600,"station_id":"ce4bhip2rcd13ifvqft0","pricing_plan_id":"cebpf4jnsgd1na2vs0mg"},{"bike_id":"782eb9b5-ef5a-4a8d-aefb-e596ead395e2","system_id":"levelo_inurba_marseille","lat":43.3107,"lon":5.38346,"is_reserved":false,"is_disabled":false,"rental_uris":{"android":"levelo://app?vid=782eb9b5-ef5a-4a8d-aefb-e596ead395e2","ios":"levelo://app?vid=782eb9b5-ef5a-4a8d-aefb-e596ead395e2"},"vehicle_type_id":"4","last_reported":1742033370,"current_range_meters":12000,"station_id":"ce4bgv92rcd13ifvqcr0","pricing_plan_id":"cebpf4jnsgd1na2vs0mg"},{"bike_id":"73e5a0f7-990d-4cd5-a507-5015e5e3d79f","system_id":"levelo_inurba_marseille","lat":43.33094,"lon":5.37664,"is_reserved":false,"is_disabled":false,"rental_uris":{"android":"levelo://app?vid=73e5a0f7-990d-4cd5-a507-5015e5e3d79f","ios":"levelo://app?vid=73e5a0f7-990d-4cd5-a507-5015e5e3d79f"},"vehicle_type_id":"4","last_reported":1742033370,"current_range_meters":12000,"station_id":"","pricing_plan_id":"cebpf4jnsgd1na2vs0mg"},{"bike_id":"76b5d343-6624-4366-8e6e-f702d50ae492","system_id":"levelo_inurba_marseille","lat":43.23187,"lon":5.35569,"is_reserved":false,"is_disabled":false,"rental_uris":{"android":"levelo://app?vid=76b5d343-6624-4366-8e6e-f702d50ae492","ios":"levelo://app?vid=76b5d343-6624-4366-8e6e-f702d50ae492"},"vehicle_type_id":"4","last_reported":1742033370,"current_range_meters":12000,"station_id":"ce4bhu92rcd13ifvqi70","pricing_plan_id":"cebpf4jnsgd1na2vs0mg"},{"bike_id":"f4bc1a22-2450-4c72-adda-e475a554b057","system_id":"levelo_inurba_marseille","lat":43.25005,"lon":5.38925,"is_reserved":false,"is_disabled":false,"rental_uris":{"android":"levelo://app?vid=f4bc1a22-2450-4c72-adda-e475a554b057","ios":"levelo://app?vid=f4bc1a22-2450-4c72-adda-e475a554b057"},"vehicle_type_id":"4","last_reported":1742033370,"current_range_meters":12000,"station_id":"ce4bhgp2rcd13ifvqfd0","pricing_plan_id":"cebpf4jnsgd1na2vs0mg"},{"bike_id":"7d5c32af-5258-4c5b-889c-ddb66533c64c","system_id":"levelo_inurba_marseille","lat":43.29813,"lon":5.38091,"is_reserved":false,"is_disabled":false,"rental_uris":{"android":"levelo://app?vid=7d5c32af-5258-4c5b-889c-ddb66533c64c","ios":"levelo://app?vid=7d5c32af-5258-4c5b-889c-ddb66533c64c"},"vehicle_type_id":"4","last_reported":1742033370,"current_range_meters":12000,"station_id":"ce4bgip2rcd13ifvqbb0","pricing_plan_id":"cebpf4jnsgd1na2vs0mg"},{"bike_id":"06eba6ed-e0ff-4c1a-b69e-3fc3096fd2a2","system_id":"levelo_inurba_marseille","lat":43.30889,"lon":5.37192,"is_reserved":false,"is_disabled":false,"rental_uris":{"android":"levelo://app?vid=06eba6ed-e0ff-4c1a-b69e-3fc3096fd2a2","ios":"levelo://app?vid=06eba6ed-e0ff-4c1a-b69e-3fc3096fd2a2"},"vehicle_type_id":"4","last_reported":1742033370,"current_range_meters":12000,"station_id":"ce4bguh2rcd13ifvqckg","pricing_plan_id":"cebpf4jnsgd1na2vs0mg"},{"bike_id":"1742665e-3cf5-4d91-9f4d-8afacbb37c97","system_id":"levelo_inurba_marseille","lat":43.30314,"lon":5.39263,"is_reserved":false,"is_disabled":false,"rental_uris":{"android":"levelo://app?vid=1742665e-3cf5-4d91-9f4d-8afacbb37c97","ios":"levelo://app?vid=1742665e-3cf5-4d91-9f4d-8afacbb37c97"},"vehicle_type_id":"4","last_reported":1742033370,"current_range_meters":12400,"station_id":"ce4bgkh2rcd13ifvqbk0","pricing_plan_id":"cebpf4jnsgd1na2vs0mg"},{"bike_id":"742c86bb-c5b7-4ab4-8232-bc8cf0a8d010","system_id":"levelo_inurba_marseille","lat":43.29072,"lon":5.38143,"is_reserved":false,"is_disabled":false,"rental_uris":{"android":"levelo://app?vid=742c86bb-c5b7-4ab4-8232-bc8cf0a8d010","ios":"levelo://app?vid=742c86bb-c5b7-4ab4-8232-bc8cf0a8d010"},"vehicle_type_id":"4","last_reported":1742033370,"current_range_meters":12400,"station_id":"ce4bh512rcd13ifvqe2g","pricing_plan_id":"cebpf4jnsgd1na2vs0mg"},{"bike_id":"2eadf7f1-9b86-4a83-ad0f-6ec46ff638a4","system_id":"levelo_inurba_marseille","lat":43.26555,"lon":5.37293,"is_reserved":false,"is_disabled":false,"rental_uris":{"android":"levelo://app?vid=2eadf7f1-9b86-4a83-ad0f-6ec46ff638a4","ios":"levelo://app?vid=2eadf7f1-9b86-4a83-ad0f-6ec46ff638a4"},"vehicle_type_id":"4","last_reported":1742033370,"current_range_meters":12400,"station_id":"ce4bhg12rcd13ifvqf70","pricing_plan_id":"cebpf4jnsgd1na2vs0mg"},{"bike_id":"57f16d46-9a26-4a0f-bbd4-4019fba41bd5","system_id":"levelo_inurba_marseille","lat":43.23969,"lon":5.36631,"is_reserved":false,"is_disabled":false,"rental_uris":{"android":"levelo://app?vid=57f16d46-9a26-4a0f-bbd4-4019fba41bd5","ios":"levelo://app?vid=57f16d46-9a26-4a0f-bbd4-4019fba41bd5"},"vehicle_type_id":"4","last_reported":1742033370,"current_range_meters":12400,"station_id":"ce4bhi12rcd13ifvqfp0","pricing_plan_id":"cebpf4jnsgd1na2vs0mg"},{"bike_id":"52d5c875-3609-4039-a86e-3e5108b5309e","system_id":"levelo_inurba_marseille","lat":43.29189,"lon":5.3604,"is_reserved":false,"is_disabled":false,"rental_uris":{"android":"levelo://app?vid=52d5c875-3609-4039-a86e-3e5108b5309e","ios":"levelo://app?vid=52d5c875-3609-4039-a86e-3e5108b5309e"},"vehicle_type_id":"4","last_reported":1742033370,"current_range_meters":12400,"station_id":"ce4bhbh2rcd13ifvqeqg","pricing_plan_id":"cebpf4jnsgd1na2vs0mg"},{"bike_id":"7e6fcbc6-aa64-45d3-b0d0-8801b9d4af14","system_id":"levelo_inurba_marseille","lat":43.27565,"lon":5.38409,"is_reserved":false,"is_disabled":false,"rental_uris":{"android":"levelo://app?vid=7e6fcbc6-aa64-45d3-b0d0-8801b9d4af14","ios":"levelo://app?vid=7e6fcbc6-aa64-45d3-b0d0-8801b9d4af14"},"vehicle_type_id":"4","last_reported":1742033370,"current_range_meters":12400,"station_id":"ce4bhh92rcd13ifvqfi0","pricing_plan_id":"cebpf4jnsgd1na2vs0mg"},{"bike_id":"7a8ebe4d-abc0-46c9-9b40-ffa92be42eba","system_id":"levelo_inurba_marseille","lat":43.29299,"lon":5.3745,"is_reserved":false,"is_disabled":false,"rental_uris":{"android":"levelo://app?vid=7a8ebe4d-abc0-46c9-9b40-ffa92be42eba","ios":"levelo://app?vid=7a8ebe4d-abc0-46c9-9b40-ffa92be42eba"},"vehicle_type_id":"4","last_reported":1742033370,"current_range_meters":12400,"station_id":"ce4bgi12rcd13ifvqb70","pricing_plan_id":"cebpf4jnsgd1na2vs0mg"},{"bike_id":"35170032-9fbd-466b-b080-21388ed7720a","system_id":"levelo_inurba_marseille","lat":43.25109,"lon":5.39549,"is_reserved":false,"is_disabled":false,"rental_uris":{"android":"levelo://app?vid=35170032-9fbd-466b-b080-21388ed7720a","ios":"levelo://app?vid=35170032-9fbd-466b-b080-21388ed7720a"},"vehicle_type_id":"4","last_reported":1742033370,"current_range_meters":12800,"station_id":"ce4bhm12rcd13ifvqgkg","pricing_plan_id":"cebpf4jnsgd1na2vs0mg"},{"bike_id":"fcfb0226-b92a-48e1-8109-97d8670e0387","system_id":"levelo_inurba_marseille","lat":43.25935,"lon":5.40899,"is_reserved":false,"is_disabled":false,"rental_uris":{"android":"levelo://app?vid=fcfb0226-b92a-48e1-8109-97d8670e0387","ios":"levelo://app?vid=fcfb0226-b92a-48e1-8109-97d8670e0387"},"vehicle_type_id":"4","last_reported":1742033370,"current_range_meters":12800,"station_id":"ce4bhm92rcd13ifvqglg","pricing_plan_id":"cebpf4jnsgd1na2vs0mg"},{"bike_id":"8ff078fa-26f5-47e1-8528-38fa2269d7f6","system_id":"levelo_inurba_marseille","lat":43.27502,"lon":5.424553,"is_reserved":false,"is_disabled":false,"rental_uris":{"android":"levelo://app?vid=8ff078fa-26f5-47e1-8528-38fa2269d7f6","ios":"levelo://app?vid=8ff078fa-26f5-47e1-8528-38fa2269d7f6"},"vehicle_type_id":"4","last_reported":1742033370,"current_range_meters":13600,"station_id":"ce4bhn92rcd13ifvqgrg","pricing_plan_id":"cebpf4jnsgd1na2vs0mg"},{"bike_id":"99553bb4-c2d1-4053-b102-82caf3e26c98","system_id":"levelo_inurba_marseille","lat":43.2781,"lon":5.40707,"is_reserved":false,"is_disabled":false,"rental_uris":{"android":"levelo://app?vid=99553bb4-c2d1-4053-b102-82caf3e26c98","ios":"levelo://app?vid=99553bb4-c2d1-4053-b102-82caf3e26c98"},"vehicle_type_id":"4","last_reported":1742033370,"current_range_meters":13600,"station_id":"ce4bhnh2rcd13ifvqgtg","pricing_plan_id":"cebpf4jnsgd1na2vs0mg"},{"bike_id":"4862b7d3-0f5c-4159-9fcc-fed27cf75282","system_id":"levelo_inurba_marseille","lat":43.31277,"lon":5.40165,"is_reserved":false,"is_disabled":false,"rental_uris":{"android":"levelo://app?vid=4862b7d3-0f5c-4159-9fcc-fed27cf75282","ios":"levelo://app?vid=4862b7d3-0f5c-4159-9fcc-fed27cf75282"},"vehicle_type_id":"4","last_reported":1742033370,"current_range_meters":13600,"station_id":"ce4bh092rcd13ifvqd30","pricing_plan_id":"cebpf4jnsgd1na2vs0mg"},{"bike_id":"0992ac9c-a12e-4566-82dd-e46068b24f58","system_id":"levelo_inurba_marseille","lat":43.2757,"lon":5.38423,"is_reserved":false,"is_disabled":false,"rental_uris":{"android":"levelo://app?vid=0992ac9c-a12e-4566-82dd-e46068b24f58","ios":"levelo://app?vid=0992ac9c-a12e-4566-82dd-e46068b24f58"},"vehicle_type_id":"4","last_reported":1742033370,"current_range_meters":13600,"station_id":"ce4bhh92rcd13ifvqfi0","pricing_plan_id":"cebpf4jnsgd1na2vs0mg"},{"bike_id":"608f0462-484e-441f-9837-82475dce48ee","system_id":"levelo_inurba_marseille","lat":43.29912,"lon":5.43705,"is_reserved":false,"is_disabled":false,"rental_uris":{"android":"levelo://app?vid=608f0462-484e-441f-9837-82475dce48ee","ios":"levelo://app?vid=608f0462-484e-441f-9837-82475dce48ee"},"vehicle_type_id":"4","last_reported":1742033370,"current_range_meters":13600,"station_id":"","pricing_plan_id":"cebpf4jnsgd1na2vs0mg"},{"bike_id":"f0d3291f-33ff-4a36-afc1-5ee1dcf854db","system_id":"levelo_inurba_marseille","lat":43.27058,"lon":5.4026,"is_reserved":false,"is_disabled":false,"rental_uris":{"android":"levelo://app?vid=f0d3291f-33ff-4a36-afc1-5ee1dcf854db","ios":"levelo://app?vid=f0d3291f-33ff-4a36-afc1-5ee1dcf854db"},"vehicle_type_id":"4","last_reported":1742033370,"current_range_meters":13600,"station_id":"ce4bhk92rcd13ifvqgc0","pricing_plan_id":"cebpf4jnsgd1na2vs0mg"},{"bike_id":"9f72adf9-21e3-4b8b-b2e9-111538345ec9","system_id":"levelo_inurba_marseille","lat":43.29697,"lon":5.37696,"is_reserved":false,"is_disabled":false,"rental_uris":{"android":"levelo://app?vid=9f72adf9-21e3-4b8b-b2e9-111538345ec9","ios":"levelo://app?vid=9f72adf9-21e3-4b8b-b2e9-111538345ec9"},"vehicle_type_id":"4","last_reported":1742033370,"current_range_meters":13600,"station_id":"ce4bgkh2rcd13ifvqbl0","pricing_plan_id":"cebpf4jnsgd1na2vs0mg"},{"bike_id":"78df367a-4264-4241-a94f-f890135b7404","system_id":"levelo_inurba_marseille","lat":43.33599,"lon":5.41011,"is_reserved":false,"is_disabled":false,"rental_uris":{"android":"levelo://app?vid=78df367a-4264-4241-a94f-f890135b7404","ios":"levelo://app?vid=78df367a-4264-4241-a94f-f890135b7404"},"vehicle_type_id":"4","last_reported":1742033370,"current_range_meters":13600,"station_id":"ce4bhqh2rcd13ifvqhmg","pricing_plan_id":"cebpf4jnsgd1na2vs0mg"},{"bike_id":"27bac330-d155-49e8-82e6-eb8b69d07d77","system_id":"levelo_inurba_marseille","lat":43.30196,"lon":5.36648,"is_reserved":false,"is_disabled":false,"rental_uris":{"android":"levelo://app?vid=27bac330-d155-49e8-82e6-eb8b69d07d77","ios":"levelo://app?vid=27bac330-d155-49e8-82e6-eb8b69d07d77"},"vehicle_type_id":"4","last_reported":1742033370,"current_range_meters":13600,"station_id":"ce4bgrh2rcd13ifvqc8g","pricing_plan_id":"cebpf4jnsgd1na2vs0mg"},{"bike_id":"d751a31e-a518-44cc-8641-315d036d1e06","system_id":"levelo_inurba_marseille","lat":43.29871,"lon":5.39751,"is_reserved":false,"is_disabled":false,"rental_uris":{"android":"levelo://app?vid=d751a31e-a518-44cc-8641-315d036d1e06","ios":"levelo://app?vid=d751a31e-a518-44cc-8641-315d036d1e06"},"vehicle_type_id":"4","last_reported":1742033370,"current_range_meters":14000,"station_id":"ce4bh0h2rcd13ifvqd50","pricing_plan_id":"cebpf4jnsgd1na2vs0mg"},{"bike_id":"3fc2c132-ac5c-4037-a815-e2e925fc6172","system_id":"levelo_inurba_marseille","lat":43.31487,"lon":5.37304,"is_reserved":false,"is_disabled":false,"rental_uris":{"android":"levelo://app?vid=3fc2c132-ac5c-4037-a815-e2e925fc6172","ios":"levelo://app?vid=3fc2c132-ac5c-4037-a815-e2e925fc6172"},"vehicle_type_id":"4","last_reported":1742033370,"current_range_meters":14000,"station_id":"ce4bgt12rcd13ifvqcd0","pricing_plan_id":"cebpf4jnsgd1na2vs0mg"},{"bike_id":"7d38b17c-5298-4cb4-bd07-bd1039d6f6af","system_id":"levelo_inurba_marseille","lat":43.29517,"lon":5.37493,"is_reserved":false,"is_disabled":false,"rental_uris":{"android":"levelo://app?vid=7d38b17c-5298-4cb4-bd07-bd1039d6f6af","ios":"levelo://app?vid=7d38b17c-5298-4cb4-bd07-bd1039d6f6af"},"vehicle_type_id":"4","last_reported":1742033370,"current_range_meters":14000,"station_id":"ce4bgkp2rcd13ifvqbmg","pricing_plan_id":"cebpf4jnsgd1na2vs0mg"},{"bike_id":"14bd6a7a-d4eb-482f-9ed2-4663a2377ae5","system_id":"levelo_inurba_marseille","lat":43.296,"lon":5.38098,"is_reserved":false,"is_disabled":false,"rental_uris":{"android":"levelo://app?vid=14bd6a7a-d4eb-482f-9ed2-4663a2377ae5","ios":"levelo://app?vid=14bd6a7a-d4eb-482f-9ed2-4663a2377ae5"},"vehicle_type_id":"4","last_reported":1742033370,"current_range_meters":14000,"station_id":"ce4bgl12rcd13ifvqbo0","pricing_plan_id":"cebpf4jnsgd1na2vs0mg"},{"bike_id":"74f2950d-f639-4809-bff2-7e52cd116e06","system_id":"levelo_inurba_marseille","lat":43.23163,"lon":5.43712,"is_reserved":false,"is_disabled":false,"rental_uris":{"android":"levelo://app?vid=74f2950d-f639-4809-bff2-7e52cd116e06","ios":"levelo://app?vid=74f2950d-f639-4809-bff2-7e52cd116e06"},"vehicle_type_id":"4","last_reported":1742033370,"current_range_meters":14400,"station_id":"ce4bhmp2rcd13ifvqgog","pricing_plan_id":"cebpf4jnsgd1na2vs0mg"},{"bike_id":"52a1a76b-26f6-4bd3-9693-5aae3b1b8c00","system_id":"levelo_inurba_marseille","lat":43.290466,"lon":5.359106,"is_reserved":false,"is_disabled":false,"rental_uris":{"android":"levelo://app?vid=52a1a76b-26f6-4bd3-9693-5aae3b1b8c00","ios":"levelo://app?vid=52a1a76b-26f6-4bd3-9693-5aae3b1b8c00"},"vehicle_type_id":"4","last_reported":1742033370,"current_range_meters":14400,"station_id":"ce4bgi12rcd13ifvqb70","pricing_plan_id":"cebpf4jnsgd1na2vs0mg"},{"bike_id":"fc071de1-2cc0-488a-a43e-f8037a5a9a49","system_id":"levelo_inurba_marseille","lat":43.23062,"lon":5.35494,"is_reserved":false,"is_disabled":false,"rental_uris":{"android":"levelo://app?vid=fc071de1-2cc0-488a-a43e-f8037a5a9a49","ios":"levelo://app?vid=fc071de1-2cc0-488a-a43e-f8037a5a9a49"},"vehicle_type_id":"4","last_reported":1742033370,"current_range_meters":14400,"station_id":"cpo3342slgdg3j2ifvpg","pricing_plan_id":"cebpf4jnsgd1na2vs0mg"},{"bike_id":"c69a0189-c69b-46b7-bf01-ed8fa65f4cbc","system_id":"levelo_inurba_marseille","lat":43.29005,"lon":5.35613,"is_reserved":false,"is_disabled":false,"rental_uris":{"android":"levelo://app?vid=c69a0189-c69b-46b7-bf01-ed8fa65f4cbc","ios":"levelo://app?vid=c69a0189-c69b-46b7-bf01-ed8fa65f4cbc"},"vehicle_type_id":"4","last_reported":1742033370,"current_range_meters":14400,"station_id":"ce4bhb92rcd13ifvqen0","pricing_plan_id":"cebpf4jnsgd1na2vs0mg"},{"bike_id":"67ba5532-a4de-45d0-bd2d-aa06a7264fb6","system_id":"levelo_inurba_marseille","lat":43.30884,"lon":5.37212,"is_reserved":false,"is_disabled":false,"rental_uris":{"android":"levelo://app?vid=67ba5532-a4de-45d0-bd2d-aa06a7264fb6","ios":"levelo://app?vid=67ba5532-a4de-45d0-bd2d-aa06a7264fb6"},"vehicle_type_id":"4","last_reported":1742033370,"current_range_meters":14400,"station_id":"ce4bguh2rcd13ifvqckg","pricing_plan_id":"cebpf4jnsgd1na2vs0mg"},{"bike_id":"f313e511-70a9-4d28-9105-f80f9ce3e50c","system_id":"levelo_inurba_marseille","lat":43.23963,"lon":5.36619,"is_reserved":false,"is_disabled":false,"rental_uris":{"android":"levelo://app?vid=f313e511-70a9-4d28-9105-f80f9ce3e50c","ios":"levelo://app?vid=f313e511-70a9-4d28-9105-f80f9ce3e50c"},"vehicle_type_id":"4","last_reported":1742033370,"current_range_meters":14400,"station_id":"ce4bhi12rcd13ifvqfp0","pricing_plan_id":"cebpf4jnsgd1na2vs0mg"},{"bike_id":"3a89315b-62de-4a2c-a0ba-c40dd86a913d","system_id":"levelo_inurba_marseille","lat":43.27053,"lon":5.40271,"is_reserved":false,"is_disabled":false,"rental_uris":{"android":"levelo://app?vid=3a89315b-62de-4a2c-a0ba-c40dd86a913d","ios":"levelo://app?vid=3a89315b-62de-4a2c-a0ba-c40dd86a913d"},"vehicle_type_id":"4","last_reported":1742033370,"current_range_meters":14400,"station_id":"ce4bhk92rcd13ifvqgc0","pricing_plan_id":"cebpf4jnsgd1na2vs0mg"},{"bike_id":"6850f114-f664-4675-ae66-935c99a0db8e","system_id":"levelo_inurba_marseille","lat":43.2705,"lon":5.40274,"is_reserved":false,"is_disabled":false,"rental_uris":{"android":"levelo://app?vid=6850f114-f664-4675-ae66-935c99a0db8e","ios":"levelo://app?vid=6850f114-f664-4675-ae66-935c99a0db8e"},"vehicle_type_id":"4","last_reported":1742033370,"current_range_meters":14800,"station_id":"ce4bhk92rcd13ifvqgc0","pricing_plan_id":"cebpf4jnsgd1na2vs0mg"},{"bike_id":"71b342b8-694b-40d5-99e8-310baf77a970","system_id":"levelo_inurba_marseille","lat":43.23063,"lon":5.35499,"is_reserved":false,"is_disabled":false,"rental_uris":{"android":"levelo://app?vid=71b342b8-694b-40d5-99e8-310baf77a970","ios":"levelo://app?vid=71b342b8-694b-40d5-99e8-310baf77a970"},"vehicle_type_id":"4","last_reported":1742033370,"current_range_meters":14800,"station_id":"cpo3342slgdg3j2ifvpg","pricing_plan_id":"cebpf4jnsgd1na2vs0mg"},{"bike_id":"90c707aa-0edc-4e94-a911-252e6bd4d4c2","system_id":"levelo_inurba_marseille","lat":43.28621,"lon":5.35115,"is_reserved":false,"is_disabled":false,"rental_uris":{"android":"levelo://app?vid=90c707aa-0edc-4e94-a911-252e6bd4d4c2","ios":"levelo://app?vid=90c707aa-0edc-4e94-a911-252e6bd4d4c2"},"vehicle_type_id":"4","last_reported":1742033370,"current_range_meters":14800,"station_id":"ce4bhch2rcd13ifvqeug","pricing_plan_id":"cebpf4jnsgd1na2vs0mg"},{"bike_id":"e1bc5517-89cc-4fbd-afdb-e8d3c61b8e55","system_id":"levelo_inurba_marseille","lat":43.32372,"lon":5.36743,"is_reserved":false,"is_disabled":false,"rental_uris":{"android":"levelo://app?vid=e1bc5517-89cc-4fbd-afdb-e8d3c61b8e55","ios":"levelo://app?vid=e1bc5517-89cc-4fbd-afdb-e8d3c61b8e55"},"vehicle_type_id":"4","last_reported":1742033370,"current_range_meters":14800,"station_id":"ce4bhsh2rcd13ifvqi2g","pricing_plan_id":"cebpf4jnsgd1na2vs0mg"},{"bike_id":"3a65fa45-5962-4cce-a684-326978fd9e02","system_id":"levelo_inurba_marseille","lat":43.2707,"lon":5.42288,"is_reserved":false,"is_disabled":false,"rental_uris":{"android":"levelo://app?vid=3a65fa45-5962-4cce-a684-326978fd9e02","ios":"levelo://app?vid=3a65fa45-5962-4cce-a684-326978fd9e02"},"vehicle_type_id":"4","last_reported":1742033370,"current_range_meters":14800,"station_id":"ce4bhk92rcd13ifvqgb0","pricing_plan_id":"cebpf4jnsgd1na2vs0mg"},{"bike_id":"df2bd365-182b-4a07-b573-1593f98b410a","system_id":"levelo_inurba_marseille","lat":43.28723,"lon":5.36098,"is_reserved":false,"is_disabled":true,"rental_uris":{"android":"levelo://app?vid=df2bd365-182b-4a07-b573-1593f98b410a","ios":"levelo://app?vid=df2bd365-182b-4a07-b573-1593f98b410a"},"vehicle_type_id":"4","last_reported":1742033370,"current_range_meters":15200,"station_id":"cki0cbj6b192h4jlfktg","pricing_plan_id":"cebpf4jnsgd1na2vs0mg"},{"bike_id":"d20b1ea1-68d8-4d84-b2b2-7af425a1c02d","system_id":"levelo_inurba_marseille","lat":43.26939,"lon":5.40252,"is_reserved":false,"is_disabled":false,"rental_uris":{"android":"levelo://app?vid=d20b1ea1-68d8-4d84-b2b2-7af425a1c02d","ios":"levelo://app?vid=d20b1ea1-68d8-4d84-b2b2-7af425a1c02d"},"vehicle_type_id":"4","last_reported":1742033370,"current_range_meters":15200,"station_id":"cjm6bp8fraef2m0cb0m0","pricing_plan_id":"cebpf4jnsgd1na2vs0mg"},{"bike_id":"cace3442-8b90-4a59-9628-b96896459cb8","system_id":"levelo_inurba_marseille","lat":43.29317,"lon":5.37396,"is_reserved":false,"is_disabled":false,"rental_uris":{"android":"levelo://app?vid=cace3442-8b90-4a59-9628-b96896459cb8","ios":"levelo://app?vid=cace3442-8b90-4a59-9628-b96896459cb8"},"vehicle_type_id":"4","last_reported":1742033370,"current_range_meters":15200,"station_id":"","pricing_plan_id":"cebpf4jnsgd1na2vs0mg"},{"bike_id":"530dcf3f-baa5-4f42-b9c7-b4b5afe3c2c8","system_id":"levelo_inurba_marseille","lat":43.30322,"lon":5.40431,"is_reserved":false,"is_disabled":false,"rental_uris":{"android":"levelo://app?vid=530dcf3f-baa5-4f42-b9c7-b4b5afe3c2c8","ios":"levelo://app?vid=530dcf3f-baa5-4f42-b9c7-b4b5afe3c2c8"},"vehicle_type_id":"4","last_reported":1742033370,"current_range_meters":15200,"station_id":"ce4bh012rcd13ifvqd10","pricing_plan_id":"cebpf4jnsgd1na2vs0mg"},{"bike_id":"41d856e8-014d-42b4-85e9-2a0a980f469f","system_id":"levelo_inurba_marseille","lat":43.232,"lon":5.35565,"is_reserved":false,"is_disabled":false,"rental_uris":{"android":"levelo://app?vid=41d856e8-014d-42b4-85e9-2a0a980f469f","ios":"levelo://app?vid=41d856e8-014d-42b4-85e9-2a0a980f469f"},"vehicle_type_id":"4","last_reported":1742033370,"current_range_meters":16000,"station_id":"ce4bhu92rcd13ifvqi70","pricing_plan_id":"cebpf4jnsgd1na2vs0mg"},{"bike_id":"295a3b8e-dab0-4cc1-aa7b-c713137bda6e","system_id":"levelo_inurba_marseille","lat":43.29304,"lon":5.37459,"is_reserved":false,"is_disabled":false,"rental_uris":{"android":"levelo://app?vid=295a3b8e-dab0-4cc1-aa7b-c713137bda6e","ios":"levelo://app?vid=295a3b8e-dab0-4cc1-aa7b-c713137bda6e"},"vehicle_type_id":"4","last_reported":1742033370,"current_range_meters":16000,"station_id":"ce4bgi12rcd13ifvqb70","pricing_plan_id":"cebpf4jnsgd1na2vs0mg"},{"bike_id":"f238c0df-d3c9-4577-a186-a5d3f05e229a","system_id":"levelo_inurba_marseille","lat":43.25843,"lon":5.39433,"is_reserved":false,"is_disabled":false,"rental_uris":{"android":"levelo://app?vid=f238c0df-d3c9-4577-a186-a5d3f05e229a","ios":"levelo://app?vid=f238c0df-d3c9-4577-a186-a5d3f05e229a"},"vehicle_type_id":"4","last_reported":1742033370,"current_range_meters":16000,"station_id":"ce4bhip2rcd13ifvqft0","pricing_plan_id":"cebpf4jnsgd1na2vs0mg"},{"bike_id":"f709cb7e-4bd4-4503-ab85-447b0bd380b5","system_id":"levelo_inurba_marseille","lat":43.32338,"lon":5.38911,"is_reserved":false,"is_disabled":false,"rental_uris":{"android":"levelo://app?vid=f709cb7e-4bd4-4503-ab85-447b0bd380b5","ios":"levelo://app?vid=f709cb7e-4bd4-4503-ab85-447b0bd380b5"},"vehicle_type_id":"4","last_reported":1742033370,"current_range_meters":16000,"station_id":"ce4bhqp2rcd13ifvqhog","pricing_plan_id":"cebpf4jnsgd1na2vs0mg"},{"bike_id":"efa182c5-e8bb-4316-9ac4-4d06270b10d4","system_id":"levelo_inurba_marseille","lat":43.32352,"lon":5.38885,"is_reserved":false,"is_disabled":false,"rental_uris":{"android":"levelo://app?vid=efa182c5-e8bb-4316-9ac4-4d06270b10d4","ios":"levelo://app?vid=efa182c5-e8bb-4316-9ac4-4d06270b10d4"},"vehicle_type_id":"4","last_reported":1742033370,"current_range_meters":16000,"station_id":"ce4bhqp2rcd13ifvqhog","pricing_plan_id":"cebpf4jnsgd1na2vs0mg"},{"bike_id":"697f0254-cb1c-45f6-8a93-d468b5729e1f","system_id":"levelo_inurba_marseille","lat":43.30215,"lon":5.39463,"is_reserved":false,"is_disabled":false,"rental_uris":{"android":"levelo://app?vid=697f0254-cb1c-45f6-8a93-d468b5729e1f","ios":"levelo://app?vid=697f0254-cb1c-45f6-8a93-d468b5729e1f"},"vehicle_type_id":"4","last_reported":1742033370,"current_range_meters":16000,"station_id":"ce4bh0p2rcd13ifvqd70","pricing_plan_id":"cebpf4jnsgd1na2vs0mg"},{"bike_id":"e79fc578-3c3c-4a35-8a45-917973707e48","system_id":"levelo_inurba_marseille","lat":43.29564,"lon":5.37507,"is_reserved":false,"is_disabled":false,"rental_uris":{"android":"levelo://app?vid=e79fc578-3c3c-4a35-8a45-917973707e48","ios":"levelo://app?vid=e79fc578-3c3c-4a35-8a45-917973707e48"},"vehicle_type_id":"4","last_reported":1742033370,"current_range_meters":16400,"station_id":"ce4bgh92rcd13ifvqb50","pricing_plan_id":"cebpf4jnsgd1na2vs0mg"},{"bike_id":"2e11829c-c539-4249-a99d-d72cb2a8e369","system_id":"levelo_inurba_marseille","lat":43.28854,"lon":5.35844,"is_reserved":false,"is_disabled":false,"rental_uris":{"android":"levelo://app?vid=2e11829c-c539-4249-a99d-d72cb2a8e369","ios":"levelo://app?vid=2e11829c-c539-4249-a99d-d72cb2a8e369"},"vehicle_type_id":"4","last_reported":1742033370,"current_range_meters":16400,"station_id":"ce4bhb12rcd13ifvqem0","pricing_plan_id":"cebpf4jnsgd1na2vs0mg"},{"bike_id":"4d20b878-6603-4328-ab6e-4a7ae0b08224","system_id":"levelo_inurba_marseille","lat":43.25957,"lon":5.40896,"is_reserved":false,"is_disabled":false,"rental_uris":{"android":"levelo://app?vid=4d20b878-6603-4328-ab6e-4a7ae0b08224","ios":"levelo://app?vid=4d20b878-6603-4328-ab6e-4a7ae0b08224"},"vehicle_type_id":"4","last_reported":1742033370,"current_range_meters":16400,"station_id":"ce4bhm92rcd13ifvqglg","pricing_plan_id":"cebpf4jnsgd1na2vs0mg"},{"bike_id":"b89eb48b-e97b-4abf-8014-42ec3603d979","system_id":"levelo_inurba_marseille","lat":43.26245,"lon":5.40448,"is_reserved":false,"is_disabled":false,"rental_uris":{"android":"levelo://app?vid=b89eb48b-e97b-4abf-8014-42ec3603d979","ios":"levelo://app?vid=b89eb48b-e97b-4abf-8014-42ec3603d979"},"vehicle_type_id":"4","last_reported":1742033370,"current_range_meters":16400,"station_id":"ce4bhmh2rcd13ifvqgmg","pricing_plan_id":"cebpf4jnsgd1na2vs0mg"},{"bike_id":"7eb93061-427c-45ba-aa11-516ff8bad763","system_id":"levelo_inurba_marseille","lat":43.29085,"lon":5.37188,"is_reserved":false,"is_disabled":false,"rental_uris":{"android":"levelo://app?vid=7eb93061-427c-45ba-aa11-516ff8bad763","ios":"levelo://app?vid=7eb93061-427c-45ba-aa11-516ff8bad763"},"vehicle_type_id":"4","last_reported":1742033370,"current_range_meters":16400,"station_id":"ce4bh5p2rcd13ifvqe4g","pricing_plan_id":"cebpf4jnsgd1na2vs0mg"},{"bike_id":"e6710280-bd86-46cd-80e3-b715c7f5659b","system_id":"levelo_inurba_marseille","lat":43.24389,"lon":5.37063,"is_reserved":false,"is_disabled":false,"rental_uris":{"android":"levelo://app?vid=e6710280-bd86-46cd-80e3-b715c7f5659b","ios":"levelo://app?vid=e6710280-bd86-46cd-80e3-b715c7f5659b"},"vehicle_type_id":"4","last_reported":1742033370,"current_range_meters":16400,"station_id":"ce4bhhh2rcd13ifvqfk0","pricing_plan_id":"cebpf4jnsgd1na2vs0mg"},{"bike_id":"e51eba22-620f-4676-b932-36442a1f7348","system_id":"levelo_inurba_marseille","lat":43.2572,"lon":5.41107,"is_reserved":false,"is_disabled":false,"rental_uris":{"android":"levelo://app?vid=e51eba22-620f-4676-b932-36442a1f7348","ios":"levelo://app?vid=e51eba22-620f-4676-b932-36442a1f7348"},"vehicle_type_id":"4","last_reported":1742033370,"current_range_meters":16400,"station_id":"ce4bhkp2rcd13ifvqgd0","pricing_plan_id":"cebpf4jnsgd1na2vs0mg"},{"bike_id":"09664d10-0a14-4396-be6f-ed837d174d38","system_id":"levelo_inurba_marseille","lat":43.26953,"lon":5.38629,"is_reserved":false,"is_disabled":false,"rental_uris":{"android":"levelo://app?vid=09664d10-0a14-4396-be6f-ed837d174d38","ios":"levelo://app?vid=09664d10-0a14-4396-be6f-ed837d174d38"},"vehicle_type_id":"4","last_reported":1742033370,"current_range_meters":16400,"station_id":"ce4bhh92rcd13ifvqfh0","pricing_plan_id":"cebpf4jnsgd1na2vs0mg"},{"bike_id":"1fb3a341-8b31-4e15-97ac-46f3969aa66b","system_id":"levelo_inurba_marseille","lat":43.29874,"lon":5.39721,"is_reserved":false,"is_disabled":false,"rental_uris":{"android":"levelo://app?vid=1fb3a341-8b31-4e15-97ac-46f3969aa66b","ios":"levelo://app?vid=1fb3a341-8b31-4e15-97ac-46f3969aa66b"},"vehicle_type_id":"4","last_reported":1742033370,"current_range_meters":16800,"station_id":"ce4bh0h2rcd13ifvqd50","pricing_plan_id":"cebpf4jnsgd1na2vs0mg"},{"bike_id":"96744a18-3316-43e0-9153-7a6032ab1b09","system_id":"levelo_inurba_marseille","lat":43.25013,"lon":5.38942,"is_reserved":false,"is_disabled":false,"rental_uris":{"android":"levelo://app?vid=96744a18-3316-43e0-9153-7a6032ab1b09","ios":"levelo://app?vid=96744a18-3316-43e0-9153-7a6032ab1b09"},"vehicle_type_id":"4","last_reported":1742033370,"current_range_meters":16800,"station_id":"ce4bhgp2rcd13ifvqfd0","pricing_plan_id":"cebpf4jnsgd1na2vs0mg"},{"bike_id":"566e0489-1013-464c-941b-6fbcd4c26340","system_id":"levelo_inurba_marseille","lat":43.32134,"lon":5.36789,"is_reserved":false,"is_disabled":false,"rental_uris":{"android":"levelo://app?vid=566e0489-1013-464c-941b-6fbcd4c26340","ios":"levelo://app?vid=566e0489-1013-464c-941b-6fbcd4c26340"},"vehicle_type_id":"4","last_reported":1742033370,"current_range_meters":16800,"station_id":"ce4bhrh2rcd13ifvqhug","pricing_plan_id":"cebpf4jnsgd1na2vs0mg"},{"bike_id":"0684f2c3-b676-4e09-a7b3-adba7bb60933","system_id":"levelo_inurba_marseille","lat":43.29897,"lon":5.43665,"is_reserved":false,"is_disabled":false,"rental_uris":{"android":"levelo://app?vid=0684f2c3-b676-4e09-a7b3-adba7bb60933","ios":"levelo://app?vid=0684f2c3-b676-4e09-a7b3-adba7bb60933"},"vehicle_type_id":"4","last_reported":1742033370,"current_range_meters":16800,"station_id":"ce4bhpp2rcd13ifvqhfg","pricing_plan_id":"cebpf4jnsgd1na2vs0mg"},{"bike_id":"10a5dfbf-3aa3-4cf3-ac17-cd4d12fd6782","system_id":"levelo_inurba_marseille","lat":43.3237,"lon":5.36721,"is_reserved":false,"is_disabled":false,"rental_uris":{"android":"levelo://app?vid=10a5dfbf-3aa3-4cf3-ac17-cd4d12fd6782","ios":"levelo://app?vid=10a5dfbf-3aa3-4cf3-ac17-cd4d12fd6782"},"vehicle_type_id":"4","last_reported":1742033370,"current_range_meters":16800,"station_id":"ce4bhsh2rcd13ifvqi2g","pricing_plan_id":"cebpf4jnsgd1na2vs0mg"},{"bike_id":"7099c38a-2986-4dc9-9398-307b562f7d30","system_id":"levelo_inurba_marseille","lat":43.259367,"lon":5.409021,"is_reserved":false,"is_disabled":false,"rental_uris":{"android":"levelo://app?vid=7099c38a-2986-4dc9-9398-307b562f7d30","ios":"levelo://app?vid=7099c38a-2986-4dc9-9398-307b562f7d30"},"vehicle_type_id":"4","last_reported":1742033370,"current_range_meters":16800,"station_id":"ce4bhm92rcd13ifvqglg","pricing_plan_id":"cebpf4jnsgd1na2vs0mg"},{"bike_id":"7ede3e1e-f682-40c6-b151-cd6ecef7c811","system_id":"levelo_inurba_marseille","lat":43.24077,"lon":5.37743,"is_reserved":false,"is_disabled":false,"rental_uris":{"android":"levelo://app?vid=7ede3e1e-f682-40c6-b151-cd6ecef7c811","ios":"levelo://app?vid=7ede3e1e-f682-40c6-b151-cd6ecef7c811"},"vehicle_type_id":"4","last_reported":1742033370,"current_range_meters":16800,"station_id":"ce4bhnp2rcd13ifvqgvg","pricing_plan_id":"cebpf4jnsgd1na2vs0mg"},{"bike_id":"e1cd2675-6679-4cd9-bb19-8edbb3c32a0a","system_id":"levelo_inurba_marseille","lat":43.29101,"lon":5.38132,"is_reserved":false,"is_disabled":false,"rental_uris":{"android":"levelo://app?vid=e1cd2675-6679-4cd9-bb19-8edbb3c32a0a","ios":"levelo://app?vid=e1cd2675-6679-4cd9-bb19-8edbb3c32a0a"},"vehicle_type_id":"4","last_reported":1742033370,"current_range_meters":17200,"station_id":"ce4bh512rcd13ifvqe2g","pricing_plan_id":"cebpf4jnsgd1na2vs0mg"},{"bike_id":"75123447-2b69-42e2-be90-9aa99ce954e5","system_id":"levelo_inurba_marseille","lat":43.32378,"lon":5.38874,"is_reserved":false,"is_disabled":false,"rental_uris":{"android":"levelo://app?vid=75123447-2b69-42e2-be90-9aa99ce954e5","ios":"levelo://app?vid=75123447-2b69-42e2-be90-9aa99ce954e5"},"vehicle_type_id":"4","last_reported":1742033370,"current_range_meters":17200,"station_id":"ce4bhqp2rcd13ifvqhog","pricing_plan_id":"cebpf4jnsgd1na2vs0mg"},{"bike_id":"937006d4-256e-4276-90fa-83b260647208","system_id":"levelo_inurba_marseille","lat":43.29589,"lon":5.36746,"is_reserved":false,"is_disabled":false,"rental_uris":{"android":"levelo://app?vid=937006d4-256e-4276-90fa-83b260647208","ios":"levelo://app?vid=937006d4-256e-4276-90fa-83b260647208"},"vehicle_type_id":"4","last_reported":1742033370,"current_range_meters":17200,"station_id":"ce4bgph2rcd13ifvqc2g","pricing_plan_id":"cebpf4jnsgd1na2vs0mg"},{"bike_id":"3e685809-8a98-470b-b8d1-c028716361a7","system_id":"levelo_inurba_marseille","lat":43.23966,"lon":5.36634,"is_reserved":false,"is_disabled":false,"rental_uris":{"android":"levelo://app?vid=3e685809-8a98-470b-b8d1-c028716361a7","ios":"levelo://app?vid=3e685809-8a98-470b-b8d1-c028716361a7"},"vehicle_type_id":"4","last_reported":1742033370,"current_range_meters":17200,"station_id":"ce4bhi12rcd13ifvqfp0","pricing_plan_id":"cebpf4jnsgd1na2vs0mg"},{"bike_id":"3c5d49e0-baa2-40a1-85e4-9bed196029c2","system_id":"levelo_inurba_marseille","lat":43.30152,"lon":5.3809,"is_reserved":false,"is_disabled":false,"rental_uris":{"android":"levelo://app?vid=3c5d49e0-baa2-40a1-85e4-9bed196029c2","ios":"levelo://app?vid=3c5d49e0-baa2-40a1-85e4-9bed196029c2"},"vehicle_type_id":"4","last_reported":1742033370,"current_range_meters":17200,"station_id":"ce4bgjp2rcd13ifvqbh0","pricing_plan_id":"cebpf4jnsgd1na2vs0mg"},{"bike_id":"bafd57f9-42ca-4d51-b0a0-95f66f340e25","system_id":"levelo_inurba_marseille","lat":43.25857,"lon":5.39417,"is_reserved":false,"is_disabled":false,"rental_uris":{"android":"levelo://app?vid=bafd57f9-42ca-4d51-b0a0-95f66f340e25","ios":"levelo://app?vid=bafd57f9-42ca-4d51-b0a0-95f66f340e25"},"vehicle_type_id":"4","last_reported":1742033370,"current_range_meters":17200,"station_id":"ce4bhip2rcd13ifvqft0","pricing_plan_id":"cebpf4jnsgd1na2vs0mg"},{"bike_id":"8bcf9978-0a0f-4514-b162-723c6b634fa0","system_id":"levelo_inurba_marseille","lat":43.24554,"lon":5.39525,"is_reserved":false,"is_disabled":false,"rental_uris":{"android":"levelo://app?vid=8bcf9978-0a0f-4514-b162-723c6b634fa0","ios":"levelo://app?vid=8bcf9978-0a0f-4514-b162-723c6b634fa0"},"vehicle_type_id":"4","last_reported":1742033370,"current_range_meters":17200,"station_id":"ce4bhlp2rcd13ifvqgjg","pricing_plan_id":"cebpf4jnsgd1na2vs0mg"},{"bike_id":"531f843e-5fad-4c6d-9215-216d9fc7e470","system_id":"levelo_inurba_marseille","lat":43.30142,"lon":5.38767,"is_reserved":false,"is_disabled":false,"rental_uris":{"android":"levelo://app?vid=531f843e-5fad-4c6d-9215-216d9fc7e470","ios":"levelo://app?vid=531f843e-5fad-4c6d-9215-216d9fc7e470"},"vehicle_type_id":"4","last_reported":1742033370,"current_range_meters":16800,"station_id":"ce4bhl92rcd13ifvqghg","pricing_plan_id":"cebpf4jnsgd1na2vs0mg"},{"bike_id":"6320ffca-1a69-4d99-bbeb-0bf0997fe3a6","system_id":"levelo_inurba_marseille","lat":43.30147,"lon":5.38083,"is_reserved":false,"is_disabled":false,"rental_uris":{"android":"levelo://app?vid=6320ffca-1a69-4d99-bbeb-0bf0997fe3a6","ios":"levelo://app?vid=6320ffca-1a69-4d99-bbeb-0bf0997fe3a6"},"vehicle_type_id":"4","last_reported":1742033370,"current_range_meters":17200,"station_id":"ce4bgjp2rcd13ifvqbh0","pricing_plan_id":"cebpf4jnsgd1na2vs0mg"},{"bike_id":"d5919fda-7a40-4419-b77b-8aacbc6ac2b1","system_id":"levelo_inurba_marseille","lat":43.25723,"lon":5.42177,"is_reserved":false,"is_disabled":false,"rental_uris":{"android":"levelo://app?vid=d5919fda-7a40-4419-b77b-8aacbc6ac2b1","ios":"levelo://app?vid=d5919fda-7a40-4419-b77b-8aacbc6ac2b1"},"vehicle_type_id":"4","last_reported":1742033370,"current_range_meters":17200,"station_id":"","pricing_plan_id":"cebpf4jnsgd1na2vs0mg"},{"bike_id":"985ce29b-c73e-4a46-8bec-a34a0cea9484","system_id":"levelo_inurba_marseille","lat":43.3023,"lon":5.36657,"is_reserved":false,"is_disabled":false,"rental_uris":{"android":"levelo://app?vid=985ce29b-c73e-4a46-8bec-a34a0cea9484","ios":"levelo://app?vid=985ce29b-c73e-4a46-8bec-a34a0cea9484"},"vehicle_type_id":"4","last_reported":1742033370,"current_range_meters":17600,"station_id":"ce4bgrh2rcd13ifvqc8g","pricing_plan_id":"cebpf4jnsgd1na2vs0mg"},{"bike_id":"b4d96697-cd72-4b7d-bada-3b21147d6458","system_id":"levelo_inurba_marseille","lat":43.29709,"lon":5.37683,"is_reserved":false,"is_disabled":false,"rental_uris":{"android":"levelo://app?vid=b4d96697-cd72-4b7d-bada-3b21147d6458","ios":"levelo://app?vid=b4d96697-cd72-4b7d-bada-3b21147d6458"},"vehicle_type_id":"4","last_reported":1742033370,"current_range_meters":17600,"station_id":"ce4bgkh2rcd13ifvqbl0","pricing_plan_id":"cebpf4jnsgd1na2vs0mg"},{"bike_id":"09217766-4f65-47b7-bd76-63ccd980dcf1","system_id":"levelo_inurba_marseille","lat":43.30527,"lon":5.36534,"is_reserved":false,"is_disabled":false,"rental_uris":{"android":"levelo://app?vid=09217766-4f65-47b7-bd76-63ccd980dcf1","ios":"levelo://app?vid=09217766-4f65-47b7-bd76-63ccd980dcf1"},"vehicle_type_id":"4","last_reported":1742033370,"current_range_meters":17600,"station_id":"ce4bgs12rcd13ifvqcag","pricing_plan_id":"cebpf4jnsgd1na2vs0mg"},{"bike_id":"594637a1-1882-49ab-a7ac-888bca05eefc","system_id":"levelo_inurba_marseille","lat":43.31078,"lon":5.42445,"is_reserved":false,"is_disabled":true,"rental_uris":{"android":"levelo://app?vid=594637a1-1882-49ab-a7ac-888bca05eefc","ios":"levelo://app?vid=594637a1-1882-49ab-a7ac-888bca05eefc"},"vehicle_type_id":"4","last_reported":1742033370,"current_range_meters":17600,"station_id":"ce4bhp92rcd13ifvqhag","pricing_plan_id":"cebpf4jnsgd1na2vs0mg"},{"bike_id":"1b02f7cb-4ff7-4c2c-b559-003d4595110f","system_id":"levelo_inurba_marseille","lat":43.27085,"lon":5.4024,"is_reserved":false,"is_disabled":false,"rental_uris":{"android":"levelo://app?vid=1b02f7cb-4ff7-4c2c-b559-003d4595110f","ios":"levelo://app?vid=1b02f7cb-4ff7-4c2c-b559-003d4595110f"},"vehicle_type_id":"4","last_reported":1742033370,"current_range_meters":17600,"station_id":"ce4bhk92rcd13ifvqgc0","pricing_plan_id":"cebpf4jnsgd1na2vs0mg"},{"bike_id":"1ab3fe05-34b9-475e-bbc3-fc9c2f72c66a","system_id":"levelo_inurba_marseille","lat":43.32364,"lon":5.38886,"is_reserved":false,"is_disabled":false,"rental_uris":{"android":"levelo://app?vid=1ab3fe05-34b9-475e-bbc3-fc9c2f72c66a","ios":"levelo://app?vid=1ab3fe05-34b9-475e-bbc3-fc9c2f72c66a"},"vehicle_type_id":"4","last_reported":1742033370,"current_range_meters":17600,"station_id":"ce4bhqp2rcd13ifvqhog","pricing_plan_id":"cebpf4jnsgd1na2vs0mg"},{"bike_id":"9e5a1860-08ea-4c11-8060-a288489c6355","system_id":"levelo_inurba_marseille","lat":43.27338,"lon":5.39115,"is_reserved":false,"is_disabled":false,"rental_uris":{"android":"levelo://app?vid=9e5a1860-08ea-4c11-8060-a288489c6355","ios":"levelo://app?vid=9e5a1860-08ea-4c11-8060-a288489c6355"},"vehicle_type_id":"4","last_reported":1742033370,"current_range_meters":17600,"station_id":"ce4bhgp2rcd13ifvqfe0","pricing_plan_id":"cebpf4jnsgd1na2vs0mg"},{"bike_id":"e6fcb5aa-8a11-407e-9e1b-38520b03be93","system_id":"levelo_inurba_marseille","lat":43.30206,"lon":5.36608,"is_reserved":false,"is_disabled":false,"rental_uris":{"android":"levelo://app?vid=e6fcb5aa-8a11-407e-9e1b-38520b03be93","ios":"levelo://app?vid=e6fcb5aa-8a11-407e-9e1b-38520b03be93"},"vehicle_type_id":"4","last_reported":1742033370,"current_range_meters":17600,"station_id":"ce4bgrh2rcd13ifvqc8g","pricing_plan_id":"cebpf4jnsgd1na2vs0mg"},{"bike_id":"82ebc1bb-8f10-4f38-8766-8cb84c804185","system_id":"levelo_inurba_marseille","lat":43.28615,"lon":5.35099,"is_reserved":false,"is_disabled":false,"rental_uris":{"android":"levelo://app?vid=82ebc1bb-8f10-4f38-8766-8cb84c804185","ios":"levelo://app?vid=82ebc1bb-8f10-4f38-8766-8cb84c804185"},"vehicle_type_id":"4","last_reported":1742033370,"current_range_meters":18000,"station_id":"ce4bhch2rcd13ifvqeug","pricing_plan_id":"cebpf4jnsgd1na2vs0mg"},{"bike_id":"5a61a616-683f-484d-83ae-d7f61143d634","system_id":"levelo_inurba_marseille","lat":43.29516,"lon":5.42473,"is_reserved":false,"is_disabled":false,"rental_uris":{"android":"levelo://app?vid=5a61a616-683f-484d-83ae-d7f61143d634","ios":"levelo://app?vid=5a61a616-683f-484d-83ae-d7f61143d634"},"vehicle_type_id":"4","last_reported":1742033370,"current_range_meters":18000,"station_id":"","pricing_plan_id":"cebpf4jnsgd1na2vs0mg"},{"bike_id":"4142a05b-9c6a-4522-8130-5615dfb4567e","system_id":"levelo_inurba_marseille","lat":43.27062,"lon":5.40261,"is_reserved":false,"is_disabled":false,"rental_uris":{"android":"levelo://app?vid=4142a05b-9c6a-4522-8130-5615dfb4567e","ios":"levelo://app?vid=4142a05b-9c6a-4522-8130-5615dfb4567e"},"vehicle_type_id":"4","last_reported":1742033370,"current_range_meters":18000,"station_id":"ce4bhk92rcd13ifvqgc0","pricing_plan_id":"cebpf4jnsgd1na2vs0mg"},{"bike_id":"1bf757a2-272b-40f2-a6c1-fd8cb228ab54","system_id":"levelo_inurba_marseille","lat":43.31066,"lon":5.38363,"is_reserved":false,"is_disabled":false,"rental_uris":{"android":"levelo://app?vid=1bf757a2-272b-40f2-a6c1-fd8cb228ab54","ios":"levelo://app?vid=1bf757a2-272b-40f2-a6c1-fd8cb228ab54"},"vehicle_type_id":"4","last_reported":1742033370,"current_range_meters":18000,"station_id":"ce4bgv92rcd13ifvqcr0","pricing_plan_id":"cebpf4jnsgd1na2vs0mg"},{"bike_id":"a0187892-e285-4547-ae2f-950748a27002","system_id":"levelo_inurba_marseille","lat":43.24089,"lon":5.37743,"is_reserved":false,"is_disabled":false,"rental_uris":{"android":"levelo://app?vid=a0187892-e285-4547-ae2f-950748a27002","ios":"levelo://app?vid=a0187892-e285-4547-ae2f-950748a27002"},"vehicle_type_id":"4","last_reported":1742033370,"current_range_meters":18000,"station_id":"ce4bhnp2rcd13ifvqgvg","pricing_plan_id":"cebpf4jnsgd1na2vs0mg"},{"bike_id":"5deff3b1-7de0-4233-8bbb-77cee504cc6e","system_id":"levelo_inurba_marseille","lat":43.28605,"lon":5.35002,"is_reserved":false,"is_disabled":true,"rental_uris":{"android":"levelo://app?vid=5deff3b1-7de0-4233-8bbb-77cee504cc6e","ios":"levelo://app?vid=5deff3b1-7de0-4233-8bbb-77cee504cc6e"},"vehicle_type_id":"4","last_reported":1742033370,"current_range_meters":18000,"station_id":"","pricing_plan_id":"cebpf4jnsgd1na2vs0mg"},{"bike_id":"0278977a-6289-4f05-b3d4-76e1cc239e0a","system_id":"levelo_inurba_marseille","lat":43.270717,"lon":5.422823,"is_reserved":false,"is_disabled":false,"rental_uris":{"android":"levelo://app?vid=0278977a-6289-4f05-b3d4-76e1cc239e0a","ios":"levelo://app?vid=0278977a-6289-4f05-b3d4-76e1cc239e0a"},"vehicle_type_id":"4","last_reported":1742033370,"current_range_meters":18800,"station_id":"ce4bhk92rcd13ifvqgb0","pricing_plan_id":"cebpf4jnsgd1na2vs0mg"},{"bike_id":"d68643e3-dee3-439a-87f2-6e18e565c878","system_id":"levelo_inurba_marseille","lat":43.31188,"lon":5.3871,"is_reserved":false,"is_disabled":true,"rental_uris":{"android":"levelo://app?vid=d68643e3-dee3-439a-87f2-6e18e565c878","ios":"levelo://app?vid=d68643e3-dee3-439a-87f2-6e18e565c878"},"vehicle_type_id":"4","last_reported":1742033370,"current_range_meters":18800,"station_id":"ce4bgv12rcd13ifvqcp0","pricing_plan_id":"cebpf4jnsgd1na2vs0mg"},{"bike_id":"927cb428-f32f-4f46-ad89-16d2b8e4c7fa","system_id":"levelo_inurba_marseille","lat":43.28416,"lon":5.3498,"is_reserved":false,"is_disabled":false,"rental_uris":{"android":"levelo://app?vid=927cb428-f32f-4f46-ad89-16d2b8e4c7fa","ios":"levelo://app?vid=927cb428-f32f-4f46-ad89-16d2b8e4c7fa"},"vehicle_type_id":"4","last_reported":1742033370,"current_range_meters":18800,"station_id":"ce4bhbh2rcd13ifvqepg","pricing_plan_id":"cebpf4jnsgd1na2vs0mg"},{"bike_id":"6659b13b-340f-4172-a5ea-6a3116c908d4","system_id":"levelo_inurba_marseille","lat":43.30462,"lon":5.37907,"is_reserved":false,"is_disabled":false,"rental_uris":{"android":"levelo://app?vid=6659b13b-340f-4172-a5ea-6a3116c908d4","ios":"levelo://app?vid=6659b13b-340f-4172-a5ea-6a3116c908d4"},"vehicle_type_id":"4","last_reported":1742033370,"current_range_meters":18800,"station_id":"ce4bgup2rcd13ifvqcn0","pricing_plan_id":"cebpf4jnsgd1na2vs0mg"},{"bike_id":"521268db-a242-4cfc-8fdc-034156cfef95","system_id":"levelo_inurba_marseille","lat":43.24069,"lon":5.37756,"is_reserved":false,"is_disabled":false,"rental_uris":{"android":"levelo://app?vid=521268db-a242-4cfc-8fdc-034156cfef95","ios":"levelo://app?vid=521268db-a242-4cfc-8fdc-034156cfef95"},"vehicle_type_id":"4","last_reported":1742033370,"current_range_meters":18800,"station_id":"ce4bhnp2rcd13ifvqgvg","pricing_plan_id":"cebpf4jnsgd1na2vs0mg"},{"bike_id":"59371cf1-3c79-41d6-95aa-da771878ccaa","system_id":"levelo_inurba_marseille","lat":43.28845,"lon":5.35856,"is_reserved":false,"is_disabled":false,"rental_uris":{"android":"levelo://app?vid=59371cf1-3c79-41d6-95aa-da771878ccaa","ios":"levelo://app?vid=59371cf1-3c79-41d6-95aa-da771878ccaa"},"vehicle_type_id":"4","last_reported":1742033370,"current_range_meters":18800,"station_id":"ce4bhb12rcd13ifvqem0","pricing_plan_id":"cebpf4jnsgd1na2vs0mg"},{"bike_id":"d261395a-d173-485a-98fd-3bc6c9cddfe8","system_id":"levelo_inurba_marseille","lat":43.257189,"lon":5.411105,"is_reserved":false,"is_disabled":false,"rental_uris":{"android":"levelo://app?vid=d261395a-d173-485a-98fd-3bc6c9cddfe8","ios":"levelo://app?vid=d261395a-d173-485a-98fd-3bc6c9cddfe8"},"vehicle_type_id":"4","last_reported":1742033370,"current_range_meters":18800,"station_id":"ce4bhkp2rcd13ifvqgd0","pricing_plan_id":"cebpf4jnsgd1na2vs0mg"},{"bike_id":"65357cc7-2329-424b-b711-99eb17da523d","system_id":"levelo_inurba_marseille","lat":43.30541,"lon":5.36536,"is_reserved":false,"is_disabled":false,"rental_uris":{"android":"levelo://app?vid=65357cc7-2329-424b-b711-99eb17da523d","ios":"levelo://app?vid=65357cc7-2329-424b-b711-99eb17da523d"},"vehicle_type_id":"4","last_reported":1742033370,"current_range_meters":18800,"station_id":"ce4bgs12rcd13ifvqcag","pricing_plan_id":"cebpf4jnsgd1na2vs0mg"},{"bike_id":"162d7df8-824d-466c-9a1d-d010d3850fcd","system_id":"levelo_inurba_marseille","lat":43.29783,"lon":5.37109,"is_reserved":false,"is_disabled":false,"rental_uris":{"android":"levelo://app?vid=162d7df8-824d-466c-9a1d-d010d3850fcd","ios":"levelo://app?vid=162d7df8-824d-466c-9a1d-d010d3850fcd"},"vehicle_type_id":"4","last_reported":1742033370,"current_range_meters":18800,"station_id":"ce4bgop2rcd13ifvqc1g","pricing_plan_id":"cebpf4jnsgd1na2vs0mg"},{"bike_id":"b4c92b68-5fa0-4c09-b1f8-a590f4c4b28e","system_id":"levelo_inurba_marseille","lat":43.30205,"lon":5.36632,"is_reserved":false,"is_disabled":false,"rental_uris":{"android":"levelo://app?vid=b4c92b68-5fa0-4c09-b1f8-a590f4c4b28e","ios":"levelo://app?vid=b4c92b68-5fa0-4c09-b1f8-a590f4c4b28e"},"vehicle_type_id":"4","last_reported":1742033370,"current_range_meters":18800,"station_id":"ce4bgrh2rcd13ifvqc8g","pricing_plan_id":"cebpf4jnsgd1na2vs0mg"},{"bike_id":"40b399a3-50a3-40e1-a6a6-c86dc00a2552","system_id":"levelo_inurba_marseille","lat":43.3054,"lon":5.36543,"is_reserved":false,"is_disabled":false,"rental_uris":{"android":"levelo://app?vid=40b399a3-50a3-40e1-a6a6-c86dc00a2552","ios":"levelo://app?vid=40b399a3-50a3-40e1-a6a6-c86dc00a2552"},"vehicle_type_id":"4","last_reported":1742033370,"current_range_meters":19200,"station_id":"ce4bgs12rcd13ifvqcag","pricing_plan_id":"cebpf4jnsgd1na2vs0mg"},{"bike_id":"a20535c7-7310-44f0-b4f7-b151985fc551","system_id":"levelo_inurba_marseille","lat":43.274983,"lon":5.424358,"is_reserved":false,"is_disabled":false,"rental_uris":{"android":"levelo://app?vid=a20535c7-7310-44f0-b4f7-b151985fc551","ios":"levelo://app?vid=a20535c7-7310-44f0-b4f7-b151985fc551"},"vehicle_type_id":"4","last_reported":1742033370,"current_range_meters":19200,"station_id":"ce4bhn92rcd13ifvqgrg","pricing_plan_id":"cebpf4jnsgd1na2vs0mg"},{"bike_id":"ba4ab105-88fb-4ed0-a18f-ae197b32d653","system_id":"levelo_inurba_marseille","lat":43.30682,"lon":5.40095,"is_reserved":false,"is_disabled":false,"rental_uris":{"android":"levelo://app?vid=ba4ab105-88fb-4ed0-a18f-ae197b32d653","ios":"levelo://app?vid=ba4ab105-88fb-4ed0-a18f-ae197b32d653"},"vehicle_type_id":"4","last_reported":1742033370,"current_range_meters":19200,"station_id":"ce4bh112rcd13ifvqda0","pricing_plan_id":"cebpf4jnsgd1na2vs0mg"},{"bike_id":"a56ee65a-c061-4717-bd9c-162490112d7d","system_id":"levelo_inurba_marseille","lat":43.30092,"lon":5.39085,"is_reserved":false,"is_disabled":false,"rental_uris":{"android":"levelo://app?vid=a56ee65a-c061-4717-bd9c-162490112d7d","ios":"levelo://app?vid=a56ee65a-c061-4717-bd9c-162490112d7d"},"vehicle_type_id":"4","last_reported":1742033370,"current_range_meters":19200,"station_id":"ce4bh192rcd13ifvqdb0","pricing_plan_id":"cebpf4jnsgd1na2vs0mg"},{"bike_id":"8dc0a2cb-efb2-45bd-b242-5fbe907d5fd7","system_id":"levelo_inurba_marseille","lat":43.31705,"lon":5.4371,"is_reserved":false,"is_disabled":false,"rental_uris":{"android":"levelo://app?vid=8dc0a2cb-efb2-45bd-b242-5fbe907d5fd7","ios":"levelo://app?vid=8dc0a2cb-efb2-45bd-b242-5fbe907d5fd7"},"vehicle_type_id":"4","last_reported":1742033370,"current_range_meters":19200,"station_id":"ce4bhp92rcd13ifvqhcg","pricing_plan_id":"cebpf4jnsgd1na2vs0mg"},{"bike_id":"9c70149d-1ff9-4a2f-89eb-3b048ce12ba0","system_id":"levelo_inurba_marseille","lat":43.23183,"lon":5.39983,"is_reserved":false,"is_disabled":false,"rental_uris":{"android":"levelo://app?vid=9c70149d-1ff9-4a2f-89eb-3b048ce12ba0","ios":"levelo://app?vid=9c70149d-1ff9-4a2f-89eb-3b048ce12ba0"},"vehicle_type_id":"4","last_reported":1742033370,"current_range_meters":19200,"station_id":"ce4bhn12rcd13ifvqgqg","pricing_plan_id":"cebpf4jnsgd1na2vs0mg"},{"bike_id":"79a72d93-80e7-4cdc-8af4-9488a7af4f12","system_id":"levelo_inurba_marseille","lat":43.30113,"lon":5.39052,"is_reserved":false,"is_disabled":false,"rental_uris":{"android":"levelo://app?vid=79a72d93-80e7-4cdc-8af4-9488a7af4f12","ios":"levelo://app?vid=79a72d93-80e7-4cdc-8af4-9488a7af4f12"},"vehicle_type_id":"4","last_reported":1742033370,"current_range_meters":19200,"station_id":"ce4bh192rcd13ifvqdb0","pricing_plan_id":"cebpf4jnsgd1na2vs0mg"},{"bike_id":"29e54796-e795-4eda-aec7-8ec95fbedb21","system_id":"levelo_inurba_marseille","lat":43.28905,"lon":5.36402,"is_reserved":false,"is_disabled":true,"rental_uris":{"android":"levelo://app?vid=29e54796-e795-4eda-aec7-8ec95fbedb21","ios":"levelo://app?vid=29e54796-e795-4eda-aec7-8ec95fbedb21"},"vehicle_type_id":"4","last_reported":1742033370,"current_range_meters":19600,"station_id":"","pricing_plan_id":"cebpf4jnsgd1na2vs0mg"},{"bike_id":"5a4a7d35-0ef8-41e9-9195-6b8c171d9e40","system_id":"levelo_inurba_marseille","lat":43.259361,"lon":5.409033,"is_reserved":false,"is_disabled":false,"rental_uris":{"android":"levelo://app?vid=5a4a7d35-0ef8-41e9-9195-6b8c171d9e40","ios":"levelo://app?vid=5a4a7d35-0ef8-41e9-9195-6b8c171d9e40"},"vehicle_type_id":"4","last_reported":1742033370,"current_range_meters":19600,"station_id":"ce4bhm92rcd13ifvqglg","pricing_plan_id":"cebpf4jnsgd1na2vs0mg"},{"bike_id":"bc325179-8381-47ee-9310-5416cdb795e2","system_id":"levelo_inurba_marseille","lat":43.28288,"lon":5.35074,"is_reserved":false,"is_disabled":false,"rental_uris":{"android":"levelo://app?vid=bc325179-8381-47ee-9310-5416cdb795e2","ios":"levelo://app?vid=bc325179-8381-47ee-9310-5416cdb795e2"},"vehicle_type_id":"4","last_reported":1742033370,"current_range_meters":19600,"station_id":"ce4bhbp2rcd13ifvqerg","pricing_plan_id":"cebpf4jnsgd1na2vs0mg"},{"bike_id":"c3290f07-d174-4068-8b56-bb47fb927088","system_id":"levelo_inurba_marseille","lat":43.33041,"lon":5.39041,"is_reserved":false,"is_disabled":false,"rental_uris":{"android":"levelo://app?vid=c3290f07-d174-4068-8b56-bb47fb927088","ios":"levelo://app?vid=c3290f07-d174-4068-8b56-bb47fb927088"},"vehicle_type_id":"4","last_reported":1742033370,"current_range_meters":19600,"station_id":"ce4bhr92rcd13ifvqhrg","pricing_plan_id":"cebpf4jnsgd1na2vs0mg"},{"bike_id":"0969694c-cbe4-4d5d-a3b3-a2435183b864","system_id":"levelo_inurba_marseille","lat":43.27201,"lon":5.39185,"is_reserved":false,"is_disabled":false,"rental_uris":{"android":"levelo://app?vid=0969694c-cbe4-4d5d-a3b3-a2435183b864","ios":"levelo://app?vid=0969694c-cbe4-4d5d-a3b3-a2435183b864"},"vehicle_type_id":"4","last_reported":1742033370,"current_range_meters":19600,"station_id":"ce4bhhp2rcd13ifvqfm0","pricing_plan_id":"cebpf4jnsgd1na2vs0mg"},{"bike_id":"e87844fc-0f51-47ce-90f4-a95e3486c3c4","system_id":"levelo_inurba_marseille","lat":43.30533,"lon":5.36531,"is_reserved":false,"is_disabled":false,"rental_uris":{"android":"levelo://app?vid=e87844fc-0f51-47ce-90f4-a95e3486c3c4","ios":"levelo://app?vid=e87844fc-0f51-47ce-90f4-a95e3486c3c4"},"vehicle_type_id":"4","last_reported":1742033370,"current_range_meters":19600,"station_id":"ce4bgs12rcd13ifvqcag","pricing_plan_id":"cebpf4jnsgd1na2vs0mg"},{"bike_id":"16cb1e08-4196-4c4f-b28c-741276556760","system_id":"levelo_inurba_marseille","lat":43.26935,"lon":5.40255,"is_reserved":false,"is_disabled":false,"rental_uris":{"android":"levelo://app?vid=16cb1e08-4196-4c4f-b28c-741276556760","ios":"levelo://app?vid=16cb1e08-4196-4c4f-b28c-741276556760"},"vehicle_type_id":"4","last_reported":1742033370,"current_range_meters":19600,"station_id":"cjm6bp8fraef2m0cb0m0","pricing_plan_id":"cebpf4jnsgd1na2vs0mg"},{"bike_id":"5189287a-880a-46a1-bc5e-d4c1d9f06a31","system_id":"levelo_inurba_marseille","lat":43.24076,"lon":5.37736,"is_reserved":false,"is_disabled":false,"rental_uris":{"android":"levelo://app?vid=5189287a-880a-46a1-bc5e-d4c1d9f06a31","ios":"levelo://app?vid=5189287a-880a-46a1-bc5e-d4c1d9f06a31"},"vehicle_type_id":"4","last_reported":1742033370,"current_range_meters":19600,"station_id":"ce4bhnp2rcd13ifvqgvg","pricing_plan_id":"cebpf4jnsgd1na2vs0mg"},{"bike_id":"bae91207-c53c-4099-b67b-b81c091dbd2c","system_id":"levelo_inurba_marseille","lat":43.32362,"lon":5.367646,"is_reserved":false,"is_disabled":false,"rental_uris":{"android":"levelo://app?vid=bae91207-c53c-4099-b67b-b81c091dbd2c","ios":"levelo://app?vid=bae91207-c53c-4099-b67b-b81c091dbd2c"},"vehicle_type_id":"4","last_reported":1742033370,"current_range_meters":19600,"station_id":"ce4bhsh2rcd13ifvqi2g","pricing_plan_id":"cebpf4jnsgd1na2vs0mg"},{"bike_id":"52998bfa-569e-4801-bb03-9cd5cd17755f","system_id":"levelo_inurba_marseille","lat":43.30137,"lon":5.37422,"is_reserved":false,"is_disabled":false,"rental_uris":{"android":"levelo://app?vid=52998bfa-569e-4801-bb03-9cd5cd17755f","ios":"levelo://app?vid=52998bfa-569e-4801-bb03-9cd5cd17755f"},"vehicle_type_id":"4","last_reported":1742033370,"current_range_meters":19600,"station_id":"ce4bgs92rcd13ifvqcc0","pricing_plan_id":"cebpf4jnsgd1na2vs0mg"},{"bike_id":"3b6f8457-4cb1-4299-a9e2-cce3cd522d10","system_id":"levelo_inurba_marseille","lat":43.30468,"lon":5.37908,"is_reserved":false,"is_disabled":false,"rental_uris":{"android":"levelo://app?vid=3b6f8457-4cb1-4299-a9e2-cce3cd522d10","ios":"levelo://app?vid=3b6f8457-4cb1-4299-a9e2-cce3cd522d10"},"vehicle_type_id":"4","last_reported":1742033370,"current_range_meters":20000,"station_id":"ce4bgup2rcd13ifvqcn0","pricing_plan_id":"cebpf4jnsgd1na2vs0mg"},{"bike_id":"4ebe3c6d-7841-4b89-94a1-c0cc44b0f3a4","system_id":"levelo_inurba_marseille","lat":43.32106,"lon":5.36789,"is_reserved":false,"is_disabled":false,"rental_uris":{"android":"levelo://app?vid=4ebe3c6d-7841-4b89-94a1-c0cc44b0f3a4","ios":"levelo://app?vid=4ebe3c6d-7841-4b89-94a1-c0cc44b0f3a4"},"vehicle_type_id":"4","last_reported":1742033370,"current_range_meters":20000,"station_id":"ce4bhrh2rcd13ifvqhug","pricing_plan_id":"cebpf4jnsgd1na2vs0mg"},{"bike_id":"fc578a1d-15ba-48c6-937a-fa9ee2b002b5","system_id":"levelo_inurba_marseille","lat":43.32291,"lon":5.3828,"is_reserved":false,"is_disabled":false,"rental_uris":{"android":"levelo://app?vid=fc578a1d-15ba-48c6-937a-fa9ee2b002b5","ios":"levelo://app?vid=fc578a1d-15ba-48c6-937a-fa9ee2b002b5"},"vehicle_type_id":"4","last_reported":1742033370,"current_range_meters":20000,"station_id":"ce4bhr12rcd13ifvqhqg","pricing_plan_id":"cebpf4jnsgd1na2vs0mg"},{"bike_id":"e484b4a2-4c23-4de7-abab-17ac7476c602","system_id":"levelo_inurba_marseille","lat":43.23188,"lon":5.35562,"is_reserved":false,"is_disabled":false,"rental_uris":{"android":"levelo://app?vid=e484b4a2-4c23-4de7-abab-17ac7476c602","ios":"levelo://app?vid=e484b4a2-4c23-4de7-abab-17ac7476c602"},"vehicle_type_id":"4","last_reported":1742033370,"current_range_meters":20000,"station_id":"ce4bhu92rcd13ifvqi70","pricing_plan_id":"cebpf4jnsgd1na2vs0mg"},{"bike_id":"48254327-eccc-4fdb-aa30-0b62a2a681b0","system_id":"levelo_inurba_marseille","lat":43.30147,"lon":5.3878,"is_reserved":false,"is_disabled":false,"rental_uris":{"android":"levelo://app?vid=48254327-eccc-4fdb-aa30-0b62a2a681b0","ios":"levelo://app?vid=48254327-eccc-4fdb-aa30-0b62a2a681b0"},"vehicle_type_id":"4","last_reported":1742033370,"current_range_meters":20000,"station_id":"ce4bghh2rcd13ifvqb60","pricing_plan_id":"cebpf4jnsgd1na2vs0mg"},{"bike_id":"efcc4f59-a408-44e2-a1f3-3f4f946cd959","system_id":"levelo_inurba_marseille","lat":43.29896,"lon":5.43659,"is_reserved":false,"is_disabled":false,"rental_uris":{"android":"levelo://app?vid=efcc4f59-a408-44e2-a1f3-3f4f946cd959","ios":"levelo://app?vid=efcc4f59-a408-44e2-a1f3-3f4f946cd959"},"vehicle_type_id":"4","last_reported":1742033370,"current_range_meters":20000,"station_id":"ce4bhpp2rcd13ifvqhfg","pricing_plan_id":"cebpf4jnsgd1na2vs0mg"},{"bike_id":"e62cbb50-101b-45e9-b14a-abd034006ba0","system_id":"levelo_inurba_marseille","lat":43.29801,"lon":5.38105,"is_reserved":false,"is_disabled":false,"rental_uris":{"android":"levelo://app?vid=e62cbb50-101b-45e9-b14a-abd034006ba0","ios":"levelo://app?vid=e62cbb50-101b-45e9-b14a-abd034006ba0"},"vehicle_type_id":"4","last_reported":1742033370,"current_range_meters":20000,"station_id":"ce4bgip2rcd13ifvqbb0","pricing_plan_id":"cebpf4jnsgd1na2vs0mg"},{"bike_id":"859f60fc-e905-43d1-b79d-c375474a6202","system_id":"levelo_inurba_marseille","lat":43.29549,"lon":5.42275,"is_reserved":false,"is_disabled":false,"rental_uris":{"android":"levelo://app?vid=859f60fc-e905-43d1-b79d-c375474a6202","ios":"levelo://app?vid=859f60fc-e905-43d1-b79d-c375474a6202"},"vehicle_type_id":"4","last_reported":1742033370,"current_range_meters":20000,"station_id":"ce4bhph2rcd13ifvqhdg","pricing_plan_id":"cebpf4jnsgd1na2vs0mg"},{"bike_id":"9fc0902f-8d59-4b68-a821-641b7ddcec61","system_id":"levelo_inurba_marseille","lat":43.26193,"lon":5.37446,"is_reserved":false,"is_disabled":false,"rental_uris":{"android":"levelo://app?vid=9fc0902f-8d59-4b68-a821-641b7ddcec61","ios":"levelo://app?vid=9fc0902f-8d59-4b68-a821-641b7ddcec61"},"vehicle_type_id":"4","last_reported":1742033370,"current_range_meters":20000,"station_id":"ce4bhgp2rcd13ifvqfc0","pricing_plan_id":"cebpf4jnsgd1na2vs0mg"},{"bike_id":"d7ed772b-376d-42a8-a183-995191a28917","system_id":"levelo_inurba_marseille","lat":43.30925,"lon":5.40158,"is_reserved":false,"is_disabled":true,"rental_uris":{"android":"levelo://app?vid=d7ed772b-376d-42a8-a183-995191a28917","ios":"levelo://app?vid=d7ed772b-376d-42a8-a183-995191a28917"},"vehicle_type_id":"4","last_reported":1742033370,"current_range_meters":20400,"station_id":"ce4bgvp2rcd13ifvqct0","pricing_plan_id":"cebpf4jnsgd1na2vs0mg"},{"bike_id":"52a818c1-f358-462f-a8e2-59f3bb3c201c","system_id":"levelo_inurba_marseille","lat":43.299,"lon":5.43666,"is_reserved":false,"is_disabled":false,"rental_uris":{"android":"levelo://app?vid=52a818c1-f358-462f-a8e2-59f3bb3c201c","ios":"levelo://app?vid=52a818c1-f358-462f-a8e2-59f3bb3c201c"},"vehicle_type_id":"4","last_reported":1742033370,"current_range_meters":20400,"station_id":"ce4bhpp2rcd13ifvqhfg","pricing_plan_id":"cebpf4jnsgd1na2vs0mg"},{"bike_id":"e76b1099-3952-4f62-a6b4-ce9e8d0f285e","system_id":"levelo_inurba_marseille","lat":43.30128,"lon":5.38785,"is_reserved":false,"is_disabled":false,"rental_uris":{"android":"levelo://app?vid=e76b1099-3952-4f62-a6b4-ce9e8d0f285e","ios":"levelo://app?vid=e76b1099-3952-4f62-a6b4-ce9e8d0f285e"},"vehicle_type_id":"4","last_reported":1742033370,"current_range_meters":20400,"station_id":"ce4bghh2rcd13ifvqb60","pricing_plan_id":"cebpf4jnsgd1na2vs0mg"},{"bike_id":"6ae5d14f-998c-4152-acd3-0953d5ad6852","system_id":"levelo_inurba_marseille","lat":43.26584,"lon":5.39069,"is_reserved":false,"is_disabled":false,"rental_uris":{"android":"levelo://app?vid=6ae5d14f-998c-4152-acd3-0953d5ad6852","ios":"levelo://app?vid=6ae5d14f-998c-4152-acd3-0953d5ad6852"},"vehicle_type_id":"4","last_reported":1742033370,"current_range_meters":20400,"station_id":"","pricing_plan_id":"cebpf4jnsgd1na2vs0mg"},{"bike_id":"af145ebc-5041-4056-bdaf-d197e305bb36","system_id":"levelo_inurba_marseille","lat":43.30085,"lon":5.39084,"is_reserved":false,"is_disabled":false,"rental_uris":{"android":"levelo://app?vid=af145ebc-5041-4056-bdaf-d197e305bb36","ios":"levelo://app?vid=af145ebc-5041-4056-bdaf-d197e305bb36"},"vehicle_type_id":"4","last_reported":1742033370,"current_range_meters":20400,"station_id":"ce4bh192rcd13ifvqdb0","pricing_plan_id":"cebpf4jnsgd1na2vs0mg"},{"bike_id":"337a216d-ebeb-491e-8aaa-eb906a2cb70c","system_id":"levelo_inurba_marseille","lat":43.29535,"lon":5.3758,"is_reserved":false,"is_disabled":false,"rental_uris":{"android":"levelo://app?vid=337a216d-ebeb-491e-8aaa-eb906a2cb70c","ios":"levelo://app?vid=337a216d-ebeb-491e-8aaa-eb906a2cb70c"},"vehicle_type_id":"4","last_reported":1742033370,"current_range_meters":20400,"station_id":"","pricing_plan_id":"cebpf4jnsgd1na2vs0mg"},{"bike_id":"34f882a2-33a5-4b01-b321-3ae1155ef7b4","system_id":"levelo_inurba_marseille","lat":43.30886,"lon":5.39646,"is_reserved":false,"is_disabled":false,"rental_uris":{"android":"levelo://app?vid=34f882a2-33a5-4b01-b321-3ae1155ef7b4","ios":"levelo://app?vid=34f882a2-33a5-4b01-b321-3ae1155ef7b4"},"vehicle_type_id":"4","last_reported":1742033370,"current_range_meters":20400,"station_id":"ce4bh012rcd13ifvqcv0","pricing_plan_id":"cebpf4jnsgd1na2vs0mg"},{"bike_id":"c585e757-1277-4f8f-8bca-c17eb1bcee3f","system_id":"levelo_inurba_marseille","lat":43.25809,"lon":5.39436,"is_reserved":false,"is_disabled":false,"rental_uris":{"android":"levelo://app?vid=c585e757-1277-4f8f-8bca-c17eb1bcee3f","ios":"levelo://app?vid=c585e757-1277-4f8f-8bca-c17eb1bcee3f"},"vehicle_type_id":"4","last_reported":1742033370,"current_range_meters":20400,"station_id":"ce4bhip2rcd13ifvqft0","pricing_plan_id":"cebpf4jnsgd1na2vs0mg"},{"bike_id":"6fec12ac-6db1-4fdd-8c08-d85189a8f0f3","system_id":"levelo_inurba_marseille","lat":43.30144,"lon":5.38084,"is_reserved":false,"is_disabled":false,"rental_uris":{"android":"levelo://app?vid=6fec12ac-6db1-4fdd-8c08-d85189a8f0f3","ios":"levelo://app?vid=6fec12ac-6db1-4fdd-8c08-d85189a8f0f3"},"vehicle_type_id":"4","last_reported":1742033370,"current_range_meters":20400,"station_id":"ce4bgjp2rcd13ifvqbh0","pricing_plan_id":"cebpf4jnsgd1na2vs0mg"},{"bike_id":"19feee8a-9bec-4876-af46-de4d8c02de32","system_id":"levelo_inurba_marseille","lat":43.32347,"lon":5.40622,"is_reserved":false,"is_disabled":false,"rental_uris":{"android":"levelo://app?vid=19feee8a-9bec-4876-af46-de4d8c02de32","ios":"levelo://app?vid=19feee8a-9bec-4876-af46-de4d8c02de32"},"vehicle_type_id":"4","last_reported":1742033370,"current_range_meters":20400,"station_id":"ce4bhq92rcd13ifvqhjg","pricing_plan_id":"cebpf4jnsgd1na2vs0mg"},{"bike_id":"40b03bfa-2718-42f6-b987-398abe4a4974","system_id":"levelo_inurba_marseille","lat":43.26568,"lon":5.39054,"is_reserved":false,"is_disabled":false,"rental_uris":{"android":"levelo://app?vid=40b03bfa-2718-42f6-b987-398abe4a4974","ios":"levelo://app?vid=40b03bfa-2718-42f6-b987-398abe4a4974"},"vehicle_type_id":"4","last_reported":1742033370,"current_range_meters":20400,"station_id":"ce4bhe12rcd13ifvqf30","pricing_plan_id":"cebpf4jnsgd1na2vs0mg"},{"bike_id":"52336426-5954-4e97-928d-d36ae1e10c01","system_id":"levelo_inurba_marseille","lat":43.26199,"lon":5.37917,"is_reserved":false,"is_disabled":false,"rental_uris":{"android":"levelo://app?vid=52336426-5954-4e97-928d-d36ae1e10c01","ios":"levelo://app?vid=52336426-5954-4e97-928d-d36ae1e10c01"},"vehicle_type_id":"4","last_reported":1742033370,"current_range_meters":20400,"station_id":"ce4bhjp2rcd13ifvqg90","pricing_plan_id":"cebpf4jnsgd1na2vs0mg"},{"bike_id":"79dc3699-78cf-4a16-9d90-5c3fffa73576","system_id":"levelo_inurba_marseille","lat":43.29029,"lon":5.38643,"is_reserved":false,"is_disabled":false,"rental_uris":{"android":"levelo://app?vid=79dc3699-78cf-4a16-9d90-5c3fffa73576","ios":"levelo://app?vid=79dc3699-78cf-4a16-9d90-5c3fffa73576"},"vehicle_type_id":"4","last_reported":1742033370,"current_range_meters":20800,"station_id":"ce4bh4p2rcd13ifvqe0g","pricing_plan_id":"cebpf4jnsgd1na2vs0mg"},{"bike_id":"b8edb390-789b-47ce-a7cf-4f4625c9ef93","system_id":"levelo_inurba_marseille","lat":43.30617,"lon":5.37242,"is_reserved":false,"is_disabled":false,"rental_uris":{"android":"levelo://app?vid=b8edb390-789b-47ce-a7cf-4f4625c9ef93","ios":"levelo://app?vid=b8edb390-789b-47ce-a7cf-4f4625c9ef93"},"vehicle_type_id":"4","last_reported":1742033370,"current_range_meters":20800,"station_id":"ce4bgqh2rcd13ifvqc4g","pricing_plan_id":"cebpf4jnsgd1na2vs0mg"},{"bike_id":"90f36701-ecf1-4515-bace-04be972be48d","system_id":"levelo_inurba_marseille","lat":43.29797,"lon":5.38088,"is_reserved":false,"is_disabled":false,"rental_uris":{"android":"levelo://app?vid=90f36701-ecf1-4515-bace-04be972be48d","ios":"levelo://app?vid=90f36701-ecf1-4515-bace-04be972be48d"},"vehicle_type_id":"4","last_reported":1742033370,"current_range_meters":20800,"station_id":"ce4bgip2rcd13ifvqbb0","pricing_plan_id":"cebpf4jnsgd1na2vs0mg"},{"bike_id":"04779c95-09a2-425e-927f-fb9e05ab6347","system_id":"levelo_inurba_marseille","lat":43.33761,"lon":5.37489,"is_reserved":false,"is_disabled":false,"rental_uris":{"android":"levelo://app?vid=04779c95-09a2-425e-927f-fb9e05ab6347","ios":"levelo://app?vid=04779c95-09a2-425e-927f-fb9e05ab6347"},"vehicle_type_id":"4","last_reported":1742033370,"current_range_meters":20800,"station_id":"","pricing_plan_id":"cebpf4jnsgd1na2vs0mg"},{"bike_id":"92553475-2347-4aac-a8a8-0f4cd7a77602","system_id":"levelo_inurba_marseille","lat":43.29796,"lon":5.38098,"is_reserved":false,"is_disabled":false,"rental_uris":{"android":"levelo://app?vid=92553475-2347-4aac-a8a8-0f4cd7a77602","ios":"levelo://app?vid=92553475-2347-4aac-a8a8-0f4cd7a77602"},"vehicle_type_id":"4","last_reported":1742033370,"current_range_meters":20800,"station_id":"ce4bgip2rcd13ifvqbb0","pricing_plan_id":"cebpf4jnsgd1na2vs0mg"},{"bike_id":"0071b309-148e-4441-a063-a479b01855f8","system_id":"levelo_inurba_marseille","lat":43.29205,"lon":5.39321,"is_reserved":false,"is_disabled":false,"rental_uris":{"android":"levelo://app?vid=0071b309-148e-4441-a063-a479b01855f8","ios":"levelo://app?vid=0071b309-148e-4441-a063-a479b01855f8"},"vehicle_type_id":"4","last_reported":1742033370,"current_range_meters":21600,"station_id":"ce4bh192rcd13ifvqdd0","pricing_plan_id":"cebpf4jnsgd1na2vs0mg"},{"bike_id":"8c699d45-4a4d-4888-92ee-287d080880be","system_id":"levelo_inurba_marseille","lat":43.284723,"lon":5.385346,"is_reserved":false,"is_disabled":false,"rental_uris":{"android":"levelo://app?vid=8c699d45-4a4d-4888-92ee-287d080880be","ios":"levelo://app?vid=8c699d45-4a4d-4888-92ee-287d080880be"},"vehicle_type_id":"4","last_reported":1742033370,"current_range_meters":21600,"station_id":"ce4bh8p2rcd13ifvqeb0","pricing_plan_id":"cebpf4jnsgd1na2vs0mg"},{"bike_id":"66057b5d-a1cc-4c02-9ce4-cb806c234c76","system_id":"levelo_inurba_marseille","lat":43.27062,"lon":5.40257,"is_reserved":false,"is_disabled":false,"rental_uris":{"android":"levelo://app?vid=66057b5d-a1cc-4c02-9ce4-cb806c234c76","ios":"levelo://app?vid=66057b5d-a1cc-4c02-9ce4-cb806c234c76"},"vehicle_type_id":"4","last_reported":1742033370,"current_range_meters":21600,"station_id":"ce4bhk92rcd13ifvqgc0","pricing_plan_id":"cebpf4jnsgd1na2vs0mg"},{"bike_id":"9263be85-7fbd-4641-91c8-c1a71a337a83","system_id":"levelo_inurba_marseille","lat":43.29895,"lon":5.43653,"is_reserved":false,"is_disabled":false,"rental_uris":{"android":"levelo://app?vid=9263be85-7fbd-4641-91c8-c1a71a337a83","ios":"levelo://app?vid=9263be85-7fbd-4641-91c8-c1a71a337a83"},"vehicle_type_id":"4","last_reported":1742033370,"current_range_meters":21600,"station_id":"ce4bhpp2rcd13ifvqhfg","pricing_plan_id":"cebpf4jnsgd1na2vs0mg"},{"bike_id":"84523849-9d98-4fb7-9ee6-8268a2293630","system_id":"levelo_inurba_marseille","lat":43.29277,"lon":5.36853,"is_reserved":false,"is_disabled":true,"rental_uris":{"android":"levelo://app?vid=84523849-9d98-4fb7-9ee6-8268a2293630","ios":"levelo://app?vid=84523849-9d98-4fb7-9ee6-8268a2293630"},