{"last_updated":1736845788,"ttl":60,"version":"2.2","data":{"bikes":[{"bike_id":"1170b16a-1e46-4ba2-a95f-f8e716bcc44c","system_id":"levelo_inurba_marseille","lat":43.27208,"lon":5.39181,"is_reserved":false,"is_disabled":false,"rental_uris":{"android":"levelo://app?vid=1170b16a-1e46-4ba2-a95f-f8e716bcc44c","ios":"levelo://app?vid=1170b16a-1e46-4ba2-a95f-f8e716bcc44c"},"vehicle_type_id":"4","last_reported":1736845788,"current_range_meters":30400,"station_id":"ce4bhhp2rcd13ifvqfm0","pricing_plan_id":"cebpf4jnsgd1na2vs0mg"},{"bike_id":"8b877a16-2c6f-4913-a8ea-b53aacb81218","system_id":"levelo_inurba_marseille","lat":43.280828,"lon":5.39661,"is_reserved":false,"is_disabled":false,"rental_uris":{"android":"levelo://app?vid=8b877a16-2c6f-4913-a8ea-b53aacb81218","ios":"levelo://app?vid=8b877a16-2c6f-4913-a8ea-b53aacb81218"},"vehicle_type_id":"4","last_reported":1736845788,"current_range_meters":38400,"station_id":"ce4bho12rcd13ifvqh2g","pricing_plan_id":"cebpf4jnsgd1na2vs0mg"},{"bike_id":"abac4475-a741-45b9-99ba-32430dbfcb1e","system_id":"levelo_inurba_marseille","lat":43.29932,"lon":5.36549,"is_reserved":false,"is_disabled":false,"rental_uris":{"android":"levelo://app?vid=abac4475-a741-45b9-99ba-32430dbfcb1e","ios":"levelo://app?vid=abac4475-a741-45b9-99ba-32430dbfcb1e"},"vehicle_type_id":"4","last_reported":1736845788,"current_range_meters":24000,"station_id":"ce4bgm92rcd13ifvqbr0","pricing_plan_id":"cebpf4jnsgd1na2vs0mg"},{"bike_id":"43a19ec7-681f-474f-9505-3bcc52563126","system_id":"levelo_inurba_marseille","lat":43.302887,"lon":5.36887,"is_reserved":false,"is_disabled":false,"rental_uris":{"android":"levelo://app?vid=43a19ec7-681f-474f-9505-3bcc52563126","ios":"levelo://app?vid=43a19ec7-681f-474f-9505-3bcc52563126"},"vehicle_type_id":"4","last_reported":1736845788,"current_range_meters":27200,"station_id":"ce4bgqh2rcd13ifvqc5g","pricing_plan_id":"cebpf4jnsgd1na2vs0mg"},{"bike_id":"8066198f-5e7b-4dcf-b299-6ccbfe957fcc","system_id":"levelo_inurba_marseille","lat":43.29301,"lon":5.37449,"is_reserved":false,"is_disabled":false,"rental_uris":{"android":"levelo://app?vid=8066198f-5e7b-4dcf-b299-6ccbfe957fcc","ios":"levelo://app?vid=8066198f-5e7b-4dcf-b299-6ccbfe957fcc"},"vehicle_type_id":"4","last_reported":1736845788,"current_range_meters":23200,"station_id":"ce4bgi12rcd13ifvqb70","pricing_plan_id":"cebpf4jnsgd1na2vs0mg"},{"bike_id":"a9caf45c-9b62-4fad-bb25-cf9cfd1dff86","system_id":"levelo_inurba_marseille","lat":43.33725,"lon":5.39188,"is_reserved":false,"is_disabled":false,"rental_uris":{"android":"levelo://app?vid=a9caf45c-9b62-4fad-bb25-cf9cfd1dff86","ios":"levelo://app?vid=a9caf45c-9b62-4fad-bb25-cf9cfd1dff86"},"vehicle_type_id":"4","last_reported":1736845788,"current_range_meters":38000,"station_id":"ce4bhr92rcd13ifvqhsg","pricing_plan_id":"cebpf4jnsgd1na2vs0mg"},{"bike_id":"c2d7ef64-1d75-4945-b382-218ebf1b0cbf","system_id":"levelo_inurba_marseille","lat":43.26196,"lon":5.37443,"is_reserved":false,"is_disabled":false,"rental_uris":{"android":"levelo://app?vid=c2d7ef64-1d75-4945-b382-218ebf1b0cbf","ios":"levelo://app?vid=c2d7ef64-1d75-4945-b382-218ebf1b0cbf"},"vehicle_type_id":"4","last_reported":1736845788,"current_range_meters":29600,"station_id":"ce4bhgp2rcd13ifvqfc0","pricing_plan_id":"cebpf4jnsgd1na2vs0mg"},{"bike_id":"5e0b46d4-53a6-4a9b-81ed-42b3629948b7","system_id":"levelo_inurba_marseille","lat":43.32104,"lon":5.36771,"is_reserved":false,"is_disabled":false,"rental_uris":{"android":"levelo://app?vid=5e0b46d4-53a6-4a9b-81ed-42b3629948b7","ios":"levelo://app?vid=5e0b46d4-53a6-4a9b-81ed-42b3629948b7"},"vehicle_type_id":"4","last_reported":1736845788,"current_range_meters":38000,"station_id":"ce4bhrh2rcd13ifvqhug","pricing_plan_id":"cebpf4jnsgd1na2vs0mg"},{"bike_id":"ac511c71-61c9-4661-85d6-510ca657315b","system_id":"levelo_inurba_marseille","lat":43.26195,"lon":5.37441,"is_reserved":false,"is_disabled":false,"rental_uris":{"android":"levelo://app?vid=ac511c71-61c9-4661-85d6-510ca657315b","ios":"levelo://app?vid=ac511c71-61c9-4661-85d6-510ca657315b"},"vehicle_type_id":"4","last_reported":1736845788,"current_range_meters":12400,"station_id":"ce4bhgp2rcd13ifvqfc0","pricing_plan_id":"cebpf4jnsgd1na2vs0mg"},{"bike_id":"d7f851be-3276-40aa-8188-4dc6d2538f9f","system_id":"levelo_inurba_marseille","lat":43.26941,"lon":5.38644,"is_reserved":false,"is_disabled":false,"rental_uris":{"android":"levelo://app?vid=d7f851be-3276-40aa-8188-4dc6d2538f9f","ios":"levelo://app?vid=d7f851be-3276-40aa-8188-4dc6d2538f9f"},"vehicle_type_id":"4","last_reported":1736845788,"current_range_meters":33200,"station_id":"ce4bhh92rcd13ifvqfh0","pricing_plan_id":"cebpf4jnsgd1na2vs0mg"},{"bike_id":"e6063051-52de-4350-93ec-1bcbc969816b","system_id":"levelo_inurba_marseille","lat":43.29798,"lon":5.3808,"is_reserved":false,"is_disabled":true,"rental_uris":{"android":"levelo://app?vid=e6063051-52de-4350-93ec-1bcbc969816b","ios":"levelo://app?vid=e6063051-52de-4350-93ec-1bcbc969816b"},"vehicle_type_id":"4","last_reported":1736845788,"current_range_meters":38400,"station_id":"ce4bgip2rcd13ifvqbb0","pricing_plan_id":"cebpf4jnsgd1na2vs0mg"},{"bike_id":"5bb5758f-37be-496e-ac0a-3712e6b43125","system_id":"levelo_inurba_marseille","lat":43.26182,"lon":5.37923,"is_reserved":false,"is_disabled":false,"rental_uris":{"android":"levelo://app?vid=5bb5758f-37be-496e-ac0a-3712e6b43125","ios":"levelo://app?vid=5bb5758f-37be-496e-ac0a-3712e6b43125"},"vehicle_type_id":"4","last_reported":1736845788,"current_range_meters":39200,"station_id":"ce4bhjp2rcd13ifvqg90","pricing_plan_id":"cebpf4jnsgd1na2vs0mg"},{"bike_id":"226fba15-616e-44d6-8a36-73834238165d","system_id":"levelo_inurba_marseille","lat":43.26951,"lon":5.38913,"is_reserved":false,"is_disabled":false,"rental_uris":{"android":"levelo://app?vid=226fba15-616e-44d6-8a36-73834238165d","ios":"levelo://app?vid=226fba15-616e-44d6-8a36-73834238165d"},"vehicle_type_id":"4","last_reported":1736845788,"current_range_meters":38400,"station_id":"ce4bhhh2rcd13ifvqfl0","pricing_plan_id":"cebpf4jnsgd1na2vs0mg"},{"bike_id":"afa956c1-a024-460a-8f3b-934d75beef2c","system_id":"levelo_inurba_marseille","lat":43.27973,"lon":5.38736,"is_reserved":false,"is_disabled":false,"rental_uris":{"android":"levelo://app?vid=afa956c1-a024-460a-8f3b-934d75beef2c","ios":"levelo://app?vid=afa956c1-a024-460a-8f3b-934d75beef2c"},"vehicle_type_id":"4","last_reported":1736845788,"current_range_meters":29600,"station_id":"ce4bhg12rcd13ifvqf80","pricing_plan_id":"cebpf4jnsgd1na2vs0mg"},{"bike_id":"962cc5cc-fec7-46f8-84df-102fbfaf51f6","system_id":"levelo_inurba_marseille","lat":43.25926,"lon":5.40915,"is_reserved":false,"is_disabled":false,"rental_uris":{"android":"levelo://app?vid=962cc5cc-fec7-46f8-84df-102fbfaf51f6","ios":"levelo://app?vid=962cc5cc-fec7-46f8-84df-102fbfaf51f6"},"vehicle_type_id":"4","last_reported":1736845788,"current_range_meters":38000,"station_id":"ce4bhm92rcd13ifvqglg","pricing_plan_id":"cebpf4jnsgd1na2vs0mg"},{"bike_id":"29a9ed2d-851f-4096-8afb-4abdc1d84956","system_id":"levelo_inurba_marseille","lat":43.31342,"lon":5.36732,"is_reserved":false,"is_disabled":false,"rental_uris":{"android":"levelo://app?vid=29a9ed2d-851f-4096-8afb-4abdc1d84956","ios":"levelo://app?vid=29a9ed2d-851f-4096-8afb-4abdc1d84956"},"vehicle_type_id":"4","last_reported":1736845788,"current_range_meters":24000,"station_id":"ce4bgr92rcd13ifvqc6g","pricing_plan_id":"cebpf4jnsgd1na2vs0mg"},{"bike_id":"766fcbc5-2274-4a2f-90b2-b81c8e781bf8","system_id":"levelo_inurba_marseille","lat":43.29604,"lon":5.37736,"is_reserved":false,"is_disabled":false,"rental_uris":{"android":"levelo://app?vid=766fcbc5-2274-4a2f-90b2-b81c8e781bf8","ios":"levelo://app?vid=766fcbc5-2274-4a2f-90b2-b81c8e781bf8"},"vehicle_type_id":"4","last_reported":1736845788,"current_range_meters":37600,"station_id":"ce4bgi92rcd13ifvqb90","pricing_plan_id":"cebpf4jnsgd1na2vs0mg"},{"bike_id":"b130ce1b-0a59-478f-8453-c9f5cf6aa63a","system_id":"levelo_inurba_marseille","lat":43.26501,"lon":5.39558,"is_reserved":false,"is_disabled":false,"rental_uris":{"android":"levelo://app?vid=b130ce1b-0a59-478f-8453-c9f5cf6aa63a","ios":"levelo://app?vid=b130ce1b-0a59-478f-8453-c9f5cf6aa63a"},"vehicle_type_id":"4","last_reported":1736845788,"current_range_meters":18000,"station_id":"ce4bhi12rcd13ifvqfq0","pricing_plan_id":"cebpf4jnsgd1na2vs0mg"},{"bike_id":"e0ca69a2-8f04-4664-9d47-26dea82cc9f8","system_id":"levelo_inurba_marseille","lat":43.29981,"lon":5.38485,"is_reserved":false,"is_disabled":true,"rental_uris":{"android":"levelo://app?vid=e0ca69a2-8f04-4664-9d47-26dea82cc9f8","ios":"levelo://app?vid=e0ca69a2-8f04-4664-9d47-26dea82cc9f8"},"vehicle_type_id":"4","last_reported":1736845788,"current_range_meters":38400,"station_id":"ce4bgj92rcd13ifvqbd0","pricing_plan_id":"cebpf4jnsgd1na2vs0mg"},{"bike_id":"94440fca-9d66-4315-a057-b48311229f6d","system_id":"levelo_inurba_marseille","lat":43.33599,"lon":5.41033,"is_reserved":false,"is_disabled":false,"rental_uris":{"android":"levelo://app?vid=94440fca-9d66-4315-a057-b48311229f6d","ios":"levelo://app?vid=94440fca-9d66-4315-a057-b48311229f6d"},"vehicle_type_id":"4","last_reported":1736845788,"current_range_meters":35200,"station_id":"ce4bhqh2rcd13ifvqhmg","pricing_plan_id":"cebpf4jnsgd1na2vs0mg"},{"bike_id":"6488d31b-271d-42cd-b8e6-1cc70ce610e8","system_id":"levelo_inurba_marseille","lat":43.28965,"lon":5.37832,"is_reserved":false,"is_disabled":false,"rental_uris":{"android":"levelo://app?vid=6488d31b-271d-42cd-b8e6-1cc70ce610e8","ios":"levelo://app?vid=6488d31b-271d-42cd-b8e6-1cc70ce610e8"},"vehicle_type_id":"4","last_reported":1736845788,"current_range_meters":14400,"station_id":"ce4bh9p2rcd13ifvqed0","pricing_plan_id":"cebpf4jnsgd1na2vs0mg"},{"bike_id":"571caa5a-a983-48f8-8c22-8b979894359c","system_id":"levelo_inurba_marseille","lat":43.29884,"lon":5.38919,"is_reserved":false,"is_disabled":true,"rental_uris":{"android":"levelo://app?vid=571caa5a-a983-48f8-8c22-8b979894359c","ios":"levelo://app?vid=571caa5a-a983-48f8-8c22-8b979894359c"},"vehicle_type_id":"4","last_reported":1736845788,"current_range_meters":39200,"station_id":"ce4bh392rcd13ifvqdl0","pricing_plan_id":"cebpf4jnsgd1na2vs0mg"},{"bike_id":"1ca9fc25-ccc8-4a68-82aa-93e184d4ffee","system_id":"levelo_inurba_marseille","lat":43.3094,"lon":5.39054,"is_reserved":false,"is_disabled":true,"rental_uris":{"android":"levelo://app?vid=1ca9fc25-ccc8-4a68-82aa-93e184d4ffee","ios":"levelo://app?vid=1ca9fc25-ccc8-4a68-82aa-93e184d4ffee"},"vehicle_type_id":"4","last_reported":1736845788,"current_range_meters":0,"station_id":"ce4bgup2rcd13ifvqco0","pricing_plan_id":"cebpf4jnsgd1na2vs0mg"},{"bike_id":"bdab11e4-0b4c-4df8-8ae1-6fa926fce99e","system_id":"levelo_inurba_marseille","lat":43.27924,"lon":5.41019,"is_reserved":false,"is_disabled":true,"rental_uris":{"android":"levelo://app?vid=bdab11e4-0b4c-4df8-8ae1-6fa926fce99e","ios":"levelo://app?vid=bdab11e4-0b4c-4df8-8ae1-6fa926fce99e"},"vehicle_type_id":"4","last_reported":1736845788,"current_range_meters":0,"station_id":"ce4bhnp2rcd13ifvqh0g","pricing_plan_id":"cebpf4jnsgd1na2vs0mg"},{"bike_id":"eee11371-2924-4946-b434-8143dbaa4fd3","system_id":"levelo_inurba_marseille","lat":43.30549,"lon":5.36537,"is_reserved":false,"is_disabled":false,"rental_uris":{"android":"levelo://app?vid=eee11371-2924-4946-b434-8143dbaa4fd3","ios":"levelo://app?vid=eee11371-2924-4946-b434-8143dbaa4fd3"},"vehicle_type_id":"4","last_reported":1736845788,"current_range_meters":20400,"station_id":"ce4bgs12rcd13ifvqcag","pricing_plan_id":"cebpf4jnsgd1na2vs0mg"},{"bike_id":"94d00723-79f7-443c-bc62-0c89ddbb1d1c","system_id":"levelo_inurba_marseille","lat":43.28161,"lon":5.42646,"is_reserved":false,"is_disabled":true,"rental_uris":{"android":"levelo://app?vid=94d00723-79f7-443c-bc62-0c89ddbb1d1c","ios":"levelo://app?vid=94d00723-79f7-443c-bc62-0c89ddbb1d1c"},"vehicle_type_id":"4","last_reported":1736845788,"current_range_meters":16800,"station_id":"ce4bhnh2rcd13ifvqgug","pricing_plan_id":"cebpf4jnsgd1na2vs0mg"},{"bike_id":"54214935-5699-412c-80e4-21b9631233f2","system_id":"levelo_inurba_marseille","lat":43.31263,"lon":5.40171,"is_reserved":false,"is_disabled":false,"rental_uris":{"android":"levelo://app?vid=54214935-5699-412c-80e4-21b9631233f2","ios":"levelo://app?vid=54214935-5699-412c-80e4-21b9631233f2"},"vehicle_type_id":"4","last_reported":1736845788,"current_range_meters":38800,"station_id":"ce4bh092rcd13ifvqd30","pricing_plan_id":"cebpf4jnsgd1na2vs0mg"},{"bike_id":"29a5cbd9-65c4-419c-9a97-09f4fd054b93","system_id":"levelo_inurba_marseille","lat":43.30561,"lon":5.36546,"is_reserved":false,"is_disabled":false,"rental_uris":{"android":"levelo://app?vid=29a5cbd9-65c4-419c-9a97-09f4fd054b93","ios":"levelo://app?vid=29a5cbd9-65c4-419c-9a97-09f4fd054b93"},"vehicle_type_id":"4","last_reported":1736845788,"current_range_meters":23200,"station_id":"ce4bgs12rcd13ifvqcag","pricing_plan_id":"cebpf4jnsgd1na2vs0mg"},{"bike_id":"d0a789a4-25dc-4487-b528-6d2e08b62b36","system_id":"levelo_inurba_marseille","lat":43.31115,"lon":5.37777,"is_reserved":false,"is_disabled":false,"rental_uris":{"android":"levelo://app?vid=d0a789a4-25dc-4487-b528-6d2e08b62b36","ios":"levelo://app?vid=d0a789a4-25dc-4487-b528-6d2e08b62b36"},"vehicle_type_id":"4","last_reported":1736845788,"current_range_meters":20400,"station_id":"ce4bgt92rcd13ifvqcg0","pricing_plan_id":"cebpf4jnsgd1na2vs0mg"},{"bike_id":"15e73dd5-b3d5-4879-81a8-72e783e5d381","system_id":"levelo_inurba_marseille","lat":43.26563,"lon":5.39,"is_reserved":false,"is_disabled":false,"rental_uris":{"android":"levelo://app?vid=15e73dd5-b3d5-4879-81a8-72e783e5d381","ios":"levelo://app?vid=15e73dd5-b3d5-4879-81a8-72e783e5d381"},"vehicle_type_id":"4","last_reported":1736845788,"current_range_meters":20800,"station_id":"ce4bhe12rcd13ifvqf30","pricing_plan_id":"cebpf4jnsgd1na2vs0mg"},{"bike_id":"76c2d752-0e42-4788-88b6-cb72a4111614","system_id":"levelo_inurba_marseille","lat":43.30944,"lon":5.39036,"is_reserved":false,"is_disabled":false,"rental_uris":{"android":"levelo://app?vid=76c2d752-0e42-4788-88b6-cb72a4111614","ios":"levelo://app?vid=76c2d752-0e42-4788-88b6-cb72a4111614"},"vehicle_type_id":"4","last_reported":1736845788,"current_range_meters":37600,"station_id":"ce4bgup2rcd13ifvqco0","pricing_plan_id":"cebpf4jnsgd1na2vs0mg"},{"bike_id":"7ced0135-1286-4817-bef0-3fa55de62cf3","system_id":"levelo_inurba_marseille","lat":43.29559,"lon":5.37519,"is_reserved":false,"is_disabled":false,"rental_uris":{"android":"levelo://app?vid=7ced0135-1286-4817-bef0-3fa55de62cf3","ios":"levelo://app?vid=7ced0135-1286-4817-bef0-3fa55de62cf3"},"vehicle_type_id":"4","last_reported":1736845788,"current_range_meters":24800,"station_id":"ce4bgh92rcd13ifvqb50","pricing_plan_id":"cebpf4jnsgd1na2vs0mg"},{"bike_id":"edaae5f4-f840-439b-8d8a-04561c36b49c","system_id":"levelo_inurba_marseille","lat":43.293,"lon":5.37443,"is_reserved":false,"is_disabled":false,"rental_uris":{"android":"levelo://app?vid=edaae5f4-f840-439b-8d8a-04561c36b49c","ios":"levelo://app?vid=edaae5f4-f840-439b-8d8a-04561c36b49c"},"vehicle_type_id":"4","last_reported":1736845788,"current_range_meters":38800,"station_id":"ce4bgi12rcd13ifvqb70","pricing_plan_id":"cebpf4jnsgd1na2vs0mg"},{"bike_id":"a402044d-1041-4786-a63f-9d18af3bc82f","system_id":"levelo_inurba_marseille","lat":43.24164,"lon":5.36409,"is_reserved":false,"is_disabled":true,"rental_uris":{"android":"levelo://app?vid=a402044d-1041-4786-a63f-9d18af3bc82f","ios":"levelo://app?vid=a402044d-1041-4786-a63f-9d18af3bc82f"},"vehicle_type_id":"4","last_reported":1736845788,"current_range_meters":8800,"station_id":"cpo36qri1sfpv3e86is0","pricing_plan_id":"cebpf4jnsgd1na2vs0mg"},{"bike_id":"04242d7d-6524-4840-9376-c0bce1fa64bb","system_id":"levelo_inurba_marseille","lat":43.25493,"lon":5.37671,"is_reserved":false,"is_disabled":false,"rental_uris":{"android":"levelo://app?vid=04242d7d-6524-4840-9376-c0bce1fa64bb","ios":"levelo://app?vid=04242d7d-6524-4840-9376-c0bce1fa64bb"},"vehicle_type_id":"4","last_reported":1736845788,"current_range_meters":17600,"station_id":"ce4bhh12rcd13ifvqff0","pricing_plan_id":"cebpf4jnsgd1na2vs0mg"},{"bike_id":"87ecfd66-ef43-4d79-bb7a-de8e0aaaaf45","system_id":"levelo_inurba_marseille","lat":43.26944,"lon":5.38638,"is_reserved":false,"is_disabled":false,"rental_uris":{"android":"levelo://app?vid=87ecfd66-ef43-4d79-bb7a-de8e0aaaaf45","ios":"levelo://app?vid=87ecfd66-ef43-4d79-bb7a-de8e0aaaaf45"},"vehicle_type_id":"4","last_reported":1736845788,"current_range_meters":36000,"station_id":"ce4bhh92rcd13ifvqfh0","pricing_plan_id":"cebpf4jnsgd1na2vs0mg"},{"bike_id":"0be51738-d57f-4e23-877e-205a9a4ca8c1","system_id":"levelo_inurba_marseille","lat":43.26943,"lon":5.38648,"is_reserved":false,"is_disabled":false,"rental_uris":{"android":"levelo://app?vid=0be51738-d57f-4e23-877e-205a9a4ca8c1","ios":"levelo://app?vid=0be51738-d57f-4e23-877e-205a9a4ca8c1"},"vehicle_type_id":"4","last_reported":1736845788,"current_range_meters":16800,"station_id":"ce4bhh92rcd13ifvqfh0","pricing_plan_id":"cebpf4jnsgd1na2vs0mg"},{"bike_id":"7855b5cd-fbd6-4d6d-8731-19c257408fa0","system_id":"levelo_inurba_marseille","lat":43.24168,"lon":5.39723,"is_reserved":false,"is_disabled":false,"rental_uris":{"android":"levelo://app?vid=7855b5cd-fbd6-4d6d-8731-19c257408fa0","ios":"levelo://app?vid=7855b5cd-fbd6-4d6d-8731-19c257408fa0"},"vehicle_type_id":"4","last_reported":1736845788,"current_range_meters":27200,"station_id":"ce4bhn12rcd13ifvqgpg","pricing_plan_id":"cebpf4jnsgd1na2vs0mg"},{"bike_id":"400587df-40e5-4341-9d83-632d1ca1cf41","system_id":"levelo_inurba_marseille","lat":43.31323,"lon":5.36772,"is_reserved":false,"is_disabled":false,"rental_uris":{"android":"levelo://app?vid=400587df-40e5-4341-9d83-632d1ca1cf41","ios":"levelo://app?vid=400587df-40e5-4341-9d83-632d1ca1cf41"},"vehicle_type_id":"4","last_reported":1736845788,"current_range_meters":33200,"station_id":"","pricing_plan_id":"cebpf4jnsgd1na2vs0mg"},{"bike_id":"c8e997c0-8580-4d0f-8d9f-0766596381e1","system_id":"levelo_inurba_marseille","lat":43.33981,"lon":5.37534,"is_reserved":false,"is_disabled":true,"rental_uris":{"android":"levelo://app?vid=c8e997c0-8580-4d0f-8d9f-0766596381e1","ios":"levelo://app?vid=c8e997c0-8580-4d0f-8d9f-0766596381e1"},"vehicle_type_id":"4","last_reported":1736845788,"current_range_meters":0,"station_id":"","pricing_plan_id":"cebpf4jnsgd1na2vs0mg"},{"bike_id":"24631922-0068-465d-9fc3-178e37c8b149","system_id":"levelo_inurba_marseille","lat":43.30444,"lon":5.3888,"is_reserved":false,"is_disabled":false,"rental_uris":{"android":"levelo://app?vid=24631922-0068-465d-9fc3-178e37c8b149","ios":"levelo://app?vid=24631922-0068-465d-9fc3-178e37c8b149"},"vehicle_type_id":"4","last_reported":1736845788,"current_range_meters":30000,"station_id":"ce4bgk12rcd13ifvqbi0","pricing_plan_id":"cebpf4jnsgd1na2vs0mg"},{"bike_id":"5e16ec8e-2e42-41a5-98c3-d7ec14fc7cea","system_id":"levelo_inurba_marseille","lat":43.23142,"lon":5.43726,"is_reserved":false,"is_disabled":false,"rental_uris":{"android":"levelo://app?vid=5e16ec8e-2e42-41a5-98c3-d7ec14fc7cea","ios":"levelo://app?vid=5e16ec8e-2e42-41a5-98c3-d7ec14fc7cea"},"vehicle_type_id":"4","last_reported":1736845788,"current_range_meters":9200,"station_id":"ce4bhmp2rcd13ifvqgog","pricing_plan_id":"cebpf4jnsgd1na2vs0mg"},{"bike_id":"ba5df164-d25c-4a1c-8679-1bd1a1db0642","system_id":"levelo_inurba_marseille","lat":43.33746,"lon":5.39202,"is_reserved":false,"is_disabled":false,"rental_uris":{"android":"levelo://app?vid=ba5df164-d25c-4a1c-8679-1bd1a1db0642","ios":"levelo://app?vid=ba5df164-d25c-4a1c-8679-1bd1a1db0642"},"vehicle_type_id":"4","last_reported":1736845788,"current_range_meters":36400,"station_id":"ce4bhr92rcd13ifvqhsg","pricing_plan_id":"cebpf4jnsgd1na2vs0mg"},{"bike_id":"ee3a8e62-9612-4383-a90d-e2bce1f472cd","system_id":"levelo_inurba_marseille","lat":43.27488,"lon":5.42462,"is_reserved":false,"is_disabled":false,"rental_uris":{"android":"levelo://app?vid=ee3a8e62-9612-4383-a90d-e2bce1f472cd","ios":"levelo://app?vid=ee3a8e62-9612-4383-a90d-e2bce1f472cd"},"vehicle_type_id":"4","last_reported":1736845788,"current_range_meters":18800,"station_id":"ce4bhn92rcd13ifvqgrg","pricing_plan_id":"cebpf4jnsgd1na2vs0mg"},{"bike_id":"67317968-c309-4feb-bf23-6e6015093d36","system_id":"levelo_inurba_marseille","lat":43.2693,"lon":5.38661,"is_reserved":false,"is_disabled":false,"rental_uris":{"android":"levelo://app?vid=67317968-c309-4feb-bf23-6e6015093d36","ios":"levelo://app?vid=67317968-c309-4feb-bf23-6e6015093d36"},"vehicle_type_id":"4","last_reported":1736845788,"current_range_meters":9600,"station_id":"ce4bhh92rcd13ifvqfh0","pricing_plan_id":"cebpf4jnsgd1na2vs0mg"},{"bike_id":"ddb41cf1-08d5-4912-801d-fd0c3b376b8a","system_id":"levelo_inurba_marseille","lat":43.29982,"lon":5.37164,"is_reserved":false,"is_disabled":false,"rental_uris":{"android":"levelo://app?vid=ddb41cf1-08d5-4912-801d-fd0c3b376b8a","ios":"levelo://app?vid=ddb41cf1-08d5-4912-801d-fd0c3b376b8a"},"vehicle_type_id":"4","last_reported":1736845788,"current_range_meters":36000,"station_id":"ce4bgr92rcd13ifvqc7g","pricing_plan_id":"cebpf4jnsgd1na2vs0mg"},{"bike_id":"1e72500a-a638-4270-b0f0-d3bef5f78eaa","system_id":"levelo_inurba_marseille","lat":43.23133,"lon":5.43731,"is_reserved":false,"is_disabled":false,"rental_uris":{"android":"levelo://app?vid=1e72500a-a638-4270-b0f0-d3bef5f78eaa","ios":"levelo://app?vid=1e72500a-a638-4270-b0f0-d3bef5f78eaa"},"vehicle_type_id":"4","last_reported":1736845788,"current_range_meters":27200,"station_id":"ce4bhmp2rcd13ifvqgog","pricing_plan_id":"cebpf4jnsgd1na2vs0mg"},{"bike_id":"d85a1d9b-f035-4b2a-858c-2526acab5ed6","system_id":"levelo_inurba_marseille","lat":43.30153,"lon":5.37433,"is_reserved":false,"is_disabled":true,"rental_uris":{"android":"levelo://app?vid=d85a1d9b-f035-4b2a-858c-2526acab5ed6","ios":"levelo://app?vid=d85a1d9b-f035-4b2a-858c-2526acab5ed6"},"vehicle_type_id":"4","last_reported":1736845788,"current_range_meters":35600,"station_id":"ce4bgs92rcd13ifvqcc0","pricing_plan_id":"cebpf4jnsgd1na2vs0mg"},{"bike_id":"c0b74adc-1200-45f2-b990-75a202f7838e","system_id":"levelo_inurba_marseille","lat":43.30283,"lon":5.377,"is_reserved":false,"is_disabled":false,"rental_uris":{"android":"levelo://app?vid=c0b74adc-1200-45f2-b990-75a202f7838e","ios":"levelo://app?vid=c0b74adc-1200-45f2-b990-75a202f7838e"},"vehicle_type_id":"4","last_reported":1736845788,"current_range_meters":19200,"station_id":"ce4bguh2rcd13ifvqcj0","pricing_plan_id":"cebpf4jnsgd1na2vs0mg"},{"bike_id":"5901f4de-f320-42a7-a3ee-cdd54016ad77","system_id":"levelo_inurba_marseille","lat":43.27978,"lon":5.38751,"is_reserved":false,"is_disabled":false,"rental_uris":{"android":"levelo://app?vid=5901f4de-f320-42a7-a3ee-cdd54016ad77","ios":"levelo://app?vid=5901f4de-f320-42a7-a3ee-cdd54016ad77"},"vehicle_type_id":"4","last_reported":1736845788,"current_range_meters":38800,"station_id":"ce4bhg12rcd13ifvqf80","pricing_plan_id":"cebpf4jnsgd1na2vs0mg"},{"bike_id":"4d8f2bd3-28e6-4a6b-bf9a-7e46e3c91edf","system_id":"levelo_inurba_marseille","lat":43.30146,"lon":5.37426,"is_reserved":false,"is_disabled":false,"rental_uris":{"android":"levelo://app?vid=4d8f2bd3-28e6-4a6b-bf9a-7e46e3c91edf","ios":"levelo://app?vid=4d8f2bd3-28e6-4a6b-bf9a-7e46e3c91edf"},"vehicle_type_id":"4","last_reported":1736845788,"current_range_meters":39200,"station_id":"ce4bgs92rcd13ifvqcc0","pricing_plan_id":"cebpf4jnsgd1na2vs0mg"},{"bike_id":"42cfeef1-ded8-43ac-8888-284da4376b57","system_id":"levelo_inurba_marseille","lat":43.32472,"lon":5.36557,"is_reserved":false,"is_disabled":false,"rental_uris":{"android":"levelo://app?vid=42cfeef1-ded8-43ac-8888-284da4376b57","ios":"levelo://app?vid=42cfeef1-ded8-43ac-8888-284da4376b57"},"vehicle_type_id":"4","last_reported":1736845788,"current_range_meters":28400,"station_id":"ce4bhs12rcd13ifvqhvg","pricing_plan_id":"cebpf4jnsgd1na2vs0mg"},{"bike_id":"c914e9c6-6e6b-4dbd-afce-1f90576b3e13","system_id":"levelo_inurba_marseille","lat":43.31702,"lon":5.40477,"is_reserved":false,"is_disabled":false,"rental_uris":{"android":"levelo://app?vid=c914e9c6-6e6b-4dbd-afce-1f90576b3e13","ios":"levelo://app?vid=c914e9c6-6e6b-4dbd-afce-1f90576b3e13"},"vehicle_type_id":"4","last_reported":1736845788,"current_range_meters":8400,"station_id":"ce4bh012rcd13ifvqd00","pricing_plan_id":"cebpf4jnsgd1na2vs0mg"},{"bike_id":"6ba8d844-4be9-4966-b91c-0b5bcfe6a94b","system_id":"levelo_inurba_marseille","lat":43.29158,"lon":5.37149,"is_reserved":false,"is_disabled":true,"rental_uris":{"android":"levelo://app?vid=6ba8d844-4be9-4966-b91c-0b5bcfe6a94b","ios":"levelo://app?vid=6ba8d844-4be9-4966-b91c-0b5bcfe6a94b"},"vehicle_type_id":"4","last_reported":1736845788,"current_range_meters":38000,"station_id":"ce4bha92rcd13ifvqeh0","pricing_plan_id":"cebpf4jnsgd1na2vs0mg"},{"bike_id":"59d914a9-7941-4d0c-ad3f-66ae0befc663","system_id":"levelo_inurba_marseille","lat":43.28037,"lon":5.37001,"is_reserved":false,"is_disabled":false,"rental_uris":{"android":"levelo://app?vid=59d914a9-7941-4d0c-ad3f-66ae0befc663","ios":"levelo://app?vid=59d914a9-7941-4d0c-ad3f-66ae0befc663"},"vehicle_type_id":"4","last_reported":1736845788,"current_range_meters":8400,"station_id":"","pricing_plan_id":"cebpf4jnsgd1na2vs0mg"},{"bike_id":"92e0e0d7-0c30-4bd5-9f0d-3c7c9fa095dc","system_id":"levelo_inurba_marseille","lat":43.27496,"lon":5.42457,"is_reserved":false,"is_disabled":false,"rental_uris":{"android":"levelo://app?vid=92e0e0d7-0c30-4bd5-9f0d-3c7c9fa095dc","ios":"levelo://app?vid=92e0e0d7-0c30-4bd5-9f0d-3c7c9fa095dc"},"vehicle_type_id":"4","last_reported":1736845788,"current_range_meters":34000,"station_id":"ce4bhn92rcd13ifvqgrg","pricing_plan_id":"cebpf4jnsgd1na2vs0mg"},{"bike_id":"426ee80e-06b0-4d0f-86a5-ea8ad64aaa11","system_id":"levelo_inurba_marseille","lat":43.2888,"lon":5.43766,"is_reserved":false,"is_disabled":false,"rental_uris":{"android":"levelo://app?vid=426ee80e-06b0-4d0f-86a5-ea8ad64aaa11","ios":"levelo://app?vid=426ee80e-06b0-4d0f-86a5-ea8ad64aaa11"},"vehicle_type_id":"4","last_reported":1736845788,"current_range_meters":6400,"station_id":"","pricing_plan_id":"cebpf4jnsgd1na2vs0mg"},{"bike_id":"0e149c29-3117-4028-b082-f697f135dae1","system_id":"levelo_inurba_marseille","lat":43.33611,"lon":5.41035,"is_reserved":false,"is_disabled":false,"rental_uris":{"android":"levelo://app?vid=0e149c29-3117-4028-b082-f697f135dae1","ios":"levelo://app?vid=0e149c29-3117-4028-b082-f697f135dae1"},"vehicle_type_id":"4","last_reported":1736845788,"current_range_meters":18000,"station_id":"ce4bhqh2rcd13ifvqhmg","pricing_plan_id":"cebpf4jnsgd1na2vs0mg"},{"bike_id":"192943ff-6579-4067-8b54-834fbf6d8760","system_id":"levelo_inurba_marseille","lat":43.27619,"lon":5.36109,"is_reserved":false,"is_disabled":true,"rental_uris":{"android":"levelo://app?vid=192943ff-6579-4067-8b54-834fbf6d8760","ios":"levelo://app?vid=192943ff-6579-4067-8b54-834fbf6d8760"},"vehicle_type_id":"4","last_reported":1736845788,"current_range_meters":0,"station_id":"ce4bgj92rcd13ifvqbe0","pricing_plan_id":"cebpf4jnsgd1na2vs0mg"},{"bike_id":"b28c733a-9074-4465-b8f3-397a69876096","system_id":"levelo_inurba_marseille","lat":43.33624,"lon":5.40942,"is_reserved":false,"is_disabled":true,"rental_uris":{"android":"levelo://app?vid=b28c733a-9074-4465-b8f3-397a69876096","ios":"levelo://app?vid=b28c733a-9074-4465-b8f3-397a69876096"},"vehicle_type_id":"4","last_reported":1736845788,"current_range_meters":16000,"station_id":"ce4bhqh2rcd13ifvqhmg","pricing_plan_id":"cebpf4jnsgd1na2vs0mg"},{"bike_id":"969e27ab-5a9e-459e-9526-3b57e6f57682","system_id":"levelo_inurba_marseille","lat":43.22906,"lon":5.35411,"is_reserved":false,"is_disabled":false,"rental_uris":{"android":"levelo://app?vid=969e27ab-5a9e-459e-9526-3b57e6f57682","ios":"levelo://app?vid=969e27ab-5a9e-459e-9526-3b57e6f57682"},"vehicle_type_id":"4","last_reported":1736845788,"current_range_meters":38800,"station_id":"cpo3532slgdg3j2ikp40","pricing_plan_id":"cebpf4jnsgd1na2vs0mg"},{"bike_id":"1a0edb26-6918-425b-8387-f290be87a2c0","system_id":"levelo_inurba_marseille","lat":43.33125,"lon":5.38229,"is_reserved":false,"is_disabled":false,"rental_uris":{"android":"levelo://app?vid=1a0edb26-6918-425b-8387-f290be87a2c0","ios":"levelo://app?vid=1a0edb26-6918-425b-8387-f290be87a2c0"},"vehicle_type_id":"4","last_reported":1736845788,"current_range_meters":36400,"station_id":"","pricing_plan_id":"cebpf4jnsgd1na2vs0mg"},{"bike_id":"a2866ede-f862-4ad4-bd1a-9dfbca35869f","system_id":"levelo_inurba_marseille","lat":43.30068,"lon":5.3737,"is_reserved":false,"is_disabled":false,"rental_uris":{"android":"levelo://app?vid=a2866ede-f862-4ad4-bd1a-9dfbca35869f","ios":"levelo://app?vid=a2866ede-f862-4ad4-bd1a-9dfbca35869f"},"vehicle_type_id":"4","last_reported":1736845788,"current_range_meters":30000,"station_id":"","pricing_plan_id":"cebpf4jnsgd1na2vs0mg"},{"bike_id":"13fe195f-e01b-4420-aa12-4802e9b2b635","system_id":"levelo_inurba_marseille","lat":43.31347,"lon":5.36771,"is_reserved":false,"is_disabled":false,"rental_uris":{"android":"levelo://app?vid=13fe195f-e01b-4420-aa12-4802e9b2b635","ios":"levelo://app?vid=13fe195f-e01b-4420-aa12-4802e9b2b635"},"vehicle_type_id":"4","last_reported":1736845788,"current_range_meters":37600,"station_id":"ce4bgr92rcd13ifvqc6g","pricing_plan_id":"cebpf4jnsgd1na2vs0mg"},{"bike_id":"17195bfc-4a79-432e-b38c-3495e05e2f6f","system_id":"levelo_inurba_marseille","lat":43.305912,"lon":5.393543,"is_reserved":false,"is_disabled":false,"rental_uris":{"android":"levelo://app?vid=17195bfc-4a79-432e-b38c-3495e05e2f6f","ios":"levelo://app?vid=17195bfc-4a79-432e-b38c-3495e05e2f6f"},"vehicle_type_id":"4","last_reported":1736845788,"current_range_meters":24000,"station_id":"","pricing_plan_id":"cebpf4jnsgd1na2vs0mg"},{"bike_id":"ab10846d-13f2-4f21-8075-25b6583e29b0","system_id":"levelo_inurba_marseille","lat":43.25937,"lon":5.40902,"is_reserved":false,"is_disabled":false,"rental_uris":{"android":"levelo://app?vid=ab10846d-13f2-4f21-8075-25b6583e29b0","ios":"levelo://app?vid=ab10846d-13f2-4f21-8075-25b6583e29b0"},"vehicle_type_id":"4","last_reported":1736845788,"current_range_meters":19200,"station_id":"ce4bhm92rcd13ifvqglg","pricing_plan_id":"cebpf4jnsgd1na2vs0mg"},{"bike_id":"f4dbc556-58b0-4dfd-be99-18a51c032520","system_id":"levelo_inurba_marseille","lat":43.24197,"lon":5.39736,"is_reserved":false,"is_disabled":false,"rental_uris":{"android":"levelo://app?vid=f4dbc556-58b0-4dfd-be99-18a51c032520","ios":"levelo://app?vid=f4dbc556-58b0-4dfd-be99-18a51c032520"},"vehicle_type_id":"4","last_reported":1736845788,"current_range_meters":28000,"station_id":"ce4bhn12rcd13ifvqgpg","pricing_plan_id":"cebpf4jnsgd1na2vs0mg"},{"bike_id":"57bb7513-7675-4671-be03-1846f0e57be8","system_id":"levelo_inurba_marseille","lat":43.30473,"lon":5.37904,"is_reserved":false,"is_disabled":false,"rental_uris":{"android":"levelo://app?vid=57bb7513-7675-4671-be03-1846f0e57be8","ios":"levelo://app?vid=57bb7513-7675-4671-be03-1846f0e57be8"},"vehicle_type_id":"4","last_reported":1736845788,"current_range_meters":29600,"station_id":"ce4bgup2rcd13ifvqcn0","pricing_plan_id":"cebpf4jnsgd1na2vs0mg"},{"bike_id":"ccd411af-8ccc-4cc2-844f-953f5dc15dc3","system_id":"levelo_inurba_marseille","lat":43.30307,"lon":5.36891,"is_reserved":false,"is_disabled":false,"rental_uris":{"android":"levelo://app?vid=ccd411af-8ccc-4cc2-844f-953f5dc15dc3","ios":"levelo://app?vid=ccd411af-8ccc-4cc2-844f-953f5dc15dc3"},"vehicle_type_id":"4","last_reported":1736845788,"current_range_meters":29600,"station_id":"ce4bgqh2rcd13ifvqc5g","pricing_plan_id":"cebpf4jnsgd1na2vs0mg"},{"bike_id":"2c706f5e-b3a2-4f62-b5b0-817900f3e0ad","system_id":"levelo_inurba_marseille","lat":43.30553,"lon":5.36743,"is_reserved":false,"is_disabled":false,"rental_uris":{"android":"levelo://app?vid=2c706f5e-b3a2-4f62-b5b0-817900f3e0ad","ios":"levelo://app?vid=2c706f5e-b3a2-4f62-b5b0-817900f3e0ad"},"vehicle_type_id":"4","last_reported":1736845788,"current_range_meters":38800,"station_id":"ce4bgrp2rcd13ifvqc9g","pricing_plan_id":"cebpf4jnsgd1na2vs0mg"},{"bike_id":"d868d77f-7805-419a-a8ab-84b74acf4c18","system_id":"levelo_inurba_marseille","lat":43.30543,"lon":5.36544,"is_reserved":false,"is_disabled":false,"rental_uris":{"android":"levelo://app?vid=d868d77f-7805-419a-a8ab-84b74acf4c18","ios":"levelo://app?vid=d868d77f-7805-419a-a8ab-84b74acf4c18"},"vehicle_type_id":"4","last_reported":1736845788,"current_range_meters":33200,"station_id":"ce4bgs12rcd13ifvqcag","pricing_plan_id":"cebpf4jnsgd1na2vs0mg"},{"bike_id":"a9d6e941-c378-47e2-8f05-e8f71bdb383e","system_id":"levelo_inurba_marseille","lat":43.26752,"lon":5.39452,"is_reserved":false,"is_disabled":false,"rental_uris":{"android":"levelo://app?vid=a9d6e941-c378-47e2-8f05-e8f71bdb383e","ios":"levelo://app?vid=a9d6e941-c378-47e2-8f05-e8f71bdb383e"},"vehicle_type_id":"4","last_reported":1736845788,"current_range_meters":34000,"station_id":"ce4bhh12rcd13ifvqfg0","pricing_plan_id":"cebpf4jnsgd1na2vs0mg"},{"bike_id":"6a965f90-9889-4bbe-b9c1-05721bef4edf","system_id":"levelo_inurba_marseille","lat":43.29719,"lon":5.37696,"is_reserved":false,"is_disabled":false,"rental_uris":{"android":"levelo://app?vid=6a965f90-9889-4bbe-b9c1-05721bef4edf","ios":"levelo://app?vid=6a965f90-9889-4bbe-b9c1-05721bef4edf"},"vehicle_type_id":"4","last_reported":1736845788,"current_range_meters":38000,"station_id":"ce4bgkh2rcd13ifvqbl0","pricing_plan_id":"cebpf4jnsgd1na2vs0mg"},{"bike_id":"9f6f071c-7c59-4d08-9963-df26a1256e44","system_id":"levelo_inurba_marseille","lat":43.24648,"lon":5.38894,"is_reserved":false,"is_disabled":false,"rental_uris":{"android":"levelo://app?vid=9f6f071c-7c59-4d08-9963-df26a1256e44","ios":"levelo://app?vid=9f6f071c-7c59-4d08-9963-df26a1256e44"},"vehicle_type_id":"4","last_reported":1736845788,"current_range_meters":39200,"station_id":"ce4bhg12rcd13ifvqf60","pricing_plan_id":"cebpf4jnsgd1na2vs0mg"},{"bike_id":"33f17c7b-a89c-496c-9f8e-9659ad10f3a4","system_id":"levelo_inurba_marseille","lat":43.30131,"lon":5.38777,"is_reserved":false,"is_disabled":false,"rental_uris":{"android":"levelo://app?vid=33f17c7b-a89c-496c-9f8e-9659ad10f3a4","ios":"levelo://app?vid=33f17c7b-a89c-496c-9f8e-9659ad10f3a4"},"vehicle_type_id":"4","last_reported":1736845788,"current_range_meters":13600,"station_id":"ce4bhoh2rcd13ifvqh6g","pricing_plan_id":"cebpf4jnsgd1na2vs0mg"},{"bike_id":"ade1ffd7-379f-44ee-93e1-8c261178e187","system_id":"levelo_inurba_marseille","lat":43.24806,"lon":5.37457,"is_reserved":false,"is_disabled":false,"rental_uris":{"android":"levelo://app?vid=ade1ffd7-379f-44ee-93e1-8c261178e187","ios":"levelo://app?vid=ade1ffd7-379f-44ee-93e1-8c261178e187"},"vehicle_type_id":"4","last_reported":1736845788,"current_range_meters":20800,"station_id":"ce4bhgh2rcd13ifvqfb0","pricing_plan_id":"cebpf4jnsgd1na2vs0mg"},{"bike_id":"2a2b7f5d-1ba7-4717-b89c-c54ba9c57f17","system_id":"levelo_inurba_marseille","lat":43.26942,"lon":5.38646,"is_reserved":false,"is_disabled":false,"rental_uris":{"android":"levelo://app?vid=2a2b7f5d-1ba7-4717-b89c-c54ba9c57f17","ios":"levelo://app?vid=2a2b7f5d-1ba7-4717-b89c-c54ba9c57f17"},"vehicle_type_id":"4","last_reported":1736845788,"current_range_meters":17200,"station_id":"ce4bhh92rcd13ifvqfh0","pricing_plan_id":"cebpf4jnsgd1na2vs0mg"},{"bike_id":"7a869afa-fc4c-4b30-aea6-e0d8b156eb83","system_id":"levelo_inurba_marseille","lat":43.24681,"lon":5.38194,"is_reserved":false,"is_disabled":true,"rental_uris":{"android":"levelo://app?vid=7a869afa-fc4c-4b30-aea6-e0d8b156eb83","ios":"levelo://app?vid=7a869afa-fc4c-4b30-aea6-e0d8b156eb83"},"vehicle_type_id":"4","last_reported":1736845788,"current_range_meters":28400,"station_id":"","pricing_plan_id":"cebpf4jnsgd1na2vs0mg"},{"bike_id":"755e5c0a-8de7-4ee5-9d4e-5ec609711170","system_id":"levelo_inurba_marseille","lat":43.29605,"lon":5.38116,"is_reserved":false,"is_disabled":true,"rental_uris":{"android":"levelo://app?vid=755e5c0a-8de7-4ee5-9d4e-5ec609711170","ios":"levelo://app?vid=755e5c0a-8de7-4ee5-9d4e-5ec609711170"},"vehicle_type_id":"4","last_reported":1736845788,"current_range_meters":31200,"station_id":"ce4bgl12rcd13ifvqbo0","pricing_plan_id":"cebpf4jnsgd1na2vs0mg"},{"bike_id":"89096f8f-b31f-4f84-85ad-b01b669e00f2","system_id":"levelo_inurba_marseille","lat":43.29723,"lon":5.3769,"is_reserved":false,"is_disabled":false,"rental_uris":{"android":"levelo://app?vid=89096f8f-b31f-4f84-85ad-b01b669e00f2","ios":"levelo://app?vid=89096f8f-b31f-4f84-85ad-b01b669e00f2"},"vehicle_type_id":"4","last_reported":1736845788,"current_range_meters":25600,"station_id":"ce4bgkh2rcd13ifvqbl0","pricing_plan_id":"cebpf4jnsgd1na2vs0mg"},{"bike_id":"7a1457f0-7f09-4eea-b1f3-2e9174a14fd4","system_id":"levelo_inurba_marseille","lat":43.28403,"lon":5.37519,"is_reserved":false,"is_disabled":true,"rental_uris":{"android":"levelo://app?vid=7a1457f0-7f09-4eea-b1f3-2e9174a14fd4","ios":"levelo://app?vid=7a1457f0-7f09-4eea-b1f3-2e9174a14fd4"},"vehicle_type_id":"4","last_reported":1736845788,"current_range_meters":2800,"station_id":"ce4bh412rcd13ifvqds0","pricing_plan_id":"cebpf4jnsgd1na2vs0mg"},{"bike_id":"cc9cf4e4-bd05-4828-9c34-27bb5e5951f4","system_id":"levelo_inurba_marseille","lat":43.25975,"lon":5.40903,"is_reserved":false,"is_disabled":false,"rental_uris":{"android":"levelo://app?vid=cc9cf4e4-bd05-4828-9c34-27bb5e5951f4","ios":"levelo://app?vid=cc9cf4e4-bd05-4828-9c34-27bb5e5951f4"},"vehicle_type_id":"4","last_reported":1736845788,"current_range_meters":4800,"station_id":"","pricing_plan_id":"cebpf4jnsgd1na2vs0mg"},{"bike_id":"d33744cd-ebfe-4100-8a8a-ae550561ad04","system_id":"levelo_inurba_marseille","lat":43.32534,"lon":5.41463,"is_reserved":false,"is_disabled":false,"rental_uris":{"android":"levelo://app?vid=d33744cd-ebfe-4100-8a8a-ae550561ad04","ios":"levelo://app?vid=d33744cd-ebfe-4100-8a8a-ae550561ad04"},"vehicle_type_id":"4","last_reported":1736845788,"current_range_meters":9600,"station_id":"ce4bhq12rcd13ifvqhhg","pricing_plan_id":"cebpf4jnsgd1na2vs0mg"},{"bike_id":"a15980ac-c225-4e68-8982-6cc8c4cbfd79","system_id":"levelo_inurba_marseille","lat":43.23191,"lon":5.35555,"is_reserved":false,"is_disabled":false,"rental_uris":{"android":"levelo://app?vid=a15980ac-c225-4e68-8982-6cc8c4cbfd79","ios":"levelo://app?vid=a15980ac-c225-4e68-8982-6cc8c4cbfd79"},"vehicle_type_id":"4","last_reported":1736845788,"current_range_meters":6800,"station_id":"ce4bhu92rcd13ifvqi70","pricing_plan_id":"cebpf4jnsgd1na2vs0mg"},{"bike_id":"10116162-4267-4ce4-b7dc-9ee3e321d159","system_id":"levelo_inurba_marseille","lat":43.24067,"lon":5.37769,"is_reserved":false,"is_disabled":false,"rental_uris":{"android":"levelo://app?vid=10116162-4267-4ce4-b7dc-9ee3e321d159","ios":"levelo://app?vid=10116162-4267-4ce4-b7dc-9ee3e321d159"},"vehicle_type_id":"4","last_reported":1736845788,"current_range_meters":16000,"station_id":"ce4bhnp2rcd13ifvqgvg","pricing_plan_id":"cebpf4jnsgd1na2vs0mg"},{"bike_id":"4ce341d0-587a-4da8-a763-1eff0cb53c70","system_id":"levelo_inurba_marseille","lat":43.30283,"lon":5.37706,"is_reserved":false,"is_disabled":false,"rental_uris":{"android":"levelo://app?vid=4ce341d0-587a-4da8-a763-1eff0cb53c70","ios":"levelo://app?vid=4ce341d0-587a-4da8-a763-1eff0cb53c70"},"vehicle_type_id":"4","last_reported":1736845788,"current_range_meters":36800,"station_id":"ce4bguh2rcd13ifvqcj0","pricing_plan_id":"cebpf4jnsgd1na2vs0mg"},{"bike_id":"3b9d8bd4-42e6-461b-8794-9af02bd014c6","system_id":"levelo_inurba_marseille","lat":43.30944,"lon":5.39048,"is_reserved":false,"is_disabled":false,"rental_uris":{"android":"levelo://app?vid=3b9d8bd4-42e6-461b-8794-9af02bd014c6","ios":"levelo://app?vid=3b9d8bd4-42e6-461b-8794-9af02bd014c6"},"vehicle_type_id":"4","last_reported":1736845788,"current_range_meters":25600,"station_id":"ce4bgup2rcd13ifvqco0","pricing_plan_id":"cebpf4jnsgd1na2vs0mg"},{"bike_id":"985c1c01-e0fb-4b6e-8af5-6b2ea74c2b5d","system_id":"levelo_inurba_marseille","lat":43.27491,"lon":5.42451,"is_reserved":false,"is_disabled":false,"rental_uris":{"android":"levelo://app?vid=985c1c01-e0fb-4b6e-8af5-6b2ea74c2b5d","ios":"levelo://app?vid=985c1c01-e0fb-4b6e-8af5-6b2ea74c2b5d"},"vehicle_type_id":"4","last_reported":1736845788,"current_range_meters":25600,"station_id":"ce4bhn92rcd13ifvqgrg","pricing_plan_id":"cebpf4jnsgd1na2vs0mg"},{"bike_id":"3b74a056-c0cf-4f44-8772-22ed33115fcd","system_id":"levelo_inurba_marseille","lat":43.2318,"lon":5.39984,"is_reserved":false,"is_disabled":false,"rental_uris":{"android":"levelo://app?vid=3b74a056-c0cf-4f44-8772-22ed33115fcd","ios":"levelo://app?vid=3b74a056-c0cf-4f44-8772-22ed33115fcd"},"vehicle_type_id":"4","last_reported":1736845788,"current_range_meters":8800,"station_id":"ce4bhn12rcd13ifvqgqg","pricing_plan_id":"cebpf4jnsgd1na2vs0mg"},{"bike_id":"8ea63c67-c242-4094-beda-b37084591416","system_id":"levelo_inurba_marseille","lat":43.29601,"lon":5.37747,"is_reserved":false,"is_disabled":false,"rental_uris":{"android":"levelo://app?vid=8ea63c67-c242-4094-beda-b37084591416","ios":"levelo://app?vid=8ea63c67-c242-4094-beda-b37084591416"},"vehicle_type_id":"4","last_reported":1736845788,"current_range_meters":30400,"station_id":"ce4bgi92rcd13ifvqb90","pricing_plan_id":"cebpf4jnsgd1na2vs0mg"},{"bike_id":"3f404148-f2c7-44b8-a466-977741fe2f8d","system_id":"levelo_inurba_marseille","lat":43.27919,"lon":5.39576,"is_reserved":false,"is_disabled":false,"rental_uris":{"android":"levelo://app?vid=3f404148-f2c7-44b8-a466-977741fe2f8d","ios":"levelo://app?vid=3f404148-f2c7-44b8-a466-977741fe2f8d"},"vehicle_type_id":"4","last_reported":1736845788,"current_range_meters":29600,"station_id":"ce4bhf92rcd13ifvqf40","pricing_plan_id":"cebpf4jnsgd1na2vs0mg"},{"bike_id":"7a6c262a-cea0-4455-9870-5049b5036297","system_id":"levelo_inurba_marseille","lat":43.24058,"lon":5.37726,"is_reserved":false,"is_disabled":false,"rental_uris":{"android":"levelo://app?vid=7a6c262a-cea0-4455-9870-5049b5036297","ios":"levelo://app?vid=7a6c262a-cea0-4455-9870-5049b5036297"},"vehicle_type_id":"4","last_reported":1736845788,"current_range_meters":18000,"station_id":"ce4bhnp2rcd13ifvqgvg","pricing_plan_id":"cebpf4jnsgd1na2vs0mg"},{"bike_id":"988277d2-e4af-4d55-b043-26d410f9bb0c","system_id":"levelo_inurba_marseille","lat":43.25714,"lon":5.41104,"is_reserved":false,"is_disabled":false,"rental_uris":{"android":"levelo://app?vid=988277d2-e4af-4d55-b043-26d410f9bb0c","ios":"levelo://app?vid=988277d2-e4af-4d55-b043-26d410f9bb0c"},"vehicle_type_id":"4","last_reported":1736845788,"current_range_meters":27600,"station_id":"ce4bhkp2rcd13ifvqgd0","pricing_plan_id":"cebpf4jnsgd1na2vs0mg"},{"bike_id":"700e8f11-81c4-4aea-aaed-21f5c8b4dc6a","system_id":"levelo_inurba_marseille","lat":43.28337,"lon":5.3818,"is_reserved":false,"is_disabled":false,"rental_uris":{"android":"levelo://app?vid=700e8f11-81c4-4aea-aaed-21f5c8b4dc6a","ios":"levelo://app?vid=700e8f11-81c4-4aea-aaed-21f5c8b4dc6a"},"vehicle_type_id":"4","last_reported":1736845788,"current_range_meters":27200,"station_id":"ce4bhh92rcd13ifvqfj0","pricing_plan_id":"cebpf4jnsgd1na2vs0mg"},{"bike_id":"51bb6953-dea8-4e82-96bf-52696267905f","system_id":"levelo_inurba_marseille","lat":43.230603,"lon":5.354948,"is_reserved":false,"is_disabled":false,"rental_uris":{"android":"levelo://app?vid=51bb6953-dea8-4e82-96bf-52696267905f","ios":"levelo://app?vid=51bb6953-dea8-4e82-96bf-52696267905f"},"vehicle_type_id":"4","last_reported":1736845788,"current_range_meters":8800,"station_id":"cpo3342slgdg3j2ifvpg","pricing_plan_id":"cebpf4jnsgd1na2vs0mg"},{"bike_id":"ae1b2fa7-b6f8-4ffa-90ee-2a5773459d24","system_id":"levelo_inurba_marseille","lat":43.30175,"lon":5.36619,"is_reserved":false,"is_disabled":false,"rental_uris":{"android":"levelo://app?vid=ae1b2fa7-b6f8-4ffa-90ee-2a5773459d24","ios":"levelo://app?vid=ae1b2fa7-b6f8-4ffa-90ee-2a5773459d24"},"vehicle_type_id":"4","last_reported":1736845788,"current_range_meters":32800,"station_id":"ce4bgrh2rcd13ifvqc8g","pricing_plan_id":"cebpf4jnsgd1na2vs0mg"},{"bike_id":"77c11796-6577-413f-8a45-2070ed10ece9","system_id":"levelo_inurba_marseille","lat":43.29159,"lon":5.37161,"is_reserved":false,"is_disabled":false,"rental_uris":{"android":"levelo://app?vid=77c11796-6577-413f-8a45-2070ed10ece9","ios":"levelo://app?vid=77c11796-6577-413f-8a45-2070ed10ece9"},"vehicle_type_id":"4","last_reported":1736845788,"current_range_meters":38400,"station_id":"ce4bha92rcd13ifvqeh0","pricing_plan_id":"cebpf4jnsgd1na2vs0mg"},{"bike_id":"a66780a5-bc12-4740-a93c-6b52209daab3","system_id":"levelo_inurba_marseille","lat":43.31366,"lon":5.36786,"is_reserved":false,"is_disabled":false,"rental_uris":{"android":"levelo://app?vid=a66780a5-bc12-4740-a93c-6b52209daab3","ios":"levelo://app?vid=a66780a5-bc12-4740-a93c-6b52209daab3"},"vehicle_type_id":"4","last_reported":1736845788,"current_range_meters":23200,"station_id":"","pricing_plan_id":"cebpf4jnsgd1na2vs0mg"},{"bike_id":"ef770fab-7133-424d-9728-95f7dc4e7cca","system_id":"levelo_inurba_marseille","lat":43.27973,"lon":5.38731,"is_reserved":false,"is_disabled":false,"rental_uris":{"android":"levelo://app?vid=ef770fab-7133-424d-9728-95f7dc4e7cca","ios":"levelo://app?vid=ef770fab-7133-424d-9728-95f7dc4e7cca"},"vehicle_type_id":"4","last_reported":1736845788,"current_range_meters":19200,"station_id":"ce4bhg12rcd13ifvqf80","pricing_plan_id":"cebpf4jnsgd1na2vs0mg"},{"bike_id":"a4e288a5-ac6a-42fd-81ad-5d913c49f177","system_id":"levelo_inurba_marseille","lat":43.27608,"lon":5.36119,"is_reserved":false,"is_disabled":false,"rental_uris":{"android":"levelo://app?vid=a4e288a5-ac6a-42fd-81ad-5d913c49f177","ios":"levelo://app?vid=a4e288a5-ac6a-42fd-81ad-5d913c49f177"},"vehicle_type_id":"4","last_reported":1736845788,"current_range_meters":38800,"station_id":"ce4bgj92rcd13ifvqbe0","pricing_plan_id":"cebpf4jnsgd1na2vs0mg"},{"bike_id":"c84c60ce-c7f6-42eb-bb3c-f11a697bd396","system_id":"levelo_inurba_marseille","lat":43.29987,"lon":5.38506,"is_reserved":false,"is_disabled":true,"rental_uris":{"android":"levelo://app?vid=c84c60ce-c7f6-42eb-bb3c-f11a697bd396","ios":"levelo://app?vid=c84c60ce-c7f6-42eb-bb3c-f11a697bd396"},"vehicle_type_id":"4","last_reported":1736845788,"current_range_meters":38800,"station_id":"ce4bgj92rcd13ifvqbd0","pricing_plan_id":"cebpf4jnsgd1na2vs0mg"},{"bike_id":"f4181291-26ce-4ba8-8c6c-edabefdc9f05","system_id":"levelo_inurba_marseille","lat":43.25499,"lon":5.3765,"is_reserved":false,"is_disabled":false,"rental_uris":{"android":"levelo://app?vid=f4181291-26ce-4ba8-8c6c-edabefdc9f05","ios":"levelo://app?vid=f4181291-26ce-4ba8-8c6c-edabefdc9f05"},"vehicle_type_id":"4","last_reported":1736845788,"current_range_meters":35200,"station_id":"ce4bhh12rcd13ifvqff0","pricing_plan_id":"cebpf4jnsgd1na2vs0mg"},{"bike_id":"0692f5cb-322a-4ce9-bdd8-a8004dac8c3a","system_id":"levelo_inurba_marseille","lat":43.30148,"lon":5.37391,"is_reserved":false,"is_disabled":false,"rental_uris":{"android":"levelo://app?vid=0692f5cb-322a-4ce9-bdd8-a8004dac8c3a","ios":"levelo://app?vid=0692f5cb-322a-4ce9-bdd8-a8004dac8c3a"},"vehicle_type_id":"4","last_reported":1736845788,"current_range_meters":28400,"station_id":"ce4bgs92rcd13ifvqcc0","pricing_plan_id":"cebpf4jnsgd1na2vs0mg"},{"bike_id":"439ff129-311b-465a-b879-c24b38a96d92","system_id":"levelo_inurba_marseille","lat":43.2767,"lon":5.38871,"is_reserved":false,"is_disabled":false,"rental_uris":{"android":"levelo://app?vid=439ff129-311b-465a-b879-c24b38a96d92","ios":"levelo://app?vid=439ff129-311b-465a-b879-c24b38a96d92"},"vehicle_type_id":"4","last_reported":1736845788,"current_range_meters":27200,"station_id":"ce4bhi12rcd13ifvqfo0","pricing_plan_id":"cebpf4jnsgd1na2vs0mg"},{"bike_id":"5990c77e-0c3e-49e6-8740-517768f80344","system_id":"levelo_inurba_marseille","lat":43.24177,"lon":5.39735,"is_reserved":false,"is_disabled":false,"rental_uris":{"android":"levelo://app?vid=5990c77e-0c3e-49e6-8740-517768f80344","ios":"levelo://app?vid=5990c77e-0c3e-49e6-8740-517768f80344"},"vehicle_type_id":"4","last_reported":1736845788,"current_range_meters":32800,"station_id":"ce4bhn12rcd13ifvqgpg","pricing_plan_id":"cebpf4jnsgd1na2vs0mg"},{"bike_id":"56a37990-c381-414a-8c27-59f20eae88ce","system_id":"levelo_inurba_marseille","lat":43.25014,"lon":5.38934,"is_reserved":false,"is_disabled":false,"rental_uris":{"android":"levelo://app?vid=56a37990-c381-414a-8c27-59f20eae88ce","ios":"levelo://app?vid=56a37990-c381-414a-8c27-59f20eae88ce"},"vehicle_type_id":"4","last_reported":1736845788,"current_range_meters":6800,"station_id":"ce4bhgp2rcd13ifvqfd0","pricing_plan_id":"cebpf4jnsgd1na2vs0mg"},{"bike_id":"b0159d0c-74f0-403f-833d-d964c3d598e3","system_id":"levelo_inurba_marseille","lat":43.261887,"lon":5.374567,"is_reserved":false,"is_disabled":false,"rental_uris":{"android":"levelo://app?vid=b0159d0c-74f0-403f-833d-d964c3d598e3","ios":"levelo://app?vid=b0159d0c-74f0-403f-833d-d964c3d598e3"},"vehicle_type_id":"4","last_reported":1736845788,"current_range_meters":29600,"station_id":"ce4bhgp2rcd13ifvqfc0","pricing_plan_id":"cebpf4jnsgd1na2vs0mg"},{"bike_id":"a56bdef2-14b8-4e02-b3bc-538917283971","system_id":"levelo_inurba_marseille","lat":43.25086,"lon":5.39508,"is_reserved":false,"is_disabled":false,"rental_uris":{"android":"levelo://app?vid=a56bdef2-14b8-4e02-b3bc-538917283971","ios":"levelo://app?vid=a56bdef2-14b8-4e02-b3bc-538917283971"},"vehicle_type_id":"4","last_reported":1736845788,"current_range_meters":32400,"station_id":"ce4bhm12rcd13ifvqgkg","pricing_plan_id":"cebpf4jnsgd1na2vs0mg"},{"bike_id":"acf852fd-1291-46ab-92eb-253f85c91d29","system_id":"levelo_inurba_marseille","lat":43.26961,"lon":5.38589,"is_reserved":false,"is_disabled":false,"rental_uris":{"android":"levelo://app?vid=acf852fd-1291-46ab-92eb-253f85c91d29","ios":"levelo://app?vid=acf852fd-1291-46ab-92eb-253f85c91d29"},"vehicle_type_id":"4","last_reported":1736845788,"current_range_meters":16400,"station_id":"ce4bhh92rcd13ifvqfh0","pricing_plan_id":"cebpf4jnsgd1na2vs0mg"},{"bike_id":"037031b6-39dd-486b-99bb-ebe05f9a77df","system_id":"levelo_inurba_marseille","lat":43.26945,"lon":5.3864,"is_reserved":false,"is_disabled":false,"rental_uris":{"android":"levelo://app?vid=037031b6-39dd-486b-99bb-ebe05f9a77df","ios":"levelo://app?vid=037031b6-39dd-486b-99bb-ebe05f9a77df"},"vehicle_type_id":"4","last_reported":1736845788,"current_range_meters":37600,"station_id":"ce4bhh92rcd13ifvqfh0","pricing_plan_id":"cebpf4jnsgd1na2vs0mg"},{"bike_id":"1c2c488b-823d-44a5-87c2-942226811767","system_id":"levelo_inurba_marseille","lat":43.29022,"lon":5.37563,"is_reserved":false,"is_disabled":false,"rental_uris":{"android":"levelo://app?vid=1c2c488b-823d-44a5-87c2-942226811767","ios":"levelo://app?vid=1c2c488b-823d-44a5-87c2-942226811767"},"vehicle_type_id":"4","last_reported":1736845788,"current_range_meters":38800,"station_id":"ce4bh692rcd13ifvqe90","pricing_plan_id":"cebpf4jnsgd1na2vs0mg"},{"bike_id":"7d76215c-a5e1-4928-b311-9d1ddc10849c","system_id":"levelo_inurba_marseille","lat":43.29314,"lon":5.3717,"is_reserved":false,"is_disabled":false,"rental_uris":{"android":"levelo://app?vid=7d76215c-a5e1-4928-b311-9d1ddc10849c","ios":"levelo://app?vid=7d76215c-a5e1-4928-b311-9d1ddc10849c"},"vehicle_type_id":"4","last_reported":1736845788,"current_range_meters":35600,"station_id":"ce4bgh92rcd13ifvqb40","pricing_plan_id":"cebpf4jnsgd1na2vs0mg"},{"bike_id":"2c30434b-25b0-4fdc-9862-5952944169c1","system_id":"levelo_inurba_marseille","lat":43.31327,"lon":5.39691,"is_reserved":false,"is_disabled":false,"rental_uris":{"android":"levelo://app?vid=2c30434b-25b0-4fdc-9862-5952944169c1","ios":"levelo://app?vid=2c30434b-25b0-4fdc-9862-5952944169c1"},"vehicle_type_id":"4","last_reported":1736845788,"current_range_meters":20000,"station_id":"ce4bgvp2rcd13ifvqcu0","pricing_plan_id":"cebpf4jnsgd1na2vs0mg"},{"bike_id":"b51b8509-c21e-40ac-802b-edd56e55cdd0","system_id":"levelo_inurba_marseille","lat":43.303579,"lon":5.418857,"is_reserved":false,"is_disabled":true,"rental_uris":{"android":"levelo://app?vid=b51b8509-c21e-40ac-802b-edd56e55cdd0","ios":"levelo://app?vid=b51b8509-c21e-40ac-802b-edd56e55cdd0"},"vehicle_type_id":"4","last_reported":1736845788,"current_range_meters":21600,"station_id":"ce4bhop2rcd13ifvqh7g","pricing_plan_id":"cebpf4jnsgd1na2vs0mg"},{"bike_id":"512c7bd5-5643-4f7d-a8c3-5cceff4f5ebd","system_id":"levelo_inurba_marseille","lat":43.273724,"lon":5.362535,"is_reserved":false,"is_disabled":false,"rental_uris":{"android":"levelo://app?vid=512c7bd5-5643-4f7d-a8c3-5cceff4f5ebd","ios":"levelo://app?vid=512c7bd5-5643-4f7d-a8c3-5cceff4f5ebd"},"vehicle_type_id":"4","last_reported":1736845788,"current_range_meters":9600,"station_id":"ce4bhbh2rcd13ifvqeo0","pricing_plan_id":"cebpf4jnsgd1na2vs0mg"},{"bike_id":"78fc2529-851e-44ea-9e17-e5a76c9197b1","system_id":"levelo_inurba_marseille","lat":43.297201,"lon":5.376881,"is_reserved":false,"is_disabled":true,"rental_uris":{"android":"levelo://app?vid=78fc2529-851e-44ea-9e17-e5a76c9197b1","ios":"levelo://app?vid=78fc2529-851e-44ea-9e17-e5a76c9197b1"},"vehicle_type_id":"4","last_reported":1736845788,"current_range_meters":35200,"station_id":"ce4bgkh2rcd13ifvqbl0","pricing_plan_id":"cebpf4jnsgd1na2vs0mg"},{"bike_id":"018313d9-eaeb-4426-bc4b-d6b85b690c64","system_id":"levelo_inurba_marseille","lat":43.32539,"lon":5.41437,"is_reserved":false,"is_disabled":false,"rental_uris":{"android":"levelo://app?vid=018313d9-eaeb-4426-bc4b-d6b85b690c64","ios":"levelo://app?vid=018313d9-eaeb-4426-bc4b-d6b85b690c64"},"vehicle_type_id":"4","last_reported":1736845788,"current_range_meters":7200,"station_id":"ce4bhq12rcd13ifvqhhg","pricing_plan_id":"cebpf4jnsgd1na2vs0mg"},{"bike_id":"526dd1cc-89ce-48bf-bf8c-c113d03a552f","system_id":"levelo_inurba_marseille","lat":43.29573,"lon":5.375118,"is_reserved":false,"is_disabled":false,"rental_uris":{"android":"levelo://app?vid=526dd1cc-89ce-48bf-bf8c-c113d03a552f","ios":"levelo://app?vid=526dd1cc-89ce-48bf-bf8c-c113d03a552f"},"vehicle_type_id":"4","last_reported":1736845788,"current_range_meters":38800,"station_id":"ce4bgh92rcd13ifvqb50","pricing_plan_id":"cebpf4jnsgd1na2vs0mg"},{"bike_id":"23e3dc7e-8426-4547-ad72-0a247a82c950","system_id":"levelo_inurba_marseille","lat":43.2984,"lon":5.36277,"is_reserved":false,"is_disabled":false,"rental_uris":{"android":"levelo://app?vid=23e3dc7e-8426-4547-ad72-0a247a82c950","ios":"levelo://app?vid=23e3dc7e-8426-4547-ad72-0a247a82c950"},"vehicle_type_id":"4","last_reported":1736845788,"current_range_meters":38800,"station_id":"ce4bgpp2rcd13ifvqc3g","pricing_plan_id":"cebpf4jnsgd1na2vs0mg"},{"bike_id":"297fe3a9-b61b-49d2-b16c-9f94aaaf7d40","system_id":"levelo_inurba_marseille","lat":43.26677,"lon":5.38275,"is_reserved":false,"is_disabled":false,"rental_uris":{"android":"levelo://app?vid=297fe3a9-b61b-49d2-b16c-9f94aaaf7d40","ios":"levelo://app?vid=297fe3a9-b61b-49d2-b16c-9f94aaaf7d40"},"vehicle_type_id":"4","last_reported":1736845788,"current_range_meters":38800,"station_id":"ce4bhg92rcd13ifvqf90","pricing_plan_id":"cebpf4jnsgd1na2vs0mg"},{"bike_id":"68b1e43b-9c71-4641-91bf-78c3b9641aaa","system_id":"levelo_inurba_marseille","lat":43.27436,"lon":5.39404,"is_reserved":false,"is_disabled":false,"rental_uris":{"android":"levelo://app?vid=68b1e43b-9c71-4641-91bf-78c3b9641aaa","ios":"levelo://app?vid=68b1e43b-9c71-4641-91bf-78c3b9641aaa"},"vehicle_type_id":"4","last_reported":1736845788,"current_range_meters":35600,"station_id":"ce4bhdp2rcd13ifvqf20","pricing_plan_id":"cebpf4jnsgd1na2vs0mg"},{"bike_id":"0afc7826-9d37-482d-9261-bcf7fddfeae9","system_id":"levelo_inurba_marseille","lat":43.2696,"lon":5.38642,"is_reserved":false,"is_disabled":false,"rental_uris":{"android":"levelo://app?vid=0afc7826-9d37-482d-9261-bcf7fddfeae9","ios":"levelo://app?vid=0afc7826-9d37-482d-9261-bcf7fddfeae9"},"vehicle_type_id":"4","last_reported":1736845788,"current_range_meters":38800,"station_id":"ce4bhh92rcd13ifvqfh0","pricing_plan_id":"cebpf4jnsgd1na2vs0mg"},{"bike_id":"bab91d98-571b-4af7-8b79-c1830922d13d","system_id":"levelo_inurba_marseille","lat":43.28756,"lon":5.38224,"is_reserved":false,"is_disabled":true,"rental_uris":{"android":"levelo://app?vid=bab91d98-571b-4af7-8b79-c1830922d13d","ios":"levelo://app?vid=bab91d98-571b-4af7-8b79-c1830922d13d"},"vehicle_type_id":"4","last_reported":1736845788,"current_range_meters":400,"station_id":"","pricing_plan_id":"cebpf4jnsgd1na2vs0mg"},{"bike_id":"24017be9-d1a6-4333-9509-641e776c3c03","system_id":"levelo_inurba_marseille","lat":43.24684,"lon":5.38871,"is_reserved":false,"is_disabled":false,"rental_uris":{"android":"levelo://app?vid=24017be9-d1a6-4333-9509-641e776c3c03","ios":"levelo://app?vid=24017be9-d1a6-4333-9509-641e776c3c03"},"vehicle_type_id":"4","last_reported":1736845788,"current_range_meters":38800,"station_id":"ce4bhg12rcd13ifvqf60","pricing_plan_id":"cebpf4jnsgd1na2vs0mg"},{"bike_id":"fee790cf-be92-453e-8567-99a139b0ba33","system_id":"levelo_inurba_marseille","lat":43.27211,"lon":5.39171,"is_reserved":false,"is_disabled":false,"rental_uris":{"android":"levelo://app?vid=fee790cf-be92-453e-8567-99a139b0ba33","ios":"levelo://app?vid=fee790cf-be92-453e-8567-99a139b0ba33"},"vehicle_type_id":"4","last_reported":1736845788,"current_range_meters":6400,"station_id":"ce4bhhp2rcd13ifvqfm0","pricing_plan_id":"cebpf4jnsgd1na2vs0mg"},{"bike_id":"45324790-abcf-4a91-8b9e-6b7c17eae013","system_id":"levelo_inurba_marseille","lat":43.273743,"lon":5.362575,"is_reserved":false,"is_disabled":false,"rental_uris":{"android":"levelo://app?vid=45324790-abcf-4a91-8b9e-6b7c17eae013","ios":"levelo://app?vid=45324790-abcf-4a91-8b9e-6b7c17eae013"},"vehicle_type_id":"4","last_reported":1736845788,"current_range_meters":6400,"station_id":"ce4bhbh2rcd13ifvqeo0","pricing_plan_id":"cebpf4jnsgd1na2vs0mg"},{"bike_id":"72602ff9-e633-4ab9-926e-a56b25830ac5","system_id":"levelo_inurba_marseille","lat":43.27355,"lon":5.39134,"is_reserved":false,"is_disabled":false,"rental_uris":{"android":"levelo://app?vid=72602ff9-e633-4ab9-926e-a56b25830ac5","ios":"levelo://app?vid=72602ff9-e633-4ab9-926e-a56b25830ac5"},"vehicle_type_id":"4","last_reported":1736845788,"current_range_meters":6800,"station_id":"ce4bhgp2rcd13ifvqfe0","pricing_plan_id":"cebpf4jnsgd1na2vs0mg"},{"bike_id":"9abd3c86-26d6-4936-b14d-46ac2d8e06c2","system_id":"levelo_inurba_marseille","lat":43.24382,"lon":5.37073,"is_reserved":false,"is_disabled":false,"rental_uris":{"android":"levelo://app?vid=9abd3c86-26d6-4936-b14d-46ac2d8e06c2","ios":"levelo://app?vid=9abd3c86-26d6-4936-b14d-46ac2d8e06c2"},"vehicle_type_id":"4","last_reported":1736845788,"current_range_meters":8800,"station_id":"ce4bhhh2rcd13ifvqfk0","pricing_plan_id":"cebpf4jnsgd1na2vs0mg"},{"bike_id":"47f63191-6673-4167-8a58-1a164b7d4b7e","system_id":"levelo_inurba_marseille","lat":43.24058,"lon":5.37789,"is_reserved":false,"is_disabled":false,"rental_uris":{"android":"levelo://app?vid=47f63191-6673-4167-8a58-1a164b7d4b7e","ios":"levelo://app?vid=47f63191-6673-4167-8a58-1a164b7d4b7e"},"vehicle_type_id":"4","last_reported":1736845788,"current_range_meters":35200,"station_id":"ce4bhnp2rcd13ifvqgvg","pricing_plan_id":"cebpf4jnsgd1na2vs0mg"},{"bike_id":"70918db5-00cc-4843-a9f7-9d932aead9b0","system_id":"levelo_inurba_marseille","lat":43.29899,"lon":5.37478,"is_reserved":false,"is_disabled":false,"rental_uris":{"android":"levelo://app?vid=70918db5-00cc-4843-a9f7-9d932aead9b0","ios":"levelo://app?vid=70918db5-00cc-4843-a9f7-9d932aead9b0"},"vehicle_type_id":"4","last_reported":1736845788,"current_range_meters":36400,"station_id":"ce4bgjh2rcd13ifvqbg0","pricing_plan_id":"cebpf4jnsgd1na2vs0mg"},{"bike_id":"a86fe1f4-7545-4b33-8097-0e91725c0bb3","system_id":"levelo_inurba_marseille","lat":43.31636,"lon":5.37429,"is_reserved":false,"is_disabled":true,"rental_uris":{"android":"levelo://app?vid=a86fe1f4-7545-4b33-8097-0e91725c0bb3","ios":"levelo://app?vid=a86fe1f4-7545-4b33-8097-0e91725c0bb3"},"vehicle_type_id":"4","last_reported":1736845788,"current_range_meters":400,"station_id":"","pricing_plan_id":"cebpf4jnsgd1na2vs0mg"},{"bike_id":"7881a787-4005-4858-86c9-ea2e8d8a4e09","system_id":"levelo_inurba_marseille","lat":43.29294,"lon":5.37462,"is_reserved":false,"is_disabled":true,"rental_uris":{"android":"levelo://app?vid=7881a787-4005-4858-86c9-ea2e8d8a4e09","ios":"levelo://app?vid=7881a787-4005-4858-86c9-ea2e8d8a4e09"},"vehicle_type_id":"4","last_reported":1736845788,"current_range_meters":2000,"station_id":"ce4bgi12rcd13ifvqb70","pricing_plan_id":"cebpf4jnsgd1na2vs0mg"},{"bike_id":"321a1127-d864-44e1-88ee-18a86707c918","system_id":"levelo_inurba_marseille","lat":43.24558,"lon":5.39526,"is_reserved":false,"is_disabled":false,"rental_uris":{"android":"levelo://app?vid=321a1127-d864-44e1-88ee-18a86707c918","ios":"levelo://app?vid=321a1127-d864-44e1-88ee-18a86707c918"},"vehicle_type_id":"4","last_reported":1736845788,"current_range_meters":23200,"station_id":"ce4bhlp2rcd13ifvqgjg","pricing_plan_id":"cebpf4jnsgd1na2vs0mg"},{"bike_id":"2335f6e3-1c37-44c5-9df8-b868e3f27b4a","system_id":"levelo_inurba_marseille","lat":43.29582,"lon":5.37506,"is_reserved":false,"is_disabled":false,"rental_uris":{"android":"levelo://app?vid=2335f6e3-1c37-44c5-9df8-b868e3f27b4a","ios":"levelo://app?vid=2335f6e3-1c37-44c5-9df8-b868e3f27b4a"},"vehicle_type_id":"4","last_reported":1736845788,"current_range_meters":36000,"station_id":"ce4bgh92rcd13ifvqb50","pricing_plan_id":"cebpf4jnsgd1na2vs0mg"},{"bike_id":"cabf8291-28b5-410d-9d76-1bb844eb26f7","system_id":"levelo_inurba_marseille","lat":43.26687,"lon":5.38264,"is_reserved":false,"is_disabled":false,"rental_uris":{"android":"levelo://app?vid=cabf8291-28b5-410d-9d76-1bb844eb26f7","ios":"levelo://app?vid=cabf8291-28b5-410d-9d76-1bb844eb26f7"},"vehicle_type_id":"4","last_reported":1736845788,"current_range_meters":36400,"station_id":"ce4bhg92rcd13ifvqf90","pricing_plan_id":"cebpf4jnsgd1na2vs0mg"},{"bike_id":"3d45e7b7-9d0d-4803-9104-776c4561fcd7","system_id":"levelo_inurba_marseille","lat":43.2968,"lon":5.36598,"is_reserved":false,"is_disabled":false,"rental_uris":{"android":"levelo://app?vid=3d45e7b7-9d0d-4803-9104-776c4561fcd7","ios":"levelo://app?vid=3d45e7b7-9d0d-4803-9104-776c4561fcd7"},"vehicle_type_id":"4","last_reported":1736845788,"current_range_meters":28000,"station_id":"ce4bgn12rcd13ifvqbt0","pricing_plan_id":"cebpf4jnsgd1na2vs0mg"},{"bike_id":"8ca57a1a-ed8d-4ff6-9696-9e64713deb6f","system_id":"levelo_inurba_marseille","lat":43.30141,"lon":5.37416,"is_reserved":false,"is_disabled":false,"rental_uris":{"android":"levelo://app?vid=8ca57a1a-ed8d-4ff6-9696-9e64713deb6f","ios":"levelo://app?vid=8ca57a1a-ed8d-4ff6-9696-9e64713deb6f"},"vehicle_type_id":"4","last_reported":1736845788,"current_range_meters":36000,"station_id":"ce4bgs92rcd13ifvqcc0","pricing_plan_id":"cebpf4jnsgd1na2vs0mg"},{"bike_id":"4c060480-df3e-44fa-ad8f-4d47cbe40b3d","system_id":"levelo_inurba_marseille","lat":43.28,"lon":5.40023,"is_reserved":false,"is_disabled":false,"rental_uris":{"android":"levelo://app?vid=4c060480-df3e-44fa-ad8f-4d47cbe40b3d","ios":"levelo://app?vid=4c060480-df3e-44fa-ad8f-4d47cbe40b3d"},"vehicle_type_id":"4","last_reported":1736845788,"current_range_meters":3600,"station_id":"ce4bho92rcd13ifvqh4g","pricing_plan_id":"cebpf4jnsgd1na2vs0mg"},{"bike_id":"4f33525b-ad77-45f3-a5ca-48f52317317a","system_id":"levelo_inurba_marseille","lat":43.292,"lon":5.36062,"is_reserved":false,"is_disabled":true,"rental_uris":{"android":"levelo://app?vid=4f33525b-ad77-45f3-a5ca-48f52317317a","ios":"levelo://app?vid=4f33525b-ad77-45f3-a5ca-48f52317317a"},"vehicle_type_id":"4","last_reported":1736845788,"current_range_meters":0,"station_id":"ce4bhbh2rcd13ifvqeqg","pricing_plan_id":"cebpf4jnsgd1na2vs0mg"},{"bike_id":"19ad7267-9354-4aab-a6e8-b1048101da2c","system_id":"levelo_inurba_marseille","lat":43.26931,"lon":5.3893,"is_reserved":false,"is_disabled":false,"rental_uris":{"android":"levelo://app?vid=19ad7267-9354-4aab-a6e8-b1048101da2c","ios":"levelo://app?vid=19ad7267-9354-4aab-a6e8-b1048101da2c"},"vehicle_type_id":"4","last_reported":1736845788,"current_range_meters":38000,"station_id":"ce4bhhh2rcd13ifvqfl0","pricing_plan_id":"cebpf4jnsgd1na2vs0mg"},{"bike_id":"1299e77e-6da9-45c1-9a42-231380813012","system_id":"levelo_inurba_marseille","lat":43.283433,"lon":5.381144,"is_reserved":false,"is_disabled":true,"rental_uris":{"android":"levelo://app?vid=1299e77e-6da9-45c1-9a42-231380813012","ios":"levelo://app?vid=1299e77e-6da9-45c1-9a42-231380813012"},"vehicle_type_id":"4","last_reported":1736845788,"current_range_meters":24400,"station_id":"","pricing_plan_id":"cebpf4jnsgd1na2vs0mg"},{"bike_id":"77c125dd-0570-435e-ae36-92a459b4cd7d","system_id":"levelo_inurba_marseille","lat":43.25827,"lon":5.39449,"is_reserved":false,"is_disabled":false,"rental_uris":{"android":"levelo://app?vid=77c125dd-0570-435e-ae36-92a459b4cd7d","ios":"levelo://app?vid=77c125dd-0570-435e-ae36-92a459b4cd7d"},"vehicle_type_id":"4","last_reported":1736845788,"current_range_meters":6800,"station_id":"ce4bhip2rcd13ifvqft0","pricing_plan_id":"cebpf4jnsgd1na2vs0mg"},{"bike_id":"624fd665-76a1-4073-91c0-a4db8dfd6228","system_id":"levelo_inurba_marseille","lat":43.31228,"lon":5.36893,"is_reserved":false,"is_disabled":false,"rental_uris":{"android":"levelo://app?vid=624fd665-76a1-4073-91c0-a4db8dfd6228","ios":"levelo://app?vid=624fd665-76a1-4073-91c0-a4db8dfd6228"},"vehicle_type_id":"4","last_reported":1736845788,"current_range_meters":30000,"station_id":"ce4bgl92rcd13ifvqbq0","pricing_plan_id":"cebpf4jnsgd1na2vs0mg"},{"bike_id":"7b4d1b47-5678-441b-99e6-d51f2a1e45e8","system_id":"levelo_inurba_marseille","lat":43.24179,"lon":5.397255,"is_reserved":false,"is_disabled":false,"rental_uris":{"android":"levelo://app?vid=7b4d1b47-5678-441b-99e6-d51f2a1e45e8","ios":"levelo://app?vid=7b4d1b47-5678-441b-99e6-d51f2a1e45e8"},"vehicle_type_id":"4","last_reported":1736845788,"current_range_meters":39200,"station_id":"ce4bhn12rcd13ifvqgpg","pricing_plan_id":"cebpf4jnsgd1na2vs0mg"},{"bike_id":"acb789d3-c42d-465c-982b-20d6256e9026","system_id":"levelo_inurba_marseille","lat":43.24391,"lon":5.37068,"is_reserved":false,"is_disabled":false,"rental_uris":{"android":"levelo://app?vid=acb789d3-c42d-465c-982b-20d6256e9026","ios":"levelo://app?vid=acb789d3-c42d-465c-982b-20d6256e9026"},"vehicle_type_id":"4","last_reported":1736845788,"current_range_meters":36400,"station_id":"ce4bhhh2rcd13ifvqfk0","pricing_plan_id":"cebpf4jnsgd1na2vs0mg"},{"bike_id":"f22ab736-3fb3-4984-b33f-55ee9cdaa54a","system_id":"levelo_inurba_marseille","lat":43.29362,"lon":5.3785,"is_reserved":false,"is_disabled":false,"rental_uris":{"android":"levelo://app?vid=f22ab736-3fb3-4984-b33f-55ee9cdaa54a","ios":"levelo://app?vid=f22ab736-3fb3-4984-b33f-55ee9cdaa54a"},"vehicle_type_id":"4","last_reported":1736845788,"current_range_meters":16000,"station_id":"ce4bgjh2rcd13ifvqbf0","pricing_plan_id":"cebpf4jnsgd1na2vs0mg"},{"bike_id":"2fddc15e-04aa-4382-b037-006c18d06765","system_id":"levelo_inurba_marseille","lat":43.279685,"lon":5.387338,"is_reserved":false,"is_disabled":false,"rental_uris":{"android":"levelo://app?vid=2fddc15e-04aa-4382-b037-006c18d06765","ios":"levelo://app?vid=2fddc15e-04aa-4382-b037-006c18d06765"},"vehicle_type_id":"4","last_reported":1736845788,"current_range_meters":24000,"station_id":"ce4bhg12rcd13ifvqf80","pricing_plan_id":"cebpf4jnsgd1na2vs0mg"},{"bike_id":"c2d5fd29-d5c7-4c17-84cd-2259421931b6","system_id":"levelo_inurba_marseille","lat":43.27487,"lon":5.42468,"is_reserved":false,"is_disabled":true,"rental_uris":{"android":"levelo://app?vid=c2d5fd29-d5c7-4c17-84cd-2259421931b6","ios":"levelo://app?vid=c2d5fd29-d5c7-4c17-84cd-2259421931b6"},"vehicle_type_id":"4","last_reported":1736845788,"current_range_meters":800,"station_id":"ce4bhn92rcd13ifvqgrg","pricing_plan_id":"cebpf4jnsgd1na2vs0mg"},{"bike_id":"295bd26f-64bb-4f9a-b1ce-9227768f18ec","system_id":"levelo_inurba_marseille","lat":43.29153,"lon":5.3715,"is_reserved":false,"is_disabled":true,"rental_uris":{"android":"levelo://app?vid=295bd26f-64bb-4f9a-b1ce-9227768f18ec","ios":"levelo://app?vid=295bd26f-64bb-4f9a-b1ce-9227768f18ec"},"vehicle_type_id":"4","last_reported":1736845788,"current_range_meters":26000,"station_id":"ce4bha92rcd13ifvqeh0","pricing_plan_id":"cebpf4jnsgd1na2vs0mg"},{"bike_id":"99589ca0-b9e5-4b34-8292-94abd90f7d83","system_id":"levelo_inurba_marseille","lat":43.29727,"lon":5.37733,"is_reserved":false,"is_disabled":false,"rental_uris":{"android":"levelo://app?vid=99589ca0-b9e5-4b34-8292-94abd90f7d83","ios":"levelo://app?vid=99589ca0-b9e5-4b34-8292-94abd90f7d83"},"vehicle_type_id":"4","last_reported":1736845788,"current_range_meters":20400,"station_id":"ce4bgkh2rcd13ifvqbl0","pricing_plan_id":"cebpf4jnsgd1na2vs0mg"},{"bike_id":"6864a2b6-2bea-4209-b879-9d46523b6956","system_id":"levelo_inurba_marseille","lat":43.27996,"lon":5.41661,"is_reserved":false,"is_disabled":false,"rental_uris":{"android":"levelo://app?vid=6864a2b6-2bea-4209-b879-9d46523b6956","ios":"levelo://app?vid=6864a2b6-2bea-4209-b879-9d46523b6956"},"vehicle_type_id":"4","last_reported":1736845788,"current_range_meters":38000,"station_id":"ce4bho12rcd13ifvqh1g","pricing_plan_id":"cebpf4jnsgd1na2vs0mg"},{"bike_id":"e6420d84-c994-49b5-ac1c-76abc8fcf8df","system_id":"levelo_inurba_marseille","lat":43.26036,"lon":5.3755,"is_reserved":false,"is_disabled":false,"rental_uris":{"android":"levelo://app?vid=e6420d84-c994-49b5-ac1c-76abc8fcf8df","ios":"levelo://app?vid=e6420d84-c994-49b5-ac1c-76abc8fcf8df"},"vehicle_type_id":"4","last_reported":1736845788,"current_range_meters":37600,"station_id":"ce4bhgh2rcd13ifvqfa0","pricing_plan_id":"cebpf4jnsgd1na2vs0mg"},{"bike_id":"ce4f9219-d241-4008-9aec-b8a5f369f454","system_id":"levelo_inurba_marseille","lat":43.32456,"lon":5.36596,"is_reserved":false,"is_disabled":false,"rental_uris":{"android":"levelo://app?vid=ce4f9219-d241-4008-9aec-b8a5f369f454","ios":"levelo://app?vid=ce4f9219-d241-4008-9aec-b8a5f369f454"},"vehicle_type_id":"4","last_reported":1736845788,"current_range_meters":31200,"station_id":"ce4bhs12rcd13ifvqhvg","pricing_plan_id":"cebpf4jnsgd1na2vs0mg"},{"bike_id":"60c48e84-151f-4edd-83cd-789ff87c7f63","system_id":"levelo_inurba_marseille","lat":43.2869,"lon":5.37386,"is_reserved":false,"is_disabled":true,"rental_uris":{"android":"levelo://app?vid=60c48e84-151f-4edd-83cd-789ff87c7f63","ios":"levelo://app?vid=60c48e84-151f-4edd-83cd-789ff87c7f63"},"vehicle_type_id":"4","last_reported":1736845788,"current_range_meters":34000,"station_id":"ce4bh3p2rcd13ifvqdq0","pricing_plan_id":"cebpf4jnsgd1na2vs0mg"},{"bike_id":"03349009-e6e3-4cde-b992-a2acca682bbe","system_id":"levelo_inurba_marseille","lat":43.281,"lon":5.3965,"is_reserved":false,"is_disabled":true,"rental_uris":{"android":"levelo://app?vid=03349009-e6e3-4cde-b992-a2acca682bbe","ios":"levelo://app?vid=03349009-e6e3-4cde-b992-a2acca682bbe"},"vehicle_type_id":"4","last_reported":1736845788,"current_range_meters":0,"station_id":"ce4bho12rcd13ifvqh2g","pricing_plan_id":"cebpf4jnsgd1na2vs0mg"},{"bike_id":"65e4bbbc-3a81-48a5-8ddf-1dbbd6fe93d5","system_id":"levelo_inurba_marseille","lat":43.29564,"lon":5.37505,"is_reserved":false,"is_disabled":true,"rental_uris":{"android":"levelo://app?vid=65e4bbbc-3a81-48a5-8ddf-1dbbd6fe93d5","ios":"levelo://app?vid=65e4bbbc-3a81-48a5-8ddf-1dbbd6fe93d5"},"vehicle_type_id":"4","last_reported":1736845788,"current_range_meters":38800,"station_id":"ce4bgh92rcd13ifvqb50","pricing_plan_id":"cebpf4jnsgd1na2vs0mg"},{"bike_id":"d1dc4ad9-186b-444e-9d19-7e7fc8f9a273","system_id":"levelo_inurba_marseille","lat":43.25581,"lon":5.38249,"is_reserved":false,"is_disabled":false,"rental_uris":{"android":"levelo://app?vid=d1dc4ad9-186b-444e-9d19-7e7fc8f9a273","ios":"levelo://app?vid=d1dc4ad9-186b-444e-9d19-7e7fc8f9a273"},"vehicle_type_id":"4","last_reported":1736845788,"current_range_meters":38400,"station_id":"ce4bhih2rcd13ifvqfs0","pricing_plan_id":"cebpf4jnsgd1na2vs0mg"},{"bike_id":"6fcb3384-c9bc-4ab3-9c0b-f62a500684d1","system_id":"levelo_inurba_marseille","lat":43.29488,"lon":5.39095,"is_reserved":false,"is_disabled":true,"rental_uris":{"android":"levelo://app?vid=6fcb3384-c9bc-4ab3-9c0b-f62a500684d1","ios":"levelo://app?vid=6fcb3384-c9bc-4ab3-9c0b-f62a500684d1"},"vehicle_type_id":"4","last_reported":1736845788,"current_range_meters":27200,"station_id":"","pricing_plan_id":"cebpf4jnsgd1na2vs0mg"},{"bike_id":"de05f028-7450-4792-8d5b-e268410faa9d","system_id":"levelo_inurba_marseille","lat":43.32116,"lon":5.36786,"is_reserved":false,"is_disabled":false,"rental_uris":{"android":"levelo://app?vid=de05f028-7450-4792-8d5b-e268410faa9d","ios":"levelo://app?vid=de05f028-7450-4792-8d5b-e268410faa9d"},"vehicle_type_id":"4","last_reported":1736845788,"current_range_meters":28800,"station_id":"ce4bhrh2rcd13ifvqhug","pricing_plan_id":"cebpf4jnsgd1na2vs0mg"},{"bike_id":"49e34a1f-43f0-43ae-aa1c-a59bac9194f6","system_id":"levelo_inurba_marseille","lat":43.285222,"lon":5.384041,"is_reserved":false,"is_disabled":false,"rental_uris":{"android":"levelo://app?vid=49e34a1f-43f0-43ae-aa1c-a59bac9194f6","ios":"levelo://app?vid=49e34a1f-43f0-43ae-aa1c-a59bac9194f6"},"vehicle_type_id":"4","last_reported":1736845788,"current_range_meters":35600,"station_id":"ce4bh512rcd13ifvqe3g","pricing_plan_id":"cebpf4jnsgd1na2vs0mg"},{"bike_id":"4218abb1-97a1-4e69-a779-b2859c95cf9a","system_id":"levelo_inurba_marseille","lat":43.23958,"lon":5.36631,"is_reserved":false,"is_disabled":false,"rental_uris":{"android":"levelo://app?vid=4218abb1-97a1-4e69-a779-b2859c95cf9a","ios":"levelo://app?vid=4218abb1-97a1-4e69-a779-b2859c95cf9a"},"vehicle_type_id":"4","last_reported":1736845788,"current_range_meters":15200,"station_id":"ce4bhi12rcd13ifvqfp0","pricing_plan_id":"cebpf4jnsgd1na2vs0mg"},{"bike_id":"7da73b08-06e3-43ca-8e0f-9447fe50ccbf","system_id":"levelo_inurba_marseille","lat":43.2749,"lon":5.42468,"is_reserved":false,"is_disabled":true,"rental_uris":{"android":"levelo://app?vid=7da73b08-06e3-43ca-8e0f-9447fe50ccbf","ios":"levelo://app?vid=7da73b08-06e3-43ca-8e0f-9447fe50ccbf"},"vehicle_type_id":"4","last_reported":1736845788,"current_range_meters":0,"station_id":"ce4bhn92rcd13ifvqgrg","pricing_plan_id":"cebpf4jnsgd1na2vs0mg"},{"bike_id":"5600158c-d1f5-4d70-ba08-79a7cf321173","system_id":"levelo_inurba_marseille","lat":43.28932,"lon":5.36644,"is_reserved":false,"is_disabled":false,"rental_uris":{"android":"levelo://app?vid=5600158c-d1f5-4d70-ba08-79a7cf321173","ios":"levelo://app?vid=5600158c-d1f5-4d70-ba08-79a7cf321173"},"vehicle_type_id":"4","last_reported":1736845788,"current_range_meters":14000,"station_id":"ce4bhap2rcd13ifvqek0","pricing_plan_id":"cebpf4jnsgd1na2vs0mg"},{"bike_id":"cec57b73-7e77-4862-b003-e6d0209650c7","system_id":"levelo_inurba_marseille","lat":43.29957,"lon":5.37168,"is_reserved":false,"is_disabled":false,"rental_uris":{"android":"levelo://app?vid=cec57b73-7e77-4862-b003-e6d0209650c7","ios":"levelo://app?vid=cec57b73-7e77-4862-b003-e6d0209650c7"},"vehicle_type_id":"4","last_reported":1736845788,"current_range_meters":25200,"station_id":"ce4bgr92rcd13ifvqc7g","pricing_plan_id":"cebpf4jnsgd1na2vs0mg"},{"bike_id":"34d1187a-0d2f-42da-8bcd-6376169d385a","system_id":"levelo_inurba_marseille","lat":43.25919,"lon":5.40945,"is_reserved":false,"is_disabled":false,"rental_uris":{"android":"levelo://app?vid=34d1187a-0d2f-42da-8bcd-6376169d385a","ios":"levelo://app?vid=34d1187a-0d2f-42da-8bcd-6376169d385a"},"vehicle_type_id":"4","last_reported":1736845788,"current_range_meters":37600,"station_id":"ce4bhm92rcd13ifvqglg","pricing_plan_id":"cebpf4jnsgd1na2vs0mg"},{"bike_id":"8f3d19ca-6788-4fa8-a3b9-31a1f06d17f5","system_id":"levelo_inurba_marseille","lat":43.28025,"lon":5.36952,"is_reserved":false,"is_disabled":true,"rental_uris":{"android":"levelo://app?vid=8f3d19ca-6788-4fa8-a3b9-31a1f06d17f5","ios":"levelo://app?vid=8f3d19ca-6788-4fa8-a3b9-31a1f06d17f5"},"vehicle_type_id":"4","last_reported":1736845788,"current_range_meters":800,"station_id":"ce4bha12rcd13ifvqef0","pricing_plan_id":"cebpf4jnsgd1na2vs0mg"},{"bike_id":"b704bf42-2bc7-4506-b669-8ca7a3330fef","system_id":"levelo_inurba_marseille","lat":43.28167,"lon":5.42634,"is_reserved":false,"is_disabled":true,"rental_uris":{"android":"levelo://app?vid=b704bf42-2bc7-4506-b669-8ca7a3330fef","ios":"levelo://app?vid=b704bf42-2bc7-4506-b669-8ca7a3330fef"},"vehicle_type_id":"4","last_reported":1736845788,"current_range_meters":22000,"station_id":"ce4bhnh2rcd13ifvqgug","pricing_plan_id":"cebpf4jnsgd1na2vs0mg"},{"bike_id":"a048c638-bc64-432f-b13c-9572667cfd5f","system_id":"levelo_inurba_marseille","lat":43.32484,"lon":5.36567,"is_reserved":false,"is_disabled":false,"rental_uris":{"android":"levelo://app?vid=a048c638-bc64-432f-b13c-9572667cfd5f","ios":"levelo://app?vid=a048c638-bc64-432f-b13c-9572667cfd5f"},"vehicle_type_id":"4","last_reported":1736845788,"current_range_meters":31200,"station_id":"ce4bhs12rcd13ifvqhvg","pricing_plan_id":"cebpf4jnsgd1na2vs0mg"},{"bike_id":"ff7146c5-2127-4e3a-a167-aea26e00a192","system_id":"levelo_inurba_marseille","lat":43.30941,"lon":5.39052,"is_reserved":false,"is_disabled":false,"rental_uris":{"android":"levelo://app?vid=ff7146c5-2127-4e3a-a167-aea26e00a192","ios":"levelo://app?vid=ff7146c5-2127-4e3a-a167-aea26e00a192"},"vehicle_type_id":"4","last_reported":1736845788,"current_range_meters":24000,"station_id":"ce4bgup2rcd13ifvqco0","pricing_plan_id":"cebpf4jnsgd1na2vs0mg"},{"bike_id":"efdf6e72-46a9-4201-b253-5e7a8c8a3bbf","system_id":"levelo_inurba_marseille","lat":43.27189,"lon":5.40982,"is_reserved":false,"is_disabled":false,"rental_uris":{"android":"levelo://app?vid=efdf6e72-46a9-4201-b253-5e7a8c8a3bbf","ios":"levelo://app?vid=efdf6e72-46a9-4201-b253-5e7a8c8a3bbf"},"vehicle_type_id":"4","last_reported":1736845788,"current_range_meters":32000,"station_id":"ce4bhl12rcd13ifvqgf0","pricing_plan_id":"cebpf4jnsgd1na2vs0mg"},{"bike_id":"f62a7ed4-7c80-4ed8-9568-a4dea62069d1","system_id":"levelo_inurba_marseille","lat":43.28094,"lon":5.39648,"is_reserved":false,"is_disabled":false,"rental_uris":{"android":"levelo://app?vid=f62a7ed4-7c80-4ed8-9568-a4dea62069d1","ios":"levelo://app?vid=f62a7ed4-7c80-4ed8-9568-a4dea62069d1"},"vehicle_type_id":"4","last_reported":1736845788,"current_range_meters":25600,"station_id":"ce4bho12rcd13ifvqh2g","pricing_plan_id":"cebpf4jnsgd1na2vs0mg"},{"bike_id":"6b12ee66-809f-4b5e-9c16-325ceee1f017","system_id":"levelo_inurba_marseille","lat":43.26677,"lon":5.38276,"is_reserved":false,"is_disabled":false,"rental_uris":{"android":"levelo://app?vid=6b12ee66-809f-4b5e-9c16-325ceee1f017","ios":"levelo://app?vid=6b12ee66-809f-4b5e-9c16-325ceee1f017"},"vehicle_type_id":"4","last_reported":1736845788,"current_range_meters":24000,"station_id":"ce4bhg92rcd13ifvqf90","pricing_plan_id":"cebpf4jnsgd1na2vs0mg"},{"bike_id":"e3ce0a6d-84df-4747-bda1-48ca26d77468","system_id":"levelo_inurba_marseille","lat":43.26824,"lon":5.39461,"is_reserved":false,"is_disabled":false,"rental_uris":{"android":"levelo://app?vid=e3ce0a6d-84df-4747-bda1-48ca26d77468","ios":"levelo://app?vid=e3ce0a6d-84df-4747-bda1-48ca26d77468"},"vehicle_type_id":"4","last_reported":1736845788,"current_range_meters":39200,"station_id":"ce4bhh12rcd13ifvqfg0","pricing_plan_id":"cebpf4jnsgd1na2vs0mg"},{"bike_id":"bfdc1c53-74a1-4f64-b32d-a2601c0c2029","system_id":"levelo_inurba_marseille","lat":43.33591,"lon":5.40985,"is_reserved":false,"is_disabled":false,"rental_uris":{"android":"levelo://app?vid=bfdc1c53-74a1-4f64-b32d-a2601c0c2029","ios":"levelo://app?vid=bfdc1c53-74a1-4f64-b32d-a2601c0c2029"},"vehicle_type_id":"4","last_reported":1736845788,"current_range_meters":26000,"station_id":"ce4bhqh2rcd13ifvqhmg","pricing_plan_id":"cebpf4jnsgd1na2vs0mg"},{"bike_id":"52b86d23-bb78-4ec5-b77d-73bb1b705963","system_id":"levelo_inurba_marseille","lat":43.27518,"lon":5.42451,"is_reserved":false,"is_disabled":false,"rental_uris":{"android":"levelo://app?vid=52b86d23-bb78-4ec5-b77d-73bb1b705963","ios":"levelo://app?vid=52b86d23-bb78-4ec5-b77d-73bb1b705963"},"vehicle_type_id":"4","last_reported":1736845788,"current_range_meters":8400,"station_id":"ce4bhn92rcd13ifvqgrg","pricing_plan_id":"cebpf4jnsgd1na2vs0mg"},{"bike_id":"028b290a-7d1d-4c76-ac26-d1913cf1772c","system_id":"levelo_inurba_marseille","lat":43.28147,"lon":5.42666,"is_reserved":false,"is_disabled":false,"rental_uris":{"android":"levelo://app?vid=028b290a-7d1d-4c76-ac26-d1913cf1772c","ios":"levelo://app?vid=028b290a-7d1d-4c76-ac26-d1913cf1772c"},"vehicle_type_id":"4","last_reported":1736845788,"current_range_meters":39200,"station_id":"ce4bhnh2rcd13ifvqgug","pricing_plan_id":"cebpf4jnsgd1na2vs0mg"},{"bike_id":"65254beb-41a1-4871-a9a5-5d19989181c6","system_id":"levelo_inurba_marseille","lat":43.24068,"lon":5.37731,"is_reserved":false,"is_disabled":false,"rental_uris":{"android":"levelo://app?vid=65254beb-41a1-4871-a9a5-5d19989181c6","ios":"levelo://app?vid=65254beb-41a1-4871-a9a5-5d19989181c6"},"vehicle_type_id":"4","last_reported":1736845788,"current_range_meters":9200,"station_id":"ce4bhnp2rcd13ifvqgvg","pricing_plan_id":"cebpf4jnsgd1na2vs0mg"},{"bike_id":"56319cf7-adb1-4f1e-8057-252da0132dc4","system_id":"levelo_inurba_marseille","lat":43.30284,"lon":5.37765,"is_reserved":false,"is_disabled":false,"rental_uris":{"android":"levelo://app?vid=56319cf7-adb1-4f1e-8057-252da0132dc4","ios":"levelo://app?vid=56319cf7-adb1-4f1e-8057-252da0132dc4"},"vehicle_type_id":"4","last_reported":1736845788,"current_range_meters":38800,"station_id":"ce4bguh2rcd13ifvqcj0","pricing_plan_id":"cebpf4jnsgd1na2vs0mg"},{"bike_id":"c57da018-bfbb-4cbc-9a23-aaed6c1fa365","system_id":"levelo_inurba_marseille","lat":43.27613,"lon":5.36117,"is_reserved":false,"is_disabled":false,"rental_uris":{"android":"levelo://app?vid=c57da018-bfbb-4cbc-9a23-aaed6c1fa365","ios":"levelo://app?vid=c57da018-bfbb-4cbc-9a23-aaed6c1fa365"},"vehicle_type_id":"4","last_reported":1736845788,"current_range_meters":33600,"station_id":"ce4bgj92rcd13ifvqbe0","pricing_plan_id":"cebpf4jnsgd1na2vs0mg"},{"bike_id":"a0484738-d857-4285-b51d-0f78805e7ea7","system_id":"levelo_inurba_marseille","lat":43.29308,"lon":5.37426,"is_reserved":false,"is_disabled":false,"rental_uris":{"android":"levelo://app?vid=a0484738-d857-4285-b51d-0f78805e7ea7","ios":"levelo://app?vid=a0484738-d857-4285-b51d-0f78805e7ea7"},"vehicle_type_id":"4","last_reported":1736845788,"current_range_meters":10800,"station_id":"ce4bgi12rcd13ifvqb70","pricing_plan_id":"cebpf4jnsgd1na2vs0mg"},{"bike_id":"735ec82c-3ba1-4c1f-99f4-15a352013b3d","system_id":"levelo_inurba_marseille","lat":43.29225,"lon":5.36078,"is_reserved":false,"is_disabled":true,"rental_uris":{"android":"levelo://app?vid=735ec82c-3ba1-4c1f-99f4-15a352013b3d","ios":"levelo://app?vid=735ec82c-3ba1-4c1f-99f4-15a352013b3d"},"vehicle_type_id":"4","last_reported":1736845788,"current_range_meters":37600,"station_id":"ce4bhbh2rcd13ifvqeqg","pricing_plan_id":"cebpf4jnsgd1na2vs0mg"},{"bike_id":"04c4acfe-460f-4fee-a445-0befff4463d3","system_id":"levelo_inurba_marseille","lat":43.27235,"lon":5.39171,"is_reserved":false,"is_disabled":false,"rental_uris":{"android":"levelo://app?vid=04c4acfe-460f-4fee-a445-0befff4463d3","ios":"levelo://app?vid=04c4acfe-460f-4fee-a445-0befff4463d3"},"vehicle_type_id":"4","last_reported":1736845788,"current_range_meters":37600,"station_id":"ce4bhhp2rcd13ifvqfm0","pricing_plan_id":"cebpf4jnsgd1na2vs0mg"},{"bike_id":"3ee560f2-4b66-4cc2-932c-94c45ad6bbd0","system_id":"levelo_inurba_marseille","lat":43.24807,"lon":5.3746,"is_reserved":false,"is_disabled":false,"rental_uris":{"android":"levelo://app?vid=3ee560f2-4b66-4cc2-932c-94c45ad6bbd0","ios":"levelo://app?vid=3ee560f2-4b66-4cc2-932c-94c45ad6bbd0"},"vehicle_type_id":"4","last_reported":1736845788,"current_range_meters":11200,"station_id":"ce4bhgh2rcd13ifvqfb0","pricing_plan_id":"cebpf4jnsgd1na2vs0mg"},{"bike_id":"fc8be740-0043-4f9d-b31c-15f19071a736","system_id":"levelo_inurba_marseille","lat":43.2549,"lon":5.37662,"is_reserved":false,"is_disabled":false,"rental_uris":{"android":"levelo://app?vid=fc8be740-0043-4f9d-b31c-15f19071a736","ios":"levelo://app?vid=fc8be740-0043-4f9d-b31c-15f19071a736"},"vehicle_type_id":"4","last_reported":1736845788,"current_range_meters":39200,"station_id":"ce4bhh12rcd13ifvqff0","pricing_plan_id":"cebpf4jnsgd1na2vs0mg"},{"bike_id":"f92ca2f6-b2af-4f6a-ae7e-0db3ad388627","system_id":"levelo_inurba_marseille","lat":43.26791,"lon":5.39441,"is_reserved":false,"is_disabled":false,"rental_uris":{"android":"levelo://app?vid=f92ca2f6-b2af-4f6a-ae7e-0db3ad388627","ios":"levelo://app?vid=f92ca2f6-b2af-4f6a-ae7e-0db3ad388627"},"vehicle_type_id":"4","last_reported":1736845788,"current_range_meters":38800,"station_id":"ce4bhh12rcd13ifvqfg0","pricing_plan_id":"cebpf4jnsgd1na2vs0mg"},{"bike_id":"739b9309-56f3-4b21-b61d-ade9ae6cc990","system_id":"levelo_inurba_marseille","lat":43.2928,"lon":5.40138,"is_reserved":false,"is_disabled":true,"rental_uris":{"android":"levelo://app?vid=739b9309-56f3-4b21-b61d-ade9ae6cc990","ios":"levelo://app?vid=739b9309-56f3-4b21-b61d-ade9ae6cc990"},"vehicle_type_id":"4","last_reported":1736845788,"current_range_meters":36400,"station_id":"ce4bh312rcd13ifvqdk0","pricing_plan_id":"cebpf4jnsgd1na2vs0mg"},{"bike_id":"3e80b2fb-3555-4ac9-b768-2084968df978","system_id":"levelo_inurba_marseille","lat":43.24078,"lon":5.37754,"is_reserved":false,"is_disabled":false,"rental_uris":{"android":"levelo://app?vid=3e80b2fb-3555-4ac9-b768-2084968df978","ios":"levelo://app?vid=3e80b2fb-3555-4ac9-b768-2084968df978"},"vehicle_type_id":"4","last_reported":1736845788,"current_range_meters":29600,"station_id":"ce4bhnp2rcd13ifvqgvg","pricing_plan_id":"cebpf4jnsgd1na2vs0mg"},{"bike_id":"a836bbf6-cc30-4238-a0af-12e1dba6445b","system_id":"levelo_inurba_marseille","lat":43.23153,"lon":5.43704,"is_reserved":false,"is_disabled":false,"rental_uris":{"android":"levelo://app?vid=a836bbf6-cc30-4238-a0af-12e1dba6445b","ios":"levelo://app?vid=a836bbf6-cc30-4238-a0af-12e1dba6445b"},"vehicle_type_id":"4","last_reported":1736845788,"current_range_meters":8800,"station_id":"ce4bhmp2rcd13ifvqgog","pricing_plan_id":"cebpf4jnsgd1na2vs0mg"},{"bike_id":"01e8c37a-485a-4689-82d6-32555e2cc552","system_id":"levelo_inurba_marseille","lat":43.30492,"lon":5.36412,"is_reserved":false,"is_disabled":false,"rental_uris":{"android":"levelo://app?vid=01e8c37a-485a-4689-82d6-32555e2cc552","ios":"levelo://app?vid=01e8c37a-485a-4689-82d6-32555e2cc552"},"vehicle_type_id":"4","last_reported":1736845788,"current_range_meters":39200,"station_id":"ce4bgs12rcd13ifvqcag","pricing_plan_id":"cebpf4jnsgd1na2vs0mg"},{"bike_id":"400e3948-7dea-45b5-856c-3530ab281b15","system_id":"levelo_inurba_marseille","lat":43.26059,"lon":5.39397,"is_reserved":false,"is_disabled":false,"rental_uris":{"android":"levelo://app?vid=400e3948-7dea-45b5-856c-3530ab281b15","ios":"levelo://app?vid=400e3948-7dea-45b5-856c-3530ab281b15"},"vehicle_type_id":"4","last_reported":1736845788,"current_range_meters":24000,"station_id":"ce4bhh92rcd13ifvqfj0","pricing_plan_id":"cebpf4jnsgd1na2vs0mg"},{"bike_id":"ac018859-ee3a-4912-85df-df4309cced09","system_id":"levelo_inurba_marseille","lat":43.30294,"lon":5.37708,"is_reserved":false,"is_disabled":false,"rental_uris":{"android":"levelo://app?vid=ac018859-ee3a-4912-85df-df4309cced09","ios":"levelo://app?vid=ac018859-ee3a-4912-85df-df4309cced09"},"vehicle_type_id":"4","last_reported":1736845788,"current_range_meters":38400,"station_id":"ce4bguh2rcd13ifvqcj0","pricing_plan_id":"cebpf4jnsgd1na2vs0mg"},{"bike_id":"41922604-c7b8-4e93-9da5-3903771d7233","system_id":"levelo_inurba_marseille","lat":43.24802,"lon":5.37471,"is_reserved":false,"is_disabled":false,"rental_uris":{"android":"levelo://app?vid=41922604-c7b8-4e93-9da5-3903771d7233","ios":"levelo://app?vid=41922604-c7b8-4e93-9da5-3903771d7233"},"vehicle_type_id":"4","last_reported":1736845788,"current_range_meters":23200,"station_id":"ce4bhgh2rcd13ifvqfb0","pricing_plan_id":"cebpf4jnsgd1na2vs0mg"},{"bike_id":"2bc29f68-9adc-49d0-a8a0-04c370338641","system_id":"levelo_inurba_marseille","lat":43.23962,"lon":5.36635,"is_reserved":false,"is_disabled":false,"rental_uris":{"android":"levelo://app?vid=2bc29f68-9adc-49d0-a8a0-04c370338641","ios":"levelo://app?vid=2bc29f68-9adc-49d0-a8a0-04c370338641"},"vehicle_type_id":"4","last_reported":1736845788,"current_range_meters":23200,"station_id":"ce4bhi12rcd13ifvqfp0","pricing_plan_id":"cebpf4jnsgd1na2vs0mg"},{"bike_id":"306db636-fa13-4023-a4f6-43177835b6db","system_id":"levelo_inurba_marseille","lat":43.25932,"lon":5.40904,"is_reserved":false,"is_disabled":false,"rental_uris":{"android":"levelo://app?vid=306db636-fa13-4023-a4f6-43177835b6db","ios":"levelo://app?vid=306db636-fa13-4023-a4f6-43177835b6db"},"vehicle_type_id":"4","last_reported":1736845788,"current_range_meters":30000,"station_id":"ce4bhm92rcd13ifvqglg","pricing_plan_id":"cebpf4jnsgd1na2vs0mg"},{"bike_id":"926aca98-314b-45b1-bfe6-a4d928c29417","system_id":"levelo_inurba_marseille","lat":43.29164,"lon":5.37172,"is_reserved":false,"is_disabled":false,"rental_uris":{"android":"levelo://app?vid=926aca98-314b-45b1-bfe6-a4d928c29417","ios":"levelo://app?vid=926aca98-314b-45b1-bfe6-a4d928c29417"},"vehicle_type_id":"4","last_reported":1736845788,"current_range_meters":38400,"station_id":"ce4bha92rcd13ifvqeh0","pricing_plan_id":"cebpf4jnsgd1na2vs0mg"},{"bike_id":"369f728c-acb1-40f0-8b27-9b3f4c2375af","system_id":"levelo_inurba_marseille","lat":43.2668,"lon":5.38272,"is_reserved":false,"is_disabled":false,"rental_uris":{"android":"levelo://app?vid=369f728c-acb1-40f0-8b27-9b3f4c2375af","ios":"levelo://app?vid=369f728c-acb1-40f0-8b27-9b3f4c2375af"},"vehicle_type_id":"4","last_reported":1736845788,"current_range_meters":24400,"station_id":"ce4bhg92rcd13ifvqf90","pricing_plan_id":"cebpf4jnsgd1na2vs0mg"},{"bike_id":"a6550df1-39e6-4769-8451-3127e7928530","system_id":"levelo_inurba_marseille","lat":43.30947,"lon":5.39042,"is_reserved":false,"is_disabled":false,"rental_uris":{"android":"levelo://app?vid=a6550df1-39e6-4769-8451-3127e7928530","ios":"levelo://app?vid=a6550df1-39e6-4769-8451-3127e7928530"},"vehicle_type_id":"4","last_reported":1736845788,"current_range_meters":24800,"station_id":"ce4bgup2rcd13ifvqco0","pricing_plan_id":"cebpf4jnsgd1na2vs0mg"},{"bike_id":"fb31a920-395c-464b-a53d-294102d2e0da","system_id":"levelo_inurba_marseille","lat":43.24072,"lon":5.37761,"is_reserved":false,"is_disabled":false,"rental_uris":{"android":"levelo://app?vid=fb31a920-395c-464b-a53d-294102d2e0da","ios":"levelo://app?vid=fb31a920-395c-464b-a53d-294102d2e0da"},"vehicle_type_id":"4","last_reported":1736845788,"current_range_meters":15200,"station_id":"ce4bhnp2rcd13ifvqgvg","pricing_plan_id":"cebpf4jnsgd1na2vs0mg"},{"bike_id":"317217f4-252a-4ff2-8a17-cbcec96dc79e","system_id":"levelo_inurba_marseille","lat":43.24084,"lon":5.37734,"is_reserved":false,"is_disabled":true,"rental_uris":{"android":"levelo://app?vid=317217f4-252a-4ff2-8a17-cbcec96dc79e","ios":"levelo://app?vid=317217f4-252a-4ff2-8a17-cbcec96dc79e"},"vehicle_type_id":"4","last_reported":1736845788,"current_range_meters":32400,"station_id":"ce4bhnp2rcd13ifvqgvg","pricing_plan_id":"cebpf4jnsgd1na2vs0mg"},{"bike_id":"2ef5df04-cc6e-4014-88b2-a60bbd864900","system_id":"levelo_inurba_marseille","lat":43.30881,"lon":5.37194,"is_reserved":false,"is_disabled":false,"rental_uris":{"android":"levelo://app?vid=2ef5df04-cc6e-4014-88b2-a60bbd864900","ios":"levelo://app?vid=2ef5df04-cc6e-4014-88b2-a60bbd864900"},"vehicle_type_id":"4","last_reported":1736845788,"current_range_meters":36400,"station_id":"ce4bguh2rcd13ifvqckg","pricing_plan_id":"cebpf4jnsgd1na2vs0mg"},{"bike_id":"4ca4be0a-6368-47fa-871a-914312f9653e","system_id":"levelo_inurba_marseille","lat":43.24548,"lon":5.39523,"is_reserved":false,"is_disabled":false,"rental_uris":{"android":"levelo://app?vid=4ca4be0a-6368-47fa-871a-914312f9653e","ios":"levelo://app?vid=4ca4be0a-6368-47fa-871a-914312f9653e"},"vehicle_type_id":"4","last_reported":1736845788,"current_range_meters":24800,"station_id":"ce4bhlp2rcd13ifvqgjg","pricing_plan_id":"cebpf4jnsgd1na2vs0mg"},{"bike_id":"69c47c65-964f-40bd-929d-41de97277039","system_id":"levelo_inurba_marseille","lat":43.33578,"lon":5.4092,"is_reserved":false,"is_disabled":true,"rental_uris":{"android":"levelo://app?vid=69c47c65-964f-40bd-929d-41de97277039","ios":"levelo://app?vid=69c47c65-964f-40bd-929d-41de97277039"},"vehicle_type_id":"4","last_reported":1736845788,"current_range_meters":0,"station_id":"ce4bhqh2rcd13ifvqhmg","pricing_plan_id":"cebpf4jnsgd1na2vs0mg"},{"bike_id":"231f1dd8-6336-4c22-9dd1-c1357dbe6eef","system_id":"levelo_inurba_marseille","lat":43.29741,"lon":5.37699,"is_reserved":false,"is_disabled":true,"rental_uris":{"android":"levelo://app?vid=231f1dd8-6336-4c22-9dd1-c1357dbe6eef","ios":"levelo://app?vid=231f1dd8-6336-4c22-9dd1-c1357dbe6eef"},"vehicle_type_id":"4","last_reported":1736845788,"current_range_meters":22400,"station_id":"ce4bgkh2rcd13ifvqbl0","pricing_plan_id":"cebpf4jnsgd1na2vs0mg"},{"bike_id":"239b48fa-c5af-4213-8f0b-2f482afa01c2","system_id":"levelo_inurba_marseille","lat":43.29355,"lon":5.37824,"is_reserved":false,"is_disabled":false,"rental_uris":{"android":"levelo://app?vid=239b48fa-c5af-4213-8f0b-2f482afa01c2","ios":"levelo://app?vid=239b48fa-c5af-4213-8f0b-2f482afa01c2"},"vehicle_type_id":"4","last_reported":1736845788,"current_range_meters":13600,"station_id":"ce4bgjh2rcd13ifvqbf0","pricing_plan_id":"cebpf4jnsgd1na2vs0mg"},{"bike_id":"d9327ed7-b481-4b20-9039-1941f61e760b","system_id":"levelo_inurba_marseille","lat":43.26953,"lon":5.38635,"is_reserved":false,"is_disabled":false,"rental_uris":{"android":"levelo://app?vid=d9327ed7-b481-4b20-9039-1941f61e760b","ios":"levelo://app?vid=d9327ed7-b481-4b20-9039-1941f61e760b"},"vehicle_type_id":"4","last_reported":1736845788,"current_range_meters":23200,"station_id":"ce4bhh92rcd13ifvqfh0","pricing_plan_id":"cebpf4jnsgd1na2vs0mg"},{"bike_id":"7326cbd7-b6b4-4933-ad30-b3aa57d05c93","system_id":"levelo_inurba_marseille","lat":43.23131,"lon":5.43726,"is_reserved":false,"is_disabled":false,"rental_uris":{"android":"levelo://app?vid=7326cbd7-b6b4-4933-ad30-b3aa57d05c93","ios":"levelo://app?vid=7326cbd7-b6b4-4933-ad30-b3aa57d05c93"},"vehicle_type_id":"4","last_reported":1736845788,"current_range_meters":18800,"station_id":"ce4bhmp2rcd13ifvqgog","pricing_plan_id":"cebpf4jnsgd1na2vs0mg"},{"bike_id":"87339157-d961-4cf9-9dd5-00fb3246061f","system_id":"levelo_inurba_marseille","lat":43.25923,"lon":5.40907,"is_reserved":false,"is_disabled":false,"rental_uris":{"android":"levelo://app?vid=87339157-d961-4cf9-9dd5-00fb3246061f","ios":"levelo://app?vid=87339157-d961-4cf9-9dd5-00fb3246061f"},"vehicle_type_id":"4","last_reported":1736845788,"current_range_meters":28000,"station_id":"ce4bhm92rcd13ifvqglg","pricing_plan_id":"cebpf4jnsgd1na2vs0mg"},{"bike_id":"78540340-f113-4a2c-97c3-f25bc22ced21","system_id":"levelo_inurba_marseille","lat":43.31356,"lon":5.38507,"is_reserved":false,"is_disabled":false,"rental_uris":{"android":"levelo://app?vid=78540340-f113-4a2c-97c3-f25bc22ced21","ios":"levelo://app?vid=78540340-f113-4a2c-97c3-f25bc22ced21"},"vehicle_type_id":"4","last_reported":1736845788,"current_range_meters":4800,"station_id":"ce4bgt92rcd13ifvqcf0","pricing_plan_id":"cebpf4jnsgd1na2vs0mg"},{"bike_id":"1dc64d76-fff0-460c-af84-eaea7614f529","system_id":"levelo_inurba_marseille","lat":43.2693,"lon":5.40272,"is_reserved":false,"is_disabled":false,"rental_uris":{"android":"levelo://app?vid=1dc64d76-fff0-460c-af84-eaea7614f529","ios":"levelo://app?vid=1dc64d76-fff0-460c-af84-eaea7614f529"},"vehicle_type_id":"4","last_reported":1736845788,"current_range_meters":38800,"station_id":"cjm6bp8fraef2m0cb0m0","pricing_plan_id":"cebpf4jnsgd1na2vs0mg"},{"bike_id":"1824ca5a-45ef-4ec3-a81c-50db720391d4","system_id":"levelo_inurba_marseille","lat":43.2937,"lon":5.37857,"is_reserved":false,"is_disabled":false,"rental_uris":{"android":"levelo://app?vid=1824ca5a-45ef-4ec3-a81c-50db720391d4","ios":"levelo://app?vid=1824ca5a-45ef-4ec3-a81c-50db720391d4"},"vehicle_type_id":"4","last_reported":1736845788,"current_range_meters":30400,"station_id":"ce4bgjh2rcd13ifvqbf0","pricing_plan_id":"cebpf4jnsgd1na2vs0mg"},{"bike_id":"2cd60496-b669-4c45-8ad1-133c1d3f593f","system_id":"levelo_inurba_marseille","lat":43.2794,"lon":5.41042,"is_reserved":false,"is_disabled":false,"rental_uris":{"android":"levelo://app?vid=2cd60496-b669-4c45-8ad1-133c1d3f593f","ios":"levelo://app?vid=2cd60496-b669-4c45-8ad1-133c1d3f593f"},"vehicle_type_id":"4","last_reported":1736845788,"current_range_meters":36800,"station_id":"ce4bhnp2rcd13ifvqh0g","pricing_plan_id":"cebpf4jnsgd1na2vs0mg"},{"bike_id":"df28f796-5a0c-416c-8088-630e87a8cc6b","system_id":"levelo_inurba_marseille","lat":43.30307,"lon":5.36914,"is_reserved":false,"is_disabled":false,"rental_uris":{"android":"levelo://app?vid=df28f796-5a0c-416c-8088-630e87a8cc6b","ios":"levelo://app?vid=df28f796-5a0c-416c-8088-630e87a8cc6b"},"vehicle_type_id":"4","last_reported":1736845788,"current_range_meters":8000,"station_id":"ce4bgqh2rcd13ifvqc5g","pricing_plan_id":"cebpf4jnsgd1na2vs0mg"},{"bike_id":"c0fd2063-31ae-4171-af17-771dbb4fa212","system_id":"levelo_inurba_marseille","lat":43.22928,"lon":5.35394,"is_reserved":false,"is_disabled":false,"rental_uris":{"android":"levelo://app?vid=c0fd2063-31ae-4171-af17-771dbb4fa212","ios":"levelo://app?vid=c0fd2063-31ae-4171-af17-771dbb4fa212"},"vehicle_type_id":"4","last_reported":1736845788,"current_range_meters":38000,"station_id":"cpo3532slgdg3j2ikp40","pricing_plan_id":"cebpf4jnsgd1na2vs0mg"},{"bike_id":"ad1d59f0-a710-4f28-8a33-72f0b4ee5973","system_id":"levelo_inurba_marseille","lat":43.31374,"lon":5.36654,"is_reserved":false,"is_disabled":false,"rental_uris":{"android":"levelo://app?vid=ad1d59f0-a710-4f28-8a33-72f0b4ee5973","ios":"levelo://app?vid=ad1d59f0-a710-4f28-8a33-72f0b4ee5973"},"vehicle_type_id":"4","last_reported":1736845788,"current_range_meters":11600,"station_id":"","pricing_plan_id":"cebpf4jnsgd1na2vs0mg"},{"bike_id":"c4e71cc9-2380-4f9f-ad4b-bc8a4c3df445","system_id":"levelo_inurba_marseille","lat":43.30877,"lon":5.39653,"is_reserved":false,"is_disabled":false,"rental_uris":{"android":"levelo://app?vid=c4e71cc9-2380-4f9f-ad4b-bc8a4c3df445","ios":"levelo://app?vid=c4e71cc9-2380-4f9f-ad4b-bc8a4c3df445"},"vehicle_type_id":"4","last_reported":1736845788,"current_range_meters":33600,"station_id":"ce4bh012rcd13ifvqcv0","pricing_plan_id":"cebpf4jnsgd1na2vs0mg"},{"bike_id":"f196a6c1-5828-4489-87fc-d1e4182a9236","system_id":"levelo_inurba_marseille","lat":43.29572,"lon":5.36747,"is_reserved":false,"is_disabled":false,"rental_uris":{"android":"levelo://app?vid=f196a6c1-5828-4489-87fc-d1e4182a9236","ios":"levelo://app?vid=f196a6c1-5828-4489-87fc-d1e4182a9236"},"vehicle_type_id":"4","last_reported":1736845788,"current_range_meters":39200,"station_id":"ce4bgph2rcd13ifvqc2g","pricing_plan_id":"cebpf4jnsgd1na2vs0mg"},{"bike_id":"b7a9a420-00a3-4d99-a8aa-4068befb8c88","system_id":"levelo_inurba_marseille","lat":43.29557,"lon":5.37528,"is_reserved":false,"is_disabled":false,"rental_uris":{"android":"levelo://app?vid=b7a9a420-00a3-4d99-a8aa-4068befb8c88","ios":"levelo://app?vid=b7a9a420-00a3-4d99-a8aa-4068befb8c88"},"vehicle_type_id":"4","last_reported":1736845788,"current_range_meters":30000,"station_id":"ce4bgh92rcd13ifvqb50","pricing_plan_id":"cebpf4jnsgd1na2vs0mg"},{"bike_id":"6c4320ef-ee73-4a4c-8038-dee291c4d56b","system_id":"levelo_inurba_marseille","lat":43.31002,"lon":5.37923,"is_reserved":false,"is_disabled":false,"rental_uris":{"android":"levelo://app?vid=6c4320ef-ee73-4a4c-8038-dee291c4d56b","ios":"levelo://app?vid=6c4320ef-ee73-4a4c-8038-dee291c4d56b"},"vehicle_type_id":"4","last_reported":1736845788,"current_range_meters":18000,"station_id":"","pricing_plan_id":"cebpf4jnsgd1na2vs0mg"},{"bike_id":"77b1fb5b-e06c-43ad-ac28-2b591967d345","system_id":"levelo_inurba_marseille","lat":43.29728,"lon":5.37686,"is_reserved":false,"is_disabled":false,"rental_uris":{"android":"levelo://app?vid=77b1fb5b-e06c-43ad-ac28-2b591967d345","ios":"levelo://app?vid=77b1fb5b-e06c-43ad-ac28-2b591967d345"},"vehicle_type_id":"4","last_reported":1736845788,"current_range_meters":38800,"station_id":"ce4bgkh2rcd13ifvqbl0","pricing_plan_id":"cebpf4jnsgd1na2vs0mg"},