{"last_updated":1720551975,"ttl":30,"version":"2.2","data":{"bikes":[{"bike_id":"e0130b5f-b812-4936-9676-ac41f8ff4526","system_id":"levelo_inurba_marseille","lat":43.312239,"lon":5.368562,"is_reserved":false,"is_disabled":false,"rental_uris":{"android":"levelo://app?vid=e0130b5f-b812-4936-9676-ac41f8ff4526","ios":"levelo://app?vid=e0130b5f-b812-4936-9676-ac41f8ff4526"},"vehicle_type_id":"4","last_reported":1720551975,"current_range_meters":11200,"station_id":"ce4bgl92rcd13ifvqbq0","pricing_plan_id":"cebpf4jnsgd1na2vs0mg"},{"bike_id":"579b324a-cd44-490d-8ada-707b4e9ab90f","system_id":"levelo_inurba_marseille","lat":43.312239,"lon":5.368562,"is_reserved":false,"is_disabled":false,"rental_uris":{"android":"levelo://app?vid=579b324a-cd44-490d-8ada-707b4e9ab90f","ios":"levelo://app?vid=579b324a-cd44-490d-8ada-707b4e9ab90f"},"vehicle_type_id":"4","last_reported":1720551975,"current_range_meters":15600,"station_id":"ce4bgl92rcd13ifvqbq0","pricing_plan_id":"cebpf4jnsgd1na2vs0mg"},{"bike_id":"e9677f64-4d19-4550-9b24-f599839d17e7","system_id":"levelo_inurba_marseille","lat":43.31459,"lon":5.37377,"is_reserved":false,"is_disabled":false,"rental_uris":{"android":"levelo://app?vid=e9677f64-4d19-4550-9b24-f599839d17e7","ios":"levelo://app?vid=e9677f64-4d19-4550-9b24-f599839d17e7"},"vehicle_type_id":"4","last_reported":1720551975,"current_range_meters":18800,"station_id":"","pricing_plan_id":"cebpf4jnsgd1na2vs0mg"},{"bike_id":"525d1a09-10f2-4d1f-aaed-9579fe1b9575","system_id":"levelo_inurba_marseille","lat":43.30847,"lon":5.37476,"is_reserved":false,"is_disabled":false,"rental_uris":{"android":"levelo://app?vid=525d1a09-10f2-4d1f-aaed-9579fe1b9575","ios":"levelo://app?vid=525d1a09-10f2-4d1f-aaed-9579fe1b9575"},"vehicle_type_id":"4","last_reported":1720551975,"current_range_meters":14400,"station_id":"","pricing_plan_id":"cebpf4jnsgd1na2vs0mg"},{"bike_id":"8f7491f7-e918-4131-92cf-c8c598dd1c28","system_id":"levelo_inurba_marseille","lat":43.30537,"lon":5.367345,"is_reserved":false,"is_disabled":false,"rental_uris":{"android":"levelo://app?vid=8f7491f7-e918-4131-92cf-c8c598dd1c28","ios":"levelo://app?vid=8f7491f7-e918-4131-92cf-c8c598dd1c28"},"vehicle_type_id":"4","last_reported":1720551975,"current_range_meters":0,"station_id":"ce4bgrp2rcd13ifvqc9g","pricing_plan_id":"cebpf4jnsgd1na2vs0mg"},{"bike_id":"8c90aab2-6655-436f-ab64-8724d8d01fab","system_id":"levelo_inurba_marseille","lat":43.30534,"lon":5.36661,"is_reserved":false,"is_disabled":false,"rental_uris":{"android":"levelo://app?vid=8c90aab2-6655-436f-ab64-8724d8d01fab","ios":"levelo://app?vid=8c90aab2-6655-436f-ab64-8724d8d01fab"},"vehicle_type_id":"4","last_reported":1720551975,"current_range_meters":20000,"station_id":"","pricing_plan_id":"cebpf4jnsgd1na2vs0mg"},{"bike_id":"868c3348-bea9-43b9-b8f8-bac4bf9ec58b","system_id":"levelo_inurba_marseille","lat":43.30524,"lon":5.36524,"is_reserved":false,"is_disabled":false,"rental_uris":{"android":"levelo://app?vid=868c3348-bea9-43b9-b8f8-bac4bf9ec58b","ios":"levelo://app?vid=868c3348-bea9-43b9-b8f8-bac4bf9ec58b"},"vehicle_type_id":"4","last_reported":1720551975,"current_range_meters":12400,"station_id":"","pricing_plan_id":"cebpf4jnsgd1na2vs0mg"},{"bike_id":"6404447a-3d1d-4ee7-9f7a-94c0393b0182","system_id":"levelo_inurba_marseille","lat":43.311125,"lon":5.377624,"is_reserved":false,"is_disabled":false,"rental_uris":{"android":"levelo://app?vid=6404447a-3d1d-4ee7-9f7a-94c0393b0182","ios":"levelo://app?vid=6404447a-3d1d-4ee7-9f7a-94c0393b0182"},"vehicle_type_id":"4","last_reported":1720551975,"current_range_meters":3600,"station_id":"ce4bgt92rcd13ifvqcg0","pricing_plan_id":"cebpf4jnsgd1na2vs0mg"},{"bike_id":"d07f8c3f-0a5c-41ea-813a-67d57bdaccc3","system_id":"levelo_inurba_marseille","lat":43.311125,"lon":5.377624,"is_reserved":false,"is_disabled":false,"rental_uris":{"android":"levelo://app?vid=d07f8c3f-0a5c-41ea-813a-67d57bdaccc3","ios":"levelo://app?vid=d07f8c3f-0a5c-41ea-813a-67d57bdaccc3"},"vehicle_type_id":"4","last_reported":1720551975,"current_range_meters":0,"station_id":"ce4bgt92rcd13ifvqcg0","pricing_plan_id":"cebpf4jnsgd1na2vs0mg"},{"bike_id":"4c61182b-7a62-4bfb-bef0-8cb27dce8cad","system_id":"levelo_inurba_marseille","lat":43.311125,"lon":5.377624,"is_reserved":false,"is_disabled":false,"rental_uris":{"android":"levelo://app?vid=4c61182b-7a62-4bfb-bef0-8cb27dce8cad","ios":"levelo://app?vid=4c61182b-7a62-4bfb-bef0-8cb27dce8cad"},"vehicle_type_id":"4","last_reported":1720551975,"current_range_meters":0,"station_id":"ce4bgt92rcd13ifvqcg0","pricing_plan_id":"cebpf4jnsgd1na2vs0mg"},{"bike_id":"de4748a3-4365-4050-8038-1ab2f1b7777f","system_id":"levelo_inurba_marseille","lat":43.317075,"lon":5.377367,"is_reserved":false,"is_disabled":false,"rental_uris":{"android":"levelo://app?vid=de4748a3-4365-4050-8038-1ab2f1b7777f","ios":"levelo://app?vid=de4748a3-4365-4050-8038-1ab2f1b7777f"},"vehicle_type_id":"4","last_reported":1720551975,"current_range_meters":18800,"station_id":"ce4bgth2rcd13ifvqch0","pricing_plan_id":"cebpf4jnsgd1na2vs0mg"},{"bike_id":"093d0d3d-2b55-4292-ae28-32f60288ed84","system_id":"levelo_inurba_marseille","lat":43.303046,"lon":5.368981,"is_reserved":false,"is_disabled":false,"rental_uris":{"android":"levelo://app?vid=093d0d3d-2b55-4292-ae28-32f60288ed84","ios":"levelo://app?vid=093d0d3d-2b55-4292-ae28-32f60288ed84"},"vehicle_type_id":"4","last_reported":1720551975,"current_range_meters":7600,"station_id":"ce4bgqh2rcd13ifvqc5g","pricing_plan_id":"cebpf4jnsgd1na2vs0mg"},{"bike_id":"174c5829-5ea1-46d0-8314-9d845bdb92d7","system_id":"levelo_inurba_marseille","lat":43.315289,"lon":5.380349,"is_reserved":false,"is_disabled":false,"rental_uris":{"android":"levelo://app?vid=174c5829-5ea1-46d0-8314-9d845bdb92d7","ios":"levelo://app?vid=174c5829-5ea1-46d0-8314-9d845bdb92d7"},"vehicle_type_id":"4","last_reported":1720551975,"current_range_meters":0,"station_id":"ce4bhsp2rcd13ifvqi50","pricing_plan_id":"cebpf4jnsgd1na2vs0mg"},{"bike_id":"b002fede-79ce-4139-bb55-6a87446cf623","system_id":"levelo_inurba_marseille","lat":43.30207,"lon":5.36774,"is_reserved":false,"is_disabled":false,"rental_uris":{"android":"levelo://app?vid=b002fede-79ce-4139-bb55-6a87446cf623","ios":"levelo://app?vid=b002fede-79ce-4139-bb55-6a87446cf623"},"vehicle_type_id":"4","last_reported":1720551975,"current_range_meters":24400,"station_id":"","pricing_plan_id":"cebpf4jnsgd1na2vs0mg"},{"bike_id":"91cc8d7f-2d13-4576-8813-0befa6ce9c8c","system_id":"levelo_inurba_marseille","lat":43.308012,"lon":5.381511,"is_reserved":false,"is_disabled":false,"rental_uris":{"android":"levelo://app?vid=91cc8d7f-2d13-4576-8813-0befa6ce9c8c","ios":"levelo://app?vid=91cc8d7f-2d13-4576-8813-0befa6ce9c8c"},"vehicle_type_id":"4","last_reported":1720551975,"current_range_meters":9600,"station_id":"ce4bgt12rcd13ifvqce0","pricing_plan_id":"cebpf4jnsgd1na2vs0mg"},{"bike_id":"8146597b-6e8c-44ec-b2ae-3c1fe9f6ac16","system_id":"levelo_inurba_marseille","lat":43.308012,"lon":5.381511,"is_reserved":false,"is_disabled":false,"rental_uris":{"android":"levelo://app?vid=8146597b-6e8c-44ec-b2ae-3c1fe9f6ac16","ios":"levelo://app?vid=8146597b-6e8c-44ec-b2ae-3c1fe9f6ac16"},"vehicle_type_id":"4","last_reported":1720551975,"current_range_meters":19600,"station_id":"ce4bgt12rcd13ifvqce0","pricing_plan_id":"cebpf4jnsgd1na2vs0mg"},{"bike_id":"1d0b2d18-2a91-4ae6-9ba5-fabe2454b603","system_id":"levelo_inurba_marseille","lat":43.308038,"lon":5.381508,"is_reserved":false,"is_disabled":false,"rental_uris":{"android":"levelo://app?vid=1d0b2d18-2a91-4ae6-9ba5-fabe2454b603","ios":"levelo://app?vid=1d0b2d18-2a91-4ae6-9ba5-fabe2454b603"},"vehicle_type_id":"4","last_reported":1720551975,"current_range_meters":30000,"station_id":"ce4bgt12rcd13ifvqce0","pricing_plan_id":"cebpf4jnsgd1na2vs0mg"},{"bike_id":"35d3468e-60e9-486c-bdc4-8ad9c6481278","system_id":"levelo_inurba_marseille","lat":43.308012,"lon":5.381511,"is_reserved":false,"is_disabled":false,"rental_uris":{"android":"levelo://app?vid=35d3468e-60e9-486c-bdc4-8ad9c6481278","ios":"levelo://app?vid=35d3468e-60e9-486c-bdc4-8ad9c6481278"},"vehicle_type_id":"4","last_reported":1720551975,"current_range_meters":0,"station_id":"ce4bgt12rcd13ifvqce0","pricing_plan_id":"cebpf4jnsgd1na2vs0mg"},{"bike_id":"e74a5e87-33e4-4ebd-873f-1a3980f40f5f","system_id":"levelo_inurba_marseille","lat":43.301008,"lon":5.368712,"is_reserved":false,"is_disabled":false,"rental_uris":{"android":"levelo://app?vid=e74a5e87-33e4-4ebd-873f-1a3980f40f5f","ios":"levelo://app?vid=e74a5e87-33e4-4ebd-873f-1a3980f40f5f"},"vehicle_type_id":"4","last_reported":1720551975,"current_range_meters":7200,"station_id":"","pricing_plan_id":"cebpf4jnsgd1na2vs0mg"},{"bike_id":"b66c4f64-689e-417f-b940-274f8cc1ece6","system_id":"levelo_inurba_marseille","lat":43.32479,"lon":5.36583,"is_reserved":false,"is_disabled":false,"rental_uris":{"android":"levelo://app?vid=b66c4f64-689e-417f-b940-274f8cc1ece6","ios":"levelo://app?vid=b66c4f64-689e-417f-b940-274f8cc1ece6"},"vehicle_type_id":"4","last_reported":1720551975,"current_range_meters":0,"station_id":"ce4bhs12rcd13ifvqhvg","pricing_plan_id":"cebpf4jnsgd1na2vs0mg"},{"bike_id":"2f8cbb8a-6b58-472d-8339-b0d9c2e00778","system_id":"levelo_inurba_marseille","lat":43.324793,"lon":5.365686,"is_reserved":false,"is_disabled":false,"rental_uris":{"android":"levelo://app?vid=2f8cbb8a-6b58-472d-8339-b0d9c2e00778","ios":"levelo://app?vid=2f8cbb8a-6b58-472d-8339-b0d9c2e00778"},"vehicle_type_id":"4","last_reported":1720551975,"current_range_meters":16400,"station_id":"ce4bhs12rcd13ifvqhvg","pricing_plan_id":"cebpf4jnsgd1na2vs0mg"},{"bike_id":"736b006d-eb18-434f-8304-02f2a380b86d","system_id":"levelo_inurba_marseille","lat":43.324771,"lon":5.36557,"is_reserved":false,"is_disabled":false,"rental_uris":{"android":"levelo://app?vid=736b006d-eb18-434f-8304-02f2a380b86d","ios":"levelo://app?vid=736b006d-eb18-434f-8304-02f2a380b86d"},"vehicle_type_id":"4","last_reported":1720551975,"current_range_meters":31600,"station_id":"ce4bhs12rcd13ifvqhvg","pricing_plan_id":"cebpf4jnsgd1na2vs0mg"},{"bike_id":"9cf35a4d-38ba-4db4-b497-7b2540c4d6ed","system_id":"levelo_inurba_marseille","lat":43.324771,"lon":5.36557,"is_reserved":false,"is_disabled":false,"rental_uris":{"android":"levelo://app?vid=9cf35a4d-38ba-4db4-b497-7b2540c4d6ed","ios":"levelo://app?vid=9cf35a4d-38ba-4db4-b497-7b2540c4d6ed"},"vehicle_type_id":"4","last_reported":1720551975,"current_range_meters":1200,"station_id":"ce4bhs12rcd13ifvqhvg","pricing_plan_id":"cebpf4jnsgd1na2vs0mg"},{"bike_id":"36bd7c55-9f13-491f-8948-add56f2ddf1f","system_id":"levelo_inurba_marseille","lat":43.324771,"lon":5.36557,"is_reserved":false,"is_disabled":false,"rental_uris":{"android":"levelo://app?vid=36bd7c55-9f13-491f-8948-add56f2ddf1f","ios":"levelo://app?vid=36bd7c55-9f13-491f-8948-add56f2ddf1f"},"vehicle_type_id":"4","last_reported":1720551975,"current_range_meters":4800,"station_id":"ce4bhs12rcd13ifvqhvg","pricing_plan_id":"cebpf4jnsgd1na2vs0mg"},{"bike_id":"a40e8641-70d0-4e45-8b2e-6af26f473c5b","system_id":"levelo_inurba_marseille","lat":43.324771,"lon":5.36557,"is_reserved":false,"is_disabled":false,"rental_uris":{"android":"levelo://app?vid=a40e8641-70d0-4e45-8b2e-6af26f473c5b","ios":"levelo://app?vid=a40e8641-70d0-4e45-8b2e-6af26f473c5b"},"vehicle_type_id":"4","last_reported":1720551975,"current_range_meters":31200,"station_id":"ce4bhs12rcd13ifvqhvg","pricing_plan_id":"cebpf4jnsgd1na2vs0mg"},{"bike_id":"99ed4cb1-c592-47b8-a272-7bfe4bc44b56","system_id":"levelo_inurba_marseille","lat":43.324819,"lon":5.365728,"is_reserved":false,"is_disabled":false,"rental_uris":{"android":"levelo://app?vid=99ed4cb1-c592-47b8-a272-7bfe4bc44b56","ios":"levelo://app?vid=99ed4cb1-c592-47b8-a272-7bfe4bc44b56"},"vehicle_type_id":"4","last_reported":1720551975,"current_range_meters":19600,"station_id":"ce4bhs12rcd13ifvqhvg","pricing_plan_id":"cebpf4jnsgd1na2vs0mg"},{"bike_id":"4864e9d7-6bd3-4cbe-bb59-ded00b914f3d","system_id":"levelo_inurba_marseille","lat":43.324771,"lon":5.36557,"is_reserved":false,"is_disabled":false,"rental_uris":{"android":"levelo://app?vid=4864e9d7-6bd3-4cbe-bb59-ded00b914f3d","ios":"levelo://app?vid=4864e9d7-6bd3-4cbe-bb59-ded00b914f3d"},"vehicle_type_id":"4","last_reported":1720551975,"current_range_meters":0,"station_id":"ce4bhs12rcd13ifvqhvg","pricing_plan_id":"cebpf4jnsgd1na2vs0mg"},{"bike_id":"9dc9a6f5-5a77-4ad0-949e-5299f5781239","system_id":"levelo_inurba_marseille","lat":43.324771,"lon":5.36557,"is_reserved":false,"is_disabled":false,"rental_uris":{"android":"levelo://app?vid=9dc9a6f5-5a77-4ad0-949e-5299f5781239","ios":"levelo://app?vid=9dc9a6f5-5a77-4ad0-949e-5299f5781239"},"vehicle_type_id":"4","last_reported":1720551975,"current_range_meters":25600,"station_id":"ce4bhs12rcd13ifvqhvg","pricing_plan_id":"cebpf4jnsgd1na2vs0mg"},{"bike_id":"6c161ef7-e331-47e0-a311-7d3881f22d83","system_id":"levelo_inurba_marseille","lat":43.324771,"lon":5.36557,"is_reserved":false,"is_disabled":false,"rental_uris":{"android":"levelo://app?vid=6c161ef7-e331-47e0-a311-7d3881f22d83","ios":"levelo://app?vid=6c161ef7-e331-47e0-a311-7d3881f22d83"},"vehicle_type_id":"4","last_reported":1720551975,"current_range_meters":31600,"station_id":"ce4bhs12rcd13ifvqhvg","pricing_plan_id":"cebpf4jnsgd1na2vs0mg"},{"bike_id":"8d1e2405-9604-4698-bc47-8640b3e02eb8","system_id":"levelo_inurba_marseille","lat":43.324771,"lon":5.36557,"is_reserved":false,"is_disabled":false,"rental_uris":{"android":"levelo://app?vid=8d1e2405-9604-4698-bc47-8640b3e02eb8","ios":"levelo://app?vid=8d1e2405-9604-4698-bc47-8640b3e02eb8"},"vehicle_type_id":"4","last_reported":1720551975,"current_range_meters":6800,"station_id":"ce4bhs12rcd13ifvqhvg","pricing_plan_id":"cebpf4jnsgd1na2vs0mg"},{"bike_id":"54c37e49-f076-45e3-828b-61dd8da04feb","system_id":"levelo_inurba_marseille","lat":43.324771,"lon":5.36557,"is_reserved":false,"is_disabled":false,"rental_uris":{"android":"levelo://app?vid=54c37e49-f076-45e3-828b-61dd8da04feb","ios":"levelo://app?vid=54c37e49-f076-45e3-828b-61dd8da04feb"},"vehicle_type_id":"4","last_reported":1720551975,"current_range_meters":26400,"station_id":"ce4bhs12rcd13ifvqhvg","pricing_plan_id":"cebpf4jnsgd1na2vs0mg"},{"bike_id":"8ced7aaa-6723-4da1-b29e-eaa1acebe5a8","system_id":"levelo_inurba_marseille","lat":43.324771,"lon":5.36557,"is_reserved":false,"is_disabled":false,"rental_uris":{"android":"levelo://app?vid=8ced7aaa-6723-4da1-b29e-eaa1acebe5a8","ios":"levelo://app?vid=8ced7aaa-6723-4da1-b29e-eaa1acebe5a8"},"vehicle_type_id":"4","last_reported":1720551975,"current_range_meters":30800,"station_id":"ce4bhs12rcd13ifvqhvg","pricing_plan_id":"cebpf4jnsgd1na2vs0mg"},{"bike_id":"37a227cf-5ac6-4a9f-8964-734e74009f18","system_id":"levelo_inurba_marseille","lat":43.324771,"lon":5.36557,"is_reserved":false,"is_disabled":false,"rental_uris":{"android":"levelo://app?vid=37a227cf-5ac6-4a9f-8964-734e74009f18","ios":"levelo://app?vid=37a227cf-5ac6-4a9f-8964-734e74009f18"},"vehicle_type_id":"4","last_reported":1720551975,"current_range_meters":16000,"station_id":"ce4bhs12rcd13ifvqhvg","pricing_plan_id":"cebpf4jnsgd1na2vs0mg"},{"bike_id":"53860622-9335-4cff-acda-1e8f5c589221","system_id":"levelo_inurba_marseille","lat":43.324771,"lon":5.36557,"is_reserved":false,"is_disabled":false,"rental_uris":{"android":"levelo://app?vid=53860622-9335-4cff-acda-1e8f5c589221","ios":"levelo://app?vid=53860622-9335-4cff-acda-1e8f5c589221"},"vehicle_type_id":"4","last_reported":1720551975,"current_range_meters":26800,"station_id":"ce4bhs12rcd13ifvqhvg","pricing_plan_id":"cebpf4jnsgd1na2vs0mg"},{"bike_id":"c1aa7e40-5514-4d91-90f5-78e60593c7a1","system_id":"levelo_inurba_marseille","lat":43.324771,"lon":5.36557,"is_reserved":false,"is_disabled":false,"rental_uris":{"android":"levelo://app?vid=c1aa7e40-5514-4d91-90f5-78e60593c7a1","ios":"levelo://app?vid=c1aa7e40-5514-4d91-90f5-78e60593c7a1"},"vehicle_type_id":"4","last_reported":1720551975,"current_range_meters":31600,"station_id":"ce4bhs12rcd13ifvqhvg","pricing_plan_id":"cebpf4jnsgd1na2vs0mg"},{"bike_id":"2854fc22-ee9b-4be2-93ec-25bca00574cd","system_id":"levelo_inurba_marseille","lat":43.324771,"lon":5.36557,"is_reserved":false,"is_disabled":false,"rental_uris":{"android":"levelo://app?vid=2854fc22-ee9b-4be2-93ec-25bca00574cd","ios":"levelo://app?vid=2854fc22-ee9b-4be2-93ec-25bca00574cd"},"vehicle_type_id":"4","last_reported":1720551975,"current_range_meters":29600,"station_id":"ce4bhs12rcd13ifvqhvg","pricing_plan_id":"cebpf4jnsgd1na2vs0mg"},{"bike_id":"587d2a43-8a28-4715-84e8-5532e967a99f","system_id":"levelo_inurba_marseille","lat":43.31072,"lon":5.38355,"is_reserved":false,"is_disabled":false,"rental_uris":{"android":"levelo://app?vid=587d2a43-8a28-4715-84e8-5532e967a99f","ios":"levelo://app?vid=587d2a43-8a28-4715-84e8-5532e967a99f"},"vehicle_type_id":"4","last_reported":1720551975,"current_range_meters":27600,"station_id":"ce4bgv92rcd13ifvqcr0","pricing_plan_id":"cebpf4jnsgd1na2vs0mg"},{"bike_id":"ae9293c8-a279-4852-ad1a-3f5ac38693f2","system_id":"levelo_inurba_marseille","lat":43.31076,"lon":5.38356,"is_reserved":false,"is_disabled":false,"rental_uris":{"android":"levelo://app?vid=ae9293c8-a279-4852-ad1a-3f5ac38693f2","ios":"levelo://app?vid=ae9293c8-a279-4852-ad1a-3f5ac38693f2"},"vehicle_type_id":"4","last_reported":1720551975,"current_range_meters":0,"station_id":"ce4bgv92rcd13ifvqcr0","pricing_plan_id":"cebpf4jnsgd1na2vs0mg"},{"bike_id":"b26e99da-68a0-4d06-9c70-ab72c431cd88","system_id":"levelo_inurba_marseille","lat":43.308012,"lon":5.381511,"is_reserved":false,"is_disabled":false,"rental_uris":{"android":"levelo://app?vid=b26e99da-68a0-4d06-9c70-ab72c431cd88","ios":"levelo://app?vid=b26e99da-68a0-4d06-9c70-ab72c431cd88"},"vehicle_type_id":"4","last_reported":1720551975,"current_range_meters":1200,"station_id":"ce4bgt12rcd13ifvqce0","pricing_plan_id":"cebpf4jnsgd1na2vs0mg"},{"bike_id":"a19a51ff-0297-49b6-8865-e94545f8c00f","system_id":"levelo_inurba_marseille","lat":43.31078,"lon":5.383593,"is_reserved":false,"is_disabled":false,"rental_uris":{"android":"levelo://app?vid=a19a51ff-0297-49b6-8865-e94545f8c00f","ios":"levelo://app?vid=a19a51ff-0297-49b6-8865-e94545f8c00f"},"vehicle_type_id":"4","last_reported":1720551975,"current_range_meters":3200,"station_id":"ce4bgv92rcd13ifvqcr0","pricing_plan_id":"cebpf4jnsgd1na2vs0mg"},{"bike_id":"ca7e1b8b-0e0f-4c92-b03a-fac7f41c2587","system_id":"levelo_inurba_marseille","lat":43.310672,"lon":5.383699,"is_reserved":false,"is_disabled":false,"rental_uris":{"android":"levelo://app?vid=ca7e1b8b-0e0f-4c92-b03a-fac7f41c2587","ios":"levelo://app?vid=ca7e1b8b-0e0f-4c92-b03a-fac7f41c2587"},"vehicle_type_id":"4","last_reported":1720551975,"current_range_meters":30400,"station_id":"ce4bgv92rcd13ifvqcr0","pricing_plan_id":"cebpf4jnsgd1na2vs0mg"},{"bike_id":"716045c4-0438-4fe8-ae56-8095c43d2bec","system_id":"levelo_inurba_marseille","lat":43.30148,"lon":5.37421,"is_reserved":false,"is_disabled":false,"rental_uris":{"android":"levelo://app?vid=716045c4-0438-4fe8-ae56-8095c43d2bec","ios":"levelo://app?vid=716045c4-0438-4fe8-ae56-8095c43d2bec"},"vehicle_type_id":"4","last_reported":1720551975,"current_range_meters":0,"station_id":"ce4bgs92rcd13ifvqcc0","pricing_plan_id":"cebpf4jnsgd1na2vs0mg"},{"bike_id":"43b518c8-8530-4f0e-9fc3-bf1c015239c7","system_id":"levelo_inurba_marseille","lat":43.302784,"lon":5.377158,"is_reserved":false,"is_disabled":false,"rental_uris":{"android":"levelo://app?vid=43b518c8-8530-4f0e-9fc3-bf1c015239c7","ios":"levelo://app?vid=43b518c8-8530-4f0e-9fc3-bf1c015239c7"},"vehicle_type_id":"4","last_reported":1720551975,"current_range_meters":2400,"station_id":"ce4bguh2rcd13ifvqcj0","pricing_plan_id":"cebpf4jnsgd1na2vs0mg"},{"bike_id":"2feb4bbe-9e00-4cde-8cb2-2059611809a9","system_id":"levelo_inurba_marseille","lat":43.319935,"lon":5.381699,"is_reserved":false,"is_disabled":false,"rental_uris":{"android":"levelo://app?vid=2feb4bbe-9e00-4cde-8cb2-2059611809a9","ios":"levelo://app?vid=2feb4bbe-9e00-4cde-8cb2-2059611809a9"},"vehicle_type_id":"4","last_reported":1720551975,"current_range_meters":11600,"station_id":"ce4bhr12rcd13ifvqhpg","pricing_plan_id":"cebpf4jnsgd1na2vs0mg"},{"bike_id":"5aed19d5-03bf-47b9-bbc2-ddd2766f10ce","system_id":"levelo_inurba_marseille","lat":43.313571,"lon":5.384829,"is_reserved":false,"is_disabled":false,"rental_uris":{"android":"levelo://app?vid=5aed19d5-03bf-47b9-bbc2-ddd2766f10ce","ios":"levelo://app?vid=5aed19d5-03bf-47b9-bbc2-ddd2766f10ce"},"vehicle_type_id":"4","last_reported":1720551975,"current_range_meters":0,"station_id":"ce4bgt92rcd13ifvqcf0","pricing_plan_id":"cebpf4jnsgd1na2vs0mg"},{"bike_id":"a0d583fd-bb28-4bb6-ae81-412905e79283","system_id":"levelo_inurba_marseille","lat":43.299222,"lon":5.365554,"is_reserved":false,"is_disabled":false,"rental_uris":{"android":"levelo://app?vid=a0d583fd-bb28-4bb6-ae81-412905e79283","ios":"levelo://app?vid=a0d583fd-bb28-4bb6-ae81-412905e79283"},"vehicle_type_id":"4","last_reported":1720551975,"current_range_meters":24800,"station_id":"ce4bgm92rcd13ifvqbr0","pricing_plan_id":"cebpf4jnsgd1na2vs0mg"},{"bike_id":"254833dc-d897-4bed-8fd1-b7539cbac8c1","system_id":"levelo_inurba_marseille","lat":43.299724,"lon":5.371829,"is_reserved":false,"is_disabled":false,"rental_uris":{"android":"levelo://app?vid=254833dc-d897-4bed-8fd1-b7539cbac8c1","ios":"levelo://app?vid=254833dc-d897-4bed-8fd1-b7539cbac8c1"},"vehicle_type_id":"4","last_reported":1720551975,"current_range_meters":21600,"station_id":"ce4bgr92rcd13ifvqc7g","pricing_plan_id":"cebpf4jnsgd1na2vs0mg"},{"bike_id":"05a85d04-1b93-4fc3-9c5b-aec9447fb51e","system_id":"levelo_inurba_marseille","lat":43.299724,"lon":5.371829,"is_reserved":false,"is_disabled":false,"rental_uris":{"android":"levelo://app?vid=05a85d04-1b93-4fc3-9c5b-aec9447fb51e","ios":"levelo://app?vid=05a85d04-1b93-4fc3-9c5b-aec9447fb51e"},"vehicle_type_id":"4","last_reported":1720551975,"current_range_meters":14400,"station_id":"ce4bgr92rcd13ifvqc7g","pricing_plan_id":"cebpf4jnsgd1na2vs0mg"},{"bike_id":"11da334d-8db6-416b-b5c3-c48bb3466f8c","system_id":"levelo_inurba_marseille","lat":43.298433,"lon":5.362774,"is_reserved":false,"is_disabled":false,"rental_uris":{"android":"levelo://app?vid=11da334d-8db6-416b-b5c3-c48bb3466f8c","ios":"levelo://app?vid=11da334d-8db6-416b-b5c3-c48bb3466f8c"},"vehicle_type_id":"4","last_reported":1720551975,"current_range_meters":4000,"station_id":"ce4bgpp2rcd13ifvqc3g","pricing_plan_id":"cebpf4jnsgd1na2vs0mg"},{"bike_id":"fcc44a6b-abb6-4f59-aa0b-bd1f2e06e659","system_id":"levelo_inurba_marseille","lat":43.298433,"lon":5.362774,"is_reserved":false,"is_disabled":false,"rental_uris":{"android":"levelo://app?vid=fcc44a6b-abb6-4f59-aa0b-bd1f2e06e659","ios":"levelo://app?vid=fcc44a6b-abb6-4f59-aa0b-bd1f2e06e659"},"vehicle_type_id":"4","last_reported":1720551975,"current_range_meters":30800,"station_id":"ce4bgpp2rcd13ifvqc3g","pricing_plan_id":"cebpf4jnsgd1na2vs0mg"},{"bike_id":"48d3e1bf-8461-4307-bab1-9ace9f3d4721","system_id":"levelo_inurba_marseille","lat":43.299243,"lon":5.37481,"is_reserved":false,"is_disabled":false,"rental_uris":{"android":"levelo://app?vid=48d3e1bf-8461-4307-bab1-9ace9f3d4721","ios":"levelo://app?vid=48d3e1bf-8461-4307-bab1-9ace9f3d4721"},"vehicle_type_id":"4","last_reported":1720551975,"current_range_meters":15600,"station_id":"ce4bgjh2rcd13ifvqbg0","pricing_plan_id":"cebpf4jnsgd1na2vs0mg"},{"bike_id":"cbcf3ffb-369a-4871-83a1-dce035cb1294","system_id":"levelo_inurba_marseille","lat":43.299243,"lon":5.37481,"is_reserved":false,"is_disabled":false,"rental_uris":{"android":"levelo://app?vid=cbcf3ffb-369a-4871-83a1-dce035cb1294","ios":"levelo://app?vid=cbcf3ffb-369a-4871-83a1-dce035cb1294"},"vehicle_type_id":"4","last_reported":1720551975,"current_range_meters":14800,"station_id":"ce4bgjh2rcd13ifvqbg0","pricing_plan_id":"cebpf4jnsgd1na2vs0mg"},{"bike_id":"f2ef8d9a-064f-45d0-8ebb-e5111d7335fb","system_id":"levelo_inurba_marseille","lat":43.2991,"lon":5.37462,"is_reserved":false,"is_disabled":false,"rental_uris":{"android":"levelo://app?vid=f2ef8d9a-064f-45d0-8ebb-e5111d7335fb","ios":"levelo://app?vid=f2ef8d9a-064f-45d0-8ebb-e5111d7335fb"},"vehicle_type_id":"4","last_reported":1720551975,"current_range_meters":0,"station_id":"ce4bgjh2rcd13ifvqbg0","pricing_plan_id":"cebpf4jnsgd1na2vs0mg"},{"bike_id":"51fd6b2b-f06e-4502-8de2-6649cb519055","system_id":"levelo_inurba_marseille","lat":43.311722,"lon":5.387247,"is_reserved":false,"is_disabled":false,"rental_uris":{"android":"levelo://app?vid=51fd6b2b-f06e-4502-8de2-6649cb519055","ios":"levelo://app?vid=51fd6b2b-f06e-4502-8de2-6649cb519055"},"vehicle_type_id":"4","last_reported":1720551975,"current_range_meters":10800,"station_id":"ce4bgv12rcd13ifvqcp0","pricing_plan_id":"cebpf4jnsgd1na2vs0mg"},{"bike_id":"365844af-d7a7-4768-bff2-a1bad0c873c0","system_id":"levelo_inurba_marseille","lat":43.311722,"lon":5.387247,"is_reserved":false,"is_disabled":false,"rental_uris":{"android":"levelo://app?vid=365844af-d7a7-4768-bff2-a1bad0c873c0","ios":"levelo://app?vid=365844af-d7a7-4768-bff2-a1bad0c873c0"},"vehicle_type_id":"4","last_reported":1720551975,"current_range_meters":28400,"station_id":"ce4bgv12rcd13ifvqcp0","pricing_plan_id":"cebpf4jnsgd1na2vs0mg"},{"bike_id":"3f445714-56fe-4e28-9272-1c8b3d57f0a5","system_id":"levelo_inurba_marseille","lat":43.29776,"lon":5.37107,"is_reserved":false,"is_disabled":false,"rental_uris":{"android":"levelo://app?vid=3f445714-56fe-4e28-9272-1c8b3d57f0a5","ios":"levelo://app?vid=3f445714-56fe-4e28-9272-1c8b3d57f0a5"},"vehicle_type_id":"4","last_reported":1720551975,"current_range_meters":6400,"station_id":"ce4bgop2rcd13ifvqc1g","pricing_plan_id":"cebpf4jnsgd1na2vs0mg"},{"bike_id":"94832a7f-7025-477a-99dd-90c90c29be65","system_id":"levelo_inurba_marseille","lat":43.322897,"lon":5.382693,"is_reserved":false,"is_disabled":false,"rental_uris":{"android":"levelo://app?vid=94832a7f-7025-477a-99dd-90c90c29be65","ios":"levelo://app?vid=94832a7f-7025-477a-99dd-90c90c29be65"},"vehicle_type_id":"4","last_reported":1720551975,"current_range_meters":28800,"station_id":"ce4bhr12rcd13ifvqhqg","pricing_plan_id":"cebpf4jnsgd1na2vs0mg"},{"bike_id":"047acd25-5fba-47af-80a1-1761dc9a6eb4","system_id":"levelo_inurba_marseille","lat":43.322872,"lon":5.382756,"is_reserved":false,"is_disabled":false,"rental_uris":{"android":"levelo://app?vid=047acd25-5fba-47af-80a1-1761dc9a6eb4","ios":"levelo://app?vid=047acd25-5fba-47af-80a1-1761dc9a6eb4"},"vehicle_type_id":"4","last_reported":1720551975,"current_range_meters":19200,"station_id":"ce4bhr12rcd13ifvqhqg","pricing_plan_id":"cebpf4jnsgd1na2vs0mg"},{"bike_id":"ee1d6261-6634-48d1-aabf-791d04558c7d","system_id":"levelo_inurba_marseille","lat":43.322872,"lon":5.382756,"is_reserved":false,"is_disabled":false,"rental_uris":{"android":"levelo://app?vid=ee1d6261-6634-48d1-aabf-791d04558c7d","ios":"levelo://app?vid=ee1d6261-6634-48d1-aabf-791d04558c7d"},"vehicle_type_id":"4","last_reported":1720551975,"current_range_meters":1200,"station_id":"ce4bhr12rcd13ifvqhqg","pricing_plan_id":"cebpf4jnsgd1na2vs0mg"},{"bike_id":"f9e00d0b-53b7-477d-8fca-a8f67d0af182","system_id":"levelo_inurba_marseille","lat":43.322872,"lon":5.382756,"is_reserved":false,"is_disabled":false,"rental_uris":{"android":"levelo://app?vid=f9e00d0b-53b7-477d-8fca-a8f67d0af182","ios":"levelo://app?vid=f9e00d0b-53b7-477d-8fca-a8f67d0af182"},"vehicle_type_id":"4","last_reported":1720551975,"current_range_meters":5200,"station_id":"ce4bhr12rcd13ifvqhqg","pricing_plan_id":"cebpf4jnsgd1na2vs0mg"},{"bike_id":"64e7a413-72e6-4301-be6d-4730b57fc15f","system_id":"levelo_inurba_marseille","lat":43.299243,"lon":5.374807,"is_reserved":false,"is_disabled":false,"rental_uris":{"android":"levelo://app?vid=64e7a413-72e6-4301-be6d-4730b57fc15f","ios":"levelo://app?vid=64e7a413-72e6-4301-be6d-4730b57fc15f"},"vehicle_type_id":"4","last_reported":1720551975,"current_range_meters":25600,"station_id":"ce4bgjh2rcd13ifvqbg0","pricing_plan_id":"cebpf4jnsgd1na2vs0mg"},{"bike_id":"c88aa81a-8a20-4cde-8288-c48f1c37d7f9","system_id":"levelo_inurba_marseille","lat":43.297163,"lon":5.365866,"is_reserved":false,"is_disabled":false,"rental_uris":{"android":"levelo://app?vid=c88aa81a-8a20-4cde-8288-c48f1c37d7f9","ios":"levelo://app?vid=c88aa81a-8a20-4cde-8288-c48f1c37d7f9"},"vehicle_type_id":"4","last_reported":1720551975,"current_range_meters":24800,"station_id":"ce4bgn12rcd13ifvqbt0","pricing_plan_id":"cebpf4jnsgd1na2vs0mg"},{"bike_id":"1adc4ade-2a2b-48de-a69f-f2ba0246906e","system_id":"levelo_inurba_marseille","lat":43.297163,"lon":5.365866,"is_reserved":false,"is_disabled":false,"rental_uris":{"android":"levelo://app?vid=1adc4ade-2a2b-48de-a69f-f2ba0246906e","ios":"levelo://app?vid=1adc4ade-2a2b-48de-a69f-f2ba0246906e"},"vehicle_type_id":"4","last_reported":1720551975,"current_range_meters":4000,"station_id":"ce4bgn12rcd13ifvqbt0","pricing_plan_id":"cebpf4jnsgd1na2vs0mg"},{"bike_id":"eb527e9f-d398-459c-8996-4016f31868c7","system_id":"levelo_inurba_marseille","lat":43.297163,"lon":5.365866,"is_reserved":false,"is_disabled":false,"rental_uris":{"android":"levelo://app?vid=eb527e9f-d398-459c-8996-4016f31868c7","ios":"levelo://app?vid=eb527e9f-d398-459c-8996-4016f31868c7"},"vehicle_type_id":"4","last_reported":1720551975,"current_range_meters":11600,"station_id":"ce4bgn12rcd13ifvqbt0","pricing_plan_id":"cebpf4jnsgd1na2vs0mg"},{"bike_id":"d11b183b-4694-414c-934e-9dd4d475eb5f","system_id":"levelo_inurba_marseille","lat":43.317557,"lon":5.390173,"is_reserved":false,"is_disabled":false,"rental_uris":{"android":"levelo://app?vid=d11b183b-4694-414c-934e-9dd4d475eb5f","ios":"levelo://app?vid=d11b183b-4694-414c-934e-9dd4d475eb5f"},"vehicle_type_id":"4","last_reported":1720551975,"current_range_meters":4800,"station_id":"ce4bhqp2rcd13ifvqhng","pricing_plan_id":"cebpf4jnsgd1na2vs0mg"},{"bike_id":"6c9a936e-6832-4719-b83a-996ef93c2513","system_id":"levelo_inurba_marseille","lat":43.29715,"lon":5.37688,"is_reserved":false,"is_disabled":false,"rental_uris":{"android":"levelo://app?vid=6c9a936e-6832-4719-b83a-996ef93c2513","ios":"levelo://app?vid=6c9a936e-6832-4719-b83a-996ef93c2513"},"vehicle_type_id":"4","last_reported":1720551975,"current_range_meters":0,"station_id":"ce4bgkh2rcd13ifvqbl0","pricing_plan_id":"cebpf4jnsgd1na2vs0mg"},{"bike_id":"57d121ba-d5d2-4d65-8f2c-388d348f0fab","system_id":"levelo_inurba_marseille","lat":43.296921,"lon":5.376579,"is_reserved":false,"is_disabled":false,"rental_uris":{"android":"levelo://app?vid=57d121ba-d5d2-4d65-8f2c-388d348f0fab","ios":"levelo://app?vid=57d121ba-d5d2-4d65-8f2c-388d348f0fab"},"vehicle_type_id":"4","last_reported":1720551975,"current_range_meters":0,"station_id":"ce4bgkh2rcd13ifvqbl0","pricing_plan_id":"cebpf4jnsgd1na2vs0mg"},{"bike_id":"908ac1f8-259c-4bd2-84a3-472189f189b6","system_id":"levelo_inurba_marseille","lat":43.296935,"lon":5.376544,"is_reserved":false,"is_disabled":false,"rental_uris":{"android":"levelo://app?vid=908ac1f8-259c-4bd2-84a3-472189f189b6","ios":"levelo://app?vid=908ac1f8-259c-4bd2-84a3-472189f189b6"},"vehicle_type_id":"4","last_reported":1720551975,"current_range_meters":2400,"station_id":"ce4bgkh2rcd13ifvqbl0","pricing_plan_id":"cebpf4jnsgd1na2vs0mg"},{"bike_id":"913d7463-5b15-4ef5-81fd-5c51462dd91d","system_id":"levelo_inurba_marseille","lat":43.309589,"lon":5.390258,"is_reserved":false,"is_disabled":false,"rental_uris":{"android":"levelo://app?vid=913d7463-5b15-4ef5-81fd-5c51462dd91d","ios":"levelo://app?vid=913d7463-5b15-4ef5-81fd-5c51462dd91d"},"vehicle_type_id":"4","last_reported":1720551975,"current_range_meters":0,"station_id":"ce4bgup2rcd13ifvqco0","pricing_plan_id":"cebpf4jnsgd1na2vs0mg"},{"bike_id":"8b88bf01-5cdc-4562-825e-9e5541eaa27e","system_id":"levelo_inurba_marseille","lat":43.317557,"lon":5.390173,"is_reserved":false,"is_disabled":false,"rental_uris":{"android":"levelo://app?vid=8b88bf01-5cdc-4562-825e-9e5541eaa27e","ios":"levelo://app?vid=8b88bf01-5cdc-4562-825e-9e5541eaa27e"},"vehicle_type_id":"4","last_reported":1720551975,"current_range_meters":29200,"station_id":"ce4bhqp2rcd13ifvqhng","pricing_plan_id":"cebpf4jnsgd1na2vs0mg"},{"bike_id":"720eb77c-fd74-41ef-82f7-ca0f19bebcbc","system_id":"levelo_inurba_marseille","lat":43.317557,"lon":5.390173,"is_reserved":false,"is_disabled":false,"rental_uris":{"android":"levelo://app?vid=720eb77c-fd74-41ef-82f7-ca0f19bebcbc","ios":"levelo://app?vid=720eb77c-fd74-41ef-82f7-ca0f19bebcbc"},"vehicle_type_id":"4","last_reported":1720551975,"current_range_meters":1600,"station_id":"ce4bhqp2rcd13ifvqhng","pricing_plan_id":"cebpf4jnsgd1na2vs0mg"},{"bike_id":"cee80b6d-d427-4dcd-b28b-051781581dae","system_id":"levelo_inurba_marseille","lat":43.317557,"lon":5.390173,"is_reserved":false,"is_disabled":false,"rental_uris":{"android":"levelo://app?vid=cee80b6d-d427-4dcd-b28b-051781581dae","ios":"levelo://app?vid=cee80b6d-d427-4dcd-b28b-051781581dae"},"vehicle_type_id":"4","last_reported":1720551975,"current_range_meters":400,"station_id":"ce4bhqp2rcd13ifvqhng","pricing_plan_id":"cebpf4jnsgd1na2vs0mg"},{"bike_id":"799dd768-1826-43a9-b6a0-115a8af89ba5","system_id":"levelo_inurba_marseille","lat":43.295843,"lon":5.375031,"is_reserved":false,"is_disabled":false,"rental_uris":{"android":"levelo://app?vid=799dd768-1826-43a9-b6a0-115a8af89ba5","ios":"levelo://app?vid=799dd768-1826-43a9-b6a0-115a8af89ba5"},"vehicle_type_id":"4","last_reported":1720551975,"current_range_meters":0,"station_id":"ce4bgh92rcd13ifvqb50","pricing_plan_id":"cebpf4jnsgd1na2vs0mg"},{"bike_id":"b0884afd-abd9-4f97-9ad4-67e065a3be30","system_id":"levelo_inurba_marseille","lat":43.295815,"lon":5.375138,"is_reserved":false,"is_disabled":false,"rental_uris":{"android":"levelo://app?vid=b0884afd-abd9-4f97-9ad4-67e065a3be30","ios":"levelo://app?vid=b0884afd-abd9-4f97-9ad4-67e065a3be30"},"vehicle_type_id":"4","last_reported":1720551975,"current_range_meters":31200,"station_id":"ce4bgh92rcd13ifvqb50","pricing_plan_id":"cebpf4jnsgd1na2vs0mg"},{"bike_id":"24b838b7-e5b2-4c60-b34e-51c2244b3d5a","system_id":"levelo_inurba_marseille","lat":43.298037,"lon":5.381066,"is_reserved":false,"is_disabled":false,"rental_uris":{"android":"levelo://app?vid=24b838b7-e5b2-4c60-b34e-51c2244b3d5a","ios":"levelo://app?vid=24b838b7-e5b2-4c60-b34e-51c2244b3d5a"},"vehicle_type_id":"4","last_reported":1720551975,"current_range_meters":15600,"station_id":"ce4bgip2rcd13ifvqbb0","pricing_plan_id":"cebpf4jnsgd1na2vs0mg"},{"bike_id":"19ab48d1-f6d4-409c-b854-3776087fd69b","system_id":"levelo_inurba_marseille","lat":43.295748,"lon":5.37522,"is_reserved":false,"is_disabled":false,"rental_uris":{"android":"levelo://app?vid=19ab48d1-f6d4-409c-b854-3776087fd69b","ios":"levelo://app?vid=19ab48d1-f6d4-409c-b854-3776087fd69b"},"vehicle_type_id":"4","last_reported":1720551975,"current_range_meters":29600,"station_id":"ce4bgh92rcd13ifvqb50","pricing_plan_id":"cebpf4jnsgd1na2vs0mg"},{"bike_id":"d20253c8-26ff-4c6d-995b-d99041ed56b0","system_id":"levelo_inurba_marseille","lat":43.295748,"lon":5.37522,"is_reserved":false,"is_disabled":false,"rental_uris":{"android":"levelo://app?vid=d20253c8-26ff-4c6d-995b-d99041ed56b0","ios":"levelo://app?vid=d20253c8-26ff-4c6d-995b-d99041ed56b0"},"vehicle_type_id":"4","last_reported":1720551975,"current_range_meters":28000,"station_id":"ce4bgh92rcd13ifvqb50","pricing_plan_id":"cebpf4jnsgd1na2vs0mg"},{"bike_id":"0a210975-fb26-4933-b517-d3c20e9466a7","system_id":"levelo_inurba_marseille","lat":43.298037,"lon":5.381066,"is_reserved":false,"is_disabled":false,"rental_uris":{"android":"levelo://app?vid=0a210975-fb26-4933-b517-d3c20e9466a7","ios":"levelo://app?vid=0a210975-fb26-4933-b517-d3c20e9466a7"},"vehicle_type_id":"4","last_reported":1720551975,"current_range_meters":19600,"station_id":"ce4bgip2rcd13ifvqbb0","pricing_plan_id":"cebpf4jnsgd1na2vs0mg"},{"bike_id":"7502afd7-927a-4b00-9a15-b52f41ae9f13","system_id":"levelo_inurba_marseille","lat":43.295748,"lon":5.37522,"is_reserved":false,"is_disabled":false,"rental_uris":{"android":"levelo://app?vid=7502afd7-927a-4b00-9a15-b52f41ae9f13","ios":"levelo://app?vid=7502afd7-927a-4b00-9a15-b52f41ae9f13"},"vehicle_type_id":"4","last_reported":1720551975,"current_range_meters":0,"station_id":"ce4bgh92rcd13ifvqb50","pricing_plan_id":"cebpf4jnsgd1na2vs0mg"},{"bike_id":"599dcc4f-b21f-476a-a012-88254086646f","system_id":"levelo_inurba_marseille","lat":43.298037,"lon":5.381066,"is_reserved":false,"is_disabled":false,"rental_uris":{"android":"levelo://app?vid=599dcc4f-b21f-476a-a012-88254086646f","ios":"levelo://app?vid=599dcc4f-b21f-476a-a012-88254086646f"},"vehicle_type_id":"4","last_reported":1720551975,"current_range_meters":1200,"station_id":"ce4bgip2rcd13ifvqbb0","pricing_plan_id":"cebpf4jnsgd1na2vs0mg"},{"bike_id":"2ccb4b48-9198-4fc4-88b0-08ad391b692d","system_id":"levelo_inurba_marseille","lat":43.295279,"lon":5.375048,"is_reserved":false,"is_disabled":false,"rental_uris":{"android":"levelo://app?vid=2ccb4b48-9198-4fc4-88b0-08ad391b692d","ios":"levelo://app?vid=2ccb4b48-9198-4fc4-88b0-08ad391b692d"},"vehicle_type_id":"4","last_reported":1720551975,"current_range_meters":14000,"station_id":"ce4bgkp2rcd13ifvqbmg","pricing_plan_id":"cebpf4jnsgd1na2vs0mg"},{"bike_id":"bf2f812f-8de2-4be9-9a7b-7e61c506f6b3","system_id":"levelo_inurba_marseille","lat":43.29532,"lon":5.37497,"is_reserved":false,"is_disabled":false,"rental_uris":{"android":"levelo://app?vid=bf2f812f-8de2-4be9-9a7b-7e61c506f6b3","ios":"levelo://app?vid=bf2f812f-8de2-4be9-9a7b-7e61c506f6b3"},"vehicle_type_id":"4","last_reported":1720551975,"current_range_meters":0,"station_id":"ce4bgkp2rcd13ifvqbmg","pricing_plan_id":"cebpf4jnsgd1na2vs0mg"},{"bike_id":"285c6422-c51a-47a5-b400-55083974f8d6","system_id":"levelo_inurba_marseille","lat":43.295311,"lon":5.375066,"is_reserved":false,"is_disabled":false,"rental_uris":{"android":"levelo://app?vid=285c6422-c51a-47a5-b400-55083974f8d6","ios":"levelo://app?vid=285c6422-c51a-47a5-b400-55083974f8d6"},"vehicle_type_id":"4","last_reported":1720551975,"current_range_meters":0,"station_id":"ce4bgkp2rcd13ifvqbmg","pricing_plan_id":"cebpf4jnsgd1na2vs0mg"},{"bike_id":"f3370672-9258-45ad-a733-5f723326b6c9","system_id":"levelo_inurba_marseille","lat":43.29528,"lon":5.37502,"is_reserved":false,"is_disabled":false,"rental_uris":{"android":"levelo://app?vid=f3370672-9258-45ad-a733-5f723326b6c9","ios":"levelo://app?vid=f3370672-9258-45ad-a733-5f723326b6c9"},"vehicle_type_id":"4","last_reported":1720551975,"current_range_meters":0,"station_id":"ce4bgkp2rcd13ifvqbmg","pricing_plan_id":"cebpf4jnsgd1na2vs0mg"},{"bike_id":"5cad854a-e2ed-411f-969c-daa576bde1b2","system_id":"levelo_inurba_marseille","lat":43.321825,"lon":5.389389,"is_reserved":false,"is_disabled":false,"rental_uris":{"android":"levelo://app?vid=5cad854a-e2ed-411f-969c-daa576bde1b2","ios":"levelo://app?vid=5cad854a-e2ed-411f-969c-daa576bde1b2"},"vehicle_type_id":"4","last_reported":1720551975,"current_range_meters":4000,"station_id":"","pricing_plan_id":"cebpf4jnsgd1na2vs0mg"},{"bike_id":"0cce014d-2933-4d71-9240-d7ed8ee4db0e","system_id":"levelo_inurba_marseille","lat":43.301396,"lon":5.387812,"is_reserved":false,"is_disabled":false,"rental_uris":{"android":"levelo://app?vid=0cce014d-2933-4d71-9240-d7ed8ee4db0e","ios":"levelo://app?vid=0cce014d-2933-4d71-9240-d7ed8ee4db0e"},"vehicle_type_id":"4","last_reported":1720551975,"current_range_meters":12800,"station_id":"ce4bghh2rcd13ifvqb60","pricing_plan_id":"cebpf4jnsgd1na2vs0mg"},{"bike_id":"c061e8dd-abdc-4292-9846-d7ff7ba57c35","system_id":"levelo_inurba_marseille","lat":43.301396,"lon":5.387812,"is_reserved":false,"is_disabled":false,"rental_uris":{"android":"levelo://app?vid=c061e8dd-abdc-4292-9846-d7ff7ba57c35","ios":"levelo://app?vid=c061e8dd-abdc-4292-9846-d7ff7ba57c35"},"vehicle_type_id":"4","last_reported":1720551975,"current_range_meters":31200,"station_id":"ce4bghh2rcd13ifvqb60","pricing_plan_id":"cebpf4jnsgd1na2vs0mg"},{"bike_id":"2230c158-f258-400b-819a-c18c7afff1f5","system_id":"levelo_inurba_marseille","lat":43.301396,"lon":5.387812,"is_reserved":false,"is_disabled":false,"rental_uris":{"android":"levelo://app?vid=2230c158-f258-400b-819a-c18c7afff1f5","ios":"levelo://app?vid=2230c158-f258-400b-819a-c18c7afff1f5"},"vehicle_type_id":"4","last_reported":1720551975,"current_range_meters":31200,"station_id":"ce4bghh2rcd13ifvqb60","pricing_plan_id":"cebpf4jnsgd1na2vs0mg"},{"bike_id":"e109585b-c93f-4dc4-b6fe-c0e191812cea","system_id":"levelo_inurba_marseille","lat":43.301396,"lon":5.387812,"is_reserved":false,"is_disabled":false,"rental_uris":{"android":"levelo://app?vid=e109585b-c93f-4dc4-b6fe-c0e191812cea","ios":"levelo://app?vid=e109585b-c93f-4dc4-b6fe-c0e191812cea"},"vehicle_type_id":"4","last_reported":1720551975,"current_range_meters":31200,"station_id":"ce4bghh2rcd13ifvqb60","pricing_plan_id":"cebpf4jnsgd1na2vs0mg"},{"bike_id":"3f93d65a-8649-4304-8d24-6b33345a5b56","system_id":"levelo_inurba_marseille","lat":43.301396,"lon":5.387812,"is_reserved":false,"is_disabled":false,"rental_uris":{"android":"levelo://app?vid=3f93d65a-8649-4304-8d24-6b33345a5b56","ios":"levelo://app?vid=3f93d65a-8649-4304-8d24-6b33345a5b56"},"vehicle_type_id":"4","last_reported":1720551975,"current_range_meters":26400,"station_id":"ce4bghh2rcd13ifvqb60","pricing_plan_id":"cebpf4jnsgd1na2vs0mg"},{"bike_id":"8e2e87b8-fca0-4ceb-822d-7a6afa277df2","system_id":"levelo_inurba_marseille","lat":43.29382,"lon":5.36245,"is_reserved":false,"is_disabled":false,"rental_uris":{"android":"levelo://app?vid=8e2e87b8-fca0-4ceb-822d-7a6afa277df2","ios":"levelo://app?vid=8e2e87b8-fca0-4ceb-822d-7a6afa277df2"},"vehicle_type_id":"4","last_reported":1720551975,"current_range_meters":5600,"station_id":"","pricing_plan_id":"cebpf4jnsgd1na2vs0mg"},{"bike_id":"166c9e9f-8d28-4c17-bfaa-0fe4d7982621","system_id":"levelo_inurba_marseille","lat":43.32367,"lon":5.388836,"is_reserved":false,"is_disabled":false,"rental_uris":{"android":"levelo://app?vid=166c9e9f-8d28-4c17-bfaa-0fe4d7982621","ios":"levelo://app?vid=166c9e9f-8d28-4c17-bfaa-0fe4d7982621"},"vehicle_type_id":"4","last_reported":1720551975,"current_range_meters":27200,"station_id":"ce4bhqp2rcd13ifvqhog","pricing_plan_id":"cebpf4jnsgd1na2vs0mg"},{"bike_id":"ab183e88-5807-492c-98ba-9858dfa2a2c9","system_id":"levelo_inurba_marseille","lat":43.32367,"lon":5.388836,"is_reserved":false,"is_disabled":false,"rental_uris":{"android":"levelo://app?vid=ab183e88-5807-492c-98ba-9858dfa2a2c9","ios":"levelo://app?vid=ab183e88-5807-492c-98ba-9858dfa2a2c9"},"vehicle_type_id":"4","last_reported":1720551975,"current_range_meters":4400,"station_id":"ce4bhqp2rcd13ifvqhog","pricing_plan_id":"cebpf4jnsgd1na2vs0mg"},{"bike_id":"57227e79-b036-4795-89f9-e308b66736f8","system_id":"levelo_inurba_marseille","lat":43.29344,"lon":5.37113,"is_reserved":false,"is_disabled":false,"rental_uris":{"android":"levelo://app?vid=57227e79-b036-4795-89f9-e308b66736f8","ios":"levelo://app?vid=57227e79-b036-4795-89f9-e308b66736f8"},"vehicle_type_id":"4","last_reported":1720551975,"current_range_meters":0,"station_id":"","pricing_plan_id":"cebpf4jnsgd1na2vs0mg"},{"bike_id":"fc5af061-4037-44a4-a732-5aa897d4c07e","system_id":"levelo_inurba_marseille","lat":43.2961,"lon":5.38108,"is_reserved":false,"is_disabled":false,"rental_uris":{"android":"levelo://app?vid=fc5af061-4037-44a4-a732-5aa897d4c07e","ios":"levelo://app?vid=fc5af061-4037-44a4-a732-5aa897d4c07e"},"vehicle_type_id":"4","last_reported":1720551975,"current_range_meters":16400,"station_id":"ce4bgl12rcd13ifvqbo0","pricing_plan_id":"cebpf4jnsgd1na2vs0mg"},{"bike_id":"b82a9eeb-0eef-42dc-9849-f8b8b33b0619","system_id":"levelo_inurba_marseille","lat":43.29601,"lon":5.38088,"is_reserved":false,"is_disabled":false,"rental_uris":{"android":"levelo://app?vid=b82a9eeb-0eef-42dc-9849-f8b8b33b0619","ios":"levelo://app?vid=b82a9eeb-0eef-42dc-9849-f8b8b33b0619"},"vehicle_type_id":"4","last_reported":1720551975,"current_range_meters":1600,"station_id":"ce4bgl12rcd13ifvqbo0","pricing_plan_id":"cebpf4jnsgd1na2vs0mg"},{"bike_id":"b46d8684-4f6e-4ef0-a2df-fe23f3e33bc8","system_id":"levelo_inurba_marseille","lat":43.296047,"lon":5.380967,"is_reserved":false,"is_disabled":false,"rental_uris":{"android":"levelo://app?vid=b46d8684-4f6e-4ef0-a2df-fe23f3e33bc8","ios":"levelo://app?vid=b46d8684-4f6e-4ef0-a2df-fe23f3e33bc8"},"vehicle_type_id":"4","last_reported":1720551975,"current_range_meters":4000,"station_id":"ce4bgl12rcd13ifvqbo0","pricing_plan_id":"cebpf4jnsgd1na2vs0mg"},{"bike_id":"c12583e5-b4d6-45e2-a458-8799a1f033b8","system_id":"levelo_inurba_marseille","lat":43.3193,"lon":5.39236,"is_reserved":false,"is_disabled":false,"rental_uris":{"android":"levelo://app?vid=c12583e5-b4d6-45e2-a458-8799a1f033b8","ios":"levelo://app?vid=c12583e5-b4d6-45e2-a458-8799a1f033b8"},"vehicle_type_id":"4","last_reported":1720551975,"current_range_meters":6800,"station_id":"","pricing_plan_id":"cebpf4jnsgd1na2vs0mg"},{"bike_id":"79964e03-94ff-445e-b918-a1907397f0fb","system_id":"levelo_inurba_marseille","lat":43.29599,"lon":5.38106,"is_reserved":false,"is_disabled":false,"rental_uris":{"android":"levelo://app?vid=79964e03-94ff-445e-b918-a1907397f0fb","ios":"levelo://app?vid=79964e03-94ff-445e-b918-a1907397f0fb"},"vehicle_type_id":"4","last_reported":1720551975,"current_range_meters":7600,"station_id":"ce4bgl12rcd13ifvqbo0","pricing_plan_id":"cebpf4jnsgd1na2vs0mg"},{"bike_id":"c1f0865b-58c8-47c5-9451-746498e0cec6","system_id":"levelo_inurba_marseille","lat":43.29314,"lon":5.37171,"is_reserved":false,"is_disabled":false,"rental_uris":{"android":"levelo://app?vid=c1f0865b-58c8-47c5-9451-746498e0cec6","ios":"levelo://app?vid=c1f0865b-58c8-47c5-9451-746498e0cec6"},"vehicle_type_id":"4","last_reported":1720551975,"current_range_meters":0,"station_id":"ce4bgh92rcd13ifvqb40","pricing_plan_id":"cebpf4jnsgd1na2vs0mg"},{"bike_id":"f4056ca7-168a-4587-9ab6-93e1cd8cd2ad","system_id":"levelo_inurba_marseille","lat":43.29312,"lon":5.37167,"is_reserved":false,"is_disabled":false,"rental_uris":{"android":"levelo://app?vid=f4056ca7-168a-4587-9ab6-93e1cd8cd2ad","ios":"levelo://app?vid=f4056ca7-168a-4587-9ab6-93e1cd8cd2ad"},"vehicle_type_id":"4","last_reported":1720551975,"current_range_meters":0,"station_id":"ce4bgh92rcd13ifvqb40","pricing_plan_id":"cebpf4jnsgd1na2vs0mg"},{"bike_id":"c217d58b-df4d-4dfa-9c0a-5d36f9dcbdd7","system_id":"levelo_inurba_marseille","lat":43.29311,"lon":5.37161,"is_reserved":false,"is_disabled":false,"rental_uris":{"android":"levelo://app?vid=c217d58b-df4d-4dfa-9c0a-5d36f9dcbdd7","ios":"levelo://app?vid=c217d58b-df4d-4dfa-9c0a-5d36f9dcbdd7"},"vehicle_type_id":"4","last_reported":1720551975,"current_range_meters":11200,"station_id":"ce4bgh92rcd13ifvqb40","pricing_plan_id":"cebpf4jnsgd1na2vs0mg"},{"bike_id":"6b41869d-3ecf-41f6-b6d6-fe4b0c9b93a6","system_id":"levelo_inurba_marseille","lat":43.29311,"lon":5.37168,"is_reserved":false,"is_disabled":false,"rental_uris":{"android":"levelo://app?vid=6b41869d-3ecf-41f6-b6d6-fe4b0c9b93a6","ios":"levelo://app?vid=6b41869d-3ecf-41f6-b6d6-fe4b0c9b93a6"},"vehicle_type_id":"4","last_reported":1720551975,"current_range_meters":10000,"station_id":"ce4bgh92rcd13ifvqb40","pricing_plan_id":"cebpf4jnsgd1na2vs0mg"},{"bike_id":"28be7d18-d277-4573-84c6-3213016b0b3f","system_id":"levelo_inurba_marseille","lat":43.293093,"lon":5.37168,"is_reserved":false,"is_disabled":false,"rental_uris":{"android":"levelo://app?vid=28be7d18-d277-4573-84c6-3213016b0b3f","ios":"levelo://app?vid=28be7d18-d277-4573-84c6-3213016b0b3f"},"vehicle_type_id":"4","last_reported":1720551975,"current_range_meters":13600,"station_id":"ce4bgh92rcd13ifvqb40","pricing_plan_id":"cebpf4jnsgd1na2vs0mg"},{"bike_id":"8cbd6193-9718-475a-beba-b22258590025","system_id":"levelo_inurba_marseille","lat":43.29309,"lon":5.37166,"is_reserved":false,"is_disabled":false,"rental_uris":{"android":"levelo://app?vid=8cbd6193-9718-475a-beba-b22258590025","ios":"levelo://app?vid=8cbd6193-9718-475a-beba-b22258590025"},"vehicle_type_id":"4","last_reported":1720551975,"current_range_meters":12400,"station_id":"ce4bgh92rcd13ifvqb40","pricing_plan_id":"cebpf4jnsgd1na2vs0mg"},{"bike_id":"53a945ab-b558-434c-a9b1-80cccf0495cd","system_id":"levelo_inurba_marseille","lat":43.2931,"lon":5.37174,"is_reserved":false,"is_disabled":false,"rental_uris":{"android":"levelo://app?vid=53a945ab-b558-434c-a9b1-80cccf0495cd","ios":"levelo://app?vid=53a945ab-b558-434c-a9b1-80cccf0495cd"},"vehicle_type_id":"4","last_reported":1720551975,"current_range_meters":16000,"station_id":"ce4bgh92rcd13ifvqb40","pricing_plan_id":"cebpf4jnsgd1na2vs0mg"},{"bike_id":"39b3a2fa-83c2-4c10-8d57-b2d36951cec3","system_id":"levelo_inurba_marseille","lat":43.29309,"lon":5.37171,"is_reserved":false,"is_disabled":false,"rental_uris":{"android":"levelo://app?vid=39b3a2fa-83c2-4c10-8d57-b2d36951cec3","ios":"levelo://app?vid=39b3a2fa-83c2-4c10-8d57-b2d36951cec3"},"vehicle_type_id":"4","last_reported":1720551975,"current_range_meters":11600,"station_id":"ce4bgh92rcd13ifvqb40","pricing_plan_id":"cebpf4jnsgd1na2vs0mg"},{"bike_id":"4879935e-2728-46c6-811b-5c86b80aba2d","system_id":"levelo_inurba_marseille","lat":43.29306,"lon":5.37155,"is_reserved":false,"is_disabled":false,"rental_uris":{"android":"levelo://app?vid=4879935e-2728-46c6-811b-5c86b80aba2d","ios":"levelo://app?vid=4879935e-2728-46c6-811b-5c86b80aba2d"},"vehicle_type_id":"4","last_reported":1720551975,"current_range_meters":0,"station_id":"ce4bgh92rcd13ifvqb40","pricing_plan_id":"cebpf4jnsgd1na2vs0mg"},{"bike_id":"21a9fb16-d70c-40b7-9122-dff2a710d696","system_id":"levelo_inurba_marseille","lat":43.29308,"lon":5.37176,"is_reserved":false,"is_disabled":false,"rental_uris":{"android":"levelo://app?vid=21a9fb16-d70c-40b7-9122-dff2a710d696","ios":"levelo://app?vid=21a9fb16-d70c-40b7-9122-dff2a710d696"},"vehicle_type_id":"4","last_reported":1720551975,"current_range_meters":0,"station_id":"ce4bgh92rcd13ifvqb40","pricing_plan_id":"cebpf4jnsgd1na2vs0mg"},{"bike_id":"112983e1-d92a-4dc6-abc1-aca5030c1745","system_id":"levelo_inurba_marseille","lat":43.29309,"lon":5.37184,"is_reserved":false,"is_disabled":false,"rental_uris":{"android":"levelo://app?vid=112983e1-d92a-4dc6-abc1-aca5030c1745","ios":"levelo://app?vid=112983e1-d92a-4dc6-abc1-aca5030c1745"},"vehicle_type_id":"4","last_reported":1720551975,"current_range_meters":8000,"station_id":"ce4bgh92rcd13ifvqb40","pricing_plan_id":"cebpf4jnsgd1na2vs0mg"},{"bike_id":"8717cabd-4abd-4936-b68f-11247ee1ce0d","system_id":"levelo_inurba_marseille","lat":43.29306,"lon":5.37164,"is_reserved":false,"is_disabled":false,"rental_uris":{"android":"levelo://app?vid=8717cabd-4abd-4936-b68f-11247ee1ce0d","ios":"levelo://app?vid=8717cabd-4abd-4936-b68f-11247ee1ce0d"},"vehicle_type_id":"4","last_reported":1720551975,"current_range_meters":0,"station_id":"ce4bgh92rcd13ifvqb40","pricing_plan_id":"cebpf4jnsgd1na2vs0mg"},{"bike_id":"5960a8dd-5f80-48fd-ba45-635ab52d75bf","system_id":"levelo_inurba_marseille","lat":43.29307,"lon":5.37172,"is_reserved":false,"is_disabled":false,"rental_uris":{"android":"levelo://app?vid=5960a8dd-5f80-48fd-ba45-635ab52d75bf","ios":"levelo://app?vid=5960a8dd-5f80-48fd-ba45-635ab52d75bf"},"vehicle_type_id":"4","last_reported":1720551975,"current_range_meters":1200,"station_id":"ce4bgh92rcd13ifvqb40","pricing_plan_id":"cebpf4jnsgd1na2vs0mg"},{"bike_id":"c716e25d-6c28-443e-8f0b-0e049eb04749","system_id":"levelo_inurba_marseille","lat":43.29307,"lon":5.37174,"is_reserved":false,"is_disabled":false,"rental_uris":{"android":"levelo://app?vid=c716e25d-6c28-443e-8f0b-0e049eb04749","ios":"levelo://app?vid=c716e25d-6c28-443e-8f0b-0e049eb04749"},"vehicle_type_id":"4","last_reported":1720551975,"current_range_meters":27200,"station_id":"ce4bgh92rcd13ifvqb40","pricing_plan_id":"cebpf4jnsgd1na2vs0mg"},{"bike_id":"71149ef4-ab4e-43fd-9fde-27b5bc2d0491","system_id":"levelo_inurba_marseille","lat":43.29307,"lon":5.37174,"is_reserved":false,"is_disabled":false,"rental_uris":{"android":"levelo://app?vid=71149ef4-ab4e-43fd-9fde-27b5bc2d0491","ios":"levelo://app?vid=71149ef4-ab4e-43fd-9fde-27b5bc2d0491"},"vehicle_type_id":"4","last_reported":1720551975,"current_range_meters":0,"station_id":"ce4bgh92rcd13ifvqb40","pricing_plan_id":"cebpf4jnsgd1na2vs0mg"},{"bike_id":"1dd064cf-5e66-4f8d-92e4-fd178f63a1a2","system_id":"levelo_inurba_marseille","lat":43.29305,"lon":5.3716,"is_reserved":false,"is_disabled":false,"rental_uris":{"android":"levelo://app?vid=1dd064cf-5e66-4f8d-92e4-fd178f63a1a2","ios":"levelo://app?vid=1dd064cf-5e66-4f8d-92e4-fd178f63a1a2"},"vehicle_type_id":"4","last_reported":1720551975,"current_range_meters":8400,"station_id":"ce4bgh92rcd13ifvqb40","pricing_plan_id":"cebpf4jnsgd1na2vs0mg"},{"bike_id":"f4d4b458-d9bb-4071-ba80-97723f0836a5","system_id":"levelo_inurba_marseille","lat":43.29306,"lon":5.37172,"is_reserved":false,"is_disabled":false,"rental_uris":{"android":"levelo://app?vid=f4d4b458-d9bb-4071-ba80-97723f0836a5","ios":"levelo://app?vid=f4d4b458-d9bb-4071-ba80-97723f0836a5"},"vehicle_type_id":"4","last_reported":1720551975,"current_range_meters":5200,"station_id":"ce4bgh92rcd13ifvqb40","pricing_plan_id":"cebpf4jnsgd1na2vs0mg"},{"bike_id":"98b6821f-0f3b-47bc-b77c-ca0eb71fd2c6","system_id":"levelo_inurba_marseille","lat":43.29306,"lon":5.37175,"is_reserved":false,"is_disabled":false,"rental_uris":{"android":"levelo://app?vid=98b6821f-0f3b-47bc-b77c-ca0eb71fd2c6","ios":"levelo://app?vid=98b6821f-0f3b-47bc-b77c-ca0eb71fd2c6"},"vehicle_type_id":"4","last_reported":1720551975,"current_range_meters":20000,"station_id":"ce4bgh92rcd13ifvqb40","pricing_plan_id":"cebpf4jnsgd1na2vs0mg"},{"bike_id":"4ebdecef-5c9b-4a40-91d7-7df5163217c1","system_id":"levelo_inurba_marseille","lat":43.29305,"lon":5.3717,"is_reserved":false,"is_disabled":false,"rental_uris":{"android":"levelo://app?vid=4ebdecef-5c9b-4a40-91d7-7df5163217c1","ios":"levelo://app?vid=4ebdecef-5c9b-4a40-91d7-7df5163217c1"},"vehicle_type_id":"4","last_reported":1720551975,"current_range_meters":7200,"station_id":"ce4bgh92rcd13ifvqb40","pricing_plan_id":"cebpf4jnsgd1na2vs0mg"},{"bike_id":"71374c8a-864c-491e-a33b-3a9d9c69b705","system_id":"levelo_inurba_marseille","lat":43.29305,"lon":5.37172,"is_reserved":false,"is_disabled":false,"rental_uris":{"android":"levelo://app?vid=71374c8a-864c-491e-a33b-3a9d9c69b705","ios":"levelo://app?vid=71374c8a-864c-491e-a33b-3a9d9c69b705"},"vehicle_type_id":"4","last_reported":1720551975,"current_range_meters":6800,"station_id":"ce4bgh92rcd13ifvqb40","pricing_plan_id":"cebpf4jnsgd1na2vs0mg"},{"bike_id":"e4563fe1-ab2c-42c6-877d-51c0d77a1acf","system_id":"levelo_inurba_marseille","lat":43.29303,"lon":5.37158,"is_reserved":false,"is_disabled":false,"rental_uris":{"android":"levelo://app?vid=e4563fe1-ab2c-42c6-877d-51c0d77a1acf","ios":"levelo://app?vid=e4563fe1-ab2c-42c6-877d-51c0d77a1acf"},"vehicle_type_id":"4","last_reported":1720551975,"current_range_meters":28400,"station_id":"ce4bgh92rcd13ifvqb40","pricing_plan_id":"cebpf4jnsgd1na2vs0mg"},{"bike_id":"20904cad-e0c2-4260-bc27-e5eae1e8d7d0","system_id":"levelo_inurba_marseille","lat":43.293054,"lon":5.371809,"is_reserved":false,"is_disabled":false,"rental_uris":{"android":"levelo://app?vid=20904cad-e0c2-4260-bc27-e5eae1e8d7d0","ios":"levelo://app?vid=20904cad-e0c2-4260-bc27-e5eae1e8d7d0"},"vehicle_type_id":"4","last_reported":1720551975,"current_range_meters":26400,"station_id":"ce4bgh92rcd13ifvqb40","pricing_plan_id":"cebpf4jnsgd1na2vs0mg"},{"bike_id":"1d824313-1bd8-49ab-a57b-fe0f8bb8c487","system_id":"levelo_inurba_marseille","lat":43.29305,"lon":5.37178,"is_reserved":false,"is_disabled":false,"rental_uris":{"android":"levelo://app?vid=1d824313-1bd8-49ab-a57b-fe0f8bb8c487","ios":"levelo://app?vid=1d824313-1bd8-49ab-a57b-fe0f8bb8c487"},"vehicle_type_id":"4","last_reported":1720551975,"current_range_meters":9200,"station_id":"ce4bgh92rcd13ifvqb40","pricing_plan_id":"cebpf4jnsgd1na2vs0mg"},{"bike_id":"74bdd92d-3a75-401f-80b9-2f1bdf860f66","system_id":"levelo_inurba_marseille","lat":43.293038,"lon":5.371714,"is_reserved":false,"is_disabled":false,"rental_uris":{"android":"levelo://app?vid=74bdd92d-3a75-401f-80b9-2f1bdf860f66","ios":"levelo://app?vid=74bdd92d-3a75-401f-80b9-2f1bdf860f66"},"vehicle_type_id":"4","last_reported":1720551975,"current_range_meters":0,"station_id":"ce4bgh92rcd13ifvqb40","pricing_plan_id":"cebpf4jnsgd1na2vs0mg"},{"bike_id":"6769c900-ca8c-4718-980d-932dc2ea52f4","system_id":"levelo_inurba_marseille","lat":43.29304,"lon":5.37175,"is_reserved":false,"is_disabled":false,"rental_uris":{"android":"levelo://app?vid=6769c900-ca8c-4718-980d-932dc2ea52f4","ios":"levelo://app?vid=6769c900-ca8c-4718-980d-932dc2ea52f4"},"vehicle_type_id":"4","last_reported":1720551975,"current_range_meters":26800,"station_id":"ce4bgh92rcd13ifvqb40","pricing_plan_id":"cebpf4jnsgd1na2vs0mg"},{"bike_id":"4c089360-e7b5-4832-bad5-b818acd22f51","system_id":"levelo_inurba_marseille","lat":43.29304,"lon":5.37179,"is_reserved":false,"is_disabled":false,"rental_uris":{"android":"levelo://app?vid=4c089360-e7b5-4832-bad5-b818acd22f51","ios":"levelo://app?vid=4c089360-e7b5-4832-bad5-b818acd22f51"},"vehicle_type_id":"4","last_reported":1720551975,"current_range_meters":0,"station_id":"ce4bgh92rcd13ifvqb40","pricing_plan_id":"cebpf4jnsgd1na2vs0mg"},{"bike_id":"c303b5f9-f25a-4397-a3e7-a0068f331634","system_id":"levelo_inurba_marseille","lat":43.29302,"lon":5.37166,"is_reserved":false,"is_disabled":false,"rental_uris":{"android":"levelo://app?vid=c303b5f9-f25a-4397-a3e7-a0068f331634","ios":"levelo://app?vid=c303b5f9-f25a-4397-a3e7-a0068f331634"},"vehicle_type_id":"4","last_reported":1720551975,"current_range_meters":9200,"station_id":"ce4bgh92rcd13ifvqb40","pricing_plan_id":"cebpf4jnsgd1na2vs0mg"},{"bike_id":"41265c0b-794a-4040-a1b5-c70ff7c51265","system_id":"levelo_inurba_marseille","lat":43.29302,"lon":5.37171,"is_reserved":false,"is_disabled":false,"rental_uris":{"android":"levelo://app?vid=41265c0b-794a-4040-a1b5-c70ff7c51265","ios":"levelo://app?vid=41265c0b-794a-4040-a1b5-c70ff7c51265"},"vehicle_type_id":"4","last_reported":1720551975,"current_range_meters":5600,"station_id":"ce4bgh92rcd13ifvqb40","pricing_plan_id":"cebpf4jnsgd1na2vs0mg"},{"bike_id":"908d4cd8-9585-4caa-be62-202ce08f918a","system_id":"levelo_inurba_marseille","lat":43.29301,"lon":5.37172,"is_reserved":false,"is_disabled":false,"rental_uris":{"android":"levelo://app?vid=908d4cd8-9585-4caa-be62-202ce08f918a","ios":"levelo://app?vid=908d4cd8-9585-4caa-be62-202ce08f918a"},"vehicle_type_id":"4","last_reported":1720551975,"current_range_meters":26400,"station_id":"ce4bgh92rcd13ifvqb40","pricing_plan_id":"cebpf4jnsgd1na2vs0mg"},{"bike_id":"4e934cc8-90cd-4299-8fd0-4e7170370571","system_id":"levelo_inurba_marseille","lat":43.29301,"lon":5.37174,"is_reserved":false,"is_disabled":false,"rental_uris":{"android":"levelo://app?vid=4e934cc8-90cd-4299-8fd0-4e7170370571","ios":"levelo://app?vid=4e934cc8-90cd-4299-8fd0-4e7170370571"},"vehicle_type_id":"4","last_reported":1720551975,"current_range_meters":28000,"station_id":"ce4bgh92rcd13ifvqb40","pricing_plan_id":"cebpf4jnsgd1na2vs0mg"},{"bike_id":"13906448-0926-4bc0-83c7-fd806a026812","system_id":"levelo_inurba_marseille","lat":43.293249,"lon":5.371578,"is_reserved":false,"is_disabled":false,"rental_uris":{"android":"levelo://app?vid=13906448-0926-4bc0-83c7-fd806a026812","ios":"levelo://app?vid=13906448-0926-4bc0-83c7-fd806a026812"},"vehicle_type_id":"4","last_reported":1720551975,"current_range_meters":0,"station_id":"ce4bgh92rcd13ifvqb40","pricing_plan_id":"cebpf4jnsgd1na2vs0mg"},{"bike_id":"2c197040-33ce-437c-8fcc-0222830de5ba","system_id":"levelo_inurba_marseille","lat":43.293,"lon":5.37171,"is_reserved":false,"is_disabled":false,"rental_uris":{"android":"levelo://app?vid=2c197040-33ce-437c-8fcc-0222830de5ba","ios":"levelo://app?vid=2c197040-33ce-437c-8fcc-0222830de5ba"},"vehicle_type_id":"4","last_reported":1720551975,"current_range_meters":400,"station_id":"ce4bgh92rcd13ifvqb40","pricing_plan_id":"cebpf4jnsgd1na2vs0mg"},{"bike_id":"2d2a9cdf-a54a-4d44-9539-1fd04907e9d9","system_id":"levelo_inurba_marseille","lat":43.293249,"lon":5.371578,"is_reserved":false,"is_disabled":false,"rental_uris":{"android":"levelo://app?vid=2d2a9cdf-a54a-4d44-9539-1fd04907e9d9","ios":"levelo://app?vid=2d2a9cdf-a54a-4d44-9539-1fd04907e9d9"},"vehicle_type_id":"4","last_reported":1720551975,"current_range_meters":4800,"station_id":"ce4bgh92rcd13ifvqb40","pricing_plan_id":"cebpf4jnsgd1na2vs0mg"},{"bike_id":"f3eb72d2-73fb-465c-86cd-e2024533d27c","system_id":"levelo_inurba_marseille","lat":43.292979,"lon":5.371904,"is_reserved":false,"is_disabled":false,"rental_uris":{"android":"levelo://app?vid=f3eb72d2-73fb-465c-86cd-e2024533d27c","ios":"levelo://app?vid=f3eb72d2-73fb-465c-86cd-e2024533d27c"},"vehicle_type_id":"4","last_reported":1720551975,"current_range_meters":0,"station_id":"ce4bgh92rcd13ifvqb40","pricing_plan_id":"cebpf4jnsgd1na2vs0mg"},{"bike_id":"f96839e4-46eb-4561-855b-84e17342336f","system_id":"levelo_inurba_marseille","lat":43.293009,"lon":5.374584,"is_reserved":false,"is_disabled":false,"rental_uris":{"android":"levelo://app?vid=f96839e4-46eb-4561-855b-84e17342336f","ios":"levelo://app?vid=f96839e4-46eb-4561-855b-84e17342336f"},"vehicle_type_id":"4","last_reported":1720551975,"current_range_meters":5200,"station_id":"ce4bgi12rcd13ifvqb70","pricing_plan_id":"cebpf4jnsgd1na2vs0mg"},{"bike_id":"41ee82aa-e8d5-4f36-8e37-3b96c26dfab4","system_id":"levelo_inurba_marseille","lat":43.29305,"lon":5.37456,"is_reserved":false,"is_disabled":false,"rental_uris":{"android":"levelo://app?vid=41ee82aa-e8d5-4f36-8e37-3b96c26dfab4","ios":"levelo://app?vid=41ee82aa-e8d5-4f36-8e37-3b96c26dfab4"},"vehicle_type_id":"4","last_reported":1720551975,"current_range_meters":0,"station_id":"ce4bgi12rcd13ifvqb70","pricing_plan_id":"cebpf4jnsgd1na2vs0mg"},{"bike_id":"0c1a2c41-ef58-4ec7-8d77-d090bf97c70e","system_id":"levelo_inurba_marseille","lat":43.293009,"lon":5.374584,"is_reserved":false,"is_disabled":false,"rental_uris":{"android":"levelo://app?vid=0c1a2c41-ef58-4ec7-8d77-d090bf97c70e","ios":"levelo://app?vid=0c1a2c41-ef58-4ec7-8d77-d090bf97c70e"},"vehicle_type_id":"4","last_reported":1720551975,"current_range_meters":18000,"station_id":"ce4bgi12rcd13ifvqb70","pricing_plan_id":"cebpf4jnsgd1na2vs0mg"},{"bike_id":"0723b6bb-0b96-4692-8444-761b2c5914e5","system_id":"levelo_inurba_marseille","lat":43.278399,"lon":5.392139,"is_reserved":false,"is_disabled":false,"rental_uris":{"android":"levelo://app?vid=0723b6bb-0b96-4692-8444-761b2c5914e5","ios":"levelo://app?vid=0723b6bb-0b96-4692-8444-761b2c5914e5"},"vehicle_type_id":"4","last_reported":1720551975,"current_range_meters":4800,"station_id":"ce4bhjp2rcd13ifvqga0","pricing_plan_id":"cebpf4jnsgd1na2vs0mg"},{"bike_id":"3866cf23-3930-487f-a018-2e50f093d93d","system_id":"levelo_inurba_marseille","lat":43.29301,"lon":5.37453,"is_reserved":false,"is_disabled":false,"rental_uris":{"android":"levelo://app?vid=3866cf23-3930-487f-a018-2e50f093d93d","ios":"levelo://app?vid=3866cf23-3930-487f-a018-2e50f093d93d"},"vehicle_type_id":"4","last_reported":1720551975,"current_range_meters":25600,"station_id":"ce4bgi12rcd13ifvqb70","pricing_plan_id":"cebpf4jnsgd1na2vs0mg"},{"bike_id":"b1c7a037-3f3b-4f9d-a000-cf96ef324568","system_id":"levelo_inurba_marseille","lat":43.29303,"lon":5.37463,"is_reserved":false,"is_disabled":false,"rental_uris":{"android":"levelo://app?vid=b1c7a037-3f3b-4f9d-a000-cf96ef324568","ios":"levelo://app?vid=b1c7a037-3f3b-4f9d-a000-cf96ef324568"},"vehicle_type_id":"4","last_reported":1720551975,"current_range_meters":0,"station_id":"ce4bgi12rcd13ifvqb70","pricing_plan_id":"cebpf4jnsgd1na2vs0mg"},{"bike_id":"8aea8118-4930-4974-88aa-77c5cd2d140e","system_id":"levelo_inurba_marseille","lat":43.29299,"lon":5.37452,"is_reserved":false,"is_disabled":false,"rental_uris":{"android":"levelo://app?vid=8aea8118-4930-4974-88aa-77c5cd2d140e","ios":"levelo://app?vid=8aea8118-4930-4974-88aa-77c5cd2d140e"},"vehicle_type_id":"4","last_reported":1720551975,"current_range_meters":0,"station_id":"ce4bgi12rcd13ifvqb70","pricing_plan_id":"cebpf4jnsgd1na2vs0mg"},{"bike_id":"72ab18f5-622d-4bff-bb81-07bcade443f8","system_id":"levelo_inurba_marseille","lat":43.29299,"lon":5.37455,"is_reserved":false,"is_disabled":false,"rental_uris":{"android":"levelo://app?vid=72ab18f5-622d-4bff-bb81-07bcade443f8","ios":"levelo://app?vid=72ab18f5-622d-4bff-bb81-07bcade443f8"},"vehicle_type_id":"4","last_reported":1720551975,"current_range_meters":14800,"station_id":"ce4bgi12rcd13ifvqb70","pricing_plan_id":"cebpf4jnsgd1na2vs0mg"},{"bike_id":"ca0d8b7b-e6e3-4708-8739-063fbae2d681","system_id":"levelo_inurba_marseille","lat":43.29298,"lon":5.37456,"is_reserved":false,"is_disabled":false,"rental_uris":{"android":"levelo://app?vid=ca0d8b7b-e6e3-4708-8739-063fbae2d681","ios":"levelo://app?vid=ca0d8b7b-e6e3-4708-8739-063fbae2d681"},"vehicle_type_id":"4","last_reported":1720551975,"current_range_meters":1200,"station_id":"ce4bgi12rcd13ifvqb70","pricing_plan_id":"cebpf4jnsgd1na2vs0mg"},{"bike_id":"1295cb2b-6aaa-450e-9c6b-0678ef595fa1","system_id":"levelo_inurba_marseille","lat":43.293009,"lon":5.374584,"is_reserved":false,"is_disabled":false,"rental_uris":{"android":"levelo://app?vid=1295cb2b-6aaa-450e-9c6b-0678ef595fa1","ios":"levelo://app?vid=1295cb2b-6aaa-450e-9c6b-0678ef595fa1"},"vehicle_type_id":"4","last_reported":1720551975,"current_range_meters":15600,"station_id":"ce4bgi12rcd13ifvqb70","pricing_plan_id":"cebpf4jnsgd1na2vs0mg"},{"bike_id":"0199529c-90a8-4dd4-ad5a-96392c1c356c","system_id":"levelo_inurba_marseille","lat":43.29296,"lon":5.37449,"is_reserved":false,"is_disabled":false,"rental_uris":{"android":"levelo://app?vid=0199529c-90a8-4dd4-ad5a-96392c1c356c","ios":"levelo://app?vid=0199529c-90a8-4dd4-ad5a-96392c1c356c"},"vehicle_type_id":"4","last_reported":1720551975,"current_range_meters":0,"station_id":"ce4bgi12rcd13ifvqb70","pricing_plan_id":"cebpf4jnsgd1na2vs0mg"},{"bike_id":"462fb268-1fb1-412b-abd4-90af44012c9b","system_id":"levelo_inurba_marseille","lat":43.292976,"lon":5.3746,"is_reserved":false,"is_disabled":false,"rental_uris":{"android":"levelo://app?vid=462fb268-1fb1-412b-abd4-90af44012c9b","ios":"levelo://app?vid=462fb268-1fb1-412b-abd4-90af44012c9b"},"vehicle_type_id":"4","last_reported":1720551975,"current_range_meters":31200,"station_id":"ce4bgi12rcd13ifvqb70","pricing_plan_id":"cebpf4jnsgd1na2vs0mg"},{"bike_id":"77c877d8-a913-4c0d-afdb-67466a88e256","system_id":"levelo_inurba_marseille","lat":43.293009,"lon":5.374584,"is_reserved":false,"is_disabled":false,"rental_uris":{"android":"levelo://app?vid=77c877d8-a913-4c0d-afdb-67466a88e256","ios":"levelo://app?vid=77c877d8-a913-4c0d-afdb-67466a88e256"},"vehicle_type_id":"4","last_reported":1720551975,"current_range_meters":29200,"station_id":"ce4bgi12rcd13ifvqb70","pricing_plan_id":"cebpf4jnsgd1na2vs0mg"},{"bike_id":"fab4cca0-8b6c-47f1-bf23-e21d1b1bc21a","system_id":"levelo_inurba_marseille","lat":43.29297,"lon":5.37462,"is_reserved":false,"is_disabled":false,"rental_uris":{"android":"levelo://app?vid=fab4cca0-8b6c-47f1-bf23-e21d1b1bc21a","ios":"levelo://app?vid=fab4cca0-8b6c-47f1-bf23-e21d1b1bc21a"},"vehicle_type_id":"4","last_reported":1720551975,"current_range_meters":18000,"station_id":"ce4bgi12rcd13ifvqb70","pricing_plan_id":"cebpf4jnsgd1na2vs0mg"},{"bike_id":"8953663d-bc5e-45d1-b66d-f5732eb2f9b0","system_id":"levelo_inurba_marseille","lat":43.293009,"lon":5.374584,"is_reserved":false,"is_disabled":false,"rental_uris":{"android":"levelo://app?vid=8953663d-bc5e-45d1-b66d-f5732eb2f9b0","ios":"levelo://app?vid=8953663d-bc5e-45d1-b66d-f5732eb2f9b0"},"vehicle_type_id":"4","last_reported":1720551975,"current_range_meters":23200,"station_id":"ce4bgi12rcd13ifvqb70","pricing_plan_id":"cebpf4jnsgd1na2vs0mg"},{"bike_id":"b68f8342-7228-463a-8361-132f34ab270d","system_id":"levelo_inurba_marseille","lat":43.293009,"lon":5.374584,"is_reserved":false,"is_disabled":false,"rental_uris":{"android":"levelo://app?vid=b68f8342-7228-463a-8361-132f34ab270d","ios":"levelo://app?vid=b68f8342-7228-463a-8361-132f34ab270d"},"vehicle_type_id":"4","last_reported":1720551975,"current_range_meters":4800,"station_id":"ce4bgi12rcd13ifvqb70","pricing_plan_id":"cebpf4jnsgd1na2vs0mg"},{"bike_id":"1e825094-7206-4bdf-9610-5753d4643388","system_id":"levelo_inurba_marseille","lat":43.293009,"lon":5.374584,"is_reserved":false,"is_disabled":false,"rental_uris":{"android":"levelo://app?vid=1e825094-7206-4bdf-9610-5753d4643388","ios":"levelo://app?vid=1e825094-7206-4bdf-9610-5753d4643388"},"vehicle_type_id":"4","last_reported":1720551975,"current_range_meters":0,"station_id":"ce4bgi12rcd13ifvqb70","pricing_plan_id":"cebpf4jnsgd1na2vs0mg"},{"bike_id":"ad8cdf2f-c189-4c01-9cbb-6d0b989a4b36","system_id":"levelo_inurba_marseille","lat":43.29295,"lon":5.37458,"is_reserved":false,"is_disabled":false,"rental_uris":{"android":"levelo://app?vid=ad8cdf2f-c189-4c01-9cbb-6d0b989a4b36","ios":"levelo://app?vid=ad8cdf2f-c189-4c01-9cbb-6d0b989a4b36"},"vehicle_type_id":"4","last_reported":1720551975,"current_range_meters":2800,"station_id":"ce4bgi12rcd13ifvqb70","pricing_plan_id":"cebpf4jnsgd1na2vs0mg"},{"bike_id":"99b780e9-9cd7-4a77-87e2-156f12c61150","system_id":"levelo_inurba_marseille","lat":43.29294,"lon":5.37456,"is_reserved":false,"is_disabled":false,"rental_uris":{"android":"levelo://app?vid=99b780e9-9cd7-4a77-87e2-156f12c61150","ios":"levelo://app?vid=99b780e9-9cd7-4a77-87e2-156f12c61150"},"vehicle_type_id":"4","last_reported":1720551975,"current_range_meters":0,"station_id":"ce4bgi12rcd13ifvqb70","pricing_plan_id":"cebpf4jnsgd1na2vs0mg"},{"bike_id":"6bc1b55d-c674-421e-82c0-21064fb984b0","system_id":"levelo_inurba_marseille","lat":43.29294,"lon":5.37462,"is_reserved":false,"is_disabled":false,"rental_uris":{"android":"levelo://app?vid=6bc1b55d-c674-421e-82c0-21064fb984b0","ios":"levelo://app?vid=6bc1b55d-c674-421e-82c0-21064fb984b0"},"vehicle_type_id":"4","last_reported":1720551975,"current_range_meters":28800,"station_id":"ce4bgi12rcd13ifvqb70","pricing_plan_id":"cebpf4jnsgd1na2vs0mg"},{"bike_id":"481f7b1b-bc5c-40be-a89b-02dbfe81a150","system_id":"levelo_inurba_marseille","lat":43.293009,"lon":5.374584,"is_reserved":false,"is_disabled":false,"rental_uris":{"android":"levelo://app?vid=481f7b1b-bc5c-40be-a89b-02dbfe81a150","ios":"levelo://app?vid=481f7b1b-bc5c-40be-a89b-02dbfe81a150"},"vehicle_type_id":"4","last_reported":1720551975,"current_range_meters":4000,"station_id":"ce4bgi12rcd13ifvqb70","pricing_plan_id":"cebpf4jnsgd1na2vs0mg"},{"bike_id":"291c4e25-d7e6-45ac-ab87-ff823b2a6686","system_id":"levelo_inurba_marseille","lat":43.293009,"lon":5.374584,"is_reserved":false,"is_disabled":false,"rental_uris":{"android":"levelo://app?vid=291c4e25-d7e6-45ac-ab87-ff823b2a6686","ios":"levelo://app?vid=291c4e25-d7e6-45ac-ab87-ff823b2a6686"},"vehicle_type_id":"4","last_reported":1720551975,"current_range_meters":22000,"station_id":"ce4bgi12rcd13ifvqb70","pricing_plan_id":"cebpf4jnsgd1na2vs0mg"},{"bike_id":"62c6c6f9-cfaa-490d-8c38-847d40a98f7c","system_id":"levelo_inurba_marseille","lat":43.293009,"lon":5.374584,"is_reserved":false,"is_disabled":false,"rental_uris":{"android":"levelo://app?vid=62c6c6f9-cfaa-490d-8c38-847d40a98f7c","ios":"levelo://app?vid=62c6c6f9-cfaa-490d-8c38-847d40a98f7c"},"vehicle_type_id":"4","last_reported":1720551975,"current_range_meters":14400,"station_id":"ce4bgi12rcd13ifvqb70","pricing_plan_id":"cebpf4jnsgd1na2vs0mg"},{"bike_id":"5eaf311c-b7d3-429d-a6cf-b24ab2430050","system_id":"levelo_inurba_marseille","lat":43.29298,"lon":5.37495,"is_reserved":false,"is_disabled":false,"rental_uris":{"android":"levelo://app?vid=5eaf311c-b7d3-429d-a6cf-b24ab2430050","ios":"levelo://app?vid=5eaf311c-b7d3-429d-a6cf-b24ab2430050"},"vehicle_type_id":"4","last_reported":1720551975,"current_range_meters":27200,"station_id":"","pricing_plan_id":"cebpf4jnsgd1na2vs0mg"},{"bike_id":"4f989018-1578-45a6-aa95-fb50c394a50c","system_id":"levelo_inurba_marseille","lat":43.29287,"lon":5.37443,"is_reserved":false,"is_disabled":false,"rental_uris":{"android":"levelo://app?vid=4f989018-1578-45a6-aa95-fb50c394a50c","ios":"levelo://app?vid=4f989018-1578-45a6-aa95-fb50c394a50c"},"vehicle_type_id":"4","last_reported":1720551975,"current_range_meters":0,"station_id":"ce4bgi12rcd13ifvqb70","pricing_plan_id":"cebpf4jnsgd1na2vs0mg"},{"bike_id":"5a7542db-c058-4a33-b901-8cb40f2bb62c","system_id":"levelo_inurba_marseille","lat":43.30305,"lon":5.39205,"is_reserved":false,"is_disabled":false,"rental_uris":{"android":"levelo://app?vid=5a7542db-c058-4a33-b901-8cb40f2bb62c","ios":"levelo://app?vid=5a7542db-c058-4a33-b901-8cb40f2bb62c"},"vehicle_type_id":"4","last_reported":1720551975,"current_range_meters":0,"station_id":"ce4bgkh2rcd13ifvqbk0","pricing_plan_id":"cebpf4jnsgd1na2vs0mg"},{"bike_id":"6c91b765-45e8-4ff7-bf16-bcf8f0b71494","system_id":"levelo_inurba_marseille","lat":43.30301,"lon":5.39205,"is_reserved":false,"is_disabled":false,"rental_uris":{"android":"levelo://app?vid=6c91b765-45e8-4ff7-bf16-bcf8f0b71494","ios":"levelo://app?vid=6c91b765-45e8-4ff7-bf16-bcf8f0b71494"},"vehicle_type_id":"4","last_reported":1720551975,"current_range_meters":0,"station_id":"ce4bgkh2rcd13ifvqbk0","pricing_plan_id":"cebpf4jnsgd1na2vs0mg"},{"bike_id":"66608ed4-7b43-4e3e-8376-97bfe8875415","system_id":"levelo_inurba_marseille","lat":43.2936,"lon":5.37835,"is_reserved":false,"is_disabled":false,"rental_uris":{"android":"levelo://app?vid=66608ed4-7b43-4e3e-8376-97bfe8875415","ios":"levelo://app?vid=66608ed4-7b43-4e3e-8376-97bfe8875415"},"vehicle_type_id":"4","last_reported":1720551975,"current_range_meters":14800,"station_id":"ce4bgjh2rcd13ifvqbf0","pricing_plan_id":"cebpf4jnsgd1na2vs0mg"},{"bike_id":"65a64060-3635-40c9-90b9-60ccfa1eda2b","system_id":"levelo_inurba_marseille","lat":43.2936,"lon":5.37835,"is_reserved":false,"is_disabled":false,"rental_uris":{"android":"levelo://app?vid=65a64060-3635-40c9-90b9-60ccfa1eda2b","ios":"levelo://app?vid=65a64060-3635-40c9-90b9-60ccfa1eda2b"},"vehicle_type_id":"4","last_reported":1720551975,"current_range_meters":8800,"station_id":"ce4bgjh2rcd13ifvqbf0","pricing_plan_id":"cebpf4jnsgd1na2vs0mg"},{"bike_id":"761133e0-4cb8-492d-adff-63bf187f6976","system_id":"levelo_inurba_marseille","lat":43.2936,"lon":5.37835,"is_reserved":false,"is_disabled":false,"rental_uris":{"android":"levelo://app?vid=761133e0-4cb8-492d-adff-63bf187f6976","ios":"levelo://app?vid=761133e0-4cb8-492d-adff-63bf187f6976"},"vehicle_type_id":"4","last_reported":1720551975,"current_range_meters":8000,"station_id":"ce4bgjh2rcd13ifvqbf0","pricing_plan_id":"cebpf4jnsgd1na2vs0mg"},{"bike_id":"00a381f3-099d-4340-84e2-35f1ca8f1a8c","system_id":"levelo_inurba_marseille","lat":43.2936,"lon":5.37835,"is_reserved":false,"is_disabled":false,"rental_uris":{"android":"levelo://app?vid=00a381f3-099d-4340-84e2-35f1ca8f1a8c","ios":"levelo://app?vid=00a381f3-099d-4340-84e2-35f1ca8f1a8c"},"vehicle_type_id":"4","last_reported":1720551975,"current_range_meters":18000,"station_id":"ce4bgjh2rcd13ifvqbf0","pricing_plan_id":"cebpf4jnsgd1na2vs0mg"},{"bike_id":"cab9eaff-6036-41bb-b573-2791e6b9fe50","system_id":"levelo_inurba_marseille","lat":43.2936,"lon":5.37835,"is_reserved":false,"is_disabled":false,"rental_uris":{"android":"levelo://app?vid=cab9eaff-6036-41bb-b573-2791e6b9fe50","ios":"levelo://app?vid=cab9eaff-6036-41bb-b573-2791e6b9fe50"},"vehicle_type_id":"4","last_reported":1720551975,"current_range_meters":4000,"station_id":"ce4bgjh2rcd13ifvqbf0","pricing_plan_id":"cebpf4jnsgd1na2vs0mg"},{"bike_id":"d3aeb7a4-265d-40f1-a962-a7805312a5a1","system_id":"levelo_inurba_marseille","lat":43.2936,"lon":5.37835,"is_reserved":false,"is_disabled":false,"rental_uris":{"android":"levelo://app?vid=d3aeb7a4-265d-40f1-a962-a7805312a5a1","ios":"levelo://app?vid=d3aeb7a4-265d-40f1-a962-a7805312a5a1"},"vehicle_type_id":"4","last_reported":1720551975,"current_range_meters":3200,"station_id":"ce4bgjh2rcd13ifvqbf0","pricing_plan_id":"cebpf4jnsgd1na2vs0mg"},{"bike_id":"08cdba2e-b703-4a93-9e82-94d632960a42","system_id":"levelo_inurba_marseille","lat":43.29255,"lon":5.37436,"is_reserved":false,"is_disabled":false,"rental_uris":{"android":"levelo://app?vid=08cdba2e-b703-4a93-9e82-94d632960a42","ios":"levelo://app?vid=08cdba2e-b703-4a93-9e82-94d632960a42"},"vehicle_type_id":"4","last_reported":1720551975,"current_range_meters":27600,"station_id":"ce4bgi12rcd13ifvqb70","pricing_plan_id":"cebpf4jnsgd1na2vs0mg"},{"bike_id":"c3bdb562-1a53-4c15-8fb4-bf15266ce96f","system_id":"levelo_inurba_marseille","lat":43.2936,"lon":5.37835,"is_reserved":false,"is_disabled":false,"rental_uris":{"android":"levelo://app?vid=c3bdb562-1a53-4c15-8fb4-bf15266ce96f","ios":"levelo://app?vid=c3bdb562-1a53-4c15-8fb4-bf15266ce96f"},"vehicle_type_id":"4","last_reported":1720551975,"current_range_meters":4000,"station_id":"ce4bgjh2rcd13ifvqbf0","pricing_plan_id":"cebpf4jnsgd1na2vs0mg"},{"bike_id":"02e13f3e-16ab-45b0-98db-6f6709d46d9b","system_id":"levelo_inurba_marseille","lat":43.29223,"lon":5.3605,"is_reserved":false,"is_disabled":false,"rental_uris":{"android":"levelo://app?vid=02e13f3e-16ab-45b0-98db-6f6709d46d9b","ios":"levelo://app?vid=02e13f3e-16ab-45b0-98db-6f6709d46d9b"},"vehicle_type_id":"4","last_reported":1720551975,"current_range_meters":11600,"station_id":"ce4bhbh2rcd13ifvqeqg","pricing_plan_id":"cebpf4jnsgd1na2vs0mg"},{"bike_id":"a3fd193f-de5e-4a40-8fc1-e3843365b2f8","system_id":"levelo_inurba_marseille","lat":43.291675,"lon":5.371583,"is_reserved":false,"is_disabled":false,"rental_uris":{"android":"levelo://app?vid=a3fd193f-de5e-4a40-8fc1-e3843365b2f8","ios":"levelo://app?vid=a3fd193f-de5e-4a40-8fc1-e3843365b2f8"},"vehicle_type_id":"4","last_reported":1720551975,"current_range_meters":7200,"station_id":"ce4bha92rcd13ifvqeh0","pricing_plan_id":"cebpf4jnsgd1na2vs0mg"},{"bike_id":"20052ee5-e00f-43e5-ace5-7226b5b8331d","system_id":"levelo_inurba_marseille","lat":43.2988,"lon":5.38906,"is_reserved":false,"is_disabled":false,"rental_uris":{"android":"levelo://app?vid=20052ee5-e00f-43e5-ace5-7226b5b8331d","ios":"levelo://app?vid=20052ee5-e00f-43e5-ace5-7226b5b8331d"},"vehicle_type_id":"4","last_reported":1720551975,"current_range_meters":0,"station_id":"ce4bh392rcd13ifvqdl0","pricing_plan_id":"cebpf4jnsgd1na2vs0mg"},{"bike_id":"e49ad7f8-a61d-4109-9be2-65af494550c2","system_id":"levelo_inurba_marseille","lat":43.298764,"lon":5.388973,"is_reserved":false,"is_disabled":false,"rental_uris":{"android":"levelo://app?vid=e49ad7f8-a61d-4109-9be2-65af494550c2","ios":"levelo://app?vid=e49ad7f8-a61d-4109-9be2-65af494550c2"},"vehicle_type_id":"4","last_reported":1720551975,"current_range_meters":0,"station_id":"ce4bh392rcd13ifvqdl0","pricing_plan_id":"cebpf4jnsgd1na2vs0mg"},{"bike_id":"32baab7a-2fdf-4f59-b343-769bc1da48ee","system_id":"levelo_inurba_marseille","lat":43.291671,"lon":5.371575,"is_reserved":false,"is_disabled":false,"rental_uris":{"android":"levelo://app?vid=32baab7a-2fdf-4f59-b343-769bc1da48ee","ios":"levelo://app?vid=32baab7a-2fdf-4f59-b343-769bc1da48ee"},"vehicle_type_id":"4","last_reported":1720551975,"current_range_meters":20800,"station_id":"ce4bha92rcd13ifvqeh0","pricing_plan_id":"cebpf4jnsgd1na2vs0mg"},{"bike_id":"403cd1c3-9d13-4a7a-9359-14e7a92771ee","system_id":"levelo_inurba_marseille","lat":43.291675,"lon":5.371583,"is_reserved":false,"is_disabled":false,"rental_uris":{"android":"levelo://app?vid=403cd1c3-9d13-4a7a-9359-14e7a92771ee","ios":"levelo://app?vid=403cd1c3-9d13-4a7a-9359-14e7a92771ee"},"vehicle_type_id":"4","last_reported":1720551975,"current_range_meters":0,"station_id":"ce4bha92rcd13ifvqeh0","pricing_plan_id":"cebpf4jnsgd1na2vs0mg"},{"bike_id":"a4dd18fb-264a-44cb-8bf2-aacb99db805e","system_id":"levelo_inurba_marseille","lat":43.298764,"lon":5.388973,"is_reserved":false,"is_disabled":false,"rental_uris":{"android":"levelo://app?vid=a4dd18fb-264a-44cb-8bf2-aacb99db805e","ios":"levelo://app?vid=a4dd18fb-264a-44cb-8bf2-aacb99db805e"},"vehicle_type_id":"4","last_reported":1720551975,"current_range_meters":31200,"station_id":"ce4bh392rcd13ifvqdl0","pricing_plan_id":"cebpf4jnsgd1na2vs0mg"},{"bike_id":"a863ffac-f51b-4e2c-9469-04f610acf9fa","system_id":"levelo_inurba_marseille","lat":43.29869,"lon":5.38908,"is_reserved":false,"is_disabled":false,"rental_uris":{"android":"levelo://app?vid=a863ffac-f51b-4e2c-9469-04f610acf9fa","ios":"levelo://app?vid=a863ffac-f51b-4e2c-9469-04f610acf9fa"},"vehicle_type_id":"4","last_reported":1720551975,"current_range_meters":0,"station_id":"ce4bh392rcd13ifvqdl0","pricing_plan_id":"cebpf4jnsgd1na2vs0mg"},{"bike_id":"9854353e-4f0c-4c9b-8756-0a2dac55211d","system_id":"levelo_inurba_marseille","lat":43.29252,"lon":5.37651,"is_reserved":false,"is_disabled":false,"rental_uris":{"android":"levelo://app?vid=9854353e-4f0c-4c9b-8756-0a2dac55211d","ios":"levelo://app?vid=9854353e-4f0c-4c9b-8756-0a2dac55211d"},"vehicle_type_id":"4","last_reported":1720551975,"current_range_meters":0,"station_id":"","pricing_plan_id":"cebpf4jnsgd1na2vs0mg"},{"bike_id":"e310e1e7-aa7b-4e6a-b2e9-df20ba04f344","system_id":"levelo_inurba_marseille","lat":43.291671,"lon":5.371575,"is_reserved":false,"is_disabled":false,"rental_uris":{"android":"levelo://app?vid=e310e1e7-aa7b-4e6a-b2e9-df20ba04f344","ios":"levelo://app?vid=e310e1e7-aa7b-4e6a-b2e9-df20ba04f344"},"vehicle_type_id":"4","last_reported":1720551975,"current_range_meters":0,"station_id":"ce4bha92rcd13ifvqeh0","pricing_plan_id":"cebpf4jnsgd1na2vs0mg"},{"bike_id":"d6a899c1-1aae-4142-9a11-005fab9aa5da","system_id":"levelo_inurba_marseille","lat":43.309047,"lon":5.396551,"is_reserved":false,"is_disabled":false,"rental_uris":{"android":"levelo://app?vid=d6a899c1-1aae-4142-9a11-005fab9aa5da","ios":"levelo://app?vid=d6a899c1-1aae-4142-9a11-005fab9aa5da"},"vehicle_type_id":"4","last_reported":1720551975,"current_range_meters":0,"station_id":"ce4bh012rcd13ifvqcv0","pricing_plan_id":"cebpf4jnsgd1na2vs0mg"},{"bike_id":"d594ae7e-e754-42be-bb60-9572e30adbb4","system_id":"levelo_inurba_marseille","lat":43.295398,"lon":5.385383,"is_reserved":false,"is_disabled":false,"rental_uris":{"android":"levelo://app?vid=d594ae7e-e754-42be-bb60-9572e30adbb4","ios":"levelo://app?vid=d594ae7e-e754-42be-bb60-9572e30adbb4"},"vehicle_type_id":"4","last_reported":1720551975,"current_range_meters":29600,"station_id":"ce4bgih2rcd13ifvqba0","pricing_plan_id":"cebpf4jnsgd1na2vs0mg"},{"bike_id":"68ba8c61-63b1-46c9-90bd-ef65094882b3","system_id":"levelo_inurba_marseille","lat":43.29538,"lon":5.38536,"is_reserved":false,"is_disabled":false,"rental_uris":{"android":"levelo://app?vid=68ba8c61-63b1-46c9-90bd-ef65094882b3","ios":"levelo://app?vid=68ba8c61-63b1-46c9-90bd-ef65094882b3"},"vehicle_type_id":"4","last_reported":1720551975,"current_range_meters":10400,"station_id":"ce4bgih2rcd13ifvqba0","pricing_plan_id":"cebpf4jnsgd1na2vs0mg"},{"bike_id":"94b684e8-8fe4-4e0a-bfe1-b3b585f7b802","system_id":"levelo_inurba_marseille","lat":43.29536,"lon":5.38537,"is_reserved":false,"is_disabled":false,"rental_uris":{"android":"levelo://app?vid=94b684e8-8fe4-4e0a-bfe1-b3b585f7b802","ios":"levelo://app?vid=94b684e8-8fe4-4e0a-bfe1-b3b585f7b802"},"vehicle_type_id":"4","last_reported":1720551975,"current_range_meters":22800,"station_id":"ce4bgih2rcd13ifvqba0","pricing_plan_id":"cebpf4jnsgd1na2vs0mg"},{"bike_id":"30df779a-abea-42e9-b7a7-56c31666250a","system_id":"levelo_inurba_marseille","lat":43.29535,"lon":5.38538,"is_reserved":false,"is_disabled":false,"rental_uris":{"android":"levelo://app?vid=30df779a-abea-42e9-b7a7-56c31666250a","ios":"levelo://app?vid=30df779a-abea-42e9-b7a7-56c31666250a"},"vehicle_type_id":"4","last_reported":1720551975,"current_range_meters":31200,"station_id":"ce4bgih2rcd13ifvqba0","pricing_plan_id":"cebpf4jnsgd1na2vs0mg"},{"bike_id":"db97f78f-60ce-4bad-bc1a-ca47c2289139","system_id":"levelo_inurba_marseille","lat":43.291125,"lon":5.372413,"is_reserved":false,"is_disabled":false,"rental_uris":{"android":"levelo://app?vid=db97f78f-60ce-4bad-bc1a-ca47c2289139","ios":"levelo://app?vid=db97f78f-60ce-4bad-bc1a-ca47c2289139"},"vehicle_type_id":"4","last_reported":1720551975,"current_range_meters":0,"station_id":"","pricing_plan_id":"cebpf4jnsgd1na2vs0mg"},{"bike_id":"8471650a-7b7f-4334-8e7c-78eaee411870","system_id":"levelo_inurba_marseille","lat":43.29533,"lon":5.385376,"is_reserved":false,"is_disabled":false,"rental_uris":{"android":"levelo://app?vid=8471650a-7b7f-4334-8e7c-78eaee411870","ios":"levelo://app?vid=8471650a-7b7f-4334-8e7c-78eaee411870"},"vehicle_type_id":"4","last_reported":1720551975,"current_range_meters":400,"station_id":"ce4bgih2rcd13ifvqba0","pricing_plan_id":"cebpf4jnsgd1na2vs0mg"},{"bike_id":"e840127c-e65f-4c22-88c1-bb4cd00725e6","system_id":"levelo_inurba_marseille","lat":43.29533,"lon":5.38539,"is_reserved":false,"is_disabled":false,"rental_uris":{"android":"levelo://app?vid=e840127c-e65f-4c22-88c1-bb4cd00725e6","ios":"levelo://app?vid=e840127c-e65f-4c22-88c1-bb4cd00725e6"},"vehicle_type_id":"4","last_reported":1720551975,"current_range_meters":31200,"station_id":"ce4bgih2rcd13ifvqba0","pricing_plan_id":"cebpf4jnsgd1na2vs0mg"},{"bike_id":"58513b37-d254-4fde-9b31-ec236383d4d1","system_id":"levelo_inurba_marseille","lat":43.295347,"lon":5.385443,"is_reserved":false,"is_disabled":false,"rental_uris":{"android":"levelo://app?vid=58513b37-d254-4fde-9b31-ec236383d4d1","ios":"levelo://app?vid=58513b37-d254-4fde-9b31-ec236383d4d1"},"vehicle_type_id":"4","last_reported":1720551975,"current_range_meters":26800,"station_id":"ce4bgih2rcd13ifvqba0","pricing_plan_id":"cebpf4jnsgd1na2vs0mg"},{"bike_id":"49151428-c191-4f9c-93b9-f47c9565b34c","system_id":"levelo_inurba_marseille","lat":43.29529,"lon":5.38538,"is_reserved":false,"is_disabled":false,"rental_uris":{"android":"levelo://app?vid=49151428-c191-4f9c-93b9-f47c9565b34c","ios":"levelo://app?vid=49151428-c191-4f9c-93b9-f47c9565b34c"},"vehicle_type_id":"4","last_reported":1720551975,"current_range_meters":28800,"station_id":"ce4bgih2rcd13ifvqba0","pricing_plan_id":"cebpf4jnsgd1na2vs0mg"},{"bike_id":"b0f208e8-26fd-4c56-ae1d-74b86a669635","system_id":"levelo_inurba_marseille","lat":43.29529,"lon":5.385581,"is_reserved":false,"is_disabled":false,"rental_uris":{"android":"levelo://app?vid=b0f208e8-26fd-4c56-ae1d-74b86a669635","ios":"levelo://app?vid=b0f208e8-26fd-4c56-ae1d-74b86a669635"},"vehicle_type_id":"4","last_reported":1720551975,"current_range_meters":26000,"station_id":"ce4bgih2rcd13ifvqba0","pricing_plan_id":"cebpf4jnsgd1na2vs0mg"},{"bike_id":"7d3b3fc0-563e-4102-9ea6-4be4ed3b1585","system_id":"levelo_inurba_marseille","lat":43.29536,"lon":5.38552,"is_reserved":false,"is_disabled":false,"rental_uris":{"android":"levelo://app?vid=7d3b3fc0-563e-4102-9ea6-4be4ed3b1585","ios":"levelo://app?vid=7d3b3fc0-563e-4102-9ea6-4be4ed3b1585"},"vehicle_type_id":"4","last_reported":1720551975,"current_range_meters":21200,"station_id":"ce4bgih2rcd13ifvqba0","pricing_plan_id":"cebpf4jnsgd1na2vs0mg"},{"bike_id":"6bdc8745-5d2a-4e28-b64e-e083d8ce46cb","system_id":"levelo_inurba_marseille","lat":43.29532,"lon":5.38547,"is_reserved":false,"is_disabled":false,"rental_uris":{"android":"levelo://app?vid=6bdc8745-5d2a-4e28-b64e-e083d8ce46cb","ios":"levelo://app?vid=6bdc8745-5d2a-4e28-b64e-e083d8ce46cb"},"vehicle_type_id":"4","last_reported":1720551975,"current_range_meters":1200,"station_id":"ce4bgih2rcd13ifvqba0","pricing_plan_id":"cebpf4jnsgd1na2vs0mg"},{"bike_id":"d1dc044a-4532-4f4f-bea7-69aa353f8a87","system_id":"levelo_inurba_marseille","lat":43.29532,"lon":5.38547,"is_reserved":false,"is_disabled":false,"rental_uris":{"android":"levelo://app?vid=d1dc044a-4532-4f4f-bea7-69aa353f8a87","ios":"levelo://app?vid=d1dc044a-4532-4f4f-bea7-69aa353f8a87"},"vehicle_type_id":"4","last_reported":1720551975,"current_range_meters":31200,"station_id":"ce4bgih2rcd13ifvqba0","pricing_plan_id":"cebpf4jnsgd1na2vs0mg"},{"bike_id":"e0535996-f285-48b8-9403-45a483de2bce","system_id":"levelo_inurba_marseille","lat":43.29529,"lon":5.38544,"is_reserved":false,"is_disabled":false,"rental_uris":{"android":"levelo://app?vid=e0535996-f285-48b8-9403-45a483de2bce","ios":"levelo://app?vid=e0535996-f285-48b8-9403-45a483de2bce"},"vehicle_type_id":"4","last_reported":1720551975,"current_range_meters":10800,"station_id":"ce4bgih2rcd13ifvqba0","pricing_plan_id":"cebpf4jnsgd1na2vs0mg"},{"bike_id":"27c99208-11e4-4cab-b9a5-154bd190621b","system_id":"levelo_inurba_marseille","lat":43.29527,"lon":5.38541,"is_reserved":false,"is_disabled":false,"rental_uris":{"android":"levelo://app?vid=27c99208-11e4-4cab-b9a5-154bd190621b","ios":"levelo://app?vid=27c99208-11e4-4cab-b9a5-154bd190621b"},"vehicle_type_id":"4","last_reported":1720551975,"current_range_meters":17600,"station_id":"ce4bgih2rcd13ifvqba0","pricing_plan_id":"cebpf4jnsgd1na2vs0mg"},{"bike_id":"1a8c3277-e123-47e1-8973-9045cc3e71b4","system_id":"levelo_inurba_marseille","lat":43.29527,"lon":5.38541,"is_reserved":false,"is_disabled":false,"rental_uris":{"android":"levelo://app?vid=1a8c3277-e123-47e1-8973-9045cc3e71b4","ios":"levelo://app?vid=1a8c3277-e123-47e1-8973-9045cc3e71b4"},"vehicle_type_id":"4","last_reported":1720551975,"current_range_meters":24000,"station_id":"ce4bgih2rcd13ifvqba0","pricing_plan_id":"cebpf4jnsgd1na2vs0mg"},{"bike_id":"374998f1-f861-42bb-86c3-6adccc1edf52","system_id":"levelo_inurba_marseille","lat":43.29533,"lon":5.38552,"is_reserved":false,"is_disabled":false,"rental_uris":{"android":"levelo://app?vid=374998f1-f861-42bb-86c3-6adccc1edf52","ios":"levelo://app?vid=374998f1-f861-42bb-86c3-6adccc1edf52"},"vehicle_type_id":"4","last_reported":1720551975,"current_range_meters":20800,"station_id":"ce4bgih2rcd13ifvqba0","pricing_plan_id":"cebpf4jnsgd1na2vs0mg"},{"bike_id":"9784e984-8934-4aed-bf57-3537a7183fd3","system_id":"levelo_inurba_marseille","lat":43.2953,"lon":5.38547,"is_reserved":false,"is_disabled":false,"rental_uris":{"android":"levelo://app?vid=9784e984-8934-4aed-bf57-3537a7183fd3","ios":"levelo://app?vid=9784e984-8934-4aed-bf57-3537a7183fd3"},"vehicle_type_id":"4","last_reported":1720551975,"current_range_meters":800,"station_id":"ce4bgih2rcd13ifvqba0","pricing_plan_id":"cebpf4jnsgd1na2vs0mg"},{"bike_id":"0eab0064-5c57-4e9d-b372-55054df72e64","system_id":"levelo_inurba_marseille","lat":43.29529,"lon":5.385581,"is_reserved":false,"is_disabled":false,"rental_uris":{"android":"levelo://app?vid=0eab0064-5c57-4e9d-b372-55054df72e64","ios":"levelo://app?vid=0eab0064-5c57-4e9d-b372-55054df72e64"},"vehicle_type_id":"4","last_reported":1720551975,"current_range_meters":21600,"station_id":"ce4bgih2rcd13ifvqba0","pricing_plan_id":"cebpf4jnsgd1na2vs0mg"},{"bike_id":"bd4f24cc-b944-4ea5-b160-1f4335088dd4","system_id":"levelo_inurba_marseille","lat":43.29532,"lon":5.38552,"is_reserved":false,"is_disabled":false,"rental_uris":{"android":"levelo://app?vid=bd4f24cc-b944-4ea5-b160-1f4335088dd4","ios":"levelo://app?vid=bd4f24cc-b944-4ea5-b160-1f4335088dd4"},"vehicle_type_id":"4","last_reported":1720551975,"current_range_meters":14000,"station_id":"ce4bgih2rcd13ifvqba0","pricing_plan_id":"cebpf4jnsgd1na2vs0mg"},{"bike_id":"b4d5d306-ae01-40c1-9292-79681805fd0e","system_id":"levelo_inurba_marseille","lat":43.2953,"lon":5.38552,"is_reserved":false,"is_disabled":false,"rental_uris":{"android":"levelo://app?vid=b4d5d306-ae01-40c1-9292-79681805fd0e","ios":"levelo://app?vid=b4d5d306-ae01-40c1-9292-79681805fd0e"},"vehicle_type_id":"4","last_reported":1720551975,"current_range_meters":24400,"station_id":"ce4bgih2rcd13ifvqba0","pricing_plan_id":"cebpf4jnsgd1na2vs0mg"},{"bike_id":"368e4402-0e06-455b-934b-7a626e85e38a","system_id":"levelo_inurba_marseille","lat":43.29523,"lon":5.38542,"is_reserved":false,"is_disabled":false,"rental_uris":{"android":"levelo://app?vid=368e4402-0e06-455b-934b-7a626e85e38a","ios":"levelo://app?vid=368e4402-0e06-455b-934b-7a626e85e38a"},"vehicle_type_id":"4","last_reported":1720551975,"current_range_meters":26800,"station_id":"ce4bgih2rcd13ifvqba0","pricing_plan_id":"cebpf4jnsgd1na2vs0mg"},{"bike_id":"dce11b4d-0ce7-4be1-9a92-b73785160923","system_id":"levelo_inurba_marseille","lat":43.29524,"lon":5.38546,"is_reserved":false,"is_disabled":false,"rental_uris":{"android":"levelo://app?vid=dce11b4d-0ce7-4be1-9a92-b73785160923","ios":"levelo://app?vid=dce11b4d-0ce7-4be1-9a92-b73785160923"},"vehicle_type_id":"4","last_reported":1720551975,"current_range_meters":17200,"station_id":"ce4bgih2rcd13ifvqba0","pricing_plan_id":"cebpf4jnsgd1na2vs0mg"},{"bike_id":"4efc535c-b5c8-4ae0-b711-c88ad1f74869","system_id":"levelo_inurba_marseille","lat":43.290779,"lon":5.371482,"is_reserved":false,"is_disabled":false,"rental_uris":{"android":"levelo://app?vid=4efc535c-b5c8-4ae0-b711-c88ad1f74869","ios":"levelo://app?vid=4efc535c-b5c8-4ae0-b711-c88ad1f74869"},"vehicle_type_id":"4","last_reported":1720551975,"current_range_meters":24400,"station_id":"ce4bh5p2rcd13ifvqe4g","pricing_plan_id":"cebpf4jnsgd1na2vs0mg"},{"bike_id":"58e5343e-8355-4068-aa04-3333b6579cdb","system_id":"levelo_inurba_marseille","lat":43.290779,"lon":5.371482,"is_reserved":false,"is_disabled":false,"rental_uris":{"android":"levelo://app?vid=58e5343e-8355-4068-aa04-3333b6579cdb","ios":"levelo://app?vid=58e5343e-8355-4068-aa04-3333b6579cdb"},"vehicle_type_id":"4","last_reported":1720551975,"current_range_meters":26400,"station_id":"ce4bh5p2rcd13ifvqe4g","pricing_plan_id":"cebpf4jnsgd1na2vs0mg"},{"bike_id":"75051332-436b-4700-9809-e2fb299aad3f","system_id":"levelo_inurba_marseille","lat":43.29297,"lon":5.38255,"is_reserved":false,"is_disabled":false,"rental_uris":{"android":"levelo://app?vid=75051332-436b-4700-9809-e2fb299aad3f","ios":"levelo://app?vid=75051332-436b-4700-9809-e2fb299aad3f"},"vehicle_type_id":"4","last_reported":1720551975,"current_range_meters":24400,"station_id":"","pricing_plan_id":"cebpf4jnsgd1na2vs0mg"},{"bike_id":"41dfe2a9-6e1c-4724-9d80-3096e013a487","system_id":"levelo_inurba_marseille","lat":43.29446,"lon":5.38576,"is_reserved":false,"is_disabled":false,"rental_uris":{"android":"levelo://app?vid=41dfe2a9-6e1c-4724-9d80-3096e013a487","ios":"levelo://app?vid=41dfe2a9-6e1c-4724-9d80-3096e013a487"},"vehicle_type_id":"4","last_reported":1720551975,"current_range_meters":10800,"station_id":"","pricing_plan_id":"cebpf4jnsgd1na2vs0mg"},{"bike_id":"7a9b5b31-ccc2-4a36-ae0f-0cbe7a7c65c9","system_id":"levelo_inurba_marseille","lat":43.29442,"lon":5.3857,"is_reserved":false,"is_disabled":false,"rental_uris":{"android":"levelo://app?vid=7a9b5b31-ccc2-4a36-ae0f-0cbe7a7c65c9","ios":"levelo://app?vid=7a9b5b31-ccc2-4a36-ae0f-0cbe7a7c65c9"},"vehicle_type_id":"4","last_reported":1720551975,"current_range_meters":0,"station_id":"","pricing_plan_id":"cebpf4jnsgd1na2vs0mg"},{"bike_id":"03c6e0ab-9df2-4bc1-ad29-bc8580b728df","system_id":"levelo_inurba_marseille","lat":43.29448,"lon":5.38583,"is_reserved":false,"is_disabled":false,"rental_uris":{"android":"levelo://app?vid=03c6e0ab-9df2-4bc1-ad29-bc8580b728df","ios":"levelo://app?vid=03c6e0ab-9df2-4bc1-ad29-bc8580b728df"},"vehicle_type_id":"4","last_reported":1720551975,"current_range_meters":18400,"station_id":"","pricing_plan_id":"cebpf4jnsgd1na2vs0mg"},{"bike_id":"77ebf837-abf7-4656-bbcb-e6ad199400a6","system_id":"levelo_inurba_marseille","lat":43.29443,"lon":5.3858,"is_reserved":false,"is_disabled":false,"rental_uris":{"android":"levelo://app?vid=77ebf837-abf7-4656-bbcb-e6ad199400a6","ios":"levelo://app?vid=77ebf837-abf7-4656-bbcb-e6ad199400a6"},"vehicle_type_id":"4","last_reported":1720551975,"current_range_meters":0,"station_id":"","pricing_plan_id":"cebpf4jnsgd1na2vs0mg"},{"bike_id":"7c27ec2d-99db-4229-a979-14afead494f5","system_id":"levelo_inurba_marseille","lat":43.294427,"lon":5.3858,"is_reserved":false,"is_disabled":false,"rental_uris":{"android":"levelo://app?vid=7c27ec2d-99db-4229-a979-14afead494f5","ios":"levelo://app?vid=7c27ec2d-99db-4229-a979-14afead494f5"},"vehicle_type_id":"4","last_reported":1720551975,"current_range_meters":6800,"station_id":"","pricing_plan_id":"cebpf4jnsgd1na2vs0mg"},{"bike_id":"1d44fa40-5103-4598-9a10-29536b2252fa","system_id":"levelo_inurba_marseille","lat":43.29443,"lon":5.38581,"is_reserved":false,"is_disabled":false,"rental_uris":{"android":"levelo://app?vid=1d44fa40-5103-4598-9a10-29536b2252fa","ios":"levelo://app?vid=1d44fa40-5103-4598-9a10-29536b2252fa"},"vehicle_type_id":"4","last_reported":1720551975,"current_range_meters":2400,"station_id":"ce4bh2h2rcd13ifvqdh0","pricing_plan_id":"cebpf4jnsgd1na2vs0mg"},{"bike_id":"28de18a5-9a91-47a7-8d84-177ab21cec2d","system_id":"levelo_inurba_marseille","lat":43.294413,"lon":5.385873,"is_reserved":false,"is_disabled":false,"rental_uris":{"android":"levelo://app?vid=28de18a5-9a91-47a7-8d84-177ab21cec2d","ios":"levelo://app?vid=28de18a5-9a91-47a7-8d84-177ab21cec2d"},"vehicle_type_id":"4","last_reported":1720551975,"current_range_meters":12800,"station_id":"ce4bh2h2rcd13ifvqdh0","pricing_plan_id":"cebpf4jnsgd1na2vs0mg"},{"bike_id":"831b820a-a15d-430c-979e-6dec2054868a","system_id":"levelo_inurba_marseille","lat":43.294273,"lon":5.38606,"is_reserved":false,"is_disabled":false,"rental_uris":{"android":"levelo://app?vid=831b820a-a15d-430c-979e-6dec2054868a","ios":"levelo://app?vid=831b820a-a15d-430c-979e-6dec2054868a"},"vehicle_type_id":"4","last_reported":1720551975,"current_range_meters":3600,"station_id":"ce4bh2h2rcd13ifvqdh0","pricing_plan_id":"cebpf4jnsgd1na2vs0mg"},{"bike_id":"31b07005-ca37-4619-8517-bf5840cc4a3f","system_id":"levelo_inurba_marseille","lat":43.294277,"lon":5.386207,"is_reserved":false,"is_disabled":false,"rental_uris":{"android":"levelo://app?vid=31b07005-ca37-4619-8517-bf5840cc4a3f","ios":"levelo://app?vid=31b07005-ca37-4619-8517-bf5840cc4a3f"},"vehicle_type_id":"4","last_reported":1720551975,"current_range_meters":400,"station_id":"ce4bh2h2rcd13ifvqdh0","pricing_plan_id":"cebpf4jnsgd1na2vs0mg"},{"bike_id":"7e20326f-39af-48e1-98b4-b59bb4e5b49e","system_id":"levelo_inurba_marseille","lat":43.290327,"lon":5.375711,"is_reserved":false,"is_disabled":false,"rental_uris":{"android":"levelo://app?vid=7e20326f-39af-48e1-98b4-b59bb4e5b49e","ios":"levelo://app?vid=7e20326f-39af-48e1-98b4-b59bb4e5b49e"},"vehicle_type_id":"4","last_reported":1720551975,"current_range_meters":0,"station_id":"ce4bh692rcd13ifvqe90","pricing_plan_id":"cebpf4jnsgd1na2vs0mg"},{"bike_id":"97a9ac42-4cd8-4e67-a565-dfe6aa3b0489","system_id":"levelo_inurba_marseille","lat":43.29424,"lon":5.38621,"is_reserved":false,"is_disabled":false,"rental_uris":{"android":"levelo://app?vid=97a9ac42-4cd8-4e67-a565-dfe6aa3b0489","ios":"levelo://app?vid=97a9ac42-4cd8-4e67-a565-dfe6aa3b0489"},"vehicle_type_id":"4","last_reported":1720551975,"current_range_meters":800,"station_id":"ce4bh2h2rcd13ifvqdh0","pricing_plan_id":"cebpf4jnsgd1na2vs0mg"},{"bike_id":"cd4b051f-9c95-4738-8f83-4b921dd543f1","system_id":"levelo_inurba_marseille","lat":43.294153,"lon":5.386305,"is_reserved":false,"is_disabled":false,"rental_uris":{"android":"levelo://app?vid=cd4b051f-9c95-4738-8f83-4b921dd543f1","ios":"levelo://app?vid=cd4b051f-9c95-4738-8f83-4b921dd543f1"},"vehicle_type_id":"4","last_reported":1720551975,"current_range_meters":4800,"station_id":"ce4bh2h2rcd13ifvqdh0","pricing_plan_id":"cebpf4jnsgd1na2vs0mg"},{"bike_id":"74f894e4-ff6f-477c-b50a-b90f28b00649","system_id":"levelo_inurba_marseille","lat":43.29422,"lon":5.3862,"is_reserved":false,"is_disabled":false,"rental_uris":{"android":"levelo://app?vid=74f894e4-ff6f-477c-b50a-b90f28b00649","ios":"levelo://app?vid=74f894e4-ff6f-477c-b50a-b90f28b00649"},"vehicle_type_id":"4","last_reported":1720551975,"current_range_meters":24800,"station_id":"ce4bh2h2rcd13ifvqdh0","pricing_plan_id":"cebpf4jnsgd1na2vs0mg"},{"bike_id":"9709c835-00cd-4bf7-bdab-b50f6d925353","system_id":"levelo_inurba_marseille","lat":43.29423,"lon":5.386225,"is_reserved":false,"is_disabled":false,"rental_uris":{"android":"levelo://app?vid=9709c835-00cd-4bf7-bdab-b50f6d925353","ios":"levelo://app?vid=9709c835-00cd-4bf7-bdab-b50f6d925353"},"vehicle_type_id":"4","last_reported":1720551975,"current_range_meters":17200,"station_id":"ce4bh2h2rcd13ifvqdh0","pricing_plan_id":"cebpf4jnsgd1na2vs0mg"},{"bike_id":"f50aadef-904f-4eb1-a8eb-1b437a065755","system_id":"levelo_inurba_marseille","lat":43.29418,"lon":5.38614,"is_reserved":false,"is_disabled":false,"rental_uris":{"android":"levelo://app?vid=f50aadef-904f-4eb1-a8eb-1b437a065755","ios":"levelo://app?vid=f50aadef-904f-4eb1-a8eb-1b437a065755"},