{"last_updated":1758089802,"ttl":60,"version":"2.2","data":{"bikes":[{"bike_id":"540452b2-4815-4a01-9a8e-82db5e188e7b","system_id":"levelo_inurba_marseille","lat":43.32544,"lon":5.41447,"is_reserved":false,"is_disabled":false,"rental_uris":{"android":"levelo://app?vid=540452b2-4815-4a01-9a8e-82db5e188e7b","ios":"levelo://app?vid=540452b2-4815-4a01-9a8e-82db5e188e7b"},"vehicle_type_id":"4","last_reported":1758089802,"current_range_meters":2800,"station_id":"ce4bhq12rcd13ifvqhhg","pricing_plan_id":"cebpf4jnsgd1na2vs0mg"},{"bike_id":"1142c08a-9723-486f-819a-3aaa16736cb7","system_id":"levelo_inurba_marseille","lat":43.28233,"lon":5.43935,"is_reserved":false,"is_disabled":false,"rental_uris":{"android":"levelo://app?vid=1142c08a-9723-486f-819a-3aaa16736cb7","ios":"levelo://app?vid=1142c08a-9723-486f-819a-3aaa16736cb7"},"vehicle_type_id":"4","last_reported":1758089802,"current_range_meters":2800,"station_id":"","pricing_plan_id":"cebpf4jnsgd1na2vs0mg"},{"bike_id":"7014aa4e-ac6b-4677-97a9-86d9450ce064","system_id":"levelo_inurba_marseille","lat":43.2583,"lon":5.39435,"is_reserved":false,"is_disabled":false,"rental_uris":{"android":"levelo://app?vid=7014aa4e-ac6b-4677-97a9-86d9450ce064","ios":"levelo://app?vid=7014aa4e-ac6b-4677-97a9-86d9450ce064"},"vehicle_type_id":"4","last_reported":1758089802,"current_range_meters":2800,"station_id":"ce4bhip2rcd13ifvqft0","pricing_plan_id":"cebpf4jnsgd1na2vs0mg"},{"bike_id":"076a5c66-38e6-46be-baee-4690ff174fcc","system_id":"levelo_inurba_marseille","lat":43.28936,"lon":5.3639,"is_reserved":false,"is_disabled":false,"rental_uris":{"android":"levelo://app?vid=076a5c66-38e6-46be-baee-4690ff174fcc","ios":"levelo://app?vid=076a5c66-38e6-46be-baee-4690ff174fcc"},"vehicle_type_id":"4","last_reported":1758089802,"current_range_meters":2800,"station_id":"ce4bhc92rcd13ifvqetg","pricing_plan_id":"cebpf4jnsgd1na2vs0mg"},{"bike_id":"bd33906d-dacd-4689-b2c3-d7fc3419d5b7","system_id":"levelo_inurba_marseille","lat":43.33782,"lon":5.37428,"is_reserved":false,"is_disabled":false,"rental_uris":{"android":"levelo://app?vid=bd33906d-dacd-4689-b2c3-d7fc3419d5b7","ios":"levelo://app?vid=bd33906d-dacd-4689-b2c3-d7fc3419d5b7"},"vehicle_type_id":"4","last_reported":1758089802,"current_range_meters":2800,"station_id":"","pricing_plan_id":"cebpf4jnsgd1na2vs0mg"},{"bike_id":"a8d7e4c0-0f86-4378-ae00-b9e2c0100193","system_id":"levelo_inurba_marseille","lat":43.2902,"lon":5.38616,"is_reserved":false,"is_disabled":false,"rental_uris":{"android":"levelo://app?vid=a8d7e4c0-0f86-4378-ae00-b9e2c0100193","ios":"levelo://app?vid=a8d7e4c0-0f86-4378-ae00-b9e2c0100193"},"vehicle_type_id":"4","last_reported":1758089802,"current_range_meters":2800,"station_id":"ce4bh4p2rcd13ifvqe0g","pricing_plan_id":"cebpf4jnsgd1na2vs0mg"},{"bike_id":"f96ed1b8-3425-4965-ac3f-954baf7cf9b6","system_id":"levelo_inurba_marseille","lat":43.29034,"lon":5.4001,"is_reserved":false,"is_disabled":false,"rental_uris":{"android":"levelo://app?vid=f96ed1b8-3425-4965-ac3f-954baf7cf9b6","ios":"levelo://app?vid=f96ed1b8-3425-4965-ac3f-954baf7cf9b6"},"vehicle_type_id":"4","last_reported":1758089802,"current_range_meters":2800,"station_id":"ce4bh392rcd13ifvqdm0","pricing_plan_id":"cebpf4jnsgd1na2vs0mg"},{"bike_id":"27bc6b0c-c22e-494b-ab92-4e390584592b","system_id":"levelo_inurba_marseille","lat":43.33744,"lon":5.37472,"is_reserved":false,"is_disabled":false,"rental_uris":{"android":"levelo://app?vid=27bc6b0c-c22e-494b-ab92-4e390584592b","ios":"levelo://app?vid=27bc6b0c-c22e-494b-ab92-4e390584592b"},"vehicle_type_id":"4","last_reported":1758089802,"current_range_meters":2800,"station_id":"","pricing_plan_id":"cebpf4jnsgd1na2vs0mg"},{"bike_id":"d765e876-dc94-417e-ad8c-0ac49bf5261a","system_id":"levelo_inurba_marseille","lat":43.33431,"lon":5.36392,"is_reserved":false,"is_disabled":false,"rental_uris":{"android":"levelo://app?vid=d765e876-dc94-417e-ad8c-0ac49bf5261a","ios":"levelo://app?vid=d765e876-dc94-417e-ad8c-0ac49bf5261a"},"vehicle_type_id":"4","last_reported":1758089802,"current_range_meters":3200,"station_id":"","pricing_plan_id":"cebpf4jnsgd1na2vs0mg"},{"bike_id":"ad495aa0-e939-4e15-ad34-e948c47fdc3f","system_id":"levelo_inurba_marseille","lat":43.26931,"lon":5.38928,"is_reserved":false,"is_disabled":false,"rental_uris":{"android":"levelo://app?vid=ad495aa0-e939-4e15-ad34-e948c47fdc3f","ios":"levelo://app?vid=ad495aa0-e939-4e15-ad34-e948c47fdc3f"},"vehicle_type_id":"4","last_reported":1758089802,"current_range_meters":3200,"station_id":"ce4bhhh2rcd13ifvqfl0","pricing_plan_id":"cebpf4jnsgd1na2vs0mg"},{"bike_id":"aac352f0-38f8-4439-80a5-9c14b811bd11","system_id":"levelo_inurba_marseille","lat":43.25933,"lon":5.40912,"is_reserved":false,"is_disabled":false,"rental_uris":{"android":"levelo://app?vid=aac352f0-38f8-4439-80a5-9c14b811bd11","ios":"levelo://app?vid=aac352f0-38f8-4439-80a5-9c14b811bd11"},"vehicle_type_id":"4","last_reported":1758089802,"current_range_meters":3200,"station_id":"ce4bhm92rcd13ifvqglg","pricing_plan_id":"cebpf4jnsgd1na2vs0mg"},{"bike_id":"f43ab4d4-8a36-4b97-8221-0c5f42c36023","system_id":"levelo_inurba_marseille","lat":43.240779,"lon":5.377473,"is_reserved":false,"is_disabled":true,"rental_uris":{"android":"levelo://app?vid=f43ab4d4-8a36-4b97-8221-0c5f42c36023","ios":"levelo://app?vid=f43ab4d4-8a36-4b97-8221-0c5f42c36023"},"vehicle_type_id":"4","last_reported":1758089802,"current_range_meters":3600,"station_id":"","pricing_plan_id":"cebpf4jnsgd1na2vs0mg"},{"bike_id":"13d32666-d94f-41f6-83eb-f3a1e138579e","system_id":"levelo_inurba_marseille","lat":43.28126,"lon":5.3503,"is_reserved":false,"is_disabled":false,"rental_uris":{"android":"levelo://app?vid=13d32666-d94f-41f6-83eb-f3a1e138579e","ios":"levelo://app?vid=13d32666-d94f-41f6-83eb-f3a1e138579e"},"vehicle_type_id":"4","last_reported":1758089802,"current_range_meters":3600,"station_id":"","pricing_plan_id":"cebpf4jnsgd1na2vs0mg"},{"bike_id":"e9d42c5b-2eeb-4956-bf69-1565cbf09cc0","system_id":"levelo_inurba_marseille","lat":43.28696,"lon":5.37391,"is_reserved":false,"is_disabled":true,"rental_uris":{"android":"levelo://app?vid=e9d42c5b-2eeb-4956-bf69-1565cbf09cc0","ios":"levelo://app?vid=e9d42c5b-2eeb-4956-bf69-1565cbf09cc0"},"vehicle_type_id":"4","last_reported":1758089802,"current_range_meters":3600,"station_id":"ce4bh3p2rcd13ifvqdq0","pricing_plan_id":"cebpf4jnsgd1na2vs0mg"},{"bike_id":"8c32f4b7-77fe-4371-b162-18ad021eb8b2","system_id":"levelo_inurba_marseille","lat":43.21743,"lon":5.34595,"is_reserved":false,"is_disabled":false,"rental_uris":{"android":"levelo://app?vid=8c32f4b7-77fe-4371-b162-18ad021eb8b2","ios":"levelo://app?vid=8c32f4b7-77fe-4371-b162-18ad021eb8b2"},"vehicle_type_id":"4","last_reported":1758089802,"current_range_meters":3600,"station_id":"st_cvj6r9ubvosntc0bgbag","pricing_plan_id":"cebpf4jnsgd1na2vs0mg"},{"bike_id":"a53016a1-528f-49a5-ab23-30927da549a0","system_id":"levelo_inurba_marseille","lat":43.25113,"lon":5.40329,"is_reserved":false,"is_disabled":true,"rental_uris":{"android":"levelo://app?vid=a53016a1-528f-49a5-ab23-30927da549a0","ios":"levelo://app?vid=a53016a1-528f-49a5-ab23-30927da549a0"},"vehicle_type_id":"4","last_reported":1758089802,"current_range_meters":4000,"station_id":"ce4bhlh2rcd13ifvqgig","pricing_plan_id":"cebpf4jnsgd1na2vs0mg"},{"bike_id":"40344a7c-3353-41d0-8493-2bab328aab55","system_id":"levelo_inurba_marseille","lat":43.30147,"lon":5.4173,"is_reserved":false,"is_disabled":false,"rental_uris":{"android":"levelo://app?vid=40344a7c-3353-41d0-8493-2bab328aab55","ios":"levelo://app?vid=40344a7c-3353-41d0-8493-2bab328aab55"},"vehicle_type_id":"4","last_reported":1758089802,"current_range_meters":4000,"station_id":"","pricing_plan_id":"cebpf4jnsgd1na2vs0mg"},{"bike_id":"e7a329bd-ed66-4ac7-aaba-63f2810ddd86","system_id":"levelo_inurba_marseille","lat":43.31859,"lon":5.37206,"is_reserved":false,"is_disabled":true,"rental_uris":{"android":"levelo://app?vid=e7a329bd-ed66-4ac7-aaba-63f2810ddd86","ios":"levelo://app?vid=e7a329bd-ed66-4ac7-aaba-63f2810ddd86"},"vehicle_type_id":"4","last_reported":1758089802,"current_range_meters":4000,"station_id":"","pricing_plan_id":"cebpf4jnsgd1na2vs0mg"},{"bike_id":"55d5327b-5aac-461d-b331-44d2f998e42e","system_id":"levelo_inurba_marseille","lat":43.30598,"lon":5.39357,"is_reserved":false,"is_disabled":false,"rental_uris":{"android":"levelo://app?vid=55d5327b-5aac-461d-b331-44d2f998e42e","ios":"levelo://app?vid=55d5327b-5aac-461d-b331-44d2f998e42e"},"vehicle_type_id":"4","last_reported":1758089802,"current_range_meters":4000,"station_id":"ce4bh0p2rcd13ifvqd80","pricing_plan_id":"cebpf4jnsgd1na2vs0mg"},{"bike_id":"57127154-7e15-4346-89ed-ab9d76ef9c2c","system_id":"levelo_inurba_marseille","lat":43.28838,"lon":5.36326,"is_reserved":false,"is_disabled":false,"rental_uris":{"android":"levelo://app?vid=57127154-7e15-4346-89ed-ab9d76ef9c2c","ios":"levelo://app?vid=57127154-7e15-4346-89ed-ab9d76ef9c2c"},"vehicle_type_id":"4","last_reported":1758089802,"current_range_meters":4000,"station_id":"","pricing_plan_id":"cebpf4jnsgd1na2vs0mg"},{"bike_id":"1edc51f4-12c5-4f10-840a-add825d97273","system_id":"levelo_inurba_marseille","lat":43.25108,"lon":5.40342,"is_reserved":false,"is_disabled":true,"rental_uris":{"android":"levelo://app?vid=1edc51f4-12c5-4f10-840a-add825d97273","ios":"levelo://app?vid=1edc51f4-12c5-4f10-840a-add825d97273"},"vehicle_type_id":"4","last_reported":1758089802,"current_range_meters":4400,"station_id":"ce4bhlh2rcd13ifvqgig","pricing_plan_id":"cebpf4jnsgd1na2vs0mg"},{"bike_id":"55121a63-75cd-412a-be25-606ea54f304c","system_id":"levelo_inurba_marseille","lat":43.2558,"lon":5.38227,"is_reserved":false,"is_disabled":false,"rental_uris":{"android":"levelo://app?vid=55121a63-75cd-412a-be25-606ea54f304c","ios":"levelo://app?vid=55121a63-75cd-412a-be25-606ea54f304c"},"vehicle_type_id":"4","last_reported":1758089802,"current_range_meters":4400,"station_id":"ce4bhih2rcd13ifvqfs0","pricing_plan_id":"cebpf4jnsgd1na2vs0mg"},{"bike_id":"5014881f-56b2-4dbc-965e-3bd258011b45","system_id":"levelo_inurba_marseille","lat":43.217427,"lon":5.345986,"is_reserved":false,"is_disabled":true,"rental_uris":{"android":"levelo://app?vid=5014881f-56b2-4dbc-965e-3bd258011b45","ios":"levelo://app?vid=5014881f-56b2-4dbc-965e-3bd258011b45"},"vehicle_type_id":"4","last_reported":1758089802,"current_range_meters":4400,"station_id":"st_cvj6r9ubvosntc0bgbag","pricing_plan_id":"cebpf4jnsgd1na2vs0mg"},{"bike_id":"ca8e08ff-a07a-4579-8dfe-a37486a96674","system_id":"levelo_inurba_marseille","lat":43.27492,"lon":5.42454,"is_reserved":false,"is_disabled":false,"rental_uris":{"android":"levelo://app?vid=ca8e08ff-a07a-4579-8dfe-a37486a96674","ios":"levelo://app?vid=ca8e08ff-a07a-4579-8dfe-a37486a96674"},"vehicle_type_id":"4","last_reported":1758089802,"current_range_meters":4400,"station_id":"ce4bhn92rcd13ifvqgrg","pricing_plan_id":"cebpf4jnsgd1na2vs0mg"},{"bike_id":"1d049f04-da51-4784-9577-a6781105765a","system_id":"levelo_inurba_marseille","lat":43.30897,"lon":5.37194,"is_reserved":false,"is_disabled":false,"rental_uris":{"android":"levelo://app?vid=1d049f04-da51-4784-9577-a6781105765a","ios":"levelo://app?vid=1d049f04-da51-4784-9577-a6781105765a"},"vehicle_type_id":"4","last_reported":1758089802,"current_range_meters":4400,"station_id":"ce4bguh2rcd13ifvqckg","pricing_plan_id":"cebpf4jnsgd1na2vs0mg"},{"bike_id":"09726e14-761d-46bb-9b2b-aa4ac3f92fec","system_id":"levelo_inurba_marseille","lat":43.29617,"lon":5.3792,"is_reserved":false,"is_disabled":false,"rental_uris":{"android":"levelo://app?vid=09726e14-761d-46bb-9b2b-aa4ac3f92fec","ios":"levelo://app?vid=09726e14-761d-46bb-9b2b-aa4ac3f92fec"},"vehicle_type_id":"4","last_reported":1758089802,"current_range_meters":4800,"station_id":"","pricing_plan_id":"cebpf4jnsgd1na2vs0mg"},{"bike_id":"5ded7274-e349-422f-bbc2-91fd74c8fbb4","system_id":"levelo_inurba_marseille","lat":43.28491,"lon":5.38556,"is_reserved":false,"is_disabled":false,"rental_uris":{"android":"levelo://app?vid=5ded7274-e349-422f-bbc2-91fd74c8fbb4","ios":"levelo://app?vid=5ded7274-e349-422f-bbc2-91fd74c8fbb4"},"vehicle_type_id":"4","last_reported":1758089802,"current_range_meters":4400,"station_id":"ce4bh8p2rcd13ifvqeb0","pricing_plan_id":"cebpf4jnsgd1na2vs0mg"},{"bike_id":"9b065ffd-a5a2-4e9e-aa39-5b05e60dbefc","system_id":"levelo_inurba_marseille","lat":43.30407,"lon":5.39775,"is_reserved":false,"is_disabled":true,"rental_uris":{"android":"levelo://app?vid=9b065ffd-a5a2-4e9e-aa39-5b05e60dbefc","ios":"levelo://app?vid=9b065ffd-a5a2-4e9e-aa39-5b05e60dbefc"},"vehicle_type_id":"4","last_reported":1758089802,"current_range_meters":5600,"station_id":"ce4bh092rcd13ifvqd20","pricing_plan_id":"cebpf4jnsgd1na2vs0mg"},{"bike_id":"322c1f5a-85db-4ef6-bcd4-1b5c417c8ee0","system_id":"levelo_inurba_marseille","lat":43.3377,"lon":5.37488,"is_reserved":false,"is_disabled":false,"rental_uris":{"android":"levelo://app?vid=322c1f5a-85db-4ef6-bcd4-1b5c417c8ee0","ios":"levelo://app?vid=322c1f5a-85db-4ef6-bcd4-1b5c417c8ee0"},"vehicle_type_id":"4","last_reported":1758089802,"current_range_meters":5600,"station_id":"","pricing_plan_id":"cebpf4jnsgd1na2vs0mg"},{"bike_id":"48836337-a479-44d7-ba51-dfa79ff235ef","system_id":"levelo_inurba_marseille","lat":43.30295,"lon":5.39239,"is_reserved":false,"is_disabled":false,"rental_uris":{"android":"levelo://app?vid=48836337-a479-44d7-ba51-dfa79ff235ef","ios":"levelo://app?vid=48836337-a479-44d7-ba51-dfa79ff235ef"},"vehicle_type_id":"4","last_reported":1758089802,"current_range_meters":5600,"station_id":"ce4bgkh2rcd13ifvqbk0","pricing_plan_id":"cebpf4jnsgd1na2vs0mg"},{"bike_id":"c8642148-4955-4100-ab30-ad5af70c39c9","system_id":"levelo_inurba_marseille","lat":43.30914,"lon":5.3685,"is_reserved":false,"is_disabled":false,"rental_uris":{"android":"levelo://app?vid=c8642148-4955-4100-ab30-ad5af70c39c9","ios":"levelo://app?vid=c8642148-4955-4100-ab30-ad5af70c39c9"},"vehicle_type_id":"4","last_reported":1758089802,"current_range_meters":6000,"station_id":"ce4bgn92rcd13ifvqbvg","pricing_plan_id":"cebpf4jnsgd1na2vs0mg"},{"bike_id":"7cb1d546-4a86-404e-b83c-0aeabbe297fa","system_id":"levelo_inurba_marseille","lat":43.29515,"lon":5.40041,"is_reserved":false,"is_disabled":false,"rental_uris":{"android":"levelo://app?vid=7cb1d546-4a86-404e-b83c-0aeabbe297fa","ios":"levelo://app?vid=7cb1d546-4a86-404e-b83c-0aeabbe297fa"},"vehicle_type_id":"4","last_reported":1758089802,"current_range_meters":6000,"station_id":"","pricing_plan_id":"cebpf4jnsgd1na2vs0mg"},{"bike_id":"6bb856ab-aa1c-4c0d-87cd-0e3757eacae0","system_id":"levelo_inurba_marseille","lat":43.27497,"lon":5.42452,"is_reserved":false,"is_disabled":false,"rental_uris":{"android":"levelo://app?vid=6bb856ab-aa1c-4c0d-87cd-0e3757eacae0","ios":"levelo://app?vid=6bb856ab-aa1c-4c0d-87cd-0e3757eacae0"},"vehicle_type_id":"4","last_reported":1758089802,"current_range_meters":6000,"station_id":"ce4bhn92rcd13ifvqgrg","pricing_plan_id":"cebpf4jnsgd1na2vs0mg"},{"bike_id":"c3050510-5153-4cf9-92e8-89a8709c89c2","system_id":"levelo_inurba_marseille","lat":43.31883,"lon":5.40747,"is_reserved":false,"is_disabled":false,"rental_uris":{"android":"levelo://app?vid=c3050510-5153-4cf9-92e8-89a8709c89c2","ios":"levelo://app?vid=c3050510-5153-4cf9-92e8-89a8709c89c2"},"vehicle_type_id":"4","last_reported":1758089802,"current_range_meters":6000,"station_id":"ce4bhq12rcd13ifvqhig","pricing_plan_id":"cebpf4jnsgd1na2vs0mg"},{"bike_id":"d818ffce-d6c4-4f39-ae87-10e02446a46c","system_id":"levelo_inurba_marseille","lat":43.24088,"lon":5.3774,"is_reserved":false,"is_disabled":true,"rental_uris":{"android":"levelo://app?vid=d818ffce-d6c4-4f39-ae87-10e02446a46c","ios":"levelo://app?vid=d818ffce-d6c4-4f39-ae87-10e02446a46c"},"vehicle_type_id":"4","last_reported":1758089802,"current_range_meters":6000,"station_id":"ce4bhnp2rcd13ifvqgvg","pricing_plan_id":"cebpf4jnsgd1na2vs0mg"},{"bike_id":"04c266fc-3c2c-450f-bc6b-03b1fd6b6666","system_id":"levelo_inurba_marseille","lat":43.29058,"lon":5.3711,"is_reserved":false,"is_disabled":true,"rental_uris":{"android":"levelo://app?vid=04c266fc-3c2c-450f-bc6b-03b1fd6b6666","ios":"levelo://app?vid=04c266fc-3c2c-450f-bc6b-03b1fd6b6666"},"vehicle_type_id":"4","last_reported":1758089802,"current_range_meters":6400,"station_id":"ce4bh5p2rcd13ifvqe4g","pricing_plan_id":"cebpf4jnsgd1na2vs0mg"},{"bike_id":"150278d0-4cc4-45a4-b777-87bca3d71398","system_id":"levelo_inurba_marseille","lat":43.32475,"lon":5.36563,"is_reserved":false,"is_disabled":false,"rental_uris":{"android":"levelo://app?vid=150278d0-4cc4-45a4-b777-87bca3d71398","ios":"levelo://app?vid=150278d0-4cc4-45a4-b777-87bca3d71398"},"vehicle_type_id":"4","last_reported":1758089802,"current_range_meters":6400,"station_id":"ce4bhs12rcd13ifvqhvg","pricing_plan_id":"cebpf4jnsgd1na2vs0mg"},{"bike_id":"7662423c-9fff-414a-b1a2-4c881d598c32","system_id":"levelo_inurba_marseille","lat":43.30894,"lon":5.37195,"is_reserved":false,"is_disabled":false,"rental_uris":{"android":"levelo://app?vid=7662423c-9fff-414a-b1a2-4c881d598c32","ios":"levelo://app?vid=7662423c-9fff-414a-b1a2-4c881d598c32"},"vehicle_type_id":"4","last_reported":1758089802,"current_range_meters":6800,"station_id":"ce4bguh2rcd13ifvqckg","pricing_plan_id":"cebpf4jnsgd1na2vs0mg"},{"bike_id":"0ee1e9c8-ec93-4017-a079-13c16bfe1ad0","system_id":"levelo_inurba_marseille","lat":43.25003,"lon":5.3892,"is_reserved":false,"is_disabled":false,"rental_uris":{"android":"levelo://app?vid=0ee1e9c8-ec93-4017-a079-13c16bfe1ad0","ios":"levelo://app?vid=0ee1e9c8-ec93-4017-a079-13c16bfe1ad0"},"vehicle_type_id":"4","last_reported":1758089802,"current_range_meters":6400,"station_id":"ce4bhgp2rcd13ifvqfd0","pricing_plan_id":"cebpf4jnsgd1na2vs0mg"},{"bike_id":"6065ecb1-7c54-41ac-bf95-f78ce179c81b","system_id":"levelo_inurba_marseille","lat":43.278118,"lon":5.407113,"is_reserved":false,"is_disabled":false,"rental_uris":{"android":"levelo://app?vid=6065ecb1-7c54-41ac-bf95-f78ce179c81b","ios":"levelo://app?vid=6065ecb1-7c54-41ac-bf95-f78ce179c81b"},"vehicle_type_id":"4","last_reported":1758089802,"current_range_meters":6800,"station_id":"","pricing_plan_id":"cebpf4jnsgd1na2vs0mg"},{"bike_id":"c3ad4594-4e4a-42f9-93e2-c25c45a735b2","system_id":"levelo_inurba_marseille","lat":43.28871,"lon":5.4252,"is_reserved":false,"is_disabled":false,"rental_uris":{"android":"levelo://app?vid=c3ad4594-4e4a-42f9-93e2-c25c45a735b2","ios":"levelo://app?vid=c3ad4594-4e4a-42f9-93e2-c25c45a735b2"},"vehicle_type_id":"4","last_reported":1758089802,"current_range_meters":6800,"station_id":"","pricing_plan_id":"cebpf4jnsgd1na2vs0mg"},{"bike_id":"2de32192-fcc8-4456-b858-c38f1ec0caae","system_id":"levelo_inurba_marseille","lat":43.290314,"lon":5.386516,"is_reserved":false,"is_disabled":false,"rental_uris":{"android":"levelo://app?vid=2de32192-fcc8-4456-b858-c38f1ec0caae","ios":"levelo://app?vid=2de32192-fcc8-4456-b858-c38f1ec0caae"},"vehicle_type_id":"4","last_reported":1758089802,"current_range_meters":6800,"station_id":"ce4bh4p2rcd13ifvqe0g","pricing_plan_id":"cebpf4jnsgd1na2vs0mg"},{"bike_id":"c07e7a2d-d8a6-4efd-8723-e965be4d1a74","system_id":"levelo_inurba_marseille","lat":43.22533,"lon":5.348367,"is_reserved":false,"is_disabled":false,"rental_uris":{"android":"levelo://app?vid=c07e7a2d-d8a6-4efd-8723-e965be4d1a74","ios":"levelo://app?vid=c07e7a2d-d8a6-4efd-8723-e965be4d1a74"},"vehicle_type_id":"4","last_reported":1758089802,"current_range_meters":6800,"station_id":"","pricing_plan_id":"cebpf4jnsgd1na2vs0mg"},{"bike_id":"191cd315-fefe-4d19-b639-ca3385c1a6a9","system_id":"levelo_inurba_marseille","lat":43.28604,"lon":5.37098,"is_reserved":false,"is_disabled":false,"rental_uris":{"android":"levelo://app?vid=191cd315-fefe-4d19-b639-ca3385c1a6a9","ios":"levelo://app?vid=191cd315-fefe-4d19-b639-ca3385c1a6a9"},"vehicle_type_id":"4","last_reported":1758089802,"current_range_meters":7200,"station_id":"ce4bht12rcd13ifvqi60","pricing_plan_id":"cebpf4jnsgd1na2vs0mg"},{"bike_id":"24134c4f-7420-49cc-a4b9-fce39e8b3a82","system_id":"levelo_inurba_marseille","lat":43.270714,"lon":5.402505,"is_reserved":false,"is_disabled":true,"rental_uris":{"android":"levelo://app?vid=24134c4f-7420-49cc-a4b9-fce39e8b3a82","ios":"levelo://app?vid=24134c4f-7420-49cc-a4b9-fce39e8b3a82"},"vehicle_type_id":"4","last_reported":1758089802,"current_range_meters":7200,"station_id":"ce4bhk92rcd13ifvqgc0","pricing_plan_id":"cebpf4jnsgd1na2vs0mg"},{"bike_id":"23e1572e-7ccb-4eea-8020-599035749c9e","system_id":"levelo_inurba_marseille","lat":43.23832,"lon":5.36556,"is_reserved":false,"is_disabled":false,"rental_uris":{"android":"levelo://app?vid=23e1572e-7ccb-4eea-8020-599035749c9e","ios":"levelo://app?vid=23e1572e-7ccb-4eea-8020-599035749c9e"},"vehicle_type_id":"4","last_reported":1758089802,"current_range_meters":7200,"station_id":"","pricing_plan_id":"cebpf4jnsgd1na2vs0mg"},{"bike_id":"e824d254-16a6-4ae4-983a-05af083f4c81","system_id":"levelo_inurba_marseille","lat":43.21753,"lon":5.34607,"is_reserved":false,"is_disabled":false,"rental_uris":{"android":"levelo://app?vid=e824d254-16a6-4ae4-983a-05af083f4c81","ios":"levelo://app?vid=e824d254-16a6-4ae4-983a-05af083f4c81"},"vehicle_type_id":"4","last_reported":1758089802,"current_range_meters":8000,"station_id":"","pricing_plan_id":"cebpf4jnsgd1na2vs0mg"},{"bike_id":"d7b053ab-2912-4f16-abf7-c47be8c4e15a","system_id":"levelo_inurba_marseille","lat":43.265548,"lon":5.372901,"is_reserved":false,"is_disabled":true,"rental_uris":{"android":"levelo://app?vid=d7b053ab-2912-4f16-abf7-c47be8c4e15a","ios":"levelo://app?vid=d7b053ab-2912-4f16-abf7-c47be8c4e15a"},"vehicle_type_id":"4","last_reported":1758089802,"current_range_meters":8000,"station_id":"ce4bhg12rcd13ifvqf70","pricing_plan_id":"cebpf4jnsgd1na2vs0mg"},{"bike_id":"69988b7d-df73-40a2-8355-b27f7ffba152","system_id":"levelo_inurba_marseille","lat":43.28609,"lon":5.37061,"is_reserved":false,"is_disabled":false,"rental_uris":{"android":"levelo://app?vid=69988b7d-df73-40a2-8355-b27f7ffba152","ios":"levelo://app?vid=69988b7d-df73-40a2-8355-b27f7ffba152"},"vehicle_type_id":"4","last_reported":1758089802,"current_range_meters":8000,"station_id":"ce4bht12rcd13ifvqi60","pricing_plan_id":"cebpf4jnsgd1na2vs0mg"},{"bike_id":"8e8089f6-a97e-46c3-b7c0-3b7c4482a2cb","system_id":"levelo_inurba_marseille","lat":43.29795,"lon":5.39349,"is_reserved":false,"is_disabled":true,"rental_uris":{"android":"levelo://app?vid=8e8089f6-a97e-46c3-b7c0-3b7c4482a2cb","ios":"levelo://app?vid=8e8089f6-a97e-46c3-b7c0-3b7c4482a2cb"},"vehicle_type_id":"4","last_reported":1758089802,"current_range_meters":8000,"station_id":"chh1huq6cuj3fo74tm60","pricing_plan_id":"cebpf4jnsgd1na2vs0mg"},{"bike_id":"cd02c080-8936-4e2b-af4d-301cbe8eb8f1","system_id":"levelo_inurba_marseille","lat":43.30049,"lon":5.40379,"is_reserved":false,"is_disabled":false,"rental_uris":{"android":"levelo://app?vid=cd02c080-8936-4e2b-af4d-301cbe8eb8f1","ios":"levelo://app?vid=cd02c080-8936-4e2b-af4d-301cbe8eb8f1"},"vehicle_type_id":"4","last_reported":1758089802,"current_range_meters":8000,"station_id":"","pricing_plan_id":"cebpf4jnsgd1na2vs0mg"},{"bike_id":"a9f13996-cedb-42ef-8189-8cba3aa4b434","system_id":"levelo_inurba_marseille","lat":43.211928,"lon":5.350589,"is_reserved":false,"is_disabled":false,"rental_uris":{"android":"levelo://app?vid=a9f13996-cedb-42ef-8189-8cba3aa4b434","ios":"levelo://app?vid=a9f13996-cedb-42ef-8189-8cba3aa4b434"},"vehicle_type_id":"4","last_reported":1758089802,"current_range_meters":8000,"station_id":"st_cvj6sg6p6f1abm77japg","pricing_plan_id":"cebpf4jnsgd1na2vs0mg"},{"bike_id":"4946848f-50e1-48b9-8f80-a60fa56d0806","system_id":"levelo_inurba_marseille","lat":43.231523,"lon":5.437135,"is_reserved":false,"is_disabled":false,"rental_uris":{"android":"levelo://app?vid=4946848f-50e1-48b9-8f80-a60fa56d0806","ios":"levelo://app?vid=4946848f-50e1-48b9-8f80-a60fa56d0806"},"vehicle_type_id":"4","last_reported":1758089802,"current_range_meters":7200,"station_id":"ce4bhmp2rcd13ifvqgog","pricing_plan_id":"cebpf4jnsgd1na2vs0mg"},{"bike_id":"47eb1175-c054-422b-aa05-e7d152c094e2","system_id":"levelo_inurba_marseille","lat":43.30541,"lon":5.36712,"is_reserved":false,"is_disabled":false,"rental_uris":{"android":"levelo://app?vid=47eb1175-c054-422b-aa05-e7d152c094e2","ios":"levelo://app?vid=47eb1175-c054-422b-aa05-e7d152c094e2"},"vehicle_type_id":"4","last_reported":1758089802,"current_range_meters":8000,"station_id":"ce4bgrp2rcd13ifvqc9g","pricing_plan_id":"cebpf4jnsgd1na2vs0mg"},{"bike_id":"8f053048-b23f-4b40-99fa-d36de51bb874","system_id":"levelo_inurba_marseille","lat":43.30144,"lon":5.39901,"is_reserved":false,"is_disabled":false,"rental_uris":{"android":"levelo://app?vid=8f053048-b23f-4b40-99fa-d36de51bb874","ios":"levelo://app?vid=8f053048-b23f-4b40-99fa-d36de51bb874"},"vehicle_type_id":"4","last_reported":1758089802,"current_range_meters":8000,"station_id":"ce4bh0h2rcd13ifvqd40","pricing_plan_id":"cebpf4jnsgd1na2vs0mg"},{"bike_id":"77246e06-46b3-406d-9b69-b9b3e2cbdee1","system_id":"levelo_inurba_marseille","lat":43.28077,"lon":5.38676,"is_reserved":false,"is_disabled":false,"rental_uris":{"android":"levelo://app?vid=77246e06-46b3-406d-9b69-b9b3e2cbdee1","ios":"levelo://app?vid=77246e06-46b3-406d-9b69-b9b3e2cbdee1"},"vehicle_type_id":"4","last_reported":1758089802,"current_range_meters":8000,"station_id":"","pricing_plan_id":"cebpf4jnsgd1na2vs0mg"},{"bike_id":"cea0a1e2-df7e-4cb1-be5d-ab30e9212317","system_id":"levelo_inurba_marseille","lat":43.21754,"lon":5.34631,"is_reserved":false,"is_disabled":false,"rental_uris":{"android":"levelo://app?vid=cea0a1e2-df7e-4cb1-be5d-ab30e9212317","ios":"levelo://app?vid=cea0a1e2-df7e-4cb1-be5d-ab30e9212317"},"vehicle_type_id":"4","last_reported":1758089802,"current_range_meters":8400,"station_id":"","pricing_plan_id":"cebpf4jnsgd1na2vs0mg"},{"bike_id":"f621ea9c-c49b-4943-8d25-78ae7b5af1d6","system_id":"levelo_inurba_marseille","lat":43.281616,"lon":5.426391,"is_reserved":false,"is_disabled":false,"rental_uris":{"android":"levelo://app?vid=f621ea9c-c49b-4943-8d25-78ae7b5af1d6","ios":"levelo://app?vid=f621ea9c-c49b-4943-8d25-78ae7b5af1d6"},"vehicle_type_id":"4","last_reported":1758089802,"current_range_meters":8400,"station_id":"ce4bhnh2rcd13ifvqgug","pricing_plan_id":"cebpf4jnsgd1na2vs0mg"},{"bike_id":"64b1deee-ef02-45e9-a66a-3e5e20b8d612","system_id":"levelo_inurba_marseille","lat":43.299284,"lon":5.385203,"is_reserved":false,"is_disabled":false,"rental_uris":{"android":"levelo://app?vid=64b1deee-ef02-45e9-a66a-3e5e20b8d612","ios":"levelo://app?vid=64b1deee-ef02-45e9-a66a-3e5e20b8d612"},"vehicle_type_id":"4","last_reported":1758089802,"current_range_meters":8400,"station_id":"ce4bgop2rcd13ifvqc1g","pricing_plan_id":"cebpf4jnsgd1na2vs0mg"},{"bike_id":"03ef0763-5638-4ff2-8a0e-7ab9fd652e88","system_id":"levelo_inurba_marseille","lat":43.337558,"lon":5.374475,"is_reserved":false,"is_disabled":false,"rental_uris":{"android":"levelo://app?vid=03ef0763-5638-4ff2-8a0e-7ab9fd652e88","ios":"levelo://app?vid=03ef0763-5638-4ff2-8a0e-7ab9fd652e88"},"vehicle_type_id":"4","last_reported":1758089802,"current_range_meters":8400,"station_id":"","pricing_plan_id":"cebpf4jnsgd1na2vs0mg"},{"bike_id":"a258d293-c46a-4eee-86b9-6496e8daf07b","system_id":"levelo_inurba_marseille","lat":43.28439,"lon":5.38502,"is_reserved":false,"is_disabled":false,"rental_uris":{"android":"levelo://app?vid=a258d293-c46a-4eee-86b9-6496e8daf07b","ios":"levelo://app?vid=a258d293-c46a-4eee-86b9-6496e8daf07b"},"vehicle_type_id":"4","last_reported":1758089802,"current_range_meters":8400,"station_id":"","pricing_plan_id":"cebpf4jnsgd1na2vs0mg"},{"bike_id":"93f07f6f-5b7e-4865-96ca-e480b6e40179","system_id":"levelo_inurba_marseille","lat":43.29935,"lon":5.36534,"is_reserved":false,"is_disabled":false,"rental_uris":{"android":"levelo://app?vid=93f07f6f-5b7e-4865-96ca-e480b6e40179","ios":"levelo://app?vid=93f07f6f-5b7e-4865-96ca-e480b6e40179"},"vehicle_type_id":"4","last_reported":1758089802,"current_range_meters":8400,"station_id":"ce4bgm92rcd13ifvqbr0","pricing_plan_id":"cebpf4jnsgd1na2vs0mg"},{"bike_id":"b65a4baa-b198-47c0-83fd-7c3cec84a0c7","system_id":"levelo_inurba_marseille","lat":43.29793,"lon":5.38089,"is_reserved":false,"is_disabled":false,"rental_uris":{"android":"levelo://app?vid=b65a4baa-b198-47c0-83fd-7c3cec84a0c7","ios":"levelo://app?vid=b65a4baa-b198-47c0-83fd-7c3cec84a0c7"},"vehicle_type_id":"4","last_reported":1758089802,"current_range_meters":8400,"station_id":"","pricing_plan_id":"cebpf4jnsgd1na2vs0mg"},{"bike_id":"4ecfec8f-3436-4194-b649-9c8598a0e150","system_id":"levelo_inurba_marseille","lat":43.30165,"lon":5.38081,"is_reserved":false,"is_disabled":false,"rental_uris":{"android":"levelo://app?vid=4ecfec8f-3436-4194-b649-9c8598a0e150","ios":"levelo://app?vid=4ecfec8f-3436-4194-b649-9c8598a0e150"},"vehicle_type_id":"4","last_reported":1758089802,"current_range_meters":8400,"station_id":"ce4bgjp2rcd13ifvqbh0","pricing_plan_id":"cebpf4jnsgd1na2vs0mg"},{"bike_id":"4f8e8e93-35f1-48b3-95e4-10fba79de0e1","system_id":"levelo_inurba_marseille","lat":43.30081,"lon":5.374268,"is_reserved":false,"is_disabled":false,"rental_uris":{"android":"levelo://app?vid=4f8e8e93-35f1-48b3-95e4-10fba79de0e1","ios":"levelo://app?vid=4f8e8e93-35f1-48b3-95e4-10fba79de0e1"},"vehicle_type_id":"4","last_reported":1758089802,"current_range_meters":8400,"station_id":"ce4bhsh2rcd13ifvqi2g","pricing_plan_id":"cebpf4jnsgd1na2vs0mg"},{"bike_id":"ab19cdea-a92f-4e8a-805b-6945eeeab1f0","system_id":"levelo_inurba_marseille","lat":43.23153,"lon":5.43712,"is_reserved":false,"is_disabled":false,"rental_uris":{"android":"levelo://app?vid=ab19cdea-a92f-4e8a-805b-6945eeeab1f0","ios":"levelo://app?vid=ab19cdea-a92f-4e8a-805b-6945eeeab1f0"},"vehicle_type_id":"4","last_reported":1758089802,"current_range_meters":8800,"station_id":"ce4bhmp2rcd13ifvqgog","pricing_plan_id":"cebpf4jnsgd1na2vs0mg"},{"bike_id":"8c14cb5a-2a15-4ae5-828f-1925a46d9cb5","system_id":"levelo_inurba_marseille","lat":43.26936,"lon":5.4026,"is_reserved":false,"is_disabled":false,"rental_uris":{"android":"levelo://app?vid=8c14cb5a-2a15-4ae5-828f-1925a46d9cb5","ios":"levelo://app?vid=8c14cb5a-2a15-4ae5-828f-1925a46d9cb5"},"vehicle_type_id":"4","last_reported":1758089802,"current_range_meters":8800,"station_id":"cjm6bp8fraef2m0cb0m0","pricing_plan_id":"cebpf4jnsgd1na2vs0mg"},{"bike_id":"f7825ce6-de89-45bf-831f-3599d0d91c3c","system_id":"levelo_inurba_marseille","lat":43.31042,"lon":5.40163,"is_reserved":false,"is_disabled":true,"rental_uris":{"android":"levelo://app?vid=f7825ce6-de89-45bf-831f-3599d0d91c3c","ios":"levelo://app?vid=f7825ce6-de89-45bf-831f-3599d0d91c3c"},"vehicle_type_id":"4","last_reported":1758089802,"current_range_meters":8800,"station_id":"","pricing_plan_id":"cebpf4jnsgd1na2vs0mg"},{"bike_id":"1adf19b1-1fe1-45a2-8f27-ed9267a2b569","system_id":"levelo_inurba_marseille","lat":43.31506,"lon":5.37256,"is_reserved":false,"is_disabled":false,"rental_uris":{"android":"levelo://app?vid=1adf19b1-1fe1-45a2-8f27-ed9267a2b569","ios":"levelo://app?vid=1adf19b1-1fe1-45a2-8f27-ed9267a2b569"},"vehicle_type_id":"4","last_reported":1758089802,"current_range_meters":8800,"station_id":"ce4bgt12rcd13ifvqcd0","pricing_plan_id":"cebpf4jnsgd1na2vs0mg"},{"bike_id":"4c0dd611-6f32-4401-8354-46310a770946","system_id":"levelo_inurba_marseille","lat":43.2315,"lon":5.43724,"is_reserved":false,"is_disabled":false,"rental_uris":{"android":"levelo://app?vid=4c0dd611-6f32-4401-8354-46310a770946","ios":"levelo://app?vid=4c0dd611-6f32-4401-8354-46310a770946"},"vehicle_type_id":"4","last_reported":1758089802,"current_range_meters":8800,"station_id":"ce4bhmp2rcd13ifvqgog","pricing_plan_id":"cebpf4jnsgd1na2vs0mg"},{"bike_id":"530010d4-6af7-443c-9c2c-ccf5b27258fc","system_id":"levelo_inurba_marseille","lat":43.32525,"lon":5.41421,"is_reserved":false,"is_disabled":false,"rental_uris":{"android":"levelo://app?vid=530010d4-6af7-443c-9c2c-ccf5b27258fc","ios":"levelo://app?vid=530010d4-6af7-443c-9c2c-ccf5b27258fc"},"vehicle_type_id":"4","last_reported":1758089802,"current_range_meters":8800,"station_id":"ce4bhq12rcd13ifvqhhg","pricing_plan_id":"cebpf4jnsgd1na2vs0mg"},{"bike_id":"d8daae85-8a40-4f7a-b2a6-57d12ab5bc37","system_id":"levelo_inurba_marseille","lat":43.24072,"lon":5.37761,"is_reserved":false,"is_disabled":false,"rental_uris":{"android":"levelo://app?vid=d8daae85-8a40-4f7a-b2a6-57d12ab5bc37","ios":"levelo://app?vid=d8daae85-8a40-4f7a-b2a6-57d12ab5bc37"},"vehicle_type_id":"4","last_reported":1758089802,"current_range_meters":8800,"station_id":"ce4bhnp2rcd13ifvqgvg","pricing_plan_id":"cebpf4jnsgd1na2vs0mg"},{"bike_id":"15bce6cf-7898-43f9-a31c-e32126d8f8a1","system_id":"levelo_inurba_marseille","lat":43.25176,"lon":5.42477,"is_reserved":false,"is_disabled":false,"rental_uris":{"android":"levelo://app?vid=15bce6cf-7898-43f9-a31c-e32126d8f8a1","ios":"levelo://app?vid=15bce6cf-7898-43f9-a31c-e32126d8f8a1"},"vehicle_type_id":"4","last_reported":1758089802,"current_range_meters":9200,"station_id":"","pricing_plan_id":"cebpf4jnsgd1na2vs0mg"},{"bike_id":"1b6a995d-34ac-45d5-9528-44d2f8bbd183","system_id":"levelo_inurba_marseille","lat":43.28487,"lon":5.35951,"is_reserved":false,"is_disabled":false,"rental_uris":{"android":"levelo://app?vid=1b6a995d-34ac-45d5-9528-44d2f8bbd183","ios":"levelo://app?vid=1b6a995d-34ac-45d5-9528-44d2f8bbd183"},"vehicle_type_id":"4","last_reported":1758089802,"current_range_meters":9600,"station_id":"","pricing_plan_id":"cebpf4jnsgd1na2vs0mg"},{"bike_id":"29de40ad-c8a6-4eb0-ac4c-400b5f00abcf","system_id":"levelo_inurba_marseille","lat":43.28631,"lon":5.3642,"is_reserved":false,"is_disabled":false,"rental_uris":{"android":"levelo://app?vid=29de40ad-c8a6-4eb0-ac4c-400b5f00abcf","ios":"levelo://app?vid=29de40ad-c8a6-4eb0-ac4c-400b5f00abcf"},"vehicle_type_id":"4","last_reported":1758089802,"current_range_meters":9600,"station_id":"","pricing_plan_id":"cebpf4jnsgd1na2vs0mg"},{"bike_id":"3f31a35f-aac4-41ef-9e0e-acd3c3fdd234","system_id":"levelo_inurba_marseille","lat":43.28702,"lon":5.38819,"is_reserved":false,"is_disabled":false,"rental_uris":{"android":"levelo://app?vid=3f31a35f-aac4-41ef-9e0e-acd3c3fdd234","ios":"levelo://app?vid=3f31a35f-aac4-41ef-9e0e-acd3c3fdd234"},"vehicle_type_id":"4","last_reported":1758089802,"current_range_meters":9600,"station_id":"","pricing_plan_id":"cebpf4jnsgd1na2vs0mg"},{"bike_id":"75c9b66a-bb05-4842-a541-a08fe616e95b","system_id":"levelo_inurba_marseille","lat":43.28937,"lon":5.3664,"is_reserved":false,"is_disabled":false,"rental_uris":{"android":"levelo://app?vid=75c9b66a-bb05-4842-a541-a08fe616e95b","ios":"levelo://app?vid=75c9b66a-bb05-4842-a541-a08fe616e95b"},"vehicle_type_id":"4","last_reported":1758089802,"current_range_meters":9600,"station_id":"ce4bhap2rcd13ifvqek0","pricing_plan_id":"cebpf4jnsgd1na2vs0mg"},{"bike_id":"336c74d9-d9c9-46d7-a94b-134b36ad023a","system_id":"levelo_inurba_marseille","lat":43.29853,"lon":5.37846,"is_reserved":false,"is_disabled":false,"rental_uris":{"android":"levelo://app?vid=336c74d9-d9c9-46d7-a94b-134b36ad023a","ios":"levelo://app?vid=336c74d9-d9c9-46d7-a94b-134b36ad023a"},"vehicle_type_id":"4","last_reported":1758089802,"current_range_meters":9600,"station_id":"","pricing_plan_id":"cebpf4jnsgd1na2vs0mg"},{"bike_id":"3b26aa0d-3679-4b4c-9b55-1096f6d08a9d","system_id":"levelo_inurba_marseille","lat":43.31306,"lon":5.39441,"is_reserved":false,"is_disabled":false,"rental_uris":{"android":"levelo://app?vid=3b26aa0d-3679-4b4c-9b55-1096f6d08a9d","ios":"levelo://app?vid=3b26aa0d-3679-4b4c-9b55-1096f6d08a9d"},"vehicle_type_id":"4","last_reported":1758089802,"current_range_meters":9600,"station_id":"","pricing_plan_id":"cebpf4jnsgd1na2vs0mg"},{"bike_id":"56a8382c-81fd-4b55-a319-db756e731611","system_id":"levelo_inurba_marseille","lat":43.33757,"lon":5.37482,"is_reserved":false,"is_disabled":false,"rental_uris":{"android":"levelo://app?vid=56a8382c-81fd-4b55-a319-db756e731611","ios":"levelo://app?vid=56a8382c-81fd-4b55-a319-db756e731611"},"vehicle_type_id":"4","last_reported":1758089802,"current_range_meters":9600,"station_id":"","pricing_plan_id":"cebpf4jnsgd1na2vs0mg"},{"bike_id":"4c70b6ba-1376-4775-8247-c41b9ccd75f0","system_id":"levelo_inurba_marseille","lat":43.29244,"lon":5.40909,"is_reserved":false,"is_disabled":true,"rental_uris":{"android":"levelo://app?vid=4c70b6ba-1376-4775-8247-c41b9ccd75f0","ios":"levelo://app?vid=4c70b6ba-1376-4775-8247-c41b9ccd75f0"},"vehicle_type_id":"4","last_reported":1758089802,"current_range_meters":10000,"station_id":"ce4bh192rcd13ifvqdc0","pricing_plan_id":"cebpf4jnsgd1na2vs0mg"},{"bike_id":"41a7a607-e304-4963-9736-5e54f45a85c0","system_id":"levelo_inurba_marseille","lat":43.31268,"lon":5.40166,"is_reserved":false,"is_disabled":false,"rental_uris":{"android":"levelo://app?vid=41a7a607-e304-4963-9736-5e54f45a85c0","ios":"levelo://app?vid=41a7a607-e304-4963-9736-5e54f45a85c0"},"vehicle_type_id":"4","last_reported":1758089802,"current_range_meters":10000,"station_id":"ce4bh092rcd13ifvqd30","pricing_plan_id":"cebpf4jnsgd1na2vs0mg"},{"bike_id":"3533a8d6-e5c3-4f95-81b6-96cdb8a694e2","system_id":"levelo_inurba_marseille","lat":43.28401,"lon":5.3754,"is_reserved":false,"is_disabled":false,"rental_uris":{"android":"levelo://app?vid=3533a8d6-e5c3-4f95-81b6-96cdb8a694e2","ios":"levelo://app?vid=3533a8d6-e5c3-4f95-81b6-96cdb8a694e2"},"vehicle_type_id":"4","last_reported":1758089802,"current_range_meters":10000,"station_id":"ce4bh412rcd13ifvqds0","pricing_plan_id":"cebpf4jnsgd1na2vs0mg"},{"bike_id":"84319f24-fb83-4a63-9916-92c6a8aaa1b8","system_id":"levelo_inurba_marseille","lat":43.27997,"lon":5.41631,"is_reserved":false,"is_disabled":true,"rental_uris":{"android":"levelo://app?vid=84319f24-fb83-4a63-9916-92c6a8aaa1b8","ios":"levelo://app?vid=84319f24-fb83-4a63-9916-92c6a8aaa1b8"},"vehicle_type_id":"4","last_reported":1758089802,"current_range_meters":10000,"station_id":"ce4bho12rcd13ifvqh1g","pricing_plan_id":"cebpf4jnsgd1na2vs0mg"},{"bike_id":"76e349fa-bc9b-47a4-9c39-43f8ccd1efae","system_id":"levelo_inurba_marseille","lat":43.280404,"lon":5.369436,"is_reserved":false,"is_disabled":true,"rental_uris":{"android":"levelo://app?vid=76e349fa-bc9b-47a4-9c39-43f8ccd1efae","ios":"levelo://app?vid=76e349fa-bc9b-47a4-9c39-43f8ccd1efae"},"vehicle_type_id":"4","last_reported":1758089802,"current_range_meters":10000,"station_id":"ce4bha12rcd13ifvqef0","pricing_plan_id":"cebpf4jnsgd1na2vs0mg"},{"bike_id":"0ede21be-37d9-4495-b672-80274a6292be","system_id":"levelo_inurba_marseille","lat":43.35051,"lon":5.34082,"is_reserved":false,"is_disabled":false,"rental_uris":{"android":"levelo://app?vid=0ede21be-37d9-4495-b672-80274a6292be","ios":"levelo://app?vid=0ede21be-37d9-4495-b672-80274a6292be"},"vehicle_type_id":"4","last_reported":1758089802,"current_range_meters":10000,"station_id":"","pricing_plan_id":"cebpf4jnsgd1na2vs0mg"},{"bike_id":"99b1f494-78e2-48ab-b861-45d187280170","system_id":"levelo_inurba_marseille","lat":43.231929,"lon":5.399897,"is_reserved":false,"is_disabled":false,"rental_uris":{"android":"levelo://app?vid=99b1f494-78e2-48ab-b861-45d187280170","ios":"levelo://app?vid=99b1f494-78e2-48ab-b861-45d187280170"},"vehicle_type_id":"4","last_reported":1758089802,"current_range_meters":10800,"station_id":"ce4bhn12rcd13ifvqgqg","pricing_plan_id":"cebpf4jnsgd1na2vs0mg"},{"bike_id":"ece07351-e21d-4c48-bd8e-d6076d0d6379","system_id":"levelo_inurba_marseille","lat":43.28479,"lon":5.37483,"is_reserved":false,"is_disabled":false,"rental_uris":{"android":"levelo://app?vid=ece07351-e21d-4c48-bd8e-d6076d0d6379","ios":"levelo://app?vid=ece07351-e21d-4c48-bd8e-d6076d0d6379"},"vehicle_type_id":"4","last_reported":1758089802,"current_range_meters":10800,"station_id":"","pricing_plan_id":"cebpf4jnsgd1na2vs0mg"},{"bike_id":"2bf1de04-a2ff-4cf6-a383-1804458c43b9","system_id":"levelo_inurba_marseille","lat":43.25582,"lon":5.38254,"is_reserved":false,"is_disabled":false,"rental_uris":{"android":"levelo://app?vid=2bf1de04-a2ff-4cf6-a383-1804458c43b9","ios":"levelo://app?vid=2bf1de04-a2ff-4cf6-a383-1804458c43b9"},"vehicle_type_id":"4","last_reported":1758089802,"current_range_meters":10800,"station_id":"ce4bhih2rcd13ifvqfs0","pricing_plan_id":"cebpf4jnsgd1na2vs0mg"},{"bike_id":"1bfeff6d-e0ce-41e6-a209-46510be2d8e7","system_id":"levelo_inurba_marseille","lat":43.30295,"lon":5.37697,"is_reserved":false,"is_disabled":false,"rental_uris":{"android":"levelo://app?vid=1bfeff6d-e0ce-41e6-a209-46510be2d8e7","ios":"levelo://app?vid=1bfeff6d-e0ce-41e6-a209-46510be2d8e7"},"vehicle_type_id":"4","last_reported":1758089802,"current_range_meters":10000,"station_id":"ce4bguh2rcd13ifvqcj0","pricing_plan_id":"cebpf4jnsgd1na2vs0mg"},{"bike_id":"31f511c7-5088-4534-9bd5-9cce0442d874","system_id":"levelo_inurba_marseille","lat":43.25338,"lon":5.4217,"is_reserved":false,"is_disabled":false,"rental_uris":{"android":"levelo://app?vid=31f511c7-5088-4534-9bd5-9cce0442d874","ios":"levelo://app?vid=31f511c7-5088-4534-9bd5-9cce0442d874"},"vehicle_type_id":"4","last_reported":1758089802,"current_range_meters":10800,"station_id":"st_d2m65c5bi1j21697t3ng","pricing_plan_id":"cebpf4jnsgd1na2vs0mg"},{"bike_id":"a20305c3-1291-4951-91c0-102694e33104","system_id":"levelo_inurba_marseille","lat":43.258243,"lon":5.394292,"is_reserved":false,"is_disabled":false,"rental_uris":{"android":"levelo://app?vid=a20305c3-1291-4951-91c0-102694e33104","ios":"levelo://app?vid=a20305c3-1291-4951-91c0-102694e33104"},"vehicle_type_id":"4","last_reported":1758089802,"current_range_meters":10800,"station_id":"ce4bhip2rcd13ifvqft0","pricing_plan_id":"cebpf4jnsgd1na2vs0mg"},{"bike_id":"33402864-f5e0-47e4-8687-c925adfc3d24","system_id":"levelo_inurba_marseille","lat":43.24177,"lon":5.36391,"is_reserved":false,"is_disabled":false,"rental_uris":{"android":"levelo://app?vid=33402864-f5e0-47e4-8687-c925adfc3d24","ios":"levelo://app?vid=33402864-f5e0-47e4-8687-c925adfc3d24"},"vehicle_type_id":"4","last_reported":1758089802,"current_range_meters":10800,"station_id":"cpo36qri1sfpv3e86is0","pricing_plan_id":"cebpf4jnsgd1na2vs0mg"},{"bike_id":"5c0b2341-c41a-4f62-9e5f-92e6a593fad9","system_id":"levelo_inurba_marseille","lat":43.3379,"lon":5.37424,"is_reserved":false,"is_disabled":false,"rental_uris":{"android":"levelo://app?vid=5c0b2341-c41a-4f62-9e5f-92e6a593fad9","ios":"levelo://app?vid=5c0b2341-c41a-4f62-9e5f-92e6a593fad9"},"vehicle_type_id":"4","last_reported":1758089802,"current_range_meters":11200,"station_id":"","pricing_plan_id":"cebpf4jnsgd1na2vs0mg"},{"bike_id":"6f3e1b0b-8bcb-49e4-a386-3d051d62764b","system_id":"levelo_inurba_marseille","lat":43.31493,"lon":5.39086,"is_reserved":false,"is_disabled":false,"rental_uris":{"android":"levelo://app?vid=6f3e1b0b-8bcb-49e4-a386-3d051d62764b","ios":"levelo://app?vid=6f3e1b0b-8bcb-49e4-a386-3d051d62764b"},"vehicle_type_id":"4","last_reported":1758089802,"current_range_meters":11200,"station_id":"","pricing_plan_id":"cebpf4jnsgd1na2vs0mg"},{"bike_id":"14debadb-7e1e-4275-a3de-829f1bd2403f","system_id":"levelo_inurba_marseille","lat":43.310661,"lon":5.383458,"is_reserved":false,"is_disabled":true,"rental_uris":{"android":"levelo://app?vid=14debadb-7e1e-4275-a3de-829f1bd2403f","ios":"levelo://app?vid=14debadb-7e1e-4275-a3de-829f1bd2403f"},"vehicle_type_id":"4","last_reported":1758089802,"current_range_meters":11200,"station_id":"ce4bgv92rcd13ifvqcr0","pricing_plan_id":"cebpf4jnsgd1na2vs0mg"},{"bike_id":"0e7f7e2e-fba0-497e-bca2-12fa80a7500f","system_id":"levelo_inurba_marseille","lat":43.30122,"lon":5.3983,"is_reserved":false,"is_disabled":false,"rental_uris":{"android":"levelo://app?vid=0e7f7e2e-fba0-497e-bca2-12fa80a7500f","ios":"levelo://app?vid=0e7f7e2e-fba0-497e-bca2-12fa80a7500f"},"vehicle_type_id":"4","last_reported":1758089802,"current_range_meters":11200,"station_id":"ce4bh0h2rcd13ifvqd40","pricing_plan_id":"cebpf4jnsgd1na2vs0mg"},{"bike_id":"c8298fe6-8a38-4cbe-8fc1-5b4bd0e2bb06","system_id":"levelo_inurba_marseille","lat":43.22954,"lon":5.35338,"is_reserved":false,"is_disabled":false,"rental_uris":{"android":"levelo://app?vid=c8298fe6-8a38-4cbe-8fc1-5b4bd0e2bb06","ios":"levelo://app?vid=c8298fe6-8a38-4cbe-8fc1-5b4bd0e2bb06"},"vehicle_type_id":"4","last_reported":1758089802,"current_range_meters":11200,"station_id":"cpo3532slgdg3j2ikp40","pricing_plan_id":"cebpf4jnsgd1na2vs0mg"},{"bike_id":"de56f0db-e2c3-4a33-bb15-3fea38ea001b","system_id":"levelo_inurba_marseille","lat":43.27489,"lon":5.42455,"is_reserved":false,"is_disabled":false,"rental_uris":{"android":"levelo://app?vid=de56f0db-e2c3-4a33-bb15-3fea38ea001b","ios":"levelo://app?vid=de56f0db-e2c3-4a33-bb15-3fea38ea001b"},"vehicle_type_id":"4","last_reported":1758089802,"current_range_meters":11200,"station_id":"ce4bhn92rcd13ifvqgrg","pricing_plan_id":"cebpf4jnsgd1na2vs0mg"},{"bike_id":"0e264c41-ee86-4a1c-8df1-b8df730650d3","system_id":"levelo_inurba_marseille","lat":43.30412,"lon":5.41316,"is_reserved":false,"is_disabled":false,"rental_uris":{"android":"levelo://app?vid=0e264c41-ee86-4a1c-8df1-b8df730650d3","ios":"levelo://app?vid=0e264c41-ee86-4a1c-8df1-b8df730650d3"},"vehicle_type_id":"4","last_reported":1758089802,"current_range_meters":11200,"station_id":"ce4bhop2rcd13ifvqh8g","pricing_plan_id":"cebpf4jnsgd1na2vs0mg"},{"bike_id":"3d54776d-d4ef-4071-b9e3-3903882634dc","system_id":"levelo_inurba_marseille","lat":43.2968,"lon":5.37294,"is_reserved":false,"is_disabled":false,"rental_uris":{"android":"levelo://app?vid=3d54776d-d4ef-4071-b9e3-3903882634dc","ios":"levelo://app?vid=3d54776d-d4ef-4071-b9e3-3903882634dc"},"vehicle_type_id":"4","last_reported":1758089802,"current_range_meters":11600,"station_id":"ce4bgk12rcd13ifvqbj0","pricing_plan_id":"cebpf4jnsgd1na2vs0mg"},{"bike_id":"c6a5f5c1-d919-40fa-abe5-7da6704eaa09","system_id":"levelo_inurba_marseille","lat":43.289499,"lon":5.366341,"is_reserved":false,"is_disabled":false,"rental_uris":{"android":"levelo://app?vid=c6a5f5c1-d919-40fa-abe5-7da6704eaa09","ios":"levelo://app?vid=c6a5f5c1-d919-40fa-abe5-7da6704eaa09"},"vehicle_type_id":"4","last_reported":1758089802,"current_range_meters":11600,"station_id":"ce4bhap2rcd13ifvqek0","pricing_plan_id":"cebpf4jnsgd1na2vs0mg"},{"bike_id":"a49fbe9b-abaf-4300-9a30-65ac548c966e","system_id":"levelo_inurba_marseille","lat":43.27186,"lon":5.41011,"is_reserved":false,"is_disabled":false,"rental_uris":{"android":"levelo://app?vid=a49fbe9b-abaf-4300-9a30-65ac548c966e","ios":"levelo://app?vid=a49fbe9b-abaf-4300-9a30-65ac548c966e"},"vehicle_type_id":"4","last_reported":1758089802,"current_range_meters":11600,"station_id":"ce4bhl12rcd13ifvqgf0","pricing_plan_id":"cebpf4jnsgd1na2vs0mg"},{"bike_id":"003515e8-8117-44bb-979d-5f47e8d50fda","system_id":"levelo_inurba_marseille","lat":43.30614,"lon":5.37577,"is_reserved":false,"is_disabled":false,"rental_uris":{"android":"levelo://app?vid=003515e8-8117-44bb-979d-5f47e8d50fda","ios":"levelo://app?vid=003515e8-8117-44bb-979d-5f47e8d50fda"},"vehicle_type_id":"4","last_reported":1758089802,"current_range_meters":12000,"station_id":"","pricing_plan_id":"cebpf4jnsgd1na2vs0mg"},{"bike_id":"11555ead-152a-4e2f-ac3e-7aaa852c50e5","system_id":"levelo_inurba_marseille","lat":43.225326,"lon":5.348358,"is_reserved":false,"is_disabled":false,"rental_uris":{"android":"levelo://app?vid=11555ead-152a-4e2f-ac3e-7aaa852c50e5","ios":"levelo://app?vid=11555ead-152a-4e2f-ac3e-7aaa852c50e5"},"vehicle_type_id":"4","last_reported":1758089802,"current_range_meters":12000,"station_id":"","pricing_plan_id":"cebpf4jnsgd1na2vs0mg"},{"bike_id":"8f4ad0b8-766d-4695-bb86-4d7675cfc837","system_id":"levelo_inurba_marseille","lat":43.24818,"lon":5.37471,"is_reserved":false,"is_disabled":false,"rental_uris":{"android":"levelo://app?vid=8f4ad0b8-766d-4695-bb86-4d7675cfc837","ios":"levelo://app?vid=8f4ad0b8-766d-4695-bb86-4d7675cfc837"},"vehicle_type_id":"4","last_reported":1758089802,"current_range_meters":12000,"station_id":"ce4bhgh2rcd13ifvqfb0","pricing_plan_id":"cebpf4jnsgd1na2vs0mg"},{"bike_id":"d4899e16-206e-4848-8503-6591cda397ed","system_id":"levelo_inurba_marseille","lat":43.30382,"lon":5.377727,"is_reserved":false,"is_disabled":false,"rental_uris":{"android":"levelo://app?vid=d4899e16-206e-4848-8503-6591cda397ed","ios":"levelo://app?vid=d4899e16-206e-4848-8503-6591cda397ed"},"vehicle_type_id":"4","last_reported":1758089802,"current_range_meters":15200,"station_id":"ce4bgup2rcd13ifvqcn0","pricing_plan_id":"cebpf4jnsgd1na2vs0mg"},{"bike_id":"8f41cab1-3440-487d-a7d3-43e886ab65e9","system_id":"levelo_inurba_marseille","lat":43.30545,"lon":5.36529,"is_reserved":false,"is_disabled":false,"rental_uris":{"android":"levelo://app?vid=8f41cab1-3440-487d-a7d3-43e886ab65e9","ios":"levelo://app?vid=8f41cab1-3440-487d-a7d3-43e886ab65e9"},"vehicle_type_id":"4","last_reported":1758089802,"current_range_meters":12400,"station_id":"ce4bgs12rcd13ifvqcag","pricing_plan_id":"cebpf4jnsgd1na2vs0mg"},{"bike_id":"1ef5adac-edb8-45ad-8d79-b7e909330573","system_id":"levelo_inurba_marseille","lat":43.2408,"lon":5.37754,"is_reserved":false,"is_disabled":false,"rental_uris":{"android":"levelo://app?vid=1ef5adac-edb8-45ad-8d79-b7e909330573","ios":"levelo://app?vid=1ef5adac-edb8-45ad-8d79-b7e909330573"},"vehicle_type_id":"4","last_reported":1758089802,"current_range_meters":12400,"station_id":"ce4bhnp2rcd13ifvqgvg","pricing_plan_id":"cebpf4jnsgd1na2vs0mg"},{"bike_id":"8616dd98-9dab-44e3-89cb-50505fa31e64","system_id":"levelo_inurba_marseille","lat":43.25924,"lon":5.40888,"is_reserved":false,"is_disabled":false,"rental_uris":{"android":"levelo://app?vid=8616dd98-9dab-44e3-89cb-50505fa31e64","ios":"levelo://app?vid=8616dd98-9dab-44e3-89cb-50505fa31e64"},"vehicle_type_id":"4","last_reported":1758089802,"current_range_meters":12400,"station_id":"ce4bhm92rcd13ifvqglg","pricing_plan_id":"cebpf4jnsgd1na2vs0mg"},{"bike_id":"5db01ac3-5db4-44cc-b205-4f61ad8cb456","system_id":"levelo_inurba_marseille","lat":43.24165,"lon":5.36404,"is_reserved":false,"is_disabled":false,"rental_uris":{"android":"levelo://app?vid=5db01ac3-5db4-44cc-b205-4f61ad8cb456","ios":"levelo://app?vid=5db01ac3-5db4-44cc-b205-4f61ad8cb456"},"vehicle_type_id":"4","last_reported":1758089802,"current_range_meters":12400,"station_id":"cpo36qri1sfpv3e86is0","pricing_plan_id":"cebpf4jnsgd1na2vs0mg"},{"bike_id":"917a4e1a-1976-4ddf-a21e-f094b6435c8f","system_id":"levelo_inurba_marseille","lat":43.292859,"lon":5.401521,"is_reserved":false,"is_disabled":false,"rental_uris":{"android":"levelo://app?vid=917a4e1a-1976-4ddf-a21e-f094b6435c8f","ios":"levelo://app?vid=917a4e1a-1976-4ddf-a21e-f094b6435c8f"},"vehicle_type_id":"4","last_reported":1758089802,"current_range_meters":12400,"station_id":"ce4bh312rcd13ifvqdk0","pricing_plan_id":"cebpf4jnsgd1na2vs0mg"},{"bike_id":"f1098405-62d3-4c34-8e31-ba0571f2dd0c","system_id":"levelo_inurba_marseille","lat":43.31346,"lon":5.36724,"is_reserved":false,"is_disabled":false,"rental_uris":{"android":"levelo://app?vid=f1098405-62d3-4c34-8e31-ba0571f2dd0c","ios":"levelo://app?vid=f1098405-62d3-4c34-8e31-ba0571f2dd0c"},"vehicle_type_id":"4","last_reported":1758089802,"current_range_meters":12400,"station_id":"ce4bgr92rcd13ifvqc6g","pricing_plan_id":"cebpf4jnsgd1na2vs0mg"},{"bike_id":"0d036d96-52a8-4be9-9a12-1b0ac8fd0bc6","system_id":"levelo_inurba_marseille","lat":43.3093,"lon":5.40167,"is_reserved":false,"is_disabled":false,"rental_uris":{"android":"levelo://app?vid=0d036d96-52a8-4be9-9a12-1b0ac8fd0bc6","ios":"levelo://app?vid=0d036d96-52a8-4be9-9a12-1b0ac8fd0bc6"},"vehicle_type_id":"4","last_reported":1758089802,"current_range_meters":12800,"station_id":"ce4bgvp2rcd13ifvqct0","pricing_plan_id":"cebpf4jnsgd1na2vs0mg"},{"bike_id":"880c3184-0365-4de3-a15a-f0cebdeb423f","system_id":"levelo_inurba_marseille","lat":43.31335,"lon":5.36707,"is_reserved":false,"is_disabled":false,"rental_uris":{"android":"levelo://app?vid=880c3184-0365-4de3-a15a-f0cebdeb423f","ios":"levelo://app?vid=880c3184-0365-4de3-a15a-f0cebdeb423f"},"vehicle_type_id":"4","last_reported":1758089802,"current_range_meters":12800,"station_id":"ce4bgr92rcd13ifvqc6g","pricing_plan_id":"cebpf4jnsgd1na2vs0mg"},{"bike_id":"3584c8e9-13a3-4904-91e3-06d644403edd","system_id":"levelo_inurba_marseille","lat":43.31387,"lon":5.36704,"is_reserved":false,"is_disabled":true,"rental_uris":{"android":"levelo://app?vid=3584c8e9-13a3-4904-91e3-06d644403edd","ios":"levelo://app?vid=3584c8e9-13a3-4904-91e3-06d644403edd"},"vehicle_type_id":"4","last_reported":1758089802,"current_range_meters":12800,"station_id":"ce4bgr92rcd13ifvqc6g","pricing_plan_id":"cebpf4jnsgd1na2vs0mg"},{"bike_id":"96644ae3-2807-4f95-a981-fef4ac2b0e69","system_id":"levelo_inurba_marseille","lat":43.225329,"lon":5.34835,"is_reserved":false,"is_disabled":false,"rental_uris":{"android":"levelo://app?vid=96644ae3-2807-4f95-a981-fef4ac2b0e69","ios":"levelo://app?vid=96644ae3-2807-4f95-a981-fef4ac2b0e69"},"vehicle_type_id":"4","last_reported":1758089802,"current_range_meters":12800,"station_id":"","pricing_plan_id":"cebpf4jnsgd1na2vs0mg"},{"bike_id":"e6a25b15-a035-4c78-afca-9d2dc17c4a3f","system_id":"levelo_inurba_marseille","lat":43.28398,"lon":5.34983,"is_reserved":false,"is_disabled":true,"rental_uris":{"android":"levelo://app?vid=e6a25b15-a035-4c78-afca-9d2dc17c4a3f","ios":"levelo://app?vid=e6a25b15-a035-4c78-afca-9d2dc17c4a3f"},"vehicle_type_id":"4","last_reported":1758089802,"current_range_meters":12800,"station_id":"ce4bhbh2rcd13ifvqepg","pricing_plan_id":"cebpf4jnsgd1na2vs0mg"},{"bike_id":"fcd56ccc-f0ab-49ef-a538-8c498b5ecd49","system_id":"levelo_inurba_marseille","lat":43.22582,"lon":5.41588,"is_reserved":false,"is_disabled":false,"rental_uris":{"android":"levelo://app?vid=fcd56ccc-f0ab-49ef-a538-8c498b5ecd49","ios":"levelo://app?vid=fcd56ccc-f0ab-49ef-a538-8c498b5ecd49"},"vehicle_type_id":"4","last_reported":1758089802,"current_range_meters":12800,"station_id":"st_d2o4gvlbi1j2169b742g","pricing_plan_id":"cebpf4jnsgd1na2vs0mg"},{"bike_id":"887f6008-588e-4d2c-a987-e618a6abbcac","system_id":"levelo_inurba_marseille","lat":43.31334,"lon":5.3671,"is_reserved":false,"is_disabled":false,"rental_uris":{"android":"levelo://app?vid=887f6008-588e-4d2c-a987-e618a6abbcac","ios":"levelo://app?vid=887f6008-588e-4d2c-a987-e618a6abbcac"},"vehicle_type_id":"4","last_reported":1758089802,"current_range_meters":12400,"station_id":"ce4bgr92rcd13ifvqc6g","pricing_plan_id":"cebpf4jnsgd1na2vs0mg"},{"bike_id":"07f900c9-d4b0-4f7f-97ac-ea60bda882d2","system_id":"levelo_inurba_marseille","lat":43.24069,"lon":5.37763,"is_reserved":false,"is_disabled":false,"rental_uris":{"android":"levelo://app?vid=07f900c9-d4b0-4f7f-97ac-ea60bda882d2","ios":"levelo://app?vid=07f900c9-d4b0-4f7f-97ac-ea60bda882d2"},"vehicle_type_id":"4","last_reported":1758089802,"current_range_meters":12800,"station_id":"ce4bhnp2rcd13ifvqgvg","pricing_plan_id":"cebpf4jnsgd1na2vs0mg"},{"bike_id":"6b7e857c-6b9d-4352-9992-af4324e1890c","system_id":"levelo_inurba_marseille","lat":43.29029,"lon":5.38195,"is_reserved":false,"is_disabled":true,"rental_uris":{"android":"levelo://app?vid=6b7e857c-6b9d-4352-9992-af4324e1890c","ios":"levelo://app?vid=6b7e857c-6b9d-4352-9992-af4324e1890c"},"vehicle_type_id":"4","last_reported":1758089802,"current_range_meters":12800,"station_id":"","pricing_plan_id":"cebpf4jnsgd1na2vs0mg"},{"bike_id":"4d428ea9-1dcb-4a75-b622-5cb7b20a1dad","system_id":"levelo_inurba_marseille","lat":43.32323,"lon":5.36608,"is_reserved":false,"is_disabled":false,"rental_uris":{"android":"levelo://app?vid=4d428ea9-1dcb-4a75-b622-5cb7b20a1dad","ios":"levelo://app?vid=4d428ea9-1dcb-4a75-b622-5cb7b20a1dad"},"vehicle_type_id":"4","last_reported":1758089802,"current_range_meters":13600,"station_id":"","pricing_plan_id":"cebpf4jnsgd1na2vs0mg"},{"bike_id":"ca5a1340-d41e-49f3-95f8-599734e0a36c","system_id":"levelo_inurba_marseille","lat":43.225336,"lon":5.348339,"is_reserved":false,"is_disabled":false,"rental_uris":{"android":"levelo://app?vid=ca5a1340-d41e-49f3-95f8-599734e0a36c","ios":"levelo://app?vid=ca5a1340-d41e-49f3-95f8-599734e0a36c"},"vehicle_type_id":"4","last_reported":1758089802,"current_range_meters":13600,"station_id":"","pricing_plan_id":"cebpf4jnsgd1na2vs0mg"},{"bike_id":"775af279-8ac9-4585-9121-809be9b13265","system_id":"levelo_inurba_marseille","lat":43.33768,"lon":5.373765,"is_reserved":false,"is_disabled":false,"rental_uris":{"android":"levelo://app?vid=775af279-8ac9-4585-9121-809be9b13265","ios":"levelo://app?vid=775af279-8ac9-4585-9121-809be9b13265"},"vehicle_type_id":"4","last_reported":1758089802,"current_range_meters":13600,"station_id":"","pricing_plan_id":"cebpf4jnsgd1na2vs0mg"},{"bike_id":"a4c5d1da-b728-4a0a-a897-920fb50df0e1","system_id":"levelo_inurba_marseille","lat":43.211966,"lon":5.350741,"is_reserved":false,"is_disabled":false,"rental_uris":{"android":"levelo://app?vid=a4c5d1da-b728-4a0a-a897-920fb50df0e1","ios":"levelo://app?vid=a4c5d1da-b728-4a0a-a897-920fb50df0e1"},"vehicle_type_id":"4","last_reported":1758089802,"current_range_meters":13600,"station_id":"st_cvj6sg6p6f1abm77japg","pricing_plan_id":"cebpf4jnsgd1na2vs0mg"},{"bike_id":"2a5e641a-ca90-4f3a-9350-63bb94d9cebf","system_id":"levelo_inurba_marseille","lat":43.25559,"lon":5.39193,"is_reserved":false,"is_disabled":false,"rental_uris":{"android":"levelo://app?vid=2a5e641a-ca90-4f3a-9350-63bb94d9cebf","ios":"levelo://app?vid=2a5e641a-ca90-4f3a-9350-63bb94d9cebf"},"vehicle_type_id":"4","last_reported":1758089802,"current_range_meters":14000,"station_id":"","pricing_plan_id":"cebpf4jnsgd1na2vs0mg"},{"bike_id":"72d4d466-a51c-432f-9e1a-bf09cc8c4445","system_id":"levelo_inurba_marseille","lat":43.33764,"lon":5.37435,"is_reserved":false,"is_disabled":false,"rental_uris":{"android":"levelo://app?vid=72d4d466-a51c-432f-9e1a-bf09cc8c4445","ios":"levelo://app?vid=72d4d466-a51c-432f-9e1a-bf09cc8c4445"},"vehicle_type_id":"4","last_reported":1758089802,"current_range_meters":14000,"station_id":"","pricing_plan_id":"cebpf4jnsgd1na2vs0mg"},{"bike_id":"edc0ea54-920a-49c7-ad21-670e5c1ff0d4","system_id":"levelo_inurba_marseille","lat":43.23157,"lon":5.43716,"is_reserved":false,"is_disabled":false,"rental_uris":{"android":"levelo://app?vid=edc0ea54-920a-49c7-ad21-670e5c1ff0d4","ios":"levelo://app?vid=edc0ea54-920a-49c7-ad21-670e5c1ff0d4"},"vehicle_type_id":"4","last_reported":1758089802,"current_range_meters":14000,"station_id":"ce4bhmp2rcd13ifvqgog","pricing_plan_id":"cebpf4jnsgd1na2vs0mg"},{"bike_id":"f7931c0b-8152-448c-8e34-b286f2f7d414","system_id":"levelo_inurba_marseille","lat":43.34135,"lon":5.409235,"is_reserved":false,"is_disabled":false,"rental_uris":{"android":"levelo://app?vid=f7931c0b-8152-448c-8e34-b286f2f7d414","ios":"levelo://app?vid=f7931c0b-8152-448c-8e34-b286f2f7d414"},"vehicle_type_id":"4","last_reported":1758089802,"current_range_meters":13600,"station_id":"ce4bhqh2rcd13ifvqhlg","pricing_plan_id":"cebpf4jnsgd1na2vs0mg"},{"bike_id":"22f0687d-25d3-4094-9c4a-293a61e189a6","system_id":"levelo_inurba_marseille","lat":43.2403,"lon":5.40739,"is_reserved":false,"is_disabled":false,"rental_uris":{"android":"levelo://app?vid=22f0687d-25d3-4094-9c4a-293a61e189a6","ios":"levelo://app?vid=22f0687d-25d3-4094-9c4a-293a61e189a6"},"vehicle_type_id":"4","last_reported":1758089802,"current_range_meters":14000,"station_id":"","pricing_plan_id":"cebpf4jnsgd1na2vs0mg"},{"bike_id":"88a4bc06-6261-4921-890d-d133aa4606a8","system_id":"levelo_inurba_marseille","lat":43.337444,"lon":5.374475,"is_reserved":false,"is_disabled":true,"rental_uris":{"android":"levelo://app?vid=88a4bc06-6261-4921-890d-d133aa4606a8","ios":"levelo://app?vid=88a4bc06-6261-4921-890d-d133aa4606a8"},"vehicle_type_id":"4","last_reported":1758089802,"current_range_meters":14400,"station_id":"","pricing_plan_id":"cebpf4jnsgd1na2vs0mg"},{"bike_id":"c0b00e17-22d2-48b9-af8d-aae9543d2772","system_id":"levelo_inurba_marseille","lat":43.30804,"lon":5.37557,"is_reserved":false,"is_disabled":false,"rental_uris":{"android":"levelo://app?vid=c0b00e17-22d2-48b9-af8d-aae9543d2772","ios":"levelo://app?vid=c0b00e17-22d2-48b9-af8d-aae9543d2772"},"vehicle_type_id":"4","last_reported":1758089802,"current_range_meters":14400,"station_id":"","pricing_plan_id":"cebpf4jnsgd1na2vs0mg"},{"bike_id":"d7ddce7e-f081-4d80-9654-c5fdce117c16","system_id":"levelo_inurba_marseille","lat":43.30613,"lon":5.37222,"is_reserved":false,"is_disabled":false,"rental_uris":{"android":"levelo://app?vid=d7ddce7e-f081-4d80-9654-c5fdce117c16","ios":"levelo://app?vid=d7ddce7e-f081-4d80-9654-c5fdce117c16"},"vehicle_type_id":"4","last_reported":1758089802,"current_range_meters":14400,"station_id":"ce4bgqh2rcd13ifvqc4g","pricing_plan_id":"cebpf4jnsgd1na2vs0mg"},{"bike_id":"ef9d98be-8156-4936-87c2-bed299fd29fa","system_id":"levelo_inurba_marseille","lat":43.24078,"lon":5.37757,"is_reserved":false,"is_disabled":false,"rental_uris":{"android":"levelo://app?vid=ef9d98be-8156-4936-87c2-bed299fd29fa","ios":"levelo://app?vid=ef9d98be-8156-4936-87c2-bed299fd29fa"},"vehicle_type_id":"4","last_reported":1758089802,"current_range_meters":14800,"station_id":"ce4bhnp2rcd13ifvqgvg","pricing_plan_id":"cebpf4jnsgd1na2vs0mg"},{"bike_id":"d6c56d44-81c5-4835-8822-b89d5c0418c3","system_id":"levelo_inurba_marseille","lat":43.271966,"lon":5.421216,"is_reserved":false,"is_disabled":false,"rental_uris":{"android":"levelo://app?vid=d6c56d44-81c5-4835-8822-b89d5c0418c3","ios":"levelo://app?vid=d6c56d44-81c5-4835-8822-b89d5c0418c3"},"vehicle_type_id":"4","last_reported":1758089802,"current_range_meters":14800,"station_id":"","pricing_plan_id":"cebpf4jnsgd1na2vs0mg"},{"bike_id":"3254dd27-7864-45ac-91ba-0b88fa060b43","system_id":"levelo_inurba_marseille","lat":43.30299,"lon":5.38635,"is_reserved":false,"is_disabled":false,"rental_uris":{"android":"levelo://app?vid=3254dd27-7864-45ac-91ba-0b88fa060b43","ios":"levelo://app?vid=3254dd27-7864-45ac-91ba-0b88fa060b43"},"vehicle_type_id":"4","last_reported":1758089802,"current_range_meters":14800,"station_id":"","pricing_plan_id":"cebpf4jnsgd1na2vs0mg"},{"bike_id":"a06817a6-1763-4ae7-94a0-fb3f38cee0e3","system_id":"levelo_inurba_marseille","lat":43.28487,"lon":5.38436,"is_reserved":false,"is_disabled":false,"rental_uris":{"android":"levelo://app?vid=a06817a6-1763-4ae7-94a0-fb3f38cee0e3","ios":"levelo://app?vid=a06817a6-1763-4ae7-94a0-fb3f38cee0e3"},"vehicle_type_id":"4","last_reported":1758089802,"current_range_meters":14800,"station_id":"ce4bh512rcd13ifvqe3g","pricing_plan_id":"cebpf4jnsgd1na2vs0mg"},{"bike_id":"701d2be6-1a0b-4649-b98b-3ceb20ea14d5","system_id":"levelo_inurba_marseille","lat":43.24168,"lon":5.36399,"is_reserved":false,"is_disabled":false,"rental_uris":{"android":"levelo://app?vid=701d2be6-1a0b-4649-b98b-3ceb20ea14d5","ios":"levelo://app?vid=701d2be6-1a0b-4649-b98b-3ceb20ea14d5"},"vehicle_type_id":"4","last_reported":1758089802,"current_range_meters":14800,"station_id":"cpo36qri1sfpv3e86is0","pricing_plan_id":"cebpf4jnsgd1na2vs0mg"},{"bike_id":"5701fe9c-3e98-4b9f-a910-5eb395d4e5d3","system_id":"levelo_inurba_marseille","lat":43.305389,"lon":5.384223,"is_reserved":false,"is_disabled":false,"rental_uris":{"android":"levelo://app?vid=5701fe9c-3e98-4b9f-a910-5eb395d4e5d3","ios":"levelo://app?vid=5701fe9c-3e98-4b9f-a910-5eb395d4e5d3"},"vehicle_type_id":"4","last_reported":1758089802,"current_range_meters":14800,"station_id":"","pricing_plan_id":"cebpf4jnsgd1na2vs0mg"},{"bike_id":"6abe7d63-346f-4f23-9693-5ea03398259f","system_id":"levelo_inurba_marseille","lat":43.30605,"lon":5.39299,"is_reserved":false,"is_disabled":false,"rental_uris":{"android":"levelo://app?vid=6abe7d63-346f-4f23-9693-5ea03398259f","ios":"levelo://app?vid=6abe7d63-346f-4f23-9693-5ea03398259f"},"vehicle_type_id":"4","last_reported":1758089802,"current_range_meters":14800,"station_id":"","pricing_plan_id":"cebpf4jnsgd1na2vs0mg"},{"bike_id":"73a6c101-04a5-46d4-ae70-9e63142901fb","system_id":"levelo_inurba_marseille","lat":43.23966,"lon":5.3663,"is_reserved":false,"is_disabled":false,"rental_uris":{"android":"levelo://app?vid=73a6c101-04a5-46d4-ae70-9e63142901fb","ios":"levelo://app?vid=73a6c101-04a5-46d4-ae70-9e63142901fb"},"vehicle_type_id":"4","last_reported":1758089802,"current_range_meters":15200,"station_id":"ce4bhi12rcd13ifvqfp0","pricing_plan_id":"cebpf4jnsgd1na2vs0mg"},{"bike_id":"a8111deb-0d5b-4fb0-82dc-93f26e73c0f6","system_id":"levelo_inurba_marseille","lat":43.279169,"lon":5.395928,"is_reserved":false,"is_disabled":true,"rental_uris":{"android":"levelo://app?vid=a8111deb-0d5b-4fb0-82dc-93f26e73c0f6","ios":"levelo://app?vid=a8111deb-0d5b-4fb0-82dc-93f26e73c0f6"},"vehicle_type_id":"4","last_reported":1758089802,"current_range_meters":15200,"station_id":"ce4bhf92rcd13ifvqf40","pricing_plan_id":"cebpf4jnsgd1na2vs0mg"},{"bike_id":"f34ff082-bf2a-453c-a496-ec003aa9f501","system_id":"levelo_inurba_marseille","lat":43.335711,"lon":5.409565,"is_reserved":false,"is_disabled":false,"rental_uris":{"android":"levelo://app?vid=f34ff082-bf2a-453c-a496-ec003aa9f501","ios":"levelo://app?vid=f34ff082-bf2a-453c-a496-ec003aa9f501"},"vehicle_type_id":"4","last_reported":1758089802,"current_range_meters":15200,"station_id":"ce4bhqh2rcd13ifvqhmg","pricing_plan_id":"cebpf4jnsgd1na2vs0mg"},{"bike_id":"e83ec8be-cd12-454a-8ba2-73f51cbbb7a5","system_id":"levelo_inurba_marseille","lat":43.25575,"lon":5.38258,"is_reserved":false,"is_disabled":true,"rental_uris":{"android":"levelo://app?vid=e83ec8be-cd12-454a-8ba2-73f51cbbb7a5","ios":"levelo://app?vid=e83ec8be-cd12-454a-8ba2-73f51cbbb7a5"},"vehicle_type_id":"4","last_reported":1758089802,"current_range_meters":15200,"station_id":"ce4bhih2rcd13ifvqfs0","pricing_plan_id":"cebpf4jnsgd1na2vs0mg"},{"bike_id":"e76ef879-317f-45ff-b2d9-c6c8304d675f","system_id":"levelo_inurba_marseille","lat":43.229297,"lon":5.35377,"is_reserved":false,"is_disabled":false,"rental_uris":{"android":"levelo://app?vid=e76ef879-317f-45ff-b2d9-c6c8304d675f","ios":"levelo://app?vid=e76ef879-317f-45ff-b2d9-c6c8304d675f"},"vehicle_type_id":"4","last_reported":1758089802,"current_range_meters":16000,"station_id":"cpo3532slgdg3j2ikp40","pricing_plan_id":"cebpf4jnsgd1na2vs0mg"},{"bike_id":"26d32f40-abd9-41e8-ad33-e16c33cbf788","system_id":"levelo_inurba_marseille","lat":43.29953,"lon":5.37755,"is_reserved":false,"is_disabled":false,"rental_uris":{"android":"levelo://app?vid=26d32f40-abd9-41e8-ad33-e16c33cbf788","ios":"levelo://app?vid=26d32f40-abd9-41e8-ad33-e16c33cbf788"},"vehicle_type_id":"4","last_reported":1758089802,"current_range_meters":16000,"station_id":"","pricing_plan_id":"cebpf4jnsgd1na2vs0mg"},{"bike_id":"4c63f17f-f8e3-4784-a205-3efbed9fdf12","system_id":"levelo_inurba_marseille","lat":43.24815,"lon":5.37449,"is_reserved":false,"is_disabled":false,"rental_uris":{"android":"levelo://app?vid=4c63f17f-f8e3-4784-a205-3efbed9fdf12","ios":"levelo://app?vid=4c63f17f-f8e3-4784-a205-3efbed9fdf12"},"vehicle_type_id":"4","last_reported":1758089802,"current_range_meters":15200,"station_id":"ce4bhgh2rcd13ifvqfb0","pricing_plan_id":"cebpf4jnsgd1na2vs0mg"},{"bike_id":"85f948ed-1682-45f7-a3b6-c04b7f066b68","system_id":"levelo_inurba_marseille","lat":43.211971,"lon":5.350673,"is_reserved":false,"is_disabled":false,"rental_uris":{"android":"levelo://app?vid=85f948ed-1682-45f7-a3b6-c04b7f066b68","ios":"levelo://app?vid=85f948ed-1682-45f7-a3b6-c04b7f066b68"},"vehicle_type_id":"4","last_reported":1758089802,"current_range_meters":16000,"station_id":"st_cvj6sg6p6f1abm77japg","pricing_plan_id":"cebpf4jnsgd1na2vs0mg"},{"bike_id":"49e7f881-1f16-44f4-9040-d324d46fa397","system_id":"levelo_inurba_marseille","lat":43.32093,"lon":5.36794,"is_reserved":false,"is_disabled":false,"rental_uris":{"android":"levelo://app?vid=49e7f881-1f16-44f4-9040-d324d46fa397","ios":"levelo://app?vid=49e7f881-1f16-44f4-9040-d324d46fa397"},"vehicle_type_id":"4","last_reported":1758089802,"current_range_meters":16000,"station_id":"ce4bhrh2rcd13ifvqhug","pricing_plan_id":"cebpf4jnsgd1na2vs0mg"},{"bike_id":"d77b9582-f46b-4d51-a670-28804a9a2f84","system_id":"levelo_inurba_marseille","lat":43.33608,"lon":5.41037,"is_reserved":false,"is_disabled":false,"rental_uris":{"android":"levelo://app?vid=d77b9582-f46b-4d51-a670-28804a9a2f84","ios":"levelo://app?vid=d77b9582-f46b-4d51-a670-28804a9a2f84"},"vehicle_type_id":"4","last_reported":1758089802,"current_range_meters":16000,"station_id":"ce4bhqh2rcd13ifvqhmg","pricing_plan_id":"cebpf4jnsgd1na2vs0mg"},{"bike_id":"2c75f324-0a3d-41d8-a1e8-4f1291da99f7","system_id":"levelo_inurba_marseille","lat":43.316896,"lon":5.377353,"is_reserved":false,"is_disabled":false,"rental_uris":{"android":"levelo://app?vid=2c75f324-0a3d-41d8-a1e8-4f1291da99f7","ios":"levelo://app?vid=2c75f324-0a3d-41d8-a1e8-4f1291da99f7"},"vehicle_type_id":"4","last_reported":1758089802,"current_range_meters":16400,"station_id":"","pricing_plan_id":"cebpf4jnsgd1na2vs0mg"},{"bike_id":"6ba8bfd9-bf79-43ff-a91c-d08558d3c0a0","system_id":"levelo_inurba_marseille","lat":43.32475,"lon":5.36561,"is_reserved":false,"is_disabled":false,"rental_uris":{"android":"levelo://app?vid=6ba8bfd9-bf79-43ff-a91c-d08558d3c0a0","ios":"levelo://app?vid=6ba8bfd9-bf79-43ff-a91c-d08558d3c0a0"},"vehicle_type_id":"4","last_reported":1758089802,"current_range_meters":16400,"station_id":"ce4bhs12rcd13ifvqhvg","pricing_plan_id":"cebpf4jnsgd1na2vs0mg"},{"bike_id":"141fa817-86eb-47c4-9126-4046f87f4222","system_id":"levelo_inurba_marseille","lat":43.31336,"lon":5.37911,"is_reserved":false,"is_disabled":false,"rental_uris":{"android":"levelo://app?vid=141fa817-86eb-47c4-9126-4046f87f4222","ios":"levelo://app?vid=141fa817-86eb-47c4-9126-4046f87f4222"},"vehicle_type_id":"4","last_reported":1758089802,"current_range_meters":16400,"station_id":"","pricing_plan_id":"cebpf4jnsgd1na2vs0mg"},{"bike_id":"ffb2859b-e6a7-45e7-853a-2f4f43f39ea7","system_id":"levelo_inurba_marseille","lat":43.23148,"lon":5.43723,"is_reserved":false,"is_disabled":false,"rental_uris":{"android":"levelo://app?vid=ffb2859b-e6a7-45e7-853a-2f4f43f39ea7","ios":"levelo://app?vid=ffb2859b-e6a7-45e7-853a-2f4f43f39ea7"},"vehicle_type_id":"4","last_reported":1758089802,"current_range_meters":16400,"station_id":"ce4bhmp2rcd13ifvqgog","pricing_plan_id":"cebpf4jnsgd1na2vs0mg"},{"bike_id":"7c53e1e0-9efc-4c15-9c29-668d4dac4c59","system_id":"levelo_inurba_marseille","lat":43.22536,"lon":5.34836,"is_reserved":false,"is_disabled":false,"rental_uris":{"android":"levelo://app?vid=7c53e1e0-9efc-4c15-9c29-668d4dac4c59","ios":"levelo://app?vid=7c53e1e0-9efc-4c15-9c29-668d4dac4c59"},"vehicle_type_id":"4","last_reported":1758089802,"current_range_meters":16400,"station_id":"st_cvj5dfep6f1abm77gieg","pricing_plan_id":"cebpf4jnsgd1na2vs0mg"},{"bike_id":"0cbe5075-568d-4adc-a36f-37e7c24e0439","system_id":"levelo_inurba_marseille","lat":43.31992,"lon":5.38155,"is_reserved":false,"is_disabled":false,"rental_uris":{"android":"levelo://app?vid=0cbe5075-568d-4adc-a36f-37e7c24e0439","ios":"levelo://app?vid=0cbe5075-568d-4adc-a36f-37e7c24e0439"},"vehicle_type_id":"4","last_reported":1758089802,"current_range_meters":16800,"station_id":"ce4bhr12rcd13ifvqhpg","pricing_plan_id":"cebpf4jnsgd1na2vs0mg"},{"bike_id":"2bf9b52f-e95c-4022-ab41-ce28e0c95491","system_id":"levelo_inurba_marseille","lat":43.29023,"lon":5.39983,"is_reserved":false,"is_disabled":false,"rental_uris":{"android":"levelo://app?vid=2bf9b52f-e95c-4022-ab41-ce28e0c95491","ios":"levelo://app?vid=2bf9b52f-e95c-4022-ab41-ce28e0c95491"},"vehicle_type_id":"4","last_reported":1758089802,"current_range_meters":16800,"station_id":"ce4bh392rcd13ifvqdm0","pricing_plan_id":"cebpf4jnsgd1na2vs0mg"},{"bike_id":"55dfb17a-dc13-4669-82ac-2c676d600c2d","system_id":"levelo_inurba_marseille","lat":43.31351,"lon":5.37936,"is_reserved":false,"is_disabled":false,"rental_uris":{"android":"levelo://app?vid=55dfb17a-dc13-4669-82ac-2c676d600c2d","ios":"levelo://app?vid=55dfb17a-dc13-4669-82ac-2c676d600c2d"},"vehicle_type_id":"4","last_reported":1758089802,"current_range_meters":16800,"station_id":"","pricing_plan_id":"cebpf4jnsgd1na2vs0mg"},{"bike_id":"6ca792ea-109d-40a9-907f-972bb85bc883","system_id":"levelo_inurba_marseille","lat":43.290287,"lon":5.386523,"is_reserved":false,"is_disabled":true,"rental_uris":{"android":"levelo://app?vid=6ca792ea-109d-40a9-907f-972bb85bc883","ios":"levelo://app?vid=6ca792ea-109d-40a9-907f-972bb85bc883"},"vehicle_type_id":"4","last_reported":1758089802,"current_range_meters":16800,"station_id":"ce4bh4p2rcd13ifvqe0g","pricing_plan_id":"cebpf4jnsgd1na2vs0mg"},{"bike_id":"f634ac20-d2e2-4300-9d9a-d8854217c599","system_id":"levelo_inurba_marseille","lat":43.3046,"lon":5.37907,"is_reserved":false,"is_disabled":false,"rental_uris":{"android":"levelo://app?vid=f634ac20-d2e2-4300-9d9a-d8854217c599","ios":"levelo://app?vid=f634ac20-d2e2-4300-9d9a-d8854217c599"},"vehicle_type_id":"4","last_reported":1758089802,"current_range_meters":16800,"station_id":"ce4bgup2rcd13ifvqcn0","pricing_plan_id":"cebpf4jnsgd1na2vs0mg"},{"bike_id":"f1f0c13d-8993-4cef-8714-f32759333bf4","system_id":"levelo_inurba_marseille","lat":43.3054,"lon":5.38452,"is_reserved":false,"is_disabled":false,"rental_uris":{"android":"levelo://app?vid=f1f0c13d-8993-4cef-8714-f32759333bf4","ios":"levelo://app?vid=f1f0c13d-8993-4cef-8714-f32759333bf4"},"vehicle_type_id":"4","last_reported":1758089802,"current_range_meters":16800,"station_id":"ce4bgg92rcd13ifvqb30","pricing_plan_id":"cebpf4jnsgd1na2vs0mg"},{"bike_id":"f7254990-f51d-45fe-83e3-57aceffccbc4","system_id":"levelo_inurba_marseille","lat":43.22569,"lon":5.41635,"is_reserved":false,"is_disabled":false,"rental_uris":{"android":"levelo://app?vid=f7254990-f51d-45fe-83e3-57aceffccbc4","ios":"levelo://app?vid=f7254990-f51d-45fe-83e3-57aceffccbc4"},"vehicle_type_id":"4","last_reported":1758089802,"current_range_meters":17200,"station_id":"st_d2o4gvlbi1j2169b742g","pricing_plan_id":"cebpf4jnsgd1na2vs0mg"},{"bike_id":"49230824-e0b0-4942-b254-aed72b06d282","system_id":"levelo_inurba_marseille","lat":43.2696,"lon":5.40537,"is_reserved":false,"is_disabled":false,"rental_uris":{"android":"levelo://app?vid=49230824-e0b0-4942-b254-aed72b06d282","ios":"levelo://app?vid=49230824-e0b0-4942-b254-aed72b06d282"},"vehicle_type_id":"4","last_reported":1758089802,"current_range_meters":17200,"station_id":"","pricing_plan_id":"cebpf4jnsgd1na2vs0mg"},{"bike_id":"87407d45-42ec-4c1d-8349-f1007a411a04","system_id":"levelo_inurba_marseille","lat":43.2863,"lon":5.3961,"is_reserved":false,"is_disabled":false,"rental_uris":{"android":"levelo://app?vid=87407d45-42ec-4c1d-8349-f1007a411a04","ios":"levelo://app?vid=87407d45-42ec-4c1d-8349-f1007a411a04"},"vehicle_type_id":"4","last_reported":1758089802,"current_range_meters":17200,"station_id":"","pricing_plan_id":"cebpf4jnsgd1na2vs0mg"},{"bike_id":"714776df-40c3-4776-bf56-c60b7450b546","system_id":"levelo_inurba_marseille","lat":43.32369,"lon":5.36759,"is_reserved":false,"is_disabled":false,"rental_uris":{"android":"levelo://app?vid=714776df-40c3-4776-bf56-c60b7450b546","ios":"levelo://app?vid=714776df-40c3-4776-bf56-c60b7450b546"},"vehicle_type_id":"4","last_reported":1758089802,"current_range_meters":17200,"station_id":"ce4bhsh2rcd13ifvqi2g","pricing_plan_id":"cebpf4jnsgd1na2vs0mg"},{"bike_id":"704fcc05-1ac0-491f-bb0e-bec12a0052e1","system_id":"levelo_inurba_marseille","lat":43.29071,"lon":5.39868,"is_reserved":false,"is_disabled":false,"rental_uris":{"android":"levelo://app?vid=704fcc05-1ac0-491f-bb0e-bec12a0052e1","ios":"levelo://app?vid=704fcc05-1ac0-491f-bb0e-bec12a0052e1"},"vehicle_type_id":"4","last_reported":1758089802,"current_range_meters":17200,"station_id":"ce4bh392rcd13ifvqdm0","pricing_plan_id":"cebpf4jnsgd1na2vs0mg"},{"bike_id":"13b2efbb-a10f-4b3c-aa7b-f30b0796d9e6","system_id":"levelo_inurba_marseille","lat":43.30149,"lon":5.38075,"is_reserved":false,"is_disabled":false,"rental_uris":{"android":"levelo://app?vid=13b2efbb-a10f-4b3c-aa7b-f30b0796d9e6","ios":"levelo://app?vid=13b2efbb-a10f-4b3c-aa7b-f30b0796d9e6"},"vehicle_type_id":"4","last_reported":1758089802,"current_range_meters":17200,"station_id":"ce4bgjp2rcd13ifvqbh0","pricing_plan_id":"cebpf4jnsgd1na2vs0mg"},{"bike_id":"20275330-8700-47fa-9ab6-6cf355d8d350","system_id":"levelo_inurba_marseille","lat":43.21752,"lon":5.34609,"is_reserved":false,"is_disabled":false,"rental_uris":{"android":"levelo://app?vid=20275330-8700-47fa-9ab6-6cf355d8d350","ios":"levelo://app?vid=20275330-8700-47fa-9ab6-6cf355d8d350"},"vehicle_type_id":"4","last_reported":1758089802,"current_range_meters":17200,"station_id":"","pricing_plan_id":"cebpf4jnsgd1na2vs0mg"},{"bike_id":"06b08ea1-de4b-4ab9-907a-0ef6aabf1253","system_id":"levelo_inurba_marseille","lat":43.31564,"lon":5.38891,"is_reserved":false,"is_disabled":false,"rental_uris":{"android":"levelo://app?vid=06b08ea1-de4b-4ab9-907a-0ef6aabf1253","ios":"levelo://app?vid=06b08ea1-de4b-4ab9-907a-0ef6aabf1253"},"vehicle_type_id":"4","last_reported":1758089802,"current_range_meters":17200,"station_id":"","pricing_plan_id":"cebpf4jnsgd1na2vs0mg"},{"bike_id":"74bcde0c-c4e3-4341-ac36-d7ca252e59d8","system_id":"levelo_inurba_marseille","lat":43.29152,"lon":5.37761,"is_reserved":false,"is_disabled":false,"rental_uris":{"android":"levelo://app?vid=74bcde0c-c4e3-4341-ac36-d7ca252e59d8","ios":"levelo://app?vid=74bcde0c-c4e3-4341-ac36-d7ca252e59d8"},"vehicle_type_id":"4","last_reported":1758089802,"current_range_meters":17600,"station_id":"","pricing_plan_id":"cebpf4jnsgd1na2vs0mg"},{"bike_id":"eacf68e9-7377-4ae4-b9a8-c45c75b36d16","system_id":"levelo_inurba_marseille","lat":43.23194,"lon":5.39973,"is_reserved":false,"is_disabled":false,"rental_uris":{"android":"levelo://app?vid=eacf68e9-7377-4ae4-b9a8-c45c75b36d16","ios":"levelo://app?vid=eacf68e9-7377-4ae4-b9a8-c45c75b36d16"},"vehicle_type_id":"4","last_reported":1758089802,"current_range_meters":17600,"station_id":"ce4bhn12rcd13ifvqgqg","pricing_plan_id":"cebpf4jnsgd1na2vs0mg"},{"bike_id":"b8bc0a4b-65e1-42ab-8cce-4474cf9597cb","system_id":"levelo_inurba_marseille","lat":43.24165,"lon":5.36386,"is_reserved":false,"is_disabled":false,"rental_uris":{"android":"levelo://app?vid=b8bc0a4b-65e1-42ab-8cce-4474cf9597cb","ios":"levelo://app?vid=b8bc0a4b-65e1-42ab-8cce-4474cf9597cb"},"vehicle_type_id":"4","last_reported":1758089802,"current_range_meters":17600,"station_id":"cpo36qri1sfpv3e86is0","pricing_plan_id":"cebpf4jnsgd1na2vs0mg"},{"bike_id":"842080e1-bd3f-44a9-a988-1af335fbbd2b","system_id":"levelo_inurba_marseille","lat":43.31066,"lon":5.401,"is_reserved":false,"is_disabled":true,"rental_uris":{"android":"levelo://app?vid=842080e1-bd3f-44a9-a988-1af335fbbd2b","ios":"levelo://app?vid=842080e1-bd3f-44a9-a988-1af335fbbd2b"},"vehicle_type_id":"4","last_reported":1758089802,"current_range_meters":17600,"station_id":"","pricing_plan_id":"cebpf4jnsgd1na2vs0mg"},{"bike_id":"19440691-3250-4c54-b8d1-57cfa7c7d7f4","system_id":"levelo_inurba_marseille","lat":43.28498,"lon":5.38401,"is_reserved":false,"is_disabled":false,"rental_uris":{"android":"levelo://app?vid=19440691-3250-4c54-b8d1-57cfa7c7d7f4","ios":"levelo://app?vid=19440691-3250-4c54-b8d1-57cfa7c7d7f4"},"vehicle_type_id":"4","last_reported":1758089802,"current_range_meters":17600,"station_id":"ce4bh512rcd13ifvqe3g","pricing_plan_id":"cebpf4jnsgd1na2vs0mg"},{"bike_id":"134ef56d-a728-43ba-8201-e7a9ff8d6c0d","system_id":"levelo_inurba_marseille","lat":43.28713,"lon":5.37943,"is_reserved":false,"is_disabled":false,"rental_uris":{"android":"levelo://app?vid=134ef56d-a728-43ba-8201-e7a9ff8d6c0d","ios":"levelo://app?vid=134ef56d-a728-43ba-8201-e7a9ff8d6c0d"},"vehicle_type_id":"4","last_reported":1758089802,"current_range_meters":17600,"station_id":"ce4bh9p2rcd13ifvqec0","pricing_plan_id":"cebpf4jnsgd1na2vs0mg"},{"bike_id":"cfb50b7d-b5e3-4945-9b4f-0d791991aab3","system_id":"levelo_inurba_marseille","lat":43.23189,"lon":5.43613,"is_reserved":false,"is_disabled":false,"rental_uris":{"android":"levelo://app?vid=cfb50b7d-b5e3-4945-9b4f-0d791991aab3","ios":"levelo://app?vid=cfb50b7d-b5e3-4945-9b4f-0d791991aab3"},"vehicle_type_id":"4","last_reported":1758089802,"current_range_meters":17600,"station_id":"","pricing_plan_id":"cebpf4jnsgd1na2vs0mg"},{"bike_id":"8ad28b0c-9a8a-45e6-a9b7-c173e5c3be7b","system_id":"levelo_inurba_marseille","lat":43.2722,"lon":5.39188,"is_reserved":false,"is_disabled":false,"rental_uris":{"android":"levelo://app?vid=8ad28b0c-9a8a-45e6-a9b7-c173e5c3be7b","ios":"levelo://app?vid=8ad28b0c-9a8a-45e6-a9b7-c173e5c3be7b"},"vehicle_type_id":"4","last_reported":1758089802,"current_range_meters":17600,"station_id":"","pricing_plan_id":"cebpf4jnsgd1na2vs0mg"},{"bike_id":"9ab1684d-e8b9-4b55-9d9a-aa8f91fa94c7","system_id":"levelo_inurba_marseille","lat":43.24071,"lon":5.37762,"is_reserved":false,"is_disabled":false,"rental_uris":{"android":"levelo://app?vid=9ab1684d-e8b9-4b55-9d9a-aa8f91fa94c7","ios":"levelo://app?vid=9ab1684d-e8b9-4b55-9d9a-aa8f91fa94c7"},"vehicle_type_id":"4","last_reported":1758089802,"current_range_meters":17600,"station_id":"ce4bhnp2rcd13ifvqgvg","pricing_plan_id":"cebpf4jnsgd1na2vs0mg"},{"bike_id":"cf66592a-d8fa-4c6c-9927-5d7a9fef5026","system_id":"levelo_inurba_marseille","lat":43.26269,"lon":5.39866,"is_reserved":false,"is_disabled":false,"rental_uris":{"android":"levelo://app?vid=cf66592a-d8fa-4c6c-9927-5d7a9fef5026","ios":"levelo://app?vid=cf66592a-d8fa-4c6c-9927-5d7a9fef5026"},"vehicle_type_id":"4","last_reported":1758089802,"current_range_meters":17600,"station_id":"","pricing_plan_id":"cebpf4jnsgd1na2vs0mg"},{"bike_id":"24d326af-3d3b-4fd0-acae-0243f5c7dd24","system_id":"levelo_inurba_marseille","lat":43.28931,"lon":5.36647,"is_reserved":false,"is_disabled":false,"rental_uris":{"android":"levelo://app?vid=24d326af-3d3b-4fd0-acae-0243f5c7dd24","ios":"levelo://app?vid=24d326af-3d3b-4fd0-acae-0243f5c7dd24"},"vehicle_type_id":"4","last_reported":1758089802,"current_range_meters":17600,"station_id":"ce4bhap2rcd13ifvqek0","pricing_plan_id":"cebpf4jnsgd1na2vs0mg"},{"bike_id":"70dd09c0-9d46-459f-97dd-b765bbac9498","system_id":"levelo_inurba_marseille","lat":43.29706,"lon":5.37704,"is_reserved":false,"is_disabled":false,"rental_uris":{"android":"levelo://app?vid=70dd09c0-9d46-459f-97dd-b765bbac9498","ios":"levelo://app?vid=70dd09c0-9d46-459f-97dd-b765bbac9498"},"vehicle_type_id":"4","last_reported":1758089802,"current_range_meters":17600,"station_id":"ce4bgkh2rcd13ifvqbl0","pricing_plan_id":"cebpf4jnsgd1na2vs0mg"},{"bike_id":"79b513cb-ea10-4b08-aa3e-da0bfef27b2a","system_id":"levelo_inurba_marseille","lat":43.25089,"lon":5.39528,"is_reserved":false,"is_disabled":false,"rental_uris":{"android":"levelo://app?vid=79b513cb-ea10-4b08-aa3e-da0bfef27b2a","ios":"levelo://app?vid=79b513cb-ea10-4b08-aa3e-da0bfef27b2a"},"vehicle_type_id":"4","last_reported":1758089802,"current_range_meters":17600,"station_id":"ce4bhm12rcd13ifvqgkg","pricing_plan_id":"cebpf4jnsgd1na2vs0mg"},{"bike_id":"06a0fb0b-de4b-4817-b71f-e911b6d09941","system_id":"levelo_inurba_marseille","lat":43.22552,"lon":5.41654,"is_reserved":false,"is_disabled":false,"rental_uris":{"android":"levelo://app?vid=06a0fb0b-de4b-4817-b71f-e911b6d09941","ios":"levelo://app?vid=06a0fb0b-de4b-4817-b71f-e911b6d09941"},"vehicle_type_id":"4","last_reported":1758089802,"current_range_meters":17600,"station_id":"st_d2o4gvlbi1j2169b742g","pricing_plan_id":"cebpf4jnsgd1na2vs0mg"},{"bike_id":"8f7f06a9-17ce-4e64-bda1-db7c3216fe6f","system_id":"levelo_inurba_marseille","lat":43.3025,"lon":5.40056,"is_reserved":false,"is_disabled":false,"rental_uris":{"android":"levelo://app?vid=8f7f06a9-17ce-4e64-bda1-db7c3216fe6f","ios":"levelo://app?vid=8f7f06a9-17ce-4e64-bda1-db7c3216fe6f"},"vehicle_type_id":"4","last_reported":1758089802,"current_range_meters":17600,"station_id":"ce4bgvh2rcd13ifvqcs0","pricing_plan_id":"cebpf4jnsgd1na2vs0mg"},{"bike_id":"0a9f12f6-1d07-428e-892d-fb2e4d15beda","system_id":"levelo_inurba_marseille","lat":43.301344,"lon":5.387835,"is_reserved":false,"is_disabled":true,"rental_uris":{"android":"levelo://app?vid=0a9f12f6-1d07-428e-892d-fb2e4d15beda","ios":"levelo://app?vid=0a9f12f6-1d07-428e-892d-fb2e4d15beda"},"vehicle_type_id":"4","last_reported":1758089802,"current_range_meters":18000,"station_id":"ce4bghh2rcd13ifvqb60","pricing_plan_id":"cebpf4jnsgd1na2vs0mg"},{"bike_id":"a05af4a4-0527-4e1e-be45-9af9fcabdc46","system_id":"levelo_inurba_marseille","lat":43.28718,"lon":5.37946,"is_reserved":false,"is_disabled":false,"rental_uris":{"android":"levelo://app?vid=a05af4a4-0527-4e1e-be45-9af9fcabdc46","ios":"levelo://app?vid=a05af4a4-0527-4e1e-be45-9af9fcabdc46"},"vehicle_type_id":"4","last_reported":1758089802,"current_range_meters":17600,"station_id":"ce4bh9p2rcd13ifvqec0","pricing_plan_id":"cebpf4jnsgd1na2vs0mg"},{"bike_id":"ce1e21e7-e681-4f2c-a785-1cfade0efb75","system_id":"levelo_inurba_marseille","lat":43.24073,"lon":5.37744,"is_reserved":false,"is_disabled":false,"rental_uris":{"android":"levelo://app?vid=ce1e21e7-e681-4f2c-a785-1cfade0efb75","ios":"levelo://app?vid=ce1e21e7-e681-4f2c-a785-1cfade0efb75"},"vehicle_type_id":"4","last_reported":1758089802,"current_range_meters":18000,"station_id":"ce4bhnp2rcd13ifvqgvg","pricing_plan_id":"cebpf4jnsgd1na2vs0mg"},{"bike_id":"152b725d-6f61-44b0-bc66-f31437aa6fe9","system_id":"levelo_inurba_marseille","lat":43.22555,"lon":5.41634,"is_reserved":false,"is_disabled":false,"rental_uris":{"android":"levelo://app?vid=152b725d-6f61-44b0-bc66-f31437aa6fe9","ios":"levelo://app?vid=152b725d-6f61-44b0-bc66-f31437aa6fe9"},"vehicle_type_id":"4","last_reported":1758089802,"current_range_meters":18000,"station_id":"st_d2o4gvlbi1j2169b742g","pricing_plan_id":"cebpf4jnsgd1na2vs0mg"},{"bike_id":"387c8295-5c1a-4e62-91c6-560b703e4279","system_id":"levelo_inurba_marseille","lat":43.32412,"lon":5.42704,"is_reserved":false,"is_disabled":false,"rental_uris":{"android":"levelo://app?vid=387c8295-5c1a-4e62-91c6-560b703e4279","ios":"levelo://app?vid=387c8295-5c1a-4e62-91c6-560b703e4279"},"vehicle_type_id":"4","last_reported":1758089802,"current_range_meters":18000,"station_id":"","pricing_plan_id":"cebpf4jnsgd1na2vs0mg"},{"bike_id":"366db7eb-27a4-42de-85c2-d39508404aec","system_id":"levelo_inurba_marseille","lat":43.25938,"lon":5.40908,"is_reserved":false,"is_disabled":false,"rental_uris":{"android":"levelo://app?vid=366db7eb-27a4-42de-85c2-d39508404aec","ios":"levelo://app?vid=366db7eb-27a4-42de-85c2-d39508404aec"},"vehicle_type_id":"4","last_reported":1758089802,"current_range_meters":18000,"station_id":"ce4bhm92rcd13ifvqglg","pricing_plan_id":"cebpf4jnsgd1na2vs0mg"},{"bike_id":"841d935d-733b-4601-93ca-4c65c0fe5688","system_id":"levelo_inurba_marseille","lat":43.32369,"lon":5.3675,"is_reserved":false,"is_disabled":false,"rental_uris":{"android":"levelo://app?vid=841d935d-733b-4601-93ca-4c65c0fe5688","ios":"levelo://app?vid=841d935d-733b-4601-93ca-4c65c0fe5688"},"vehicle_type_id":"4","last_reported":1758089802,"current_range_meters":18000,"station_id":"ce4bhsh2rcd13ifvqi2g","pricing_plan_id":"cebpf4jnsgd1na2vs0mg"},{"bike_id":"40495e59-b743-486e-987c-cb0c3ab2f191","system_id":"levelo_inurba_marseille","lat":43.33219,"lon":5.41127,"is_reserved":false,"is_disabled":false,"rental_uris":{"android":"levelo://app?vid=40495e59-b743-486e-987c-cb0c3ab2f191","ios":"levelo://app?vid=40495e59-b743-486e-987c-cb0c3ab2f191"},"vehicle_type_id":"4","last_reported":1758089802,"current_range_meters":18000,"station_id":"","pricing_plan_id":"cebpf4jnsgd1na2vs0mg"},{"bike_id":"d1788760-0706-4b90-8999-db00a9e42210","system_id":"levelo_inurba_marseille","lat":43.32797,"lon":5.41011,"is_reserved":false,"is_disabled":false,"rental_uris":{"android":"levelo://app?vid=d1788760-0706-4b90-8999-db00a9e42210","ios":"levelo://app?vid=d1788760-0706-4b90-8999-db00a9e42210"},"vehicle_type_id":"4","last_reported":1758089802,"current_range_meters":18000,"station_id":"","pricing_plan_id":"cebpf4jnsgd1na2vs0mg"},{"bike_id":"afdd87d7-890d-4fbb-b750-9cca055c51dd","system_id":"levelo_inurba_marseille","lat":43.30159,"lon":5.38077,"is_reserved":false,"is_disabled":false,"rental_uris":{"android":"levelo://app?vid=afdd87d7-890d-4fbb-b750-9cca055c51dd","ios":"levelo://app?vid=afdd87d7-890d-4fbb-b750-9cca055c51dd"},"vehicle_type_id":"4","last_reported":1758089802,"current_range_meters":18800,"station_id":"ce4bgjp2rcd13ifvqbh0","pricing_plan_id":"cebpf4jnsgd1na2vs0mg"},{"bike_id":"463638f1-7031-4e19-b6f2-200ae974adc5","system_id":"levelo_inurba_marseille","lat":43.31109,"lon":5.37782,"is_reserved":false,"is_disabled":false,"rental_uris":{"android":"levelo://app?vid=463638f1-7031-4e19-b6f2-200ae974adc5","ios":"levelo://app?vid=463638f1-7031-4e19-b6f2-200ae974adc5"},"vehicle_type_id":"4","last_reported":1758089802,"current_range_meters":18800,"station_id":"ce4bgt92rcd13ifvqcg0","pricing_plan_id":"cebpf4jnsgd1na2vs0mg"},{"bike_id":"84909a53-7cee-4dda-aefc-0cfd0ab4f8b1","system_id":"levelo_inurba_marseille","lat":43.21189,"lon":5.350719,"is_reserved":false,"is_disabled":false,"rental_uris":{"android":"levelo://app?vid=84909a53-7cee-4dda-aefc-0cfd0ab4f8b1","ios":"levelo://app?vid=84909a53-7cee-4dda-aefc-0cfd0ab4f8b1"},"vehicle_type_id":"4","last_reported":1758089802,"current_range_meters":18800,"station_id":"st_cvj6sg6p6f1abm77japg","pricing_plan_id":"cebpf4jnsgd1na2vs0mg"},{"bike_id":"073a1b97-6022-4f72-bde7-734064254c06","system_id":"levelo_inurba_marseille","lat":43.225336,"lon":5.348372,"is_reserved":false,"is_disabled":false,"rental_uris":{"android":"levelo://app?vid=073a1b97-6022-4f72-bde7-734064254c06","ios":"levelo://app?vid=073a1b97-6022-4f72-bde7-734064254c06"},"vehicle_type_id":"4","last_reported":1758089802,"current_range_meters":18800,"station_id":"st_cvj6r9ubvosntc0bgbag","pricing_plan_id":"cebpf4jnsgd1na2vs0mg"},{"bike_id":"9d181f5a-58ca-49a0-bbcc-8286d3ed3228","system_id":"levelo_inurba_marseille","lat":43.30712,"lon":5.37798,"is_reserved":false,"is_disabled":false,"rental_uris":{"android":"levelo://app?vid=9d181f5a-58ca-49a0-bbcc-8286d3ed3228","ios":"levelo://app?vid=9d181f5a-58ca-49a0-bbcc-8286d3ed3228"},"vehicle_type_id":"4","last_reported":1758089802,"current_range_meters":18800,"station_id":"","pricing_plan_id":"cebpf4jnsgd1na2vs0mg"},{"bike_id":"5e900afc-abf0-4c5a-bd6a-daaa74485a3c","system_id":"levelo_inurba_marseille","lat":43.32543,"lon":5.41428,"is_reserved":false,"is_disabled":false,"rental_uris":{"android":"levelo://app?vid=5e900afc-abf0-4c5a-bd6a-daaa74485a3c","ios":"levelo://app?vid=5e900afc-abf0-4c5a-bd6a-daaa74485a3c"},"vehicle_type_id":"4","last_reported":1758089802,"current_range_meters":18800,"station_id":"ce4bhq12rcd13ifvqhhg","pricing_plan_id":"cebpf4jnsgd1na2vs0mg"},{"bike_id":"ae136031-a4e7-4ea6-9928-c8f7b8a2fc9b","system_id":"levelo_inurba_marseille","lat":43.30533,"lon":5.36551,"is_reserved":false,"is_disabled":false,"rental_uris":{"android":"levelo://app?vid=ae136031-a4e7-4ea6-9928-c8f7b8a2fc9b","ios":"levelo://app?vid=ae136031-a4e7-4ea6-9928-c8f7b8a2fc9b"},"vehicle_type_id":"4","last_reported":1758089802,"current_range_meters":18800,"station_id":"ce4bgs12rcd13ifvqcag","pricing_plan_id":"cebpf4jnsgd1na2vs0mg"},{"bike_id":"5418b384-502e-42e3-81b3-13d2c696ed56","system_id":"levelo_inurba_marseille","lat":43.2482,"lon":5.37448,"is_reserved":false,"is_disabled":false,"rental_uris":{"android":"levelo://app?vid=5418b384-502e-42e3-81b3-13d2c696ed56","ios":"levelo://app?vid=5418b384-502e-42e3-81b3-13d2c696ed56"},"vehicle_type_id":"4","last_reported":1758089802,"current_range_meters":18800,"station_id":"ce4bhgh2rcd13ifvqfb0","pricing_plan_id":"cebpf4jnsgd1na2vs0mg"},{"bike_id":"0609b588-e68f-4395-bb7a-acadd140d875","system_id":"levelo_inurba_marseille","lat":43.211892,"lon":5.350657,"is_reserved":false,"is_disabled":false,"rental_uris":{"android":"levelo://app?vid=0609b588-e68f-4395-bb7a-acadd140d875","ios":"levelo://app?vid=0609b588-e68f-4395-bb7a-acadd140d875"},"vehicle_type_id":"4","last_reported":1758089802,"current_range_meters":18800,"station_id":"st_cvj6sg6p6f1abm77japg","pricing_plan_id":"cebpf4jnsgd1na2vs0mg"},{"bike_id":"880c4a6c-b371-422a-aad3-427d0c0fec75","system_id":"levelo_inurba_marseille","lat":43.30919,"lon":5.36849,"is_reserved":false,"is_disabled":false,"rental_uris":{"android":"levelo://app?vid=880c4a6c-b371-422a-aad3-427d0c0fec75","ios":"levelo://app?vid=880c4a6c-b371-422a-aad3-427d0c0fec75"},"vehicle_type_id":"4","last_reported":1758089802,"current_range_meters":19200,"station_id":"ce4bgn92rcd13ifvqbvg","pricing_plan_id":"cebpf4jnsgd1na2vs0mg"},{"bike_id":"5d862010-d6c6-4d44-b7ec-97aad57895fe","system_id":"levelo_inurba_marseille","lat":43.27494,"lon":5.4246,"is_reserved":false,"is_disabled":false,"rental_uris":{"android":"levelo://app?vid=5d862010-d6c6-4d44-b7ec-97aad57895fe","ios":"levelo://app?vid=5d862010-d6c6-4d44-b7ec-97aad57895fe"},"vehicle_type_id":"4","last_reported":1758089802,"current_range_meters":19200,"station_id":"ce4bhn92rcd13ifvqgrg","pricing_plan_id":"cebpf4jnsgd1na2vs0mg"},{"bike_id":"bd581d44-84a1-4fdf-bd7a-7da9d7f9be71","system_id":"levelo_inurba_marseille","lat":43.31491,"lon":5.37307,"is_reserved":false,"is_disabled":false,"rental_uris":{"android":"levelo://app?vid=bd581d44-84a1-4fdf-bd7a-7da9d7f9be71","ios":"levelo://app?vid=bd581d44-84a1-4fdf-bd7a-7da9d7f9be71"},"vehicle_type_id":"4","last_reported":1758089802,"current_range_meters":19200,"station_id":"ce4bgt12rcd13ifvqcd0","pricing_plan_id":"cebpf4jnsgd1na2vs0mg"},{"bike_id":"fe0f1393-d658-415a-9646-e4e57a5e051a","system_id":"levelo_inurba_marseille","lat":43.270767,"lon":5.392518,"is_reserved":false,"is_disabled":false,"rental_uris":{"android":"levelo://app?vid=fe0f1393-d658-415a-9646-e4e57a5e051a","ios":"levelo://app?vid=fe0f1393-d658-415a-9646-e4e57a5e051a"},"vehicle_type_id":"4","last_reported":1758089802,"current_range_meters":19200,"station_id":"","pricing_plan_id":"cebpf4jnsgd1na2vs0mg"},{"bike_id":"f4bf3cfd-f318-44c1-ad34-31822b00af21","system_id":"levelo_inurba_marseille","lat":43.25935,"lon":5.40911,"is_reserved":false,"is_disabled":false,"rental_uris":{"android":"levelo://app?vid=f4bf3cfd-f318-44c1-ad34-31822b00af21","ios":"levelo://app?vid=f4bf3cfd-f318-44c1-ad34-31822b00af21"},"vehicle_type_id":"4","last_reported":1758089802,"current_range_meters":19200,"station_id":"ce4bhm92rcd13ifvqglg","pricing_plan_id":"cebpf4jnsgd1na2vs0mg"},{"bike_id":"b691b151-22d0-4971-a9fe-5fa37d6055b9","system_id":"levelo_inurba_marseille","lat":43.25344,"lon":5.42169,"is_reserved":false,"is_disabled":false,"rental_uris":{"android":"levelo://app?vid=b691b151-22d0-4971-a9fe-5fa37d6055b9","ios":"levelo://app?vid=b691b151-22d0-4971-a9fe-5fa37d6055b9"},"vehicle_type_id":"4","last_reported":1758089802,"current_range_meters":19200,"station_id":"st_d2m65c5bi1j21697t3ng","pricing_plan_id":"cebpf4jnsgd1na2vs0mg"},{"bike_id":"650ee5c3-cb4f-46bc-a1e1-ada0d716cfd8","system_id":"levelo_inurba_marseille","lat":43.2904,"lon":5.39965,"is_reserved":false,"is_disabled":false,"rental_uris":{"android":"levelo://app?vid=650ee5c3-cb4f-46bc-a1e1-ada0d716cfd8","ios":"levelo://app?vid=650ee5c3-cb4f-46bc-a1e1-ada0d716cfd8"},"vehicle_type_id":"4","last_reported":1758089802,"current_range_meters":19200,"station_id":"ce4bh392rcd13ifvqdm0","pricing_plan_id":"cebpf4jnsgd1na2vs0mg"},{"bike_id":"35260be5-d476-41f3-9683-0032b9edd07f","system_id":"levelo_inurba_marseille","lat":43.243065,"lon":5.375261,"is_reserved":false,"is_disabled":false,"rental_uris":{"android":"levelo://app?vid=35260be5-d476-41f3-9683-0032b9edd07f","ios":"levelo://app?vid=35260be5-d476-41f3-9683-0032b9edd07f"},"vehicle_type_id":"4","last_reported":1758089802,"current_range_meters":19200,"station_id":"","pricing_plan_id":"cebpf4jnsgd1na2vs0mg"},{"bike_id":"13f1eef7-635c-4f78-a8bb-125ccd42bd85","system_id":"levelo_inurba_marseille","lat":43.25336,"lon":5.42191,"is_reserved":false,"is_disabled":false,"rental_uris":{"android":"levelo://app?vid=13f1eef7-635c-4f78-a8bb-125ccd42bd85","ios":"levelo://app?vid=13f1eef7-635c-4f78-a8bb-125ccd42bd85"},"vehicle_type_id":"4","last_reported":1758089802,"current_range_meters":19200,"station_id":"st_d2m65c5bi1j21697t3ng","pricing_plan_id":"cebpf4jnsgd1na2vs0mg"},{"bike_id":"813f9998-c92c-44c9-b61a-dc5d3714b995","system_id":"levelo_inurba_marseille","lat":43.2982,"lon":5.40399,"is_reserved":false,"is_disabled":true,"rental_uris":{"android":"levelo://app?vid=813f9998-c92c-44c9-b61a-dc5d3714b995","ios":"levelo://app?vid=813f9998-c92c-44c9-b61a-dc5d3714b995"},"vehicle_type_id":"4","last_reported":1758089802,"current_range_meters":19600,"station_id":"ce4bh112rcd13ifvqd90","pricing_plan_id":"cebpf4jnsgd1na2vs0mg"},{"bike_id":"3e05f3ed-8e5b-42af-9ba3-918515acc360","system_id":"levelo_inurba_marseille","lat":43.229327,"lon":5.353774,"is_reserved":false,"is_disabled":false,"rental_uris":{"android":"levelo://app?vid=3e05f3ed-8e5b-42af-9ba3-918515acc360","ios":"levelo://app?vid=3e05f3ed-8e5b-42af-9ba3-918515acc360"},"vehicle_type_id":"4","last_reported":1758089802,"current_range_meters":19600,"station_id":"cpo3532slgdg3j2ikp40","pricing_plan_id":"cebpf4jnsgd1na2vs0mg"},{"bike_id":"86ee8b7f-6aaa-403b-8941-16e35381c124","system_id":"levelo_inurba_marseille","lat":43.27975,"lon":5.38743,"is_reserved":false,"is_disabled":false,"rental_uris":{"android":"levelo://app?vid=86ee8b7f-6aaa-403b-8941-16e35381c124","ios":"levelo://app?vid=86ee8b7f-6aaa-403b-8941-16e35381c124"},"vehicle_type_id":"4","last_reported":1758089802,"current_range_meters":19200,"station_id":"ce4bhg12rcd13ifvqf80","pricing_plan_id":"cebpf4jnsgd1na2vs0mg"},{"bike_id":"c30270fa-25a9-4f22-b5ca-5c0ba4922151","system_id":"levelo_inurba_marseille","lat":43.25935,"lon":5.40909,"is_reserved":false,"is_disabled":false,"rental_uris":{"android":"levelo://app?vid=c30270fa-25a9-4f22-b5ca-5c0ba4922151","ios":"levelo://app?vid=c30270fa-25a9-4f22-b5ca-5c0ba4922151"},"vehicle_type_id":"4","last_reported":1758089802,"current_range_meters":19600,"station_id":"ce4bhm92rcd13ifvqglg","pricing_plan_id":"cebpf4jnsgd1na2vs0mg"},{"bike_id":"1d3f2912-c946-464a-947c-33b9b4e5b77b","system_id":"levelo_inurba_marseille","lat":43.27949,"lon":5.38742,"is_reserved":false,"is_disabled":false,"rental_uris":{"android":"levelo://app?vid=1d3f2912-c946-464a-947c-33b9b4e5b77b","ios":"levelo://app?vid=1d3f2912-c946-464a-947c-33b9b4e5b77b"},"vehicle_type_id":"4","last_reported":1758089802,"current_range_meters":19600,"station_id":"ce4bhg12rcd13ifvqf80","pricing_plan_id":"cebpf4jnsgd1na2vs0mg"},{"bike_id":"b681c8e4-03d4-40eb-9d4d-d44434c1356f","system_id":"levelo_inurba_marseille","lat":43.24077,"lon":5.3775,"is_reserved":false,"is_disabled":false,"rental_uris":{"android":"levelo://app?vid=b681c8e4-03d4-40eb-9d4d-d44434c1356f","ios":"levelo://app?vid=b681c8e4-03d4-40eb-9d4d-d44434c1356f"},"vehicle_type_id":"4","last_reported":1758089802,"current_range_meters":19600,"station_id":"ce4bhnp2rcd13ifvqgvg","pricing_plan_id":"cebpf4jnsgd1na2vs0mg"},{"bike_id":"00cb93c1-1492-4e76-9a29-d560eec9e740","system_id":"levelo_inurba_marseille","lat":43.31347,"lon":5.36717,"is_reserved":false,"is_disabled":false,"rental_uris":{"android":"levelo://app?vid=00cb93c1-1492-4e76-9a29-d560eec9e740","ios":"levelo://app?vid=00cb93c1-1492-4e76-9a29-d560eec9e740"},"vehicle_type_id":"4","last_reported":1758089802,"current_range_meters":19600,"station_id":"ce4bgr92rcd13ifvqc6g","pricing_plan_id":"cebpf4jnsgd1na2vs0mg"},{"bike_id":"be9ee84b-9ec1-497c-800c-5907ad1418ae","system_id":"levelo_inurba_marseille","lat":43.2256,"lon":5.41637,"is_reserved":false,"is_disabled":false,"rental_uris":{"android":"levelo://app?vid=be9ee84b-9ec1-497c-800c-5907ad1418ae","ios":"levelo://app?vid=be9ee84b-9ec1-497c-800c-5907ad1418ae"},"vehicle_type_id":"4","last_reported":1758089802,"current_range_meters":19600,"station_id":"st_d2o4gvlbi1j2169b742g","pricing_plan_id":"cebpf4jnsgd1na2vs0mg"},{"bike_id":"737fa7c1-62a4-41e6-a851-7ad9cedfd338","system_id":"levelo_inurba_marseille","lat":43.26325,"lon":5.4108,"is_reserved":false,"is_disabled":false,"rental_uris":{"android":"levelo://app?vid=737fa7c1-62a4-41e6-a851-7ad9cedfd338","ios":"levelo://app?vid=737fa7c1-62a4-41e6-a851-7ad9cedfd338"},"vehicle_type_id":"4","last_reported":1758089802,"current_range_meters":19600,"station_id":"","pricing_plan_id":"cebpf4jnsgd1na2vs0mg"},{"bike_id":"0490c188-825c-48de-a601-dd6c5f4452e6","system_id":"levelo_inurba_marseille","lat":43.243962,"lon":5.370528,"is_reserved":false,"is_disabled":true,"rental_uris":{"android":"levelo://app?vid=0490c188-825c-48de-a601-dd6c5f4452e6","ios":"levelo://app?vid=0490c188-825c-48de-a601-dd6c5f4452e6"},