{"last_updated":1727813361,"ttl":60,"version":"2.2","data":{"bikes":[{"bike_id":"7e287946-5aea-4062-b1b6-cff0f42b38aa","system_id":"levelo_inurba_marseille","lat":43.30649,"lon":5.4009,"is_reserved":false,"is_disabled":false,"rental_uris":{"android":"levelo://app?vid=7e287946-5aea-4062-b1b6-cff0f42b38aa","ios":"levelo://app?vid=7e287946-5aea-4062-b1b6-cff0f42b38aa"},"vehicle_type_id":"4","last_reported":1727813361,"current_range_meters":25600,"station_id":"ce4bh112rcd13ifvqda0","pricing_plan_id":"cebpf4jnsgd1na2vs0mg"},{"bike_id":"8322c86f-920b-48fc-93cf-fd6768f28fdd","system_id":"levelo_inurba_marseille","lat":43.29289,"lon":5.37647,"is_reserved":false,"is_disabled":false,"rental_uris":{"android":"levelo://app?vid=8322c86f-920b-48fc-93cf-fd6768f28fdd","ios":"levelo://app?vid=8322c86f-920b-48fc-93cf-fd6768f28fdd"},"vehicle_type_id":"4","last_reported":1727813361,"current_range_meters":28800,"station_id":"","pricing_plan_id":"cebpf4jnsgd1na2vs0mg"},{"bike_id":"d97196d4-185e-4916-bd86-5eb6fdf18447","system_id":"levelo_inurba_marseille","lat":43.33025,"lon":5.39043,"is_reserved":false,"is_disabled":false,"rental_uris":{"android":"levelo://app?vid=d97196d4-185e-4916-bd86-5eb6fdf18447","ios":"levelo://app?vid=d97196d4-185e-4916-bd86-5eb6fdf18447"},"vehicle_type_id":"4","last_reported":1727813361,"current_range_meters":24400,"station_id":"ce4bhr92rcd13ifvqhrg","pricing_plan_id":"cebpf4jnsgd1na2vs0mg"},{"bike_id":"c1f8fd95-7047-428b-8805-d2bc5bdc3363","system_id":"levelo_inurba_marseille","lat":43.33027,"lon":5.39059,"is_reserved":false,"is_disabled":false,"rental_uris":{"android":"levelo://app?vid=c1f8fd95-7047-428b-8805-d2bc5bdc3363","ios":"levelo://app?vid=c1f8fd95-7047-428b-8805-d2bc5bdc3363"},"vehicle_type_id":"4","last_reported":1727813361,"current_range_meters":37600,"station_id":"ce4bhr92rcd13ifvqhrg","pricing_plan_id":"cebpf4jnsgd1na2vs0mg"},{"bike_id":"590a8d58-4170-45bf-9ac5-837bd3ff5b81","system_id":"levelo_inurba_marseille","lat":43.27066,"lon":5.42276,"is_reserved":false,"is_disabled":false,"rental_uris":{"android":"levelo://app?vid=590a8d58-4170-45bf-9ac5-837bd3ff5b81","ios":"levelo://app?vid=590a8d58-4170-45bf-9ac5-837bd3ff5b81"},"vehicle_type_id":"4","last_reported":1727813361,"current_range_meters":26000,"station_id":"ce4bhk92rcd13ifvqgb0","pricing_plan_id":"cebpf4jnsgd1na2vs0mg"},{"bike_id":"100a6eb3-d864-4715-8031-7729c74975fb","system_id":"levelo_inurba_marseille","lat":43.27992,"lon":5.40016,"is_reserved":false,"is_disabled":false,"rental_uris":{"android":"levelo://app?vid=100a6eb3-d864-4715-8031-7729c74975fb","ios":"levelo://app?vid=100a6eb3-d864-4715-8031-7729c74975fb"},"vehicle_type_id":"4","last_reported":1727813361,"current_range_meters":38800,"station_id":"ce4bho92rcd13ifvqh4g","pricing_plan_id":"cebpf4jnsgd1na2vs0mg"},{"bike_id":"83e07b7c-5a31-4eac-92e4-4f0fe5973f81","system_id":"levelo_inurba_marseille","lat":43.24647,"lon":5.38907,"is_reserved":false,"is_disabled":false,"rental_uris":{"android":"levelo://app?vid=83e07b7c-5a31-4eac-92e4-4f0fe5973f81","ios":"levelo://app?vid=83e07b7c-5a31-4eac-92e4-4f0fe5973f81"},"vehicle_type_id":"4","last_reported":1727813361,"current_range_meters":10800,"station_id":"ce4bhg12rcd13ifvqf60","pricing_plan_id":"cebpf4jnsgd1na2vs0mg"},{"bike_id":"eed7e329-6797-484d-911e-085f4531d31b","system_id":"levelo_inurba_marseille","lat":43.25581,"lon":5.38234,"is_reserved":false,"is_disabled":false,"rental_uris":{"android":"levelo://app?vid=eed7e329-6797-484d-911e-085f4531d31b","ios":"levelo://app?vid=eed7e329-6797-484d-911e-085f4531d31b"},"vehicle_type_id":"4","last_reported":1727813361,"current_range_meters":11600,"station_id":"ce4bhih2rcd13ifvqfs0","pricing_plan_id":"cebpf4jnsgd1na2vs0mg"},{"bike_id":"f6a077b0-361c-4838-a898-222b193a4c46","system_id":"levelo_inurba_marseille","lat":43.29562,"lon":5.42289,"is_reserved":false,"is_disabled":false,"rental_uris":{"android":"levelo://app?vid=f6a077b0-361c-4838-a898-222b193a4c46","ios":"levelo://app?vid=f6a077b0-361c-4838-a898-222b193a4c46"},"vehicle_type_id":"4","last_reported":1727813361,"current_range_meters":37600,"station_id":"ce4bhph2rcd13ifvqhdg","pricing_plan_id":"cebpf4jnsgd1na2vs0mg"},{"bike_id":"91683749-19d1-4523-a414-92af87efe79e","system_id":"levelo_inurba_marseille","lat":43.26492,"lon":5.39551,"is_reserved":false,"is_disabled":false,"rental_uris":{"android":"levelo://app?vid=91683749-19d1-4523-a414-92af87efe79e","ios":"levelo://app?vid=91683749-19d1-4523-a414-92af87efe79e"},"vehicle_type_id":"4","last_reported":1727813361,"current_range_meters":6800,"station_id":"ce4bhi12rcd13ifvqfq0","pricing_plan_id":"cebpf4jnsgd1na2vs0mg"},{"bike_id":"0bdcf6b5-ec87-45a0-bb37-594a6fcb82b6","system_id":"levelo_inurba_marseille","lat":43.29529,"lon":5.3854,"is_reserved":false,"is_disabled":false,"rental_uris":{"android":"levelo://app?vid=0bdcf6b5-ec87-45a0-bb37-594a6fcb82b6","ios":"levelo://app?vid=0bdcf6b5-ec87-45a0-bb37-594a6fcb82b6"},"vehicle_type_id":"4","last_reported":1727813361,"current_range_meters":38800,"station_id":"ce4bgih2rcd13ifvqba0","pricing_plan_id":"cebpf4jnsgd1na2vs0mg"},{"bike_id":"476f3886-1e51-4dd2-9e2b-ca295848deb7","system_id":"levelo_inurba_marseille","lat":43.298673,"lon":5.397357,"is_reserved":false,"is_disabled":false,"rental_uris":{"android":"levelo://app?vid=476f3886-1e51-4dd2-9e2b-ca295848deb7","ios":"levelo://app?vid=476f3886-1e51-4dd2-9e2b-ca295848deb7"},"vehicle_type_id":"4","last_reported":1727813361,"current_range_meters":11200,"station_id":"ce4bh0h2rcd13ifvqd50","pricing_plan_id":"cebpf4jnsgd1na2vs0mg"},{"bike_id":"7344032b-ea9b-412c-a003-5a86ebc7ff71","system_id":"levelo_inurba_marseille","lat":43.24082,"lon":5.3775,"is_reserved":false,"is_disabled":false,"rental_uris":{"android":"levelo://app?vid=7344032b-ea9b-412c-a003-5a86ebc7ff71","ios":"levelo://app?vid=7344032b-ea9b-412c-a003-5a86ebc7ff71"},"vehicle_type_id":"4","last_reported":1727813361,"current_range_meters":15200,"station_id":"ce4bhnp2rcd13ifvqgvg","pricing_plan_id":"cebpf4jnsgd1na2vs0mg"},{"bike_id":"f139bc38-1ba2-4d42-a550-2a060e4202e5","system_id":"levelo_inurba_marseille","lat":43.27816,"lon":5.40711,"is_reserved":false,"is_disabled":false,"rental_uris":{"android":"levelo://app?vid=f139bc38-1ba2-4d42-a550-2a060e4202e5","ios":"levelo://app?vid=f139bc38-1ba2-4d42-a550-2a060e4202e5"},"vehicle_type_id":"4","last_reported":1727813361,"current_range_meters":40000,"station_id":"ce4bhnh2rcd13ifvqgtg","pricing_plan_id":"cebpf4jnsgd1na2vs0mg"},{"bike_id":"a30a3f89-7992-4afd-be8c-a3babfa731e8","system_id":"levelo_inurba_marseille","lat":43.28436,"lon":5.39196,"is_reserved":false,"is_disabled":false,"rental_uris":{"android":"levelo://app?vid=a30a3f89-7992-4afd-be8c-a3babfa731e8","ios":"levelo://app?vid=a30a3f89-7992-4afd-be8c-a3babfa731e8"},"vehicle_type_id":"4","last_reported":1727813361,"current_range_meters":2800,"station_id":"ce4bhoh2rcd13ifvqh5g","pricing_plan_id":"cebpf4jnsgd1na2vs0mg"},{"bike_id":"535385fe-5224-42e4-9dfd-0568fa9902cb","system_id":"levelo_inurba_marseille","lat":43.30358,"lon":5.41889,"is_reserved":false,"is_disabled":false,"rental_uris":{"android":"levelo://app?vid=535385fe-5224-42e4-9dfd-0568fa9902cb","ios":"levelo://app?vid=535385fe-5224-42e4-9dfd-0568fa9902cb"},"vehicle_type_id":"4","last_reported":1727813361,"current_range_meters":12400,"station_id":"ce4bhop2rcd13ifvqh7g","pricing_plan_id":"cebpf4jnsgd1na2vs0mg"},{"bike_id":"bcd3d28a-ea65-4172-8f36-03236c255f65","system_id":"levelo_inurba_marseille","lat":43.30319,"lon":5.40446,"is_reserved":false,"is_disabled":false,"rental_uris":{"android":"levelo://app?vid=bcd3d28a-ea65-4172-8f36-03236c255f65","ios":"levelo://app?vid=bcd3d28a-ea65-4172-8f36-03236c255f65"},"vehicle_type_id":"4","last_reported":1727813361,"current_range_meters":38800,"station_id":"ce4bh012rcd13ifvqd10","pricing_plan_id":"cebpf4jnsgd1na2vs0mg"},{"bike_id":"9ea65383-a0de-4a50-8614-6075feadc120","system_id":"levelo_inurba_marseille","lat":43.313315,"lon":5.396965,"is_reserved":false,"is_disabled":false,"rental_uris":{"android":"levelo://app?vid=9ea65383-a0de-4a50-8614-6075feadc120","ios":"levelo://app?vid=9ea65383-a0de-4a50-8614-6075feadc120"},"vehicle_type_id":"4","last_reported":1727813361,"current_range_meters":36400,"station_id":"ce4bgvp2rcd13ifvqcu0","pricing_plan_id":"cebpf4jnsgd1na2vs0mg"},{"bike_id":"66008f0c-54c1-4947-bd13-baf5c56632d4","system_id":"levelo_inurba_marseille","lat":43.29259,"lon":5.38431,"is_reserved":false,"is_disabled":false,"rental_uris":{"android":"levelo://app?vid=66008f0c-54c1-4947-bd13-baf5c56632d4","ios":"levelo://app?vid=66008f0c-54c1-4947-bd13-baf5c56632d4"},"vehicle_type_id":"4","last_reported":1727813361,"current_range_meters":38800,"station_id":"ce4bh692rcd13ifvqea0","pricing_plan_id":"cebpf4jnsgd1na2vs0mg"},{"bike_id":"43c1e5a4-b8d0-43e7-82b5-8d7b9ca74bff","system_id":"levelo_inurba_marseille","lat":43.31359,"lon":5.385,"is_reserved":false,"is_disabled":false,"rental_uris":{"android":"levelo://app?vid=43c1e5a4-b8d0-43e7-82b5-8d7b9ca74bff","ios":"levelo://app?vid=43c1e5a4-b8d0-43e7-82b5-8d7b9ca74bff"},"vehicle_type_id":"4","last_reported":1727813361,"current_range_meters":24000,"station_id":"ce4bgt92rcd13ifvqcf0","pricing_plan_id":"cebpf4jnsgd1na2vs0mg"},{"bike_id":"7e76f61d-1104-460b-895f-03b2abf7da39","system_id":"levelo_inurba_marseille","lat":43.24077,"lon":5.37759,"is_reserved":false,"is_disabled":false,"rental_uris":{"android":"levelo://app?vid=7e76f61d-1104-460b-895f-03b2abf7da39","ios":"levelo://app?vid=7e76f61d-1104-460b-895f-03b2abf7da39"},"vehicle_type_id":"4","last_reported":1727813361,"current_range_meters":16000,"station_id":"ce4bhnp2rcd13ifvqgvg","pricing_plan_id":"cebpf4jnsgd1na2vs0mg"},{"bike_id":"1bd4444f-2f28-42f4-8820-c243d2603262","system_id":"levelo_inurba_marseille","lat":43.27982,"lon":5.40022,"is_reserved":false,"is_disabled":false,"rental_uris":{"android":"levelo://app?vid=1bd4444f-2f28-42f4-8820-c243d2603262","ios":"levelo://app?vid=1bd4444f-2f28-42f4-8820-c243d2603262"},"vehicle_type_id":"4","last_reported":1727813361,"current_range_meters":3600,"station_id":"ce4bho92rcd13ifvqh4g","pricing_plan_id":"cebpf4jnsgd1na2vs0mg"},{"bike_id":"857a4f54-b09e-427f-89a4-f8ebb75f9e7f","system_id":"levelo_inurba_marseille","lat":43.30884,"lon":5.39648,"is_reserved":false,"is_disabled":false,"rental_uris":{"android":"levelo://app?vid=857a4f54-b09e-427f-89a4-f8ebb75f9e7f","ios":"levelo://app?vid=857a4f54-b09e-427f-89a4-f8ebb75f9e7f"},"vehicle_type_id":"4","last_reported":1727813361,"current_range_meters":39200,"station_id":"ce4bh012rcd13ifvqcv0","pricing_plan_id":"cebpf4jnsgd1na2vs0mg"},{"bike_id":"c32d92b6-7ce5-4d09-bf38-7781f66ad1d1","system_id":"levelo_inurba_marseille","lat":43.25718,"lon":5.41114,"is_reserved":false,"is_disabled":false,"rental_uris":{"android":"levelo://app?vid=c32d92b6-7ce5-4d09-bf38-7781f66ad1d1","ios":"levelo://app?vid=c32d92b6-7ce5-4d09-bf38-7781f66ad1d1"},"vehicle_type_id":"4","last_reported":1727813361,"current_range_meters":8000,"station_id":"ce4bhkp2rcd13ifvqgd0","pricing_plan_id":"cebpf4jnsgd1na2vs0mg"},{"bike_id":"971066bf-d185-43bd-8e60-58636f1d2155","system_id":"levelo_inurba_marseille","lat":43.33028,"lon":5.39049,"is_reserved":false,"is_disabled":false,"rental_uris":{"android":"levelo://app?vid=971066bf-d185-43bd-8e60-58636f1d2155","ios":"levelo://app?vid=971066bf-d185-43bd-8e60-58636f1d2155"},"vehicle_type_id":"4","last_reported":1727813361,"current_range_meters":20800,"station_id":"ce4bhr92rcd13ifvqhrg","pricing_plan_id":"cebpf4jnsgd1na2vs0mg"},{"bike_id":"cc07bd96-c001-4cad-b8d8-6c83fdb27706","system_id":"levelo_inurba_marseille","lat":43.27985,"lon":5.40012,"is_reserved":false,"is_disabled":false,"rental_uris":{"android":"levelo://app?vid=cc07bd96-c001-4cad-b8d8-6c83fdb27706","ios":"levelo://app?vid=cc07bd96-c001-4cad-b8d8-6c83fdb27706"},"vehicle_type_id":"4","last_reported":1727813361,"current_range_meters":16000,"station_id":"ce4bho92rcd13ifvqh4g","pricing_plan_id":"cebpf4jnsgd1na2vs0mg"},{"bike_id":"5805b4f5-b7c4-49cb-a46c-5267733fcd97","system_id":"levelo_inurba_marseille","lat":43.27987,"lon":5.40007,"is_reserved":false,"is_disabled":false,"rental_uris":{"android":"levelo://app?vid=5805b4f5-b7c4-49cb-a46c-5267733fcd97","ios":"levelo://app?vid=5805b4f5-b7c4-49cb-a46c-5267733fcd97"},"vehicle_type_id":"4","last_reported":1727813361,"current_range_meters":30000,"station_id":"ce4bho92rcd13ifvqh4g","pricing_plan_id":"cebpf4jnsgd1na2vs0mg"},{"bike_id":"e33f8a79-4b8f-428d-917a-d0abba2a4c62","system_id":"levelo_inurba_marseille","lat":43.31695,"lon":5.40469,"is_reserved":false,"is_disabled":false,"rental_uris":{"android":"levelo://app?vid=e33f8a79-4b8f-428d-917a-d0abba2a4c62","ios":"levelo://app?vid=e33f8a79-4b8f-428d-917a-d0abba2a4c62"},"vehicle_type_id":"4","last_reported":1727813361,"current_range_meters":32800,"station_id":"ce4bh012rcd13ifvqd00","pricing_plan_id":"cebpf4jnsgd1na2vs0mg"},{"bike_id":"81750190-39ad-463e-969c-0a74da3c78de","system_id":"levelo_inurba_marseille","lat":43.29259,"lon":5.4091,"is_reserved":false,"is_disabled":false,"rental_uris":{"android":"levelo://app?vid=81750190-39ad-463e-969c-0a74da3c78de","ios":"levelo://app?vid=81750190-39ad-463e-969c-0a74da3c78de"},"vehicle_type_id":"4","last_reported":1727813361,"current_range_meters":8800,"station_id":"ce4bh192rcd13ifvqdc0","pricing_plan_id":"cebpf4jnsgd1na2vs0mg"},{"bike_id":"740bb7fb-4c1b-4382-93f8-92d0ff75b827","system_id":"levelo_inurba_marseille","lat":43.29551,"lon":5.3942,"is_reserved":false,"is_disabled":false,"rental_uris":{"android":"levelo://app?vid=740bb7fb-4c1b-4382-93f8-92d0ff75b827","ios":"levelo://app?vid=740bb7fb-4c1b-4382-93f8-92d0ff75b827"},"vehicle_type_id":"4","last_reported":1727813361,"current_range_meters":33600,"station_id":"ce4bh292rcd13ifvqdf0","pricing_plan_id":"cebpf4jnsgd1na2vs0mg"},{"bike_id":"cc348d5e-b637-44b1-84a4-6c92ec751a0c","system_id":"levelo_inurba_marseille","lat":43.31161,"lon":5.38722,"is_reserved":false,"is_disabled":false,"rental_uris":{"android":"levelo://app?vid=cc348d5e-b637-44b1-84a4-6c92ec751a0c","ios":"levelo://app?vid=cc348d5e-b637-44b1-84a4-6c92ec751a0c"},"vehicle_type_id":"4","last_reported":1727813361,"current_range_meters":32000,"station_id":"ce4bgv12rcd13ifvqcp0","pricing_plan_id":"cebpf4jnsgd1na2vs0mg"},{"bike_id":"8884666a-6177-4a7b-b0cb-8adad2eb0450","system_id":"levelo_inurba_marseille","lat":43.30607,"lon":5.37226,"is_reserved":false,"is_disabled":false,"rental_uris":{"android":"levelo://app?vid=8884666a-6177-4a7b-b0cb-8adad2eb0450","ios":"levelo://app?vid=8884666a-6177-4a7b-b0cb-8adad2eb0450"},"vehicle_type_id":"4","last_reported":1727813361,"current_range_meters":39200,"station_id":"ce4bgqh2rcd13ifvqc4g","pricing_plan_id":"cebpf4jnsgd1na2vs0mg"},{"bike_id":"d616de3c-fdcc-449b-aaab-950f4c46fdd3","system_id":"levelo_inurba_marseille","lat":43.32107,"lon":5.36782,"is_reserved":false,"is_disabled":false,"rental_uris":{"android":"levelo://app?vid=d616de3c-fdcc-449b-aaab-950f4c46fdd3","ios":"levelo://app?vid=d616de3c-fdcc-449b-aaab-950f4c46fdd3"},"vehicle_type_id":"4","last_reported":1727813361,"current_range_meters":11600,"station_id":"ce4bhrh2rcd13ifvqhug","pricing_plan_id":"cebpf4jnsgd1na2vs0mg"},{"bike_id":"42ee41d7-5023-445e-b19a-3de0bcb5650a","system_id":"levelo_inurba_marseille","lat":43.28855,"lon":5.3932,"is_reserved":false,"is_disabled":false,"rental_uris":{"android":"levelo://app?vid=42ee41d7-5023-445e-b19a-3de0bcb5650a","ios":"levelo://app?vid=42ee41d7-5023-445e-b19a-3de0bcb5650a"},"vehicle_type_id":"4","last_reported":1727813361,"current_range_meters":34000,"station_id":"ce4bh2p2rcd13ifvqdi0","pricing_plan_id":"cebpf4jnsgd1na2vs0mg"},{"bike_id":"e09746d2-89c2-455a-a54c-3e48a8df0eb4","system_id":"levelo_inurba_marseille","lat":43.28709,"lon":5.38785,"is_reserved":false,"is_disabled":false,"rental_uris":{"android":"levelo://app?vid=e09746d2-89c2-455a-a54c-3e48a8df0eb4","ios":"levelo://app?vid=e09746d2-89c2-455a-a54c-3e48a8df0eb4"},"vehicle_type_id":"4","last_reported":1727813361,"current_range_meters":4000,"station_id":"ce4bgs12rcd13ifvqcag","pricing_plan_id":"cebpf4jnsgd1na2vs0mg"},{"bike_id":"d9935980-1a1e-417b-9dde-bc0953e2ec18","system_id":"levelo_inurba_marseille","lat":43.26205,"lon":5.37934,"is_reserved":false,"is_disabled":false,"rental_uris":{"android":"levelo://app?vid=d9935980-1a1e-417b-9dde-bc0953e2ec18","ios":"levelo://app?vid=d9935980-1a1e-417b-9dde-bc0953e2ec18"},"vehicle_type_id":"4","last_reported":1727813361,"current_range_meters":22800,"station_id":"ce4bhjp2rcd13ifvqg90","pricing_plan_id":"cebpf4jnsgd1na2vs0mg"},{"bike_id":"e61b0e2b-f600-47ed-a252-8caf712f924c","system_id":"levelo_inurba_marseille","lat":43.24544,"lon":5.39526,"is_reserved":false,"is_disabled":false,"rental_uris":{"android":"levelo://app?vid=e61b0e2b-f600-47ed-a252-8caf712f924c","ios":"levelo://app?vid=e61b0e2b-f600-47ed-a252-8caf712f924c"},"vehicle_type_id":"4","last_reported":1727813361,"current_range_meters":10800,"station_id":"ce4bhlp2rcd13ifvqgjg","pricing_plan_id":"cebpf4jnsgd1na2vs0mg"},{"bike_id":"c87cbcf6-5323-4613-b4d0-9266fc83505c","system_id":"levelo_inurba_marseille","lat":43.2781,"lon":5.40732,"is_reserved":false,"is_disabled":false,"rental_uris":{"android":"levelo://app?vid=c87cbcf6-5323-4613-b4d0-9266fc83505c","ios":"levelo://app?vid=c87cbcf6-5323-4613-b4d0-9266fc83505c"},"vehicle_type_id":"4","last_reported":1727813361,"current_range_meters":17600,"station_id":"ce4bhnh2rcd13ifvqgtg","pricing_plan_id":"cebpf4jnsgd1na2vs0mg"},{"bike_id":"24250c6c-75ab-43da-a5c2-9966a9c5a30f","system_id":"levelo_inurba_marseille","lat":43.22935,"lon":5.35378,"is_reserved":false,"is_disabled":false,"rental_uris":{"android":"levelo://app?vid=24250c6c-75ab-43da-a5c2-9966a9c5a30f","ios":"levelo://app?vid=24250c6c-75ab-43da-a5c2-9966a9c5a30f"},"vehicle_type_id":"4","last_reported":1727813361,"current_range_meters":12400,"station_id":"cpo3532slgdg3j2ikp40","pricing_plan_id":"cebpf4jnsgd1na2vs0mg"},{"bike_id":"b3c27e84-f5ca-432f-bb8c-598c6d113ef0","system_id":"levelo_inurba_marseille","lat":43.30645,"lon":5.40086,"is_reserved":false,"is_disabled":false,"rental_uris":{"android":"levelo://app?vid=b3c27e84-f5ca-432f-bb8c-598c6d113ef0","ios":"levelo://app?vid=b3c27e84-f5ca-432f-bb8c-598c6d113ef0"},"vehicle_type_id":"4","last_reported":1727813361,"current_range_meters":6800,"station_id":"ce4bh112rcd13ifvqda0","pricing_plan_id":"cebpf4jnsgd1na2vs0mg"},{"bike_id":"2cb0e818-0cd7-4b14-b3e2-a4fe86b5667b","system_id":"levelo_inurba_marseille","lat":43.27911,"lon":5.39591,"is_reserved":false,"is_disabled":false,"rental_uris":{"android":"levelo://app?vid=2cb0e818-0cd7-4b14-b3e2-a4fe86b5667b","ios":"levelo://app?vid=2cb0e818-0cd7-4b14-b3e2-a4fe86b5667b"},"vehicle_type_id":"4","last_reported":1727813361,"current_range_meters":38000,"station_id":"ce4bhf92rcd13ifvqf40","pricing_plan_id":"cebpf4jnsgd1na2vs0mg"},{"bike_id":"17322aa1-d949-45de-96df-a2a07fffc6b0","system_id":"levelo_inurba_marseille","lat":43.30307,"lon":5.39211,"is_reserved":false,"is_disabled":false,"rental_uris":{"android":"levelo://app?vid=17322aa1-d949-45de-96df-a2a07fffc6b0","ios":"levelo://app?vid=17322aa1-d949-45de-96df-a2a07fffc6b0"},"vehicle_type_id":"4","last_reported":1727813361,"current_range_meters":38800,"station_id":"ce4bgkh2rcd13ifvqbk0","pricing_plan_id":"cebpf4jnsgd1na2vs0mg"},{"bike_id":"609844d3-402e-4c83-8b7f-d2093120cb67","system_id":"levelo_inurba_marseille","lat":43.32531,"lon":5.41449,"is_reserved":false,"is_disabled":false,"rental_uris":{"android":"levelo://app?vid=609844d3-402e-4c83-8b7f-d2093120cb67","ios":"levelo://app?vid=609844d3-402e-4c83-8b7f-d2093120cb67"},"vehicle_type_id":"4","last_reported":1727813361,"current_range_meters":38000,"station_id":"ce4bhq12rcd13ifvqhhg","pricing_plan_id":"cebpf4jnsgd1na2vs0mg"},{"bike_id":"df7c8b97-783e-48ab-b988-625ebb1bebf2","system_id":"levelo_inurba_marseille","lat":43.2999,"lon":5.37187,"is_reserved":false,"is_disabled":false,"rental_uris":{"android":"levelo://app?vid=df7c8b97-783e-48ab-b988-625ebb1bebf2","ios":"levelo://app?vid=df7c8b97-783e-48ab-b988-625ebb1bebf2"},"vehicle_type_id":"4","last_reported":1727813361,"current_range_meters":16400,"station_id":"ce4bgr92rcd13ifvqc7g","pricing_plan_id":"cebpf4jnsgd1na2vs0mg"},{"bike_id":"4f25ac2d-0308-439f-aeed-3522acdf667e","system_id":"levelo_inurba_marseille","lat":43.299,"lon":5.43664,"is_reserved":false,"is_disabled":false,"rental_uris":{"android":"levelo://app?vid=4f25ac2d-0308-439f-aeed-3522acdf667e","ios":"levelo://app?vid=4f25ac2d-0308-439f-aeed-3522acdf667e"},"vehicle_type_id":"4","last_reported":1727813361,"current_range_meters":17600,"station_id":"ce4bhpp2rcd13ifvqhfg","pricing_plan_id":"cebpf4jnsgd1na2vs0mg"},{"bike_id":"2efe889c-d7f9-441d-afae-d38011cb4d35","system_id":"levelo_inurba_marseille","lat":43.28464,"lon":5.35887,"is_reserved":false,"is_disabled":false,"rental_uris":{"android":"levelo://app?vid=2efe889c-d7f9-441d-afae-d38011cb4d35","ios":"levelo://app?vid=2efe889c-d7f9-441d-afae-d38011cb4d35"},"vehicle_type_id":"4","last_reported":1727813361,"current_range_meters":40000,"station_id":"ce4bhah2rcd13ifvqei0","pricing_plan_id":"cebpf4jnsgd1na2vs0mg"},{"bike_id":"c52d3422-a019-4b1b-ad42-4a8126945c79","system_id":"levelo_inurba_marseille","lat":43.30816,"lon":5.38164,"is_reserved":false,"is_disabled":false,"rental_uris":{"android":"levelo://app?vid=c52d3422-a019-4b1b-ad42-4a8126945c79","ios":"levelo://app?vid=c52d3422-a019-4b1b-ad42-4a8126945c79"},"vehicle_type_id":"4","last_reported":1727813361,"current_range_meters":26000,"station_id":"ce4bgt12rcd13ifvqce0","pricing_plan_id":"cebpf4jnsgd1na2vs0mg"},{"bike_id":"6c05f302-12d0-4100-b4f1-ff2bc6f80530","system_id":"levelo_inurba_marseille","lat":43.30596,"lon":5.37242,"is_reserved":false,"is_disabled":false,"rental_uris":{"android":"levelo://app?vid=6c05f302-12d0-4100-b4f1-ff2bc6f80530","ios":"levelo://app?vid=6c05f302-12d0-4100-b4f1-ff2bc6f80530"},"vehicle_type_id":"4","last_reported":1727813361,"current_range_meters":5600,"station_id":"ce4bgqh2rcd13ifvqc4g","pricing_plan_id":"cebpf4jnsgd1na2vs0mg"},{"bike_id":"26d718c7-9f7d-4c2c-82a6-84e58e5afac1","system_id":"levelo_inurba_marseille","lat":43.24084,"lon":5.37749,"is_reserved":false,"is_disabled":false,"rental_uris":{"android":"levelo://app?vid=26d718c7-9f7d-4c2c-82a6-84e58e5afac1","ios":"levelo://app?vid=26d718c7-9f7d-4c2c-82a6-84e58e5afac1"},"vehicle_type_id":"4","last_reported":1727813361,"current_range_meters":12400,"station_id":"ce4bhnp2rcd13ifvqgvg","pricing_plan_id":"cebpf4jnsgd1na2vs0mg"},{"bike_id":"de1e7b09-ca4b-4b48-a3fd-23a534e7333f","system_id":"levelo_inurba_marseille","lat":43.31755,"lon":5.39015,"is_reserved":false,"is_disabled":false,"rental_uris":{"android":"levelo://app?vid=de1e7b09-ca4b-4b48-a3fd-23a534e7333f","ios":"levelo://app?vid=de1e7b09-ca4b-4b48-a3fd-23a534e7333f"},"vehicle_type_id":"4","last_reported":1727813361,"current_range_meters":39200,"station_id":"ce4bhqp2rcd13ifvqhng","pricing_plan_id":"cebpf4jnsgd1na2vs0mg"},{"bike_id":"a61f1737-47c3-4b11-8bb6-8ef91d66c567","system_id":"levelo_inurba_marseille","lat":43.29531,"lon":5.38548,"is_reserved":false,"is_disabled":false,"rental_uris":{"android":"levelo://app?vid=a61f1737-47c3-4b11-8bb6-8ef91d66c567","ios":"levelo://app?vid=a61f1737-47c3-4b11-8bb6-8ef91d66c567"},"vehicle_type_id":"4","last_reported":1727813361,"current_range_meters":13600,"station_id":"ce4bgih2rcd13ifvqba0","pricing_plan_id":"cebpf4jnsgd1na2vs0mg"},{"bike_id":"9813116b-8dff-4d1b-b8b4-aef0ca33ebce","system_id":"levelo_inurba_marseille","lat":43.28718,"lon":5.3609,"is_reserved":false,"is_disabled":false,"rental_uris":{"android":"levelo://app?vid=9813116b-8dff-4d1b-b8b4-aef0ca33ebce","ios":"levelo://app?vid=9813116b-8dff-4d1b-b8b4-aef0ca33ebce"},"vehicle_type_id":"4","last_reported":1727813361,"current_range_meters":22800,"station_id":"cki0cbj6b192h4jlfktg","pricing_plan_id":"cebpf4jnsgd1na2vs0mg"},{"bike_id":"d4ee366f-491d-4484-8ef6-3ee33462286b","system_id":"levelo_inurba_marseille","lat":43.30972,"lon":5.39006,"is_reserved":false,"is_disabled":false,"rental_uris":{"android":"levelo://app?vid=d4ee366f-491d-4484-8ef6-3ee33462286b","ios":"levelo://app?vid=d4ee366f-491d-4484-8ef6-3ee33462286b"},"vehicle_type_id":"4","last_reported":1727813361,"current_range_meters":17600,"station_id":"","pricing_plan_id":"cebpf4jnsgd1na2vs0mg"},{"bike_id":"39372465-9be3-414b-b238-694493358fe8","system_id":"levelo_inurba_marseille","lat":43.29532,"lon":5.38548,"is_reserved":false,"is_disabled":false,"rental_uris":{"android":"levelo://app?vid=39372465-9be3-414b-b238-694493358fe8","ios":"levelo://app?vid=39372465-9be3-414b-b238-694493358fe8"},"vehicle_type_id":"4","last_reported":1727813361,"current_range_meters":40000,"station_id":"ce4bgih2rcd13ifvqba0","pricing_plan_id":"cebpf4jnsgd1na2vs0mg"},{"bike_id":"2ae79f09-d280-47e8-864e-c5ffdd4f6c88","system_id":"levelo_inurba_marseille","lat":43.28574,"lon":5.39501,"is_reserved":false,"is_disabled":false,"rental_uris":{"android":"levelo://app?vid=2ae79f09-d280-47e8-864e-c5ffdd4f6c88","ios":"levelo://app?vid=2ae79f09-d280-47e8-864e-c5ffdd4f6c88"},"vehicle_type_id":"4","last_reported":1727813361,"current_range_meters":25600,"station_id":"ce4bh292rcd13ifvqdg0","pricing_plan_id":"cebpf4jnsgd1na2vs0mg"},{"bike_id":"32534fdb-a739-4c84-b21d-d73cea05f842","system_id":"levelo_inurba_marseille","lat":43.31077,"lon":5.38348,"is_reserved":false,"is_disabled":false,"rental_uris":{"android":"levelo://app?vid=32534fdb-a739-4c84-b21d-d73cea05f842","ios":"levelo://app?vid=32534fdb-a739-4c84-b21d-d73cea05f842"},"vehicle_type_id":"4","last_reported":1727813361,"current_range_meters":27600,"station_id":"ce4bgv92rcd13ifvqcr0","pricing_plan_id":"cebpf4jnsgd1na2vs0mg"},{"bike_id":"9801e784-62c5-416b-b2b0-807c3a8e1775","system_id":"levelo_inurba_marseille","lat":43.29284,"lon":5.37464,"is_reserved":false,"is_disabled":false,"rental_uris":{"android":"levelo://app?vid=9801e784-62c5-416b-b2b0-807c3a8e1775","ios":"levelo://app?vid=9801e784-62c5-416b-b2b0-807c3a8e1775"},"vehicle_type_id":"4","last_reported":1727813361,"current_range_meters":8800,"station_id":"ce4bgi12rcd13ifvqb70","pricing_plan_id":"cebpf4jnsgd1na2vs0mg"},{"bike_id":"58783a7c-29dd-4764-802c-830838942a72","system_id":"levelo_inurba_marseille","lat":43.30141,"lon":5.38075,"is_reserved":false,"is_disabled":false,"rental_uris":{"android":"levelo://app?vid=58783a7c-29dd-4764-802c-830838942a72","ios":"levelo://app?vid=58783a7c-29dd-4764-802c-830838942a72"},"vehicle_type_id":"4","last_reported":1727813361,"current_range_meters":21600,"station_id":"ce4bgjp2rcd13ifvqbh0","pricing_plan_id":"cebpf4jnsgd1na2vs0mg"},{"bike_id":"e39cd6f1-548c-400d-9f96-bf8b0c294a2d","system_id":"levelo_inurba_marseille","lat":43.24084,"lon":5.37751,"is_reserved":false,"is_disabled":false,"rental_uris":{"android":"levelo://app?vid=e39cd6f1-548c-400d-9f96-bf8b0c294a2d","ios":"levelo://app?vid=e39cd6f1-548c-400d-9f96-bf8b0c294a2d"},"vehicle_type_id":"4","last_reported":1727813361,"current_range_meters":10800,"station_id":"ce4bhnp2rcd13ifvqgvg","pricing_plan_id":"cebpf4jnsgd1na2vs0mg"},{"bike_id":"198cda29-3d32-4361-873c-d71efcff9284","system_id":"levelo_inurba_marseille","lat":43.31488,"lon":5.37305,"is_reserved":false,"is_disabled":false,"rental_uris":{"android":"levelo://app?vid=198cda29-3d32-4361-873c-d71efcff9284","ios":"levelo://app?vid=198cda29-3d32-4361-873c-d71efcff9284"},"vehicle_type_id":"4","last_reported":1727813361,"current_range_meters":38800,"station_id":"ce4bgt12rcd13ifvqcd0","pricing_plan_id":"cebpf4jnsgd1na2vs0mg"},{"bike_id":"f09c731c-5c02-47d4-ad6f-4b608712d763","system_id":"levelo_inurba_marseille","lat":43.27175,"lon":5.40999,"is_reserved":false,"is_disabled":false,"rental_uris":{"android":"levelo://app?vid=f09c731c-5c02-47d4-ad6f-4b608712d763","ios":"levelo://app?vid=f09c731c-5c02-47d4-ad6f-4b608712d763"},"vehicle_type_id":"4","last_reported":1727813361,"current_range_meters":30000,"station_id":"ce4bhl12rcd13ifvqgf0","pricing_plan_id":"cebpf4jnsgd1na2vs0mg"},{"bike_id":"276b07fa-11c6-4a63-818a-49ca8e97f509","system_id":"levelo_inurba_marseille","lat":43.2799,"lon":5.40012,"is_reserved":false,"is_disabled":false,"rental_uris":{"android":"levelo://app?vid=276b07fa-11c6-4a63-818a-49ca8e97f509","ios":"levelo://app?vid=276b07fa-11c6-4a63-818a-49ca8e97f509"},"vehicle_type_id":"4","last_reported":1727813361,"current_range_meters":24000,"station_id":"ce4bho92rcd13ifvqh4g","pricing_plan_id":"cebpf4jnsgd1na2vs0mg"},{"bike_id":"134a88fb-c4a2-4650-a0e7-749ffca99de4","system_id":"levelo_inurba_marseille","lat":43.27907,"lon":5.39604,"is_reserved":false,"is_disabled":false,"rental_uris":{"android":"levelo://app?vid=134a88fb-c4a2-4650-a0e7-749ffca99de4","ios":"levelo://app?vid=134a88fb-c4a2-4650-a0e7-749ffca99de4"},"vehicle_type_id":"4","last_reported":1727813361,"current_range_meters":38400,"station_id":"ce4bhf92rcd13ifvqf40","pricing_plan_id":"cebpf4jnsgd1na2vs0mg"},{"bike_id":"f8f518e3-bd48-40f5-801a-4ead88758ee2","system_id":"levelo_inurba_marseille","lat":43.3211,"lon":5.36783,"is_reserved":false,"is_disabled":false,"rental_uris":{"android":"levelo://app?vid=f8f518e3-bd48-40f5-801a-4ead88758ee2","ios":"levelo://app?vid=f8f518e3-bd48-40f5-801a-4ead88758ee2"},"vehicle_type_id":"4","last_reported":1727813361,"current_range_meters":13600,"station_id":"ce4bhrh2rcd13ifvqhug","pricing_plan_id":"cebpf4jnsgd1na2vs0mg"},{"bike_id":"793359bb-ef5d-45f3-bc54-790fd5cfe714","system_id":"levelo_inurba_marseille","lat":43.29429,"lon":5.39766,"is_reserved":false,"is_disabled":false,"rental_uris":{"android":"levelo://app?vid=793359bb-ef5d-45f3-bc54-790fd5cfe714","ios":"levelo://app?vid=793359bb-ef5d-45f3-bc54-790fd5cfe714"},"vehicle_type_id":"4","last_reported":1727813361,"current_range_meters":36000,"station_id":"ce4bh3h2rcd13ifvqdo0","pricing_plan_id":"cebpf4jnsgd1na2vs0mg"},{"bike_id":"ea93fcf4-b5e9-40c1-b370-a567f9b54856","system_id":"levelo_inurba_marseille","lat":43.28958,"lon":5.39708,"is_reserved":false,"is_disabled":false,"rental_uris":{"android":"levelo://app?vid=ea93fcf4-b5e9-40c1-b370-a567f9b54856","ios":"levelo://app?vid=ea93fcf4-b5e9-40c1-b370-a567f9b54856"},"vehicle_type_id":"4","last_reported":1727813361,"current_range_meters":32000,"station_id":"","pricing_plan_id":"cebpf4jnsgd1na2vs0mg"},{"bike_id":"eb2f3e81-5bc0-40a6-b7d0-df45f91bb71c","system_id":"levelo_inurba_marseille","lat":43.27989,"lon":5.40015,"is_reserved":false,"is_disabled":false,"rental_uris":{"android":"levelo://app?vid=eb2f3e81-5bc0-40a6-b7d0-df45f91bb71c","ios":"levelo://app?vid=eb2f3e81-5bc0-40a6-b7d0-df45f91bb71c"},"vehicle_type_id":"4","last_reported":1727813361,"current_range_meters":19200,"station_id":"ce4bho92rcd13ifvqh4g","pricing_plan_id":"cebpf4jnsgd1na2vs0mg"},{"bike_id":"18f0ebb9-80ba-4131-b0ed-701fab87af48","system_id":"levelo_inurba_marseille","lat":43.31164,"lon":5.38718,"is_reserved":false,"is_disabled":false,"rental_uris":{"android":"levelo://app?vid=18f0ebb9-80ba-4131-b0ed-701fab87af48","ios":"levelo://app?vid=18f0ebb9-80ba-4131-b0ed-701fab87af48"},"vehicle_type_id":"4","last_reported":1727813361,"current_range_meters":39200,"station_id":"ce4bgv12rcd13ifvqcp0","pricing_plan_id":"cebpf4jnsgd1na2vs0mg"},{"bike_id":"ff0c3ffe-a45a-4d7c-a518-9099eb9d2e67","system_id":"levelo_inurba_marseille","lat":43.29251,"lon":5.40918,"is_reserved":false,"is_disabled":false,"rental_uris":{"android":"levelo://app?vid=ff0c3ffe-a45a-4d7c-a518-9099eb9d2e67","ios":"levelo://app?vid=ff0c3ffe-a45a-4d7c-a518-9099eb9d2e67"},"vehicle_type_id":"4","last_reported":1727813361,"current_range_meters":8000,"station_id":"ce4bh192rcd13ifvqdc0","pricing_plan_id":"cebpf4jnsgd1na2vs0mg"},{"bike_id":"3a65e114-e5c7-42ab-9634-9c541d8565a2","system_id":"levelo_inurba_marseille","lat":43.30095,"lon":5.39082,"is_reserved":false,"is_disabled":false,"rental_uris":{"android":"levelo://app?vid=3a65e114-e5c7-42ab-9634-9c541d8565a2","ios":"levelo://app?vid=3a65e114-e5c7-42ab-9634-9c541d8565a2"},"vehicle_type_id":"4","last_reported":1727813361,"current_range_meters":38800,"station_id":"ce4bh192rcd13ifvqdb0","pricing_plan_id":"cebpf4jnsgd1na2vs0mg"},{"bike_id":"3b5c2886-33b2-4ac7-9c95-cf6c7612a5b4","system_id":"levelo_inurba_marseille","lat":43.2985,"lon":5.3628,"is_reserved":false,"is_disabled":false,"rental_uris":{"android":"levelo://app?vid=3b5c2886-33b2-4ac7-9c95-cf6c7612a5b4","ios":"levelo://app?vid=3b5c2886-33b2-4ac7-9c95-cf6c7612a5b4"},"vehicle_type_id":"4","last_reported":1727813361,"current_range_meters":12800,"station_id":"ce4bgpp2rcd13ifvqc3g","pricing_plan_id":"cebpf4jnsgd1na2vs0mg"},{"bike_id":"3cc52183-e2dd-4f73-afa6-cd90796f3abb","system_id":"levelo_inurba_marseille","lat":43.28978,"lon":5.38693,"is_reserved":false,"is_disabled":false,"rental_uris":{"android":"levelo://app?vid=3cc52183-e2dd-4f73-afa6-cd90796f3abb","ios":"levelo://app?vid=3cc52183-e2dd-4f73-afa6-cd90796f3abb"},"vehicle_type_id":"4","last_reported":1727813361,"current_range_meters":15200,"station_id":"ce4bh4p2rcd13ifvqe0g","pricing_plan_id":"cebpf4jnsgd1na2vs0mg"},{"bike_id":"f0cde73e-7a23-4658-949c-057962d03ded","system_id":"levelo_inurba_marseille","lat":43.30545,"lon":5.3843,"is_reserved":false,"is_disabled":false,"rental_uris":{"android":"levelo://app?vid=f0cde73e-7a23-4658-949c-057962d03ded","ios":"levelo://app?vid=f0cde73e-7a23-4658-949c-057962d03ded"},"vehicle_type_id":"4","last_reported":1727813361,"current_range_meters":19200,"station_id":"ce4bgg92rcd13ifvqb30","pricing_plan_id":"cebpf4jnsgd1na2vs0mg"},{"bike_id":"dc03e946-be64-435d-a6e2-304d0c9f3ef5","system_id":"levelo_inurba_marseille","lat":43.31527,"lon":5.38036,"is_reserved":false,"is_disabled":false,"rental_uris":{"android":"levelo://app?vid=dc03e946-be64-435d-a6e2-304d0c9f3ef5","ios":"levelo://app?vid=dc03e946-be64-435d-a6e2-304d0c9f3ef5"},"vehicle_type_id":"4","last_reported":1727813361,"current_range_meters":39200,"station_id":"ce4bhsp2rcd13ifvqi50","pricing_plan_id":"cebpf4jnsgd1na2vs0mg"},{"bike_id":"17e5d5e0-335e-48e1-95ad-43afe7d21f6d","system_id":"levelo_inurba_marseille","lat":43.28939,"lon":5.36384,"is_reserved":false,"is_disabled":false,"rental_uris":{"android":"levelo://app?vid=17e5d5e0-335e-48e1-95ad-43afe7d21f6d","ios":"levelo://app?vid=17e5d5e0-335e-48e1-95ad-43afe7d21f6d"},"vehicle_type_id":"4","last_reported":1727813361,"current_range_meters":9200,"station_id":"ce4bhc92rcd13ifvqetg","pricing_plan_id":"cebpf4jnsgd1na2vs0mg"},{"bike_id":"d995d233-d2fe-4db9-b69b-baa1337469bf","system_id":"levelo_inurba_marseille","lat":43.26747,"lon":5.40249,"is_reserved":false,"is_disabled":false,"rental_uris":{"android":"levelo://app?vid=d995d233-d2fe-4db9-b69b-baa1337469bf","ios":"levelo://app?vid=d995d233-d2fe-4db9-b69b-baa1337469bf"},"vehicle_type_id":"4","last_reported":1727813361,"current_range_meters":12000,"station_id":"ce4bhm92rcd13ifvqglg","pricing_plan_id":"cebpf4jnsgd1na2vs0mg"},{"bike_id":"3ddf769c-c1f4-4c07-a643-d89d6207fa69","system_id":"levelo_inurba_marseille","lat":43.26691,"lon":5.38277,"is_reserved":false,"is_disabled":false,"rental_uris":{"android":"levelo://app?vid=3ddf769c-c1f4-4c07-a643-d89d6207fa69","ios":"levelo://app?vid=3ddf769c-c1f4-4c07-a643-d89d6207fa69"},"vehicle_type_id":"4","last_reported":1727813361,"current_range_meters":36800,"station_id":"ce4bhg92rcd13ifvqf90","pricing_plan_id":"cebpf4jnsgd1na2vs0mg"},{"bike_id":"6d2fb6aa-e8da-4e78-8b45-68a7fcf594ed","system_id":"levelo_inurba_marseille","lat":43.279,"lon":5.38013,"is_reserved":false,"is_disabled":false,"rental_uris":{"android":"levelo://app?vid=6d2fb6aa-e8da-4e78-8b45-68a7fcf594ed","ios":"levelo://app?vid=6d2fb6aa-e8da-4e78-8b45-68a7fcf594ed"},"vehicle_type_id":"4","last_reported":1727813361,"current_range_meters":20000,"station_id":"ce4bhf92rcd13ifvqf50","pricing_plan_id":"cebpf4jnsgd1na2vs0mg"},{"bike_id":"35409b53-6b0d-48ea-b763-6d90e7796d5f","system_id":"levelo_inurba_marseille","lat":43.29886,"lon":5.3892,"is_reserved":false,"is_disabled":false,"rental_uris":{"android":"levelo://app?vid=35409b53-6b0d-48ea-b763-6d90e7796d5f","ios":"levelo://app?vid=35409b53-6b0d-48ea-b763-6d90e7796d5f"},"vehicle_type_id":"4","last_reported":1727813361,"current_range_meters":39200,"station_id":"ce4bh392rcd13ifvqdl0","pricing_plan_id":"cebpf4jnsgd1na2vs0mg"},{"bike_id":"1e92b09a-83bd-434d-bc30-b1805b0d50c8","system_id":"levelo_inurba_marseille","lat":43.28001,"lon":5.4,"is_reserved":false,"is_disabled":false,"rental_uris":{"android":"levelo://app?vid=1e92b09a-83bd-434d-bc30-b1805b0d50c8","ios":"levelo://app?vid=1e92b09a-83bd-434d-bc30-b1805b0d50c8"},"vehicle_type_id":"4","last_reported":1727813361,"current_range_meters":12400,"station_id":"ce4bho92rcd13ifvqh4g","pricing_plan_id":"cebpf4jnsgd1na2vs0mg"},{"bike_id":"f0daa2cd-46cc-4b5a-b08f-c36c76d727af","system_id":"levelo_inurba_marseille","lat":43.301361,"lon":5.387867,"is_reserved":false,"is_disabled":false,"rental_uris":{"android":"levelo://app?vid=f0daa2cd-46cc-4b5a-b08f-c36c76d727af","ios":"levelo://app?vid=f0daa2cd-46cc-4b5a-b08f-c36c76d727af"},"vehicle_type_id":"4","last_reported":1727813361,"current_range_meters":18000,"station_id":"ce4bhr12rcd13ifvqhqg","pricing_plan_id":"cebpf4jnsgd1na2vs0mg"},{"bike_id":"b652f429-09b8-4697-9c1b-3b9adc3c55d8","system_id":"levelo_inurba_marseille","lat":43.26871,"lon":5.39135,"is_reserved":false,"is_disabled":false,"rental_uris":{"android":"levelo://app?vid=b652f429-09b8-4697-9c1b-3b9adc3c55d8","ios":"levelo://app?vid=b652f429-09b8-4697-9c1b-3b9adc3c55d8"},"vehicle_type_id":"4","last_reported":1727813361,"current_range_meters":6400,"station_id":"","pricing_plan_id":"cebpf4jnsgd1na2vs0mg"},{"bike_id":"61a947e1-a421-40aa-a820-d6e19a6f0fe4","system_id":"levelo_inurba_marseille","lat":43.31716,"lon":5.42408,"is_reserved":false,"is_disabled":false,"rental_uris":{"android":"levelo://app?vid=61a947e1-a421-40aa-a820-d6e19a6f0fe4","ios":"levelo://app?vid=61a947e1-a421-40aa-a820-d6e19a6f0fe4"},"vehicle_type_id":"4","last_reported":1727813361,"current_range_meters":25600,"station_id":"ce4bhp92rcd13ifvqhbg","pricing_plan_id":"cebpf4jnsgd1na2vs0mg"},{"bike_id":"37623181-9101-4c73-bb6a-5aa8fec97674","system_id":"levelo_inurba_marseille","lat":43.28417,"lon":5.37516,"is_reserved":false,"is_disabled":false,"rental_uris":{"android":"levelo://app?vid=37623181-9101-4c73-bb6a-5aa8fec97674","ios":"levelo://app?vid=37623181-9101-4c73-bb6a-5aa8fec97674"},"vehicle_type_id":"4","last_reported":1727813361,"current_range_meters":9200,"station_id":"ce4bhah2rcd13ifvqei0","pricing_plan_id":"cebpf4jnsgd1na2vs0mg"},{"bike_id":"1cbb5b9f-27fd-4647-944e-96013dabaee7","system_id":"levelo_inurba_marseille","lat":43.31756,"lon":5.39015,"is_reserved":false,"is_disabled":false,"rental_uris":{"android":"levelo://app?vid=1cbb5b9f-27fd-4647-944e-96013dabaee7","ios":"levelo://app?vid=1cbb5b9f-27fd-4647-944e-96013dabaee7"},"vehicle_type_id":"4","last_reported":1727813361,"current_range_meters":38800,"station_id":"ce4bhqp2rcd13ifvqhng","pricing_plan_id":"cebpf4jnsgd1na2vs0mg"},{"bike_id":"cc334f47-266c-4194-bd67-059ec0658e9f","system_id":"levelo_inurba_marseille","lat":43.31274,"lon":5.40177,"is_reserved":false,"is_disabled":false,"rental_uris":{"android":"levelo://app?vid=cc334f47-266c-4194-bd67-059ec0658e9f","ios":"levelo://app?vid=cc334f47-266c-4194-bd67-059ec0658e9f"},"vehicle_type_id":"4","last_reported":1727813361,"current_range_meters":22800,"station_id":"ce4bh092rcd13ifvqd30","pricing_plan_id":"cebpf4jnsgd1na2vs0mg"},{"bike_id":"147a7bfe-6f13-4033-8d95-1c8b0228e914","system_id":"levelo_inurba_marseille","lat":43.28422,"lon":5.3498,"is_reserved":false,"is_disabled":false,"rental_uris":{"android":"levelo://app?vid=147a7bfe-6f13-4033-8d95-1c8b0228e914","ios":"levelo://app?vid=147a7bfe-6f13-4033-8d95-1c8b0228e914"},"vehicle_type_id":"4","last_reported":1727813361,"current_range_meters":38800,"station_id":"ce4bhbh2rcd13ifvqepg","pricing_plan_id":"cebpf4jnsgd1na2vs0mg"},{"bike_id":"7b31022c-19bf-4f44-a3a7-b8eacfd82a5b","system_id":"levelo_inurba_marseille","lat":43.29362,"lon":5.3785,"is_reserved":false,"is_disabled":false,"rental_uris":{"android":"levelo://app?vid=7b31022c-19bf-4f44-a3a7-b8eacfd82a5b","ios":"levelo://app?vid=7b31022c-19bf-4f44-a3a7-b8eacfd82a5b"},"vehicle_type_id":"4","last_reported":1727813361,"current_range_meters":4800,"station_id":"ce4bgjh2rcd13ifvqbf0","pricing_plan_id":"cebpf4jnsgd1na2vs0mg"},{"bike_id":"43ec8304-b11c-44d9-9f47-bc865890f14a","system_id":"levelo_inurba_marseille","lat":43.25088,"lon":5.3951,"is_reserved":false,"is_disabled":false,"rental_uris":{"android":"levelo://app?vid=43ec8304-b11c-44d9-9f47-bc865890f14a","ios":"levelo://app?vid=43ec8304-b11c-44d9-9f47-bc865890f14a"},"vehicle_type_id":"4","last_reported":1727813361,"current_range_meters":16000,"station_id":"ce4bhm12rcd13ifvqgkg","pricing_plan_id":"cebpf4jnsgd1na2vs0mg"},{"bike_id":"e5f61d33-8415-4a03-ae60-f12eae9e325c","system_id":"levelo_inurba_marseille","lat":43.28041,"lon":5.36954,"is_reserved":false,"is_disabled":false,"rental_uris":{"android":"levelo://app?vid=e5f61d33-8415-4a03-ae60-f12eae9e325c","ios":"levelo://app?vid=e5f61d33-8415-4a03-ae60-f12eae9e325c"},"vehicle_type_id":"4","last_reported":1727813361,"current_range_meters":3600,"station_id":"ce4bha12rcd13ifvqef0","pricing_plan_id":"cebpf4jnsgd1na2vs0mg"},{"bike_id":"be9490e7-0ad5-4720-9f4a-d022e6334c72","system_id":"levelo_inurba_marseille","lat":43.28576,"lon":5.39498,"is_reserved":false,"is_disabled":false,"rental_uris":{"android":"levelo://app?vid=be9490e7-0ad5-4720-9f4a-d022e6334c72","ios":"levelo://app?vid=be9490e7-0ad5-4720-9f4a-d022e6334c72"},"vehicle_type_id":"4","last_reported":1727813361,"current_range_meters":38800,"station_id":"ce4bh292rcd13ifvqdg0","pricing_plan_id":"cebpf4jnsgd1na2vs0mg"},{"bike_id":"e8bd8684-2fe6-4abf-bcd2-426427b0a842","system_id":"levelo_inurba_marseille","lat":43.31993,"lon":5.40613,"is_reserved":false,"is_disabled":false,"rental_uris":{"android":"levelo://app?vid=e8bd8684-2fe6-4abf-bcd2-426427b0a842","ios":"levelo://app?vid=e8bd8684-2fe6-4abf-bcd2-426427b0a842"},"vehicle_type_id":"4","last_reported":1727813361,"current_range_meters":36000,"station_id":"ce4bhqp2rcd13ifvqhng","pricing_plan_id":"cebpf4jnsgd1na2vs0mg"},{"bike_id":"152be7fe-903a-4137-9bfe-6e779d55c33f","system_id":"levelo_inurba_marseille","lat":43.26805,"lon":5.40271,"is_reserved":false,"is_disabled":false,"rental_uris":{"android":"levelo://app?vid=152be7fe-903a-4137-9bfe-6e779d55c33f","ios":"levelo://app?vid=152be7fe-903a-4137-9bfe-6e779d55c33f"},"vehicle_type_id":"4","last_reported":1727813361,"current_range_meters":10000,"station_id":"ce501612rcd8frsf0b60","pricing_plan_id":"cebpf4jnsgd1na2vs0mg"},{"bike_id":"b233327a-5673-409e-9e3b-671e41f29d0f","system_id":"levelo_inurba_marseille","lat":43.29598,"lon":5.381,"is_reserved":false,"is_disabled":false,"rental_uris":{"android":"levelo://app?vid=b233327a-5673-409e-9e3b-671e41f29d0f","ios":"levelo://app?vid=b233327a-5673-409e-9e3b-671e41f29d0f"},"vehicle_type_id":"4","last_reported":1727813361,"current_range_meters":10000,"station_id":"ce4bgl12rcd13ifvqbo0","pricing_plan_id":"cebpf4jnsgd1na2vs0mg"},{"bike_id":"77534f43-c10f-43e0-80cb-a6a8fbfdfadf","system_id":"levelo_inurba_marseille","lat":43.28433,"lon":5.37503,"is_reserved":false,"is_disabled":false,"rental_uris":{"android":"levelo://app?vid=77534f43-c10f-43e0-80cb-a6a8fbfdfadf","ios":"levelo://app?vid=77534f43-c10f-43e0-80cb-a6a8fbfdfadf"},"vehicle_type_id":"4","last_reported":1727813361,"current_range_meters":35200,"station_id":"ce4bh412rcd13ifvqds0","pricing_plan_id":"cebpf4jnsgd1na2vs0mg"},{"bike_id":"9f94d579-93b9-484b-a02a-f6df31fb2a85","system_id":"levelo_inurba_marseille","lat":43.29565,"lon":5.37532,"is_reserved":false,"is_disabled":false,"rental_uris":{"android":"levelo://app?vid=9f94d579-93b9-484b-a02a-f6df31fb2a85","ios":"levelo://app?vid=9f94d579-93b9-484b-a02a-f6df31fb2a85"},"vehicle_type_id":"4","last_reported":1727813361,"current_range_meters":7200,"station_id":"ce4bgh92rcd13ifvqb50","pricing_plan_id":"cebpf4jnsgd1na2vs0mg"},{"bike_id":"e602d960-7762-4556-87f3-7ca7eb9e1588","system_id":"levelo_inurba_marseille","lat":43.31895,"lon":5.40733,"is_reserved":false,"is_disabled":false,"rental_uris":{"android":"levelo://app?vid=e602d960-7762-4556-87f3-7ca7eb9e1588","ios":"levelo://app?vid=e602d960-7762-4556-87f3-7ca7eb9e1588"},"vehicle_type_id":"4","last_reported":1727813361,"current_range_meters":14000,"station_id":"ce4bhq12rcd13ifvqhig","pricing_plan_id":"cebpf4jnsgd1na2vs0mg"},{"bike_id":"d996e2bc-d8ee-403c-a5c7-3d92d7662249","system_id":"levelo_inurba_marseille","lat":43.31354,"lon":5.36829,"is_reserved":false,"is_disabled":false,"rental_uris":{"android":"levelo://app?vid=d996e2bc-d8ee-403c-a5c7-3d92d7662249","ios":"levelo://app?vid=d996e2bc-d8ee-403c-a5c7-3d92d7662249"},"vehicle_type_id":"4","last_reported":1727813361,"current_range_meters":18000,"station_id":"","pricing_plan_id":"cebpf4jnsgd1na2vs0mg"},{"bike_id":"1a596b0d-fd86-4aa5-9bdb-65af842e1bc3","system_id":"levelo_inurba_marseille","lat":43.28931,"lon":5.3664,"is_reserved":false,"is_disabled":false,"rental_uris":{"android":"levelo://app?vid=1a596b0d-fd86-4aa5-9bdb-65af842e1bc3","ios":"levelo://app?vid=1a596b0d-fd86-4aa5-9bdb-65af842e1bc3"},"vehicle_type_id":"4","last_reported":1727813361,"current_range_meters":24000,"station_id":"ce4bhap2rcd13ifvqek0","pricing_plan_id":"cebpf4jnsgd1na2vs0mg"},{"bike_id":"c65dd9e4-f26f-413e-b094-7809b55e35e2","system_id":"levelo_inurba_marseille","lat":43.26193,"lon":5.40428,"is_reserved":false,"is_disabled":false,"rental_uris":{"android":"levelo://app?vid=c65dd9e4-f26f-413e-b094-7809b55e35e2","ios":"levelo://app?vid=c65dd9e4-f26f-413e-b094-7809b55e35e2"},"vehicle_type_id":"4","last_reported":1727813361,"current_range_meters":14800,"station_id":"","pricing_plan_id":"cebpf4jnsgd1na2vs0mg"},{"bike_id":"89b9dfd5-0dc9-4197-bb8d-be7f07ee51ff","system_id":"levelo_inurba_marseille","lat":43.31527,"lon":5.38041,"is_reserved":false,"is_disabled":false,"rental_uris":{"android":"levelo://app?vid=89b9dfd5-0dc9-4197-bb8d-be7f07ee51ff","ios":"levelo://app?vid=89b9dfd5-0dc9-4197-bb8d-be7f07ee51ff"},"vehicle_type_id":"4","last_reported":1727813361,"current_range_meters":29600,"station_id":"ce4bhsp2rcd13ifvqi50","pricing_plan_id":"cebpf4jnsgd1na2vs0mg"},{"bike_id":"2e6db03b-89d0-4b7f-9255-d4415cec9b74","system_id":"levelo_inurba_marseille","lat":43.25089,"lon":5.39518,"is_reserved":false,"is_disabled":false,"rental_uris":{"android":"levelo://app?vid=2e6db03b-89d0-4b7f-9255-d4415cec9b74","ios":"levelo://app?vid=2e6db03b-89d0-4b7f-9255-d4415cec9b74"},"vehicle_type_id":"4","last_reported":1727813361,"current_range_meters":3600,"station_id":"ce4bhm12rcd13ifvqgkg","pricing_plan_id":"cebpf4jnsgd1na2vs0mg"},{"bike_id":"3b7bd6c0-ffdd-4500-a803-1a72ff4aedb0","system_id":"levelo_inurba_marseille","lat":43.27177,"lon":5.41,"is_reserved":false,"is_disabled":false,"rental_uris":{"android":"levelo://app?vid=3b7bd6c0-ffdd-4500-a803-1a72ff4aedb0","ios":"levelo://app?vid=3b7bd6c0-ffdd-4500-a803-1a72ff4aedb0"},"vehicle_type_id":"4","last_reported":1727813361,"current_range_meters":4800,"station_id":"ce4bhl12rcd13ifvqgf0","pricing_plan_id":"cebpf4jnsgd1na2vs0mg"},{"bike_id":"6ff016f9-d31d-4e50-9002-5dee01876d27","system_id":"levelo_inurba_marseille","lat":43.31331,"lon":5.39692,"is_reserved":false,"is_disabled":false,"rental_uris":{"android":"levelo://app?vid=6ff016f9-d31d-4e50-9002-5dee01876d27","ios":"levelo://app?vid=6ff016f9-d31d-4e50-9002-5dee01876d27"},"vehicle_type_id":"4","last_reported":1727813361,"current_range_meters":16000,"station_id":"ce4bgvp2rcd13ifvqcu0","pricing_plan_id":"cebpf4jnsgd1na2vs0mg"},{"bike_id":"972f0298-3b6a-4a5a-9a88-2b3812e933f5","system_id":"levelo_inurba_marseille","lat":43.27922,"lon":5.39589,"is_reserved":false,"is_disabled":false,"rental_uris":{"android":"levelo://app?vid=972f0298-3b6a-4a5a-9a88-2b3812e933f5","ios":"levelo://app?vid=972f0298-3b6a-4a5a-9a88-2b3812e933f5"},"vehicle_type_id":"4","last_reported":1727813361,"current_range_meters":7200,"station_id":"ce4bhf92rcd13ifvqf40","pricing_plan_id":"cebpf4jnsgd1na2vs0mg"},{"bike_id":"9d98c167-ce53-4a4d-871d-1c099d57722c","system_id":"levelo_inurba_marseille","lat":43.30591,"lon":5.37221,"is_reserved":false,"is_disabled":false,"rental_uris":{"android":"levelo://app?vid=9d98c167-ce53-4a4d-871d-1c099d57722c","ios":"levelo://app?vid=9d98c167-ce53-4a4d-871d-1c099d57722c"},"vehicle_type_id":"4","last_reported":1727813361,"current_range_meters":12000,"station_id":"ce4bgqh2rcd13ifvqc4g","pricing_plan_id":"cebpf4jnsgd1na2vs0mg"},{"bike_id":"2909ce6b-0ead-469f-8eef-31f67245e4ba","system_id":"levelo_inurba_marseille","lat":43.2919,"lon":5.39316,"is_reserved":false,"is_disabled":false,"rental_uris":{"android":"levelo://app?vid=2909ce6b-0ead-469f-8eef-31f67245e4ba","ios":"levelo://app?vid=2909ce6b-0ead-469f-8eef-31f67245e4ba"},"vehicle_type_id":"4","last_reported":1727813361,"current_range_meters":38400,"station_id":"ce4bh192rcd13ifvqdd0","pricing_plan_id":"cebpf4jnsgd1na2vs0mg"},{"bike_id":"82c2475c-c35b-4b23-a470-b125ed8a5409","system_id":"levelo_inurba_marseille","lat":43.30357,"lon":5.41883,"is_reserved":false,"is_disabled":false,"rental_uris":{"android":"levelo://app?vid=82c2475c-c35b-4b23-a470-b125ed8a5409","ios":"levelo://app?vid=82c2475c-c35b-4b23-a470-b125ed8a5409"},"vehicle_type_id":"4","last_reported":1727813361,"current_range_meters":9200,"station_id":"ce4bhop2rcd13ifvqh7g","pricing_plan_id":"cebpf4jnsgd1na2vs0mg"},{"bike_id":"f9513343-bb02-463c-8632-95c3b71adbe3","system_id":"levelo_inurba_marseille","lat":43.29715,"lon":5.36617,"is_reserved":false,"is_disabled":false,"rental_uris":{"android":"levelo://app?vid=f9513343-bb02-463c-8632-95c3b71adbe3","ios":"levelo://app?vid=f9513343-bb02-463c-8632-95c3b71adbe3"},"vehicle_type_id":"4","last_reported":1727813361,"current_range_meters":38800,"station_id":"ce4bgn12rcd13ifvqbt0","pricing_plan_id":"cebpf4jnsgd1na2vs0mg"},{"bike_id":"2b889d16-9dfb-4234-b9cd-a1f18c4d7543","system_id":"levelo_inurba_marseille","lat":43.28037,"lon":5.36945,"is_reserved":false,"is_disabled":false,"rental_uris":{"android":"levelo://app?vid=2b889d16-9dfb-4234-b9cd-a1f18c4d7543","ios":"levelo://app?vid=2b889d16-9dfb-4234-b9cd-a1f18c4d7543"},"vehicle_type_id":"4","last_reported":1727813361,"current_range_meters":26000,"station_id":"ce4bha12rcd13ifvqef0","pricing_plan_id":"cebpf4jnsgd1na2vs0mg"},{"bike_id":"b407643d-0dae-49ac-b89c-8322071a6906","system_id":"levelo_inurba_marseille","lat":43.28848,"lon":5.39314,"is_reserved":false,"is_disabled":false,"rental_uris":{"android":"levelo://app?vid=b407643d-0dae-49ac-b89c-8322071a6906","ios":"levelo://app?vid=b407643d-0dae-49ac-b89c-8322071a6906"},"vehicle_type_id":"4","last_reported":1727813361,"current_range_meters":40000,"station_id":"ce4bh2p2rcd13ifvqdi0","pricing_plan_id":"cebpf4jnsgd1na2vs0mg"},{"bike_id":"75f7d3bd-f2a1-4d79-867f-cd81045ec393","system_id":"levelo_inurba_marseille","lat":43.30327,"lon":5.40443,"is_reserved":false,"is_disabled":false,"rental_uris":{"android":"levelo://app?vid=75f7d3bd-f2a1-4d79-867f-cd81045ec393","ios":"levelo://app?vid=75f7d3bd-f2a1-4d79-867f-cd81045ec393"},"vehicle_type_id":"4","last_reported":1727813361,"current_range_meters":27200,"station_id":"ce4bh012rcd13ifvqd10","pricing_plan_id":"cebpf4jnsgd1na2vs0mg"},{"bike_id":"1b0da400-df7f-46cf-a71b-f878e1e3bfe9","system_id":"levelo_inurba_marseille","lat":43.24074,"lon":5.37761,"is_reserved":false,"is_disabled":false,"rental_uris":{"android":"levelo://app?vid=1b0da400-df7f-46cf-a71b-f878e1e3bfe9","ios":"levelo://app?vid=1b0da400-df7f-46cf-a71b-f878e1e3bfe9"},"vehicle_type_id":"4","last_reported":1727813361,"current_range_meters":28800,"station_id":"ce4bhnp2rcd13ifvqgvg","pricing_plan_id":"cebpf4jnsgd1na2vs0mg"},{"bike_id":"6ee1c32f-2fd5-447d-a744-ecec795ff307","system_id":"levelo_inurba_marseille","lat":43.2886,"lon":5.39314,"is_reserved":false,"is_disabled":false,"rental_uris":{"android":"levelo://app?vid=6ee1c32f-2fd5-447d-a744-ecec795ff307","ios":"levelo://app?vid=6ee1c32f-2fd5-447d-a744-ecec795ff307"},"vehicle_type_id":"4","last_reported":1727813361,"current_range_meters":28000,"station_id":"ce4bh2p2rcd13ifvqdi0","pricing_plan_id":"cebpf4jnsgd1na2vs0mg"},{"bike_id":"aae274d4-174b-48df-8d7a-32f65846d636","system_id":"levelo_inurba_marseille","lat":43.2783,"lon":5.39212,"is_reserved":false,"is_disabled":false,"rental_uris":{"android":"levelo://app?vid=aae274d4-174b-48df-8d7a-32f65846d636","ios":"levelo://app?vid=aae274d4-174b-48df-8d7a-32f65846d636"},"vehicle_type_id":"4","last_reported":1727813361,"current_range_meters":31200,"station_id":"ce4bhjp2rcd13ifvqga0","pricing_plan_id":"cebpf4jnsgd1na2vs0mg"},{"bike_id":"d22ae321-847f-4577-8563-9e21e8a7db72","system_id":"levelo_inurba_marseille","lat":43.30779,"lon":5.37654,"is_reserved":false,"is_disabled":false,"rental_uris":{"android":"levelo://app?vid=d22ae321-847f-4577-8563-9e21e8a7db72","ios":"levelo://app?vid=d22ae321-847f-4577-8563-9e21e8a7db72"},"vehicle_type_id":"4","last_reported":1727813361,"current_range_meters":27200,"station_id":"ce4bgv92rcd13ifvqcq0","pricing_plan_id":"cebpf4jnsgd1na2vs0mg"},{"bike_id":"2ad48f66-d496-4774-9d3a-071b3547565a","system_id":"levelo_inurba_marseille","lat":43.30334,"lon":5.40438,"is_reserved":false,"is_disabled":false,"rental_uris":{"android":"levelo://app?vid=2ad48f66-d496-4774-9d3a-071b3547565a","ios":"levelo://app?vid=2ad48f66-d496-4774-9d3a-071b3547565a"},"vehicle_type_id":"4","last_reported":1727813361,"current_range_meters":4000,"station_id":"ce4bh012rcd13ifvqd10","pricing_plan_id":"cebpf4jnsgd1na2vs0mg"},{"bike_id":"8a9a5a88-54ba-43dc-8df1-8efce13be32e","system_id":"levelo_inurba_marseille","lat":43.27908,"lon":5.39592,"is_reserved":false,"is_disabled":false,"rental_uris":{"android":"levelo://app?vid=8a9a5a88-54ba-43dc-8df1-8efce13be32e","ios":"levelo://app?vid=8a9a5a88-54ba-43dc-8df1-8efce13be32e"},"vehicle_type_id":"4","last_reported":1727813361,"current_range_meters":38800,"station_id":"ce4bhf92rcd13ifvqf40","pricing_plan_id":"cebpf4jnsgd1na2vs0mg"},{"bike_id":"c070c241-857d-41ab-837e-b7196074f68c","system_id":"levelo_inurba_marseille","lat":43.29257,"lon":5.40916,"is_reserved":false,"is_disabled":false,"rental_uris":{"android":"levelo://app?vid=c070c241-857d-41ab-837e-b7196074f68c","ios":"levelo://app?vid=c070c241-857d-41ab-837e-b7196074f68c"},"vehicle_type_id":"4","last_reported":1727813361,"current_range_meters":38800,"station_id":"ce4bh192rcd13ifvqdc0","pricing_plan_id":"cebpf4jnsgd1na2vs0mg"},{"bike_id":"b5a5e306-2206-409c-8ae9-bf975a389454","system_id":"levelo_inurba_marseille","lat":43.24076,"lon":5.37742,"is_reserved":false,"is_disabled":false,"rental_uris":{"android":"levelo://app?vid=b5a5e306-2206-409c-8ae9-bf975a389454","ios":"levelo://app?vid=b5a5e306-2206-409c-8ae9-bf975a389454"},"vehicle_type_id":"4","last_reported":1727813361,"current_range_meters":23200,"station_id":"ce4bhnp2rcd13ifvqgvg","pricing_plan_id":"cebpf4jnsgd1na2vs0mg"},{"bike_id":"f8cabb24-b291-43a7-b863-b2f6c298db17","system_id":"levelo_inurba_marseille","lat":43.31103,"lon":5.42433,"is_reserved":false,"is_disabled":false,"rental_uris":{"android":"levelo://app?vid=f8cabb24-b291-43a7-b863-b2f6c298db17","ios":"levelo://app?vid=f8cabb24-b291-43a7-b863-b2f6c298db17"},"vehicle_type_id":"4","last_reported":1727813361,"current_range_meters":8800,"station_id":"ce4bh012rcd13ifvqcv0","pricing_plan_id":"cebpf4jnsgd1na2vs0mg"},{"bike_id":"8ceb96fe-a74c-49c6-8577-bc4076ef5c3c","system_id":"levelo_inurba_marseille","lat":43.32281,"lon":5.38275,"is_reserved":false,"is_disabled":false,"rental_uris":{"android":"levelo://app?vid=8ceb96fe-a74c-49c6-8577-bc4076ef5c3c","ios":"levelo://app?vid=8ceb96fe-a74c-49c6-8577-bc4076ef5c3c"},"vehicle_type_id":"4","last_reported":1727813361,"current_range_meters":8800,"station_id":"ce4bhr12rcd13ifvqhqg","pricing_plan_id":"cebpf4jnsgd1na2vs0mg"},{"bike_id":"f372cd08-c32f-4394-9800-23a546b49bec","system_id":"levelo_inurba_marseille","lat":43.29601,"lon":5.38101,"is_reserved":false,"is_disabled":false,"rental_uris":{"android":"levelo://app?vid=f372cd08-c32f-4394-9800-23a546b49bec","ios":"levelo://app?vid=f372cd08-c32f-4394-9800-23a546b49bec"},"vehicle_type_id":"4","last_reported":1727813361,"current_range_meters":38800,"station_id":"ce4bgl12rcd13ifvqbo0","pricing_plan_id":"cebpf4jnsgd1na2vs0mg"},{"bike_id":"b337bd20-f5ab-4d71-a842-ea60a4480d01","system_id":"levelo_inurba_marseille","lat":43.33752,"lon":5.37462,"is_reserved":false,"is_disabled":false,"rental_uris":{"android":"levelo://app?vid=b337bd20-f5ab-4d71-a842-ea60a4480d01","ios":"levelo://app?vid=b337bd20-f5ab-4d71-a842-ea60a4480d01"},"vehicle_type_id":"4","last_reported":1727813361,"current_range_meters":36400,"station_id":"","pricing_plan_id":"cebpf4jnsgd1na2vs0mg"},{"bike_id":"2d1e394b-c65c-48dd-8f6c-7fbd688f784e","system_id":"levelo_inurba_marseille","lat":43.31637,"lon":5.38793,"is_reserved":false,"is_disabled":false,"rental_uris":{"android":"levelo://app?vid=2d1e394b-c65c-48dd-8f6c-7fbd688f784e","ios":"levelo://app?vid=2d1e394b-c65c-48dd-8f6c-7fbd688f784e"},"vehicle_type_id":"4","last_reported":1727813361,"current_range_meters":11200,"station_id":"ce4bhqp2rcd13ifvqhng","pricing_plan_id":"cebpf4jnsgd1na2vs0mg"},{"bike_id":"a839f8c2-1f19-41c9-b661-130324e30c0f","system_id":"levelo_inurba_marseille","lat":43.322921,"lon":5.382813,"is_reserved":false,"is_disabled":false,"rental_uris":{"android":"levelo://app?vid=a839f8c2-1f19-41c9-b661-130324e30c0f","ios":"levelo://app?vid=a839f8c2-1f19-41c9-b661-130324e30c0f"},"vehicle_type_id":"4","last_reported":1727813361,"current_range_meters":39200,"station_id":"ce4bhr12rcd13ifvqhqg","pricing_plan_id":"cebpf4jnsgd1na2vs0mg"},{"bike_id":"feb23611-a7ff-4486-b45d-cf37e629d539","system_id":"levelo_inurba_marseille","lat":43.29947,"lon":5.36562,"is_reserved":false,"is_disabled":false,"rental_uris":{"android":"levelo://app?vid=feb23611-a7ff-4486-b45d-cf37e629d539","ios":"levelo://app?vid=feb23611-a7ff-4486-b45d-cf37e629d539"},"vehicle_type_id":"4","last_reported":1727813361,"current_range_meters":4400,"station_id":"ce4bgm92rcd13ifvqbr0","pricing_plan_id":"cebpf4jnsgd1na2vs0mg"},{"bike_id":"ae930aae-3a30-4a57-aa73-83ecdadcd743","system_id":"levelo_inurba_marseille","lat":43.28079,"lon":5.39655,"is_reserved":false,"is_disabled":false,"rental_uris":{"android":"levelo://app?vid=ae930aae-3a30-4a57-aa73-83ecdadcd743","ios":"levelo://app?vid=ae930aae-3a30-4a57-aa73-83ecdadcd743"},"vehicle_type_id":"4","last_reported":1727813361,"current_range_meters":2800,"station_id":"ce4bho12rcd13ifvqh2g","pricing_plan_id":"cebpf4jnsgd1na2vs0mg"},{"bike_id":"42b39daf-2a0c-403d-81df-ff40365bdd87","system_id":"levelo_inurba_marseille","lat":43.32654,"lon":5.41,"is_reserved":false,"is_disabled":false,"rental_uris":{"android":"levelo://app?vid=42b39daf-2a0c-403d-81df-ff40365bdd87","ios":"levelo://app?vid=42b39daf-2a0c-403d-81df-ff40365bdd87"},"vehicle_type_id":"4","last_reported":1727813361,"current_range_meters":36800,"station_id":"ce4bhpp2rcd13ifvqhgg","pricing_plan_id":"cebpf4jnsgd1na2vs0mg"},{"bike_id":"a5fb9c88-d048-4ed4-8dc9-44084ef32586","system_id":"levelo_inurba_marseille","lat":43.28477,"lon":5.38425,"is_reserved":false,"is_disabled":false,"rental_uris":{"android":"levelo://app?vid=a5fb9c88-d048-4ed4-8dc9-44084ef32586","ios":"levelo://app?vid=a5fb9c88-d048-4ed4-8dc9-44084ef32586"},"vehicle_type_id":"4","last_reported":1727813361,"current_range_meters":2800,"station_id":"ce4bh512rcd13ifvqe3g","pricing_plan_id":"cebpf4jnsgd1na2vs0mg"},{"bike_id":"b1018ad7-f643-4e5c-847a-0fdf0bc59381","system_id":"levelo_inurba_marseille","lat":43.28274,"lon":5.35078,"is_reserved":false,"is_disabled":false,"rental_uris":{"android":"levelo://app?vid=b1018ad7-f643-4e5c-847a-0fdf0bc59381","ios":"levelo://app?vid=b1018ad7-f643-4e5c-847a-0fdf0bc59381"},"vehicle_type_id":"4","last_reported":1727813361,"current_range_meters":6800,"station_id":"ce4bhbp2rcd13ifvqerg","pricing_plan_id":"cebpf4jnsgd1na2vs0mg"},{"bike_id":"f493192b-13c6-47a1-9573-739dd32e633f","system_id":"levelo_inurba_marseille","lat":43.337444,"lon":5.374475,"is_reserved":false,"is_disabled":false,"rental_uris":{"android":"levelo://app?vid=f493192b-13c6-47a1-9573-739dd32e633f","ios":"levelo://app?vid=f493192b-13c6-47a1-9573-739dd32e633f"},"vehicle_type_id":"4","last_reported":1727813361,"current_range_meters":16000,"station_id":"","pricing_plan_id":"cebpf4jnsgd1na2vs0mg"},{"bike_id":"a060b739-1030-48c8-b2f6-aaf95f5b8389","system_id":"levelo_inurba_marseille","lat":43.2845,"lon":5.39199,"is_reserved":false,"is_disabled":false,"rental_uris":{"android":"levelo://app?vid=a060b739-1030-48c8-b2f6-aaf95f5b8389","ios":"levelo://app?vid=a060b739-1030-48c8-b2f6-aaf95f5b8389"},"vehicle_type_id":"4","last_reported":1727813361,"current_range_meters":32400,"station_id":"ce4bhoh2rcd13ifvqh5g","pricing_plan_id":"cebpf4jnsgd1na2vs0mg"},{"bike_id":"21adeae8-9d2b-420c-99a6-77364ba6663b","system_id":"levelo_inurba_marseille","lat":43.31528,"lon":5.38038,"is_reserved":false,"is_disabled":false,"rental_uris":{"android":"levelo://app?vid=21adeae8-9d2b-420c-99a6-77364ba6663b","ios":"levelo://app?vid=21adeae8-9d2b-420c-99a6-77364ba6663b"},"vehicle_type_id":"4","last_reported":1727813361,"current_range_meters":8400,"station_id":"ce4bhsp2rcd13ifvqi50","pricing_plan_id":"cebpf4jnsgd1na2vs0mg"},{"bike_id":"dc3289b7-5397-463d-b8ee-3f7e34403a59","system_id":"levelo_inurba_marseille","lat":43.28453,"lon":5.35886,"is_reserved":false,"is_disabled":false,"rental_uris":{"android":"levelo://app?vid=dc3289b7-5397-463d-b8ee-3f7e34403a59","ios":"levelo://app?vid=dc3289b7-5397-463d-b8ee-3f7e34403a59"},"vehicle_type_id":"4","last_reported":1727813361,"current_range_meters":27600,"station_id":"ce4bhah2rcd13ifvqei0","pricing_plan_id":"cebpf4jnsgd1na2vs0mg"},{"bike_id":"d0f3ba74-2db6-4276-a970-d6d9e934005a","system_id":"levelo_inurba_marseille","lat":43.3373,"lon":5.3918,"is_reserved":false,"is_disabled":false,"rental_uris":{"android":"levelo://app?vid=d0f3ba74-2db6-4276-a970-d6d9e934005a","ios":"levelo://app?vid=d0f3ba74-2db6-4276-a970-d6d9e934005a"},"vehicle_type_id":"4","last_reported":1727813361,"current_range_meters":39200,"station_id":"ce4bhr92rcd13ifvqhsg","pricing_plan_id":"cebpf4jnsgd1na2vs0mg"},{"bike_id":"4d3444c8-50a8-4f41-836f-65a7013a60a5","system_id":"levelo_inurba_marseille","lat":43.3153,"lon":5.38035,"is_reserved":false,"is_disabled":false,"rental_uris":{"android":"levelo://app?vid=4d3444c8-50a8-4f41-836f-65a7013a60a5","ios":"levelo://app?vid=4d3444c8-50a8-4f41-836f-65a7013a60a5"},"vehicle_type_id":"4","last_reported":1727813361,"current_range_meters":38400,"station_id":"ce4bhsp2rcd13ifvqi50","pricing_plan_id":"cebpf4jnsgd1na2vs0mg"},{"bike_id":"1a4cde06-d65b-46ab-b941-d222868e51c5","system_id":"levelo_inurba_marseille","lat":43.23962,"lon":5.36632,"is_reserved":false,"is_disabled":false,"rental_uris":{"android":"levelo://app?vid=1a4cde06-d65b-46ab-b941-d222868e51c5","ios":"levelo://app?vid=1a4cde06-d65b-46ab-b941-d222868e51c5"},"vehicle_type_id":"4","last_reported":1727813361,"current_range_meters":19200,"station_id":"ce4bhi12rcd13ifvqfp0","pricing_plan_id":"cebpf4jnsgd1na2vs0mg"},{"bike_id":"f1dd1acd-6ae2-46a7-8d62-c777e527ff0c","system_id":"levelo_inurba_marseille","lat":43.28458,"lon":5.35886,"is_reserved":false,"is_disabled":false,"rental_uris":{"android":"levelo://app?vid=f1dd1acd-6ae2-46a7-8d62-c777e527ff0c","ios":"levelo://app?vid=f1dd1acd-6ae2-46a7-8d62-c777e527ff0c"},"vehicle_type_id":"4","last_reported":1727813361,"current_range_meters":4000,"station_id":"ce4bhah2rcd13ifvqei0","pricing_plan_id":"cebpf4jnsgd1na2vs0mg"},{"bike_id":"4c4f3085-7816-4fff-97e5-4cd36e0a2328","system_id":"levelo_inurba_marseille","lat":43.26559,"lon":5.37287,"is_reserved":false,"is_disabled":false,"rental_uris":{"android":"levelo://app?vid=4c4f3085-7816-4fff-97e5-4cd36e0a2328","ios":"levelo://app?vid=4c4f3085-7816-4fff-97e5-4cd36e0a2328"},"vehicle_type_id":"4","last_reported":1727813361,"current_range_meters":38800,"station_id":"ce4bhg12rcd13ifvqf70","pricing_plan_id":"cebpf4jnsgd1na2vs0mg"},{"bike_id":"61f06b47-22af-43d9-8f25-beaecb38a688","system_id":"levelo_inurba_marseille","lat":43.29542,"lon":5.38539,"is_reserved":false,"is_disabled":false,"rental_uris":{"android":"levelo://app?vid=61f06b47-22af-43d9-8f25-beaecb38a688","ios":"levelo://app?vid=61f06b47-22af-43d9-8f25-beaecb38a688"},"vehicle_type_id":"4","last_reported":1727813361,"current_range_meters":21600,"station_id":"ce4bgih2rcd13ifvqba0","pricing_plan_id":"cebpf4jnsgd1na2vs0mg"},{"bike_id":"e1a22575-397e-4cd2-9953-1ff35d4fc195","system_id":"levelo_inurba_marseille","lat":43.26559,"lon":5.37292,"is_reserved":false,"is_disabled":false,"rental_uris":{"android":"levelo://app?vid=e1a22575-397e-4cd2-9953-1ff35d4fc195","ios":"levelo://app?vid=e1a22575-397e-4cd2-9953-1ff35d4fc195"},"vehicle_type_id":"4","last_reported":1727813361,"current_range_meters":38800,"station_id":"ce4bhg12rcd13ifvqf70","pricing_plan_id":"cebpf4jnsgd1na2vs0mg"},{"bike_id":"efdc9a8d-28d8-44c3-b7e5-e29b74185c34","system_id":"levelo_inurba_marseille","lat":43.30131,"lon":5.3878,"is_reserved":false,"is_disabled":false,"rental_uris":{"android":"levelo://app?vid=efdc9a8d-28d8-44c3-b7e5-e29b74185c34","ios":"levelo://app?vid=efdc9a8d-28d8-44c3-b7e5-e29b74185c34"},"vehicle_type_id":"4","last_reported":1727813361,"current_range_meters":28000,"station_id":"ce4bghh2rcd13ifvqb60","pricing_plan_id":"cebpf4jnsgd1na2vs0mg"},{"bike_id":"8fea391c-cda6-4ee2-a1e5-91e6981b2bba","system_id":"levelo_inurba_marseille","lat":43.26685,"lon":5.38268,"is_reserved":false,"is_disabled":false,"rental_uris":{"android":"levelo://app?vid=8fea391c-cda6-4ee2-a1e5-91e6981b2bba","ios":"levelo://app?vid=8fea391c-cda6-4ee2-a1e5-91e6981b2bba"},"vehicle_type_id":"4","last_reported":1727813361,"current_range_meters":32000,"station_id":"ce4bhg92rcd13ifvqf90","pricing_plan_id":"cebpf4jnsgd1na2vs0mg"},{"bike_id":"3548b6d4-80a6-4d97-85d8-5cc0c0310681","system_id":"levelo_inurba_marseille","lat":43.3092,"lon":5.40148,"is_reserved":false,"is_disabled":false,"rental_uris":{"android":"levelo://app?vid=3548b6d4-80a6-4d97-85d8-5cc0c0310681","ios":"levelo://app?vid=3548b6d4-80a6-4d97-85d8-5cc0c0310681"},"vehicle_type_id":"4","last_reported":1727813361,"current_range_meters":11600,"station_id":"ce4bgvp2rcd13ifvqct0","pricing_plan_id":"cebpf4jnsgd1na2vs0mg"},{"bike_id":"d6fec5a2-63ae-4d94-92e0-f889f72a4aaa","system_id":"levelo_inurba_marseille","lat":43.30312,"lon":5.36899,"is_reserved":false,"is_disabled":false,"rental_uris":{"android":"levelo://app?vid=d6fec5a2-63ae-4d94-92e0-f889f72a4aaa","ios":"levelo://app?vid=d6fec5a2-63ae-4d94-92e0-f889f72a4aaa"},"vehicle_type_id":"4","last_reported":1727813361,"current_range_meters":23200,"station_id":"ce4bgqh2rcd13ifvqc5g","pricing_plan_id":"cebpf4jnsgd1na2vs0mg"},{"bike_id":"2bf7e306-f8f9-4dd3-b221-2dc4bd7dabc2","system_id":"levelo_inurba_marseille","lat":43.28467,"lon":5.35893,"is_reserved":false,"is_disabled":false,"rental_uris":{"android":"levelo://app?vid=2bf7e306-f8f9-4dd3-b221-2dc4bd7dabc2","ios":"levelo://app?vid=2bf7e306-f8f9-4dd3-b221-2dc4bd7dabc2"},"vehicle_type_id":"4","last_reported":1727813361,"current_range_meters":11600,"station_id":"ce4bhah2rcd13ifvqei0","pricing_plan_id":"cebpf4jnsgd1na2vs0mg"},{"bike_id":"d86815f9-c034-45b7-ad5a-65ff91f536e6","system_id":"levelo_inurba_marseille","lat":43.28151,"lon":5.42647,"is_reserved":false,"is_disabled":false,"rental_uris":{"android":"levelo://app?vid=d86815f9-c034-45b7-ad5a-65ff91f536e6","ios":"levelo://app?vid=d86815f9-c034-45b7-ad5a-65ff91f536e6"},"vehicle_type_id":"4","last_reported":1727813361,"current_range_meters":2800,"station_id":"ce4bhnh2rcd13ifvqgug","pricing_plan_id":"cebpf4jnsgd1na2vs0mg"},{"bike_id":"a2ae8adb-cbe8-4c0b-89c0-a433c1504522","system_id":"levelo_inurba_marseille","lat":43.31273,"lon":5.4017,"is_reserved":false,"is_disabled":false,"rental_uris":{"android":"levelo://app?vid=a2ae8adb-cbe8-4c0b-89c0-a433c1504522","ios":"levelo://app?vid=a2ae8adb-cbe8-4c0b-89c0-a433c1504522"},"vehicle_type_id":"4","last_reported":1727813361,"current_range_meters":28000,"station_id":"ce4bh092rcd13ifvqd30","pricing_plan_id":"cebpf4jnsgd1na2vs0mg"},{"bike_id":"bdb0bd95-1b03-4a21-aeb7-160adefe8f4c","system_id":"levelo_inurba_marseille","lat":43.304744,"lon":5.37909,"is_reserved":false,"is_disabled":false,"rental_uris":{"android":"levelo://app?vid=bdb0bd95-1b03-4a21-aeb7-160adefe8f4c","ios":"levelo://app?vid=bdb0bd95-1b03-4a21-aeb7-160adefe8f4c"},"vehicle_type_id":"4","last_reported":1727813361,"current_range_meters":28000,"station_id":"ce4bh192rcd13ifvqdd0","pricing_plan_id":"cebpf4jnsgd1na2vs0mg"},{"bike_id":"328eedeb-6fc6-4df9-b1fa-f3847d53acaa","system_id":"levelo_inurba_marseille","lat":43.26687,"lon":5.38272,"is_reserved":false,"is_disabled":false,"rental_uris":{"android":"levelo://app?vid=328eedeb-6fc6-4df9-b1fa-f3847d53acaa","ios":"levelo://app?vid=328eedeb-6fc6-4df9-b1fa-f3847d53acaa"},"vehicle_type_id":"4","last_reported":1727813361,"current_range_meters":39200,"station_id":"ce4bhg92rcd13ifvqf90","pricing_plan_id":"cebpf4jnsgd1na2vs0mg"},{"bike_id":"b7a4367c-fc71-4ab7-95c7-5d35b416dab0","system_id":"levelo_inurba_marseille","lat":43.31532,"lon":5.38041,"is_reserved":false,"is_disabled":false,"rental_uris":{"android":"levelo://app?vid=b7a4367c-fc71-4ab7-95c7-5d35b416dab0","ios":"levelo://app?vid=b7a4367c-fc71-4ab7-95c7-5d35b416dab0"},"vehicle_type_id":"4","last_reported":1727813361,"current_range_meters":40000,"station_id":"ce4bhsp2rcd13ifvqi50","pricing_plan_id":"cebpf4jnsgd1na2vs0mg"},{"bike_id":"50cce958-e70d-434d-995a-c29d208f1d21","system_id":"levelo_inurba_marseille","lat":43.28269,"lon":5.35063,"is_reserved":false,"is_disabled":false,"rental_uris":{"android":"levelo://app?vid=50cce958-e70d-434d-995a-c29d208f1d21","ios":"levelo://app?vid=50cce958-e70d-434d-995a-c29d208f1d21"},"vehicle_type_id":"4","last_reported":1727813361,"current_range_meters":19200,"station_id":"ce4bhbp2rcd13ifvqerg","pricing_plan_id":"cebpf4jnsgd1na2vs0mg"},{"bike_id":"4e0ac19e-496d-4cfe-b275-298bcdca0fc8","system_id":"levelo_inurba_marseille","lat":43.29542,"lon":5.38551,"is_reserved":false,"is_disabled":false,"rental_uris":{"android":"levelo://app?vid=4e0ac19e-496d-4cfe-b275-298bcdca0fc8","ios":"levelo://app?vid=4e0ac19e-496d-4cfe-b275-298bcdca0fc8"},"vehicle_type_id":"4","last_reported":1727813361,"current_range_meters":40000,"station_id":"ce4bgih2rcd13ifvqba0","pricing_plan_id":"cebpf4jnsgd1na2vs0mg"},{"bike_id":"37621281-5028-4585-b6ad-dbe94e6e8663","system_id":"levelo_inurba_marseille","lat":43.33025,"lon":5.3905,"is_reserved":false,"is_disabled":false,"rental_uris":{"android":"levelo://app?vid=37621281-5028-4585-b6ad-dbe94e6e8663","ios":"levelo://app?vid=37621281-5028-4585-b6ad-dbe94e6e8663"},"vehicle_type_id":"4","last_reported":1727813361,"current_range_meters":40000,"station_id":"ce4bhr92rcd13ifvqhrg","pricing_plan_id":"cebpf4jnsgd1na2vs0mg"},{"bike_id":"ef29ff35-fd09-4474-b929-41254ea52f61","system_id":"levelo_inurba_marseille","lat":43.27989,"lon":5.4002,"is_reserved":false,"is_disabled":false,"rental_uris":{"android":"levelo://app?vid=ef29ff35-fd09-4474-b929-41254ea52f61","ios":"levelo://app?vid=ef29ff35-fd09-4474-b929-41254ea52f61"},"vehicle_type_id":"4","last_reported":1727813361,"current_range_meters":7200,"station_id":"ce4bho92rcd13ifvqh4g","pricing_plan_id":"cebpf4jnsgd1na2vs0mg"},{"bike_id":"d92ab752-9f2b-4ec9-9644-bc381e960903","system_id":"levelo_inurba_marseille","lat":43.27997,"lon":5.40022,"is_reserved":false,"is_disabled":false,"rental_uris":{"android":"levelo://app?vid=d92ab752-9f2b-4ec9-9644-bc381e960903","ios":"levelo://app?vid=d92ab752-9f2b-4ec9-9644-bc381e960903"},"vehicle_type_id":"4","last_reported":1727813361,"current_range_meters":17600,"station_id":"ce4bho92rcd13ifvqh4g","pricing_plan_id":"cebpf4jnsgd1na2vs0mg"},{"bike_id":"2d206e1a-412a-43c5-aa5a-7208962f0ec1","system_id":"levelo_inurba_marseille","lat":43.29554,"lon":5.42295,"is_reserved":false,"is_disabled":false,"rental_uris":{"android":"levelo://app?vid=2d206e1a-412a-43c5-aa5a-7208962f0ec1","ios":"levelo://app?vid=2d206e1a-412a-43c5-aa5a-7208962f0ec1"},"vehicle_type_id":"4","last_reported":1727813361,"current_range_meters":11200,"station_id":"ce4bhph2rcd13ifvqhdg","pricing_plan_id":"cebpf4jnsgd1na2vs0mg"},{"bike_id":"ecdc5201-ad52-4ea4-9825-9622579180c3","system_id":"levelo_inurba_marseille","lat":43.29533,"lon":5.38549,"is_reserved":false,"is_disabled":false,"rental_uris":{"android":"levelo://app?vid=ecdc5201-ad52-4ea4-9825-9622579180c3","ios":"levelo://app?vid=ecdc5201-ad52-4ea4-9825-9622579180c3"},"vehicle_type_id":"4","last_reported":1727813361,"current_range_meters":10000,"station_id":"ce4bgih2rcd13ifvqba0","pricing_plan_id":"cebpf4jnsgd1na2vs0mg"},{"bike_id":"b46a91f9-0b26-498d-b8ac-ec249396e291","system_id":"levelo_inurba_marseille","lat":43.29893,"lon":5.43657,"is_reserved":false,"is_disabled":false,"rental_uris":{"android":"levelo://app?vid=b46a91f9-0b26-498d-b8ac-ec249396e291","ios":"levelo://app?vid=b46a91f9-0b26-498d-b8ac-ec249396e291"},"vehicle_type_id":"4","last_reported":1727813361,"current_range_meters":21600,"station_id":"ce4bhpp2rcd13ifvqhfg","pricing_plan_id":"cebpf4jnsgd1na2vs0mg"},{"bike_id":"fe46a18e-2d3c-404b-81e9-b616c7087db1","system_id":"levelo_inurba_marseille","lat":43.3079,"lon":5.37655,"is_reserved":false,"is_disabled":false,"rental_uris":{"android":"levelo://app?vid=fe46a18e-2d3c-404b-81e9-b616c7087db1","ios":"levelo://app?vid=fe46a18e-2d3c-404b-81e9-b616c7087db1"},"vehicle_type_id":"4","last_reported":1727813361,"current_range_meters":36800,"station_id":"ce4bgv92rcd13ifvqcq0","pricing_plan_id":"cebpf4jnsgd1na2vs0mg"},{"bike_id":"bea98f12-f887-4527-9795-e1ed0ce7c624","system_id":"levelo_inurba_marseille","lat":43.27554,"lon":5.36023,"is_reserved":false,"is_disabled":false,"rental_uris":{"android":"levelo://app?vid=bea98f12-f887-4527-9795-e1ed0ce7c624","ios":"levelo://app?vid=bea98f12-f887-4527-9795-e1ed0ce7c624"},"vehicle_type_id":"4","last_reported":1727813361,"current_range_meters":25600,"station_id":"ce4bgj92rcd13ifvqbe0","pricing_plan_id":"cebpf4jnsgd1na2vs0mg"},{"bike_id":"b5e4df66-c8b2-46d7-a7ce-add59ccd51c1","system_id":"levelo_inurba_marseille","lat":43.27991,"lon":5.40014,"is_reserved":false,"is_disabled":false,"rental_uris":{"android":"levelo://app?vid=b5e4df66-c8b2-46d7-a7ce-add59ccd51c1","ios":"levelo://app?vid=b5e4df66-c8b2-46d7-a7ce-add59ccd51c1"},"vehicle_type_id":"4","last_reported":1727813361,"current_range_meters":18800,"station_id":"ce4bho92rcd13ifvqh4g","pricing_plan_id":"cebpf4jnsgd1na2vs0mg"},{"bike_id":"d815454a-af52-4075-a172-fc38af168ab3","system_id":"levelo_inurba_marseille","lat":43.29276,"lon":5.40122,"is_reserved":false,"is_disabled":false,"rental_uris":{"android":"levelo://app?vid=d815454a-af52-4075-a172-fc38af168ab3","ios":"levelo://app?vid=d815454a-af52-4075-a172-fc38af168ab3"},"vehicle_type_id":"4","last_reported":1727813361,"current_range_meters":16800,"station_id":"ce4bh312rcd13ifvqdk0","pricing_plan_id":"cebpf4jnsgd1na2vs0mg"},{"bike_id":"01773c95-0a26-40c8-a7d0-47caef74ae78","system_id":"levelo_inurba_marseille","lat":43.2897,"lon":5.3784,"is_reserved":false,"is_disabled":false,"rental_uris":{"android":"levelo://app?vid=01773c95-0a26-40c8-a7d0-47caef74ae78","ios":"levelo://app?vid=01773c95-0a26-40c8-a7d0-47caef74ae78"},"vehicle_type_id":"4","last_reported":1727813361,"current_range_meters":29600,"station_id":"ce4bh9p2rcd13ifvqed0","pricing_plan_id":"cebpf4jnsgd1na2vs0mg"},{"bike_id":"9ec9c6f4-7594-4f24-b075-0b78691507e4","system_id":"levelo_inurba_marseille","lat":43.27995,"lon":5.40021,"is_reserved":false,"is_disabled":false,"rental_uris":{"android":"levelo://app?vid=9ec9c6f4-7594-4f24-b075-0b78691507e4","ios":"levelo://app?vid=9ec9c6f4-7594-4f24-b075-0b78691507e4"},"vehicle_type_id":"4","last_reported":1727813361,"current_range_meters":40000,"station_id":"ce4bho92rcd13ifvqh4g","pricing_plan_id":"cebpf4jnsgd1na2vs0mg"},{"bike_id":"720424b8-8b1d-49e9-bb63-2d457023a3a2","system_id":"levelo_inurba_marseille","lat":43.27911,"lon":5.39597,"is_reserved":false,"is_disabled":false,"rental_uris":{"android":"levelo://app?vid=720424b8-8b1d-49e9-bb63-2d457023a3a2","ios":"levelo://app?vid=720424b8-8b1d-49e9-bb63-2d457023a3a2"},"vehicle_type_id":"4","last_reported":1727813361,"current_range_meters":38800,"station_id":"ce4bhf92rcd13ifvqf40","pricing_plan_id":"cebpf4jnsgd1na2vs0mg"},{"bike_id":"e3340c40-adac-4cc4-a497-110cebace971","system_id":"levelo_inurba_marseille","lat":43.31116,"lon":5.37771,"is_reserved":false,"is_disabled":false,"rental_uris":{"android":"levelo://app?vid=e3340c40-adac-4cc4-a497-110cebace971","ios":"levelo://app?vid=e3340c40-adac-4cc4-a497-110cebace971"},"vehicle_type_id":"4","last_reported":1727813361,"current_range_meters":38800,"station_id":"ce4bgt92rcd13ifvqcg0","pricing_plan_id":"cebpf4jnsgd1na2vs0mg"},{"bike_id":"a28592a7-a547-4490-ad7e-8f39ff40fc15","system_id":"levelo_inurba_marseille","lat":43.27071,"lon":5.42285,"is_reserved":false,"is_disabled":false,"rental_uris":{"android":"levelo://app?vid=a28592a7-a547-4490-ad7e-8f39ff40fc15","ios":"levelo://app?vid=a28592a7-a547-4490-ad7e-8f39ff40fc15"},"vehicle_type_id":"4","last_reported":1727813361,"current_range_meters":9600,"station_id":"ce4bhk92rcd13ifvqgb0","pricing_plan_id":"cebpf4jnsgd1na2vs0mg"},{"bike_id":"c4432127-0b97-48c8-b745-bef6023d020a","system_id":"levelo_inurba_marseille","lat":43.33727,"lon":5.39187,"is_reserved":false,"is_disabled":false,"rental_uris":{"android":"levelo://app?vid=c4432127-0b97-48c8-b745-bef6023d020a","ios":"levelo://app?vid=c4432127-0b97-48c8-b745-bef6023d020a"},"vehicle_type_id":"4","last_reported":1727813361,"current_range_meters":31200,"station_id":"ce4bhr92rcd13ifvqhsg","pricing_plan_id":"cebpf4jnsgd1na2vs0mg"},{"bike_id":"29ea3e19-1f2b-4ccd-aefb-96ec690f2087","system_id":"levelo_inurba_marseille","lat":43.258315,"lon":5.394405,"is_reserved":false,"is_disabled":false,"rental_uris":{"android":"levelo://app?vid=29ea3e19-1f2b-4ccd-aefb-96ec690f2087","ios":"levelo://app?vid=29ea3e19-1f2b-4ccd-aefb-96ec690f2087"},"vehicle_type_id":"4","last_reported":1727813361,"current_range_meters":11600,"station_id":"ce4bhip2rcd13ifvqft0","pricing_plan_id":"cebpf4jnsgd1na2vs0mg"},{"bike_id":"567cb5c1-1477-4838-8c45-d56d4c3b0e5f","system_id":"levelo_inurba_marseille","lat":43.314972,"lon":5.373064,"is_reserved":false,"is_disabled":false,"rental_uris":{"android":"levelo://app?vid=567cb5c1-1477-4838-8c45-d56d4c3b0e5f","ios":"levelo://app?vid=567cb5c1-1477-4838-8c45-d56d4c3b0e5f"},"vehicle_type_id":"4","last_reported":1727813361,"current_range_meters":39200,"station_id":"ce4bgt12rcd13ifvqcd0","pricing_plan_id":"cebpf4jnsgd1na2vs0mg"},{"bike_id":"142aa7b4-3371-4db0-89a2-e7641e1f2f08","system_id":"levelo_inurba_marseille","lat":43.29261,"lon":5.38443,"is_reserved":false,"is_disabled":false,"rental_uris":{"android":"levelo://app?vid=142aa7b4-3371-4db0-89a2-e7641e1f2f08","ios":"levelo://app?vid=142aa7b4-3371-4db0-89a2-e7641e1f2f08"},"vehicle_type_id":"4","last_reported":1727813361,"current_range_meters":17200,"station_id":"ce4bh692rcd13ifvqea0","pricing_plan_id":"cebpf4jnsgd1na2vs0mg"},{"bike_id":"d29dc684-5977-4857-9fdb-728775ead93e","system_id":"levelo_inurba_marseille","lat":43.337298,"lon":5.391848,"is_reserved":false,"is_disabled":false,"rental_uris":{"android":"levelo://app?vid=d29dc684-5977-4857-9fdb-728775ead93e","ios":"levelo://app?vid=d29dc684-5977-4857-9fdb-728775ead93e"},"vehicle_type_id":"4","last_reported":1727813361,"current_range_meters":38400,"station_id":"ce4bhr92rcd13ifvqhsg","pricing_plan_id":"cebpf4jnsgd1na2vs0mg"},{"bike_id":"d1db18f8-1c4b-4828-9b2c-027f685c46fe","system_id":"levelo_inurba_marseille","lat":43.31173,"lon":5.3871,"is_reserved":false,"is_disabled":false,"rental_uris":{"android":"levelo://app?vid=d1db18f8-1c4b-4828-9b2c-027f685c46fe","ios":"levelo://app?vid=d1db18f8-1c4b-4828-9b2c-027f685c46fe"},"vehicle_type_id":"4","last_reported":1727813361,"current_range_meters":16000,"station_id":"ce4bgv12rcd13ifvqcp0","pricing_plan_id":"cebpf4jnsgd1na2vs0mg"},{"bike_id":"72dd5a20-6a7a-44bf-8f71-e09d90c8bde8","system_id":"levelo_inurba_marseille","lat":43.2791,"lon":5.38015,"is_reserved":false,"is_disabled":false,"rental_uris":{"android":"levelo://app?vid=72dd5a20-6a7a-44bf-8f71-e09d90c8bde8","ios":"levelo://app?vid=72dd5a20-6a7a-44bf-8f71-e09d90c8bde8"},"vehicle_type_id":"4","last_reported":1727813361,"current_range_meters":30800,"station_id":"ce4bhf92rcd13ifvqf50","pricing_plan_id":"cebpf4jnsgd1na2vs0mg"},{"bike_id":"af924da6-063d-4061-abcf-623ee171c598","system_id":"levelo_inurba_marseille","lat":43.29275,"lon":5.40125,"is_reserved":false,"is_disabled":false,"rental_uris":{"android":"levelo://app?vid=af924da6-063d-4061-abcf-623ee171c598","ios":"levelo://app?vid=af924da6-063d-4061-abcf-623ee171c598"},"vehicle_type_id":"4","last_reported":1727813361,"current_range_meters":18000,"station_id":"ce4bh312rcd13ifvqdk0","pricing_plan_id":"cebpf4jnsgd1na2vs0mg"},{"bike_id":"2faff174-8bd4-4e90-b2f9-3ea1a48d7246","system_id":"levelo_inurba_marseille","lat":43.28408,"lon":5.37513,"is_reserved":false,"is_disabled":false,"rental_uris":{"android":"levelo://app?vid=2faff174-8bd4-4e90-b2f9-3ea1a48d7246","ios":"levelo://app?vid=2faff174-8bd4-4e90-b2f9-3ea1a48d7246"},"vehicle_type_id":"4","last_reported":1727813361,"current_range_meters":3600,"station_id":"ce4bh412rcd13ifvqds0","pricing_plan_id":"cebpf4jnsgd1na2vs0mg"},{"bike_id":"80cd2eb9-6d61-4806-bcbf-bdc942195b61","system_id":"levelo_inurba_marseille","lat":43.28659,"lon":5.36356,"is_reserved":false,"is_disabled":false,"rental_uris":{"android":"levelo://app?vid=80cd2eb9-6d61-4806-bcbf-bdc942195b61","ios":"levelo://app?vid=80cd2eb9-6d61-4806-bcbf-bdc942195b61"},"vehicle_type_id":"4","last_reported":1727813361,"current_range_meters":38800,"station_id":"ce4bhah2rcd13ifvqej0","pricing_plan_id":"cebpf4jnsgd1na2vs0mg"},{"bike_id":"d02732f0-a413-4720-a3bc-e52746670bfb","system_id":"levelo_inurba_marseille","lat":43.32289,"lon":5.38266,"is_reserved":false,"is_disabled":false,"rental_uris":{"android":"levelo://app?vid=d02732f0-a413-4720-a3bc-e52746670bfb","ios":"levelo://app?vid=d02732f0-a413-4720-a3bc-e52746670bfb"},"vehicle_type_id":"4","last_reported":1727813361,"current_range_meters":26000,"station_id":"ce4bhr12rcd13ifvqhqg","pricing_plan_id":"cebpf4jnsgd1na2vs0mg"},{"bike_id":"b11ad43b-c46e-408b-8084-a135505e015e","system_id":"levelo_inurba_marseille","lat":43.25418,"lon":5.39417,"is_reserved":false,"is_disabled":false,"rental_uris":{"android":"levelo://app?vid=b11ad43b-c46e-408b-8084-a135505e015e","ios":"levelo://app?vid=b11ad43b-c46e-408b-8084-a135505e015e"},"vehicle_type_id":"4","last_reported":1727813361,"current_range_meters":9600,"station_id":"","pricing_plan_id":"cebpf4jnsgd1na2vs0mg"},{"bike_id":"ee4af650-348f-4475-bdd1-b8dce6beac83","system_id":"levelo_inurba_marseille","lat":43.2873,"lon":5.36096,"is_reserved":false,"is_disabled":false,"rental_uris":{"android":"levelo://app?vid=ee4af650-348f-4475-bdd1-b8dce6beac83","ios":"levelo://app?vid=ee4af650-348f-4475-bdd1-b8dce6beac83"},"vehicle_type_id":"4","last_reported":1727813361,"current_range_meters":7200,"station_id":"cki0cbj6b192h4jlfktg","pricing_plan_id":"cebpf4jnsgd1na2vs0mg"},{"bike_id":"844290f7-f217-40d5-ae94-20686ca948b8","system_id":"levelo_inurba_marseille","lat":43.29196,"lon":5.39322,"is_reserved":false,"is_disabled":false,"rental_uris":{"android":"levelo://app?vid=844290f7-f217-40d5-ae94-20686ca948b8","ios":"levelo://app?vid=844290f7-f217-40d5-ae94-20686ca948b8"},"vehicle_type_id":"4","last_reported":1727813361,"current_range_meters":9600,"station_id":"ce4bh192rcd13ifvqdd0","pricing_plan_id":"cebpf4jnsgd1na2vs0mg"},{"bike_id":"ab932a5f-6aba-4bb1-ade3-2d0ba12729b9","system_id":"levelo_inurba_marseille","lat":43.32284,"lon":5.38265,"is_reserved":false,"is_disabled":false,"rental_uris":{"android":"levelo://app?vid=ab932a5f-6aba-4bb1-ade3-2d0ba12729b9","ios":"levelo://app?vid=ab932a5f-6aba-4bb1-ade3-2d0ba12729b9"},"vehicle_type_id":"4","last_reported":1727813361,"current_range_meters":20400,"station_id":"ce4bhr12rcd13ifvqhqg","pricing_plan_id":"cebpf4jnsgd1na2vs0mg"},{"bike_id":"7a58c2c8-50c0-4818-855c-4b86297baff1","system_id":"levelo_inurba_marseille","lat":43.337444,"lon":5.374475,"is_reserved":false,"is_disabled":false,"rental_uris":{"android":"levelo://app?vid=7a58c2c8-50c0-4818-855c-4b86297baff1","ios":"levelo://app?vid=7a58c2c8-50c0-4818-855c-4b86297baff1"},"vehicle_type_id":"4","last_reported":1727813361,"current_range_meters":30800,"station_id":"","pricing_plan_id":"cebpf4jnsgd1na2vs0mg"},{"bike_id":"f0db11ce-2498-4a56-b762-7aa0a64821f6","system_id":"levelo_inurba_marseille","lat":43.32482,"lon":5.36567,"is_reserved":false,"is_disabled":false,"rental_uris":{"android":"levelo://app?vid=f0db11ce-2498-4a56-b762-7aa0a64821f6","ios":"levelo://app?vid=f0db11ce-2498-4a56-b762-7aa0a64821f6"},"vehicle_type_id":"4","last_reported":1727813361,"current_range_meters":11600,"station_id":"ce4bhs12rcd13ifvqhvg","pricing_plan_id":"cebpf4jnsgd1na2vs0mg"},{"bike_id":"07342abc-ccf3-42b0-8303-db2dd85c8346","system_id":"levelo_inurba_marseille","lat":43.30886,"lon":5.3965,"is_reserved":false,"is_disabled":false,"rental_uris":{"android":"levelo://app?vid=07342abc-ccf3-42b0-8303-db2dd85c8346","ios":"levelo://app?vid=07342abc-ccf3-42b0-8303-db2dd85c8346"},"vehicle_type_id":"4","last_reported":1727813361,"current_range_meters":3600,"station_id":"ce4bh012rcd13ifvqcv0","pricing_plan_id":"cebpf4jnsgd1na2vs0mg"},{"bike_id":"e650637e-f231-4eae-9c5d-c52eba283438","system_id":"levelo_inurba_marseille","lat":43.28725,"lon":5.36083,"is_reserved":false,"is_disabled":false,"rental_uris":{"android":"levelo://app?vid=e650637e-f231-4eae-9c5d-c52eba283438","ios":"levelo://app?vid=e650637e-f231-4eae-9c5d-c52eba283438"},"vehicle_type_id":"4","last_reported":1727813361,"current_range_meters":7200,"station_id":"cki0cbj6b192h4jlfktg","pricing_plan_id":"cebpf4jnsgd1na2vs0mg"},{"bike_id":"7f7ef2fe-1827-401f-b1e1-4dee68d4e8d6","system_id":"levelo_inurba_marseille","lat":43.29796,"lon":5.39346,"is_reserved":false,"is_disabled":false,"rental_uris":{"android":"levelo://app?vid=7f7ef2fe-1827-401f-b1e1-4dee68d4e8d6","ios":"levelo://app?vid=7f7ef2fe-1827-401f-b1e1-4dee68d4e8d6"},"vehicle_type_id":"4","last_reported":1727813361,"current_range_meters":38800,"station_id":"chh1huq6cuj3fo74tm60","pricing_plan_id":"cebpf4jnsgd1na2vs0mg"},{"bike_id":"3767ee69-4db7-436b-b78a-60cd947bf0bf","system_id":"levelo_inurba_marseille","lat":43.33605,"lon":5.41038,"is_reserved":false,"is_disabled":false,"rental_uris":{"android":"levelo://app?vid=3767ee69-4db7-436b-b78a-60cd947bf0bf","ios":"levelo://app?vid=3767ee69-4db7-436b-b78a-60cd947bf0bf"},"vehicle_type_id":"4","last_reported":1727813361,"current_range_meters":20400,"station_id":"ce4bhqh2rcd13ifvqhmg","pricing_plan_id":"cebpf4jnsgd1na2vs0mg"},{"bike_id":"aa940417-96a3-4611-8c46-7a9a2f028d3c","system_id":"levelo_inurba_marseille","lat":43.29276,"lon":5.36848,"is_reserved":false,"is_disabled":false,"rental_uris":{"android":"levelo://app?vid=aa940417-96a3-4611-8c46-7a9a2f028d3c","ios":"levelo://app?vid=aa940417-96a3-4611-8c46-7a9a2f028d3c"},"vehicle_type_id":"4","last_reported":1727813361,"current_range_meters":25600,"station_id":"ce4bhbp2rcd13ifvqesg","pricing_plan_id":"cebpf4jnsgd1na2vs0mg"},{"bike_id":"92ac41bb-ab36-44e8-ace8-2147f0b6a10d","system_id":"levelo_inurba_marseille","lat":43.30802,"lon":5.43522,"is_reserved":false,"is_disabled":false,"rental_uris":{"android":"levelo://app?vid=92ac41bb-ab36-44e8-ace8-2147f0b6a10d","ios":"levelo://app?vid=92ac41bb-ab36-44e8-ace8-2147f0b6a10d"},"vehicle_type_id":"4","last_reported":1727813361,"current_range_meters":14800,"station_id":"ce4bhph2rcd13ifvqheg","pricing_plan_id":"cebpf4jnsgd1na2vs0mg"},{"bike_id":"7bbd42bb-c4e7-40ae-a7c0-13453c6dffe6","system_id":"levelo_inurba_marseille","lat":43.31755,"lon":5.3902,"is_reserved":false,"is_disabled":false,"rental_uris":{"android":"levelo://app?vid=7bbd42bb-c4e7-40ae-a7c0-13453c6dffe6","ios":"levelo://app?vid=7bbd42bb-c4e7-40ae-a7c0-13453c6dffe6"},"vehicle_type_id":"4","last_reported":1727813361,"current_range_meters":39200,"station_id":"ce4bhqp2rcd13ifvqhng","pricing_plan_id":"cebpf4jnsgd1na2vs0mg"},{"bike_id":"84a5d309-c017-45e4-b54b-c1202248de5a","system_id":"levelo_inurba_marseille","lat":43.27917,"lon":5.39585,"is_reserved":false,"is_disabled":false,"rental_uris":{"android":"levelo://app?vid=84a5d309-c017-45e4-b54b-c1202248de5a","ios":"levelo://app?vid=84a5d309-c017-45e4-b54b-c1202248de5a"},"vehicle_type_id":"4","last_reported":1727813361,"current_range_meters":27600,"station_id":"ce4bhf92rcd13ifvqf40","pricing_plan_id":"cebpf4jnsgd1na2vs0mg"},{"bike_id":"a9f11530-c544-463d-878d-d5e767121c08","system_id":"levelo_inurba_marseille","lat":43.2979,"lon":5.39356,"is_reserved":false,"is_disabled":false,"rental_uris":{"android":"levelo://app?vid=a9f11530-c544-463d-878d-d5e767121c08","ios":"levelo://app?vid=a9f11530-c544-463d-878d-d5e767121c08"},"vehicle_type_id":"4","last_reported":1727813361,"current_range_meters":38800,"station_id":"chh1huq6cuj3fo74tm60","pricing_plan_id":"cebpf4jnsgd1na2vs0mg"},{"bike_id":"b7a75d39-7de2-45b7-9a7f-76b26f7a01b8","system_id":"levelo_inurba_marseille","lat":43.32477,"lon":5.37427,"is_reserved":false,"is_disabled":false,"rental_uris":{"android":"levelo://app?vid=b7a75d39-7de2-45b7-9a7f-76b26f7a01b8","ios":"levelo://app?vid=b7a75d39-7de2-45b7-9a7f-76b26f7a01b8"},"vehicle_type_id":"4","last_reported":1727813361,"current_range_meters":35600,"station_id":"ce4bguh2rcd13ifvqckg","pricing_plan_id":"cebpf4jnsgd1na2vs0mg"},{"bike_id":"82c7638b-4272-4d5d-90fd-55e01777e539","system_id":"levelo_inurba_marseille","lat":43.27995,"lon":5.40009,"is_reserved":false,"is_disabled":false,"rental_uris":{"android":"levelo://app?vid=82c7638b-4272-4d5d-90fd-55e01777e539","ios":"levelo://app?vid=82c7638b-4272-4d5d-90fd-55e01777e539"},"vehicle_type_id":"4","last_reported":1727813361,"current_range_meters":6400,"station_id":"ce4bho92rcd13ifvqh4g","pricing_plan_id":"cebpf4jnsgd1na2vs0mg"},{"bike_id":"b732dc55-dbbd-4664-b1ae-4c1387fb71b6","system_id":"levelo_inurba_marseille","lat":43.30277,"lon":5.39225,"is_reserved":false,"is_disabled":false,"rental_uris":{"android":"levelo://app?vid=b732dc55-dbbd-4664-b1ae-4c1387fb71b6","ios":"levelo://app?vid=b732dc55-dbbd-4664-b1ae-4c1387fb71b6"},"vehicle_type_id":"4","last_reported":1727813361,"current_range_meters":38800,"station_id":"ce4bgkh2rcd13ifvqbk0","pricing_plan_id":"cebpf4jnsgd1na2vs0mg"},{"bike_id":"9a400dc8-f5e3-4448-93b4-3584ea956811","system_id":"levelo_inurba_marseille","lat":43.28718,"lon":5.37937,"is_reserved":false,"is_disabled":false,"rental_uris":{"android":"levelo://app?vid=9a400dc8-f5e3-4448-93b4-3584ea956811","ios":"levelo://app?vid=9a400dc8-f5e3-4448-93b4-3584ea956811"},"vehicle_type_id":"4","last_reported":1727813361,"current_range_meters":6000,"station_id":"ce4bh9p2rcd13ifvqec0","pricing_plan_id":"cebpf4jnsgd1na2vs0mg"},{"bike_id":"09937d2a-e7d3-4522-8c98-20a5ac488e8f","system_id":"levelo_inurba_marseille","lat":43.284576,"lon":5.358886,"is_reserved":false,"is_disabled":false,"rental_uris":{"android":"levelo://app?vid=09937d2a-e7d3-4522-8c98-20a5ac488e8f","ios":"levelo://app?vid=09937d2a-e7d3-4522-8c98-20a5ac488e8f"},"vehicle_type_id":"4","last_reported":1727813361,"current_range_meters":32800,"station_id":"ce4bhah2rcd13ifvqei0","pricing_plan_id":"cebpf4jnsgd1na2vs0mg"},{"bike_id":"437b8d29-8ec2-410d-9e63-c5b7cc126a00","system_id":"levelo_inurba_marseille","lat":43.32294,"lon":5.38274,"is_reserved":false,"is_disabled":false,"rental_uris":{"android":"levelo://app?vid=437b8d29-8ec2-410d-9e63-c5b7cc126a00","ios":"levelo://app?vid=437b8d29-8ec2-410d-9e63-c5b7cc126a00"},"vehicle_type_id":"4","last_reported":1727813361,"current_range_meters":30400,"station_id":"ce4bhr12rcd13ifvqhqg","pricing_plan_id":"cebpf4jnsgd1na2vs0mg"},{"bike_id":"508058b4-8bd9-4912-939e-09a5fad199ae","system_id":"levelo_inurba_marseille","lat":43.27812,"lon":5.4072,"is_reserved":false,"is_disabled":false,"rental_uris":{"android":"levelo://app?vid=508058b4-8bd9-4912-939e-09a5fad199ae","ios":"levelo://app?vid=508058b4-8bd9-4912-939e-09a5fad199ae"},"vehicle_type_id":"4","last_reported":1727813361,"current_range_meters":36400,"station_id":"ce4bhnh2rcd13ifvqgtg","pricing_plan_id":"cebpf4jnsgd1na2vs0mg"},{"bike_id":"bf38ee13-4b82-4a9b-819a-8a631cac23fa","system_id":"levelo_inurba_marseille","lat":43.284607,"lon":5.349752,"is_reserved":false,"is_disabled":false,"rental_uris":{"android":"levelo://app?vid=bf38ee13-4b82-4a9b-819a-8a631cac23fa","ios":"levelo://app?vid=bf38ee13-4b82-4a9b-819a-8a631cac23fa"},"vehicle_type_id":"4","last_reported":1727813361,"current_range_meters":37600,"station_id":"ce4bhbh2rcd13ifvqepg","pricing_plan_id":"cebpf4jnsgd1na2vs0mg"},{"bike_id":"ceaa5e62-df62-4497-9d6b-5f3f56ef944b","system_id":"levelo_inurba_marseille","lat":43.29867,"lon":5.39735,"is_reserved":false,"is_disabled":false,"rental_uris":{"android":"levelo://app?vid=ceaa5e62-df62-4497-9d6b-5f3f56ef944b","ios":"levelo://app?vid=ceaa5e62-df62-4497-9d6b-5f3f56ef944b"},"vehicle_type_id":"4","last_reported":1727813361,"current_range_meters":9600,"station_id":"ce4bh312rcd13ifvqdj0","pricing_plan_id":"cebpf4jnsgd1na2vs0mg"},{"bike_id":"57131a28-b3c5-491d-b1d5-8f3cf74de851","system_id":"levelo_inurba_marseille","lat":43.28941,"lon":5.36395,"is_reserved":false,"is_disabled":false,"rental_uris":{"android":"levelo://app?vid=57131a28-b3c5-491d-b1d5-8f3cf74de851","ios":"levelo://app?vid=57131a28-b3c5-491d-b1d5-8f3cf74de851"},"vehicle_type_id":"4","last_reported":1727813361,"current_range_meters":17600,"station_id":"ce4bhc92rcd13ifvqetg","pricing_plan_id":"cebpf4jnsgd1na2vs0mg"},{"bike_id":"57e3fdb1-6e73-4ae5-b93d-7896deaad710","system_id":"levelo_inurba_marseille","lat":43.28037,"lon":5.36958,"is_reserved":false,"is_disabled":false,"rental_uris":{"android":"levelo://app?vid=57e3fdb1-6e73-4ae5-b93d-7896deaad710","ios":"levelo://app?vid=57e3fdb1-6e73-4ae5-b93d-7896deaad710"},"vehicle_type_id":"4","last_reported":1727813361,"current_range_meters":20400,"station_id":"ce4bha12rcd13ifvqef0","pricing_plan_id":"cebpf4jnsgd1na2vs0mg"},{"bike_id":"3f9ed83b-0491-4b38-a8b1-0067fa715ad5","system_id":"levelo_inurba_marseille","lat":43.28846,"lon":5.39318,"is_reserved":false,"is_disabled":false,"rental_uris":{"android":"levelo://app?vid=3f9ed83b-0491-4b38-a8b1-0067fa715ad5","ios":"levelo://app?vid=3f9ed83b-0491-4b38-a8b1-0067fa715ad5"},"vehicle_type_id":"4","last_reported":1727813361,"current_range_meters":38800,"station_id":"ce4bh2p2rcd13ifvqdi0","pricing_plan_id":"cebpf4jnsgd1na2vs0mg"},{"bike_id":"74956dbe-73fd-4e71-846f-7416f31b3b0b","system_id":"levelo_inurba_marseille","lat":43.27984,"lon":5.40011,"is_reserved":false,"is_disabled":false,"rental_uris":{"android":"levelo://app?vid=74956dbe-73fd-4e71-846f-7416f31b3b0b","ios":"levelo://app?vid=74956dbe-73fd-4e71-846f-7416f31b3b0b"},"vehicle_type_id":"4","last_reported":1727813361,"current_range_meters":38800,"station_id":"ce4bho92rcd13ifvqh4g","pricing_plan_id":"cebpf4jnsgd1na2vs0mg"},{"bike_id":"47e93eac-200b-4e38-a6ca-6e74af13d7ea","system_id":"levelo_inurba_marseille","lat":43.28696,"lon":5.37395,"is_reserved":false,"is_disabled":false,"rental_uris":{"android":"levelo://app?vid=47e93eac-200b-4e38-a6ca-6e74af13d7ea","ios":"levelo://app?vid=47e93eac-200b-4e38-a6ca-6e74af13d7ea"},"vehicle_type_id":"4","last_reported":1727813361,"current_range_meters":11200,"station_id":"ce4bh3p2rcd13ifvqdq0","pricing_plan_id":"cebpf4jnsgd1na2vs0mg"},{"bike_id":"e9470b75-b2d1-467d-936e-59926a16d8fc","system_id":"levelo_inurba_marseille","lat":43.28438,"lon":5.39207,"is_reserved":false,"is_disabled":false,"rental_uris":{"android":"levelo://app?vid=e9470b75-b2d1-467d-936e-59926a16d8fc","ios":"levelo://app?vid=e9470b75-b2d1-467d-936e-59926a16d8fc"},"vehicle_type_id":"4","last_reported":1727813361,"current_range_meters":24800,"station_id":"ce4bhoh2rcd13ifvqh5g","pricing_plan_id":"cebpf4jnsgd1na2vs0mg"},{"bike_id":"5468d1eb-692e-4e65-80c8-f1caa0f448ab","system_id":"levelo_inurba_marseille","lat":43.24076,"lon":5.37756,"is_reserved":false,"is_disabled":false,"rental_uris":{"android":"levelo://app?vid=5468d1eb-692e-4e65-80c8-f1caa0f448ab","ios":"levelo://app?vid=5468d1eb-692e-4e65-80c8-f1caa0f448ab"},"vehicle_type_id":"4","last_reported":1727813361,"current_range_meters":18000,"station_id":"ce4bhnp2rcd13ifvqgvg","pricing_plan_id":"cebpf4jnsgd1na2vs0mg"},{"bike_id":"69badff5-3bec-45c7-bed0-c11fe68bed44","system_id":"levelo_inurba_marseille","lat":43.29698,"lon":5.37695,"is_reserved":false,"is_disabled":false,"rental_uris":{"android":"levelo://app?vid=69badff5-3bec-45c7-bed0-c11fe68bed44","ios":"levelo://app?vid=69badff5-3bec-45c7-bed0-c11fe68bed44"},"vehicle_type_id":"4","last_reported":1727813361,"current_range_meters":35600,"station_id":"ce4bgkh2rcd13ifvqbl0","pricing_plan_id":"cebpf4jnsgd1na2vs0mg"},{"bike_id":"2f72d8b5-87e5-41ce-8bf5-2a01555553a2","system_id":"levelo_inurba_marseille","lat":43.27811,"lon":5.40714,"is_reserved":false,"is_disabled":false,"rental_uris":{"android":"levelo://app?vid=2f72d8b5-87e5-41ce-8bf5-2a01555553a2","ios":"levelo://app?vid=2f72d8b5-87e5-41ce-8bf5-2a01555553a2"},"vehicle_type_id":"4","last_reported":1727813361,"current_range_meters":30400,"station_id":"ce4bhnh2rcd13ifvqgtg","pricing_plan_id":"cebpf4jnsgd1na2vs0mg"},{"bike_id":"ec3735d9-6371-4b5b-97b4-ee64c302670f","system_id":"levelo_inurba_marseille","lat":43.31999,"lon":5.38153,"is_reserved":false,"is_disabled":false,"rental_uris":{"android":"levelo://app?vid=ec3735d9-6371-4b5b-97b4-ee64c302670f","ios":"levelo://app?vid=ec3735d9-6371-4b5b-97b4-ee64c302670f"},"vehicle_type_id":"4","last_reported":1727813361,"current_range_meters":38800,"station_id":"ce4bhr12rcd13ifvqhpg","pricing_plan_id":"cebpf4jnsgd1na2vs0mg"},{"bike_id":"56031aea-9627-4974-9856-b4f618a93914","system_id":"levelo_inurba_marseille","lat":43.31267,"lon":5.40175,"is_reserved":false,"is_disabled":false,"rental_uris":{"android":"levelo://app?vid=56031aea-9627-4974-9856-b4f618a93914","ios":"levelo://app?vid=56031aea-9627-4974-9856-b4f618a93914"},"vehicle_type_id":"4","last_reported":1727813361,"current_range_meters":17600,"station_id":"ce4bh092rcd13ifvqd30","pricing_plan_id":"cebpf4jnsgd1na2vs0mg"},{"bike_id":"70dd1a4b-d42f-4573-8423-f2febbefd25e","system_id":"levelo_inurba_marseille","lat":43.2481,"lon":5.37459,"is_reserved":false,"is_disabled":false,"rental_uris":{"android":"levelo://app?vid=70dd1a4b-d42f-4573-8423-f2febbefd25e","ios":"levelo://app?vid=70dd1a4b-d42f-4573-8423-f2febbefd25e"},"vehicle_type_id":"4","last_reported":1727813361,"current_range_meters":2000,"station_id":"ce4bhgh2rcd13ifvqfb0","pricing_plan_id":"cebpf4jnsgd1na2vs0mg"},{"bike_id":"3f370a2c-619a-4392-bd50-26df4bf68643","system_id":"levelo_inurba_marseille","lat":43.32337,"lon":5.40621,"is_reserved":false,"is_disabled":false,"rental_uris":{"android":"levelo://app?vid=3f370a2c-619a-4392-bd50-26df4bf68643","ios":"levelo://app?vid=3f370a2c-619a-4392-bd50-26df4bf68643"},"vehicle_type_id":"4","last_reported":1727813361,"current_range_meters":38800,"station_id":"ce4bhq92rcd13ifvqhjg","pricing_plan_id":"cebpf4jnsgd1na2vs0mg"},{"bike_id":"2a732f14-0218-4675-bd16-98ca17f56e89","system_id":"levelo_inurba_marseille","lat":43.30882,"lon":5.39662,"is_reserved":false,"is_disabled":false,"rental_uris":{"android":"levelo://app?vid=2a732f14-0218-4675-bd16-98ca17f56e89","ios":"levelo://app?vid=2a732f14-0218-4675-bd16-98ca17f56e89"},"vehicle_type_id":"4","last_reported":1727813361,"current_range_meters":10800,"station_id":"ce4bh012rcd13ifvqcv0","pricing_plan_id":"cebpf4jnsgd1na2vs0mg"},{"bike_id":"c3f3066c-0da5-4901-8606-3de813e05bc8","system_id":"levelo_inurba_marseille","lat":43.28616,"lon":5.351,"is_reserved":false,"is_disabled":false,"rental_uris":{"android":"levelo://app?vid=c3f3066c-0da5-4901-8606-3de813e05bc8","ios":"levelo://app?vid=c3f3066c-0da5-4901-8606-3de813e05bc8"},"vehicle_type_id":"4","last_reported":1727813361,"current_range_meters":32400,"station_id":"ce4bhch2rcd13ifvqeug","pricing_plan_id":"cebpf4jnsgd1na2vs0mg"},