{"last_updated":1706598391,"ttl":30,"version":"2.2","data":{"bikes":[{"bike_id":"1afdd66f-988c-4184-8be1-f13e7b075cec","system_id":"levelo_inurba_marseille","lat":43.313391,"lon":5.36706,"is_reserved":false,"is_disabled":false,"rental_uris":{"android":"levelo://app?vid=1afdd66f-988c-4184-8be1-f13e7b075cec","ios":"levelo://app?vid=1afdd66f-988c-4184-8be1-f13e7b075cec"},"vehicle_type_id":"4","last_reported":1706598391,"current_range_meters":7200,"station_id":"ce4bgr92rcd13ifvqc6g","pricing_plan_id":"free"},{"bike_id":"95b199af-ecff-403e-9f46-66a3f66fd144","system_id":"levelo_inurba_marseille","lat":43.313391,"lon":5.36706,"is_reserved":false,"is_disabled":false,"rental_uris":{"android":"levelo://app?vid=95b199af-ecff-403e-9f46-66a3f66fd144","ios":"levelo://app?vid=95b199af-ecff-403e-9f46-66a3f66fd144"},"vehicle_type_id":"4","last_reported":1706598391,"current_range_meters":18800,"station_id":"ce4bgr92rcd13ifvqc6g","pricing_plan_id":"free"},{"bike_id":"eee2d3f9-61b2-46bd-925e-e155a4427764","system_id":"levelo_inurba_marseille","lat":43.31341,"lon":5.367098,"is_reserved":false,"is_disabled":false,"rental_uris":{"android":"levelo://app?vid=eee2d3f9-61b2-46bd-925e-e155a4427764","ios":"levelo://app?vid=eee2d3f9-61b2-46bd-925e-e155a4427764"},"vehicle_type_id":"4","last_reported":1706598391,"current_range_meters":4000,"station_id":"ce4bgr92rcd13ifvqc6g","pricing_plan_id":"free"},{"bike_id":"9da288e9-9bca-45b6-b08b-c571aa3fdabe","system_id":"levelo_inurba_marseille","lat":43.313391,"lon":5.36706,"is_reserved":false,"is_disabled":false,"rental_uris":{"android":"levelo://app?vid=9da288e9-9bca-45b6-b08b-c571aa3fdabe","ios":"levelo://app?vid=9da288e9-9bca-45b6-b08b-c571aa3fdabe"},"vehicle_type_id":"4","last_reported":1706598391,"current_range_meters":30800,"station_id":"ce4bgr92rcd13ifvqc6g","pricing_plan_id":"free"},{"bike_id":"c59666fe-f143-4f0f-9943-a8fe23f2be9a","system_id":"levelo_inurba_marseille","lat":43.31341,"lon":5.367098,"is_reserved":false,"is_disabled":false,"rental_uris":{"android":"levelo://app?vid=c59666fe-f143-4f0f-9943-a8fe23f2be9a","ios":"levelo://app?vid=c59666fe-f143-4f0f-9943-a8fe23f2be9a"},"vehicle_type_id":"4","last_reported":1706598391,"current_range_meters":28400,"station_id":"ce4bgr92rcd13ifvqc6g","pricing_plan_id":"free"},{"bike_id":"ea33d891-5d89-44ae-bba7-cc0e7510c05d","system_id":"levelo_inurba_marseille","lat":43.31341,"lon":5.367098,"is_reserved":false,"is_disabled":false,"rental_uris":{"android":"levelo://app?vid=ea33d891-5d89-44ae-bba7-cc0e7510c05d","ios":"levelo://app?vid=ea33d891-5d89-44ae-bba7-cc0e7510c05d"},"vehicle_type_id":"4","last_reported":1706598391,"current_range_meters":1600,"station_id":"ce4bgr92rcd13ifvqc6g","pricing_plan_id":"free"},{"bike_id":"cf35238b-c5c9-4e91-809c-0620fb14c69f","system_id":"levelo_inurba_marseille","lat":43.313391,"lon":5.36706,"is_reserved":false,"is_disabled":false,"rental_uris":{"android":"levelo://app?vid=cf35238b-c5c9-4e91-809c-0620fb14c69f","ios":"levelo://app?vid=cf35238b-c5c9-4e91-809c-0620fb14c69f"},"vehicle_type_id":"4","last_reported":1706598391,"current_range_meters":30400,"station_id":"ce4bgr92rcd13ifvqc6g","pricing_plan_id":"free"},{"bike_id":"08588f9e-7e54-4150-8925-a1b10884594c","system_id":"levelo_inurba_marseille","lat":43.31237,"lon":5.36872,"is_reserved":false,"is_disabled":false,"rental_uris":{"android":"levelo://app?vid=08588f9e-7e54-4150-8925-a1b10884594c","ios":"levelo://app?vid=08588f9e-7e54-4150-8925-a1b10884594c"},"vehicle_type_id":"4","last_reported":1706598391,"current_range_meters":1600,"station_id":"ce4bgl92rcd13ifvqbq0","pricing_plan_id":"free"},{"bike_id":"c80df96a-1b11-431f-a439-bad16de45fd0","system_id":"levelo_inurba_marseille","lat":43.309076,"lon":5.368465,"is_reserved":false,"is_disabled":false,"rental_uris":{"android":"levelo://app?vid=c80df96a-1b11-431f-a439-bad16de45fd0","ios":"levelo://app?vid=c80df96a-1b11-431f-a439-bad16de45fd0"},"vehicle_type_id":"4","last_reported":1706598391,"current_range_meters":15200,"station_id":"ce4bgn92rcd13ifvqbvg","pricing_plan_id":"free"},{"bike_id":"292db35d-47e0-4e40-82d0-f0cf9be5959f","system_id":"levelo_inurba_marseille","lat":43.30888,"lon":5.37183,"is_reserved":false,"is_disabled":false,"rental_uris":{"android":"levelo://app?vid=292db35d-47e0-4e40-82d0-f0cf9be5959f","ios":"levelo://app?vid=292db35d-47e0-4e40-82d0-f0cf9be5959f"},"vehicle_type_id":"4","last_reported":1706598391,"current_range_meters":22400,"station_id":"ce4bguh2rcd13ifvqckg","pricing_plan_id":"free"},{"bike_id":"5e1a1747-dce8-4732-b4b7-bcac69ee2b64","system_id":"levelo_inurba_marseille","lat":43.309039,"lon":5.371797,"is_reserved":false,"is_disabled":false,"rental_uris":{"android":"levelo://app?vid=5e1a1747-dce8-4732-b4b7-bcac69ee2b64","ios":"levelo://app?vid=5e1a1747-dce8-4732-b4b7-bcac69ee2b64"},"vehicle_type_id":"4","last_reported":1706598391,"current_range_meters":24800,"station_id":"ce4bguh2rcd13ifvqckg","pricing_plan_id":"free"},{"bike_id":"c1b17949-4def-46c3-82c8-ec971a31237c","system_id":"levelo_inurba_marseille","lat":43.30638,"lon":5.36759,"is_reserved":false,"is_disabled":false,"rental_uris":{"android":"levelo://app?vid=c1b17949-4def-46c3-82c8-ec971a31237c","ios":"levelo://app?vid=c1b17949-4def-46c3-82c8-ec971a31237c"},"vehicle_type_id":"4","last_reported":1706598391,"current_range_meters":27200,"station_id":"","pricing_plan_id":"free"},{"bike_id":"71b309db-80da-416c-a1af-02d79ce49164","system_id":"levelo_inurba_marseille","lat":43.305706,"lon":5.365654,"is_reserved":false,"is_disabled":false,"rental_uris":{"android":"levelo://app?vid=71b309db-80da-416c-a1af-02d79ce49164","ios":"levelo://app?vid=71b309db-80da-416c-a1af-02d79ce49164"},"vehicle_type_id":"4","last_reported":1706598391,"current_range_meters":25600,"station_id":"ce4bgs12rcd13ifvqcag","pricing_plan_id":"free"},{"bike_id":"e00e5175-1051-4077-a942-94e8f5f903b6","system_id":"levelo_inurba_marseille","lat":43.305368,"lon":5.367343,"is_reserved":false,"is_disabled":false,"rental_uris":{"android":"levelo://app?vid=e00e5175-1051-4077-a942-94e8f5f903b6","ios":"levelo://app?vid=e00e5175-1051-4077-a942-94e8f5f903b6"},"vehicle_type_id":"4","last_reported":1706598391,"current_range_meters":14800,"station_id":"ce4bgrp2rcd13ifvqc9g","pricing_plan_id":"free"},{"bike_id":"2922fc37-4f6a-4723-9a4b-016c2aa35474","system_id":"levelo_inurba_marseille","lat":43.317075,"lon":5.377367,"is_reserved":false,"is_disabled":false,"rental_uris":{"android":"levelo://app?vid=2922fc37-4f6a-4723-9a4b-016c2aa35474","ios":"levelo://app?vid=2922fc37-4f6a-4723-9a4b-016c2aa35474"},"vehicle_type_id":"4","last_reported":1706598391,"current_range_meters":26800,"station_id":"ce4bgth2rcd13ifvqch0","pricing_plan_id":"free"},{"bike_id":"4ef46faa-453a-406f-a948-668058741b83","system_id":"levelo_inurba_marseille","lat":43.303046,"lon":5.368981,"is_reserved":false,"is_disabled":false,"rental_uris":{"android":"levelo://app?vid=4ef46faa-453a-406f-a948-668058741b83","ios":"levelo://app?vid=4ef46faa-453a-406f-a948-668058741b83"},"vehicle_type_id":"4","last_reported":1706598391,"current_range_meters":16400,"station_id":"ce4bgqh2rcd13ifvqc5g","pricing_plan_id":"free"},{"bike_id":"693dd325-4fe2-41bc-844c-852c29ed4780","system_id":"levelo_inurba_marseille","lat":43.30798,"lon":5.3814,"is_reserved":false,"is_disabled":false,"rental_uris":{"android":"levelo://app?vid=693dd325-4fe2-41bc-844c-852c29ed4780","ios":"levelo://app?vid=693dd325-4fe2-41bc-844c-852c29ed4780"},"vehicle_type_id":"4","last_reported":1706598391,"current_range_meters":9200,"station_id":"ce4bgt12rcd13ifvqce0","pricing_plan_id":"free"},{"bike_id":"356243fa-6b22-4533-9b83-1ce6ad52bebc","system_id":"levelo_inurba_marseille","lat":43.30477,"lon":5.379,"is_reserved":false,"is_disabled":false,"rental_uris":{"android":"levelo://app?vid=356243fa-6b22-4533-9b83-1ce6ad52bebc","ios":"levelo://app?vid=356243fa-6b22-4533-9b83-1ce6ad52bebc"},"vehicle_type_id":"4","last_reported":1706598391,"current_range_meters":22400,"station_id":"ce4bgup2rcd13ifvqcn0","pricing_plan_id":"free"},{"bike_id":"1d4411e5-490d-412d-ae13-b71232a6ac3b","system_id":"levelo_inurba_marseille","lat":43.30481,"lon":5.37916,"is_reserved":false,"is_disabled":false,"rental_uris":{"android":"levelo://app?vid=1d4411e5-490d-412d-ae13-b71232a6ac3b","ios":"levelo://app?vid=1d4411e5-490d-412d-ae13-b71232a6ac3b"},"vehicle_type_id":"4","last_reported":1706598391,"current_range_meters":31200,"station_id":"ce4bgup2rcd13ifvqcn0","pricing_plan_id":"free"},{"bike_id":"86608ca0-f4c9-4723-8878-82b9c9cf377d","system_id":"levelo_inurba_marseille","lat":43.304606,"lon":5.379026,"is_reserved":false,"is_disabled":false,"rental_uris":{"android":"levelo://app?vid=86608ca0-f4c9-4723-8878-82b9c9cf377d","ios":"levelo://app?vid=86608ca0-f4c9-4723-8878-82b9c9cf377d"},"vehicle_type_id":"4","last_reported":1706598391,"current_range_meters":25600,"station_id":"ce4bgup2rcd13ifvqcn0","pricing_plan_id":"free"},{"bike_id":"32b2b547-116b-45ca-85cf-22d9f58ee6d0","system_id":"levelo_inurba_marseille","lat":43.30473,"lon":5.37908,"is_reserved":false,"is_disabled":false,"rental_uris":{"android":"levelo://app?vid=32b2b547-116b-45ca-85cf-22d9f58ee6d0","ios":"levelo://app?vid=32b2b547-116b-45ca-85cf-22d9f58ee6d0"},"vehicle_type_id":"4","last_reported":1706598391,"current_range_meters":27200,"station_id":"ce4bgup2rcd13ifvqcn0","pricing_plan_id":"free"},{"bike_id":"dd323140-ec8c-4f06-9326-b47aa150a4f5","system_id":"levelo_inurba_marseille","lat":43.30472,"lon":5.37909,"is_reserved":false,"is_disabled":false,"rental_uris":{"android":"levelo://app?vid=dd323140-ec8c-4f06-9326-b47aa150a4f5","ios":"levelo://app?vid=dd323140-ec8c-4f06-9326-b47aa150a4f5"},"vehicle_type_id":"4","last_reported":1706598391,"current_range_meters":29200,"station_id":"ce4bgup2rcd13ifvqcn0","pricing_plan_id":"free"},{"bike_id":"1a69a175-0da8-48c6-a7e4-87eb457f1043","system_id":"levelo_inurba_marseille","lat":43.304606,"lon":5.379026,"is_reserved":false,"is_disabled":false,"rental_uris":{"android":"levelo://app?vid=1a69a175-0da8-48c6-a7e4-87eb457f1043","ios":"levelo://app?vid=1a69a175-0da8-48c6-a7e4-87eb457f1043"},"vehicle_type_id":"4","last_reported":1706598391,"current_range_meters":23600,"station_id":"ce4bgup2rcd13ifvqcn0","pricing_plan_id":"free"},{"bike_id":"40df83dd-a3bf-4859-abc2-00249869688d","system_id":"levelo_inurba_marseille","lat":43.3046,"lon":5.37897,"is_reserved":false,"is_disabled":false,"rental_uris":{"android":"levelo://app?vid=40df83dd-a3bf-4859-abc2-00249869688d","ios":"levelo://app?vid=40df83dd-a3bf-4859-abc2-00249869688d"},"vehicle_type_id":"4","last_reported":1706598391,"current_range_meters":14800,"station_id":"ce4bgup2rcd13ifvqcn0","pricing_plan_id":"free"},{"bike_id":"1fe81d62-f552-475c-bfca-e0e1412f0abd","system_id":"levelo_inurba_marseille","lat":43.3046,"lon":5.37898,"is_reserved":false,"is_disabled":false,"rental_uris":{"android":"levelo://app?vid=1fe81d62-f552-475c-bfca-e0e1412f0abd","ios":"levelo://app?vid=1fe81d62-f552-475c-bfca-e0e1412f0abd"},"vehicle_type_id":"4","last_reported":1706598391,"current_range_meters":6000,"station_id":"ce4bgup2rcd13ifvqcn0","pricing_plan_id":"free"},{"bike_id":"3cfd7528-cc90-4084-8853-206e9fe0b672","system_id":"levelo_inurba_marseille","lat":43.304606,"lon":5.379026,"is_reserved":false,"is_disabled":false,"rental_uris":{"android":"levelo://app?vid=3cfd7528-cc90-4084-8853-206e9fe0b672","ios":"levelo://app?vid=3cfd7528-cc90-4084-8853-206e9fe0b672"},"vehicle_type_id":"4","last_reported":1706598391,"current_range_meters":2000,"station_id":"ce4bgup2rcd13ifvqcn0","pricing_plan_id":"free"},{"bike_id":"88c25e20-0586-40e3-9f2e-62dd512c2eb5","system_id":"levelo_inurba_marseille","lat":43.304606,"lon":5.379026,"is_reserved":false,"is_disabled":false,"rental_uris":{"android":"levelo://app?vid=88c25e20-0586-40e3-9f2e-62dd512c2eb5","ios":"levelo://app?vid=88c25e20-0586-40e3-9f2e-62dd512c2eb5"},"vehicle_type_id":"4","last_reported":1706598391,"current_range_meters":11200,"station_id":"ce4bgup2rcd13ifvqcn0","pricing_plan_id":"free"},{"bike_id":"fa63d69a-bc87-4f4f-8712-71569835a74e","system_id":"levelo_inurba_marseille","lat":43.30459,"lon":5.37898,"is_reserved":false,"is_disabled":false,"rental_uris":{"android":"levelo://app?vid=fa63d69a-bc87-4f4f-8712-71569835a74e","ios":"levelo://app?vid=fa63d69a-bc87-4f4f-8712-71569835a74e"},"vehicle_type_id":"4","last_reported":1706598391,"current_range_meters":18800,"station_id":"ce4bgup2rcd13ifvqcn0","pricing_plan_id":"free"},{"bike_id":"f32aadba-d4a5-43db-8421-98edaa55e5e6","system_id":"levelo_inurba_marseille","lat":43.30458,"lon":5.37897,"is_reserved":false,"is_disabled":false,"rental_uris":{"android":"levelo://app?vid=f32aadba-d4a5-43db-8421-98edaa55e5e6","ios":"levelo://app?vid=f32aadba-d4a5-43db-8421-98edaa55e5e6"},"vehicle_type_id":"4","last_reported":1706598391,"current_range_meters":3200,"station_id":"ce4bgup2rcd13ifvqcn0","pricing_plan_id":"free"},{"bike_id":"4c572011-23fd-45e4-bc3e-f19b998aad73","system_id":"levelo_inurba_marseille","lat":43.30458,"lon":5.37897,"is_reserved":false,"is_disabled":false,"rental_uris":{"android":"levelo://app?vid=4c572011-23fd-45e4-bc3e-f19b998aad73","ios":"levelo://app?vid=4c572011-23fd-45e4-bc3e-f19b998aad73"},"vehicle_type_id":"4","last_reported":1706598391,"current_range_meters":6800,"station_id":"ce4bgup2rcd13ifvqcn0","pricing_plan_id":"free"},{"bike_id":"cb81d899-2ad9-4876-ae6c-079745318c8e","system_id":"levelo_inurba_marseille","lat":43.304606,"lon":5.379026,"is_reserved":false,"is_disabled":false,"rental_uris":{"android":"levelo://app?vid=cb81d899-2ad9-4876-ae6c-079745318c8e","ios":"levelo://app?vid=cb81d899-2ad9-4876-ae6c-079745318c8e"},"vehicle_type_id":"4","last_reported":1706598391,"current_range_meters":14400,"station_id":"ce4bgup2rcd13ifvqcn0","pricing_plan_id":"free"},{"bike_id":"4e3a2677-5b85-4f9d-bab4-7897196cb223","system_id":"levelo_inurba_marseille","lat":43.30461,"lon":5.37902,"is_reserved":false,"is_disabled":false,"rental_uris":{"android":"levelo://app?vid=4e3a2677-5b85-4f9d-bab4-7897196cb223","ios":"levelo://app?vid=4e3a2677-5b85-4f9d-bab4-7897196cb223"},"vehicle_type_id":"4","last_reported":1706598391,"current_range_meters":20800,"station_id":"ce4bgup2rcd13ifvqcn0","pricing_plan_id":"free"},{"bike_id":"82b09fbe-c173-4989-aa18-ce02d981e861","system_id":"levelo_inurba_marseille","lat":43.30461,"lon":5.37907,"is_reserved":false,"is_disabled":false,"rental_uris":{"android":"levelo://app?vid=82b09fbe-c173-4989-aa18-ce02d981e861","ios":"levelo://app?vid=82b09fbe-c173-4989-aa18-ce02d981e861"},"vehicle_type_id":"4","last_reported":1706598391,"current_range_meters":22400,"station_id":"ce4bgup2rcd13ifvqcn0","pricing_plan_id":"free"},{"bike_id":"41a2f018-69ed-41b9-8d08-0b2e99d6326e","system_id":"levelo_inurba_marseille","lat":43.304606,"lon":5.379026,"is_reserved":false,"is_disabled":false,"rental_uris":{"android":"levelo://app?vid=41a2f018-69ed-41b9-8d08-0b2e99d6326e","ios":"levelo://app?vid=41a2f018-69ed-41b9-8d08-0b2e99d6326e"},"vehicle_type_id":"4","last_reported":1706598391,"current_range_meters":25200,"station_id":"ce4bgup2rcd13ifvqcn0","pricing_plan_id":"free"},{"bike_id":"2f73183d-ba65-44fd-9493-da067d56fbd1","system_id":"levelo_inurba_marseille","lat":43.304606,"lon":5.379026,"is_reserved":false,"is_disabled":false,"rental_uris":{"android":"levelo://app?vid=2f73183d-ba65-44fd-9493-da067d56fbd1","ios":"levelo://app?vid=2f73183d-ba65-44fd-9493-da067d56fbd1"},"vehicle_type_id":"4","last_reported":1706598391,"current_range_meters":27200,"station_id":"ce4bgup2rcd13ifvqcn0","pricing_plan_id":"free"},{"bike_id":"fbdd8818-18df-4e80-8577-72ea893d0af3","system_id":"levelo_inurba_marseille","lat":43.30462,"lon":5.37912,"is_reserved":false,"is_disabled":false,"rental_uris":{"android":"levelo://app?vid=fbdd8818-18df-4e80-8577-72ea893d0af3","ios":"levelo://app?vid=fbdd8818-18df-4e80-8577-72ea893d0af3"},"vehicle_type_id":"4","last_reported":1706598391,"current_range_meters":19200,"station_id":"ce4bgup2rcd13ifvqcn0","pricing_plan_id":"free"},{"bike_id":"dc00bdf8-dc57-4b02-8d44-8ea4906debe3","system_id":"levelo_inurba_marseille","lat":43.324771,"lon":5.36557,"is_reserved":false,"is_disabled":false,"rental_uris":{"android":"levelo://app?vid=dc00bdf8-dc57-4b02-8d44-8ea4906debe3","ios":"levelo://app?vid=dc00bdf8-dc57-4b02-8d44-8ea4906debe3"},"vehicle_type_id":"4","last_reported":1706598391,"current_range_meters":10000,"station_id":"ce4bhs12rcd13ifvqhvg","pricing_plan_id":"free"},{"bike_id":"96bada0b-1fa9-4706-87e9-8f67e261e440","system_id":"levelo_inurba_marseille","lat":43.324771,"lon":5.36557,"is_reserved":false,"is_disabled":false,"rental_uris":{"android":"levelo://app?vid=96bada0b-1fa9-4706-87e9-8f67e261e440","ios":"levelo://app?vid=96bada0b-1fa9-4706-87e9-8f67e261e440"},"vehicle_type_id":"4","last_reported":1706598391,"current_range_meters":22000,"station_id":"ce4bhs12rcd13ifvqhvg","pricing_plan_id":"free"},{"bike_id":"07a08164-8f4d-4dc7-b0d9-68359e3a62e5","system_id":"levelo_inurba_marseille","lat":43.304606,"lon":5.379026,"is_reserved":false,"is_disabled":false,"rental_uris":{"android":"levelo://app?vid=07a08164-8f4d-4dc7-b0d9-68359e3a62e5","ios":"levelo://app?vid=07a08164-8f4d-4dc7-b0d9-68359e3a62e5"},"vehicle_type_id":"4","last_reported":1706598391,"current_range_meters":23600,"station_id":"ce4bgup2rcd13ifvqcn0","pricing_plan_id":"free"},{"bike_id":"2d40c143-6cb5-4df6-a200-396289dcd0f5","system_id":"levelo_inurba_marseille","lat":43.324771,"lon":5.36557,"is_reserved":false,"is_disabled":false,"rental_uris":{"android":"levelo://app?vid=2d40c143-6cb5-4df6-a200-396289dcd0f5","ios":"levelo://app?vid=2d40c143-6cb5-4df6-a200-396289dcd0f5"},"vehicle_type_id":"4","last_reported":1706598391,"current_range_meters":31200,"station_id":"ce4bhs12rcd13ifvqhvg","pricing_plan_id":"free"},{"bike_id":"4c1d912b-8425-4b28-bcd4-0691a1724560","system_id":"levelo_inurba_marseille","lat":43.324801,"lon":5.365758,"is_reserved":false,"is_disabled":false,"rental_uris":{"android":"levelo://app?vid=4c1d912b-8425-4b28-bcd4-0691a1724560","ios":"levelo://app?vid=4c1d912b-8425-4b28-bcd4-0691a1724560"},"vehicle_type_id":"4","last_reported":1706598391,"current_range_meters":25200,"station_id":"ce4bhs12rcd13ifvqhvg","pricing_plan_id":"free"},{"bike_id":"09163a17-bfae-45fe-9c74-7b7247d6a11c","system_id":"levelo_inurba_marseille","lat":43.324771,"lon":5.36557,"is_reserved":false,"is_disabled":false,"rental_uris":{"android":"levelo://app?vid=09163a17-bfae-45fe-9c74-7b7247d6a11c","ios":"levelo://app?vid=09163a17-bfae-45fe-9c74-7b7247d6a11c"},"vehicle_type_id":"4","last_reported":1706598391,"current_range_meters":10800,"station_id":"ce4bhs12rcd13ifvqhvg","pricing_plan_id":"free"},{"bike_id":"398f7e37-ef27-409f-a67e-3f607f150550","system_id":"levelo_inurba_marseille","lat":43.302784,"lon":5.377158,"is_reserved":false,"is_disabled":false,"rental_uris":{"android":"levelo://app?vid=398f7e37-ef27-409f-a67e-3f607f150550","ios":"levelo://app?vid=398f7e37-ef27-409f-a67e-3f607f150550"},"vehicle_type_id":"4","last_reported":1706598391,"current_range_meters":4400,"station_id":"ce4bguh2rcd13ifvqcj0","pricing_plan_id":"free"},{"bike_id":"5df5cb9f-ff47-4be9-86d2-536380c940b0","system_id":"levelo_inurba_marseille","lat":43.302784,"lon":5.377158,"is_reserved":false,"is_disabled":false,"rental_uris":{"android":"levelo://app?vid=5df5cb9f-ff47-4be9-86d2-536380c940b0","ios":"levelo://app?vid=5df5cb9f-ff47-4be9-86d2-536380c940b0"},"vehicle_type_id":"4","last_reported":1706598391,"current_range_meters":13600,"station_id":"ce4bguh2rcd13ifvqcj0","pricing_plan_id":"free"},{"bike_id":"f08dc9f1-a741-477c-a31d-235ff0618375","system_id":"levelo_inurba_marseille","lat":43.301429,"lon":5.37413,"is_reserved":false,"is_disabled":false,"rental_uris":{"android":"levelo://app?vid=f08dc9f1-a741-477c-a31d-235ff0618375","ios":"levelo://app?vid=f08dc9f1-a741-477c-a31d-235ff0618375"},"vehicle_type_id":"4","last_reported":1706598391,"current_range_meters":24400,"station_id":"ce4bgs92rcd13ifvqcc0","pricing_plan_id":"free"},{"bike_id":"8de982b2-8570-44af-9f2f-b269641b257b","system_id":"levelo_inurba_marseille","lat":43.30138,"lon":5.37422,"is_reserved":false,"is_disabled":false,"rental_uris":{"android":"levelo://app?vid=8de982b2-8570-44af-9f2f-b269641b257b","ios":"levelo://app?vid=8de982b2-8570-44af-9f2f-b269641b257b"},"vehicle_type_id":"4","last_reported":1706598391,"current_range_meters":22800,"station_id":"ce4bgs92rcd13ifvqcc0","pricing_plan_id":"free"},{"bike_id":"a6345780-30db-47f2-acfb-6adc1facc2d6","system_id":"levelo_inurba_marseille","lat":43.319935,"lon":5.381699,"is_reserved":false,"is_disabled":false,"rental_uris":{"android":"levelo://app?vid=a6345780-30db-47f2-acfb-6adc1facc2d6","ios":"levelo://app?vid=a6345780-30db-47f2-acfb-6adc1facc2d6"},"vehicle_type_id":"4","last_reported":1706598391,"current_range_meters":0,"station_id":"ce4bhr12rcd13ifvqhpg","pricing_plan_id":"free"},{"bike_id":"0ca84510-6630-47d1-867a-145dbc99d2a1","system_id":"levelo_inurba_marseille","lat":43.319935,"lon":5.381699,"is_reserved":false,"is_disabled":false,"rental_uris":{"android":"levelo://app?vid=0ca84510-6630-47d1-867a-145dbc99d2a1","ios":"levelo://app?vid=0ca84510-6630-47d1-867a-145dbc99d2a1"},"vehicle_type_id":"4","last_reported":1706598391,"current_range_meters":18800,"station_id":"ce4bhr12rcd13ifvqhpg","pricing_plan_id":"free"},{"bike_id":"dd6b7008-c30f-4316-8921-b5028f9d3f38","system_id":"levelo_inurba_marseille","lat":43.319935,"lon":5.381699,"is_reserved":false,"is_disabled":false,"rental_uris":{"android":"levelo://app?vid=dd6b7008-c30f-4316-8921-b5028f9d3f38","ios":"levelo://app?vid=dd6b7008-c30f-4316-8921-b5028f9d3f38"},"vehicle_type_id":"4","last_reported":1706598391,"current_range_meters":18800,"station_id":"ce4bhr12rcd13ifvqhpg","pricing_plan_id":"free"},{"bike_id":"bb929bd9-481f-47ef-b3a2-06363540c0cc","system_id":"levelo_inurba_marseille","lat":43.319935,"lon":5.381699,"is_reserved":false,"is_disabled":false,"rental_uris":{"android":"levelo://app?vid=bb929bd9-481f-47ef-b3a2-06363540c0cc","ios":"levelo://app?vid=bb929bd9-481f-47ef-b3a2-06363540c0cc"},"vehicle_type_id":"4","last_reported":1706598391,"current_range_meters":3200,"station_id":"ce4bhr12rcd13ifvqhpg","pricing_plan_id":"free"},{"bike_id":"62359dd4-e5a2-43d3-8c03-a9073c8bb30e","system_id":"levelo_inurba_marseille","lat":43.314811,"lon":5.373103,"is_reserved":false,"is_disabled":false,"rental_uris":{"android":"levelo://app?vid=62359dd4-e5a2-43d3-8c03-a9073c8bb30e","ios":"levelo://app?vid=62359dd4-e5a2-43d3-8c03-a9073c8bb30e"},"vehicle_type_id":"4","last_reported":1706598391,"current_range_meters":15200,"station_id":"ce4bgt12rcd13ifvqcd0","pricing_plan_id":"free"},{"bike_id":"a4fd5860-f2cd-4d58-a5bd-a8f7faea28f9","system_id":"levelo_inurba_marseille","lat":43.313571,"lon":5.384829,"is_reserved":false,"is_disabled":false,"rental_uris":{"android":"levelo://app?vid=a4fd5860-f2cd-4d58-a5bd-a8f7faea28f9","ios":"levelo://app?vid=a4fd5860-f2cd-4d58-a5bd-a8f7faea28f9"},"vehicle_type_id":"4","last_reported":1706598391,"current_range_meters":29200,"station_id":"ce4bgt92rcd13ifvqcf0","pricing_plan_id":"free"},{"bike_id":"6a2c7dc3-bbee-40a0-b9d4-78dbdcc0794e","system_id":"levelo_inurba_marseille","lat":43.298433,"lon":5.362774,"is_reserved":false,"is_disabled":false,"rental_uris":{"android":"levelo://app?vid=6a2c7dc3-bbee-40a0-b9d4-78dbdcc0794e","ios":"levelo://app?vid=6a2c7dc3-bbee-40a0-b9d4-78dbdcc0794e"},"vehicle_type_id":"4","last_reported":1706598391,"current_range_meters":2400,"station_id":"ce4bgpp2rcd13ifvqc3g","pricing_plan_id":"free"},{"bike_id":"1c4f17c2-7dc1-4035-8c79-74ccc3f2b2e3","system_id":"levelo_inurba_marseille","lat":43.326185,"lon":5.374948,"is_reserved":false,"is_disabled":false,"rental_uris":{"android":"levelo://app?vid=1c4f17c2-7dc1-4035-8c79-74ccc3f2b2e3","ios":"levelo://app?vid=1c4f17c2-7dc1-4035-8c79-74ccc3f2b2e3"},"vehicle_type_id":"4","last_reported":1706598391,"current_range_meters":22800,"station_id":"","pricing_plan_id":"free"},{"bike_id":"ae9f63d7-3182-4a2b-a223-d98a3b2a7115","system_id":"levelo_inurba_marseille","lat":43.31174,"lon":5.38703,"is_reserved":false,"is_disabled":false,"rental_uris":{"android":"levelo://app?vid=ae9f63d7-3182-4a2b-a223-d98a3b2a7115","ios":"levelo://app?vid=ae9f63d7-3182-4a2b-a223-d98a3b2a7115"},"vehicle_type_id":"4","last_reported":1706598391,"current_range_meters":30800,"station_id":"ce4bgv12rcd13ifvqcp0","pricing_plan_id":"free"},{"bike_id":"df11eeb6-727a-4204-b988-02195d601c2d","system_id":"levelo_inurba_marseille","lat":43.299243,"lon":5.37481,"is_reserved":false,"is_disabled":false,"rental_uris":{"android":"levelo://app?vid=df11eeb6-727a-4204-b988-02195d601c2d","ios":"levelo://app?vid=df11eeb6-727a-4204-b988-02195d601c2d"},"vehicle_type_id":"4","last_reported":1706598391,"current_range_meters":4000,"station_id":"ce4bgjh2rcd13ifvqbg0","pricing_plan_id":"free"},{"bike_id":"bf6d7d92-c6fb-483b-962e-c72bfff71072","system_id":"levelo_inurba_marseille","lat":43.311688,"lon":5.387053,"is_reserved":false,"is_disabled":false,"rental_uris":{"android":"levelo://app?vid=bf6d7d92-c6fb-483b-962e-c72bfff71072","ios":"levelo://app?vid=bf6d7d92-c6fb-483b-962e-c72bfff71072"},"vehicle_type_id":"4","last_reported":1706598391,"current_range_meters":14800,"station_id":"ce4bgv12rcd13ifvqcp0","pricing_plan_id":"free"},{"bike_id":"ecc16a4e-aa68-43b2-a249-41326e74d1fd","system_id":"levelo_inurba_marseille","lat":43.311722,"lon":5.387247,"is_reserved":false,"is_disabled":false,"rental_uris":{"android":"levelo://app?vid=ecc16a4e-aa68-43b2-a249-41326e74d1fd","ios":"levelo://app?vid=ecc16a4e-aa68-43b2-a249-41326e74d1fd"},"vehicle_type_id":"4","last_reported":1706598391,"current_range_meters":29200,"station_id":"ce4bgv12rcd13ifvqcp0","pricing_plan_id":"free"},{"bike_id":"52c0ddbb-c50b-44be-820a-25591618067a","system_id":"levelo_inurba_marseille","lat":43.31174,"lon":5.38708,"is_reserved":false,"is_disabled":false,"rental_uris":{"android":"levelo://app?vid=52c0ddbb-c50b-44be-820a-25591618067a","ios":"levelo://app?vid=52c0ddbb-c50b-44be-820a-25591618067a"},"vehicle_type_id":"4","last_reported":1706598391,"current_range_meters":30400,"station_id":"ce4bgv12rcd13ifvqcp0","pricing_plan_id":"free"},{"bike_id":"11276585-f17b-4b0c-9778-7880d29226f1","system_id":"levelo_inurba_marseille","lat":43.31173,"lon":5.38711,"is_reserved":false,"is_disabled":false,"rental_uris":{"android":"levelo://app?vid=11276585-f17b-4b0c-9778-7880d29226f1","ios":"levelo://app?vid=11276585-f17b-4b0c-9778-7880d29226f1"},"vehicle_type_id":"4","last_reported":1706598391,"current_range_meters":22000,"station_id":"ce4bgv12rcd13ifvqcp0","pricing_plan_id":"free"},{"bike_id":"c6ff092b-a425-4ae0-ac57-af350205ec9a","system_id":"levelo_inurba_marseille","lat":43.299243,"lon":5.374807,"is_reserved":false,"is_disabled":false,"rental_uris":{"android":"levelo://app?vid=c6ff092b-a425-4ae0-ac57-af350205ec9a","ios":"levelo://app?vid=c6ff092b-a425-4ae0-ac57-af350205ec9a"},"vehicle_type_id":"4","last_reported":1706598391,"current_range_meters":12800,"station_id":"ce4bgjh2rcd13ifvqbg0","pricing_plan_id":"free"},{"bike_id":"c79526af-8e65-42dc-8ce5-3299e59dd4f5","system_id":"levelo_inurba_marseille","lat":43.31169,"lon":5.38713,"is_reserved":false,"is_disabled":false,"rental_uris":{"android":"levelo://app?vid=c79526af-8e65-42dc-8ce5-3299e59dd4f5","ios":"levelo://app?vid=c79526af-8e65-42dc-8ce5-3299e59dd4f5"},"vehicle_type_id":"4","last_reported":1706598391,"current_range_meters":0,"station_id":"ce4bgv12rcd13ifvqcp0","pricing_plan_id":"free"},{"bike_id":"bbfd2fe8-5ab8-4046-a597-96677d792067","system_id":"levelo_inurba_marseille","lat":43.311696,"lon":5.387168,"is_reserved":false,"is_disabled":false,"rental_uris":{"android":"levelo://app?vid=bbfd2fe8-5ab8-4046-a597-96677d792067","ios":"levelo://app?vid=bbfd2fe8-5ab8-4046-a597-96677d792067"},"vehicle_type_id":"4","last_reported":1706598391,"current_range_meters":28800,"station_id":"ce4bgv12rcd13ifvqcp0","pricing_plan_id":"free"},{"bike_id":"4c76a369-40e2-427c-bdd2-4ff8a4634e1e","system_id":"levelo_inurba_marseille","lat":43.322872,"lon":5.382756,"is_reserved":false,"is_disabled":false,"rental_uris":{"android":"levelo://app?vid=4c76a369-40e2-427c-bdd2-4ff8a4634e1e","ios":"levelo://app?vid=4c76a369-40e2-427c-bdd2-4ff8a4634e1e"},"vehicle_type_id":"4","last_reported":1706598391,"current_range_meters":27600,"station_id":"ce4bhr12rcd13ifvqhqg","pricing_plan_id":"free"},{"bike_id":"bc8ddf43-c9d9-49a9-b28c-9131ed02accd","system_id":"levelo_inurba_marseille","lat":43.297794,"lon":5.370888,"is_reserved":false,"is_disabled":false,"rental_uris":{"android":"levelo://app?vid=bc8ddf43-c9d9-49a9-b28c-9131ed02accd","ios":"levelo://app?vid=bc8ddf43-c9d9-49a9-b28c-9131ed02accd"},"vehicle_type_id":"4","last_reported":1706598391,"current_range_meters":21200,"station_id":"ce4bgop2rcd13ifvqc1g","pricing_plan_id":"free"},{"bike_id":"e2921b21-d590-462e-8a8c-af54cfda619c","system_id":"levelo_inurba_marseille","lat":43.328371,"lon":5.366909,"is_reserved":false,"is_disabled":false,"rental_uris":{"android":"levelo://app?vid=e2921b21-d590-462e-8a8c-af54cfda619c","ios":"levelo://app?vid=e2921b21-d590-462e-8a8c-af54cfda619c"},"vehicle_type_id":"4","last_reported":1706598391,"current_range_meters":20800,"station_id":"ce4bhs92rcd13ifvqi0g","pricing_plan_id":"free"},{"bike_id":"5e0d7018-715e-4087-a2d6-cfa7ba43c5e5","system_id":"levelo_inurba_marseille","lat":43.328277,"lon":5.366802,"is_reserved":false,"is_disabled":false,"rental_uris":{"android":"levelo://app?vid=5e0d7018-715e-4087-a2d6-cfa7ba43c5e5","ios":"levelo://app?vid=5e0d7018-715e-4087-a2d6-cfa7ba43c5e5"},"vehicle_type_id":"4","last_reported":1706598391,"current_range_meters":19200,"station_id":"ce4bhs92rcd13ifvqi0g","pricing_plan_id":"free"},{"bike_id":"67ea5a98-f7d6-42b7-9788-c86c2ccf6b98","system_id":"levelo_inurba_marseille","lat":43.32828,"lon":5.3667,"is_reserved":false,"is_disabled":false,"rental_uris":{"android":"levelo://app?vid=67ea5a98-f7d6-42b7-9788-c86c2ccf6b98","ios":"levelo://app?vid=67ea5a98-f7d6-42b7-9788-c86c2ccf6b98"},"vehicle_type_id":"4","last_reported":1706598391,"current_range_meters":0,"station_id":"ce4bhs92rcd13ifvqi0g","pricing_plan_id":"free"},{"bike_id":"92589973-d956-4826-a1e1-8b958e0b4b1a","system_id":"levelo_inurba_marseille","lat":43.3283,"lon":5.36679,"is_reserved":false,"is_disabled":false,"rental_uris":{"android":"levelo://app?vid=92589973-d956-4826-a1e1-8b958e0b4b1a","ios":"levelo://app?vid=92589973-d956-4826-a1e1-8b958e0b4b1a"},"vehicle_type_id":"4","last_reported":1706598391,"current_range_meters":1200,"station_id":"ce4bhs92rcd13ifvqi0g","pricing_plan_id":"free"},{"bike_id":"1c6cfd5b-de44-40bb-8541-1084aaefec0f","system_id":"levelo_inurba_marseille","lat":43.297163,"lon":5.365866,"is_reserved":false,"is_disabled":false,"rental_uris":{"android":"levelo://app?vid=1c6cfd5b-de44-40bb-8541-1084aaefec0f","ios":"levelo://app?vid=1c6cfd5b-de44-40bb-8541-1084aaefec0f"},"vehicle_type_id":"4","last_reported":1706598391,"current_range_meters":2400,"station_id":"ce4bgn12rcd13ifvqbt0","pricing_plan_id":"free"},{"bike_id":"2d2853f4-e3fa-4256-bcf4-6f4f1ea65929","system_id":"levelo_inurba_marseille","lat":43.297794,"lon":5.370888,"is_reserved":false,"is_disabled":false,"rental_uris":{"android":"levelo://app?vid=2d2853f4-e3fa-4256-bcf4-6f4f1ea65929","ios":"levelo://app?vid=2d2853f4-e3fa-4256-bcf4-6f4f1ea65929"},"vehicle_type_id":"4","last_reported":1706598391,"current_range_meters":25600,"station_id":"ce4bgop2rcd13ifvqc1g","pricing_plan_id":"free"},{"bike_id":"f5b960c2-0e81-44a8-a62e-26fac85ba124","system_id":"levelo_inurba_marseille","lat":43.2968,"lon":5.37291,"is_reserved":false,"is_disabled":false,"rental_uris":{"android":"levelo://app?vid=f5b960c2-0e81-44a8-a62e-26fac85ba124","ios":"levelo://app?vid=f5b960c2-0e81-44a8-a62e-26fac85ba124"},"vehicle_type_id":"4","last_reported":1706598391,"current_range_meters":27600,"station_id":"ce4bgk12rcd13ifvqbj0","pricing_plan_id":"free"},{"bike_id":"d30a24d2-3990-45e7-9c35-a4e4f1183fc8","system_id":"levelo_inurba_marseille","lat":43.299028,"lon":5.381509,"is_reserved":false,"is_disabled":false,"rental_uris":{"android":"levelo://app?vid=d30a24d2-3990-45e7-9c35-a4e4f1183fc8","ios":"levelo://app?vid=d30a24d2-3990-45e7-9c35-a4e4f1183fc8"},"vehicle_type_id":"4","last_reported":1706598391,"current_range_meters":22000,"station_id":"ce4bgj12rcd13ifvqbc0","pricing_plan_id":"free"},{"bike_id":"91775a1f-804e-4b48-8d7a-7ff2a3032ca0","system_id":"levelo_inurba_marseille","lat":43.299028,"lon":5.381509,"is_reserved":false,"is_disabled":false,"rental_uris":{"android":"levelo://app?vid=91775a1f-804e-4b48-8d7a-7ff2a3032ca0","ios":"levelo://app?vid=91775a1f-804e-4b48-8d7a-7ff2a3032ca0"},"vehicle_type_id":"4","last_reported":1706598391,"current_range_meters":21600,"station_id":"ce4bgj12rcd13ifvqbc0","pricing_plan_id":"free"},{"bike_id":"c0c6cf13-329d-42ab-a585-7c3ef3d3f929","system_id":"levelo_inurba_marseille","lat":43.298037,"lon":5.381066,"is_reserved":false,"is_disabled":false,"rental_uris":{"android":"levelo://app?vid=c0c6cf13-329d-42ab-a585-7c3ef3d3f929","ios":"levelo://app?vid=c0c6cf13-329d-42ab-a585-7c3ef3d3f929"},"vehicle_type_id":"4","last_reported":1706598391,"current_range_meters":4400,"station_id":"ce4bgip2rcd13ifvqbb0","pricing_plan_id":"free"},{"bike_id":"c9c72e52-d6f9-460b-91e1-5e238ea30bb1","system_id":"levelo_inurba_marseille","lat":43.298037,"lon":5.381066,"is_reserved":false,"is_disabled":false,"rental_uris":{"android":"levelo://app?vid=c9c72e52-d6f9-460b-91e1-5e238ea30bb1","ios":"levelo://app?vid=c9c72e52-d6f9-460b-91e1-5e238ea30bb1"},"vehicle_type_id":"4","last_reported":1706598391,"current_range_meters":2400,"station_id":"ce4bgip2rcd13ifvqbb0","pricing_plan_id":"free"},{"bike_id":"42f5f3f4-a910-48a7-a446-12579c2940e8","system_id":"levelo_inurba_marseille","lat":43.298037,"lon":5.381066,"is_reserved":false,"is_disabled":false,"rental_uris":{"android":"levelo://app?vid=42f5f3f4-a910-48a7-a446-12579c2940e8","ios":"levelo://app?vid=42f5f3f4-a910-48a7-a446-12579c2940e8"},"vehicle_type_id":"4","last_reported":1706598391,"current_range_meters":24800,"station_id":"ce4bgip2rcd13ifvqbb0","pricing_plan_id":"free"},{"bike_id":"555bcae6-20df-4b34-8b4f-23cc20fede91","system_id":"levelo_inurba_marseille","lat":43.298037,"lon":5.381066,"is_reserved":false,"is_disabled":false,"rental_uris":{"android":"levelo://app?vid=555bcae6-20df-4b34-8b4f-23cc20fede91","ios":"levelo://app?vid=555bcae6-20df-4b34-8b4f-23cc20fede91"},"vehicle_type_id":"4","last_reported":1706598391,"current_range_meters":31200,"station_id":"ce4bgip2rcd13ifvqbb0","pricing_plan_id":"free"},{"bike_id":"28a186fd-2676-47c7-8d04-b9e8ef5e4f8e","system_id":"levelo_inurba_marseille","lat":43.295748,"lon":5.37522,"is_reserved":false,"is_disabled":false,"rental_uris":{"android":"levelo://app?vid=28a186fd-2676-47c7-8d04-b9e8ef5e4f8e","ios":"levelo://app?vid=28a186fd-2676-47c7-8d04-b9e8ef5e4f8e"},"vehicle_type_id":"4","last_reported":1706598391,"current_range_meters":8800,"station_id":"ce4bgh92rcd13ifvqb50","pricing_plan_id":"free"},{"bike_id":"dcf48b38-5cdb-40d3-87e2-96ffffe01867","system_id":"levelo_inurba_marseille","lat":43.29794,"lon":5.38107,"is_reserved":false,"is_disabled":false,"rental_uris":{"android":"levelo://app?vid=dcf48b38-5cdb-40d3-87e2-96ffffe01867","ios":"levelo://app?vid=dcf48b38-5cdb-40d3-87e2-96ffffe01867"},"vehicle_type_id":"4","last_reported":1706598391,"current_range_meters":11600,"station_id":"ce4bgip2rcd13ifvqbb0","pricing_plan_id":"free"},{"bike_id":"7da5636c-fcaf-4859-a333-f31c115b7aa9","system_id":"levelo_inurba_marseille","lat":43.298037,"lon":5.381066,"is_reserved":false,"is_disabled":false,"rental_uris":{"android":"levelo://app?vid=7da5636c-fcaf-4859-a333-f31c115b7aa9","ios":"levelo://app?vid=7da5636c-fcaf-4859-a333-f31c115b7aa9"},"vehicle_type_id":"4","last_reported":1706598391,"current_range_meters":22800,"station_id":"ce4bgip2rcd13ifvqbb0","pricing_plan_id":"free"},{"bike_id":"22bb2238-eb2c-4e90-a774-22adeb8bb1b9","system_id":"levelo_inurba_marseille","lat":43.298037,"lon":5.381066,"is_reserved":false,"is_disabled":false,"rental_uris":{"android":"levelo://app?vid=22bb2238-eb2c-4e90-a774-22adeb8bb1b9","ios":"levelo://app?vid=22bb2238-eb2c-4e90-a774-22adeb8bb1b9"},"vehicle_type_id":"4","last_reported":1706598391,"current_range_meters":400,"station_id":"ce4bgip2rcd13ifvqbb0","pricing_plan_id":"free"},{"bike_id":"488d35a1-5c4c-470d-bd4e-a08d022ea7d3","system_id":"levelo_inurba_marseille","lat":43.298037,"lon":5.381066,"is_reserved":false,"is_disabled":false,"rental_uris":{"android":"levelo://app?vid=488d35a1-5c4c-470d-bd4e-a08d022ea7d3","ios":"levelo://app?vid=488d35a1-5c4c-470d-bd4e-a08d022ea7d3"},"vehicle_type_id":"4","last_reported":1706598391,"current_range_meters":10800,"station_id":"ce4bgip2rcd13ifvqbb0","pricing_plan_id":"free"},{"bike_id":"bc48803d-ac9b-4992-ba13-135bdea322b1","system_id":"levelo_inurba_marseille","lat":43.29612,"lon":5.37722,"is_reserved":false,"is_disabled":false,"rental_uris":{"android":"levelo://app?vid=bc48803d-ac9b-4992-ba13-135bdea322b1","ios":"levelo://app?vid=bc48803d-ac9b-4992-ba13-135bdea322b1"},"vehicle_type_id":"4","last_reported":1706598391,"current_range_meters":9200,"station_id":"ce4bgi92rcd13ifvqb90","pricing_plan_id":"free"},{"bike_id":"e55590a4-e60d-46f5-b2aa-113e23339562","system_id":"levelo_inurba_marseille","lat":43.295279,"lon":5.375048,"is_reserved":false,"is_disabled":false,"rental_uris":{"android":"levelo://app?vid=e55590a4-e60d-46f5-b2aa-113e23339562","ios":"levelo://app?vid=e55590a4-e60d-46f5-b2aa-113e23339562"},"vehicle_type_id":"4","last_reported":1706598391,"current_range_meters":5200,"station_id":"ce4bgkp2rcd13ifvqbmg","pricing_plan_id":"free"},{"bike_id":"af56112e-9277-44ce-8df2-3ad88b5ec180","system_id":"levelo_inurba_marseille","lat":43.299717,"lon":5.384845,"is_reserved":false,"is_disabled":false,"rental_uris":{"android":"levelo://app?vid=af56112e-9277-44ce-8df2-3ad88b5ec180","ios":"levelo://app?vid=af56112e-9277-44ce-8df2-3ad88b5ec180"},"vehicle_type_id":"4","last_reported":1706598391,"current_range_meters":19200,"station_id":"ce4bgj92rcd13ifvqbd0","pricing_plan_id":"free"},{"bike_id":"de25d637-84ec-4203-b892-3e1c2d7c4ddb","system_id":"levelo_inurba_marseille","lat":43.331776,"lon":5.364391,"is_reserved":false,"is_disabled":false,"rental_uris":{"android":"levelo://app?vid=de25d637-84ec-4203-b892-3e1c2d7c4ddb","ios":"levelo://app?vid=de25d637-84ec-4203-b892-3e1c2d7c4ddb"},"vehicle_type_id":"4","last_reported":1706598391,"current_range_meters":13200,"station_id":"","pricing_plan_id":"free"},{"bike_id":"6baef8ce-85c8-4446-93d3-12d6cf7ed529","system_id":"levelo_inurba_marseille","lat":43.29615,"lon":5.38103,"is_reserved":false,"is_disabled":false,"rental_uris":{"android":"levelo://app?vid=6baef8ce-85c8-4446-93d3-12d6cf7ed529","ios":"levelo://app?vid=6baef8ce-85c8-4446-93d3-12d6cf7ed529"},"vehicle_type_id":"4","last_reported":1706598391,"current_range_meters":31200,"station_id":"","pricing_plan_id":"free"},{"bike_id":"c22a7d2e-4bc4-4eb8-ae29-4dfe3c938f88","system_id":"levelo_inurba_marseille","lat":43.29602,"lon":5.381084,"is_reserved":false,"is_disabled":false,"rental_uris":{"android":"levelo://app?vid=c22a7d2e-4bc4-4eb8-ae29-4dfe3c938f88","ios":"levelo://app?vid=c22a7d2e-4bc4-4eb8-ae29-4dfe3c938f88"},"vehicle_type_id":"4","last_reported":1706598391,"current_range_meters":24000,"station_id":"ce4bgl12rcd13ifvqbo0","pricing_plan_id":"free"},{"bike_id":"bc499796-3353-41fb-a566-99549c4e3c0b","system_id":"levelo_inurba_marseille","lat":43.29601,"lon":5.381084,"is_reserved":false,"is_disabled":false,"rental_uris":{"android":"levelo://app?vid=bc499796-3353-41fb-a566-99549c4e3c0b","ios":"levelo://app?vid=bc499796-3353-41fb-a566-99549c4e3c0b"},"vehicle_type_id":"4","last_reported":1706598391,"current_range_meters":16400,"station_id":"ce4bgl12rcd13ifvqbo0","pricing_plan_id":"free"},{"bike_id":"aa0fa7e8-2607-4680-ab06-6e37402197fe","system_id":"levelo_inurba_marseille","lat":43.29601,"lon":5.381084,"is_reserved":false,"is_disabled":false,"rental_uris":{"android":"levelo://app?vid=aa0fa7e8-2607-4680-ab06-6e37402197fe","ios":"levelo://app?vid=aa0fa7e8-2607-4680-ab06-6e37402197fe"},"vehicle_type_id":"4","last_reported":1706598391,"current_range_meters":23200,"station_id":"ce4bgl12rcd13ifvqbo0","pricing_plan_id":"free"},{"bike_id":"2c37ab46-b97b-4f1b-9a72-668b32d16b8d","system_id":"levelo_inurba_marseille","lat":43.292749,"lon":5.368402,"is_reserved":false,"is_disabled":false,"rental_uris":{"android":"levelo://app?vid=2c37ab46-b97b-4f1b-9a72-668b32d16b8d","ios":"levelo://app?vid=2c37ab46-b97b-4f1b-9a72-668b32d16b8d"},"vehicle_type_id":"4","last_reported":1706598391,"current_range_meters":22800,"station_id":"ce4bhbp2rcd13ifvqesg","pricing_plan_id":"free"},{"bike_id":"16f0c418-373c-4e6a-b2d9-e009021cc440","system_id":"levelo_inurba_marseille","lat":43.305994,"lon":5.393687,"is_reserved":false,"is_disabled":false,"rental_uris":{"android":"levelo://app?vid=16f0c418-373c-4e6a-b2d9-e009021cc440","ios":"levelo://app?vid=16f0c418-373c-4e6a-b2d9-e009021cc440"},"vehicle_type_id":"4","last_reported":1706598391,"current_range_meters":4400,"station_id":"ce4bh0p2rcd13ifvqd80","pricing_plan_id":"free"},{"bike_id":"51eefe7c-79ca-492d-88a5-e2994653f2bf","system_id":"levelo_inurba_marseille","lat":43.305994,"lon":5.393687,"is_reserved":false,"is_disabled":false,"rental_uris":{"android":"levelo://app?vid=51eefe7c-79ca-492d-88a5-e2994653f2bf","ios":"levelo://app?vid=51eefe7c-79ca-492d-88a5-e2994653f2bf"},"vehicle_type_id":"4","last_reported":1706598391,"current_range_meters":13600,"station_id":"ce4bh0p2rcd13ifvqd80","pricing_plan_id":"free"},{"bike_id":"fd6856ab-ad72-423b-adad-0af8f0ca9a0e","system_id":"levelo_inurba_marseille","lat":43.30595,"lon":5.39355,"is_reserved":false,"is_disabled":false,"rental_uris":{"android":"levelo://app?vid=fd6856ab-ad72-423b-adad-0af8f0ca9a0e","ios":"levelo://app?vid=fd6856ab-ad72-423b-adad-0af8f0ca9a0e"},"vehicle_type_id":"4","last_reported":1706598391,"current_range_meters":27600,"station_id":"ce4bh0p2rcd13ifvqd80","pricing_plan_id":"free"},{"bike_id":"bcf437ef-56f0-430d-848c-f0079594ee71","system_id":"levelo_inurba_marseille","lat":43.30591,"lon":5.39355,"is_reserved":false,"is_disabled":false,"rental_uris":{"android":"levelo://app?vid=bcf437ef-56f0-430d-848c-f0079594ee71","ios":"levelo://app?vid=bcf437ef-56f0-430d-848c-f0079594ee71"},"vehicle_type_id":"4","last_reported":1706598391,"current_range_meters":31200,"station_id":"ce4bh0p2rcd13ifvqd80","pricing_plan_id":"free"},{"bike_id":"7d3c0d1a-8034-4ce7-bf91-7fcb82c29a1f","system_id":"levelo_inurba_marseille","lat":43.305994,"lon":5.393687,"is_reserved":false,"is_disabled":false,"rental_uris":{"android":"levelo://app?vid=7d3c0d1a-8034-4ce7-bf91-7fcb82c29a1f","ios":"levelo://app?vid=7d3c0d1a-8034-4ce7-bf91-7fcb82c29a1f"},"vehicle_type_id":"4","last_reported":1706598391,"current_range_meters":18000,"station_id":"ce4bh0p2rcd13ifvqd80","pricing_plan_id":"free"},{"bike_id":"7f0cc636-e84c-497d-b464-66977234ff79","system_id":"levelo_inurba_marseille","lat":43.305994,"lon":5.393687,"is_reserved":false,"is_disabled":false,"rental_uris":{"android":"levelo://app?vid=7f0cc636-e84c-497d-b464-66977234ff79","ios":"levelo://app?vid=7f0cc636-e84c-497d-b464-66977234ff79"},"vehicle_type_id":"4","last_reported":1706598391,"current_range_meters":20800,"station_id":"ce4bh0p2rcd13ifvqd80","pricing_plan_id":"free"},{"bike_id":"300d0b69-81cd-454d-a315-76b1f16bdc5d","system_id":"levelo_inurba_marseille","lat":43.305994,"lon":5.393687,"is_reserved":false,"is_disabled":false,"rental_uris":{"android":"levelo://app?vid=300d0b69-81cd-454d-a315-76b1f16bdc5d","ios":"levelo://app?vid=300d0b69-81cd-454d-a315-76b1f16bdc5d"},"vehicle_type_id":"4","last_reported":1706598391,"current_range_meters":23600,"station_id":"ce4bh0p2rcd13ifvqd80","pricing_plan_id":"free"},{"bike_id":"deb20f15-4de9-4814-b71c-ab3013389c35","system_id":"levelo_inurba_marseille","lat":43.305994,"lon":5.393687,"is_reserved":false,"is_disabled":false,"rental_uris":{"android":"levelo://app?vid=deb20f15-4de9-4814-b71c-ab3013389c35","ios":"levelo://app?vid=deb20f15-4de9-4814-b71c-ab3013389c35"},"vehicle_type_id":"4","last_reported":1706598391,"current_range_meters":30000,"station_id":"ce4bh0p2rcd13ifvqd80","pricing_plan_id":"free"},{"bike_id":"b8243919-b010-433e-8c1e-7873ce49a8cc","system_id":"levelo_inurba_marseille","lat":43.305994,"lon":5.393687,"is_reserved":false,"is_disabled":false,"rental_uris":{"android":"levelo://app?vid=b8243919-b010-433e-8c1e-7873ce49a8cc","ios":"levelo://app?vid=b8243919-b010-433e-8c1e-7873ce49a8cc"},"vehicle_type_id":"4","last_reported":1706598391,"current_range_meters":24000,"station_id":"ce4bh0p2rcd13ifvqd80","pricing_plan_id":"free"},{"bike_id":"67f5b001-921f-4109-b109-f91e828036f1","system_id":"levelo_inurba_marseille","lat":43.305994,"lon":5.393687,"is_reserved":false,"is_disabled":false,"rental_uris":{"android":"levelo://app?vid=67f5b001-921f-4109-b109-f91e828036f1","ios":"levelo://app?vid=67f5b001-921f-4109-b109-f91e828036f1"},"vehicle_type_id":"4","last_reported":1706598391,"current_range_meters":20800,"station_id":"ce4bh0p2rcd13ifvqd80","pricing_plan_id":"free"},{"bike_id":"4daf2564-20c7-4b0b-b2fb-0b820bdb4f28","system_id":"levelo_inurba_marseille","lat":43.305994,"lon":5.393687,"is_reserved":false,"is_disabled":false,"rental_uris":{"android":"levelo://app?vid=4daf2564-20c7-4b0b-b2fb-0b820bdb4f28","ios":"levelo://app?vid=4daf2564-20c7-4b0b-b2fb-0b820bdb4f28"},"vehicle_type_id":"4","last_reported":1706598391,"current_range_meters":23200,"station_id":"ce4bh0p2rcd13ifvqd80","pricing_plan_id":"free"},{"bike_id":"1835c699-960c-44e6-8129-f22cb6d92986","system_id":"levelo_inurba_marseille","lat":43.2936,"lon":5.37835,"is_reserved":false,"is_disabled":false,"rental_uris":{"android":"levelo://app?vid=1835c699-960c-44e6-8129-f22cb6d92986","ios":"levelo://app?vid=1835c699-960c-44e6-8129-f22cb6d92986"},"vehicle_type_id":"4","last_reported":1706598391,"current_range_meters":21200,"station_id":"ce4bgjh2rcd13ifvqbf0","pricing_plan_id":"free"},{"bike_id":"9053abc0-28d6-47ef-aa66-0408a2b3ba65","system_id":"levelo_inurba_marseille","lat":43.298764,"lon":5.388973,"is_reserved":false,"is_disabled":false,"rental_uris":{"android":"levelo://app?vid=9053abc0-28d6-47ef-aa66-0408a2b3ba65","ios":"levelo://app?vid=9053abc0-28d6-47ef-aa66-0408a2b3ba65"},"vehicle_type_id":"4","last_reported":1706598391,"current_range_meters":18800,"station_id":"ce4bh392rcd13ifvqdl0","pricing_plan_id":"free"},{"bike_id":"bc36bf4e-713a-4e8b-92f2-31029d3258e4","system_id":"levelo_inurba_marseille","lat":43.312239,"lon":5.368562,"is_reserved":false,"is_disabled":false,"rental_uris":{"android":"levelo://app?vid=bc36bf4e-713a-4e8b-92f2-31029d3258e4","ios":"levelo://app?vid=bc36bf4e-713a-4e8b-92f2-31029d3258e4"},"vehicle_type_id":"4","last_reported":1706598391,"current_range_meters":29600,"station_id":"ce4bgl92rcd13ifvqbq0","pricing_plan_id":"free"},{"bike_id":"262ab755-43c8-48ba-b3ff-64ba02a86121","system_id":"levelo_inurba_marseille","lat":43.309038,"lon":5.396546,"is_reserved":false,"is_disabled":false,"rental_uris":{"android":"levelo://app?vid=262ab755-43c8-48ba-b3ff-64ba02a86121","ios":"levelo://app?vid=262ab755-43c8-48ba-b3ff-64ba02a86121"},"vehicle_type_id":"4","last_reported":1706598391,"current_range_meters":30000,"station_id":"ce4bh012rcd13ifvqcv0","pricing_plan_id":"free"},{"bike_id":"1405e604-9cf5-42f8-9bce-88e4764ce68e","system_id":"levelo_inurba_marseille","lat":43.309038,"lon":5.396546,"is_reserved":false,"is_disabled":false,"rental_uris":{"android":"levelo://app?vid=1405e604-9cf5-42f8-9bce-88e4764ce68e","ios":"levelo://app?vid=1405e604-9cf5-42f8-9bce-88e4764ce68e"},"vehicle_type_id":"4","last_reported":1706598391,"current_range_meters":24000,"station_id":"ce4bh012rcd13ifvqcv0","pricing_plan_id":"free"},{"bike_id":"60d917f5-4d65-481e-ba20-ebcaf446e790","system_id":"levelo_inurba_marseille","lat":43.309038,"lon":5.396546,"is_reserved":false,"is_disabled":false,"rental_uris":{"android":"levelo://app?vid=60d917f5-4d65-481e-ba20-ebcaf446e790","ios":"levelo://app?vid=60d917f5-4d65-481e-ba20-ebcaf446e790"},"vehicle_type_id":"4","last_reported":1706598391,"current_range_meters":31200,"station_id":"ce4bh012rcd13ifvqcv0","pricing_plan_id":"free"},{"bike_id":"c07daf04-e21b-4f24-a83e-49b9ec655b9c","system_id":"levelo_inurba_marseille","lat":43.309038,"lon":5.396546,"is_reserved":false,"is_disabled":false,"rental_uris":{"android":"levelo://app?vid=c07daf04-e21b-4f24-a83e-49b9ec655b9c","ios":"levelo://app?vid=c07daf04-e21b-4f24-a83e-49b9ec655b9c"},"vehicle_type_id":"4","last_reported":1706598391,"current_range_meters":31200,"station_id":"ce4bh012rcd13ifvqcv0","pricing_plan_id":"free"},{"bike_id":"4b35d7e7-56c0-4104-8559-b43c8174454c","system_id":"levelo_inurba_marseille","lat":43.309038,"lon":5.396546,"is_reserved":false,"is_disabled":false,"rental_uris":{"android":"levelo://app?vid=4b35d7e7-56c0-4104-8559-b43c8174454c","ios":"levelo://app?vid=4b35d7e7-56c0-4104-8559-b43c8174454c"},"vehicle_type_id":"4","last_reported":1706598391,"current_range_meters":2800,"station_id":"ce4bh012rcd13ifvqcv0","pricing_plan_id":"free"},{"bike_id":"82d14565-9ce5-48c6-889c-ad4a6e64384d","system_id":"levelo_inurba_marseille","lat":43.309038,"lon":5.396546,"is_reserved":false,"is_disabled":false,"rental_uris":{"android":"levelo://app?vid=82d14565-9ce5-48c6-889c-ad4a6e64384d","ios":"levelo://app?vid=82d14565-9ce5-48c6-889c-ad4a6e64384d"},"vehicle_type_id":"4","last_reported":1706598391,"current_range_meters":9200,"station_id":"ce4bh012rcd13ifvqcv0","pricing_plan_id":"free"},{"bike_id":"92e84b73-e47c-4621-bdf8-c017630d7642","system_id":"levelo_inurba_marseille","lat":43.309038,"lon":5.396546,"is_reserved":false,"is_disabled":false,"rental_uris":{"android":"levelo://app?vid=92e84b73-e47c-4621-bdf8-c017630d7642","ios":"levelo://app?vid=92e84b73-e47c-4621-bdf8-c017630d7642"},"vehicle_type_id":"4","last_reported":1706598391,"current_range_meters":9600,"station_id":"ce4bh012rcd13ifvqcv0","pricing_plan_id":"free"},{"bike_id":"53f8ae55-fce4-467e-928e-dc946304841d","system_id":"levelo_inurba_marseille","lat":43.29194,"lon":5.35809,"is_reserved":false,"is_disabled":false,"rental_uris":{"android":"levelo://app?vid=53f8ae55-fce4-467e-928e-dc946304841d","ios":"levelo://app?vid=53f8ae55-fce4-467e-928e-dc946304841d"},"vehicle_type_id":"4","last_reported":1706598391,"current_range_meters":16400,"station_id":"ce4bhb12rcd13ifvqel0","pricing_plan_id":"free"},{"bike_id":"11b891b1-3e26-403f-9f4f-cf0e6c083615","system_id":"levelo_inurba_marseille","lat":43.28856,"lon":5.358371,"is_reserved":false,"is_disabled":false,"rental_uris":{"android":"levelo://app?vid=11b891b1-3e26-403f-9f4f-cf0e6c083615","ios":"levelo://app?vid=11b891b1-3e26-403f-9f4f-cf0e6c083615"},"vehicle_type_id":"4","last_reported":1706598391,"current_range_meters":0,"station_id":"ce4bhb12rcd13ifvqem0","pricing_plan_id":"free"},{"bike_id":"41dea4ce-c429-421c-b119-448263fc55d8","system_id":"levelo_inurba_marseille","lat":43.31328,"lon":5.39686,"is_reserved":false,"is_disabled":false,"rental_uris":{"android":"levelo://app?vid=41dea4ce-c429-421c-b119-448263fc55d8","ios":"levelo://app?vid=41dea4ce-c429-421c-b119-448263fc55d8"},"vehicle_type_id":"4","last_reported":1706598391,"current_range_meters":27200,"station_id":"ce4bgvp2rcd13ifvqcu0","pricing_plan_id":"free"},{"bike_id":"d8034546-69d4-4fb0-b026-2e4c9b89692b","system_id":"levelo_inurba_marseille","lat":43.309038,"lon":5.396546,"is_reserved":false,"is_disabled":false,"rental_uris":{"android":"levelo://app?vid=d8034546-69d4-4fb0-b026-2e4c9b89692b","ios":"levelo://app?vid=d8034546-69d4-4fb0-b026-2e4c9b89692b"},"vehicle_type_id":"4","last_reported":1706598391,"current_range_meters":0,"station_id":"ce4bh012rcd13ifvqcv0","pricing_plan_id":"free"},{"bike_id":"94694735-b0a7-4a13-b8d0-373bbc9655a0","system_id":"levelo_inurba_marseille","lat":43.313291,"lon":5.396838,"is_reserved":false,"is_disabled":false,"rental_uris":{"android":"levelo://app?vid=94694735-b0a7-4a13-b8d0-373bbc9655a0","ios":"levelo://app?vid=94694735-b0a7-4a13-b8d0-373bbc9655a0"},"vehicle_type_id":"4","last_reported":1706598391,"current_range_meters":31200,"station_id":"ce4bgvp2rcd13ifvqcu0","pricing_plan_id":"free"},{"bike_id":"067a3f54-cdb1-4351-888c-7235aaac275f","system_id":"levelo_inurba_marseille","lat":43.313291,"lon":5.396838,"is_reserved":false,"is_disabled":false,"rental_uris":{"android":"levelo://app?vid=067a3f54-cdb1-4351-888c-7235aaac275f","ios":"levelo://app?vid=067a3f54-cdb1-4351-888c-7235aaac275f"},"vehicle_type_id":"4","last_reported":1706598391,"current_range_meters":8400,"station_id":"ce4bgvp2rcd13ifvqcu0","pricing_plan_id":"free"},{"bike_id":"5930fe37-bd8f-40e9-a615-0698b316f8a7","system_id":"levelo_inurba_marseille","lat":43.313291,"lon":5.396838,"is_reserved":false,"is_disabled":false,"rental_uris":{"android":"levelo://app?vid=5930fe37-bd8f-40e9-a615-0698b316f8a7","ios":"levelo://app?vid=5930fe37-bd8f-40e9-a615-0698b316f8a7"},"vehicle_type_id":"4","last_reported":1706598391,"current_range_meters":31200,"station_id":"ce4bgvp2rcd13ifvqcu0","pricing_plan_id":"free"},{"bike_id":"aa5f2382-8921-4a1f-a1de-1ef8869aed4d","system_id":"levelo_inurba_marseille","lat":43.313291,"lon":5.396838,"is_reserved":false,"is_disabled":false,"rental_uris":{"android":"levelo://app?vid=aa5f2382-8921-4a1f-a1de-1ef8869aed4d","ios":"levelo://app?vid=aa5f2382-8921-4a1f-a1de-1ef8869aed4d"},"vehicle_type_id":"4","last_reported":1706598391,"current_range_meters":14400,"station_id":"ce4bgvp2rcd13ifvqcu0","pricing_plan_id":"free"},{"bike_id":"4d74aa76-9f87-4bd0-b800-9e510603dec2","system_id":"levelo_inurba_marseille","lat":43.29529,"lon":5.385581,"is_reserved":false,"is_disabled":false,"rental_uris":{"android":"levelo://app?vid=4d74aa76-9f87-4bd0-b800-9e510603dec2","ios":"levelo://app?vid=4d74aa76-9f87-4bd0-b800-9e510603dec2"},"vehicle_type_id":"4","last_reported":1706598391,"current_range_meters":23200,"station_id":"ce4bgih2rcd13ifvqba0","pricing_plan_id":"free"},{"bike_id":"2c1e47ad-3478-424c-8c66-23a600b1f0dc","system_id":"levelo_inurba_marseille","lat":43.290441,"lon":5.359123,"is_reserved":false,"is_disabled":false,"rental_uris":{"android":"levelo://app?vid=2c1e47ad-3478-424c-8c66-23a600b1f0dc","ios":"levelo://app?vid=2c1e47ad-3478-424c-8c66-23a600b1f0dc"},"vehicle_type_id":"4","last_reported":1706598391,"current_range_meters":18800,"station_id":"","pricing_plan_id":"free"},{"bike_id":"ce4ae259-aea0-4428-bd54-496d7e257adc","system_id":"levelo_inurba_marseille","lat":43.28952,"lon":5.36393,"is_reserved":false,"is_disabled":false,"rental_uris":{"android":"levelo://app?vid=ce4ae259-aea0-4428-bd54-496d7e257adc","ios":"levelo://app?vid=ce4ae259-aea0-4428-bd54-496d7e257adc"},"vehicle_type_id":"4","last_reported":1706598391,"current_range_meters":1200,"station_id":"ce4bhc92rcd13ifvqetg","pricing_plan_id":"free"},{"bike_id":"cffd65ac-309a-4070-bd44-8574983357e3","system_id":"levelo_inurba_marseille","lat":43.28951,"lon":5.36408,"is_reserved":false,"is_disabled":false,"rental_uris":{"android":"levelo://app?vid=cffd65ac-309a-4070-bd44-8574983357e3","ios":"levelo://app?vid=cffd65ac-309a-4070-bd44-8574983357e3"},"vehicle_type_id":"4","last_reported":1706598391,"current_range_meters":27200,"station_id":"ce4bhc92rcd13ifvqetg","pricing_plan_id":"free"},{"bike_id":"b72d5071-f1ff-4e24-93cf-d12168113203","system_id":"levelo_inurba_marseille","lat":43.289184,"lon":5.366408,"is_reserved":false,"is_disabled":false,"rental_uris":{"android":"levelo://app?vid=b72d5071-f1ff-4e24-93cf-d12168113203","ios":"levelo://app?vid=b72d5071-f1ff-4e24-93cf-d12168113203"},"vehicle_type_id":"4","last_reported":1706598391,"current_range_meters":25600,"station_id":"ce4bhap2rcd13ifvqek0","pricing_plan_id":"free"},{"bike_id":"787b8264-6897-4dd1-ad58-4d55b4d5cb4a","system_id":"levelo_inurba_marseille","lat":43.289184,"lon":5.366408,"is_reserved":false,"is_disabled":false,"rental_uris":{"android":"levelo://app?vid=787b8264-6897-4dd1-ad58-4d55b4d5cb4a","ios":"levelo://app?vid=787b8264-6897-4dd1-ad58-4d55b4d5cb4a"},"vehicle_type_id":"4","last_reported":1706598391,"current_range_meters":20800,"station_id":"ce4bhap2rcd13ifvqek0","pricing_plan_id":"free"},{"bike_id":"9a953d5a-3ad4-40a9-a948-01820d5ff246","system_id":"levelo_inurba_marseille","lat":43.28937,"lon":5.36626,"is_reserved":false,"is_disabled":false,"rental_uris":{"android":"levelo://app?vid=9a953d5a-3ad4-40a9-a948-01820d5ff246","ios":"levelo://app?vid=9a953d5a-3ad4-40a9-a948-01820d5ff246"},"vehicle_type_id":"4","last_reported":1706598391,"current_range_meters":18000,"station_id":"ce4bhap2rcd13ifvqek0","pricing_plan_id":"free"},{"bike_id":"fbb33163-4eda-46c1-b5ee-6042cb7e3646","system_id":"levelo_inurba_marseille","lat":43.289415,"lon":5.363941,"is_reserved":false,"is_disabled":false,"rental_uris":{"android":"levelo://app?vid=fbb33163-4eda-46c1-b5ee-6042cb7e3646","ios":"levelo://app?vid=fbb33163-4eda-46c1-b5ee-6042cb7e3646"},"vehicle_type_id":"4","last_reported":1706598391,"current_range_meters":21600,"station_id":"ce4bhc92rcd13ifvqetg","pricing_plan_id":"free"},{"bike_id":"d26f5bdf-3c12-49a2-b03b-eb4fca799f15","system_id":"levelo_inurba_marseille","lat":43.289468,"lon":5.363719,"is_reserved":false,"is_disabled":false,"rental_uris":{"android":"levelo://app?vid=d26f5bdf-3c12-49a2-b03b-eb4fca799f15","ios":"levelo://app?vid=d26f5bdf-3c12-49a2-b03b-eb4fca799f15"},"vehicle_type_id":"4","last_reported":1706598391,"current_range_meters":28400,"station_id":"ce4bhc92rcd13ifvqetg","pricing_plan_id":"free"},{"bike_id":"82959f8e-8eae-4cdd-ba1c-1368b8cae2e3","system_id":"levelo_inurba_marseille","lat":43.289184,"lon":5.366408,"is_reserved":false,"is_disabled":false,"rental_uris":{"android":"levelo://app?vid=82959f8e-8eae-4cdd-ba1c-1368b8cae2e3","ios":"levelo://app?vid=82959f8e-8eae-4cdd-ba1c-1368b8cae2e3"},"vehicle_type_id":"4","last_reported":1706598391,"current_range_meters":30000,"station_id":"ce4bhap2rcd13ifvqek0","pricing_plan_id":"free"},{"bike_id":"03da6c05-e916-4cfd-85fb-abce08ac768d","system_id":"levelo_inurba_marseille","lat":43.290104,"lon":5.356111,"is_reserved":false,"is_disabled":false,"rental_uris":{"android":"levelo://app?vid=03da6c05-e916-4cfd-85fb-abce08ac768d","ios":"levelo://app?vid=03da6c05-e916-4cfd-85fb-abce08ac768d"},"vehicle_type_id":"4","last_reported":1706598391,"current_range_meters":2400,"station_id":"ce4bhb92rcd13ifvqen0","pricing_plan_id":"free"},{"bike_id":"24e7b68b-2519-4fab-9a1c-827d4b710a79","system_id":"levelo_inurba_marseille","lat":43.29782,"lon":5.39331,"is_reserved":false,"is_disabled":false,"rental_uris":{"android":"levelo://app?vid=24e7b68b-2519-4fab-9a1c-827d4b710a79","ios":"levelo://app?vid=24e7b68b-2519-4fab-9a1c-827d4b710a79"},"vehicle_type_id":"4","last_reported":1706598391,"current_range_meters":9600,"station_id":"chh1huq6cuj3fo74tm60","pricing_plan_id":"free"},{"bike_id":"871d2653-69f7-4893-92de-e1a858a753d5","system_id":"levelo_inurba_marseille","lat":43.289743,"lon":5.378304,"is_reserved":false,"is_disabled":false,"rental_uris":{"android":"levelo://app?vid=871d2653-69f7-4893-92de-e1a858a753d5","ios":"levelo://app?vid=871d2653-69f7-4893-92de-e1a858a753d5"},"vehicle_type_id":"4","last_reported":1706598391,"current_range_meters":0,"station_id":"ce4bh9p2rcd13ifvqed0","pricing_plan_id":"free"},{"bike_id":"ca0d8e53-0e04-4cb7-a2a9-e398803487ef","system_id":"levelo_inurba_marseille","lat":43.330442,"lon":5.389148,"is_reserved":false,"is_disabled":false,"rental_uris":{"android":"levelo://app?vid=ca0d8e53-0e04-4cb7-a2a9-e398803487ef","ios":"levelo://app?vid=ca0d8e53-0e04-4cb7-a2a9-e398803487ef"},"vehicle_type_id":"4","last_reported":1706598391,"current_range_meters":28400,"station_id":"ce4bhr92rcd13ifvqhrg","pricing_plan_id":"free"},{"bike_id":"03e7edda-3a79-4036-82f7-b87e5f489955","system_id":"levelo_inurba_marseille","lat":43.289743,"lon":5.378304,"is_reserved":false,"is_disabled":false,"rental_uris":{"android":"levelo://app?vid=03e7edda-3a79-4036-82f7-b87e5f489955","ios":"levelo://app?vid=03e7edda-3a79-4036-82f7-b87e5f489955"},"vehicle_type_id":"4","last_reported":1706598391,"current_range_meters":0,"station_id":"ce4bh9p2rcd13ifvqed0","pricing_plan_id":"free"},{"bike_id":"7160d75c-1dc4-4d25-bfe6-056f433739f1","system_id":"levelo_inurba_marseille","lat":43.295169,"lon":5.390426,"is_reserved":false,"is_disabled":false,"rental_uris":{"android":"levelo://app?vid=7160d75c-1dc4-4d25-bfe6-056f433739f1","ios":"levelo://app?vid=7160d75c-1dc4-4d25-bfe6-056f433739f1"},"vehicle_type_id":"4","last_reported":1706598391,"current_range_meters":12400,"station_id":"ce4bh3p2rcd13ifvqdp0","pricing_plan_id":"free"},{"bike_id":"0d41021d-2667-472d-8833-78f88d75d6a2","system_id":"levelo_inurba_marseille","lat":43.290094,"lon":5.381264,"is_reserved":false,"is_disabled":false,"rental_uris":{"android":"levelo://app?vid=0d41021d-2667-472d-8833-78f88d75d6a2","ios":"levelo://app?vid=0d41021d-2667-472d-8833-78f88d75d6a2"},"vehicle_type_id":"4","last_reported":1706598391,"current_range_meters":19200,"station_id":"ce4bh4p2rcd13ifvqe1g","pricing_plan_id":"free"},{"bike_id":"274d7462-1297-4398-b6bb-6eed2f9ad90c","system_id":"levelo_inurba_marseille","lat":43.290094,"lon":5.381264,"is_reserved":false,"is_disabled":false,"rental_uris":{"android":"levelo://app?vid=274d7462-1297-4398-b6bb-6eed2f9ad90c","ios":"levelo://app?vid=274d7462-1297-4398-b6bb-6eed2f9ad90c"},"vehicle_type_id":"4","last_reported":1706598391,"current_range_meters":24800,"station_id":"ce4bh4p2rcd13ifvqe1g","pricing_plan_id":"free"},{"bike_id":"92049a7d-22cd-4e74-9eac-8d8655c39e04","system_id":"levelo_inurba_marseille","lat":43.292749,"lon":5.368398,"is_reserved":false,"is_disabled":false,"rental_uris":{"android":"levelo://app?vid=92049a7d-22cd-4e74-9eac-8d8655c39e04","ios":"levelo://app?vid=92049a7d-22cd-4e74-9eac-8d8655c39e04"},"vehicle_type_id":"4","last_reported":1706598391,"current_range_meters":24800,"station_id":"ce4bhbp2rcd13ifvqesg","pricing_plan_id":"free"},{"bike_id":"d711c433-1b26-403d-a770-b20c856f8709","system_id":"levelo_inurba_marseille","lat":43.28856,"lon":5.358371,"is_reserved":false,"is_disabled":false,"rental_uris":{"android":"levelo://app?vid=d711c433-1b26-403d-a770-b20c856f8709","ios":"levelo://app?vid=d711c433-1b26-403d-a770-b20c856f8709"},"vehicle_type_id":"4","last_reported":1706598391,"current_range_meters":21600,"station_id":"ce4bhb12rcd13ifvqem0","pricing_plan_id":"free"},{"bike_id":"996874ac-4858-428d-9bcb-6194a257f641","system_id":"levelo_inurba_marseille","lat":43.28856,"lon":5.358371,"is_reserved":false,"is_disabled":false,"rental_uris":{"android":"levelo://app?vid=996874ac-4858-428d-9bcb-6194a257f641","ios":"levelo://app?vid=996874ac-4858-428d-9bcb-6194a257f641"},"vehicle_type_id":"4","last_reported":1706598391,"current_range_meters":6800,"station_id":"ce4bhb12rcd13ifvqem0","pricing_plan_id":"free"},{"bike_id":"a563cdbf-78b8-441c-8dce-8da1c3325b92","system_id":"levelo_inurba_marseille","lat":43.337493,"lon":5.374515,"is_reserved":false,"is_disabled":false,"rental_uris":{"android":"levelo://app?vid=a563cdbf-78b8-441c-8dce-8da1c3325b92","ios":"levelo://app?vid=a563cdbf-78b8-441c-8dce-8da1c3325b92"},"vehicle_type_id":"4","last_reported":1706598391,"current_range_meters":19600,"station_id":"","pricing_plan_id":"free"},{"bike_id":"0da54c01-c861-4b59-9786-7e8c77ffbfbd","system_id":"levelo_inurba_marseille","lat":43.33754,"lon":5.37425,"is_reserved":false,"is_disabled":false,"rental_uris":{"android":"levelo://app?vid=0da54c01-c861-4b59-9786-7e8c77ffbfbd","ios":"levelo://app?vid=0da54c01-c861-4b59-9786-7e8c77ffbfbd"},"vehicle_type_id":"4","last_reported":1706598391,"current_range_meters":15200,"station_id":"","pricing_plan_id":"free"},{"bike_id":"db30a8d4-34cd-4387-b661-21acc6855e50","system_id":"levelo_inurba_marseille","lat":43.309371,"lon":5.401449,"is_reserved":false,"is_disabled":false,"rental_uris":{"android":"levelo://app?vid=db30a8d4-34cd-4387-b661-21acc6855e50","ios":"levelo://app?vid=db30a8d4-34cd-4387-b661-21acc6855e50"},"vehicle_type_id":"4","last_reported":1706598391,"current_range_meters":17600,"station_id":"ce4bgvp2rcd13ifvqct0","pricing_plan_id":"free"},{"bike_id":"b7f12eab-e0a6-499e-87ec-2b4381c4602a","system_id":"levelo_inurba_marseille","lat":43.337544,"lon":5.374554,"is_reserved":false,"is_disabled":false,"rental_uris":{"android":"levelo://app?vid=b7f12eab-e0a6-499e-87ec-2b4381c4602a","ios":"levelo://app?vid=b7f12eab-e0a6-499e-87ec-2b4381c4602a"},"vehicle_type_id":"4","last_reported":1706598391,"current_range_meters":19600,"station_id":"","pricing_plan_id":"free"},{"bike_id":"91b6ff85-6ee5-4dda-afcf-7e77437e0e9c","system_id":"levelo_inurba_marseille","lat":43.337588,"lon":5.374316,"is_reserved":false,"is_disabled":false,"rental_uris":{"android":"levelo://app?vid=91b6ff85-6ee5-4dda-afcf-7e77437e0e9c","ios":"levelo://app?vid=91b6ff85-6ee5-4dda-afcf-7e77437e0e9c"},"vehicle_type_id":"4","last_reported":1706598391,"current_range_meters":19600,"station_id":"","pricing_plan_id":"free"},{"bike_id":"663b4048-76fd-43f1-8346-64e09c2c7288","system_id":"levelo_inurba_marseille","lat":43.337579,"lon":5.374576,"is_reserved":false,"is_disabled":false,"rental_uris":{"android":"levelo://app?vid=663b4048-76fd-43f1-8346-64e09c2c7288","ios":"levelo://app?vid=663b4048-76fd-43f1-8346-64e09c2c7288"},"vehicle_type_id":"4","last_reported":1706598391,"current_range_meters":16000,"station_id":"","pricing_plan_id":"free"},{"bike_id":"2fe24097-b1c2-4583-ba1f-cf8501171a4c","system_id":"levelo_inurba_marseille","lat":43.33753,"lon":5.37494,"is_reserved":false,"is_disabled":false,"rental_uris":{"android":"levelo://app?vid=2fe24097-b1c2-4583-ba1f-cf8501171a4c","ios":"levelo://app?vid=2fe24097-b1c2-4583-ba1f-cf8501171a4c"},"vehicle_type_id":"4","last_reported":1706598391,"current_range_meters":3200,"station_id":"","pricing_plan_id":"free"},{"bike_id":"b7d3b81d-d85a-44b5-a0c7-8f9c9f74639e","system_id":"levelo_inurba_marseille","lat":43.337652,"lon":5.374317,"is_reserved":false,"is_disabled":false,"rental_uris":{"android":"levelo://app?vid=b7d3b81d-d85a-44b5-a0c7-8f9c9f74639e","ios":"levelo://app?vid=b7d3b81d-d85a-44b5-a0c7-8f9c9f74639e"},"vehicle_type_id":"4","last_reported":1706598391,"current_range_meters":23600,"station_id":"","pricing_plan_id":"free"},{"bike_id":"1facbbf3-baac-42f8-85eb-cb1e36f3e4b9","system_id":"levelo_inurba_marseille","lat":43.337587,"lon":5.374916,"is_reserved":false,"is_disabled":false,"rental_uris":{"android":"levelo://app?vid=1facbbf3-baac-42f8-85eb-cb1e36f3e4b9","ios":"levelo://app?vid=1facbbf3-baac-42f8-85eb-cb1e36f3e4b9"},"vehicle_type_id":"4","last_reported":1706598391,"current_range_meters":5200,"station_id":"","pricing_plan_id":"free"},{"bike_id":"12568932-a9a7-4d52-8b2c-668683b75358","system_id":"levelo_inurba_marseille","lat":43.337654,"lon":5.374971,"is_reserved":false,"is_disabled":false,"rental_uris":{"android":"levelo://app?vid=12568932-a9a7-4d52-8b2c-668683b75358","ios":"levelo://app?vid=12568932-a9a7-4d52-8b2c-668683b75358"},"vehicle_type_id":"4","last_reported":1706598391,"current_range_meters":15600,"station_id":"","pricing_plan_id":"free"},{"bike_id":"3c082ef8-998e-4b68-a29d-6b97c12f9805","system_id":"levelo_inurba_marseille","lat":43.304687,"lon":5.400653,"is_reserved":false,"is_disabled":false,"rental_uris":{"android":"levelo://app?vid=3c082ef8-998e-4b68-a29d-6b97c12f9805","ios":"levelo://app?vid=3c082ef8-998e-4b68-a29d-6b97c12f9805"},"vehicle_type_id":"4","last_reported":1706598391,"current_range_meters":22800,"station_id":"","pricing_plan_id":"free"},{"bike_id":"bf7ee3d7-60c7-495d-8389-848bce99b53b","system_id":"levelo_inurba_marseille","lat":43.286674,"lon":5.363487,"is_reserved":false,"is_disabled":false,"rental_uris":{"android":"levelo://app?vid=bf7ee3d7-60c7-495d-8389-848bce99b53b","ios":"levelo://app?vid=bf7ee3d7-60c7-495d-8389-848bce99b53b"},"vehicle_type_id":"4","last_reported":1706598391,"current_range_meters":22800,"station_id":"ce4bhah2rcd13ifvqej0","pricing_plan_id":"free"},{"bike_id":"54c7e8bc-34b9-4735-9532-d5fc6184a089","system_id":"levelo_inurba_marseille","lat":43.286663,"lon":5.363462,"is_reserved":false,"is_disabled":false,"rental_uris":{"android":"levelo://app?vid=54c7e8bc-34b9-4735-9532-d5fc6184a089","ios":"levelo://app?vid=54c7e8bc-34b9-4735-9532-d5fc6184a089"},"vehicle_type_id":"4","last_reported":1706598391,"current_range_meters":13600,"station_id":"","pricing_plan_id":"free"},{"bike_id":"1e669533-d3a7-4905-8c13-172deff826b8","system_id":"levelo_inurba_marseille","lat":43.290345,"lon":5.38646,"is_reserved":false,"is_disabled":false,"rental_uris":{"android":"levelo://app?vid=1e669533-d3a7-4905-8c13-172deff826b8","ios":"levelo://app?vid=1e669533-d3a7-4905-8c13-172deff826b8"},"vehicle_type_id":"4","last_reported":1706598391,"current_range_meters":26000,"station_id":"ce4bh4p2rcd13ifvqe0g","pricing_plan_id":"free"},{"bike_id":"b6e6c313-2e30-48c3-8519-7480acdbdbf1","system_id":"levelo_inurba_marseille","lat":43.302759,"lon":5.400793,"is_reserved":false,"is_disabled":false,"rental_uris":{"android":"levelo://app?vid=b6e6c313-2e30-48c3-8519-7480acdbdbf1","ios":"levelo://app?vid=b6e6c313-2e30-48c3-8519-7480acdbdbf1"},"vehicle_type_id":"4","last_reported":1706598391,"current_range_meters":15200,"station_id":"ce4bgvh2rcd13ifvqcs0","pricing_plan_id":"free"},{"bike_id":"d8c23615-fd20-421e-b732-d7cf13804129","system_id":"levelo_inurba_marseille","lat":43.290336,"lon":5.386425,"is_reserved":false,"is_disabled":false,"rental_uris":{"android":"levelo://app?vid=d8c23615-fd20-421e-b732-d7cf13804129","ios":"levelo://app?vid=d8c23615-fd20-421e-b732-d7cf13804129"},"vehicle_type_id":"4","last_reported":1706598391,"current_range_meters":27200,"station_id":"ce4bh4p2rcd13ifvqe0g","pricing_plan_id":"free"},{"bike_id":"66fafa47-db1a-46ad-b030-2db498b200c5","system_id":"levelo_inurba_marseille","lat":43.290336,"lon":5.386425,"is_reserved":false,"is_disabled":false,"rental_uris":{"android":"levelo://app?vid=66fafa47-db1a-46ad-b030-2db498b200c5","ios":"levelo://app?vid=66fafa47-db1a-46ad-b030-2db498b200c5"},"vehicle_type_id":"4","last_reported":1706598391,"current_range_meters":1200,"station_id":"ce4bh4p2rcd13ifvqe0g","pricing_plan_id":"free"},{"bike_id":"85fea18b-5cd2-4459-be50-fc759e12cd32","system_id":"levelo_inurba_marseille","lat":43.290336,"lon":5.386425,"is_reserved":false,"is_disabled":false,"rental_uris":{"android":"levelo://app?vid=85fea18b-5cd2-4459-be50-fc759e12cd32","ios":"levelo://app?vid=85fea18b-5cd2-4459-be50-fc759e12cd32"},"vehicle_type_id":"4","last_reported":1706598391,"current_range_meters":0,"station_id":"ce4bh4p2rcd13ifvqe0g","pricing_plan_id":"free"},{"bike_id":"0bb8aa81-1c95-4795-8e6c-5d56af98b1ef","system_id":"levelo_inurba_marseille","lat":43.286039,"lon":5.370679,"is_reserved":false,"is_disabled":false,"rental_uris":{"android":"levelo://app?vid=0bb8aa81-1c95-4795-8e6c-5d56af98b1ef","ios":"levelo://app?vid=0bb8aa81-1c95-4795-8e6c-5d56af98b1ef"},"vehicle_type_id":"4","last_reported":1706598391,"current_range_meters":5200,"station_id":"ce4bht12rcd13ifvqi60","pricing_plan_id":"free"},{"bike_id":"0f144777-da9e-4664-8cac-b2df98c80c80","system_id":"levelo_inurba_marseille","lat":43.287184,"lon":5.37937,"is_reserved":false,"is_disabled":false,"rental_uris":{"android":"levelo://app?vid=0f144777-da9e-4664-8cac-b2df98c80c80","ios":"levelo://app?vid=0f144777-da9e-4664-8cac-b2df98c80c80"},"vehicle_type_id":"4","last_reported":1706598391,"current_range_meters":18800,"station_id":"ce4bh9p2rcd13ifvqec0","pricing_plan_id":"free"},{"bike_id":"309ebd88-2078-4e9c-a32c-5b0d84b2733f","system_id":"levelo_inurba_marseille","lat":43.287184,"lon":5.37937,"is_reserved":false,"is_disabled":false,"rental_uris":{"android":"levelo://app?vid=309ebd88-2078-4e9c-a32c-5b0d84b2733f","ios":"levelo://app?vid=309ebd88-2078-4e9c-a32c-5b0d84b2733f"},"vehicle_type_id":"4","last_reported":1706598391,"current_range_meters":12400,"station_id":"ce4bh9p2rcd13ifvqec0","pricing_plan_id":"free"},{"bike_id":"250c4063-2a25-4b0f-a66b-ad536073a310","system_id":"levelo_inurba_marseille","lat":43.287184,"lon":5.37937,"is_reserved":false,"is_disabled":false,"rental_uris":{"android":"levelo://app?vid=250c4063-2a25-4b0f-a66b-ad536073a310","ios":"levelo://app?vid=250c4063-2a25-4b0f-a66b-ad536073a310"},"vehicle_type_id":"4","last_reported":1706598391,"current_range_meters":16800,"station_id":"ce4bh9p2rcd13ifvqec0","pricing_plan_id":"free"},{"bike_id":"97b0bde0-bd3d-4e18-b61d-44a138bde320","system_id":"levelo_inurba_marseille","lat":43.29995,"lon":5.40057,"is_reserved":false,"is_disabled":false,"rental_uris":{"android":"levelo://app?vid=97b0bde0-bd3d-4e18-b61d-44a138bde320","ios":"levelo://app?vid=97b0bde0-bd3d-4e18-b61d-44a138bde320"},"vehicle_type_id":"4","last_reported":1706598391,"current_range_meters":0,"station_id":"","pricing_plan_id":"free"},{"bike_id":"b2624b5c-73c6-4615-aeb4-236aadb4fcbd","system_id":"levelo_inurba_marseille","lat":43.290336,"lon":5.386425,"is_reserved":false,"is_disabled":false,"rental_uris":{"android":"levelo://app?vid=b2624b5c-73c6-4615-aeb4-236aadb4fcbd","ios":"levelo://app?vid=b2624b5c-73c6-4615-aeb4-236aadb4fcbd"},"vehicle_type_id":"4","last_reported":1706598391,"current_range_meters":28400,"station_id":"ce4bh4p2rcd13ifvqe0g","pricing_plan_id":"free"},{"bike_id":"67acfad1-b47e-4351-b68e-14cd47ef61b4","system_id":"levelo_inurba_marseille","lat":43.291994,"lon":5.392907,"is_reserved":false,"is_disabled":false,"rental_uris":{"android":"levelo://app?vid=67acfad1-b47e-4351-b68e-14cd47ef61b4","ios":"levelo://app?vid=67acfad1-b47e-4351-b68e-14cd47ef61b4"},"vehicle_type_id":"4","last_reported":1706598391,"current_range_meters":22800,"station_id":"ce4bh192rcd13ifvqdd0","pricing_plan_id":"free"},{"bike_id":"62390ce4-9e42-4308-b9e2-e0c65004ce06","system_id":"levelo_inurba_marseille","lat":43.291994,"lon":5.392907,"is_reserved":false,"is_disabled":false,"rental_uris":{"android":"levelo://app?vid=62390ce4-9e42-4308-b9e2-e0c65004ce06","ios":"levelo://app?vid=62390ce4-9e42-4308-b9e2-e0c65004ce06"},"vehicle_type_id":"4","last_reported":1706598391,"current_range_meters":12400,"station_id":"ce4bh192rcd13ifvqdd0","pricing_plan_id":"free"},{"bike_id":"991c0302-787e-4066-962d-579ea0ad36ba","system_id":"levelo_inurba_marseille","lat":43.291994,"lon":5.392907,"is_reserved":false,"is_disabled":false,"rental_uris":{"android":"levelo://app?vid=991c0302-787e-4066-962d-579ea0ad36ba","ios":"levelo://app?vid=991c0302-787e-4066-962d-579ea0ad36ba"},"vehicle_type_id":"4","last_reported":1706598391,"current_range_meters":25200,"station_id":"ce4bh192rcd13ifvqdd0","pricing_plan_id":"free"},{"bike_id":"26c15faa-4a5a-4232-86e8-5df28ea22d99","system_id":"levelo_inurba_marseille","lat":43.28467,"lon":5.35886,"is_reserved":false,"is_disabled":false,"rental_uris":{"android":"levelo://app?vid=26c15faa-4a5a-4232-86e8-5df28ea22d99","ios":"levelo://app?vid=26c15faa-4a5a-4232-86e8-5df28ea22d99"},"vehicle_type_id":"4","last_reported":1706598391,"current_range_meters":6400,"station_id":"ce4bhah2rcd13ifvqei0","pricing_plan_id":"free"},{"bike_id":"6756e5b8-3bb3-4289-ac16-530fe67ea5a6","system_id":"levelo_inurba_marseille","lat":43.284595,"lon":5.358944,"is_reserved":false,"is_disabled":false,"rental_uris":{"android":"levelo://app?vid=6756e5b8-3bb3-4289-ac16-530fe67ea5a6","ios":"levelo://app?vid=6756e5b8-3bb3-4289-ac16-530fe67ea5a6"},"vehicle_type_id":"4","last_reported":1706598391,"current_range_meters":8400,"station_id":"ce4bhah2rcd13ifvqei0","pricing_plan_id":"free"},{"bike_id":"82cd2120-1dbf-4a0a-a294-2ec4ec144683","system_id":"levelo_inurba_marseille","lat":43.28461,"lon":5.35877,"is_reserved":false,"is_disabled":false,"rental_uris":{"android":"levelo://app?vid=82cd2120-1dbf-4a0a-a294-2ec4ec144683","ios":"levelo://app?vid=82cd2120-1dbf-4a0a-a294-2ec4ec144683"},"vehicle_type_id":"4","last_reported":1706598391,"current_range_meters":2400,"station_id":"ce4bhah2rcd13ifvqei0","pricing_plan_id":"free"},{"bike_id":"a4f06d5a-2463-41f7-a104-3fa3cddef5aa","system_id":"levelo_inurba_marseille","lat":43.284534,"lon":5.358662,"is_reserved":false,"is_disabled":false,"rental_uris":{"android":"levelo://app?vid=a4f06d5a-2463-41f7-a104-3fa3cddef5aa","ios":"levelo://app?vid=a4f06d5a-2463-41f7-a104-3fa3cddef5aa"},"vehicle_type_id":"4","last_reported":1706598391,"current_range_meters":30800,"station_id":"ce4bhah2rcd13ifvqei0","pricing_plan_id":"free"},{"bike_id":"01cdd17b-bb84-4739-bbec-cbe170e8a0b1","system_id":"levelo_inurba_marseille","lat":43.284538,"lon":5.358657,"is_reserved":false,"is_disabled":false,"rental_uris":{"android":"levelo://app?vid=01cdd17b-bb84-4739-bbec-cbe170e8a0b1","ios":"levelo://app?vid=01cdd17b-bb84-4739-bbec-cbe170e8a0b1"},"vehicle_type_id":"4","last_reported":1706598391,"current_range_meters":2000,"station_id":"ce4bhah2rcd13ifvqei0","pricing_plan_id":"free"},{"bike_id":"e2bdccfb-da78-4e7b-8b0b-f2a11a52ec8d","system_id":"levelo_inurba_marseille","lat":43.28459,"lon":5.35883,"is_reserved":false,"is_disabled":false,"rental_uris":{"android":"levelo://app?vid=e2bdccfb-da78-4e7b-8b0b-f2a11a52ec8d","ios":"levelo://app?vid=e2bdccfb-da78-4e7b-8b0b-f2a11a52ec8d"},"vehicle_type_id":"4","last_reported":1706598391,"current_range_meters":25200,"station_id":"ce4bhah2rcd13ifvqei0","pricing_plan_id":"free"},{"bike_id":"6c27bc08-7e45-4ec7-aa5f-f144547defe0","system_id":"levelo_inurba_marseille","lat":43.284538,"lon":5.358657,"is_reserved":false,"is_disabled":false,"rental_uris":{"android":"levelo://app?vid=6c27bc08-7e45-4ec7-aa5f-f144547defe0","ios":"levelo://app?vid=6c27bc08-7e45-4ec7-aa5f-f144547defe0"},"vehicle_type_id":"4","last_reported":1706598391,"current_range_meters":16400,"station_id":"ce4bhah2rcd13ifvqei0","pricing_plan_id":"free"},{"bike_id":"4ea5a8ad-65c3-41f4-8986-3a79b192406a","system_id":"levelo_inurba_marseille","lat":43.28458,"lon":5.35884,"is_reserved":false,"is_disabled":false,"rental_uris":{"android":"levelo://app?vid=4ea5a8ad-65c3-41f4-8986-3a79b192406a","ios":"levelo://app?vid=4ea5a8ad-65c3-41f4-8986-3a79b192406a"},"vehicle_type_id":"4","last_reported":1706598391,"current_range_meters":28000,"station_id":"ce4bhah2rcd13ifvqei0","pricing_plan_id":"free"},{"bike_id":"46829637-2870-448c-bd15-9e6f70822902","system_id":"levelo_inurba_marseille","lat":43.284534,"lon":5.358662,"is_reserved":false,"is_disabled":false,"rental_uris":{"android":"levelo://app?vid=46829637-2870-448c-bd15-9e6f70822902","ios":"levelo://app?vid=46829637-2870-448c-bd15-9e6f70822902"},"vehicle_type_id":"4","last_reported":1706598391,"current_range_meters":0,"station_id":"ce4bhah2rcd13ifvqei0","pricing_plan_id":"free"},{"bike_id":"c465d2b2-2efb-456e-bf3e-0b62c79969ab","system_id":"levelo_inurba_marseille","lat":43.284538,"lon":5.358657,"is_reserved":false,"is_disabled":false,"rental_uris":{"android":"levelo://app?vid=c465d2b2-2efb-456e-bf3e-0b62c79969ab","ios":"levelo://app?vid=c465d2b2-2efb-456e-bf3e-0b62c79969ab"},"vehicle_type_id":"4","last_reported":1706598391,"current_range_meters":29200,"station_id":"ce4bhah2rcd13ifvqei0","pricing_plan_id":"free"},{"bike_id":"90bad0dc-75f5-47cb-8c02-7ea878e1e40b","system_id":"levelo_inurba_marseille","lat":43.284557,"lon":5.358911,"is_reserved":false,"is_disabled":false,"rental_uris":{"android":"levelo://app?vid=90bad0dc-75f5-47cb-8c02-7ea878e1e40b","ios":"levelo://app?vid=90bad0dc-75f5-47cb-8c02-7ea878e1e40b"},"vehicle_type_id":"4","last_reported":1706598391,"current_range_meters":2800,"station_id":"ce4bhah2rcd13ifvqei0","pricing_plan_id":"free"},{"bike_id":"28fb9ec7-a68d-4ccf-b5d7-885096bbc874","system_id":"levelo_inurba_marseille","lat":43.284534,"lon":5.358921,"is_reserved":false,"is_disabled":false,"rental_uris":{"android":"levelo://app?vid=28fb9ec7-a68d-4ccf-b5d7-885096bbc874","ios":"levelo://app?vid=28fb9ec7-a68d-4ccf-b5d7-885096bbc874"},"vehicle_type_id":"4","last_reported":1706598391,"current_range_meters":29600,"station_id":"ce4bhah2rcd13ifvqei0","pricing_plan_id":"free"},{"bike_id":"4496c866-53b6-44d8-acab-d18b0770de6f","system_id":"levelo_inurba_marseille","lat":43.294314,"lon":5.397498,"is_reserved":false,"is_disabled":false,"rental_uris":{"android":"levelo://app?vid=4496c866-53b6-44d8-acab-d18b0770de6f","ios":"levelo://app?vid=4496c866-53b6-44d8-acab-d18b0770de6f"},"vehicle_type_id":"4","last_reported":1706598391,"current_range_meters":27600,"station_id":"ce4bh3h2rcd13ifvqdo0","pricing_plan_id":"free"},{"bike_id":"c7600da4-1dc0-4d38-84e6-0d4bb0d932c7","system_id":"levelo_inurba_marseille","lat":43.28613,"lon":5.351,"is_reserved":false,"is_disabled":false,"rental_uris":{"android":"levelo://app?vid=c7600da4-1dc0-4d38-84e6-0d4bb0d932c7","ios":"levelo://app?vid=c7600da4-1dc0-4d38-84e6-0d4bb0d932c7"},"vehicle_type_id":"4","last_reported":1706598391,"current_range_meters":6400,"station_id":"ce4bhch2rcd13ifvqeug","pricing_plan_id":"free"},{"bike_id":"f71f009e-6071-4cc0-b6d5-07c481c7850e","system_id":"levelo_inurba_marseille","lat":43.34134,"lon":5.35964,"is_reserved":false,"is_disabled":false,"rental_uris":{"android":"levelo://app?vid=f71f009e-6071-4cc0-b6d5-07c481c7850e","ios":"levelo://app?vid=f71f009e-6071-4cc0-b6d5-07c481c7850e"},"vehicle_type_id":"4","last_reported":1706598391,"current_range_meters":0,"station_id":"","pricing_plan_id":"free"},{"bike_id":"03c81ef7-b18b-4af1-8396-bf3b27e22ce3","system_id":"levelo_inurba_marseille","lat":43.283998,"lon":5.375062,"is_reserved":false,"is_disabled":false,"rental_uris":{"android":"levelo://app?vid=03c81ef7-b18b-4af1-8396-bf3b27e22ce3","ios":"levelo://app?vid=03c81ef7-b18b-4af1-8396-bf3b27e22ce3"},"vehicle_type_id":"4","last_reported":1706598391,"current_range_meters":29600,"station_id":"ce4bh412rcd13ifvqds0","pricing_plan_id":"free"},{"bike_id":"f3895677-173c-488b-b299-9c6b99022bdb","system_id":"levelo_inurba_marseille","lat":43.283998,"lon":5.375062,"is_reserved":false,"is_disabled":false,"rental_uris":{"android":"levelo://app?vid=f3895677-173c-488b-b299-9c6b99022bdb","ios":"levelo://app?vid=f3895677-173c-488b-b299-9c6b99022bdb"},"vehicle_type_id":"4","last_reported":1706598391,"current_range_meters":4000,"station_id":"ce4bh412rcd13ifvqds0","pricing_plan_id":"free"},{"bike_id":"ce036d80-9dc5-45aa-9c81-eadb63d9d4f5","system_id":"levelo_inurba_marseille","lat":43.283494,"lon":5.380945,"is_reserved":false,"is_disabled":false,"rental_uris":{"android":"levelo://app?vid=ce036d80-9dc5-45aa-9c81-eadb63d9d4f5","ios":"levelo://app?vid=ce036d80-9dc5-45aa-9c81-eadb63d9d4f5"},"vehicle_type_id":"4","last_reported":1706598391,"current_range_meters":15600,"station_id":"ce4bh412rcd13ifvqdr0","pricing_plan_id":"free"},{"bike_id":"083184e8-1ec3-4104-aa31-31466b9e35f0","system_id":"levelo_inurba_marseille","lat":43.28404,"lon":5.37508,"is_reserved":false,"is_disabled":false,"rental_uris":{"android":"levelo://app?vid=083184e8-1ec3-4104-aa31-31466b9e35f0","ios":"levelo://app?vid=083184e8-1ec3-4104-aa31-31466b9e35f0"},"vehicle_type_id":"4","last_reported":1706598391,"current_range_meters":4400,"station_id":"ce4bh412rcd13ifvqds0","pricing_plan_id":"free"},{"bike_id":"50bb0920-dffe-4cde-8978-a97132a3d2d3","system_id":"levelo_inurba_marseille","lat":43.295713,"lon":5.399639,"is_reserved":false,"is_disabled":false,"rental_uris":{"android":"levelo://app?vid=50bb0920-dffe-4cde-8978-a97132a3d2d3","ios":"levelo://app?vid=50bb0920-dffe-4cde-8978-a97132a3d2d3"},"vehicle_type_id":"4","last_reported":1706598391,"current_range_meters":27600,"station_id":"ce4bh312rcd13ifvqdj0","pricing_plan_id":"free"},{"bike_id":"13e72f15-8e5e-401a-add2-60e900374aaf","system_id":"levelo_inurba_marseille","lat":43.295713,"lon":5.399639,"is_reserved":false,"is_disabled":false,"rental_uris":{"android":"levelo://app?vid=13e72f15-8e5e-401a-add2-60e900374aaf","ios":"levelo://app?vid=13e72f15-8e5e-401a-add2-60e900374aaf"},"vehicle_type_id":"4","last_reported":1706598391,"current_range_meters":14400,"station_id":"ce4bh312rcd13ifvqdj0","pricing_plan_id":"free"},{"bike_id":"4f87bb01-6a05-46cf-92fd-2251b6ed450a","system_id":"levelo_inurba_marseille","lat":43.295713,"lon":5.399639,"is_reserved":false,"is_disabled":false,"rental_uris":{"android":"levelo://app?vid=4f87bb01-6a05-46cf-92fd-2251b6ed450a","ios":"levelo://app?vid=4f87bb01-6a05-46cf-92fd-2251b6ed450a"},"vehicle_type_id":"4","last_reported":1706598391,"current_range_meters":400,"station_id":"ce4bh312rcd13ifvqdj0","pricing_plan_id":"free"},{"bike_id":"37a828a8-a1ca-4bde-9e27-ca0e1f726358","system_id":"levelo_inurba_marseille","lat":43.295713,"lon":5.399639,"is_reserved":false,"is_disabled":false,"rental_uris":{"android":"levelo://app?vid=37a828a8-a1ca-4bde-9e27-ca0e1f726358","ios":"levelo://app?vid=37a828a8-a1ca-4bde-9e27-ca0e1f726358"},"vehicle_type_id":"4","last_reported":1706598391,"current_range_meters":25200,"station_id":"ce4bh312rcd13ifvqdj0","pricing_plan_id":"free"},{"bike_id":"3931ee78-4599-40c1-8483-2765f033b900","system_id":"levelo_inurba_marseille","lat":43.295713,"lon":5.399639,"is_reserved":false,"is_disabled":false,"rental_uris":{"android":"levelo://app?vid=3931ee78-4599-40c1-8483-2765f033b900","ios":"levelo://app?vid=3931ee78-4599-40c1-8483-2765f033b900"},"vehicle_type_id":"4","last_reported":1706598391,"current_range_meters":1600,"station_id":"ce4bh312rcd13ifvqdj0","pricing_plan_id":"free"},{"bike_id":"badbb82f-c17d-4c80-b666-8441bd1026ab","system_id":"levelo_inurba_marseille","lat":43.319179,"lon":5.407725,"is_reserved":false,"is_disabled":false,"rental_uris":{"android":"levelo://app?vid=badbb82f-c17d-4c80-b666-8441bd1026ab","ios":"levelo://app?vid=badbb82f-c17d-4c80-b666-8441bd1026ab"},"vehicle_type_id":"4","last_reported":1706598391,"current_range_meters":18400,"station_id":"ce4bhq12rcd13ifvqhig","pricing_plan_id":"free"},{"bike_id":"ef4039eb-abf6-459b-ba4a-dad8f0722fb2","system_id":"levelo_inurba_marseille","lat":43.319179,"lon":5.407725,"is_reserved":false,"is_disabled":false,"rental_uris":{"android":"levelo://app?vid=ef4039eb-abf6-459b-ba4a-dad8f0722fb2","ios":"levelo://app?vid=ef4039eb-abf6-459b-ba4a-dad8f0722fb2"},"vehicle_type_id":"4","last_reported":1706598391,"current_range_meters":12000,"station_id":"ce4bhq12rcd13ifvqhig","pricing_plan_id":"free"},{"bike_id":"19b99294-9f60-4227-8908-6edb1a8594c1","system_id":"levelo_inurba_marseille","lat":43.319179,"lon":5.407725,"is_reserved":false,"is_disabled":false,"rental_uris":{"android":"levelo://app?vid=19b99294-9f60-4227-8908-6edb1a8594c1","ios":"levelo://app?vid=19b99294-9f60-4227-8908-6edb1a8594c1"},"vehicle_type_id":"4","last_reported":1706598391,"current_range_meters":26400,"station_id":"ce4bhq12rcd13ifvqhig","pricing_plan_id":"free"},{"bike_id":"4479e8c3-81b3-4026-97bf-4cb7969d7313","system_id":"levelo_inurba_marseille","lat":43.319179,"lon":5.407725,"is_reserved":false,"is_disabled":false,"rental_uris":{"android":"levelo://app?vid=4479e8c3-81b3-4026-97bf-4cb7969d7313","ios":"levelo://app?vid=4479e8c3-81b3-4026-97bf-4cb7969d7313"},"vehicle_type_id":"4","last_reported":1706598391,"current_range_meters":4400,"station_id":"ce4bhq12rcd13ifvqhig","pricing_plan_id":"free"},{"bike_id":"7b9e07d6-9b46-4624-bd66-2132bac2a771","system_id":"levelo_inurba_marseille","lat":43.265571,"lon":5.390032,"is_reserved":false,"is_disabled":false,"rental_uris":{"android":"levelo://app?vid=7b9e07d6-9b46-4624-bd66-2132bac2a771","ios":"levelo://app?vid=7b9e07d6-9b46-4624-bd66-2132bac2a771"},"vehicle_type_id":"4","last_reported":1706598391,"current_range_meters":16800,"station_id":"ce4bhe12rcd13ifvqf30","pricing_plan_id":"free"},{"bike_id":"c8e86e60-6170-423a-a03a-015b7ce92a10","system_id":"levelo_inurba_marseille","lat":43.33717,"lon":5.391857,"is_reserved":false,"is_disabled":false,"rental_uris":{"android":"levelo://app?vid=c8e86e60-6170-423a-a03a-015b7ce92a10","ios":"levelo://app?vid=c8e86e60-6170-423a-a03a-015b7ce92a10"},"vehicle_type_id":"4","last_reported":1706598391,"current_range_meters":15600,"station_id":"ce4bhr92rcd13ifvqhsg","pricing_plan_id":"free"},{"bike_id":"e8478b99-c952-4ef8-919f-66add5667414","system_id":"levelo_inurba_marseille","lat":43.284793,"lon":5.384113,"is_reserved":false,"is_disabled":false,"rental_uris":{"android":"levelo://app?vid=e8478b99-c952-4ef8-919f-66add5667414","ios":"levelo://app?vid=e8478b99-c952-4ef8-919f-66add5667414"},"vehicle_type_id":"4","last_reported":1706598391,"current_range_meters":5200,"station_id":"ce4bh512rcd13ifvqe3g","pricing_plan_id":"free"},{"bike_id":"f5f3f389-405f-4c9f-aba5-0d57b506f60c","system_id":"levelo_inurba_marseille","lat":43.284793,"lon":5.384119,"is_reserved":false,"is_disabled":false,"rental_uris":{"android":"levelo://app?vid=f5f3f389-405f-4c9f-aba5-0d57b506f60c","ios":"levelo://app?vid=f5f3f389-405f-4c9f-aba5-0d57b506f60c"},"vehicle_type_id":"4","last_reported":1706598391,"current_range_meters":25600,"station_id":"ce4bh512rcd13ifvqe3g","pricing_plan_id":"free"},{"bike_id":"206551fd-86a1-410b-a891-1aa16c71def5","system_id":"levelo_inurba_marseille","lat":43.283498,"lon":5.380948,"is_reserved":false,"is_disabled":false,"rental_uris":{"android":"levelo://app?vid=206551fd-86a1-410b-a891-1aa16c71def5","ios":"levelo://app?vid=206551fd-86a1-410b-a891-1aa16c71def5"},"vehicle_type_id":"4","last_reported":1706598391,"current_range_meters":7200,"station_id":"ce4bh412rcd13ifvqdr0","pricing_plan_id":"free"},{"bike_id":"c1432151-869b-4313-932e-33fd746e684f","system_id":"levelo_inurba_marseille","lat":43.283494,"lon":5.380945,"is_reserved":false,"is_disabled":false,"rental_uris":{"android":"levelo://app?vid=c1432151-869b-4313-932e-33fd746e684f","ios":"levelo://app?vid=c1432151-869b-4313-932e-33fd746e684f"},"vehicle_type_id":"4","last_reported":1706598391,"current_range_meters":19600,"station_id":"ce4bh412rcd13ifvqdr0","pricing_plan_id":"free"},{"bike_id":"6f04f44b-3e6a-40c4-bad7-f056a35fedfe","system_id":"levelo_inurba_marseille","lat":43.283494,"lon":5.380945,"is_reserved":false,"is_disabled":false,"rental_uris":{"android":"levelo://app?vid=6f04f44b-3e6a-40c4-bad7-f056a35fedfe","ios":"levelo://app?vid=6f04f44b-3e6a-40c4-bad7-f056a35fedfe"},"vehicle_type_id":"4","last_reported":1706598391,"current_range_meters":19600,"station_id":"ce4bh412rcd13ifvqdr0","pricing_plan_id":"free"},{"bike_id":"8a5874a9-287b-4c2f-b838-e7b5493bd9bb","system_id":"levelo_inurba_marseille","lat":43.283498,"lon":5.380948,"is_reserved":false,"is_disabled":false,"rental_uris":{"android":"levelo://app?vid=8a5874a9-287b-4c2f-b838-e7b5493bd9bb","ios":"levelo://app?vid=8a5874a9-287b-4c2f-b838-e7b5493bd9bb"},"vehicle_type_id":"4","last_reported":1706598391,"current_range_meters":6800,"station_id":"ce4bh412rcd13ifvqdr0","pricing_plan_id":"free"},{"bike_id":"b43ad59b-96c4-4346-bc9f-6ff99fc0c6ce","system_id":"levelo_inurba_marseille","lat":43.283494,"lon":5.380945,"is_reserved":false,"is_disabled":false,"rental_uris":{"android":"levelo://app?vid=b43ad59b-96c4-4346-bc9f-6ff99fc0c6ce","ios":"levelo://app?vid=b43ad59b-96c4-4346-bc9f-6ff99fc0c6ce"},"vehicle_type_id":"4","last_reported":1706598391,"current_range_meters":12400,"station_id":"ce4bh412rcd13ifvqdr0","pricing_plan_id":"free"},{"bike_id":"cabb7e98-91e7-40b3-95e0-d4cb6fd93edf","system_id":"levelo_inurba_marseille","lat":43.293731,"lon":5.400602,"is_reserved":false,"is_disabled":false,"rental_uris":{"android":"levelo://app?vid=cabb7e98-91e7-40b3-95e0-d4cb6fd93edf","ios":"levelo://app?vid=cabb7e98-91e7-40b3-95e0-d4cb6fd93edf"},"vehicle_type_id":"4","last_reported":1706598391,"current_range_meters":6000,"station_id":"","pricing_plan_id":"free"},{"bike_id":"9e814ec6-9f09-429a-937e-f5b5bcac3ceb","system_id":"levelo_inurba_marseille","lat":43.283498,"lon":5.380948,"is_reserved":false,"is_disabled":false,"rental_uris":{"android":"levelo://app?vid=9e814ec6-9f09-429a-937e-f5b5bcac3ceb","ios":"levelo://app?vid=9e814ec6-9f09-429a-937e-f5b5bcac3ceb"},"vehicle_type_id":"4","last_reported":1706598391,"current_range_meters":17200,"station_id":"ce4bh412rcd13ifvqdr0","pricing_plan_id":"free"},{"bike_id":"bc80ee76-3dc2-468b-b870-2757c86ed02d","system_id":"levelo_inurba_marseille","lat":43.28344,"lon":5.38099,"is_reserved":false,"is_disabled":false,"rental_uris":{"android":"levelo://app?vid=bc80ee76-3dc2-468b-b870-2757c86ed02d","ios":"levelo://app?vid=bc80ee76-3dc2-468b-b870-2757c86ed02d"},"vehicle_type_id":"4","last_reported":1706598391,"current_range_meters":23200,"station_id":"ce4bh412rcd13ifvqdr0","pricing_plan_id":"free"},{"bike_id":"39482d29-390d-4fbf-a993-c7dade3dff16","system_id":"levelo_inurba_marseille","lat":43.283498,"lon":5.380948,"is_reserved":false,"is_disabled":false,"rental_uris":{"android":"levelo://app?vid=39482d29-390d-4fbf-a993-c7dade3dff16","ios":"levelo://app?vid=39482d29-390d-4fbf-a993-c7dade3dff16"},"vehicle_type_id":"4","last_reported":1706598391,"current_range_meters":22000,"station_id":"ce4bh412rcd13ifvqdr0","pricing_plan_id":"free"},{"bike_id":"275bdada-6c56-4312-ab32-8288863325ef","system_id":"levelo_inurba_marseille","lat":43.284219,"lon":5.3497,"is_reserved":false,"is_disabled":false,"rental_uris":{"android":"levelo://app?vid=275bdada-6c56-4312-ab32-8288863325ef","ios":"levelo://app?vid=275bdada-6c56-4312-ab32-8288863325ef"},"vehicle_type_id":"4","last_reported":1706598391,"current_range_meters":31200,"station_id":"ce4bhbh2rcd13ifvqepg","pricing_plan_id":"free"},{"bike_id":"15c009be-3711-46cc-8977-da04c23e2568","system_id":"levelo_inurba_marseille","lat":43.284219,"lon":5.3497,"is_reserved":false,"is_disabled":false,"rental_uris":{"android":"levelo://app?vid=15c009be-3711-46cc-8977-da04c23e2568","ios":"levelo://app?vid=15c009be-3711-46cc-8977-da04c23e2568"},"vehicle_type_id":"4","last_reported":1706598391,"current_range_meters":31200,"station_id":"ce4bhbh2rcd13ifvqepg","pricing_plan_id":"free"},{"bike_id":"c8bb4b12-c384-4783-8fa9-9e4309458f58","system_id":"levelo_inurba_marseille","lat":43.283498,"lon":5.380948,"is_reserved":false,"is_disabled":false,"rental_uris":{"android":"levelo://app?vid=c8bb4b12-c384-4783-8fa9-9e4309458f58","ios":"levelo://app?vid=c8bb4b12-c384-4783-8fa9-9e4309458f58"},"vehicle_type_id":"4","last_reported":1706598391,"current_range_meters":5600,"station_id":"ce4bh412rcd13ifvqdr0","pricing_plan_id":"free"},{"bike_id":"f74b47d2-8fa1-42fe-9340-ccf3f8ac1de8","system_id":"levelo_inurba_marseille","lat":43.28418,"lon":5.34981,"is_reserved":false,"is_disabled":false,"rental_uris":{"android":"levelo://app?vid=f74b47d2-8fa1-42fe-9340-ccf3f8ac1de8","ios":"levelo://app?vid=f74b47d2-8fa1-42fe-9340-ccf3f8ac1de8"},"vehicle_type_id":"4","last_reported":1706598391,"current_range_meters":31200,"station_id":"ce4bhbh2rcd13ifvqepg","pricing_plan_id":"free"},{"bike_id":"75a2857b-bdf4-4959-8ac1-0e75437815f6","system_id":"levelo_inurba_marseille","lat":43.284214,"lon":5.349706,"is_reserved":false,"is_disabled":false,"rental_uris":{"android":"levelo://app?vid=75a2857b-bdf4-4959-8ac1-0e75437815f6","ios":"levelo://app?vid=75a2857b-bdf4-4959-8ac1-0e75437815f6"},"vehicle_type_id":"4","last_reported":1706598391,"current_range_meters":22400,"station_id":"ce4bhbh2rcd13ifvqepg","pricing_plan_id":"free"},{"bike_id":"1bee4a82-c8fe-4924-afcb-64cae2fb3105","system_id":"levelo_inurba_marseille","lat":43.283498,"lon":5.380948,"is_reserved":false,"is_disabled":false,"rental_uris":{"android":"levelo://app?vid=1bee4a82-c8fe-4924-afcb-64cae2fb3105","ios":"levelo://app?vid=1bee4a82-c8fe-4924-afcb-64cae2fb3105"},"vehicle_type_id":"4","last_reported":1706598391,"current_range_meters":22800,"station_id":"ce4bh412rcd13ifvqdr0","pricing_plan_id":"free"},{"bike_id":"fdf0cef8-a72c-4e1f-af5d-0dbe8ca95389","system_id":"levelo_inurba_marseille","lat":43.292724,"lon":5.401131,"is_reserved":false,"is_disabled":false,"rental_uris":{"android":"levelo://app?vid=fdf0cef8-a72c-4e1f-af5d-0dbe8ca95389","ios":"levelo://app?vid=fdf0cef8-a72c-4e1f-af5d-0dbe8ca95389"},"vehicle_type_id":"4","last_reported":1706598391,"current_range_meters":26800,"station_id":"ce4bh312rcd13ifvqdk0","pricing_plan_id":"free"},{"bike_id":"c366f86f-a858-46e6-a2e9-db3e384dce88","system_id":"levelo_inurba_marseille","lat":43.292724,"lon":5.401131,"is_reserved":false,"is_disabled":false,"rental_uris":{"android":"levelo://app?vid=c366f86f-a858-46e6-a2e9-db3e384dce88","ios":"levelo://app?vid=c366f86f-a858-46e6-a2e9-db3e384dce88"},"vehicle_type_id":"4","last_reported":1706598391,"current_range_meters":15200,"station_id":"ce4bh312rcd13ifvqdk0","pricing_plan_id":"free"},{"bike_id":"559bb580-5fce-409c-8d64-2030777c9663","system_id":"levelo_inurba_marseille","lat":43.292724,"lon":5.401131,"is_reserved":false,"is_disabled":false,"rental_uris":{"android":"levelo://app?vid=559bb580-5fce-409c-8d64-2030777c9663","ios":"levelo://app?vid=559bb580-5fce-409c-8d64-2030777c9663"},"vehicle_type_id":"4","last_reported":1706598391,"current_range_meters":20000,"station_id":"ce4bh312rcd13ifvqdk0","pricing_plan_id":"free"},{"bike_id":"5ab7a2e4-24bb-4055-bc49-e3b376690503","system_id":"levelo_inurba_marseille","lat":43.282698,"lon":5.350754,"is_reserved":false,"is_disabled":false,"rental_uris":{"android":"levelo://app?vid=5ab7a2e4-24bb-4055-bc49-e3b376690503","ios":"levelo://app?vid=5ab7a2e4-24bb-4055-bc49-e3b376690503"},"vehicle_type_id":"4","last_reported":1706598391,"current_range_meters":20800,"station_id":"ce4bhbp2rcd13ifvqerg","pricing_plan_id":"free"},{"bike_id":"553911a7-2472-40d3-81ef-02d5b0726551","system_id":"levelo_inurba_marseille","lat":43.282696,"lon":5.350703,"is_reserved":false,"is_disabled":false,"rental_uris":{"android":"levelo://app?vid=553911a7-2472-40d3-81ef-02d5b0726551","ios":"levelo://app?vid=553911a7-2472-40d3-81ef-02d5b0726551"},"vehicle_type_id":"4","last_reported":1706598391,"current_range_meters":20000,"station_id":"ce4bhbp2rcd13ifvqerg","pricing_plan_id":"free"},{"bike_id":"56ba3bdd-bc22-44c3-bc92-47ca037ceb49","system_id":"levelo_inurba_marseille","lat":43.28039,"lon":5.369297,"is_reserved":false,"is_disabled":false,"rental_uris":{"android":"levelo://app?vid=56ba3bdd-bc22-44c3-bc92-47ca037ceb49","ios":"levelo://app?vid=56ba3bdd-bc22-44c3-bc92-47ca037ceb49"},"vehicle_type_id":"4","last_reported":1706598391,"current_range_meters":17200,"station_id":"ce4bha12rcd13ifvqef0","pricing_plan_id":"free"},{"bike_id":"2f16bd58-afe7-464e-9d98-4f05a7e0cd1f","system_id":"levelo_inurba_marseille","lat":43.282754,"lon":5.350519,"is_reserved":false,"is_disabled":false,"rental_uris":{"android":"levelo://app?vid=2f16bd58-afe7-464e-9d98-4f05a7e0cd1f","ios":"levelo://app?vid=2f16bd58-afe7-464e-9d98-4f05a7e0cd1f"},"vehicle_type_id":"4","last_reported":1706598391,"current_range_meters":16000,"station_id":"ce4bhbp2rcd13ifvqerg","pricing_plan_id":"free"},{"bike_id":"52cf0994-4850-4897-bb46-cd4fb0b70b61","system_id":"levelo_inurba_marseille","lat":43.28265,"lon":5.35069,"is_reserved":false,"is_disabled":false,"rental_uris":{"android":"levelo://app?vid=52cf0994-4850-4897-bb46-cd4fb0b70b61","ios":"levelo://app?vid=52cf0994-4850-4897-bb46-cd4fb0b70b61"},"vehicle_type_id":"4","last_reported":1706598391,"current_range_meters":29600,"station_id":"ce4bhbp2rcd13ifvqerg","pricing_plan_id":"free"},{"bike_id":"b3347a7b-d4d3-449a-9a9f-444f47f93821","system_id":"levelo_inurba_marseille","lat":43.282744,"lon":5.350533,"is_reserved":false,"is_disabled":false,"rental_uris":{"android":"levelo://app?vid=b3347a7b-d4d3-449a-9a9f-444f47f93821","ios":"levelo://app?vid=b3347a7b-d4d3-449a-9a9f-444f47f93821"},"vehicle_type_id":"4","last_reported":1706598391,"current_range_meters":31200,"station_id":"ce4bhbp2rcd13ifvqerg","pricing_plan_id":"free"},{"bike_id":"d65026b2-a2db-48f9-9f73-00745737ed71","system_id":"levelo_inurba_marseille","lat":43.282754,"lon":5.350519,"is_reserved":false,"is_disabled":false,"rental_uris":{"android":"levelo://app?vid=d65026b2-a2db-48f9-9f73-00745737ed71","ios":"levelo://app?vid=d65026b2-a2db-48f9-9f73-00745737ed71"},"vehicle_type_id":"4","last_reported":1706598391,"current_range_meters":31200,"station_id":"ce4bhbp2rcd13ifvqerg","pricing_plan_id":"free"},{"bike_id":"9e8d1047-9a76-43a9-88bc-a1a2d1600b6b","system_id":"levelo_inurba_marseille","lat":43.283494,"lon":5.380945,"is_reserved":false,"is_disabled":false,"rental_uris":{"android":"levelo://app?vid=9e8d1047-9a76-43a9-88bc-a1a2d1600b6b","ios":"levelo://app?vid=9e8d1047-9a76-43a9-88bc-a1a2d1600b6b"},