{"last_updated":1741947029,"ttl":60,"version":"2.2","data":{"bikes":[{"bike_id":"e3433a29-4d63-4030-abbc-447f8c6dd520","system_id":"levelo_inurba_marseille","lat":43.26556,"lon":5.39016,"is_reserved":false,"is_disabled":false,"rental_uris":{"android":"levelo://app?vid=e3433a29-4d63-4030-abbc-447f8c6dd520","ios":"levelo://app?vid=e3433a29-4d63-4030-abbc-447f8c6dd520"},"vehicle_type_id":"4","last_reported":1741947029,"current_range_meters":2800,"station_id":"ce4bhe12rcd13ifvqf30","pricing_plan_id":"cebpf4jnsgd1na2vs0mg"},{"bike_id":"f0178c32-2e15-41a1-9957-5004806e0849","system_id":"levelo_inurba_marseille","lat":43.27688,"lon":5.389,"is_reserved":false,"is_disabled":false,"rental_uris":{"android":"levelo://app?vid=f0178c32-2e15-41a1-9957-5004806e0849","ios":"levelo://app?vid=f0178c32-2e15-41a1-9957-5004806e0849"},"vehicle_type_id":"4","last_reported":1741947029,"current_range_meters":2800,"station_id":"ce4bhi12rcd13ifvqfo0","pricing_plan_id":"cebpf4jnsgd1na2vs0mg"},{"bike_id":"0e1454f0-c501-449b-b78c-ddfc8f4d9aab","system_id":"levelo_inurba_marseille","lat":43.33768,"lon":5.3749,"is_reserved":false,"is_disabled":false,"rental_uris":{"android":"levelo://app?vid=0e1454f0-c501-449b-b78c-ddfc8f4d9aab","ios":"levelo://app?vid=0e1454f0-c501-449b-b78c-ddfc8f4d9aab"},"vehicle_type_id":"4","last_reported":1741947029,"current_range_meters":2800,"station_id":"","pricing_plan_id":"cebpf4jnsgd1na2vs0mg"},{"bike_id":"30f4febb-a334-4a53-8c70-cf9826d8624a","system_id":"levelo_inurba_marseille","lat":43.31352,"lon":5.36722,"is_reserved":false,"is_disabled":false,"rental_uris":{"android":"levelo://app?vid=30f4febb-a334-4a53-8c70-cf9826d8624a","ios":"levelo://app?vid=30f4febb-a334-4a53-8c70-cf9826d8624a"},"vehicle_type_id":"4","last_reported":1741947029,"current_range_meters":2800,"station_id":"ce4bgr92rcd13ifvqc6g","pricing_plan_id":"cebpf4jnsgd1na2vs0mg"},{"bike_id":"591b1ee0-9fd2-4349-8e87-905a66cada57","system_id":"levelo_inurba_marseille","lat":43.29971,"lon":5.38486,"is_reserved":false,"is_disabled":false,"rental_uris":{"android":"levelo://app?vid=591b1ee0-9fd2-4349-8e87-905a66cada57","ios":"levelo://app?vid=591b1ee0-9fd2-4349-8e87-905a66cada57"},"vehicle_type_id":"4","last_reported":1741947029,"current_range_meters":2800,"station_id":"ce4bgj92rcd13ifvqbd0","pricing_plan_id":"cebpf4jnsgd1na2vs0mg"},{"bike_id":"bab860aa-ce8a-4de6-b221-6c6728d089e5","system_id":"levelo_inurba_marseille","lat":43.24067,"lon":5.37763,"is_reserved":false,"is_disabled":false,"rental_uris":{"android":"levelo://app?vid=bab860aa-ce8a-4de6-b221-6c6728d089e5","ios":"levelo://app?vid=bab860aa-ce8a-4de6-b221-6c6728d089e5"},"vehicle_type_id":"4","last_reported":1741947029,"current_range_meters":3200,"station_id":"ce4bhnp2rcd13ifvqgvg","pricing_plan_id":"cebpf4jnsgd1na2vs0mg"},{"bike_id":"88d4df4a-f3a5-4d5e-b24a-d6802c72f1bf","system_id":"levelo_inurba_marseille","lat":43.26935,"lon":5.3865,"is_reserved":false,"is_disabled":false,"rental_uris":{"android":"levelo://app?vid=88d4df4a-f3a5-4d5e-b24a-d6802c72f1bf","ios":"levelo://app?vid=88d4df4a-f3a5-4d5e-b24a-d6802c72f1bf"},"vehicle_type_id":"4","last_reported":1741947029,"current_range_meters":3200,"station_id":"ce4bhh92rcd13ifvqfh0","pricing_plan_id":"cebpf4jnsgd1na2vs0mg"},{"bike_id":"deca74f6-484d-4edf-b850-552350252462","system_id":"levelo_inurba_marseille","lat":43.24993,"lon":5.38941,"is_reserved":false,"is_disabled":false,"rental_uris":{"android":"levelo://app?vid=deca74f6-484d-4edf-b850-552350252462","ios":"levelo://app?vid=deca74f6-484d-4edf-b850-552350252462"},"vehicle_type_id":"4","last_reported":1741947029,"current_range_meters":3600,"station_id":"ce4bhgp2rcd13ifvqfd0","pricing_plan_id":"cebpf4jnsgd1na2vs0mg"},{"bike_id":"7e2efce6-2abc-47be-8e98-d015769ebdaa","system_id":"levelo_inurba_marseille","lat":43.27416,"lon":5.41884,"is_reserved":false,"is_disabled":true,"rental_uris":{"android":"levelo://app?vid=7e2efce6-2abc-47be-8e98-d015769ebdaa","ios":"levelo://app?vid=7e2efce6-2abc-47be-8e98-d015769ebdaa"},"vehicle_type_id":"4","last_reported":1741947029,"current_range_meters":3600,"station_id":"","pricing_plan_id":"cebpf4jnsgd1na2vs0mg"},{"bike_id":"2fe54254-5b11-4939-bb74-6fb31c1295ea","system_id":"levelo_inurba_marseille","lat":43.22942,"lon":5.35378,"is_reserved":false,"is_disabled":false,"rental_uris":{"android":"levelo://app?vid=2fe54254-5b11-4939-bb74-6fb31c1295ea","ios":"levelo://app?vid=2fe54254-5b11-4939-bb74-6fb31c1295ea"},"vehicle_type_id":"4","last_reported":1741947029,"current_range_meters":3600,"station_id":"cpo3532slgdg3j2ikp40","pricing_plan_id":"cebpf4jnsgd1na2vs0mg"},{"bike_id":"c50525c0-1fdf-4b73-bf78-bf18109ea157","system_id":"levelo_inurba_marseille","lat":43.29188,"lon":5.35807,"is_reserved":false,"is_disabled":false,"rental_uris":{"android":"levelo://app?vid=c50525c0-1fdf-4b73-bf78-bf18109ea157","ios":"levelo://app?vid=c50525c0-1fdf-4b73-bf78-bf18109ea157"},"vehicle_type_id":"4","last_reported":1741947029,"current_range_meters":3200,"station_id":"ce4bhb12rcd13ifvqel0","pricing_plan_id":"cebpf4jnsgd1na2vs0mg"},{"bike_id":"380d4a53-3264-4aac-8a27-5aa75deef1df","system_id":"levelo_inurba_marseille","lat":43.29236,"lon":5.360548,"is_reserved":false,"is_disabled":false,"rental_uris":{"android":"levelo://app?vid=380d4a53-3264-4aac-8a27-5aa75deef1df","ios":"levelo://app?vid=380d4a53-3264-4aac-8a27-5aa75deef1df"},"vehicle_type_id":"4","last_reported":1741947029,"current_range_meters":3600,"station_id":"ce4bgpp2rcd13ifvqc3g","pricing_plan_id":"cebpf4jnsgd1na2vs0mg"},{"bike_id":"8ca720cf-8cc7-4201-a29c-e07b0ffda00a","system_id":"levelo_inurba_marseille","lat":43.2318,"lon":5.39988,"is_reserved":false,"is_disabled":false,"rental_uris":{"android":"levelo://app?vid=8ca720cf-8cc7-4201-a29c-e07b0ffda00a","ios":"levelo://app?vid=8ca720cf-8cc7-4201-a29c-e07b0ffda00a"},"vehicle_type_id":"4","last_reported":1741947029,"current_range_meters":3600,"station_id":"ce4bhn12rcd13ifvqgqg","pricing_plan_id":"cebpf4jnsgd1na2vs0mg"},{"bike_id":"fa714b8a-818c-4bd4-ab4e-e240e19cc435","system_id":"levelo_inurba_marseille","lat":43.30142,"lon":5.39859,"is_reserved":false,"is_disabled":false,"rental_uris":{"android":"levelo://app?vid=fa714b8a-818c-4bd4-ab4e-e240e19cc435","ios":"levelo://app?vid=fa714b8a-818c-4bd4-ab4e-e240e19cc435"},"vehicle_type_id":"4","last_reported":1741947029,"current_range_meters":3600,"station_id":"ce4bh0h2rcd13ifvqd40","pricing_plan_id":"cebpf4jnsgd1na2vs0mg"},{"bike_id":"427d28a3-af67-4959-99dd-46705a7bd3cb","system_id":"levelo_inurba_marseille","lat":43.28935,"lon":5.38381,"is_reserved":false,"is_disabled":false,"rental_uris":{"android":"levelo://app?vid=427d28a3-af67-4959-99dd-46705a7bd3cb","ios":"levelo://app?vid=427d28a3-af67-4959-99dd-46705a7bd3cb"},"vehicle_type_id":"4","last_reported":1741947029,"current_range_meters":3600,"station_id":"ce4bh612rcd13ifvqe6g","pricing_plan_id":"cebpf4jnsgd1na2vs0mg"},{"bike_id":"a47f788e-2f36-4999-959a-2f64a56d533e","system_id":"levelo_inurba_marseille","lat":43.24173,"lon":5.39735,"is_reserved":false,"is_disabled":false,"rental_uris":{"android":"levelo://app?vid=a47f788e-2f36-4999-959a-2f64a56d533e","ios":"levelo://app?vid=a47f788e-2f36-4999-959a-2f64a56d533e"},"vehicle_type_id":"4","last_reported":1741947029,"current_range_meters":4000,"station_id":"ce4bhn12rcd13ifvqgpg","pricing_plan_id":"cebpf4jnsgd1na2vs0mg"},{"bike_id":"d5ae4600-476e-4c8a-b248-76c73ec9f040","system_id":"levelo_inurba_marseille","lat":43.24992,"lon":5.38924,"is_reserved":false,"is_disabled":false,"rental_uris":{"android":"levelo://app?vid=d5ae4600-476e-4c8a-b248-76c73ec9f040","ios":"levelo://app?vid=d5ae4600-476e-4c8a-b248-76c73ec9f040"},"vehicle_type_id":"4","last_reported":1741947029,"current_range_meters":4000,"station_id":"ce4bhgp2rcd13ifvqfd0","pricing_plan_id":"cebpf4jnsgd1na2vs0mg"},{"bike_id":"adeaef2c-ed5d-41d5-96c2-1cf1f1e01c9e","system_id":"levelo_inurba_marseille","lat":43.29265,"lon":5.37447,"is_reserved":false,"is_disabled":false,"rental_uris":{"android":"levelo://app?vid=adeaef2c-ed5d-41d5-96c2-1cf1f1e01c9e","ios":"levelo://app?vid=adeaef2c-ed5d-41d5-96c2-1cf1f1e01c9e"},"vehicle_type_id":"4","last_reported":1741947029,"current_range_meters":4000,"station_id":"ce4bgi12rcd13ifvqb70","pricing_plan_id":"cebpf4jnsgd1na2vs0mg"},{"bike_id":"8967b626-6220-4839-88ec-a493244132dc","system_id":"levelo_inurba_marseille","lat":43.25002,"lon":5.38934,"is_reserved":false,"is_disabled":false,"rental_uris":{"android":"levelo://app?vid=8967b626-6220-4839-88ec-a493244132dc","ios":"levelo://app?vid=8967b626-6220-4839-88ec-a493244132dc"},"vehicle_type_id":"4","last_reported":1741947029,"current_range_meters":4400,"station_id":"ce4bhgp2rcd13ifvqfd0","pricing_plan_id":"cebpf4jnsgd1na2vs0mg"},{"bike_id":"74de79cd-4b48-470f-86ec-4cd496dae612","system_id":"levelo_inurba_marseille","lat":43.31069,"lon":5.38353,"is_reserved":false,"is_disabled":false,"rental_uris":{"android":"levelo://app?vid=74de79cd-4b48-470f-86ec-4cd496dae612","ios":"levelo://app?vid=74de79cd-4b48-470f-86ec-4cd496dae612"},"vehicle_type_id":"4","last_reported":1741947029,"current_range_meters":4400,"station_id":"ce4bgv92rcd13ifvqcr0","pricing_plan_id":"cebpf4jnsgd1na2vs0mg"},{"bike_id":"6ab36640-1c77-4e21-87b9-28fd3f490061","system_id":"levelo_inurba_marseille","lat":43.313,"lon":5.36837,"is_reserved":false,"is_disabled":false,"rental_uris":{"android":"levelo://app?vid=6ab36640-1c77-4e21-87b9-28fd3f490061","ios":"levelo://app?vid=6ab36640-1c77-4e21-87b9-28fd3f490061"},"vehicle_type_id":"4","last_reported":1741947029,"current_range_meters":4400,"station_id":"ce4bgl92rcd13ifvqbq0","pricing_plan_id":"cebpf4jnsgd1na2vs0mg"},{"bike_id":"48e1902a-0baf-4692-86ca-834c5d290b26","system_id":"levelo_inurba_marseille","lat":43.2667,"lon":5.38271,"is_reserved":false,"is_disabled":false,"rental_uris":{"android":"levelo://app?vid=48e1902a-0baf-4692-86ca-834c5d290b26","ios":"levelo://app?vid=48e1902a-0baf-4692-86ca-834c5d290b26"},"vehicle_type_id":"4","last_reported":1741947029,"current_range_meters":4800,"station_id":"ce4bhg92rcd13ifvqf90","pricing_plan_id":"cebpf4jnsgd1na2vs0mg"},{"bike_id":"d7cf3da4-03cf-4eae-b183-47670a6b872f","system_id":"levelo_inurba_marseille","lat":43.23191,"lon":5.35556,"is_reserved":false,"is_disabled":false,"rental_uris":{"android":"levelo://app?vid=d7cf3da4-03cf-4eae-b183-47670a6b872f","ios":"levelo://app?vid=d7cf3da4-03cf-4eae-b183-47670a6b872f"},"vehicle_type_id":"4","last_reported":1741947029,"current_range_meters":4800,"station_id":"ce4bhu92rcd13ifvqi70","pricing_plan_id":"cebpf4jnsgd1na2vs0mg"},{"bike_id":"db419880-e4ea-42c7-98cf-ee75e0044264","system_id":"levelo_inurba_marseille","lat":43.28111,"lon":5.37843,"is_reserved":false,"is_disabled":false,"rental_uris":{"android":"levelo://app?vid=db419880-e4ea-42c7-98cf-ee75e0044264","ios":"levelo://app?vid=db419880-e4ea-42c7-98cf-ee75e0044264"},"vehicle_type_id":"4","last_reported":1741947029,"current_range_meters":4800,"station_id":"ce4bha12rcd13ifvqee0","pricing_plan_id":"cebpf4jnsgd1na2vs0mg"},{"bike_id":"8e587aa8-3283-40c0-82d8-d5f715eee75f","system_id":"levelo_inurba_marseille","lat":43.34144,"lon":5.40909,"is_reserved":false,"is_disabled":false,"rental_uris":{"android":"levelo://app?vid=8e587aa8-3283-40c0-82d8-d5f715eee75f","ios":"levelo://app?vid=8e587aa8-3283-40c0-82d8-d5f715eee75f"},"vehicle_type_id":"4","last_reported":1741947029,"current_range_meters":5600,"station_id":"ce4bhqh2rcd13ifvqhlg","pricing_plan_id":"cebpf4jnsgd1na2vs0mg"},{"bike_id":"f9d83b46-dea4-41bc-ad92-bc75b2fd9586","system_id":"levelo_inurba_marseille","lat":43.26684,"lon":5.38262,"is_reserved":false,"is_disabled":false,"rental_uris":{"android":"levelo://app?vid=f9d83b46-dea4-41bc-ad92-bc75b2fd9586","ios":"levelo://app?vid=f9d83b46-dea4-41bc-ad92-bc75b2fd9586"},"vehicle_type_id":"4","last_reported":1741947029,"current_range_meters":5600,"station_id":"ce4bhg92rcd13ifvqf90","pricing_plan_id":"cebpf4jnsgd1na2vs0mg"},{"bike_id":"931a65f6-98be-4189-b167-a49aeaf4dc43","system_id":"levelo_inurba_marseille","lat":43.25009,"lon":5.38912,"is_reserved":false,"is_disabled":false,"rental_uris":{"android":"levelo://app?vid=931a65f6-98be-4189-b167-a49aeaf4dc43","ios":"levelo://app?vid=931a65f6-98be-4189-b167-a49aeaf4dc43"},"vehicle_type_id":"4","last_reported":1741947029,"current_range_meters":5600,"station_id":"ce4bhgp2rcd13ifvqfd0","pricing_plan_id":"cebpf4jnsgd1na2vs0mg"},{"bike_id":"3f6cdbfe-e7f7-4b7f-b58a-eec93b9fa741","system_id":"levelo_inurba_marseille","lat":43.2815,"lon":5.42638,"is_reserved":false,"is_disabled":false,"rental_uris":{"android":"levelo://app?vid=3f6cdbfe-e7f7-4b7f-b58a-eec93b9fa741","ios":"levelo://app?vid=3f6cdbfe-e7f7-4b7f-b58a-eec93b9fa741"},"vehicle_type_id":"4","last_reported":1741947029,"current_range_meters":5600,"station_id":"ce4bhnh2rcd13ifvqgug","pricing_plan_id":"cebpf4jnsgd1na2vs0mg"},{"bike_id":"6abe6a67-ac01-4ffe-a9fb-f7b5de19c74d","system_id":"levelo_inurba_marseille","lat":43.32526,"lon":5.41446,"is_reserved":false,"is_disabled":false,"rental_uris":{"android":"levelo://app?vid=6abe6a67-ac01-4ffe-a9fb-f7b5de19c74d","ios":"levelo://app?vid=6abe6a67-ac01-4ffe-a9fb-f7b5de19c74d"},"vehicle_type_id":"4","last_reported":1741947029,"current_range_meters":6000,"station_id":"ce4bhq12rcd13ifvqhhg","pricing_plan_id":"cebpf4jnsgd1na2vs0mg"},{"bike_id":"b9376c03-0418-4f06-8e27-79a7fd324fac","system_id":"levelo_inurba_marseille","lat":43.23155,"lon":5.43703,"is_reserved":false,"is_disabled":false,"rental_uris":{"android":"levelo://app?vid=b9376c03-0418-4f06-8e27-79a7fd324fac","ios":"levelo://app?vid=b9376c03-0418-4f06-8e27-79a7fd324fac"},"vehicle_type_id":"4","last_reported":1741947029,"current_range_meters":6000,"station_id":"ce4bhmp2rcd13ifvqgog","pricing_plan_id":"cebpf4jnsgd1na2vs0mg"},{"bike_id":"ba217c55-c3b6-4155-8257-f0b33becfeb3","system_id":"levelo_inurba_marseille","lat":43.281,"lon":5.37859,"is_reserved":false,"is_disabled":false,"rental_uris":{"android":"levelo://app?vid=ba217c55-c3b6-4155-8257-f0b33becfeb3","ios":"levelo://app?vid=ba217c55-c3b6-4155-8257-f0b33becfeb3"},"vehicle_type_id":"4","last_reported":1741947029,"current_range_meters":6000,"station_id":"ce4bha12rcd13ifvqee0","pricing_plan_id":"cebpf4jnsgd1na2vs0mg"},{"bike_id":"e222bc3f-369a-447a-b251-c71aa8a28b39","system_id":"levelo_inurba_marseille","lat":43.24659,"lon":5.38153,"is_reserved":false,"is_disabled":false,"rental_uris":{"android":"levelo://app?vid=e222bc3f-369a-447a-b251-c71aa8a28b39","ios":"levelo://app?vid=e222bc3f-369a-447a-b251-c71aa8a28b39"},"vehicle_type_id":"4","last_reported":1741947029,"current_range_meters":6000,"station_id":"ce4bhih2rcd13ifvqfr0","pricing_plan_id":"cebpf4jnsgd1na2vs0mg"},{"bike_id":"4543fa4c-bad9-4ee1-b41d-9646828b24d0","system_id":"levelo_inurba_marseille","lat":43.3059,"lon":5.3935,"is_reserved":false,"is_disabled":false,"rental_uris":{"android":"levelo://app?vid=4543fa4c-bad9-4ee1-b41d-9646828b24d0","ios":"levelo://app?vid=4543fa4c-bad9-4ee1-b41d-9646828b24d0"},"vehicle_type_id":"4","last_reported":1741947029,"current_range_meters":6000,"station_id":"ce4bh0p2rcd13ifvqd80","pricing_plan_id":"cebpf4jnsgd1na2vs0mg"},{"bike_id":"b0e79c0d-bd18-4085-81a0-a30f69ab647b","system_id":"levelo_inurba_marseille","lat":43.301,"lon":5.39785,"is_reserved":false,"is_disabled":false,"rental_uris":{"android":"levelo://app?vid=b0e79c0d-bd18-4085-81a0-a30f69ab647b","ios":"levelo://app?vid=b0e79c0d-bd18-4085-81a0-a30f69ab647b"},"vehicle_type_id":"4","last_reported":1741947029,"current_range_meters":6000,"station_id":"","pricing_plan_id":"cebpf4jnsgd1na2vs0mg"},{"bike_id":"0bbfa3ad-439f-4e18-9656-e87e4ed5b42d","system_id":"levelo_inurba_marseille","lat":43.29196,"lon":5.39315,"is_reserved":false,"is_disabled":false,"rental_uris":{"android":"levelo://app?vid=0bbfa3ad-439f-4e18-9656-e87e4ed5b42d","ios":"levelo://app?vid=0bbfa3ad-439f-4e18-9656-e87e4ed5b42d"},"vehicle_type_id":"4","last_reported":1741947029,"current_range_meters":6000,"station_id":"ce4bh192rcd13ifvqdd0","pricing_plan_id":"cebpf4jnsgd1na2vs0mg"},{"bike_id":"cd62f0b0-e712-4ed8-b222-8e7cb2c87e1b","system_id":"levelo_inurba_marseille","lat":43.23583,"lon":5.40338,"is_reserved":false,"is_disabled":false,"rental_uris":{"android":"levelo://app?vid=cd62f0b0-e712-4ed8-b222-8e7cb2c87e1b","ios":"levelo://app?vid=cd62f0b0-e712-4ed8-b222-8e7cb2c87e1b"},"vehicle_type_id":"4","last_reported":1741947029,"current_range_meters":6400,"station_id":"","pricing_plan_id":"cebpf4jnsgd1na2vs0mg"},{"bike_id":"89127bd3-34dd-4963-8870-41e81663fc3c","system_id":"levelo_inurba_marseille","lat":43.26953,"lon":5.38655,"is_reserved":false,"is_disabled":false,"rental_uris":{"android":"levelo://app?vid=89127bd3-34dd-4963-8870-41e81663fc3c","ios":"levelo://app?vid=89127bd3-34dd-4963-8870-41e81663fc3c"},"vehicle_type_id":"4","last_reported":1741947029,"current_range_meters":6400,"station_id":"ce4bhh92rcd13ifvqfh0","pricing_plan_id":"cebpf4jnsgd1na2vs0mg"},{"bike_id":"4a9c7f46-3659-48a4-a8f1-a5c928969910","system_id":"levelo_inurba_marseille","lat":43.29185,"lon":5.39359,"is_reserved":false,"is_disabled":false,"rental_uris":{"android":"levelo://app?vid=4a9c7f46-3659-48a4-a8f1-a5c928969910","ios":"levelo://app?vid=4a9c7f46-3659-48a4-a8f1-a5c928969910"},"vehicle_type_id":"4","last_reported":1741947029,"current_range_meters":6400,"station_id":"ce4bh192rcd13ifvqdd0","pricing_plan_id":"cebpf4jnsgd1na2vs0mg"},{"bike_id":"3e052f78-610f-4c3b-8bb7-3204cf1ee4e4","system_id":"levelo_inurba_marseille","lat":43.31335,"lon":5.36717,"is_reserved":false,"is_disabled":false,"rental_uris":{"android":"levelo://app?vid=3e052f78-610f-4c3b-8bb7-3204cf1ee4e4","ios":"levelo://app?vid=3e052f78-610f-4c3b-8bb7-3204cf1ee4e4"},"vehicle_type_id":"4","last_reported":1741947029,"current_range_meters":6400,"station_id":"ce4bgr92rcd13ifvqc6g","pricing_plan_id":"cebpf4jnsgd1na2vs0mg"},{"bike_id":"35a9e4f1-17ac-47cf-84ad-97a570c36f72","system_id":"levelo_inurba_marseille","lat":43.31506,"lon":5.37284,"is_reserved":false,"is_disabled":false,"rental_uris":{"android":"levelo://app?vid=35a9e4f1-17ac-47cf-84ad-97a570c36f72","ios":"levelo://app?vid=35a9e4f1-17ac-47cf-84ad-97a570c36f72"},"vehicle_type_id":"4","last_reported":1741947029,"current_range_meters":6800,"station_id":"ce4bgt12rcd13ifvqcd0","pricing_plan_id":"cebpf4jnsgd1na2vs0mg"},{"bike_id":"bea0aaa1-1e1b-4a71-a5e8-fd09480beefb","system_id":"levelo_inurba_marseille","lat":43.29025,"lon":5.37573,"is_reserved":false,"is_disabled":false,"rental_uris":{"android":"levelo://app?vid=bea0aaa1-1e1b-4a71-a5e8-fd09480beefb","ios":"levelo://app?vid=bea0aaa1-1e1b-4a71-a5e8-fd09480beefb"},"vehicle_type_id":"4","last_reported":1741947029,"current_range_meters":6800,"station_id":"ce4bh692rcd13ifvqe90","pricing_plan_id":"cebpf4jnsgd1na2vs0mg"},{"bike_id":"67414d52-13ce-4025-b386-e9b3544f5ad5","system_id":"levelo_inurba_marseille","lat":43.26685,"lon":5.38271,"is_reserved":false,"is_disabled":false,"rental_uris":{"android":"levelo://app?vid=67414d52-13ce-4025-b386-e9b3544f5ad5","ios":"levelo://app?vid=67414d52-13ce-4025-b386-e9b3544f5ad5"},"vehicle_type_id":"4","last_reported":1741947029,"current_range_meters":6800,"station_id":"ce4bhg92rcd13ifvqf90","pricing_plan_id":"cebpf4jnsgd1na2vs0mg"},{"bike_id":"b363f8b8-2518-47c4-9880-4e754d1b57c8","system_id":"levelo_inurba_marseille","lat":43.30927,"lon":5.4015,"is_reserved":false,"is_disabled":false,"rental_uris":{"android":"levelo://app?vid=b363f8b8-2518-47c4-9880-4e754d1b57c8","ios":"levelo://app?vid=b363f8b8-2518-47c4-9880-4e754d1b57c8"},"vehicle_type_id":"4","last_reported":1741947029,"current_range_meters":6800,"station_id":"ce4bgvp2rcd13ifvqct0","pricing_plan_id":"cebpf4jnsgd1na2vs0mg"},{"bike_id":"7b35ad81-591c-4cc8-b125-1210315faf0d","system_id":"levelo_inurba_marseille","lat":43.23125,"lon":5.43732,"is_reserved":false,"is_disabled":false,"rental_uris":{"android":"levelo://app?vid=7b35ad81-591c-4cc8-b125-1210315faf0d","ios":"levelo://app?vid=7b35ad81-591c-4cc8-b125-1210315faf0d"},"vehicle_type_id":"4","last_reported":1741947029,"current_range_meters":6800,"station_id":"ce4bhmp2rcd13ifvqgog","pricing_plan_id":"cebpf4jnsgd1na2vs0mg"},{"bike_id":"154d0f4a-7cf1-4b4a-8919-807104d462e1","system_id":"levelo_inurba_marseille","lat":43.26665,"lon":5.38618,"is_reserved":false,"is_disabled":false,"rental_uris":{"android":"levelo://app?vid=154d0f4a-7cf1-4b4a-8919-807104d462e1","ios":"levelo://app?vid=154d0f4a-7cf1-4b4a-8919-807104d462e1"},"vehicle_type_id":"4","last_reported":1741947029,"current_range_meters":6800,"station_id":"","pricing_plan_id":"cebpf4jnsgd1na2vs0mg"},{"bike_id":"7229259a-db15-449c-b856-cb8bf96bd6fe","system_id":"levelo_inurba_marseille","lat":43.28722,"lon":5.37935,"is_reserved":false,"is_disabled":false,"rental_uris":{"android":"levelo://app?vid=7229259a-db15-449c-b856-cb8bf96bd6fe","ios":"levelo://app?vid=7229259a-db15-449c-b856-cb8bf96bd6fe"},"vehicle_type_id":"4","last_reported":1741947029,"current_range_meters":6800,"station_id":"ce4bh9p2rcd13ifvqec0","pricing_plan_id":"cebpf4jnsgd1na2vs0mg"},{"bike_id":"e350ce66-a995-469c-b4d1-ba6658fe49e2","system_id":"levelo_inurba_marseille","lat":43.27826,"lon":5.40725,"is_reserved":false,"is_disabled":false,"rental_uris":{"android":"levelo://app?vid=e350ce66-a995-469c-b4d1-ba6658fe49e2","ios":"levelo://app?vid=e350ce66-a995-469c-b4d1-ba6658fe49e2"},"vehicle_type_id":"4","last_reported":1741947029,"current_range_meters":6800,"station_id":"ce4bhnh2rcd13ifvqgtg","pricing_plan_id":"cebpf4jnsgd1na2vs0mg"},{"bike_id":"155c7165-40f9-4638-84a1-91e91cddb9e0","system_id":"levelo_inurba_marseille","lat":43.30807,"lon":5.37351,"is_reserved":false,"is_disabled":false,"rental_uris":{"android":"levelo://app?vid=155c7165-40f9-4638-84a1-91e91cddb9e0","ios":"levelo://app?vid=155c7165-40f9-4638-84a1-91e91cddb9e0"},"vehicle_type_id":"4","last_reported":1741947029,"current_range_meters":7200,"station_id":"","pricing_plan_id":"cebpf4jnsgd1na2vs0mg"},{"bike_id":"83aa7ab2-d352-459f-bd36-67e70fb4a7aa","system_id":"levelo_inurba_marseille","lat":43.259407,"lon":5.409049,"is_reserved":false,"is_disabled":false,"rental_uris":{"android":"levelo://app?vid=83aa7ab2-d352-459f-bd36-67e70fb4a7aa","ios":"levelo://app?vid=83aa7ab2-d352-459f-bd36-67e70fb4a7aa"},"vehicle_type_id":"4","last_reported":1741947029,"current_range_meters":7200,"station_id":"ce4bhm92rcd13ifvqglg","pricing_plan_id":"cebpf4jnsgd1na2vs0mg"},{"bike_id":"ab3b3273-086b-4458-b5bf-fb61a149b41e","system_id":"levelo_inurba_marseille","lat":43.26217,"lon":5.40442,"is_reserved":false,"is_disabled":false,"rental_uris":{"android":"levelo://app?vid=ab3b3273-086b-4458-b5bf-fb61a149b41e","ios":"levelo://app?vid=ab3b3273-086b-4458-b5bf-fb61a149b41e"},"vehicle_type_id":"4","last_reported":1741947029,"current_range_meters":7200,"station_id":"ce4bhmh2rcd13ifvqgmg","pricing_plan_id":"cebpf4jnsgd1na2vs0mg"},{"bike_id":"1ab4d6f2-e4da-4707-985c-a25d51be281d","system_id":"levelo_inurba_marseille","lat":43.24068,"lon":5.37728,"is_reserved":false,"is_disabled":true,"rental_uris":{"android":"levelo://app?vid=1ab4d6f2-e4da-4707-985c-a25d51be281d","ios":"levelo://app?vid=1ab4d6f2-e4da-4707-985c-a25d51be281d"},"vehicle_type_id":"4","last_reported":1741947029,"current_range_meters":7200,"station_id":"ce4bhnp2rcd13ifvqgvg","pricing_plan_id":"cebpf4jnsgd1na2vs0mg"},{"bike_id":"9ff4e757-fe4d-4091-a0e6-d2f3479d6b2b","system_id":"levelo_inurba_marseille","lat":43.30583,"lon":5.36711,"is_reserved":false,"is_disabled":false,"rental_uris":{"android":"levelo://app?vid=9ff4e757-fe4d-4091-a0e6-d2f3479d6b2b","ios":"levelo://app?vid=9ff4e757-fe4d-4091-a0e6-d2f3479d6b2b"},"vehicle_type_id":"4","last_reported":1741947029,"current_range_meters":7200,"station_id":"","pricing_plan_id":"cebpf4jnsgd1na2vs0mg"},{"bike_id":"1cbeb49c-8d51-46f2-ad03-8af78ea79d9a","system_id":"levelo_inurba_marseille","lat":43.24178,"lon":5.39706,"is_reserved":false,"is_disabled":false,"rental_uris":{"android":"levelo://app?vid=1cbeb49c-8d51-46f2-ad03-8af78ea79d9a","ios":"levelo://app?vid=1cbeb49c-8d51-46f2-ad03-8af78ea79d9a"},"vehicle_type_id":"4","last_reported":1741947029,"current_range_meters":7200,"station_id":"ce4bhn12rcd13ifvqgpg","pricing_plan_id":"cebpf4jnsgd1na2vs0mg"},{"bike_id":"9c3e4b46-832b-4289-80ad-c1a013b4a69f","system_id":"levelo_inurba_marseille","lat":43.28728,"lon":5.37923,"is_reserved":false,"is_disabled":false,"rental_uris":{"android":"levelo://app?vid=9c3e4b46-832b-4289-80ad-c1a013b4a69f","ios":"levelo://app?vid=9c3e4b46-832b-4289-80ad-c1a013b4a69f"},"vehicle_type_id":"4","last_reported":1741947029,"current_range_meters":7200,"station_id":"ce4bh9p2rcd13ifvqec0","pricing_plan_id":"cebpf4jnsgd1na2vs0mg"},{"bike_id":"d0be61ee-8c6c-4bf7-99b6-f099a281a656","system_id":"levelo_inurba_marseille","lat":43.24995,"lon":5.38947,"is_reserved":false,"is_disabled":false,"rental_uris":{"android":"levelo://app?vid=d0be61ee-8c6c-4bf7-99b6-f099a281a656","ios":"levelo://app?vid=d0be61ee-8c6c-4bf7-99b6-f099a281a656"},"vehicle_type_id":"4","last_reported":1741947029,"current_range_meters":7200,"station_id":"ce4bhgp2rcd13ifvqfd0","pricing_plan_id":"cebpf4jnsgd1na2vs0mg"},{"bike_id":"f155dd9e-9980-4ed2-b9e3-3e8d643f5924","system_id":"levelo_inurba_marseille","lat":43.292594,"lon":5.376239,"is_reserved":false,"is_disabled":false,"rental_uris":{"android":"levelo://app?vid=f155dd9e-9980-4ed2-b9e3-3e8d643f5924","ios":"levelo://app?vid=f155dd9e-9980-4ed2-b9e3-3e8d643f5924"},"vehicle_type_id":"4","last_reported":1741947029,"current_range_meters":6800,"station_id":"ce4bh012rcd13ifvqcv0","pricing_plan_id":"cebpf4jnsgd1na2vs0mg"},{"bike_id":"39df283f-35a5-4c44-9f0d-6dd6923a19a4","system_id":"levelo_inurba_marseille","lat":43.32118,"lon":5.3677,"is_reserved":false,"is_disabled":false,"rental_uris":{"android":"levelo://app?vid=39df283f-35a5-4c44-9f0d-6dd6923a19a4","ios":"levelo://app?vid=39df283f-35a5-4c44-9f0d-6dd6923a19a4"},"vehicle_type_id":"4","last_reported":1741947029,"current_range_meters":7200,"station_id":"ce4bhrh2rcd13ifvqhug","pricing_plan_id":"cebpf4jnsgd1na2vs0mg"},{"bike_id":"814c8ec0-7f86-43ef-a1aa-fb2c579e864f","system_id":"levelo_inurba_marseille","lat":43.3047,"lon":5.38207,"is_reserved":false,"is_disabled":false,"rental_uris":{"android":"levelo://app?vid=814c8ec0-7f86-43ef-a1aa-fb2c579e864f","ios":"levelo://app?vid=814c8ec0-7f86-43ef-a1aa-fb2c579e864f"},"vehicle_type_id":"4","last_reported":1741947029,"current_range_meters":8000,"station_id":"","pricing_plan_id":"cebpf4jnsgd1na2vs0mg"},{"bike_id":"6db0a08e-65f7-4507-b567-93fcdf6d09f6","system_id":"levelo_inurba_marseille","lat":43.25575,"lon":5.38249,"is_reserved":false,"is_disabled":false,"rental_uris":{"android":"levelo://app?vid=6db0a08e-65f7-4507-b567-93fcdf6d09f6","ios":"levelo://app?vid=6db0a08e-65f7-4507-b567-93fcdf6d09f6"},"vehicle_type_id":"4","last_reported":1741947029,"current_range_meters":8000,"station_id":"ce4bhih2rcd13ifvqfs0","pricing_plan_id":"cebpf4jnsgd1na2vs0mg"},{"bike_id":"1b093d61-d643-4178-86b7-a4745c739cb9","system_id":"levelo_inurba_marseille","lat":43.27675,"lon":5.38905,"is_reserved":false,"is_disabled":false,"rental_uris":{"android":"levelo://app?vid=1b093d61-d643-4178-86b7-a4745c739cb9","ios":"levelo://app?vid=1b093d61-d643-4178-86b7-a4745c739cb9"},"vehicle_type_id":"4","last_reported":1741947029,"current_range_meters":8000,"station_id":"ce4bhi12rcd13ifvqfo0","pricing_plan_id":"cebpf4jnsgd1na2vs0mg"},{"bike_id":"27a9a62b-6368-4179-8f2c-f6dd6040539e","system_id":"levelo_inurba_marseille","lat":43.26235,"lon":5.3743,"is_reserved":false,"is_disabled":false,"rental_uris":{"android":"levelo://app?vid=27a9a62b-6368-4179-8f2c-f6dd6040539e","ios":"levelo://app?vid=27a9a62b-6368-4179-8f2c-f6dd6040539e"},"vehicle_type_id":"4","last_reported":1741947029,"current_range_meters":8000,"station_id":"ce4bhgp2rcd13ifvqfc0","pricing_plan_id":"cebpf4jnsgd1na2vs0mg"},{"bike_id":"3d1bb485-7113-4ec0-839f-e1dda88316c3","system_id":"levelo_inurba_marseille","lat":43.27319,"lon":5.39097,"is_reserved":false,"is_disabled":false,"rental_uris":{"android":"levelo://app?vid=3d1bb485-7113-4ec0-839f-e1dda88316c3","ios":"levelo://app?vid=3d1bb485-7113-4ec0-839f-e1dda88316c3"},"vehicle_type_id":"4","last_reported":1741947029,"current_range_meters":8000,"station_id":"ce4bhgp2rcd13ifvqfe0","pricing_plan_id":"cebpf4jnsgd1na2vs0mg"},{"bike_id":"af5df027-9916-41a5-8ab7-db2182f63a1a","system_id":"levelo_inurba_marseille","lat":43.29282,"lon":5.37437,"is_reserved":false,"is_disabled":false,"rental_uris":{"android":"levelo://app?vid=af5df027-9916-41a5-8ab7-db2182f63a1a","ios":"levelo://app?vid=af5df027-9916-41a5-8ab7-db2182f63a1a"},"vehicle_type_id":"4","last_reported":1741947029,"current_range_meters":8000,"station_id":"ce4bgi12rcd13ifvqb70","pricing_plan_id":"cebpf4jnsgd1na2vs0mg"},{"bike_id":"b78c10b7-b880-4638-b672-f8fc61bd3c48","system_id":"levelo_inurba_marseille","lat":43.2408,"lon":5.37769,"is_reserved":false,"is_disabled":false,"rental_uris":{"android":"levelo://app?vid=b78c10b7-b880-4638-b672-f8fc61bd3c48","ios":"levelo://app?vid=b78c10b7-b880-4638-b672-f8fc61bd3c48"},"vehicle_type_id":"4","last_reported":1741947029,"current_range_meters":8000,"station_id":"ce4bhnp2rcd13ifvqgvg","pricing_plan_id":"cebpf4jnsgd1na2vs0mg"},{"bike_id":"45dce5d6-fdd9-43b7-8cb1-c7832923b7a4","system_id":"levelo_inurba_marseille","lat":43.27054,"lon":5.40265,"is_reserved":false,"is_disabled":false,"rental_uris":{"android":"levelo://app?vid=45dce5d6-fdd9-43b7-8cb1-c7832923b7a4","ios":"levelo://app?vid=45dce5d6-fdd9-43b7-8cb1-c7832923b7a4"},"vehicle_type_id":"4","last_reported":1741947029,"current_range_meters":8000,"station_id":"ce4bhk92rcd13ifvqgc0","pricing_plan_id":"cebpf4jnsgd1na2vs0mg"},{"bike_id":"8db70aa1-c7b2-4acd-954c-11994d34e0de","system_id":"levelo_inurba_marseille","lat":43.29371,"lon":5.37846,"is_reserved":false,"is_disabled":false,"rental_uris":{"android":"levelo://app?vid=8db70aa1-c7b2-4acd-954c-11994d34e0de","ios":"levelo://app?vid=8db70aa1-c7b2-4acd-954c-11994d34e0de"},"vehicle_type_id":"4","last_reported":1741947029,"current_range_meters":8000,"station_id":"ce4bgjh2rcd13ifvqbf0","pricing_plan_id":"cebpf4jnsgd1na2vs0mg"},{"bike_id":"46bece52-8859-43a4-ad82-813be44fa8ec","system_id":"levelo_inurba_marseille","lat":43.25929,"lon":5.40911,"is_reserved":false,"is_disabled":true,"rental_uris":{"android":"levelo://app?vid=46bece52-8859-43a4-ad82-813be44fa8ec","ios":"levelo://app?vid=46bece52-8859-43a4-ad82-813be44fa8ec"},"vehicle_type_id":"4","last_reported":1741947029,"current_range_meters":8400,"station_id":"ce4bhm92rcd13ifvqglg","pricing_plan_id":"cebpf4jnsgd1na2vs0mg"},{"bike_id":"8939fbba-2fc8-450a-9027-04db4f4e697a","system_id":"levelo_inurba_marseille","lat":43.31499,"lon":5.40461,"is_reserved":false,"is_disabled":false,"rental_uris":{"android":"levelo://app?vid=8939fbba-2fc8-450a-9027-04db4f4e697a","ios":"levelo://app?vid=8939fbba-2fc8-450a-9027-04db4f4e697a"},"vehicle_type_id":"4","last_reported":1741947029,"current_range_meters":8400,"station_id":"","pricing_plan_id":"cebpf4jnsgd1na2vs0mg"},{"bike_id":"6e9131d6-530f-404e-88ef-490fae00f6c8","system_id":"levelo_inurba_marseille","lat":43.31529,"lon":5.38022,"is_reserved":false,"is_disabled":false,"rental_uris":{"android":"levelo://app?vid=6e9131d6-530f-404e-88ef-490fae00f6c8","ios":"levelo://app?vid=6e9131d6-530f-404e-88ef-490fae00f6c8"},"vehicle_type_id":"4","last_reported":1741947029,"current_range_meters":8400,"station_id":"ce4bhsp2rcd13ifvqi50","pricing_plan_id":"cebpf4jnsgd1na2vs0mg"},{"bike_id":"8e824da1-37b2-4e11-9c99-bb2e507552f6","system_id":"levelo_inurba_marseille","lat":43.23148,"lon":5.437,"is_reserved":false,"is_disabled":false,"rental_uris":{"android":"levelo://app?vid=8e824da1-37b2-4e11-9c99-bb2e507552f6","ios":"levelo://app?vid=8e824da1-37b2-4e11-9c99-bb2e507552f6"},"vehicle_type_id":"4","last_reported":1741947029,"current_range_meters":8400,"station_id":"ce4bhmp2rcd13ifvqgog","pricing_plan_id":"cebpf4jnsgd1na2vs0mg"},{"bike_id":"34ec3c84-64e6-4701-a628-fb29852582e1","system_id":"levelo_inurba_marseille","lat":43.28337,"lon":5.38095,"is_reserved":false,"is_disabled":false,"rental_uris":{"android":"levelo://app?vid=34ec3c84-64e6-4701-a628-fb29852582e1","ios":"levelo://app?vid=34ec3c84-64e6-4701-a628-fb29852582e1"},"vehicle_type_id":"4","last_reported":1741947029,"current_range_meters":8400,"station_id":"ce4bh412rcd13ifvqdr0","pricing_plan_id":"cebpf4jnsgd1na2vs0mg"},{"bike_id":"1179ea35-4831-4438-984a-d67269a5255b","system_id":"levelo_inurba_marseille","lat":43.23172,"lon":5.35576,"is_reserved":false,"is_disabled":false,"rental_uris":{"android":"levelo://app?vid=1179ea35-4831-4438-984a-d67269a5255b","ios":"levelo://app?vid=1179ea35-4831-4438-984a-d67269a5255b"},"vehicle_type_id":"4","last_reported":1741947029,"current_range_meters":8400,"station_id":"ce4bhu92rcd13ifvqi70","pricing_plan_id":"cebpf4jnsgd1na2vs0mg"},{"bike_id":"150b3b69-cce0-417e-b078-1fb5ce62bcdb","system_id":"levelo_inurba_marseille","lat":43.24083,"lon":5.37736,"is_reserved":false,"is_disabled":false,"rental_uris":{"android":"levelo://app?vid=150b3b69-cce0-417e-b078-1fb5ce62bcdb","ios":"levelo://app?vid=150b3b69-cce0-417e-b078-1fb5ce62bcdb"},"vehicle_type_id":"4","last_reported":1741947029,"current_range_meters":8400,"station_id":"ce4bhnp2rcd13ifvqgvg","pricing_plan_id":"cebpf4jnsgd1na2vs0mg"},{"bike_id":"10602f16-ab8c-49ca-9266-ee1e3f63d602","system_id":"levelo_inurba_marseille","lat":43.2961,"lon":5.37724,"is_reserved":false,"is_disabled":false,"rental_uris":{"android":"levelo://app?vid=10602f16-ab8c-49ca-9266-ee1e3f63d602","ios":"levelo://app?vid=10602f16-ab8c-49ca-9266-ee1e3f63d602"},"vehicle_type_id":"4","last_reported":1741947029,"current_range_meters":8400,"station_id":"ce4bgi92rcd13ifvqb90","pricing_plan_id":"cebpf4jnsgd1na2vs0mg"},{"bike_id":"b2aa335c-dba9-42ee-a73f-9b72bdc72de8","system_id":"levelo_inurba_marseille","lat":43.27499,"lon":5.42456,"is_reserved":false,"is_disabled":true,"rental_uris":{"android":"levelo://app?vid=b2aa335c-dba9-42ee-a73f-9b72bdc72de8","ios":"levelo://app?vid=b2aa335c-dba9-42ee-a73f-9b72bdc72de8"},"vehicle_type_id":"4","last_reported":1741947029,"current_range_meters":8400,"station_id":"ce4bhn92rcd13ifvqgrg","pricing_plan_id":"cebpf4jnsgd1na2vs0mg"},{"bike_id":"9157f57d-0a64-41e4-9a32-e53c1b8b191a","system_id":"levelo_inurba_marseille","lat":43.27333,"lon":5.39123,"is_reserved":false,"is_disabled":true,"rental_uris":{"android":"levelo://app?vid=9157f57d-0a64-41e4-9a32-e53c1b8b191a","ios":"levelo://app?vid=9157f57d-0a64-41e4-9a32-e53c1b8b191a"},"vehicle_type_id":"4","last_reported":1741947029,"current_range_meters":8800,"station_id":"ce4bhgp2rcd13ifvqfe0","pricing_plan_id":"cebpf4jnsgd1na2vs0mg"},{"bike_id":"58953ad0-ae88-4a58-9ac6-f797dd69f44e","system_id":"levelo_inurba_marseille","lat":43.25001,"lon":5.38926,"is_reserved":false,"is_disabled":false,"rental_uris":{"android":"levelo://app?vid=58953ad0-ae88-4a58-9ac6-f797dd69f44e","ios":"levelo://app?vid=58953ad0-ae88-4a58-9ac6-f797dd69f44e"},"vehicle_type_id":"4","last_reported":1741947029,"current_range_meters":8800,"station_id":"ce4bhgp2rcd13ifvqfd0","pricing_plan_id":"cebpf4jnsgd1na2vs0mg"},{"bike_id":"79916126-fc10-44a2-8c16-b22ca8e00ed4","system_id":"levelo_inurba_marseille","lat":43.27981,"lon":5.38771,"is_reserved":false,"is_disabled":false,"rental_uris":{"android":"levelo://app?vid=79916126-fc10-44a2-8c16-b22ca8e00ed4","ios":"levelo://app?vid=79916126-fc10-44a2-8c16-b22ca8e00ed4"},"vehicle_type_id":"4","last_reported":1741947029,"current_range_meters":8800,"station_id":"ce4bhg12rcd13ifvqf80","pricing_plan_id":"cebpf4jnsgd1na2vs0mg"},{"bike_id":"fcf60bfc-7f3f-44de-812a-9ecfc93cd966","system_id":"levelo_inurba_marseille","lat":43.27426,"lon":5.39411,"is_reserved":false,"is_disabled":false,"rental_uris":{"android":"levelo://app?vid=fcf60bfc-7f3f-44de-812a-9ecfc93cd966","ios":"levelo://app?vid=fcf60bfc-7f3f-44de-812a-9ecfc93cd966"},"vehicle_type_id":"4","last_reported":1741947029,"current_range_meters":8800,"station_id":"ce4bhdp2rcd13ifvqf20","pricing_plan_id":"cebpf4jnsgd1na2vs0mg"},{"bike_id":"6cec560f-8635-4801-8462-637e6f2c72c5","system_id":"levelo_inurba_marseille","lat":43.23228,"lon":5.35646,"is_reserved":false,"is_disabled":false,"rental_uris":{"android":"levelo://app?vid=6cec560f-8635-4801-8462-637e6f2c72c5","ios":"levelo://app?vid=6cec560f-8635-4801-8462-637e6f2c72c5"},"vehicle_type_id":"4","last_reported":1741947029,"current_range_meters":8800,"station_id":"ce4bhu92rcd13ifvqi70","pricing_plan_id":"cebpf4jnsgd1na2vs0mg"},{"bike_id":"97a3342f-3ca5-439d-8886-7bbabf5b6c98","system_id":"levelo_inurba_marseille","lat":43.32112,"lon":5.3678,"is_reserved":false,"is_disabled":false,"rental_uris":{"android":"levelo://app?vid=97a3342f-3ca5-439d-8886-7bbabf5b6c98","ios":"levelo://app?vid=97a3342f-3ca5-439d-8886-7bbabf5b6c98"},"vehicle_type_id":"4","last_reported":1741947029,"current_range_meters":8800,"station_id":"ce4bhrh2rcd13ifvqhug","pricing_plan_id":"cebpf4jnsgd1na2vs0mg"},{"bike_id":"6236a2e1-b6a6-449f-89d9-a554037a40cf","system_id":"levelo_inurba_marseille","lat":43.304618,"lon":5.379143,"is_reserved":false,"is_disabled":false,"rental_uris":{"android":"levelo://app?vid=6236a2e1-b6a6-449f-89d9-a554037a40cf","ios":"levelo://app?vid=6236a2e1-b6a6-449f-89d9-a554037a40cf"},"vehicle_type_id":"4","last_reported":1741947029,"current_range_meters":5600,"station_id":"","pricing_plan_id":"cebpf4jnsgd1na2vs0mg"},{"bike_id":"320564be-2867-4ab5-80ba-99ed9100fc63","system_id":"levelo_inurba_marseille","lat":43.25835,"lon":5.39429,"is_reserved":false,"is_disabled":false,"rental_uris":{"android":"levelo://app?vid=320564be-2867-4ab5-80ba-99ed9100fc63","ios":"levelo://app?vid=320564be-2867-4ab5-80ba-99ed9100fc63"},"vehicle_type_id":"4","last_reported":1741947029,"current_range_meters":8800,"station_id":"","pricing_plan_id":"cebpf4jnsgd1na2vs0mg"},{"bike_id":"01e25889-3bfd-4c2b-b309-d66c58f42e18","system_id":"levelo_inurba_marseille","lat":43.31712,"lon":5.40457,"is_reserved":false,"is_disabled":false,"rental_uris":{"android":"levelo://app?vid=01e25889-3bfd-4c2b-b309-d66c58f42e18","ios":"levelo://app?vid=01e25889-3bfd-4c2b-b309-d66c58f42e18"},"vehicle_type_id":"4","last_reported":1741947029,"current_range_meters":8800,"station_id":"ce4bh012rcd13ifvqd00","pricing_plan_id":"cebpf4jnsgd1na2vs0mg"},{"bike_id":"6944bb06-8a8c-4cf4-86a1-ca9561cf4ee4","system_id":"levelo_inurba_marseille","lat":43.23063,"lon":5.3549,"is_reserved":false,"is_disabled":false,"rental_uris":{"android":"levelo://app?vid=6944bb06-8a8c-4cf4-86a1-ca9561cf4ee4","ios":"levelo://app?vid=6944bb06-8a8c-4cf4-86a1-ca9561cf4ee4"},"vehicle_type_id":"4","last_reported":1741947029,"current_range_meters":8800,"station_id":"cpo3342slgdg3j2ifvpg","pricing_plan_id":"cebpf4jnsgd1na2vs0mg"},{"bike_id":"6c8e51ee-2a45-4efe-a6ea-eb0013dedd61","system_id":"levelo_inurba_marseille","lat":43.24065,"lon":5.37747,"is_reserved":false,"is_disabled":false,"rental_uris":{"android":"levelo://app?vid=6c8e51ee-2a45-4efe-a6ea-eb0013dedd61","ios":"levelo://app?vid=6c8e51ee-2a45-4efe-a6ea-eb0013dedd61"},"vehicle_type_id":"4","last_reported":1741947029,"current_range_meters":8800,"station_id":"ce4bhnp2rcd13ifvqgvg","pricing_plan_id":"cebpf4jnsgd1na2vs0mg"},{"bike_id":"d2c1304d-c6de-4e19-a363-2c0c4bdd9fb1","system_id":"levelo_inurba_marseille","lat":43.24667,"lon":5.38911,"is_reserved":false,"is_disabled":false,"rental_uris":{"android":"levelo://app?vid=d2c1304d-c6de-4e19-a363-2c0c4bdd9fb1","ios":"levelo://app?vid=d2c1304d-c6de-4e19-a363-2c0c4bdd9fb1"},"vehicle_type_id":"4","last_reported":1741947029,"current_range_meters":8800,"station_id":"ce4bhg12rcd13ifvqf60","pricing_plan_id":"cebpf4jnsgd1na2vs0mg"},{"bike_id":"414a87d8-0320-4da5-94cb-1c2e9eb2c2e2","system_id":"levelo_inurba_marseille","lat":43.25816,"lon":5.39425,"is_reserved":false,"is_disabled":false,"rental_uris":{"android":"levelo://app?vid=414a87d8-0320-4da5-94cb-1c2e9eb2c2e2","ios":"levelo://app?vid=414a87d8-0320-4da5-94cb-1c2e9eb2c2e2"},"vehicle_type_id":"4","last_reported":1741947029,"current_range_meters":9200,"station_id":"ce4bhip2rcd13ifvqft0","pricing_plan_id":"cebpf4jnsgd1na2vs0mg"},{"bike_id":"7121d818-13e2-43ed-b445-7134fefdd64f","system_id":"levelo_inurba_marseille","lat":43.23188,"lon":5.35541,"is_reserved":false,"is_disabled":false,"rental_uris":{"android":"levelo://app?vid=7121d818-13e2-43ed-b445-7134fefdd64f","ios":"levelo://app?vid=7121d818-13e2-43ed-b445-7134fefdd64f"},"vehicle_type_id":"4","last_reported":1741947029,"current_range_meters":9200,"station_id":"ce4bhu92rcd13ifvqi70","pricing_plan_id":"cebpf4jnsgd1na2vs0mg"},{"bike_id":"c118cc19-7f0e-4e54-b921-f1faa9246911","system_id":"levelo_inurba_marseille","lat":43.24072,"lon":5.3776,"is_reserved":false,"is_disabled":false,"rental_uris":{"android":"levelo://app?vid=c118cc19-7f0e-4e54-b921-f1faa9246911","ios":"levelo://app?vid=c118cc19-7f0e-4e54-b921-f1faa9246911"},"vehicle_type_id":"4","last_reported":1741947029,"current_range_meters":9200,"station_id":"ce4bhnp2rcd13ifvqgvg","pricing_plan_id":"cebpf4jnsgd1na2vs0mg"},{"bike_id":"4208b8a5-20ba-4184-b8b1-4afcf0859341","system_id":"levelo_inurba_marseille","lat":43.28489,"lon":5.38548,"is_reserved":false,"is_disabled":false,"rental_uris":{"android":"levelo://app?vid=4208b8a5-20ba-4184-b8b1-4afcf0859341","ios":"levelo://app?vid=4208b8a5-20ba-4184-b8b1-4afcf0859341"},"vehicle_type_id":"4","last_reported":1741947029,"current_range_meters":9200,"station_id":"ce4bh8p2rcd13ifvqeb0","pricing_plan_id":"cebpf4jnsgd1na2vs0mg"},{"bike_id":"0ae9159c-7865-4fa2-9fe0-9b47992dfdd7","system_id":"levelo_inurba_marseille","lat":43.29887,"lon":5.396936,"is_reserved":false,"is_disabled":false,"rental_uris":{"android":"levelo://app?vid=0ae9159c-7865-4fa2-9fe0-9b47992dfdd7","ios":"levelo://app?vid=0ae9159c-7865-4fa2-9fe0-9b47992dfdd7"},"vehicle_type_id":"4","last_reported":1741947029,"current_range_meters":9200,"station_id":"ce4bgt12rcd13ifvqce0","pricing_plan_id":"cebpf4jnsgd1na2vs0mg"},{"bike_id":"f6975236-1909-4591-9ec1-290c425d99ce","system_id":"levelo_inurba_marseille","lat":43.26541,"lon":5.39041,"is_reserved":false,"is_disabled":false,"rental_uris":{"android":"levelo://app?vid=f6975236-1909-4591-9ec1-290c425d99ce","ios":"levelo://app?vid=f6975236-1909-4591-9ec1-290c425d99ce"},"vehicle_type_id":"4","last_reported":1741947029,"current_range_meters":9200,"station_id":"ce4bhe12rcd13ifvqf30","pricing_plan_id":"cebpf4jnsgd1na2vs0mg"},{"bike_id":"4afd2fd8-efd9-45d9-9c83-99a19870b731","system_id":"levelo_inurba_marseille","lat":43.29573,"lon":5.37507,"is_reserved":false,"is_disabled":false,"rental_uris":{"android":"levelo://app?vid=4afd2fd8-efd9-45d9-9c83-99a19870b731","ios":"levelo://app?vid=4afd2fd8-efd9-45d9-9c83-99a19870b731"},"vehicle_type_id":"4","last_reported":1741947029,"current_range_meters":9200,"station_id":"ce4bgh92rcd13ifvqb50","pricing_plan_id":"cebpf4jnsgd1na2vs0mg"},{"bike_id":"22eef8e9-28d0-4055-9740-16ced5bd43fc","system_id":"levelo_inurba_marseille","lat":43.24665,"lon":5.38168,"is_reserved":false,"is_disabled":false,"rental_uris":{"android":"levelo://app?vid=22eef8e9-28d0-4055-9740-16ced5bd43fc","ios":"levelo://app?vid=22eef8e9-28d0-4055-9740-16ced5bd43fc"},"vehicle_type_id":"4","last_reported":1741947029,"current_range_meters":9200,"station_id":"ce4bhih2rcd13ifvqfr0","pricing_plan_id":"cebpf4jnsgd1na2vs0mg"},{"bike_id":"36ec5a15-215b-4367-a3ca-336aadd9a251","system_id":"levelo_inurba_marseille","lat":43.33746,"lon":5.3745,"is_reserved":false,"is_disabled":false,"rental_uris":{"android":"levelo://app?vid=36ec5a15-215b-4367-a3ca-336aadd9a251","ios":"levelo://app?vid=36ec5a15-215b-4367-a3ca-336aadd9a251"},"vehicle_type_id":"4","last_reported":1741947029,"current_range_meters":9200,"station_id":"","pricing_plan_id":"cebpf4jnsgd1na2vs0mg"},{"bike_id":"436bf6fd-98f0-4c70-968c-7fcac8f398a5","system_id":"levelo_inurba_marseille","lat":43.25107,"lon":5.41055,"is_reserved":false,"is_disabled":false,"rental_uris":{"android":"levelo://app?vid=436bf6fd-98f0-4c70-968c-7fcac8f398a5","ios":"levelo://app?vid=436bf6fd-98f0-4c70-968c-7fcac8f398a5"},"vehicle_type_id":"4","last_reported":1741947029,"current_range_meters":9600,"station_id":"","pricing_plan_id":"cebpf4jnsgd1na2vs0mg"},{"bike_id":"6d69bcb3-9f1f-47de-bcf3-40d0e4d7bc71","system_id":"levelo_inurba_marseille","lat":43.27845,"lon":5.40715,"is_reserved":false,"is_disabled":false,"rental_uris":{"android":"levelo://app?vid=6d69bcb3-9f1f-47de-bcf3-40d0e4d7bc71","ios":"levelo://app?vid=6d69bcb3-9f1f-47de-bcf3-40d0e4d7bc71"},"vehicle_type_id":"4","last_reported":1741947029,"current_range_meters":9600,"station_id":"ce4bhnh2rcd13ifvqgtg","pricing_plan_id":"cebpf4jnsgd1na2vs0mg"},{"bike_id":"703a27ab-78c1-4da2-9977-9c24f54834c8","system_id":"levelo_inurba_marseille","lat":43.32488,"lon":5.36575,"is_reserved":false,"is_disabled":false,"rental_uris":{"android":"levelo://app?vid=703a27ab-78c1-4da2-9977-9c24f54834c8","ios":"levelo://app?vid=703a27ab-78c1-4da2-9977-9c24f54834c8"},"vehicle_type_id":"4","last_reported":1741947029,"current_range_meters":9600,"station_id":"ce4bhs12rcd13ifvqhvg","pricing_plan_id":"cebpf4jnsgd1na2vs0mg"},{"bike_id":"205861f1-c8e8-437b-8921-43664245ec7b","system_id":"levelo_inurba_marseille","lat":43.30993,"lon":5.38476,"is_reserved":false,"is_disabled":false,"rental_uris":{"android":"levelo://app?vid=205861f1-c8e8-437b-8921-43664245ec7b","ios":"levelo://app?vid=205861f1-c8e8-437b-8921-43664245ec7b"},"vehicle_type_id":"4","last_reported":1741947029,"current_range_meters":9600,"station_id":"","pricing_plan_id":"cebpf4jnsgd1na2vs0mg"},{"bike_id":"b634fcd7-4303-4fed-a2f8-fcd04ed2a4dd","system_id":"levelo_inurba_marseille","lat":43.23057,"lon":5.35506,"is_reserved":false,"is_disabled":false,"rental_uris":{"android":"levelo://app?vid=b634fcd7-4303-4fed-a2f8-fcd04ed2a4dd","ios":"levelo://app?vid=b634fcd7-4303-4fed-a2f8-fcd04ed2a4dd"},"vehicle_type_id":"4","last_reported":1741947029,"current_range_meters":9600,"station_id":"cpo3342slgdg3j2ifvpg","pricing_plan_id":"cebpf4jnsgd1na2vs0mg"},{"bike_id":"3363e5ed-aafd-4c83-9f97-12270e6ffcf4","system_id":"levelo_inurba_marseille","lat":43.24858,"lon":5.40656,"is_reserved":false,"is_disabled":false,"rental_uris":{"android":"levelo://app?vid=3363e5ed-aafd-4c83-9f97-12270e6ffcf4","ios":"levelo://app?vid=3363e5ed-aafd-4c83-9f97-12270e6ffcf4"},"vehicle_type_id":"4","last_reported":1741947029,"current_range_meters":9600,"station_id":"","pricing_plan_id":"cebpf4jnsgd1na2vs0mg"},{"bike_id":"3d915018-0dee-4e75-9e7f-5cbc2a1e9639","system_id":"levelo_inurba_marseille","lat":43.33012,"lon":5.3904,"is_reserved":false,"is_disabled":false,"rental_uris":{"android":"levelo://app?vid=3d915018-0dee-4e75-9e7f-5cbc2a1e9639","ios":"levelo://app?vid=3d915018-0dee-4e75-9e7f-5cbc2a1e9639"},"vehicle_type_id":"4","last_reported":1741947029,"current_range_meters":9600,"station_id":"ce4bhr92rcd13ifvqhrg","pricing_plan_id":"cebpf4jnsgd1na2vs0mg"},{"bike_id":"ef7136df-c425-4b43-8c1e-ca10d03720d7","system_id":"levelo_inurba_marseille","lat":43.29854,"lon":5.36285,"is_reserved":false,"is_disabled":false,"rental_uris":{"android":"levelo://app?vid=ef7136df-c425-4b43-8c1e-ca10d03720d7","ios":"levelo://app?vid=ef7136df-c425-4b43-8c1e-ca10d03720d7"},"vehicle_type_id":"4","last_reported":1741947029,"current_range_meters":10800,"station_id":"ce4bgpp2rcd13ifvqc3g","pricing_plan_id":"cebpf4jnsgd1na2vs0mg"},{"bike_id":"b645a629-6062-4471-a4c9-b7b97793707e","system_id":"levelo_inurba_marseille","lat":43.31359,"lon":5.36721,"is_reserved":false,"is_disabled":false,"rental_uris":{"android":"levelo://app?vid=b645a629-6062-4471-a4c9-b7b97793707e","ios":"levelo://app?vid=b645a629-6062-4471-a4c9-b7b97793707e"},"vehicle_type_id":"4","last_reported":1741947029,"current_range_meters":10000,"station_id":"ce4bgr92rcd13ifvqc6g","pricing_plan_id":"cebpf4jnsgd1na2vs0mg"},{"bike_id":"4a3685f3-e2ce-4ad8-8bde-8a0ec2e78324","system_id":"levelo_inurba_marseille","lat":43.30143,"lon":5.38107,"is_reserved":false,"is_disabled":false,"rental_uris":{"android":"levelo://app?vid=4a3685f3-e2ce-4ad8-8bde-8a0ec2e78324","ios":"levelo://app?vid=4a3685f3-e2ce-4ad8-8bde-8a0ec2e78324"},"vehicle_type_id":"4","last_reported":1741947029,"current_range_meters":10000,"station_id":"ce4bgjp2rcd13ifvqbh0","pricing_plan_id":"cebpf4jnsgd1na2vs0mg"},{"bike_id":"594a33ea-5c85-49b0-893b-48b1f5e1011a","system_id":"levelo_inurba_marseille","lat":43.30891,"lon":5.40017,"is_reserved":false,"is_disabled":true,"rental_uris":{"android":"levelo://app?vid=594a33ea-5c85-49b0-893b-48b1f5e1011a","ios":"levelo://app?vid=594a33ea-5c85-49b0-893b-48b1f5e1011a"},"vehicle_type_id":"4","last_reported":1741947029,"current_range_meters":10000,"station_id":"ce4bgvp2rcd13ifvqct0","pricing_plan_id":"cebpf4jnsgd1na2vs0mg"},{"bike_id":"78dce6e6-36eb-4d6b-a861-292dc7c9e479","system_id":"levelo_inurba_marseille","lat":43.24997,"lon":5.38935,"is_reserved":false,"is_disabled":false,"rental_uris":{"android":"levelo://app?vid=78dce6e6-36eb-4d6b-a861-292dc7c9e479","ios":"levelo://app?vid=78dce6e6-36eb-4d6b-a861-292dc7c9e479"},"vehicle_type_id":"4","last_reported":1741947029,"current_range_meters":10800,"station_id":"ce4bhgp2rcd13ifvqfd0","pricing_plan_id":"cebpf4jnsgd1na2vs0mg"},{"bike_id":"28315264-793c-428c-af87-3f7bb0e3d9bd","system_id":"levelo_inurba_marseille","lat":43.29801,"lon":5.381,"is_reserved":false,"is_disabled":false,"rental_uris":{"android":"levelo://app?vid=28315264-793c-428c-af87-3f7bb0e3d9bd","ios":"levelo://app?vid=28315264-793c-428c-af87-3f7bb0e3d9bd"},"vehicle_type_id":"4","last_reported":1741947029,"current_range_meters":10800,"station_id":"ce4bgip2rcd13ifvqbb0","pricing_plan_id":"cebpf4jnsgd1na2vs0mg"},{"bike_id":"235e4594-2ffe-4f7b-9295-0053e6d007a6","system_id":"levelo_inurba_marseille","lat":43.27844,"lon":5.40714,"is_reserved":false,"is_disabled":false,"rental_uris":{"android":"levelo://app?vid=235e4594-2ffe-4f7b-9295-0053e6d007a6","ios":"levelo://app?vid=235e4594-2ffe-4f7b-9295-0053e6d007a6"},"vehicle_type_id":"4","last_reported":1741947029,"current_range_meters":10800,"station_id":"ce4bhnh2rcd13ifvqgtg","pricing_plan_id":"cebpf4jnsgd1na2vs0mg"},{"bike_id":"d241d1c6-e8f7-42b3-812f-fc016ec2cf3b","system_id":"levelo_inurba_marseille","lat":43.29031,"lon":5.39968,"is_reserved":false,"is_disabled":false,"rental_uris":{"android":"levelo://app?vid=d241d1c6-e8f7-42b3-812f-fc016ec2cf3b","ios":"levelo://app?vid=d241d1c6-e8f7-42b3-812f-fc016ec2cf3b"},"vehicle_type_id":"4","last_reported":1741947029,"current_range_meters":11200,"station_id":"ce4bh392rcd13ifvqdm0","pricing_plan_id":"cebpf4jnsgd1na2vs0mg"},{"bike_id":"15a2b974-d751-49d5-a666-bbd556eb13fe","system_id":"levelo_inurba_marseille","lat":43.31313,"lon":5.36711,"is_reserved":false,"is_disabled":false,"rental_uris":{"android":"levelo://app?vid=15a2b974-d751-49d5-a666-bbd556eb13fe","ios":"levelo://app?vid=15a2b974-d751-49d5-a666-bbd556eb13fe"},"vehicle_type_id":"4","last_reported":1741947029,"current_range_meters":11200,"station_id":"ce4bgr92rcd13ifvqc6g","pricing_plan_id":"cebpf4jnsgd1na2vs0mg"},{"bike_id":"5bbbcc9c-c390-411b-9d62-74fb6404d435","system_id":"levelo_inurba_marseille","lat":43.24071,"lon":5.37745,"is_reserved":false,"is_disabled":false,"rental_uris":{"android":"levelo://app?vid=5bbbcc9c-c390-411b-9d62-74fb6404d435","ios":"levelo://app?vid=5bbbcc9c-c390-411b-9d62-74fb6404d435"},"vehicle_type_id":"4","last_reported":1741947029,"current_range_meters":11200,"station_id":"ce4bhnp2rcd13ifvqgvg","pricing_plan_id":"cebpf4jnsgd1na2vs0mg"},{"bike_id":"3959c750-cc5b-4501-a9c1-aa26389cb4a3","system_id":"levelo_inurba_marseille","lat":43.29261,"lon":5.38431,"is_reserved":false,"is_disabled":false,"rental_uris":{"android":"levelo://app?vid=3959c750-cc5b-4501-a9c1-aa26389cb4a3","ios":"levelo://app?vid=3959c750-cc5b-4501-a9c1-aa26389cb4a3"},"vehicle_type_id":"4","last_reported":1741947029,"current_range_meters":11600,"station_id":"ce4bh692rcd13ifvqea0","pricing_plan_id":"cebpf4jnsgd1na2vs0mg"},{"bike_id":"849be940-04d6-4cdf-9999-c703b451add0","system_id":"levelo_inurba_marseille","lat":43.29892,"lon":5.38152,"is_reserved":false,"is_disabled":false,"rental_uris":{"android":"levelo://app?vid=849be940-04d6-4cdf-9999-c703b451add0","ios":"levelo://app?vid=849be940-04d6-4cdf-9999-c703b451add0"},"vehicle_type_id":"4","last_reported":1741947029,"current_range_meters":11600,"station_id":"ce4bgj12rcd13ifvqbc0","pricing_plan_id":"cebpf4jnsgd1na2vs0mg"},{"bike_id":"c00de636-fb2c-49b9-8c19-0ce088140454","system_id":"levelo_inurba_marseille","lat":43.259414,"lon":5.409039,"is_reserved":false,"is_disabled":false,"rental_uris":{"android":"levelo://app?vid=c00de636-fb2c-49b9-8c19-0ce088140454","ios":"levelo://app?vid=c00de636-fb2c-49b9-8c19-0ce088140454"},"vehicle_type_id":"4","last_reported":1741947029,"current_range_meters":11600,"station_id":"ce4bhm92rcd13ifvqglg","pricing_plan_id":"cebpf4jnsgd1na2vs0mg"},{"bike_id":"0ec4aaac-8a56-4d7a-a33f-4e62c735bd12","system_id":"levelo_inurba_marseille","lat":43.31357,"lon":5.38496,"is_reserved":false,"is_disabled":false,"rental_uris":{"android":"levelo://app?vid=0ec4aaac-8a56-4d7a-a33f-4e62c735bd12","ios":"levelo://app?vid=0ec4aaac-8a56-4d7a-a33f-4e62c735bd12"},"vehicle_type_id":"4","last_reported":1741947029,"current_range_meters":11600,"station_id":"ce4bgt92rcd13ifvqcf0","pricing_plan_id":"cebpf4jnsgd1na2vs0mg"},{"bike_id":"c6f9c2cc-8d82-4ef0-9c96-3fa68372f355","system_id":"levelo_inurba_marseille","lat":43.24999,"lon":5.3894,"is_reserved":false,"is_disabled":false,"rental_uris":{"android":"levelo://app?vid=c6f9c2cc-8d82-4ef0-9c96-3fa68372f355","ios":"levelo://app?vid=c6f9c2cc-8d82-4ef0-9c96-3fa68372f355"},"vehicle_type_id":"4","last_reported":1741947029,"current_range_meters":11600,"station_id":"ce4bhgp2rcd13ifvqfd0","pricing_plan_id":"cebpf4jnsgd1na2vs0mg"},{"bike_id":"dc2dc920-7061-4611-9ad3-02d4898aaa15","system_id":"levelo_inurba_marseille","lat":43.2318,"lon":5.39985,"is_reserved":false,"is_disabled":false,"rental_uris":{"android":"levelo://app?vid=dc2dc920-7061-4611-9ad3-02d4898aaa15","ios":"levelo://app?vid=dc2dc920-7061-4611-9ad3-02d4898aaa15"},"vehicle_type_id":"4","last_reported":1741947029,"current_range_meters":11600,"station_id":"ce4bhn12rcd13ifvqgqg","pricing_plan_id":"cebpf4jnsgd1na2vs0mg"},{"bike_id":"e383fc25-6563-4824-b5ab-2983226cf3e7","system_id":"levelo_inurba_marseille","lat":43.34138,"lon":5.40913,"is_reserved":false,"is_disabled":false,"rental_uris":{"android":"levelo://app?vid=e383fc25-6563-4824-b5ab-2983226cf3e7","ios":"levelo://app?vid=e383fc25-6563-4824-b5ab-2983226cf3e7"},"vehicle_type_id":"4","last_reported":1741947029,"current_range_meters":11200,"station_id":"ce4bhqh2rcd13ifvqhlg","pricing_plan_id":"cebpf4jnsgd1na2vs0mg"},{"bike_id":"5ec91e3f-4cba-4841-a178-53327dd5b78d","system_id":"levelo_inurba_marseille","lat":43.31356,"lon":5.36717,"is_reserved":false,"is_disabled":false,"rental_uris":{"android":"levelo://app?vid=5ec91e3f-4cba-4841-a178-53327dd5b78d","ios":"levelo://app?vid=5ec91e3f-4cba-4841-a178-53327dd5b78d"},"vehicle_type_id":"4","last_reported":1741947029,"current_range_meters":11600,"station_id":"ce4bgr92rcd13ifvqc6g","pricing_plan_id":"cebpf4jnsgd1na2vs0mg"},{"bike_id":"48f3a40e-658c-443b-8908-cf181e5627b0","system_id":"levelo_inurba_marseille","lat":43.30143,"lon":5.37409,"is_reserved":false,"is_disabled":false,"rental_uris":{"android":"levelo://app?vid=48f3a40e-658c-443b-8908-cf181e5627b0","ios":"levelo://app?vid=48f3a40e-658c-443b-8908-cf181e5627b0"},"vehicle_type_id":"4","last_reported":1741947029,"current_range_meters":11600,"station_id":"ce4bgs92rcd13ifvqcc0","pricing_plan_id":"cebpf4jnsgd1na2vs0mg"},{"bike_id":"ca0776db-64b3-465b-8b1f-32d489cfbe8f","system_id":"levelo_inurba_marseille","lat":43.27829,"lon":5.39212,"is_reserved":false,"is_disabled":false,"rental_uris":{"android":"levelo://app?vid=ca0776db-64b3-465b-8b1f-32d489cfbe8f","ios":"levelo://app?vid=ca0776db-64b3-465b-8b1f-32d489cfbe8f"},"vehicle_type_id":"4","last_reported":1741947029,"current_range_meters":11200,"station_id":"ce4bhjp2rcd13ifvqga0","pricing_plan_id":"cebpf4jnsgd1na2vs0mg"},{"bike_id":"8096cc6b-6aca-4fbe-8f03-27947beebb74","system_id":"levelo_inurba_marseille","lat":43.26779,"lon":5.394173,"is_reserved":false,"is_disabled":false,"rental_uris":{"android":"levelo://app?vid=8096cc6b-6aca-4fbe-8f03-27947beebb74","ios":"levelo://app?vid=8096cc6b-6aca-4fbe-8f03-27947beebb74"},"vehicle_type_id":"4","last_reported":1741947029,"current_range_meters":12400,"station_id":"ce4bha12rcd13ifvqee0","pricing_plan_id":"cebpf4jnsgd1na2vs0mg"},{"bike_id":"2cb9822d-a888-4c03-8ce2-cdf1fa2c4690","system_id":"levelo_inurba_marseille","lat":43.28665,"lon":5.36354,"is_reserved":false,"is_disabled":false,"rental_uris":{"android":"levelo://app?vid=2cb9822d-a888-4c03-8ce2-cdf1fa2c4690","ios":"levelo://app?vid=2cb9822d-a888-4c03-8ce2-cdf1fa2c4690"},"vehicle_type_id":"4","last_reported":1741947029,"current_range_meters":12000,"station_id":"ce4bhah2rcd13ifvqej0","pricing_plan_id":"cebpf4jnsgd1na2vs0mg"},{"bike_id":"4964d787-8ed6-4547-acc5-166e17a1c793","system_id":"levelo_inurba_marseille","lat":43.31367,"lon":5.3671,"is_reserved":false,"is_disabled":false,"rental_uris":{"android":"levelo://app?vid=4964d787-8ed6-4547-acc5-166e17a1c793","ios":"levelo://app?vid=4964d787-8ed6-4547-acc5-166e17a1c793"},"vehicle_type_id":"4","last_reported":1741947029,"current_range_meters":12400,"station_id":"ce4bgr92rcd13ifvqc6g","pricing_plan_id":"cebpf4jnsgd1na2vs0mg"},{"bike_id":"771248cc-49fa-49c9-9943-f1819eaa592f","system_id":"levelo_inurba_marseille","lat":43.28397,"lon":5.34988,"is_reserved":false,"is_disabled":false,"rental_uris":{"android":"levelo://app?vid=771248cc-49fa-49c9-9943-f1819eaa592f","ios":"levelo://app?vid=771248cc-49fa-49c9-9943-f1819eaa592f"},"vehicle_type_id":"4","last_reported":1741947029,"current_range_meters":12400,"station_id":"ce4bhbh2rcd13ifvqepg","pricing_plan_id":"cebpf4jnsgd1na2vs0mg"},{"bike_id":"59822710-2d10-4517-868b-42cfab329759","system_id":"levelo_inurba_marseille","lat":43.23194,"lon":5.35555,"is_reserved":false,"is_disabled":false,"rental_uris":{"android":"levelo://app?vid=59822710-2d10-4517-868b-42cfab329759","ios":"levelo://app?vid=59822710-2d10-4517-868b-42cfab329759"},"vehicle_type_id":"4","last_reported":1741947029,"current_range_meters":12400,"station_id":"ce4bhu92rcd13ifvqi70","pricing_plan_id":"cebpf4jnsgd1na2vs0mg"},{"bike_id":"b27f1eab-ba5c-42e6-a66f-00d9e67d5178","system_id":"levelo_inurba_marseille","lat":43.30272,"lon":5.37713,"is_reserved":false,"is_disabled":false,"rental_uris":{"android":"levelo://app?vid=b27f1eab-ba5c-42e6-a66f-00d9e67d5178","ios":"levelo://app?vid=b27f1eab-ba5c-42e6-a66f-00d9e67d5178"},"vehicle_type_id":"4","last_reported":1741947029,"current_range_meters":12400,"station_id":"ce4bguh2rcd13ifvqcj0","pricing_plan_id":"cebpf4jnsgd1na2vs0mg"},{"bike_id":"ac9829db-5826-4bcf-b26b-4776553d00ba","system_id":"levelo_inurba_marseille","lat":43.3169,"lon":5.40447,"is_reserved":false,"is_disabled":false,"rental_uris":{"android":"levelo://app?vid=ac9829db-5826-4bcf-b26b-4776553d00ba","ios":"levelo://app?vid=ac9829db-5826-4bcf-b26b-4776553d00ba"},"vehicle_type_id":"4","last_reported":1741947029,"current_range_meters":12400,"station_id":"ce4bh012rcd13ifvqd00","pricing_plan_id":"cebpf4jnsgd1na2vs0mg"},{"bike_id":"8140fada-eff1-432b-90f9-c8b0f7b6aa9b","system_id":"levelo_inurba_marseille","lat":43.30538,"lon":5.38435,"is_reserved":false,"is_disabled":false,"rental_uris":{"android":"levelo://app?vid=8140fada-eff1-432b-90f9-c8b0f7b6aa9b","ios":"levelo://app?vid=8140fada-eff1-432b-90f9-c8b0f7b6aa9b"},"vehicle_type_id":"4","last_reported":1741947029,"current_range_meters":12000,"station_id":"ce4bgg92rcd13ifvqb30","pricing_plan_id":"cebpf4jnsgd1na2vs0mg"},{"bike_id":"76a64692-bea8-4f5e-8874-6d01f14c2a22","system_id":"levelo_inurba_marseille","lat":43.29802,"lon":5.38112,"is_reserved":false,"is_disabled":false,"rental_uris":{"android":"levelo://app?vid=76a64692-bea8-4f5e-8874-6d01f14c2a22","ios":"levelo://app?vid=76a64692-bea8-4f5e-8874-6d01f14c2a22"},"vehicle_type_id":"4","last_reported":1741947029,"current_range_meters":12000,"station_id":"ce4bgip2rcd13ifvqbb0","pricing_plan_id":"cebpf4jnsgd1na2vs0mg"},{"bike_id":"bd7fb638-a561-41df-90ca-f32685780427","system_id":"levelo_inurba_marseille","lat":43.22924,"lon":5.35381,"is_reserved":false,"is_disabled":false,"rental_uris":{"android":"levelo://app?vid=bd7fb638-a561-41df-90ca-f32685780427","ios":"levelo://app?vid=bd7fb638-a561-41df-90ca-f32685780427"},"vehicle_type_id":"4","last_reported":1741947029,"current_range_meters":12400,"station_id":"cpo3532slgdg3j2ikp40","pricing_plan_id":"cebpf4jnsgd1na2vs0mg"},{"bike_id":"1e61ce66-e314-4e8a-99c3-219a8ea4c38b","system_id":"levelo_inurba_marseille","lat":43.2439,"lon":5.37061,"is_reserved":false,"is_disabled":false,"rental_uris":{"android":"levelo://app?vid=1e61ce66-e314-4e8a-99c3-219a8ea4c38b","ios":"levelo://app?vid=1e61ce66-e314-4e8a-99c3-219a8ea4c38b"},"vehicle_type_id":"4","last_reported":1741947029,"current_range_meters":12400,"station_id":"ce4bhhh2rcd13ifvqfk0","pricing_plan_id":"cebpf4jnsgd1na2vs0mg"},{"bike_id":"df72bfbc-6126-496b-ad8c-192fc3c1c12f","system_id":"levelo_inurba_marseille","lat":43.31345,"lon":5.36733,"is_reserved":false,"is_disabled":false,"rental_uris":{"android":"levelo://app?vid=df72bfbc-6126-496b-ad8c-192fc3c1c12f","ios":"levelo://app?vid=df72bfbc-6126-496b-ad8c-192fc3c1c12f"},"vehicle_type_id":"4","last_reported":1741947029,"current_range_meters":12800,"station_id":"ce4bgr92rcd13ifvqc6g","pricing_plan_id":"cebpf4jnsgd1na2vs0mg"},{"bike_id":"e426c922-3849-4b81-bbfe-7a9bb9181abb","system_id":"levelo_inurba_marseille","lat":43.2797,"lon":5.38734,"is_reserved":false,"is_disabled":false,"rental_uris":{"android":"levelo://app?vid=e426c922-3849-4b81-bbfe-7a9bb9181abb","ios":"levelo://app?vid=e426c922-3849-4b81-bbfe-7a9bb9181abb"},"vehicle_type_id":"4","last_reported":1741947029,"current_range_meters":12800,"station_id":"ce4bhg12rcd13ifvqf80","pricing_plan_id":"cebpf4jnsgd1na2vs0mg"},{"bike_id":"e67041a3-a8bf-4682-816d-4ea08389fd2d","system_id":"levelo_inurba_marseille","lat":43.24078,"lon":5.37708,"is_reserved":false,"is_disabled":false,"rental_uris":{"android":"levelo://app?vid=e67041a3-a8bf-4682-816d-4ea08389fd2d","ios":"levelo://app?vid=e67041a3-a8bf-4682-816d-4ea08389fd2d"},"vehicle_type_id":"4","last_reported":1741947029,"current_range_meters":12800,"station_id":"ce4bhnp2rcd13ifvqgvg","pricing_plan_id":"cebpf4jnsgd1na2vs0mg"},{"bike_id":"cb256735-523d-45d3-9c1c-b9c7b6320183","system_id":"levelo_inurba_marseille","lat":43.31572,"lon":5.40387,"is_reserved":false,"is_disabled":false,"rental_uris":{"android":"levelo://app?vid=cb256735-523d-45d3-9c1c-b9c7b6320183","ios":"levelo://app?vid=cb256735-523d-45d3-9c1c-b9c7b6320183"},"vehicle_type_id":"4","last_reported":1741947029,"current_range_meters":12800,"station_id":"","pricing_plan_id":"cebpf4jnsgd1na2vs0mg"},{"bike_id":"d5ca99b0-ccbb-4f42-9ac1-6c4977ddb27a","system_id":"levelo_inurba_marseille","lat":43.24984,"lon":5.38937,"is_reserved":false,"is_disabled":false,"rental_uris":{"android":"levelo://app?vid=d5ca99b0-ccbb-4f42-9ac1-6c4977ddb27a","ios":"levelo://app?vid=d5ca99b0-ccbb-4f42-9ac1-6c4977ddb27a"},"vehicle_type_id":"4","last_reported":1741947029,"current_range_meters":12800,"station_id":"ce4bhgp2rcd13ifvqfd0","pricing_plan_id":"cebpf4jnsgd1na2vs0mg"},{"bike_id":"a1fbfbd8-f4b8-485d-9eb8-0c711df84f78","system_id":"levelo_inurba_marseille","lat":43.29848,"lon":5.36251,"is_reserved":false,"is_disabled":false,"rental_uris":{"android":"levelo://app?vid=a1fbfbd8-f4b8-485d-9eb8-0c711df84f78","ios":"levelo://app?vid=a1fbfbd8-f4b8-485d-9eb8-0c711df84f78"},"vehicle_type_id":"4","last_reported":1741947029,"current_range_meters":12800,"station_id":"ce4bgpp2rcd13ifvqc3g","pricing_plan_id":"cebpf4jnsgd1na2vs0mg"},{"bike_id":"d98e5f37-4f71-4a36-9b3b-496f87de0d61","system_id":"levelo_inurba_marseille","lat":43.31106,"lon":5.3759,"is_reserved":false,"is_disabled":false,"rental_uris":{"android":"levelo://app?vid=d98e5f37-4f71-4a36-9b3b-496f87de0d61","ios":"levelo://app?vid=d98e5f37-4f71-4a36-9b3b-496f87de0d61"},"vehicle_type_id":"4","last_reported":1741947029,"current_range_meters":12800,"station_id":"","pricing_plan_id":"cebpf4jnsgd1na2vs0mg"},{"bike_id":"679747b7-bbd6-46be-9dde-bd8bad65aa17","system_id":"levelo_inurba_marseille","lat":43.30459,"lon":5.37907,"is_reserved":false,"is_disabled":false,"rental_uris":{"android":"levelo://app?vid=679747b7-bbd6-46be-9dde-bd8bad65aa17","ios":"levelo://app?vid=679747b7-bbd6-46be-9dde-bd8bad65aa17"},"vehicle_type_id":"4","last_reported":1741947029,"current_range_meters":13600,"station_id":"ce4bgup2rcd13ifvqcn0","pricing_plan_id":"cebpf4jnsgd1na2vs0mg"},{"bike_id":"cf8c80b6-8414-4d47-907e-6a6fa8d4e1ab","system_id":"levelo_inurba_marseille","lat":43.30099,"lon":5.39843,"is_reserved":false,"is_disabled":false,"rental_uris":{"android":"levelo://app?vid=cf8c80b6-8414-4d47-907e-6a6fa8d4e1ab","ios":"levelo://app?vid=cf8c80b6-8414-4d47-907e-6a6fa8d4e1ab"},"vehicle_type_id":"4","last_reported":1741947029,"current_range_meters":13600,"station_id":"ce4bh0h2rcd13ifvqd40","pricing_plan_id":"cebpf4jnsgd1na2vs0mg"},{"bike_id":"af474046-e400-4ac9-a0d2-80fc69b95ff7","system_id":"levelo_inurba_marseille","lat":43.30524,"lon":5.36532,"is_reserved":false,"is_disabled":false,"rental_uris":{"android":"levelo://app?vid=af474046-e400-4ac9-a0d2-80fc69b95ff7","ios":"levelo://app?vid=af474046-e400-4ac9-a0d2-80fc69b95ff7"},"vehicle_type_id":"4","last_reported":1741947029,"current_range_meters":13600,"station_id":"ce4bgs12rcd13ifvqcag","pricing_plan_id":"cebpf4jnsgd1na2vs0mg"},{"bike_id":"9c14c49e-820c-491a-b526-97b1baafbbc4","system_id":"levelo_inurba_marseille","lat":43.30252,"lon":5.40053,"is_reserved":false,"is_disabled":false,"rental_uris":{"android":"levelo://app?vid=9c14c49e-820c-491a-b526-97b1baafbbc4","ios":"levelo://app?vid=9c14c49e-820c-491a-b526-97b1baafbbc4"},"vehicle_type_id":"4","last_reported":1741947029,"current_range_meters":12800,"station_id":"ce4bgvh2rcd13ifvqcs0","pricing_plan_id":"cebpf4jnsgd1na2vs0mg"},{"bike_id":"904ef4b8-01f5-4c57-9382-eb574cc6fd5a","system_id":"levelo_inurba_marseille","lat":43.26941,"lon":5.40252,"is_reserved":false,"is_disabled":false,"rental_uris":{"android":"levelo://app?vid=904ef4b8-01f5-4c57-9382-eb574cc6fd5a","ios":"levelo://app?vid=904ef4b8-01f5-4c57-9382-eb574cc6fd5a"},"vehicle_type_id":"4","last_reported":1741947029,"current_range_meters":13600,"station_id":"cjm6bp8fraef2m0cb0m0","pricing_plan_id":"cebpf4jnsgd1na2vs0mg"},{"bike_id":"12ca7ab8-ef58-4362-a6ec-0295d2e27cb2","system_id":"levelo_inurba_marseille","lat":43.29378,"lon":5.3728,"is_reserved":false,"is_disabled":false,"rental_uris":{"android":"levelo://app?vid=12ca7ab8-ef58-4362-a6ec-0295d2e27cb2","ios":"levelo://app?vid=12ca7ab8-ef58-4362-a6ec-0295d2e27cb2"},"vehicle_type_id":"4","last_reported":1741947029,"current_range_meters":14000,"station_id":"ce4bguh2rcd13ifvqcj0","pricing_plan_id":"cebpf4jnsgd1na2vs0mg"},{"bike_id":"8a5bd971-61c1-4475-933b-dffdb284dd01","system_id":"levelo_inurba_marseille","lat":43.24999,"lon":5.38947,"is_reserved":false,"is_disabled":false,"rental_uris":{"android":"levelo://app?vid=8a5bd971-61c1-4475-933b-dffdb284dd01","ios":"levelo://app?vid=8a5bd971-61c1-4475-933b-dffdb284dd01"},"vehicle_type_id":"4","last_reported":1741947029,"current_range_meters":14000,"station_id":"ce4bhgp2rcd13ifvqfd0","pricing_plan_id":"cebpf4jnsgd1na2vs0mg"},{"bike_id":"51b71709-66e2-4c83-8ce6-a5ca4256e6ff","system_id":"levelo_inurba_marseille","lat":43.23142,"lon":5.43722,"is_reserved":false,"is_disabled":false,"rental_uris":{"android":"levelo://app?vid=51b71709-66e2-4c83-8ce6-a5ca4256e6ff","ios":"levelo://app?vid=51b71709-66e2-4c83-8ce6-a5ca4256e6ff"},"vehicle_type_id":"4","last_reported":1741947029,"current_range_meters":14000,"station_id":"ce4bhmp2rcd13ifvqgog","pricing_plan_id":"cebpf4jnsgd1na2vs0mg"},{"bike_id":"05579cf8-619e-40fd-9191-b2bb2808e59a","system_id":"levelo_inurba_marseille","lat":43.26068,"lon":5.39393,"is_reserved":false,"is_disabled":false,"rental_uris":{"android":"levelo://app?vid=05579cf8-619e-40fd-9191-b2bb2808e59a","ios":"levelo://app?vid=05579cf8-619e-40fd-9191-b2bb2808e59a"},"vehicle_type_id":"4","last_reported":1741947029,"current_range_meters":14000,"station_id":"ce4bhh92rcd13ifvqfj0","pricing_plan_id":"cebpf4jnsgd1na2vs0mg"},{"bike_id":"04f149c6-a120-4218-b435-a952d9eb67d0","system_id":"levelo_inurba_marseille","lat":43.24869,"lon":5.40652,"is_reserved":false,"is_disabled":false,"rental_uris":{"android":"levelo://app?vid=04f149c6-a120-4218-b435-a952d9eb67d0","ios":"levelo://app?vid=04f149c6-a120-4218-b435-a952d9eb67d0"},"vehicle_type_id":"4","last_reported":1741947029,"current_range_meters":14000,"station_id":"","pricing_plan_id":"cebpf4jnsgd1na2vs0mg"},{"bike_id":"853f87d7-f6ef-43fc-9517-58162364c8e1","system_id":"levelo_inurba_marseille","lat":43.265663,"lon":5.390119,"is_reserved":false,"is_disabled":false,"rental_uris":{"android":"levelo://app?vid=853f87d7-f6ef-43fc-9517-58162364c8e1","ios":"levelo://app?vid=853f87d7-f6ef-43fc-9517-58162364c8e1"},"vehicle_type_id":"4","last_reported":1741947029,"current_range_meters":14000,"station_id":"ce4bhe12rcd13ifvqf30","pricing_plan_id":"cebpf4jnsgd1na2vs0mg"},{"bike_id":"52c9a29f-71a6-47ca-b4ee-1301cb338e0c","system_id":"levelo_inurba_marseille","lat":43.3055,"lon":5.36559,"is_reserved":false,"is_disabled":false,"rental_uris":{"android":"levelo://app?vid=52c9a29f-71a6-47ca-b4ee-1301cb338e0c","ios":"levelo://app?vid=52c9a29f-71a6-47ca-b4ee-1301cb338e0c"},"vehicle_type_id":"4","last_reported":1741947029,"current_range_meters":14000,"station_id":"ce4bgs12rcd13ifvqcag","pricing_plan_id":"cebpf4jnsgd1na2vs0mg"},{"bike_id":"f31c7e9f-4848-4e4a-88d2-c26dfa0a32c6","system_id":"levelo_inurba_marseille","lat":43.29288,"lon":5.37424,"is_reserved":false,"is_disabled":false,"rental_uris":{"android":"levelo://app?vid=f31c7e9f-4848-4e4a-88d2-c26dfa0a32c6","ios":"levelo://app?vid=f31c7e9f-4848-4e4a-88d2-c26dfa0a32c6"},"vehicle_type_id":"4","last_reported":1741947029,"current_range_meters":14400,"station_id":"ce4bgi12rcd13ifvqb70","pricing_plan_id":"cebpf4jnsgd1na2vs0mg"},{"bike_id":"839b271f-3c91-40a0-a11f-9e941377869e","system_id":"levelo_inurba_marseille","lat":43.2883,"lon":5.39328,"is_reserved":false,"is_disabled":false,"rental_uris":{"android":"levelo://app?vid=839b271f-3c91-40a0-a11f-9e941377869e","ios":"levelo://app?vid=839b271f-3c91-40a0-a11f-9e941377869e"},"vehicle_type_id":"4","last_reported":1741947029,"current_range_meters":14000,"station_id":"ce4bh2p2rcd13ifvqdi0","pricing_plan_id":"cebpf4jnsgd1na2vs0mg"},{"bike_id":"50c5a25c-2e3b-41b5-9b7c-ca11185781c8","system_id":"levelo_inurba_marseille","lat":43.28441,"lon":5.39182,"is_reserved":false,"is_disabled":false,"rental_uris":{"android":"levelo://app?vid=50c5a25c-2e3b-41b5-9b7c-ca11185781c8","ios":"levelo://app?vid=50c5a25c-2e3b-41b5-9b7c-ca11185781c8"},"vehicle_type_id":"4","last_reported":1741947029,"current_range_meters":14000,"station_id":"ce4bhoh2rcd13ifvqh5g","pricing_plan_id":"cebpf4jnsgd1na2vs0mg"},{"bike_id":"8eb1a957-a48f-4ea1-9a87-c9ca711e52f4","system_id":"levelo_inurba_marseille","lat":43.315,"lon":5.37284,"is_reserved":false,"is_disabled":false,"rental_uris":{"android":"levelo://app?vid=8eb1a957-a48f-4ea1-9a87-c9ca711e52f4","ios":"levelo://app?vid=8eb1a957-a48f-4ea1-9a87-c9ca711e52f4"},"vehicle_type_id":"4","last_reported":1741947029,"current_range_meters":14400,"station_id":"ce4bgt12rcd13ifvqcd0","pricing_plan_id":"cebpf4jnsgd1na2vs0mg"},{"bike_id":"26e54f8c-b0fe-4c64-b699-6905df72ee3e","system_id":"levelo_inurba_marseille","lat":43.30202,"lon":5.39468,"is_reserved":false,"is_disabled":false,"rental_uris":{"android":"levelo://app?vid=26e54f8c-b0fe-4c64-b699-6905df72ee3e","ios":"levelo://app?vid=26e54f8c-b0fe-4c64-b699-6905df72ee3e"},"vehicle_type_id":"4","last_reported":1741947029,"current_range_meters":14400,"station_id":"ce4bh0p2rcd13ifvqd70","pricing_plan_id":"cebpf4jnsgd1na2vs0mg"},{"bike_id":"676e66c6-8e50-404c-b512-5f94c7d6a8fc","system_id":"levelo_inurba_marseille","lat":43.24175,"lon":5.364,"is_reserved":false,"is_disabled":false,"rental_uris":{"android":"levelo://app?vid=676e66c6-8e50-404c-b512-5f94c7d6a8fc","ios":"levelo://app?vid=676e66c6-8e50-404c-b512-5f94c7d6a8fc"},"vehicle_type_id":"4","last_reported":1741947029,"current_range_meters":14800,"station_id":"cpo36qri1sfpv3e86is0","pricing_plan_id":"cebpf4jnsgd1na2vs0mg"},{"bike_id":"531f3787-cddd-4298-8d43-eeb740d3c021","system_id":"levelo_inurba_marseille","lat":43.30138,"lon":5.39862,"is_reserved":false,"is_disabled":false,"rental_uris":{"android":"levelo://app?vid=531f3787-cddd-4298-8d43-eeb740d3c021","ios":"levelo://app?vid=531f3787-cddd-4298-8d43-eeb740d3c021"},"vehicle_type_id":"4","last_reported":1741947029,"current_range_meters":14800,"station_id":"ce4bh0h2rcd13ifvqd40","pricing_plan_id":"cebpf4jnsgd1na2vs0mg"},{"bike_id":"e0f00ea1-5190-455d-8f01-943045ce62ae","system_id":"levelo_inurba_marseille","lat":43.31172,"lon":5.37732,"is_reserved":false,"is_disabled":false,"rental_uris":{"android":"levelo://app?vid=e0f00ea1-5190-455d-8f01-943045ce62ae","ios":"levelo://app?vid=e0f00ea1-5190-455d-8f01-943045ce62ae"},"vehicle_type_id":"4","last_reported":1741947029,"current_range_meters":14800,"station_id":"","pricing_plan_id":"cebpf4jnsgd1na2vs0mg"},{"bike_id":"6aab137e-416d-42b2-9ef3-0a91d921400d","system_id":"levelo_inurba_marseille","lat":43.34142,"lon":5.40913,"is_reserved":false,"is_disabled":true,"rental_uris":{"android":"levelo://app?vid=6aab137e-416d-42b2-9ef3-0a91d921400d","ios":"levelo://app?vid=6aab137e-416d-42b2-9ef3-0a91d921400d"},"vehicle_type_id":"4","last_reported":1741947029,"current_range_meters":14800,"station_id":"ce4bhqh2rcd13ifvqhlg","pricing_plan_id":"cebpf4jnsgd1na2vs0mg"},{"bike_id":"c4a75691-2c6b-41d8-89c5-c97379fea25e","system_id":"levelo_inurba_marseille","lat":43.30881,"lon":5.37187,"is_reserved":false,"is_disabled":false,"rental_uris":{"android":"levelo://app?vid=c4a75691-2c6b-41d8-89c5-c97379fea25e","ios":"levelo://app?vid=c4a75691-2c6b-41d8-89c5-c97379fea25e"},"vehicle_type_id":"4","last_reported":1741947029,"current_range_meters":14800,"station_id":"ce4bguh2rcd13ifvqckg","pricing_plan_id":"cebpf4jnsgd1na2vs0mg"},{"bike_id":"d4b17355-f8e9-4913-b1ba-3f45f9e41f29","system_id":"levelo_inurba_marseille","lat":43.2991,"lon":5.38154,"is_reserved":false,"is_disabled":false,"rental_uris":{"android":"levelo://app?vid=d4b17355-f8e9-4913-b1ba-3f45f9e41f29","ios":"levelo://app?vid=d4b17355-f8e9-4913-b1ba-3f45f9e41f29"},"vehicle_type_id":"4","last_reported":1741947029,"current_range_meters":15200,"station_id":"ce4bgj12rcd13ifvqbc0","pricing_plan_id":"cebpf4jnsgd1na2vs0mg"},{"bike_id":"385ae15c-2c3c-4490-a507-5eb20fb883a5","system_id":"levelo_inurba_marseille","lat":43.25929,"lon":5.40906,"is_reserved":false,"is_disabled":false,"rental_uris":{"android":"levelo://app?vid=385ae15c-2c3c-4490-a507-5eb20fb883a5","ios":"levelo://app?vid=385ae15c-2c3c-4490-a507-5eb20fb883a5"},"vehicle_type_id":"4","last_reported":1741947029,"current_range_meters":15200,"station_id":"ce4bhm92rcd13ifvqglg","pricing_plan_id":"cebpf4jnsgd1na2vs0mg"},{"bike_id":"6de26fe8-e601-41a4-95fb-a0c7b8125e02","system_id":"levelo_inurba_marseille","lat":43.24074,"lon":5.3776,"is_reserved":false,"is_disabled":false,"rental_uris":{"android":"levelo://app?vid=6de26fe8-e601-41a4-95fb-a0c7b8125e02","ios":"levelo://app?vid=6de26fe8-e601-41a4-95fb-a0c7b8125e02"},"vehicle_type_id":"4","last_reported":1741947029,"current_range_meters":15200,"station_id":"ce4bhnp2rcd13ifvqgvg","pricing_plan_id":"cebpf4jnsgd1na2vs0mg"},{"bike_id":"47bf8666-8072-4f5c-bdfd-6f1a8864ba44","system_id":"levelo_inurba_marseille","lat":43.26687,"lon":5.38262,"is_reserved":false,"is_disabled":false,"rental_uris":{"android":"levelo://app?vid=47bf8666-8072-4f5c-bdfd-6f1a8864ba44","ios":"levelo://app?vid=47bf8666-8072-4f5c-bdfd-6f1a8864ba44"},"vehicle_type_id":"4","last_reported":1741947029,"current_range_meters":16000,"station_id":"ce4bhg92rcd13ifvqf90","pricing_plan_id":"cebpf4jnsgd1na2vs0mg"},{"bike_id":"cabd3d2d-330e-43b2-8d0b-3e86699f79e1","system_id":"levelo_inurba_marseille","lat":43.24184,"lon":5.36391,"is_reserved":false,"is_disabled":false,"rental_uris":{"android":"levelo://app?vid=cabd3d2d-330e-43b2-8d0b-3e86699f79e1","ios":"levelo://app?vid=cabd3d2d-330e-43b2-8d0b-3e86699f79e1"},"vehicle_type_id":"4","last_reported":1741947029,"current_range_meters":16000,"station_id":"cpo36qri1sfpv3e86is0","pricing_plan_id":"cebpf4jnsgd1na2vs0mg"},{"bike_id":"2661a1e4-65ea-4cac-9651-82149e0ffdd4","system_id":"levelo_inurba_marseille","lat":43.28154,"lon":5.42646,"is_reserved":false,"is_disabled":false,"rental_uris":{"android":"levelo://app?vid=2661a1e4-65ea-4cac-9651-82149e0ffdd4","ios":"levelo://app?vid=2661a1e4-65ea-4cac-9651-82149e0ffdd4"},"vehicle_type_id":"4","last_reported":1741947029,"current_range_meters":16000,"station_id":"ce4bhnh2rcd13ifvqgug","pricing_plan_id":"cebpf4jnsgd1na2vs0mg"},{"bike_id":"8366cdf6-0b1c-430d-903b-435a06c64917","system_id":"levelo_inurba_marseille","lat":43.26225,"lon":5.37433,"is_reserved":false,"is_disabled":false,"rental_uris":{"android":"levelo://app?vid=8366cdf6-0b1c-430d-903b-435a06c64917","ios":"levelo://app?vid=8366cdf6-0b1c-430d-903b-435a06c64917"},"vehicle_type_id":"4","last_reported":1741947029,"current_range_meters":16000,"station_id":"ce4bhgp2rcd13ifvqfc0","pricing_plan_id":"cebpf4jnsgd1na2vs0mg"},{"bike_id":"249e3033-67d6-4d3f-8692-7f9a8f0fefe7","system_id":"levelo_inurba_marseille","lat":43.28454,"lon":5.35891,"is_reserved":false,"is_disabled":false,"rental_uris":{"android":"levelo://app?vid=249e3033-67d6-4d3f-8692-7f9a8f0fefe7","ios":"levelo://app?vid=249e3033-67d6-4d3f-8692-7f9a8f0fefe7"},"vehicle_type_id":"4","last_reported":1741947029,"current_range_meters":15200,"station_id":"ce4bhah2rcd13ifvqei0","pricing_plan_id":"cebpf4jnsgd1na2vs0mg"},{"bike_id":"b0308a47-50b8-461b-8bbe-1a438390d7c8","system_id":"levelo_inurba_marseille","lat":43.312677,"lon":5.401717,"is_reserved":false,"is_disabled":false,"rental_uris":{"android":"levelo://app?vid=b0308a47-50b8-461b-8bbe-1a438390d7c8","ios":"levelo://app?vid=b0308a47-50b8-461b-8bbe-1a438390d7c8"},"vehicle_type_id":"4","last_reported":1741947029,"current_range_meters":16000,"station_id":"ce4bh312rcd13ifvqdj0","pricing_plan_id":"cebpf4jnsgd1na2vs0mg"},{"bike_id":"cedd1944-ac8d-42ae-9ae8-5a77f9413746","system_id":"levelo_inurba_marseille","lat":43.30329,"lon":5.4043,"is_reserved":false,"is_disabled":false,"rental_uris":{"android":"levelo://app?vid=cedd1944-ac8d-42ae-9ae8-5a77f9413746","ios":"levelo://app?vid=cedd1944-ac8d-42ae-9ae8-5a77f9413746"},"vehicle_type_id":"4","last_reported":1741947029,"current_range_meters":16000,"station_id":"ce4bh292rcd13ifvqdf0","pricing_plan_id":"cebpf4jnsgd1na2vs0mg"},{"bike_id":"4f40e8b1-1d2d-4b41-8fb4-f7f4b3a308bc","system_id":"levelo_inurba_marseille","lat":43.23158,"lon":5.437,"is_reserved":false,"is_disabled":false,"rental_uris":{"android":"levelo://app?vid=4f40e8b1-1d2d-4b41-8fb4-f7f4b3a308bc","ios":"levelo://app?vid=4f40e8b1-1d2d-4b41-8fb4-f7f4b3a308bc"},"vehicle_type_id":"4","last_reported":1741947029,"current_range_meters":16400,"station_id":"ce4bhmp2rcd13ifvqgog","pricing_plan_id":"cebpf4jnsgd1na2vs0mg"},{"bike_id":"0b7bfdb8-fd03-4687-9225-8085184f929c","system_id":"levelo_inurba_marseille","lat":43.32381,"lon":5.3674,"is_reserved":false,"is_disabled":false,"rental_uris":{"android":"levelo://app?vid=0b7bfdb8-fd03-4687-9225-8085184f929c","ios":"levelo://app?vid=0b7bfdb8-fd03-4687-9225-8085184f929c"},"vehicle_type_id":"4","last_reported":1741947029,"current_range_meters":16400,"station_id":"ce4bhsh2rcd13ifvqi2g","pricing_plan_id":"cebpf4jnsgd1na2vs0mg"},{"bike_id":"e3ac629b-3f4d-485e-89ba-194785893239","system_id":"levelo_inurba_marseille","lat":43.24075,"lon":5.37755,"is_reserved":false,"is_disabled":false,"rental_uris":{"android":"levelo://app?vid=e3ac629b-3f4d-485e-89ba-194785893239","ios":"levelo://app?vid=e3ac629b-3f4d-485e-89ba-194785893239"},"vehicle_type_id":"4","last_reported":1741947029,"current_range_meters":16400,"station_id":"ce4bhnp2rcd13ifvqgvg","pricing_plan_id":"cebpf4jnsgd1na2vs0mg"},{"bike_id":"70e74811-5755-462b-971a-5a64a80bde0b","system_id":"levelo_inurba_marseille","lat":43.310829,"lon":5.424331,"is_reserved":false,"is_disabled":false,"rental_uris":{"android":"levelo://app?vid=70e74811-5755-462b-971a-5a64a80bde0b","ios":"levelo://app?vid=70e74811-5755-462b-971a-5a64a80bde0b"},"vehicle_type_id":"4","last_reported":1741947029,"current_range_meters":16400,"station_id":"ce4bhp92rcd13ifvqhag","pricing_plan_id":"cebpf4jnsgd1na2vs0mg"},{"bike_id":"b332e6ac-f4d1-41ff-83ac-986b9d06f392","system_id":"levelo_inurba_marseille","lat":43.30189,"lon":5.36638,"is_reserved":false,"is_disabled":false,"rental_uris":{"android":"levelo://app?vid=b332e6ac-f4d1-41ff-83ac-986b9d06f392","ios":"levelo://app?vid=b332e6ac-f4d1-41ff-83ac-986b9d06f392"},"vehicle_type_id":"4","last_reported":1741947029,"current_range_meters":16400,"station_id":"ce4bgrh2rcd13ifvqc8g","pricing_plan_id":"cebpf4jnsgd1na2vs0mg"},{"bike_id":"64986549-2c9e-4b9f-8464-f74cc2571bf2","system_id":"levelo_inurba_marseille","lat":43.24124,"lon":5.37766,"is_reserved":false,"is_disabled":false,"rental_uris":{"android":"levelo://app?vid=64986549-2c9e-4b9f-8464-f74cc2571bf2","ios":"levelo://app?vid=64986549-2c9e-4b9f-8464-f74cc2571bf2"},"vehicle_type_id":"4","last_reported":1741947029,"current_range_meters":16400,"station_id":"ce4bhnp2rcd13ifvqgvg","pricing_plan_id":"cebpf4jnsgd1na2vs0mg"},{"bike_id":"3fbdbed3-81eb-4ebd-99e8-fe7ae5272906","system_id":"levelo_inurba_marseille","lat":43.25834,"lon":5.39424,"is_reserved":false,"is_disabled":false,"rental_uris":{"android":"levelo://app?vid=3fbdbed3-81eb-4ebd-99e8-fe7ae5272906","ios":"levelo://app?vid=3fbdbed3-81eb-4ebd-99e8-fe7ae5272906"},"vehicle_type_id":"4","last_reported":1741947029,"current_range_meters":16400,"station_id":"ce4bhip2rcd13ifvqft0","pricing_plan_id":"cebpf4jnsgd1na2vs0mg"},{"bike_id":"21da45df-b940-4225-a849-d6a56d0fa1da","system_id":"levelo_inurba_marseille","lat":43.29715,"lon":5.37695,"is_reserved":false,"is_disabled":false,"rental_uris":{"android":"levelo://app?vid=21da45df-b940-4225-a849-d6a56d0fa1da","ios":"levelo://app?vid=21da45df-b940-4225-a849-d6a56d0fa1da"},"vehicle_type_id":"4","last_reported":1741947029,"current_range_meters":16400,"station_id":"ce4bgkh2rcd13ifvqbl0","pricing_plan_id":"cebpf4jnsgd1na2vs0mg"},{"bike_id":"aed9098c-3d44-45b3-a7fd-cb229efd8d44","system_id":"levelo_inurba_marseille","lat":43.27054,"lon":5.40265,"is_reserved":false,"is_disabled":false,"rental_uris":{"android":"levelo://app?vid=aed9098c-3d44-45b3-a7fd-cb229efd8d44","ios":"levelo://app?vid=aed9098c-3d44-45b3-a7fd-cb229efd8d44"},"vehicle_type_id":"4","last_reported":1741947029,"current_range_meters":16800,"station_id":"ce4bhk92rcd13ifvqgb0","pricing_plan_id":"cebpf4jnsgd1na2vs0mg"},{"bike_id":"33abc843-d9b9-4d34-bce0-2a8c64e0cfcf","system_id":"levelo_inurba_marseille","lat":43.30542,"lon":5.36521,"is_reserved":false,"is_disabled":false,"rental_uris":{"android":"levelo://app?vid=33abc843-d9b9-4d34-bce0-2a8c64e0cfcf","ios":"levelo://app?vid=33abc843-d9b9-4d34-bce0-2a8c64e0cfcf"},"vehicle_type_id":"4","last_reported":1741947029,"current_range_meters":16800,"station_id":"ce4bgs12rcd13ifvqcag","pricing_plan_id":"cebpf4jnsgd1na2vs0mg"},{"bike_id":"8ecb382b-dcc0-421c-b9b5-77617e0b907d","system_id":"levelo_inurba_marseille","lat":43.30279,"lon":5.37699,"is_reserved":false,"is_disabled":false,"rental_uris":{"android":"levelo://app?vid=8ecb382b-dcc0-421c-b9b5-77617e0b907d","ios":"levelo://app?vid=8ecb382b-dcc0-421c-b9b5-77617e0b907d"},"vehicle_type_id":"4","last_reported":1741947029,"current_range_meters":16800,"station_id":"ce4bguh2rcd13ifvqcj0","pricing_plan_id":"cebpf4jnsgd1na2vs0mg"},{"bike_id":"76b5d343-6624-4366-8e6e-f702d50ae492","system_id":"levelo_inurba_marseille","lat":43.23187,"lon":5.35565,"is_reserved":false,"is_disabled":false,"rental_uris":{"android":"levelo://app?vid=76b5d343-6624-4366-8e6e-f702d50ae492","ios":"levelo://app?vid=76b5d343-6624-4366-8e6e-f702d50ae492"},"vehicle_type_id":"4","last_reported":1741947029,"current_range_meters":16800,"station_id":"ce4bhu92rcd13ifvqi70","pricing_plan_id":"cebpf4jnsgd1na2vs0mg"},{"bike_id":"d5510000-bf1f-40b6-9e90-853c10060aee","system_id":"levelo_inurba_marseille","lat":43.29031,"lon":5.39975,"is_reserved":false,"is_disabled":true,"rental_uris":{"android":"levelo://app?vid=d5510000-bf1f-40b6-9e90-853c10060aee","ios":"levelo://app?vid=d5510000-bf1f-40b6-9e90-853c10060aee"},"vehicle_type_id":"4","last_reported":1741947029,"current_range_meters":16800,"station_id":"ce4bh392rcd13ifvqdm0","pricing_plan_id":"cebpf4jnsgd1na2vs0mg"},{"bike_id":"08d7ad39-29b9-4d1d-ab44-5a56dd13dd34","system_id":"levelo_inurba_marseille","lat":43.24078,"lon":5.37749,"is_reserved":false,"is_disabled":false,"rental_uris":{"android":"levelo://app?vid=08d7ad39-29b9-4d1d-ab44-5a56dd13dd34","ios":"levelo://app?vid=08d7ad39-29b9-4d1d-ab44-5a56dd13dd34"},"vehicle_type_id":"4","last_reported":1741947029,"current_range_meters":16800,"station_id":"ce4bhnp2rcd13ifvqgvg","pricing_plan_id":"cebpf4jnsgd1na2vs0mg"},{"bike_id":"7e809cf9-4d16-4e10-88b0-f3e27f97828a","system_id":"levelo_inurba_marseille","lat":43.25004,"lon":5.38922,"is_reserved":false,"is_disabled":false,"rental_uris":{"android":"levelo://app?vid=7e809cf9-4d16-4e10-88b0-f3e27f97828a","ios":"levelo://app?vid=7e809cf9-4d16-4e10-88b0-f3e27f97828a"},"vehicle_type_id":"4","last_reported":1741947029,"current_range_meters":16800,"station_id":"ce4bhgp2rcd13ifvqfd0","pricing_plan_id":"cebpf4jnsgd1na2vs0mg"},{"bike_id":"4e3666c1-8805-43b8-95fa-4a1db44a7b06","system_id":"levelo_inurba_marseille","lat":43.33603,"lon":5.41032,"is_reserved":false,"is_disabled":false,"rental_uris":{"android":"levelo://app?vid=4e3666c1-8805-43b8-95fa-4a1db44a7b06","ios":"levelo://app?vid=4e3666c1-8805-43b8-95fa-4a1db44a7b06"},"vehicle_type_id":"4","last_reported":1741947029,"current_range_meters":16800,"station_id":"ce4bhqh2rcd13ifvqhmg","pricing_plan_id":"cebpf4jnsgd1na2vs0mg"},{"bike_id":"59222430-0127-4c56-9dea-cdaec9b93f62","system_id":"levelo_inurba_marseille","lat":43.30901,"lon":5.36828,"is_reserved":false,"is_disabled":false,"rental_uris":{"android":"levelo://app?vid=59222430-0127-4c56-9dea-cdaec9b93f62","ios":"levelo://app?vid=59222430-0127-4c56-9dea-cdaec9b93f62"},"vehicle_type_id":"4","last_reported":1741947029,"current_range_meters":16800,"station_id":"ce4bgn92rcd13ifvqbvg","pricing_plan_id":"cebpf4jnsgd1na2vs0mg"},{"bike_id":"0a28a218-5bd3-4e77-a932-c0eb7874cef3","system_id":"levelo_inurba_marseille","lat":43.30939,"lon":5.40156,"is_reserved":false,"is_disabled":false,"rental_uris":{"android":"levelo://app?vid=0a28a218-5bd3-4e77-a932-c0eb7874cef3","ios":"levelo://app?vid=0a28a218-5bd3-4e77-a932-c0eb7874cef3"},"vehicle_type_id":"4","last_reported":1741947029,"current_range_meters":16800,"station_id":"ce4bgvp2rcd13ifvqct0","pricing_plan_id":"cebpf4jnsgd1na2vs0mg"},{"bike_id":"06fea768-af17-4c84-b29c-92effa7c5e88","system_id":"levelo_inurba_marseille","lat":43.314,"lon":5.36729,"is_reserved":false,"is_disabled":false,"rental_uris":{"android":"levelo://app?vid=06fea768-af17-4c84-b29c-92effa7c5e88","ios":"levelo://app?vid=06fea768-af17-4c84-b29c-92effa7c5e88"},"vehicle_type_id":"4","last_reported":1741947029,"current_range_meters":16800,"station_id":"ce4bgr92rcd13ifvqc6g","pricing_plan_id":"cebpf4jnsgd1na2vs0mg"},{"bike_id":"441146ec-c2e7-45f1-b6bc-e65405bbf9fd","system_id":"levelo_inurba_marseille","lat":43.27617,"lon":5.36113,"is_reserved":false,"is_disabled":false,"rental_uris":{"android":"levelo://app?vid=441146ec-c2e7-45f1-b6bc-e65405bbf9fd","ios":"levelo://app?vid=441146ec-c2e7-45f1-b6bc-e65405bbf9fd"},"vehicle_type_id":"4","last_reported":1741947029,"current_range_meters":16800,"station_id":"ce4bgj92rcd13ifvqbe0","pricing_plan_id":"cebpf4jnsgd1na2vs0mg"},{"bike_id":"83783ead-721f-4d82-86e9-a8ac641b2edd","system_id":"levelo_inurba_marseille","lat":43.26212,"lon":5.40434,"is_reserved":false,"is_disabled":false,"rental_uris":{"android":"levelo://app?vid=83783ead-721f-4d82-86e9-a8ac641b2edd","ios":"levelo://app?vid=83783ead-721f-4d82-86e9-a8ac641b2edd"},"vehicle_type_id":"4","last_reported":1741947029,"current_range_meters":16800,"station_id":"ce4bhmh2rcd13ifvqgmg","pricing_plan_id":"cebpf4jnsgd1na2vs0mg"},{"bike_id":"62aed87b-2505-4dcf-a693-f4cad1e62549","system_id":"levelo_inurba_marseille","lat":43.33604,"lon":5.41037,"is_reserved":false,"is_disabled":false,"rental_uris":{"android":"levelo://app?vid=62aed87b-2505-4dcf-a693-f4cad1e62549","ios":"levelo://app?vid=62aed87b-2505-4dcf-a693-f4cad1e62549"},"vehicle_type_id":"4","last_reported":1741947029,"current_range_meters":16800,"station_id":"ce4bhqh2rcd13ifvqhmg","pricing_plan_id":"cebpf4jnsgd1na2vs0mg"},{"bike_id":"0824f3af-1839-42e3-b2eb-1bc7ef5d8244","system_id":"levelo_inurba_marseille","lat":43.27827,"lon":5.40711,"is_reserved":false,"is_disabled":false,"rental_uris":{"android":"levelo://app?vid=0824f3af-1839-42e3-b2eb-1bc7ef5d8244","ios":"levelo://app?vid=0824f3af-1839-42e3-b2eb-1bc7ef5d8244"},"vehicle_type_id":"4","last_reported":1741947029,"current_range_meters":16800,"station_id":"ce4bhnh2rcd13ifvqgtg","pricing_plan_id":"cebpf4jnsgd1na2vs0mg"},{"bike_id":"dbccf4e9-bafe-440b-b16f-789bd398c9c8","system_id":"levelo_inurba_marseille","lat":43.29309,"lon":5.37193,"is_reserved":false,"is_disabled":false,"rental_uris":{"android":"levelo://app?vid=dbccf4e9-bafe-440b-b16f-789bd398c9c8","ios":"levelo://app?vid=dbccf4e9-bafe-440b-b16f-789bd398c9c8"},"vehicle_type_id":"4","last_reported":1741947029,"current_range_meters":17200,"station_id":"ce4bgh92rcd13ifvqb40","pricing_plan_id":"cebpf4jnsgd1na2vs0mg"},{"bike_id":"92794fe4-5e22-40bd-922a-15630840d3b5","system_id":"levelo_inurba_marseille","lat":43.26793,"lon":5.39412,"is_reserved":false,"is_disabled":false,"rental_uris":{"android":"levelo://app?vid=92794fe4-5e22-40bd-922a-15630840d3b5","ios":"levelo://app?vid=92794fe4-5e22-40bd-922a-15630840d3b5"},"vehicle_type_id":"4","last_reported":1741947029,"current_range_meters":17200,"station_id":"ce4bhh12rcd13ifvqfg0","pricing_plan_id":"cebpf4jnsgd1na2vs0mg"},{"bike_id":"67fcd43e-de01-466e-959b-2fa465b49c52","system_id":"levelo_inurba_marseille","lat":43.317166,"lon":5.423935,"is_reserved":false,"is_disabled":false,"rental_uris":{"android":"levelo://app?vid=67fcd43e-de01-466e-959b-2fa465b49c52","ios":"levelo://app?vid=67fcd43e-de01-466e-959b-2fa465b49c52"},"vehicle_type_id":"4","last_reported":1741947029,"current_range_meters":17200,"station_id":"ce4bhp92rcd13ifvqhbg","pricing_plan_id":"cebpf4jnsgd1na2vs0mg"},{"bike_id":"744a4668-cf4f-455a-84ca-8a867be4c050","system_id":"levelo_inurba_marseille","lat":43.32481,"lon":5.36577,"is_reserved":false,"is_disabled":false,"rental_uris":{"android":"levelo://app?vid=744a4668-cf4f-455a-84ca-8a867be4c050","ios":"levelo://app?vid=744a4668-cf4f-455a-84ca-8a867be4c050"},"vehicle_type_id":"4","last_reported":1741947029,"current_range_meters":17200,"station_id":"ce4bhs12rcd13ifvqhvg","pricing_plan_id":"cebpf4jnsgd1na2vs0mg"},{"bike_id":"184492ce-9f5c-47e4-a3e5-d0eccfcef42b","system_id":"levelo_inurba_marseille","lat":43.27621,"lon":5.36106,"is_reserved":false,"is_disabled":false,"rental_uris":{"android":"levelo://app?vid=184492ce-9f5c-47e4-a3e5-d0eccfcef42b","ios":"levelo://app?vid=184492ce-9f5c-47e4-a3e5-d0eccfcef42b"},"vehicle_type_id":"4","last_reported":1741947029,"current_range_meters":17200,"station_id":"ce4bgj92rcd13ifvqbe0","pricing_plan_id":"cebpf4jnsgd1na2vs0mg"},{"bike_id":"e43c81c0-67a0-4c25-9297-ec248fcfb8d5","system_id":"levelo_inurba_marseille","lat":43.24098,"lon":5.37804,"is_reserved":false,"is_disabled":false,"rental_uris":{"android":"levelo://app?vid=e43c81c0-67a0-4c25-9297-ec248fcfb8d5","ios":"levelo://app?vid=e43c81c0-67a0-4c25-9297-ec248fcfb8d5"},"vehicle_type_id":"4","last_reported":1741947029,"current_range_meters":17200,"station_id":"ce4bhnp2rcd13ifvqgvg","pricing_plan_id":"cebpf4jnsgd1na2vs0mg"},{"bike_id":"d13948ce-2eca-438f-a242-2e61e54403de","system_id":"levelo_inurba_marseille","lat":43.26681,"lon":5.3826,"is_reserved":false,"is_disabled":false,"rental_uris":{"android":"levelo://app?vid=d13948ce-2eca-438f-a242-2e61e54403de","ios":"levelo://app?vid=d13948ce-2eca-438f-a242-2e61e54403de"},"vehicle_type_id":"4","last_reported":1741947029,"current_range_meters":17200,"station_id":"ce4bhg92rcd13ifvqf90","pricing_plan_id":"cebpf4jnsgd1na2vs0mg"},{"bike_id":"25274a25-b64b-423d-8515-597b4f6d1008","system_id":"levelo_inurba_marseille","lat":43.29295,"lon":5.37451,"is_reserved":false,"is_disabled":false,"rental_uris":{"android":"levelo://app?vid=25274a25-b64b-423d-8515-597b4f6d1008","ios":"levelo://app?vid=25274a25-b64b-423d-8515-597b4f6d1008"},"vehicle_type_id":"4","last_reported":1741947029,"current_range_meters":17200,"station_id":"ce4bgi12rcd13ifvqb70","pricing_plan_id":"cebpf4jnsgd1na2vs0mg"},{"bike_id":"e52b41b5-52df-4c67-a85c-3cebb3bf7504","system_id":"levelo_inurba_marseille","lat":43.32374,"lon":5.36756,"is_reserved":false,"is_disabled":false,"rental_uris":{"android":"levelo://app?vid=e52b41b5-52df-4c67-a85c-3cebb3bf7504","ios":"levelo://app?vid=e52b41b5-52df-4c67-a85c-3cebb3bf7504"},"vehicle_type_id":"4","last_reported":1741947029,"current_range_meters":17200,"station_id":"ce4bhsh2rcd13ifvqi2g","pricing_plan_id":"cebpf4jnsgd1na2vs0mg"},{"bike_id":"7635aeab-8bde-47fc-9329-1cb5f9d0b3f2","system_id":"levelo_inurba_marseille","lat":43.24996,"lon":5.38929,"is_reserved":false,"is_disabled":false,"rental_uris":{"android":"levelo://app?vid=7635aeab-8bde-47fc-9329-1cb5f9d0b3f2","ios":"levelo://app?vid=7635aeab-8bde-47fc-9329-1cb5f9d0b3f2"},"vehicle_type_id":"4","last_reported":1741947029,"current_range_meters":17200,"station_id":"ce4bhgp2rcd13ifvqfd0","pricing_plan_id":"cebpf4jnsgd1na2vs0mg"},{"bike_id":"2b801334-4382-4dd4-bab7-df2703f0d035","system_id":"levelo_inurba_marseille","lat":43.32561,"lon":5.41484,"is_reserved":false,"is_disabled":false,"rental_uris":{"android":"levelo://app?vid=2b801334-4382-4dd4-bab7-df2703f0d035","ios":"levelo://app?vid=2b801334-4382-4dd4-bab7-df2703f0d035"},"vehicle_type_id":"4","last_reported":1741947029,"current_range_meters":17200,"station_id":"","pricing_plan_id":"cebpf4jnsgd1na2vs0mg"},{"bike_id":"c5ffd01f-a1f8-449f-8ba8-e4ed30e596d8","system_id":"levelo_inurba_marseille","lat":43.29573,"lon":5.37519,"is_reserved":false,"is_disabled":false,"rental_uris":{"android":"levelo://app?vid=c5ffd01f-a1f8-449f-8ba8-e4ed30e596d8","ios":"levelo://app?vid=c5ffd01f-a1f8-449f-8ba8-e4ed30e596d8"},"vehicle_type_id":"4","last_reported":1741947029,"current_range_meters":17200,"station_id":"ce4bgh92rcd13ifvqb50","pricing_plan_id":"cebpf4jnsgd1na2vs0mg"},{"bike_id":"123906b5-1c25-4926-ab32-790463d84662","system_id":"levelo_inurba_marseille","lat":43.30558,"lon":5.36531,"is_reserved":false,"is_disabled":false,"rental_uris":{"android":"levelo://app?vid=123906b5-1c25-4926-ab32-790463d84662","ios":"levelo://app?vid=123906b5-1c25-4926-ab32-790463d84662"},"vehicle_type_id":"4","last_reported":1741947029,"current_range_meters":17600,"station_id":"ce4bgs12rcd13ifvqcag","pricing_plan_id":"cebpf4jnsgd1na2vs0mg"},{"bike_id":"567f6cd1-46bd-4693-9e7c-cb66bdfec3cf","system_id":"levelo_inurba_marseille","lat":43.26535,"lon":5.3894,"is_reserved":false,"is_disabled":false,"rental_uris":{"android":"levelo://app?vid=567f6cd1-46bd-4693-9e7c-cb66bdfec3cf","ios":"levelo://app?vid=567f6cd1-46bd-4693-9e7c-cb66bdfec3cf"},"vehicle_type_id":"4","last_reported":1741947029,"current_range_meters":17600,"station_id":"ce4bhe12rcd13ifvqf30","pricing_plan_id":"cebpf4jnsgd1na2vs0mg"},{"bike_id":"ae64ab42-2eb1-48d5-91c4-ee0243171e9d","system_id":"levelo_inurba_marseille","lat":43.29044,"lon":5.39945,"is_reserved":false,"is_disabled":false,"rental_uris":{"android":"levelo://app?vid=ae64ab42-2eb1-48d5-91c4-ee0243171e9d","ios":"levelo://app?vid=ae64ab42-2eb1-48d5-91c4-ee0243171e9d"},"vehicle_type_id":"4","last_reported":1741947029,"current_range_meters":17200,"station_id":"ce4bh392rcd13ifvqdm0","pricing_plan_id":"cebpf4jnsgd1na2vs0mg"},{"bike_id":"e87c2a76-3abd-4771-b4c5-3da78f9cb034","system_id":"levelo_inurba_marseille","lat":43.325785,"lon":5.405945,"is_reserved":false,"is_disabled":false,"rental_uris":{"android":"levelo://app?vid=e87c2a76-3abd-4771-b4c5-3da78f9cb034","ios":"levelo://app?vid=e87c2a76-3abd-4771-b4c5-3da78f9cb034"},"vehicle_type_id":"4","last_reported":1741947029,"current_range_meters":17200,"station_id":"ce4bhq92rcd13ifvqhjg","pricing_plan_id":"cebpf4jnsgd1na2vs0mg"},{"bike_id":"291a50ce-dbab-4ccb-b2a0-f7335c7e8d81","system_id":"levelo_inurba_marseille","lat":43.31707,"lon":5.40458,"is_reserved":false,"is_disabled":false,"rental_uris":{"android":"levelo://app?vid=291a50ce-dbab-4ccb-b2a0-f7335c7e8d81","ios":"levelo://app?vid=291a50ce-dbab-4ccb-b2a0-f7335c7e8d81"},"vehicle_type_id":"4","last_reported":1741947029,"current_range_meters":17600,"station_id":"ce4bh012rcd13ifvqd00","pricing_plan_id":"cebpf4jnsgd1na2vs0mg"},{"bike_id":"099e6121-7fd8-4d4c-b8a7-4eca40b05a4b","system_id":"levelo_inurba_marseille","lat":43.27072,"lon":5.42279,"is_reserved":false,"is_disabled":false,"rental_uris":{"android":"levelo://app?vid=099e6121-7fd8-4d4c-b8a7-4eca40b05a4b","ios":"levelo://app?vid=099e6121-7fd8-4d4c-b8a7-4eca40b05a4b"},"vehicle_type_id":"4","last_reported":1741947029,"current_range_meters":17600,"station_id":"ce4bhk92rcd13ifvqgb0","pricing_plan_id":"cebpf4jnsgd1na2vs0mg"},{"bike_id":"65becc5d-cccd-4cfe-9369-56a0b2583b44","system_id":"levelo_inurba_marseille","lat":43.29943,"lon":5.40846,"is_reserved":false,"is_disabled":false,"rental_uris":{"android":"levelo://app?vid=65becc5d-cccd-4cfe-9369-56a0b2583b44","ios":"levelo://app?vid=65becc5d-cccd-4cfe-9369-56a0b2583b44"},"vehicle_type_id":"4","last_reported":1741947029,"current_range_meters":17600,"station_id":"","pricing_plan_id":"cebpf4jnsgd1na2vs0mg"},{"bike_id":"6690f5c9-7184-4aaf-9497-145e7352edff","system_id":"levelo_inurba_marseille","lat":43.26563,"lon":5.39012,"is_reserved":false,"is_disabled":false,"rental_uris":{"android":"levelo://app?vid=6690f5c9-7184-4aaf-9497-145e7352edff","ios":"levelo://app?vid=6690f5c9-7184-4aaf-9497-145e7352edff"},"vehicle_type_id":"4","last_reported":1741947029,"current_range_meters":18000,"station_id":"ce4bhe12rcd13ifvqf30","pricing_plan_id":"cebpf4jnsgd1na2vs0mg"},{"bike_id":"c06fab40-7e28-4b99-b155-9d73931b896a","system_id":"levelo_inurba_marseille","lat":43.23203,"lon":5.35556,"is_reserved":false,"is_disabled":false,"rental_uris":{"android":"levelo://app?vid=c06fab40-7e28-4b99-b155-9d73931b896a","ios":"levelo://app?vid=c06fab40-7e28-4b99-b155-9d73931b896a"},"vehicle_type_id":"4","last_reported":1741947029,"current_range_meters":18000,"station_id":"ce4bhu92rcd13ifvqi70","pricing_plan_id":"cebpf4jnsgd1na2vs0mg"},{"bike_id":"c2ba93f4-cbb3-4db9-a4bc-c685dc64ea90","system_id":"levelo_inurba_marseille","lat":43.2558,"lon":5.38247,"is_reserved":false,"is_disabled":false,"rental_uris":{"android":"levelo://app?vid=c2ba93f4-cbb3-4db9-a4bc-c685dc64ea90","ios":"levelo://app?vid=c2ba93f4-cbb3-4db9-a4bc-c685dc64ea90"},"vehicle_type_id":"4","last_reported":1741947029,"current_range_meters":18000,"station_id":"ce4bhih2rcd13ifvqfs0","pricing_plan_id":"cebpf4jnsgd1na2vs0mg"},{"bike_id":"11ddd1d3-a05b-4cdc-afeb-43708c4bb4d8","system_id":"levelo_inurba_marseille","lat":43.27963,"lon":5.38719,"is_reserved":false,"is_disabled":false,"rental_uris":{"android":"levelo://app?vid=11ddd1d3-a05b-4cdc-afeb-43708c4bb4d8","ios":"levelo://app?vid=11ddd1d3-a05b-4cdc-afeb-43708c4bb4d8"},"vehicle_type_id":"4","last_reported":1741947029,"current_range_meters":18000,"station_id":"ce4bhg12rcd13ifvqf80","pricing_plan_id":"cebpf4jnsgd1na2vs0mg"},{"bike_id":"9263b6cb-c2a9-4ade-a7b8-aa3e2867317d","system_id":"levelo_inurba_marseille","lat":43.27332,"lon":5.3911,"is_reserved":false,"is_disabled":false,"rental_uris":{"android":"levelo://app?vid=9263b6cb-c2a9-4ade-a7b8-aa3e2867317d","ios":"levelo://app?vid=9263b6cb-c2a9-4ade-a7b8-aa3e2867317d"},