{"last_updated":1747037743,"ttl":60,"version":"2.2","data":{"bikes":[{"bike_id":"8fea86e5-dd30-444e-8573-05b798cd351c","system_id":"levelo_inurba_marseille","lat":43.31235,"lon":5.36887,"is_reserved":false,"is_disabled":false,"rental_uris":{"android":"levelo://app?vid=8fea86e5-dd30-444e-8573-05b798cd351c","ios":"levelo://app?vid=8fea86e5-dd30-444e-8573-05b798cd351c"},"vehicle_type_id":"4","last_reported":1747037743,"current_range_meters":2800,"station_id":"ce4bgl92rcd13ifvqbq0","pricing_plan_id":"cebpf4jnsgd1na2vs0mg"},{"bike_id":"86b9391b-7322-4d9e-be45-a5856b034a40","system_id":"levelo_inurba_marseille","lat":43.30538,"lon":5.36693,"is_reserved":false,"is_disabled":false,"rental_uris":{"android":"levelo://app?vid=86b9391b-7322-4d9e-be45-a5856b034a40","ios":"levelo://app?vid=86b9391b-7322-4d9e-be45-a5856b034a40"},"vehicle_type_id":"4","last_reported":1747037743,"current_range_meters":2800,"station_id":"ce4bgrp2rcd13ifvqc9g","pricing_plan_id":"cebpf4jnsgd1na2vs0mg"},{"bike_id":"07a116b9-83be-4e3b-a37c-8fd78bb8da13","system_id":"levelo_inurba_marseille","lat":43.25918,"lon":5.40917,"is_reserved":false,"is_disabled":false,"rental_uris":{"android":"levelo://app?vid=07a116b9-83be-4e3b-a37c-8fd78bb8da13","ios":"levelo://app?vid=07a116b9-83be-4e3b-a37c-8fd78bb8da13"},"vehicle_type_id":"4","last_reported":1747037743,"current_range_meters":3200,"station_id":"ce4bhm92rcd13ifvqglg","pricing_plan_id":"cebpf4jnsgd1na2vs0mg"},{"bike_id":"c7b2effd-ed37-4223-a0c6-29d0e842dbd5","system_id":"levelo_inurba_marseille","lat":43.30065,"lon":5.37793,"is_reserved":false,"is_disabled":false,"rental_uris":{"android":"levelo://app?vid=c7b2effd-ed37-4223-a0c6-29d0e842dbd5","ios":"levelo://app?vid=c7b2effd-ed37-4223-a0c6-29d0e842dbd5"},"vehicle_type_id":"4","last_reported":1747037743,"current_range_meters":3200,"station_id":"","pricing_plan_id":"cebpf4jnsgd1na2vs0mg"},{"bike_id":"13681c71-98b3-4639-86ba-d34f7bd15c83","system_id":"levelo_inurba_marseille","lat":43.25586,"lon":5.38229,"is_reserved":false,"is_disabled":false,"rental_uris":{"android":"levelo://app?vid=13681c71-98b3-4639-86ba-d34f7bd15c83","ios":"levelo://app?vid=13681c71-98b3-4639-86ba-d34f7bd15c83"},"vehicle_type_id":"4","last_reported":1747037743,"current_range_meters":3600,"station_id":"ce4bhih2rcd13ifvqfs0","pricing_plan_id":"cebpf4jnsgd1na2vs0mg"},{"bike_id":"f2649930-e37f-42e1-a9b1-b28416e0f016","system_id":"levelo_inurba_marseille","lat":43.29976,"lon":5.38488,"is_reserved":false,"is_disabled":false,"rental_uris":{"android":"levelo://app?vid=f2649930-e37f-42e1-a9b1-b28416e0f016","ios":"levelo://app?vid=f2649930-e37f-42e1-a9b1-b28416e0f016"},"vehicle_type_id":"4","last_reported":1747037743,"current_range_meters":3600,"station_id":"ce4bgj92rcd13ifvqbd0","pricing_plan_id":"cebpf4jnsgd1na2vs0mg"},{"bike_id":"7561ca81-18ff-4062-bd0d-4e3e5b796d0e","system_id":"levelo_inurba_marseille","lat":43.29547,"lon":5.42303,"is_reserved":false,"is_disabled":false,"rental_uris":{"android":"levelo://app?vid=7561ca81-18ff-4062-bd0d-4e3e5b796d0e","ios":"levelo://app?vid=7561ca81-18ff-4062-bd0d-4e3e5b796d0e"},"vehicle_type_id":"4","last_reported":1747037743,"current_range_meters":3600,"station_id":"ce4bhph2rcd13ifvqhdg","pricing_plan_id":"cebpf4jnsgd1na2vs0mg"},{"bike_id":"389b8656-500f-4f4d-a007-77945c5158fd","system_id":"levelo_inurba_marseille","lat":43.29192,"lon":5.35799,"is_reserved":false,"is_disabled":false,"rental_uris":{"android":"levelo://app?vid=389b8656-500f-4f4d-a007-77945c5158fd","ios":"levelo://app?vid=389b8656-500f-4f4d-a007-77945c5158fd"},"vehicle_type_id":"4","last_reported":1747037743,"current_range_meters":3600,"station_id":"ce4bhb12rcd13ifvqel0","pricing_plan_id":"cebpf4jnsgd1na2vs0mg"},{"bike_id":"6cf9cbd3-256e-4f75-9fa6-012a0bbb6d32","system_id":"levelo_inurba_marseille","lat":43.25864,"lon":5.39893,"is_reserved":false,"is_disabled":false,"rental_uris":{"android":"levelo://app?vid=6cf9cbd3-256e-4f75-9fa6-012a0bbb6d32","ios":"levelo://app?vid=6cf9cbd3-256e-4f75-9fa6-012a0bbb6d32"},"vehicle_type_id":"4","last_reported":1747037743,"current_range_meters":4000,"station_id":"ce4bhl92rcd13ifvqghg","pricing_plan_id":"cebpf4jnsgd1na2vs0mg"},{"bike_id":"f1f47090-376e-489a-b9ad-7bf5f4813c6a","system_id":"levelo_inurba_marseille","lat":43.297386,"lon":5.376448,"is_reserved":false,"is_disabled":true,"rental_uris":{"android":"levelo://app?vid=f1f47090-376e-489a-b9ad-7bf5f4813c6a","ios":"levelo://app?vid=f1f47090-376e-489a-b9ad-7bf5f4813c6a"},"vehicle_type_id":"4","last_reported":1747037743,"current_range_meters":4000,"station_id":"ce4bgkh2rcd13ifvqbl0","pricing_plan_id":"cebpf4jnsgd1na2vs0mg"},{"bike_id":"af37c181-9026-49df-a0ea-13007a6129cf","system_id":"levelo_inurba_marseille","lat":43.24182,"lon":5.39709,"is_reserved":false,"is_disabled":false,"rental_uris":{"android":"levelo://app?vid=af37c181-9026-49df-a0ea-13007a6129cf","ios":"levelo://app?vid=af37c181-9026-49df-a0ea-13007a6129cf"},"vehicle_type_id":"4","last_reported":1747037743,"current_range_meters":4400,"station_id":"ce4bhn12rcd13ifvqgpg","pricing_plan_id":"cebpf4jnsgd1na2vs0mg"},{"bike_id":"97b6f499-a1db-4c1c-94f6-a1dda611c5ce","system_id":"levelo_inurba_marseille","lat":43.32543,"lon":5.41433,"is_reserved":false,"is_disabled":false,"rental_uris":{"android":"levelo://app?vid=97b6f499-a1db-4c1c-94f6-a1dda611c5ce","ios":"levelo://app?vid=97b6f499-a1db-4c1c-94f6-a1dda611c5ce"},"vehicle_type_id":"4","last_reported":1747037743,"current_range_meters":6000,"station_id":"ce4bhq12rcd13ifvqhhg","pricing_plan_id":"cebpf4jnsgd1na2vs0mg"},{"bike_id":"48b73517-8a40-4b3f-aad3-968dd3319f04","system_id":"levelo_inurba_marseille","lat":43.31711,"lon":5.43702,"is_reserved":false,"is_disabled":false,"rental_uris":{"android":"levelo://app?vid=48b73517-8a40-4b3f-aad3-968dd3319f04","ios":"levelo://app?vid=48b73517-8a40-4b3f-aad3-968dd3319f04"},"vehicle_type_id":"4","last_reported":1747037743,"current_range_meters":6000,"station_id":"ce4bhp92rcd13ifvqhcg","pricing_plan_id":"cebpf4jnsgd1na2vs0mg"},{"bike_id":"fc2577e7-1497-425b-9d4f-ab8d7dc843c6","system_id":"levelo_inurba_marseille","lat":43.33771,"lon":5.37485,"is_reserved":false,"is_disabled":false,"rental_uris":{"android":"levelo://app?vid=fc2577e7-1497-425b-9d4f-ab8d7dc843c6","ios":"levelo://app?vid=fc2577e7-1497-425b-9d4f-ab8d7dc843c6"},"vehicle_type_id":"4","last_reported":1747037743,"current_range_meters":6400,"station_id":"","pricing_plan_id":"cebpf4jnsgd1na2vs0mg"},{"bike_id":"27850711-bc76-4958-b3fd-522349790643","system_id":"levelo_inurba_marseille","lat":43.25578,"lon":5.38223,"is_reserved":false,"is_disabled":false,"rental_uris":{"android":"levelo://app?vid=27850711-bc76-4958-b3fd-522349790643","ios":"levelo://app?vid=27850711-bc76-4958-b3fd-522349790643"},"vehicle_type_id":"4","last_reported":1747037743,"current_range_meters":6400,"station_id":"ce4bhih2rcd13ifvqfs0","pricing_plan_id":"cebpf4jnsgd1na2vs0mg"},{"bike_id":"63bdd50a-b728-4d10-9320-dbc9bfa5973f","system_id":"levelo_inurba_marseille","lat":43.27067,"lon":5.42291,"is_reserved":false,"is_disabled":false,"rental_uris":{"android":"levelo://app?vid=63bdd50a-b728-4d10-9320-dbc9bfa5973f","ios":"levelo://app?vid=63bdd50a-b728-4d10-9320-dbc9bfa5973f"},"vehicle_type_id":"4","last_reported":1747037743,"current_range_meters":6800,"station_id":"ce4bhk92rcd13ifvqgb0","pricing_plan_id":"cebpf4jnsgd1na2vs0mg"},{"bike_id":"1f6aa13c-0f60-4adc-9681-20e38b83d077","system_id":"levelo_inurba_marseille","lat":43.23149,"lon":5.43735,"is_reserved":false,"is_disabled":false,"rental_uris":{"android":"levelo://app?vid=1f6aa13c-0f60-4adc-9681-20e38b83d077","ios":"levelo://app?vid=1f6aa13c-0f60-4adc-9681-20e38b83d077"},"vehicle_type_id":"4","last_reported":1747037743,"current_range_meters":6800,"station_id":"ce4bhmp2rcd13ifvqgog","pricing_plan_id":"cebpf4jnsgd1na2vs0mg"},{"bike_id":"cda33d96-b0f5-4976-a031-efabf74d78c8","system_id":"levelo_inurba_marseille","lat":43.305143,"lon":5.366093,"is_reserved":false,"is_disabled":true,"rental_uris":{"android":"levelo://app?vid=cda33d96-b0f5-4976-a031-efabf74d78c8","ios":"levelo://app?vid=cda33d96-b0f5-4976-a031-efabf74d78c8"},"vehicle_type_id":"4","last_reported":1747037743,"current_range_meters":7200,"station_id":"","pricing_plan_id":"cebpf4jnsgd1na2vs0mg"},{"bike_id":"cfc17815-86ee-444c-a14e-53c91e445963","system_id":"levelo_inurba_marseille","lat":43.26226,"lon":5.40459,"is_reserved":false,"is_disabled":false,"rental_uris":{"android":"levelo://app?vid=cfc17815-86ee-444c-a14e-53c91e445963","ios":"levelo://app?vid=cfc17815-86ee-444c-a14e-53c91e445963"},"vehicle_type_id":"4","last_reported":1747037743,"current_range_meters":7200,"station_id":"ce4bhmh2rcd13ifvqgmg","pricing_plan_id":"cebpf4jnsgd1na2vs0mg"},{"bike_id":"910f58e1-bc11-4d4a-be16-a826726f8216","system_id":"levelo_inurba_marseille","lat":43.290378,"lon":5.359099,"is_reserved":false,"is_disabled":true,"rental_uris":{"android":"levelo://app?vid=910f58e1-bc11-4d4a-be16-a826726f8216","ios":"levelo://app?vid=910f58e1-bc11-4d4a-be16-a826726f8216"},"vehicle_type_id":"4","last_reported":1747037743,"current_range_meters":7200,"station_id":"ce4bha92rcd13ifvqeg0","pricing_plan_id":"cebpf4jnsgd1na2vs0mg"},{"bike_id":"30b8e52c-96e6-4e42-9ec8-74730ccbe6d8","system_id":"levelo_inurba_marseille","lat":43.29862,"lon":5.36287,"is_reserved":false,"is_disabled":false,"rental_uris":{"android":"levelo://app?vid=30b8e52c-96e6-4e42-9ec8-74730ccbe6d8","ios":"levelo://app?vid=30b8e52c-96e6-4e42-9ec8-74730ccbe6d8"},"vehicle_type_id":"4","last_reported":1747037743,"current_range_meters":7200,"station_id":"ce4bgpp2rcd13ifvqc3g","pricing_plan_id":"cebpf4jnsgd1na2vs0mg"},{"bike_id":"888faf64-a4c0-4a63-abb9-f84eecc376b8","system_id":"levelo_inurba_marseille","lat":43.29852,"lon":5.36287,"is_reserved":false,"is_disabled":false,"rental_uris":{"android":"levelo://app?vid=888faf64-a4c0-4a63-abb9-f84eecc376b8","ios":"levelo://app?vid=888faf64-a4c0-4a63-abb9-f84eecc376b8"},"vehicle_type_id":"4","last_reported":1747037743,"current_range_meters":8000,"station_id":"ce4bgpp2rcd13ifvqc3g","pricing_plan_id":"cebpf4jnsgd1na2vs0mg"},{"bike_id":"38fd2285-da0e-4f6a-be1d-f6c2112df572","system_id":"levelo_inurba_marseille","lat":43.286503,"lon":5.363461,"is_reserved":false,"is_disabled":true,"rental_uris":{"android":"levelo://app?vid=38fd2285-da0e-4f6a-be1d-f6c2112df572","ios":"levelo://app?vid=38fd2285-da0e-4f6a-be1d-f6c2112df572"},"vehicle_type_id":"4","last_reported":1747037743,"current_range_meters":8000,"station_id":"ce4bhah2rcd13ifvqej0","pricing_plan_id":"cebpf4jnsgd1na2vs0mg"},{"bike_id":"a709c096-19a6-423a-ad85-f5169b2557a1","system_id":"levelo_inurba_marseille","lat":43.270657,"lon":5.422773,"is_reserved":false,"is_disabled":true,"rental_uris":{"android":"levelo://app?vid=a709c096-19a6-423a-ad85-f5169b2557a1","ios":"levelo://app?vid=a709c096-19a6-423a-ad85-f5169b2557a1"},"vehicle_type_id":"4","last_reported":1747037743,"current_range_meters":8000,"station_id":"ce4bhk92rcd13ifvqgb0","pricing_plan_id":"cebpf4jnsgd1na2vs0mg"},{"bike_id":"4b460be1-c693-4bb9-911d-ee0bb3e597f1","system_id":"levelo_inurba_marseille","lat":43.324923,"lon":5.365755,"is_reserved":false,"is_disabled":false,"rental_uris":{"android":"levelo://app?vid=4b460be1-c693-4bb9-911d-ee0bb3e597f1","ios":"levelo://app?vid=4b460be1-c693-4bb9-911d-ee0bb3e597f1"},"vehicle_type_id":"4","last_reported":1747037743,"current_range_meters":8400,"station_id":"ce4bhs12rcd13ifvqhvg","pricing_plan_id":"cebpf4jnsgd1na2vs0mg"},{"bike_id":"a1121b36-b5cd-4dda-96ef-13a3dfaa55e1","system_id":"levelo_inurba_marseille","lat":43.301401,"lon":5.387791,"is_reserved":false,"is_disabled":true,"rental_uris":{"android":"levelo://app?vid=a1121b36-b5cd-4dda-96ef-13a3dfaa55e1","ios":"levelo://app?vid=a1121b36-b5cd-4dda-96ef-13a3dfaa55e1"},"vehicle_type_id":"4","last_reported":1747037743,"current_range_meters":8400,"station_id":"","pricing_plan_id":"cebpf4jnsgd1na2vs0mg"},{"bike_id":"0ae16d20-a1e7-41ef-876d-f95f6b5b97f0","system_id":"levelo_inurba_marseille","lat":43.274942,"lon":5.4245,"is_reserved":false,"is_disabled":false,"rental_uris":{"android":"levelo://app?vid=0ae16d20-a1e7-41ef-876d-f95f6b5b97f0","ios":"levelo://app?vid=0ae16d20-a1e7-41ef-876d-f95f6b5b97f0"},"vehicle_type_id":"4","last_reported":1747037743,"current_range_meters":8400,"station_id":"ce4bhn92rcd13ifvqgrg","pricing_plan_id":"cebpf4jnsgd1na2vs0mg"},{"bike_id":"1926bee1-a15b-49b3-8b0b-41a7c297fe4d","system_id":"levelo_inurba_marseille","lat":43.32466,"lon":5.36574,"is_reserved":false,"is_disabled":false,"rental_uris":{"android":"levelo://app?vid=1926bee1-a15b-49b3-8b0b-41a7c297fe4d","ios":"levelo://app?vid=1926bee1-a15b-49b3-8b0b-41a7c297fe4d"},"vehicle_type_id":"4","last_reported":1747037743,"current_range_meters":8400,"station_id":"ce4bhs12rcd13ifvqhvg","pricing_plan_id":"cebpf4jnsgd1na2vs0mg"},{"bike_id":"dee39bcc-fa3f-47be-9062-d83c2b9ae8c1","system_id":"levelo_inurba_marseille","lat":43.30926,"lon":5.40142,"is_reserved":false,"is_disabled":false,"rental_uris":{"android":"levelo://app?vid=dee39bcc-fa3f-47be-9062-d83c2b9ae8c1","ios":"levelo://app?vid=dee39bcc-fa3f-47be-9062-d83c2b9ae8c1"},"vehicle_type_id":"4","last_reported":1747037743,"current_range_meters":8400,"station_id":"ce4bgvp2rcd13ifvqct0","pricing_plan_id":"cebpf4jnsgd1na2vs0mg"},{"bike_id":"6663a384-abed-48bd-861f-d563c5fcecd4","system_id":"levelo_inurba_marseille","lat":43.284227,"lon":5.349868,"is_reserved":false,"is_disabled":true,"rental_uris":{"android":"levelo://app?vid=6663a384-abed-48bd-861f-d563c5fcecd4","ios":"levelo://app?vid=6663a384-abed-48bd-861f-d563c5fcecd4"},"vehicle_type_id":"4","last_reported":1747037743,"current_range_meters":8800,"station_id":"ce4bhbh2rcd13ifvqepg","pricing_plan_id":"cebpf4jnsgd1na2vs0mg"},{"bike_id":"691bc2b6-494e-4051-b395-5e3a6741f971","system_id":"levelo_inurba_marseille","lat":43.30598,"lon":5.37237,"is_reserved":false,"is_disabled":false,"rental_uris":{"android":"levelo://app?vid=691bc2b6-494e-4051-b395-5e3a6741f971","ios":"levelo://app?vid=691bc2b6-494e-4051-b395-5e3a6741f971"},"vehicle_type_id":"4","last_reported":1747037743,"current_range_meters":8800,"station_id":"ce4bgqh2rcd13ifvqc4g","pricing_plan_id":"cebpf4jnsgd1na2vs0mg"},{"bike_id":"f4c4ab68-77c1-423e-86dd-9b083609e751","system_id":"levelo_inurba_marseille","lat":43.31226,"lon":5.36867,"is_reserved":false,"is_disabled":false,"rental_uris":{"android":"levelo://app?vid=f4c4ab68-77c1-423e-86dd-9b083609e751","ios":"levelo://app?vid=f4c4ab68-77c1-423e-86dd-9b083609e751"},"vehicle_type_id":"4","last_reported":1747037743,"current_range_meters":8400,"station_id":"ce4bgl92rcd13ifvqbq0","pricing_plan_id":"cebpf4jnsgd1na2vs0mg"},{"bike_id":"58405814-b8e0-4a99-a073-e2a00b898003","system_id":"levelo_inurba_marseille","lat":43.28265,"lon":5.35057,"is_reserved":false,"is_disabled":false,"rental_uris":{"android":"levelo://app?vid=58405814-b8e0-4a99-a073-e2a00b898003","ios":"levelo://app?vid=58405814-b8e0-4a99-a073-e2a00b898003"},"vehicle_type_id":"4","last_reported":1747037743,"current_range_meters":8800,"station_id":"ce4bhbp2rcd13ifvqerg","pricing_plan_id":"cebpf4jnsgd1na2vs0mg"},{"bike_id":"dff44ee9-d357-49fb-b8ef-b2ba825e92dc","system_id":"levelo_inurba_marseille","lat":43.33605,"lon":5.41018,"is_reserved":false,"is_disabled":false,"rental_uris":{"android":"levelo://app?vid=dff44ee9-d357-49fb-b8ef-b2ba825e92dc","ios":"levelo://app?vid=dff44ee9-d357-49fb-b8ef-b2ba825e92dc"},"vehicle_type_id":"4","last_reported":1747037743,"current_range_meters":8800,"station_id":"ce4bhqh2rcd13ifvqhmg","pricing_plan_id":"cebpf4jnsgd1na2vs0mg"},{"bike_id":"f23b0873-1259-4dc6-8b8d-2c3b7a160451","system_id":"levelo_inurba_marseille","lat":43.27311,"lon":5.39102,"is_reserved":false,"is_disabled":false,"rental_uris":{"android":"levelo://app?vid=f23b0873-1259-4dc6-8b8d-2c3b7a160451","ios":"levelo://app?vid=f23b0873-1259-4dc6-8b8d-2c3b7a160451"},"vehicle_type_id":"4","last_reported":1747037743,"current_range_meters":9200,"station_id":"ce4bhgp2rcd13ifvqfe0","pricing_plan_id":"cebpf4jnsgd1na2vs0mg"},{"bike_id":"109f8700-659f-46bc-ab85-f43636e3211b","system_id":"levelo_inurba_marseille","lat":43.30277,"lon":5.37718,"is_reserved":false,"is_disabled":false,"rental_uris":{"android":"levelo://app?vid=109f8700-659f-46bc-ab85-f43636e3211b","ios":"levelo://app?vid=109f8700-659f-46bc-ab85-f43636e3211b"},"vehicle_type_id":"4","last_reported":1747037743,"current_range_meters":9200,"station_id":"ce4bguh2rcd13ifvqcj0","pricing_plan_id":"cebpf4jnsgd1na2vs0mg"},{"bike_id":"41ff9cb4-a50b-4b45-a086-7d1b4c5b9de7","system_id":"levelo_inurba_marseille","lat":43.29962,"lon":5.41318,"is_reserved":false,"is_disabled":false,"rental_uris":{"android":"levelo://app?vid=41ff9cb4-a50b-4b45-a086-7d1b4c5b9de7","ios":"levelo://app?vid=41ff9cb4-a50b-4b45-a086-7d1b4c5b9de7"},"vehicle_type_id":"4","last_reported":1747037743,"current_range_meters":9200,"station_id":"ce4bhp12rcd13ifvqh9g","pricing_plan_id":"cebpf4jnsgd1na2vs0mg"},{"bike_id":"02b2ae6d-ada5-462e-b49a-c4c9de709f2c","system_id":"levelo_inurba_marseille","lat":43.31343,"lon":5.36721,"is_reserved":false,"is_disabled":false,"rental_uris":{"android":"levelo://app?vid=02b2ae6d-ada5-462e-b49a-c4c9de709f2c","ios":"levelo://app?vid=02b2ae6d-ada5-462e-b49a-c4c9de709f2c"},"vehicle_type_id":"4","last_reported":1747037743,"current_range_meters":9200,"station_id":"ce4bgr92rcd13ifvqc6g","pricing_plan_id":"cebpf4jnsgd1na2vs0mg"},{"bike_id":"c33c979d-9903-40dc-a17f-25ccdad88704","system_id":"levelo_inurba_marseille","lat":43.29518,"lon":5.39386,"is_reserved":false,"is_disabled":true,"rental_uris":{"android":"levelo://app?vid=c33c979d-9903-40dc-a17f-25ccdad88704","ios":"levelo://app?vid=c33c979d-9903-40dc-a17f-25ccdad88704"},"vehicle_type_id":"4","last_reported":1747037743,"current_range_meters":9200,"station_id":"ce4bh292rcd13ifvqdf0","pricing_plan_id":"cebpf4jnsgd1na2vs0mg"},{"bike_id":"082c1f9f-4719-4cfe-b34a-37cfa3666b2e","system_id":"levelo_inurba_marseille","lat":43.28732,"lon":5.39996,"is_reserved":false,"is_disabled":true,"rental_uris":{"android":"levelo://app?vid=082c1f9f-4719-4cfe-b34a-37cfa3666b2e","ios":"levelo://app?vid=082c1f9f-4719-4cfe-b34a-37cfa3666b2e"},"vehicle_type_id":"4","last_reported":1747037743,"current_range_meters":9200,"station_id":"ce4bho92rcd13ifvqh3g","pricing_plan_id":"cebpf4jnsgd1na2vs0mg"},{"bike_id":"51eb8992-525a-4dcd-a5ad-837578809050","system_id":"levelo_inurba_marseille","lat":43.32542,"lon":5.4144,"is_reserved":false,"is_disabled":false,"rental_uris":{"android":"levelo://app?vid=51eb8992-525a-4dcd-a5ad-837578809050","ios":"levelo://app?vid=51eb8992-525a-4dcd-a5ad-837578809050"},"vehicle_type_id":"4","last_reported":1747037743,"current_range_meters":9200,"station_id":"ce4bhq12rcd13ifvqhhg","pricing_plan_id":"cebpf4jnsgd1na2vs0mg"},{"bike_id":"72784e82-8e88-459d-a1e5-7cb712618883","system_id":"levelo_inurba_marseille","lat":43.295783,"lon":5.367417,"is_reserved":false,"is_disabled":false,"rental_uris":{"android":"levelo://app?vid=72784e82-8e88-459d-a1e5-7cb712618883","ios":"levelo://app?vid=72784e82-8e88-459d-a1e5-7cb712618883"},"vehicle_type_id":"4","last_reported":1747037743,"current_range_meters":9200,"station_id":"ce4bgph2rcd13ifvqc2g","pricing_plan_id":"cebpf4jnsgd1na2vs0mg"},{"bike_id":"83a5dddc-f08f-476e-a316-d0e0dfb65037","system_id":"levelo_inurba_marseille","lat":43.31725,"lon":5.42398,"is_reserved":false,"is_disabled":false,"rental_uris":{"android":"levelo://app?vid=83a5dddc-f08f-476e-a316-d0e0dfb65037","ios":"levelo://app?vid=83a5dddc-f08f-476e-a316-d0e0dfb65037"},"vehicle_type_id":"4","last_reported":1747037743,"current_range_meters":9600,"station_id":"ce4bhp92rcd13ifvqhbg","pricing_plan_id":"cebpf4jnsgd1na2vs0mg"},{"bike_id":"4b8071f5-69a5-472c-8c01-3da02b499dbe","system_id":"levelo_inurba_marseille","lat":43.292762,"lon":5.368466,"is_reserved":false,"is_disabled":true,"rental_uris":{"android":"levelo://app?vid=4b8071f5-69a5-472c-8c01-3da02b499dbe","ios":"levelo://app?vid=4b8071f5-69a5-472c-8c01-3da02b499dbe"},"vehicle_type_id":"4","last_reported":1747037743,"current_range_meters":9600,"station_id":"ce4bhbp2rcd13ifvqesg","pricing_plan_id":"cebpf4jnsgd1na2vs0mg"},{"bike_id":"4071bc6b-0376-4f46-b2a9-db87b2084a00","system_id":"levelo_inurba_marseille","lat":43.28273,"lon":5.3506,"is_reserved":false,"is_disabled":true,"rental_uris":{"android":"levelo://app?vid=4071bc6b-0376-4f46-b2a9-db87b2084a00","ios":"levelo://app?vid=4071bc6b-0376-4f46-b2a9-db87b2084a00"},"vehicle_type_id":"4","last_reported":1747037743,"current_range_meters":9600,"station_id":"ce4bhbp2rcd13ifvqerg","pricing_plan_id":"cebpf4jnsgd1na2vs0mg"},{"bike_id":"c80f8f6d-0a84-40ba-a770-93ad44f051f3","system_id":"levelo_inurba_marseille","lat":43.295382,"lon":5.38544,"is_reserved":false,"is_disabled":true,"rental_uris":{"android":"levelo://app?vid=c80f8f6d-0a84-40ba-a770-93ad44f051f3","ios":"levelo://app?vid=c80f8f6d-0a84-40ba-a770-93ad44f051f3"},"vehicle_type_id":"4","last_reported":1747037743,"current_range_meters":9600,"station_id":"ce4bgih2rcd13ifvqba0","pricing_plan_id":"cebpf4jnsgd1na2vs0mg"},{"bike_id":"899d4b95-e93c-4f2f-a9be-c4716b3ed999","system_id":"levelo_inurba_marseille","lat":43.317217,"lon":5.377368,"is_reserved":false,"is_disabled":false,"rental_uris":{"android":"levelo://app?vid=899d4b95-e93c-4f2f-a9be-c4716b3ed999","ios":"levelo://app?vid=899d4b95-e93c-4f2f-a9be-c4716b3ed999"},"vehicle_type_id":"4","last_reported":1747037743,"current_range_meters":9600,"station_id":"ce4bgth2rcd13ifvqch0","pricing_plan_id":"cebpf4jnsgd1na2vs0mg"},{"bike_id":"de608a0b-278b-468e-957e-8246fb76906b","system_id":"levelo_inurba_marseille","lat":43.27975,"lon":5.38725,"is_reserved":false,"is_disabled":true,"rental_uris":{"android":"levelo://app?vid=de608a0b-278b-468e-957e-8246fb76906b","ios":"levelo://app?vid=de608a0b-278b-468e-957e-8246fb76906b"},"vehicle_type_id":"4","last_reported":1747037743,"current_range_meters":9600,"station_id":"ce4bhg12rcd13ifvqf80","pricing_plan_id":"cebpf4jnsgd1na2vs0mg"},{"bike_id":"ace8c9c0-2df3-4842-8f8d-1495427e75a8","system_id":"levelo_inurba_marseille","lat":43.27946,"lon":5.41019,"is_reserved":false,"is_disabled":true,"rental_uris":{"android":"levelo://app?vid=ace8c9c0-2df3-4842-8f8d-1495427e75a8","ios":"levelo://app?vid=ace8c9c0-2df3-4842-8f8d-1495427e75a8"},"vehicle_type_id":"4","last_reported":1747037743,"current_range_meters":10000,"station_id":"ce4bhnp2rcd13ifvqh0g","pricing_plan_id":"cebpf4jnsgd1na2vs0mg"},{"bike_id":"24fa0ea3-1d8d-480d-934b-66d97222646a","system_id":"levelo_inurba_marseille","lat":43.30954,"lon":5.39044,"is_reserved":false,"is_disabled":false,"rental_uris":{"android":"levelo://app?vid=24fa0ea3-1d8d-480d-934b-66d97222646a","ios":"levelo://app?vid=24fa0ea3-1d8d-480d-934b-66d97222646a"},"vehicle_type_id":"4","last_reported":1747037743,"current_range_meters":10000,"station_id":"ce4bgup2rcd13ifvqco0","pricing_plan_id":"cebpf4jnsgd1na2vs0mg"},{"bike_id":"6d705489-d3d5-4e12-a28e-5d7bb8b109f3","system_id":"levelo_inurba_marseille","lat":43.29557,"lon":5.42297,"is_reserved":false,"is_disabled":false,"rental_uris":{"android":"levelo://app?vid=6d705489-d3d5-4e12-a28e-5d7bb8b109f3","ios":"levelo://app?vid=6d705489-d3d5-4e12-a28e-5d7bb8b109f3"},"vehicle_type_id":"4","last_reported":1747037743,"current_range_meters":10000,"station_id":"ce4bhph2rcd13ifvqhdg","pricing_plan_id":"cebpf4jnsgd1na2vs0mg"},{"bike_id":"19708695-a8ee-4716-9e14-a794ed2f1a40","system_id":"levelo_inurba_marseille","lat":43.26565,"lon":5.39003,"is_reserved":false,"is_disabled":false,"rental_uris":{"android":"levelo://app?vid=19708695-a8ee-4716-9e14-a794ed2f1a40","ios":"levelo://app?vid=19708695-a8ee-4716-9e14-a794ed2f1a40"},"vehicle_type_id":"4","last_reported":1747037743,"current_range_meters":10000,"station_id":"ce4bhe12rcd13ifvqf30","pricing_plan_id":"cebpf4jnsgd1na2vs0mg"},{"bike_id":"75f7e021-a9c5-4232-90b8-1417f51b2982","system_id":"levelo_inurba_marseille","lat":43.22483,"lon":5.34772,"is_reserved":false,"is_disabled":true,"rental_uris":{"android":"levelo://app?vid=75f7e021-a9c5-4232-90b8-1417f51b2982","ios":"levelo://app?vid=75f7e021-a9c5-4232-90b8-1417f51b2982"},"vehicle_type_id":"4","last_reported":1747037743,"current_range_meters":10000,"station_id":"st_cvj5dfep6f1abm77gieg","pricing_plan_id":"cebpf4jnsgd1na2vs0mg"},{"bike_id":"673879ad-2062-460c-8d8c-5633441c076d","system_id":"levelo_inurba_marseille","lat":43.29791,"lon":5.37101,"is_reserved":false,"is_disabled":false,"rental_uris":{"android":"levelo://app?vid=673879ad-2062-460c-8d8c-5633441c076d","ios":"levelo://app?vid=673879ad-2062-460c-8d8c-5633441c076d"},"vehicle_type_id":"4","last_reported":1747037743,"current_range_meters":10000,"station_id":"ce4bgop2rcd13ifvqc1g","pricing_plan_id":"cebpf4jnsgd1na2vs0mg"},{"bike_id":"283fdfb9-005b-4325-8d66-9428f105ee8b","system_id":"levelo_inurba_marseille","lat":43.309397,"lon":5.374437,"is_reserved":false,"is_disabled":false,"rental_uris":{"android":"levelo://app?vid=283fdfb9-005b-4325-8d66-9428f105ee8b","ios":"levelo://app?vid=283fdfb9-005b-4325-8d66-9428f105ee8b"},"vehicle_type_id":"4","last_reported":1747037743,"current_range_meters":10000,"station_id":"","pricing_plan_id":"cebpf4jnsgd1na2vs0mg"},{"bike_id":"ea1c8b97-7335-47a7-ad06-6c2727065bf8","system_id":"levelo_inurba_marseille","lat":43.27896,"lon":5.38005,"is_reserved":false,"is_disabled":false,"rental_uris":{"android":"levelo://app?vid=ea1c8b97-7335-47a7-ad06-6c2727065bf8","ios":"levelo://app?vid=ea1c8b97-7335-47a7-ad06-6c2727065bf8"},"vehicle_type_id":"4","last_reported":1747037743,"current_range_meters":10000,"station_id":"ce4bhf92rcd13ifvqf50","pricing_plan_id":"cebpf4jnsgd1na2vs0mg"},{"bike_id":"de4a530f-3b17-41b9-bd98-d22e64d46bdc","system_id":"levelo_inurba_marseille","lat":43.321089,"lon":5.367772,"is_reserved":false,"is_disabled":false,"rental_uris":{"android":"levelo://app?vid=de4a530f-3b17-41b9-bd98-d22e64d46bdc","ios":"levelo://app?vid=de4a530f-3b17-41b9-bd98-d22e64d46bdc"},"vehicle_type_id":"4","last_reported":1747037743,"current_range_meters":10000,"station_id":"ce4bhrh2rcd13ifvqhug","pricing_plan_id":"cebpf4jnsgd1na2vs0mg"},{"bike_id":"f52c819d-ca4b-4640-b458-b877db1bf990","system_id":"levelo_inurba_marseille","lat":43.29866,"lon":5.41038,"is_reserved":false,"is_disabled":false,"rental_uris":{"android":"levelo://app?vid=f52c819d-ca4b-4640-b458-b877db1bf990","ios":"levelo://app?vid=f52c819d-ca4b-4640-b458-b877db1bf990"},"vehicle_type_id":"4","last_reported":1747037743,"current_range_meters":10800,"station_id":"","pricing_plan_id":"cebpf4jnsgd1na2vs0mg"},{"bike_id":"da28b554-8b5b-4ca6-9f3b-f087512d379f","system_id":"levelo_inurba_marseille","lat":43.31358,"lon":5.36696,"is_reserved":false,"is_disabled":false,"rental_uris":{"android":"levelo://app?vid=da28b554-8b5b-4ca6-9f3b-f087512d379f","ios":"levelo://app?vid=da28b554-8b5b-4ca6-9f3b-f087512d379f"},"vehicle_type_id":"4","last_reported":1747037743,"current_range_meters":10800,"station_id":"ce4bgr92rcd13ifvqc6g","pricing_plan_id":"cebpf4jnsgd1na2vs0mg"},{"bike_id":"04ee1194-d82c-4761-b4fd-cb6792e400f1","system_id":"levelo_inurba_marseille","lat":43.29291,"lon":5.37457,"is_reserved":false,"is_disabled":false,"rental_uris":{"android":"levelo://app?vid=04ee1194-d82c-4761-b4fd-cb6792e400f1","ios":"levelo://app?vid=04ee1194-d82c-4761-b4fd-cb6792e400f1"},"vehicle_type_id":"4","last_reported":1747037743,"current_range_meters":10800,"station_id":"ce4bgi12rcd13ifvqb70","pricing_plan_id":"cebpf4jnsgd1na2vs0mg"},{"bike_id":"f3ab77e0-ecfe-491c-ade9-9e24985e88ff","system_id":"levelo_inurba_marseille","lat":43.30205,"lon":5.36605,"is_reserved":false,"is_disabled":false,"rental_uris":{"android":"levelo://app?vid=f3ab77e0-ecfe-491c-ade9-9e24985e88ff","ios":"levelo://app?vid=f3ab77e0-ecfe-491c-ade9-9e24985e88ff"},"vehicle_type_id":"4","last_reported":1747037743,"current_range_meters":11200,"station_id":"ce4bgrh2rcd13ifvqc8g","pricing_plan_id":"cebpf4jnsgd1na2vs0mg"},{"bike_id":"b6af8f30-0e92-426a-a3d5-64e170ea9a71","system_id":"levelo_inurba_marseille","lat":43.311466,"lon":5.396118,"is_reserved":false,"is_disabled":false,"rental_uris":{"android":"levelo://app?vid=b6af8f30-0e92-426a-a3d5-64e170ea9a71","ios":"levelo://app?vid=b6af8f30-0e92-426a-a3d5-64e170ea9a71"},"vehicle_type_id":"4","last_reported":1747037743,"current_range_meters":11200,"station_id":"ce4bgvp2rcd13ifvqcu0","pricing_plan_id":"cebpf4jnsgd1na2vs0mg"},{"bike_id":"930e6518-fdfc-4f76-8cb5-81041c99d20b","system_id":"levelo_inurba_marseille","lat":43.2679,"lon":5.39415,"is_reserved":false,"is_disabled":false,"rental_uris":{"android":"levelo://app?vid=930e6518-fdfc-4f76-8cb5-81041c99d20b","ios":"levelo://app?vid=930e6518-fdfc-4f76-8cb5-81041c99d20b"},"vehicle_type_id":"4","last_reported":1747037743,"current_range_meters":11600,"station_id":"ce4bhh12rcd13ifvqfg0","pricing_plan_id":"cebpf4jnsgd1na2vs0mg"},{"bike_id":"7d1ac5d5-d4c2-4b61-a97f-68945c90da7b","system_id":"levelo_inurba_marseille","lat":43.2749,"lon":5.42464,"is_reserved":false,"is_disabled":false,"rental_uris":{"android":"levelo://app?vid=7d1ac5d5-d4c2-4b61-a97f-68945c90da7b","ios":"levelo://app?vid=7d1ac5d5-d4c2-4b61-a97f-68945c90da7b"},"vehicle_type_id":"4","last_reported":1747037743,"current_range_meters":11600,"station_id":"ce4bhn92rcd13ifvqgrg","pricing_plan_id":"cebpf4jnsgd1na2vs0mg"},{"bike_id":"829ec8de-42e4-489d-94ad-c2a37086aad6","system_id":"levelo_inurba_marseille","lat":43.25106,"lon":5.40324,"is_reserved":false,"is_disabled":false,"rental_uris":{"android":"levelo://app?vid=829ec8de-42e4-489d-94ad-c2a37086aad6","ios":"levelo://app?vid=829ec8de-42e4-489d-94ad-c2a37086aad6"},"vehicle_type_id":"4","last_reported":1747037743,"current_range_meters":11600,"station_id":"ce4bhlh2rcd13ifvqgig","pricing_plan_id":"cebpf4jnsgd1na2vs0mg"},{"bike_id":"62c464d8-51f3-4d14-9057-828134b07364","system_id":"levelo_inurba_marseille","lat":43.28131,"lon":5.37821,"is_reserved":false,"is_disabled":false,"rental_uris":{"android":"levelo://app?vid=62c464d8-51f3-4d14-9057-828134b07364","ios":"levelo://app?vid=62c464d8-51f3-4d14-9057-828134b07364"},"vehicle_type_id":"4","last_reported":1747037743,"current_range_meters":11600,"station_id":"ce4bha12rcd13ifvqee0","pricing_plan_id":"cebpf4jnsgd1na2vs0mg"},{"bike_id":"2ee4d910-0ee1-4bc5-86c8-c77afad12b4f","system_id":"levelo_inurba_marseille","lat":43.321143,"lon":5.367684,"is_reserved":false,"is_disabled":false,"rental_uris":{"android":"levelo://app?vid=2ee4d910-0ee1-4bc5-86c8-c77afad12b4f","ios":"levelo://app?vid=2ee4d910-0ee1-4bc5-86c8-c77afad12b4f"},"vehicle_type_id":"4","last_reported":1747037743,"current_range_meters":11600,"station_id":"ce4bhrh2rcd13ifvqhug","pricing_plan_id":"cebpf4jnsgd1na2vs0mg"},{"bike_id":"11e4597e-c0da-4b11-b293-5b1f7659f2d6","system_id":"levelo_inurba_marseille","lat":43.313536,"lon":5.367134,"is_reserved":false,"is_disabled":false,"rental_uris":{"android":"levelo://app?vid=11e4597e-c0da-4b11-b293-5b1f7659f2d6","ios":"levelo://app?vid=11e4597e-c0da-4b11-b293-5b1f7659f2d6"},"vehicle_type_id":"4","last_reported":1747037743,"current_range_meters":12000,"station_id":"ce4bgr92rcd13ifvqc6g","pricing_plan_id":"cebpf4jnsgd1na2vs0mg"},{"bike_id":"591e602e-363a-4eb8-8903-e18ee73072a4","system_id":"levelo_inurba_marseille","lat":43.30952,"lon":5.39021,"is_reserved":false,"is_disabled":false,"rental_uris":{"android":"levelo://app?vid=591e602e-363a-4eb8-8903-e18ee73072a4","ios":"levelo://app?vid=591e602e-363a-4eb8-8903-e18ee73072a4"},"vehicle_type_id":"4","last_reported":1747037743,"current_range_meters":11600,"station_id":"ce4bgup2rcd13ifvqco0","pricing_plan_id":"cebpf4jnsgd1na2vs0mg"},{"bike_id":"a8f961a9-ee12-42fe-b99b-1b7c40163514","system_id":"levelo_inurba_marseille","lat":43.30536,"lon":5.36557,"is_reserved":false,"is_disabled":false,"rental_uris":{"android":"levelo://app?vid=a8f961a9-ee12-42fe-b99b-1b7c40163514","ios":"levelo://app?vid=a8f961a9-ee12-42fe-b99b-1b7c40163514"},"vehicle_type_id":"4","last_reported":1747037743,"current_range_meters":12000,"station_id":"ce4bgs12rcd13ifvqcag","pricing_plan_id":"cebpf4jnsgd1na2vs0mg"},{"bike_id":"c717b955-1d23-42a6-bf63-f39e0d9342dd","system_id":"levelo_inurba_marseille","lat":43.28297,"lon":5.43094,"is_reserved":false,"is_disabled":false,"rental_uris":{"android":"levelo://app?vid=c717b955-1d23-42a6-bf63-f39e0d9342dd","ios":"levelo://app?vid=c717b955-1d23-42a6-bf63-f39e0d9342dd"},"vehicle_type_id":"4","last_reported":1747037743,"current_range_meters":12400,"station_id":"","pricing_plan_id":"cebpf4jnsgd1na2vs0mg"},{"bike_id":"37f9a811-b11a-4a13-96cc-e5a1ddf4804e","system_id":"levelo_inurba_marseille","lat":43.23157,"lon":5.4371,"is_reserved":false,"is_disabled":false,"rental_uris":{"android":"levelo://app?vid=37f9a811-b11a-4a13-96cc-e5a1ddf4804e","ios":"levelo://app?vid=37f9a811-b11a-4a13-96cc-e5a1ddf4804e"},"vehicle_type_id":"4","last_reported":1747037743,"current_range_meters":12800,"station_id":"ce4bhmp2rcd13ifvqgog","pricing_plan_id":"cebpf4jnsgd1na2vs0mg"},{"bike_id":"36f3bc07-b719-48d5-901e-ad29ee5d2f72","system_id":"levelo_inurba_marseille","lat":43.31709,"lon":5.37745,"is_reserved":false,"is_disabled":false,"rental_uris":{"android":"levelo://app?vid=36f3bc07-b719-48d5-901e-ad29ee5d2f72","ios":"levelo://app?vid=36f3bc07-b719-48d5-901e-ad29ee5d2f72"},"vehicle_type_id":"4","last_reported":1747037743,"current_range_meters":12400,"station_id":"ce4bgth2rcd13ifvqch0","pricing_plan_id":"cebpf4jnsgd1na2vs0mg"},{"bike_id":"430587fb-8fad-49e9-8640-337d47ba79f5","system_id":"levelo_inurba_marseille","lat":43.29848,"lon":5.36276,"is_reserved":false,"is_disabled":false,"rental_uris":{"android":"levelo://app?vid=430587fb-8fad-49e9-8640-337d47ba79f5","ios":"levelo://app?vid=430587fb-8fad-49e9-8640-337d47ba79f5"},"vehicle_type_id":"4","last_reported":1747037743,"current_range_meters":12800,"station_id":"ce4bgpp2rcd13ifvqc3g","pricing_plan_id":"cebpf4jnsgd1na2vs0mg"},{"bike_id":"66a830f0-d9b0-4794-954b-5a2a3132c8af","system_id":"levelo_inurba_marseille","lat":43.23152,"lon":5.43714,"is_reserved":false,"is_disabled":false,"rental_uris":{"android":"levelo://app?vid=66a830f0-d9b0-4794-954b-5a2a3132c8af","ios":"levelo://app?vid=66a830f0-d9b0-4794-954b-5a2a3132c8af"},"vehicle_type_id":"4","last_reported":1747037743,"current_range_meters":12400,"station_id":"ce4bhmp2rcd13ifvqgog","pricing_plan_id":"cebpf4jnsgd1na2vs0mg"},{"bike_id":"77b898d6-83c3-4819-8f10-342d8faa3aa9","system_id":"levelo_inurba_marseille","lat":43.270693,"lon":5.422795,"is_reserved":false,"is_disabled":true,"rental_uris":{"android":"levelo://app?vid=77b898d6-83c3-4819-8f10-342d8faa3aa9","ios":"levelo://app?vid=77b898d6-83c3-4819-8f10-342d8faa3aa9"},"vehicle_type_id":"4","last_reported":1747037743,"current_range_meters":12800,"station_id":"ce4bhk92rcd13ifvqgb0","pricing_plan_id":"cebpf4jnsgd1na2vs0mg"},{"bike_id":"02e802c0-6dab-4bf2-bb2c-dd89b5daedef","system_id":"levelo_inurba_marseille","lat":43.29377,"lon":5.37852,"is_reserved":false,"is_disabled":false,"rental_uris":{"android":"levelo://app?vid=02e802c0-6dab-4bf2-bb2c-dd89b5daedef","ios":"levelo://app?vid=02e802c0-6dab-4bf2-bb2c-dd89b5daedef"},"vehicle_type_id":"4","last_reported":1747037743,"current_range_meters":12800,"station_id":"ce4bgjh2rcd13ifvqbf0","pricing_plan_id":"cebpf4jnsgd1na2vs0mg"},{"bike_id":"2b239126-53fe-4ed4-918a-3e8d19841725","system_id":"levelo_inurba_marseille","lat":43.25584,"lon":5.3823,"is_reserved":false,"is_disabled":false,"rental_uris":{"android":"levelo://app?vid=2b239126-53fe-4ed4-918a-3e8d19841725","ios":"levelo://app?vid=2b239126-53fe-4ed4-918a-3e8d19841725"},"vehicle_type_id":"4","last_reported":1747037743,"current_range_meters":12800,"station_id":"ce4bhih2rcd13ifvqfs0","pricing_plan_id":"cebpf4jnsgd1na2vs0mg"},{"bike_id":"2f6e44d6-e18f-4fc7-b064-8fd821571b7e","system_id":"levelo_inurba_marseille","lat":43.27997,"lon":5.41662,"is_reserved":false,"is_disabled":false,"rental_uris":{"android":"levelo://app?vid=2f6e44d6-e18f-4fc7-b064-8fd821571b7e","ios":"levelo://app?vid=2f6e44d6-e18f-4fc7-b064-8fd821571b7e"},"vehicle_type_id":"4","last_reported":1747037743,"current_range_meters":12800,"station_id":"ce4bho12rcd13ifvqh1g","pricing_plan_id":"cebpf4jnsgd1na2vs0mg"},{"bike_id":"ab505afe-02ec-4919-8458-c2d24d617e6a","system_id":"levelo_inurba_marseille","lat":43.32543,"lon":5.41458,"is_reserved":false,"is_disabled":false,"rental_uris":{"android":"levelo://app?vid=ab505afe-02ec-4919-8458-c2d24d617e6a","ios":"levelo://app?vid=ab505afe-02ec-4919-8458-c2d24d617e6a"},"vehicle_type_id":"4","last_reported":1747037743,"current_range_meters":13600,"station_id":"ce4bhq12rcd13ifvqhhg","pricing_plan_id":"cebpf4jnsgd1na2vs0mg"},{"bike_id":"b3e39d10-09f4-469c-9cf2-8e6acdaefcf8","system_id":"levelo_inurba_marseille","lat":43.2668,"lon":5.38269,"is_reserved":false,"is_disabled":false,"rental_uris":{"android":"levelo://app?vid=b3e39d10-09f4-469c-9cf2-8e6acdaefcf8","ios":"levelo://app?vid=b3e39d10-09f4-469c-9cf2-8e6acdaefcf8"},"vehicle_type_id":"4","last_reported":1747037743,"current_range_meters":12800,"station_id":"ce4bhg92rcd13ifvqf90","pricing_plan_id":"cebpf4jnsgd1na2vs0mg"},{"bike_id":"0a4f9d32-468f-4b5f-bd61-fe0999932de1","system_id":"levelo_inurba_marseille","lat":43.29851,"lon":5.36293,"is_reserved":false,"is_disabled":false,"rental_uris":{"android":"levelo://app?vid=0a4f9d32-468f-4b5f-bd61-fe0999932de1","ios":"levelo://app?vid=0a4f9d32-468f-4b5f-bd61-fe0999932de1"},"vehicle_type_id":"4","last_reported":1747037743,"current_range_meters":13600,"station_id":"ce4bgpp2rcd13ifvqc3g","pricing_plan_id":"cebpf4jnsgd1na2vs0mg"},{"bike_id":"bca1914e-cac6-4a8a-9d51-4094f86b9c58","system_id":"levelo_inurba_marseille","lat":43.28972,"lon":5.36635,"is_reserved":false,"is_disabled":true,"rental_uris":{"android":"levelo://app?vid=bca1914e-cac6-4a8a-9d51-4094f86b9c58","ios":"levelo://app?vid=bca1914e-cac6-4a8a-9d51-4094f86b9c58"},"vehicle_type_id":"4","last_reported":1747037743,"current_range_meters":13600,"station_id":"","pricing_plan_id":"cebpf4jnsgd1na2vs0mg"},{"bike_id":"10a2934f-a63d-4b20-9284-6189164d47c9","system_id":"levelo_inurba_marseille","lat":43.30912,"lon":5.36859,"is_reserved":false,"is_disabled":false,"rental_uris":{"android":"levelo://app?vid=10a2934f-a63d-4b20-9284-6189164d47c9","ios":"levelo://app?vid=10a2934f-a63d-4b20-9284-6189164d47c9"},"vehicle_type_id":"4","last_reported":1747037743,"current_range_meters":13600,"station_id":"ce4bgn92rcd13ifvqbvg","pricing_plan_id":"cebpf4jnsgd1na2vs0mg"},{"bike_id":"0a4dc782-e1df-48ff-81bf-b707284fe935","system_id":"levelo_inurba_marseille","lat":43.28434,"lon":5.34983,"is_reserved":false,"is_disabled":true,"rental_uris":{"android":"levelo://app?vid=0a4dc782-e1df-48ff-81bf-b707284fe935","ios":"levelo://app?vid=0a4dc782-e1df-48ff-81bf-b707284fe935"},"vehicle_type_id":"4","last_reported":1747037743,"current_range_meters":13600,"station_id":"ce4bhbh2rcd13ifvqepg","pricing_plan_id":"cebpf4jnsgd1na2vs0mg"},{"bike_id":"ebd7e957-a420-4c90-82e5-91a66a9d59df","system_id":"levelo_inurba_marseille","lat":43.28415,"lon":5.34976,"is_reserved":false,"is_disabled":false,"rental_uris":{"android":"levelo://app?vid=ebd7e957-a420-4c90-82e5-91a66a9d59df","ios":"levelo://app?vid=ebd7e957-a420-4c90-82e5-91a66a9d59df"},"vehicle_type_id":"4","last_reported":1747037743,"current_range_meters":14400,"station_id":"ce4bhbh2rcd13ifvqepg","pricing_plan_id":"cebpf4jnsgd1na2vs0mg"},{"bike_id":"5005b58b-5008-4656-b832-72dd18e59a13","system_id":"levelo_inurba_marseille","lat":43.27217,"lon":5.39183,"is_reserved":false,"is_disabled":false,"rental_uris":{"android":"levelo://app?vid=5005b58b-5008-4656-b832-72dd18e59a13","ios":"levelo://app?vid=5005b58b-5008-4656-b832-72dd18e59a13"},"vehicle_type_id":"4","last_reported":1747037743,"current_range_meters":14400,"station_id":"ce4bhhp2rcd13ifvqfm0","pricing_plan_id":"cebpf4jnsgd1na2vs0mg"},{"bike_id":"915735b1-c0c2-4d1d-a930-22a9952ec650","system_id":"levelo_inurba_marseille","lat":43.29374,"lon":5.37845,"is_reserved":false,"is_disabled":false,"rental_uris":{"android":"levelo://app?vid=915735b1-c0c2-4d1d-a930-22a9952ec650","ios":"levelo://app?vid=915735b1-c0c2-4d1d-a930-22a9952ec650"},"vehicle_type_id":"4","last_reported":1747037743,"current_range_meters":14400,"station_id":"ce4bgjh2rcd13ifvqbf0","pricing_plan_id":"cebpf4jnsgd1na2vs0mg"},{"bike_id":"8ddc5194-6dcd-4338-b396-781602bc7987","system_id":"levelo_inurba_marseille","lat":43.30524,"lon":5.36746,"is_reserved":false,"is_disabled":false,"rental_uris":{"android":"levelo://app?vid=8ddc5194-6dcd-4338-b396-781602bc7987","ios":"levelo://app?vid=8ddc5194-6dcd-4338-b396-781602bc7987"},"vehicle_type_id":"4","last_reported":1747037743,"current_range_meters":14400,"station_id":"ce4bgrp2rcd13ifvqc9g","pricing_plan_id":"cebpf4jnsgd1na2vs0mg"},{"bike_id":"c79e41c8-2bbc-4c46-bb8d-06eb7b747501","system_id":"levelo_inurba_marseille","lat":43.26787,"lon":5.39428,"is_reserved":false,"is_disabled":false,"rental_uris":{"android":"levelo://app?vid=c79e41c8-2bbc-4c46-bb8d-06eb7b747501","ios":"levelo://app?vid=c79e41c8-2bbc-4c46-bb8d-06eb7b747501"},"vehicle_type_id":"4","last_reported":1747037743,"current_range_meters":14400,"station_id":"ce4bhh12rcd13ifvqfg0","pricing_plan_id":"cebpf4jnsgd1na2vs0mg"},{"bike_id":"995e5fbf-2d3e-428b-aa14-7b4276796c93","system_id":"levelo_inurba_marseille","lat":43.33612,"lon":5.4103,"is_reserved":false,"is_disabled":false,"rental_uris":{"android":"levelo://app?vid=995e5fbf-2d3e-428b-aa14-7b4276796c93","ios":"levelo://app?vid=995e5fbf-2d3e-428b-aa14-7b4276796c93"},"vehicle_type_id":"4","last_reported":1747037743,"current_range_meters":14800,"station_id":"ce4bhqh2rcd13ifvqhmg","pricing_plan_id":"cebpf4jnsgd1na2vs0mg"},{"bike_id":"1fe1c568-65b6-44fa-92a3-5550b26a8338","system_id":"levelo_inurba_marseille","lat":43.24182,"lon":5.39736,"is_reserved":false,"is_disabled":false,"rental_uris":{"android":"levelo://app?vid=1fe1c568-65b6-44fa-92a3-5550b26a8338","ios":"levelo://app?vid=1fe1c568-65b6-44fa-92a3-5550b26a8338"},"vehicle_type_id":"4","last_reported":1747037743,"current_range_meters":14800,"station_id":"ce4bhn12rcd13ifvqgpg","pricing_plan_id":"cebpf4jnsgd1na2vs0mg"},{"bike_id":"f3d19064-4548-49ec-9e99-33ed7cc04982","system_id":"levelo_inurba_marseille","lat":43.304281,"lon":5.4131,"is_reserved":false,"is_disabled":false,"rental_uris":{"android":"levelo://app?vid=f3d19064-4548-49ec-9e99-33ed7cc04982","ios":"levelo://app?vid=f3d19064-4548-49ec-9e99-33ed7cc04982"},"vehicle_type_id":"4","last_reported":1747037743,"current_range_meters":14800,"station_id":"ce4bhop2rcd13ifvqh8g","pricing_plan_id":"cebpf4jnsgd1na2vs0mg"},{"bike_id":"67784d7a-5166-4764-82e9-066296559a47","system_id":"levelo_inurba_marseille","lat":43.25937,"lon":5.40914,"is_reserved":false,"is_disabled":false,"rental_uris":{"android":"levelo://app?vid=67784d7a-5166-4764-82e9-066296559a47","ios":"levelo://app?vid=67784d7a-5166-4764-82e9-066296559a47"},"vehicle_type_id":"4","last_reported":1747037743,"current_range_meters":14800,"station_id":"ce4bhm92rcd13ifvqglg","pricing_plan_id":"cebpf4jnsgd1na2vs0mg"},{"bike_id":"a2a5171e-0929-48da-9ffe-91dc5b452bf6","system_id":"levelo_inurba_marseille","lat":43.24387,"lon":5.37057,"is_reserved":false,"is_disabled":false,"rental_uris":{"android":"levelo://app?vid=a2a5171e-0929-48da-9ffe-91dc5b452bf6","ios":"levelo://app?vid=a2a5171e-0929-48da-9ffe-91dc5b452bf6"},"vehicle_type_id":"4","last_reported":1747037743,"current_range_meters":14800,"station_id":"ce4bhhh2rcd13ifvqfk0","pricing_plan_id":"cebpf4jnsgd1na2vs0mg"},{"bike_id":"b8c359e7-2205-44ba-96e8-2cd88f3e1005","system_id":"levelo_inurba_marseille","lat":43.3211,"lon":5.36766,"is_reserved":false,"is_disabled":false,"rental_uris":{"android":"levelo://app?vid=b8c359e7-2205-44ba-96e8-2cd88f3e1005","ios":"levelo://app?vid=b8c359e7-2205-44ba-96e8-2cd88f3e1005"},"vehicle_type_id":"4","last_reported":1747037743,"current_range_meters":15200,"station_id":"ce4bhrh2rcd13ifvqhug","pricing_plan_id":"cebpf4jnsgd1na2vs0mg"},{"bike_id":"9d159d48-41ad-48e7-9237-30edb8e15fe2","system_id":"levelo_inurba_marseille","lat":43.30907,"lon":5.39658,"is_reserved":false,"is_disabled":false,"rental_uris":{"android":"levelo://app?vid=9d159d48-41ad-48e7-9237-30edb8e15fe2","ios":"levelo://app?vid=9d159d48-41ad-48e7-9237-30edb8e15fe2"},"vehicle_type_id":"4","last_reported":1747037743,"current_range_meters":15200,"station_id":"ce4bh012rcd13ifvqcv0","pricing_plan_id":"cebpf4jnsgd1na2vs0mg"},{"bike_id":"8cb58eec-43c8-41aa-899e-9650f6236c9b","system_id":"levelo_inurba_marseille","lat":43.30899,"lon":5.37177,"is_reserved":false,"is_disabled":false,"rental_uris":{"android":"levelo://app?vid=8cb58eec-43c8-41aa-899e-9650f6236c9b","ios":"levelo://app?vid=8cb58eec-43c8-41aa-899e-9650f6236c9b"},"vehicle_type_id":"4","last_reported":1747037743,"current_range_meters":15200,"station_id":"ce4bguh2rcd13ifvqckg","pricing_plan_id":"cebpf4jnsgd1na2vs0mg"},{"bike_id":"67a72ab0-87cc-425d-b084-2201da189d82","system_id":"levelo_inurba_marseille","lat":43.27491,"lon":5.42463,"is_reserved":false,"is_disabled":false,"rental_uris":{"android":"levelo://app?vid=67a72ab0-87cc-425d-b084-2201da189d82","ios":"levelo://app?vid=67a72ab0-87cc-425d-b084-2201da189d82"},"vehicle_type_id":"4","last_reported":1747037743,"current_range_meters":16000,"station_id":"ce4bhn92rcd13ifvqgrg","pricing_plan_id":"cebpf4jnsgd1na2vs0mg"},{"bike_id":"aca142bd-2716-4ee3-8c04-bd27c952c647","system_id":"levelo_inurba_marseille","lat":43.26444,"lon":5.37478,"is_reserved":false,"is_disabled":false,"rental_uris":{"android":"levelo://app?vid=aca142bd-2716-4ee3-8c04-bd27c952c647","ios":"levelo://app?vid=aca142bd-2716-4ee3-8c04-bd27c952c647"},"vehicle_type_id":"4","last_reported":1747037743,"current_range_meters":16400,"station_id":"","pricing_plan_id":"cebpf4jnsgd1na2vs0mg"},{"bike_id":"521368e7-1caa-4ede-9a4e-6a750ff201f5","system_id":"levelo_inurba_marseille","lat":43.325349,"lon":5.414119,"is_reserved":false,"is_disabled":false,"rental_uris":{"android":"levelo://app?vid=521368e7-1caa-4ede-9a4e-6a750ff201f5","ios":"levelo://app?vid=521368e7-1caa-4ede-9a4e-6a750ff201f5"},"vehicle_type_id":"4","last_reported":1747037743,"current_range_meters":16400,"station_id":"ce4bhq12rcd13ifvqhhg","pricing_plan_id":"cebpf4jnsgd1na2vs0mg"},{"bike_id":"b3cda032-0d7f-417f-b17c-294e536268b0","system_id":"levelo_inurba_marseille","lat":43.26796,"lon":5.39409,"is_reserved":false,"is_disabled":false,"rental_uris":{"android":"levelo://app?vid=b3cda032-0d7f-417f-b17c-294e536268b0","ios":"levelo://app?vid=b3cda032-0d7f-417f-b17c-294e536268b0"},"vehicle_type_id":"4","last_reported":1747037743,"current_range_meters":16400,"station_id":"ce4bhh12rcd13ifvqfg0","pricing_plan_id":"cebpf4jnsgd1na2vs0mg"},{"bike_id":"d79db235-f75d-4ca3-b65d-5104ff0615ee","system_id":"levelo_inurba_marseille","lat":43.30276,"lon":5.37702,"is_reserved":false,"is_disabled":false,"rental_uris":{"android":"levelo://app?vid=d79db235-f75d-4ca3-b65d-5104ff0615ee","ios":"levelo://app?vid=d79db235-f75d-4ca3-b65d-5104ff0615ee"},"vehicle_type_id":"4","last_reported":1747037743,"current_range_meters":16400,"station_id":"ce4bguh2rcd13ifvqcj0","pricing_plan_id":"cebpf4jnsgd1na2vs0mg"},{"bike_id":"d7061c19-9300-4385-93eb-4afb7bdffce0","system_id":"levelo_inurba_marseille","lat":43.3414,"lon":5.40899,"is_reserved":false,"is_disabled":false,"rental_uris":{"android":"levelo://app?vid=d7061c19-9300-4385-93eb-4afb7bdffce0","ios":"levelo://app?vid=d7061c19-9300-4385-93eb-4afb7bdffce0"},"vehicle_type_id":"4","last_reported":1747037743,"current_range_meters":16400,"station_id":"ce4bhqh2rcd13ifvqhlg","pricing_plan_id":"cebpf4jnsgd1na2vs0mg"},{"bike_id":"4a86cdc6-b823-490b-bbf2-e6e3003db362","system_id":"levelo_inurba_marseille","lat":43.31353,"lon":5.36712,"is_reserved":false,"is_disabled":false,"rental_uris":{"android":"levelo://app?vid=4a86cdc6-b823-490b-bbf2-e6e3003db362","ios":"levelo://app?vid=4a86cdc6-b823-490b-bbf2-e6e3003db362"},"vehicle_type_id":"4","last_reported":1747037743,"current_range_meters":16800,"station_id":"ce4bgr92rcd13ifvqc6g","pricing_plan_id":"cebpf4jnsgd1na2vs0mg"},{"bike_id":"f4487268-eaed-42f9-a3c9-53aa40344544","system_id":"levelo_inurba_marseille","lat":43.31881,"lon":5.40734,"is_reserved":false,"is_disabled":false,"rental_uris":{"android":"levelo://app?vid=f4487268-eaed-42f9-a3c9-53aa40344544","ios":"levelo://app?vid=f4487268-eaed-42f9-a3c9-53aa40344544"},"vehicle_type_id":"4","last_reported":1747037743,"current_range_meters":16800,"station_id":"ce4bhq12rcd13ifvqhig","pricing_plan_id":"cebpf4jnsgd1na2vs0mg"},{"bike_id":"f69257da-8878-41a7-b8f6-c7f02aa7ae1d","system_id":"levelo_inurba_marseille","lat":43.25956,"lon":5.40892,"is_reserved":false,"is_disabled":false,"rental_uris":{"android":"levelo://app?vid=f69257da-8878-41a7-b8f6-c7f02aa7ae1d","ios":"levelo://app?vid=f69257da-8878-41a7-b8f6-c7f02aa7ae1d"},"vehicle_type_id":"4","last_reported":1747037743,"current_range_meters":17200,"station_id":"ce4bhm92rcd13ifvqglg","pricing_plan_id":"cebpf4jnsgd1na2vs0mg"},{"bike_id":"33dcb565-33c2-43b9-a6b2-113321680ae6","system_id":"levelo_inurba_marseille","lat":43.26792,"lon":5.39402,"is_reserved":false,"is_disabled":false,"rental_uris":{"android":"levelo://app?vid=33dcb565-33c2-43b9-a6b2-113321680ae6","ios":"levelo://app?vid=33dcb565-33c2-43b9-a6b2-113321680ae6"},"vehicle_type_id":"4","last_reported":1747037743,"current_range_meters":16800,"station_id":"ce4bhh12rcd13ifvqfg0","pricing_plan_id":"cebpf4jnsgd1na2vs0mg"},{"bike_id":"4034b04c-a4d5-4c22-bf5d-56654ad24ced","system_id":"levelo_inurba_marseille","lat":43.30555,"lon":5.36535,"is_reserved":false,"is_disabled":true,"rental_uris":{"android":"levelo://app?vid=4034b04c-a4d5-4c22-bf5d-56654ad24ced","ios":"levelo://app?vid=4034b04c-a4d5-4c22-bf5d-56654ad24ced"},"vehicle_type_id":"4","last_reported":1747037743,"current_range_meters":17200,"station_id":"ce4bgs12rcd13ifvqcag","pricing_plan_id":"cebpf4jnsgd1na2vs0mg"},{"bike_id":"8995a6ff-add1-4bca-a9f9-6366652969c9","system_id":"levelo_inurba_marseille","lat":43.31329,"lon":5.36636,"is_reserved":false,"is_disabled":false,"rental_uris":{"android":"levelo://app?vid=8995a6ff-add1-4bca-a9f9-6366652969c9","ios":"levelo://app?vid=8995a6ff-add1-4bca-a9f9-6366652969c9"},"vehicle_type_id":"4","last_reported":1747037743,"current_range_meters":17600,"station_id":"","pricing_plan_id":"cebpf4jnsgd1na2vs0mg"},{"bike_id":"9a219454-3862-4dc7-8fdd-6c8477f02ee1","system_id":"levelo_inurba_marseille","lat":43.29371,"lon":5.37849,"is_reserved":false,"is_disabled":false,"rental_uris":{"android":"levelo://app?vid=9a219454-3862-4dc7-8fdd-6c8477f02ee1","ios":"levelo://app?vid=9a219454-3862-4dc7-8fdd-6c8477f02ee1"},"vehicle_type_id":"4","last_reported":1747037743,"current_range_meters":17600,"station_id":"ce4bgjh2rcd13ifvqbf0","pricing_plan_id":"cebpf4jnsgd1na2vs0mg"},{"bike_id":"1fc1cd35-cd73-4465-9637-dcad4ba87ae6","system_id":"levelo_inurba_marseille","lat":43.307861,"lon":5.376609,"is_reserved":false,"is_disabled":false,"rental_uris":{"android":"levelo://app?vid=1fc1cd35-cd73-4465-9637-dcad4ba87ae6","ios":"levelo://app?vid=1fc1cd35-cd73-4465-9637-dcad4ba87ae6"},"vehicle_type_id":"4","last_reported":1747037743,"current_range_meters":18000,"station_id":"ce4bgv92rcd13ifvqcq0","pricing_plan_id":"cebpf4jnsgd1na2vs0mg"},{"bike_id":"71452550-bd7a-45ca-b058-9e77eb877f64","system_id":"levelo_inurba_marseille","lat":43.29602,"lon":5.38111,"is_reserved":false,"is_disabled":false,"rental_uris":{"android":"levelo://app?vid=71452550-bd7a-45ca-b058-9e77eb877f64","ios":"levelo://app?vid=71452550-bd7a-45ca-b058-9e77eb877f64"},"vehicle_type_id":"4","last_reported":1747037743,"current_range_meters":18000,"station_id":"ce4bgl12rcd13ifvqbo0","pricing_plan_id":"cebpf4jnsgd1na2vs0mg"},{"bike_id":"5304a163-325c-4baa-a281-f0fdf86d0265","system_id":"levelo_inurba_marseille","lat":43.27498,"lon":5.42462,"is_reserved":false,"is_disabled":false,"rental_uris":{"android":"levelo://app?vid=5304a163-325c-4baa-a281-f0fdf86d0265","ios":"levelo://app?vid=5304a163-325c-4baa-a281-f0fdf86d0265"},"vehicle_type_id":"4","last_reported":1747037743,"current_range_meters":18000,"station_id":"ce4bhn92rcd13ifvqgrg","pricing_plan_id":"cebpf4jnsgd1na2vs0mg"},{"bike_id":"8e12d60d-0e1c-485c-a42c-f95350f26af1","system_id":"levelo_inurba_marseille","lat":43.29044,"lon":5.39964,"is_reserved":false,"is_disabled":true,"rental_uris":{"android":"levelo://app?vid=8e12d60d-0e1c-485c-a42c-f95350f26af1","ios":"levelo://app?vid=8e12d60d-0e1c-485c-a42c-f95350f26af1"},"vehicle_type_id":"4","last_reported":1747037743,"current_range_meters":18000,"station_id":"ce4bh392rcd13ifvqdm0","pricing_plan_id":"cebpf4jnsgd1na2vs0mg"},{"bike_id":"e46cb279-5b27-4d91-9204-6ed2bfb474f3","system_id":"levelo_inurba_marseille","lat":43.23183,"lon":5.3999,"is_reserved":false,"is_disabled":false,"rental_uris":{"android":"levelo://app?vid=e46cb279-5b27-4d91-9204-6ed2bfb474f3","ios":"levelo://app?vid=e46cb279-5b27-4d91-9204-6ed2bfb474f3"},"vehicle_type_id":"4","last_reported":1747037743,"current_range_meters":18000,"station_id":"ce4bhn12rcd13ifvqgqg","pricing_plan_id":"cebpf4jnsgd1na2vs0mg"},{"bike_id":"fc6e693c-992c-41f9-b827-1151421c293f","system_id":"levelo_inurba_marseille","lat":43.25932,"lon":5.40909,"is_reserved":false,"is_disabled":false,"rental_uris":{"android":"levelo://app?vid=fc6e693c-992c-41f9-b827-1151421c293f","ios":"levelo://app?vid=fc6e693c-992c-41f9-b827-1151421c293f"},"vehicle_type_id":"4","last_reported":1747037743,"current_range_meters":18000,"station_id":"ce4bhm92rcd13ifvqglg","pricing_plan_id":"cebpf4jnsgd1na2vs0mg"},{"bike_id":"274428a0-f624-470d-97ad-4d677cbd848f","system_id":"levelo_inurba_marseille","lat":43.2708,"lon":5.42264,"is_reserved":false,"is_disabled":false,"rental_uris":{"android":"levelo://app?vid=274428a0-f624-470d-97ad-4d677cbd848f","ios":"levelo://app?vid=274428a0-f624-470d-97ad-4d677cbd848f"},"vehicle_type_id":"4","last_reported":1747037743,"current_range_meters":18800,"station_id":"ce4bhk92rcd13ifvqgb0","pricing_plan_id":"cebpf4jnsgd1na2vs0mg"},{"bike_id":"38b7b9f0-4d03-4b6a-b846-b1a53fc87f21","system_id":"levelo_inurba_marseille","lat":43.262631,"lon":5.405323,"is_reserved":false,"is_disabled":false,"rental_uris":{"android":"levelo://app?vid=38b7b9f0-4d03-4b6a-b846-b1a53fc87f21","ios":"levelo://app?vid=38b7b9f0-4d03-4b6a-b846-b1a53fc87f21"},"vehicle_type_id":"4","last_reported":1747037743,"current_range_meters":18800,"station_id":"ce4bh412rcd13ifvqds0","pricing_plan_id":"cebpf4jnsgd1na2vs0mg"},{"bike_id":"8cf26f62-9b63-4505-b08b-12d42479f8bf","system_id":"levelo_inurba_marseille","lat":43.257308,"lon":5.411074,"is_reserved":false,"is_disabled":false,"rental_uris":{"android":"levelo://app?vid=8cf26f62-9b63-4505-b08b-12d42479f8bf","ios":"levelo://app?vid=8cf26f62-9b63-4505-b08b-12d42479f8bf"},"vehicle_type_id":"4","last_reported":1747037743,"current_range_meters":18800,"station_id":"ce4bhkp2rcd13ifvqgd0","pricing_plan_id":"cebpf4jnsgd1na2vs0mg"},{"bike_id":"f8dc9e04-d2ee-4752-9e41-df75a435cdb1","system_id":"levelo_inurba_marseille","lat":43.32542,"lon":5.41444,"is_reserved":false,"is_disabled":false,"rental_uris":{"android":"levelo://app?vid=f8dc9e04-d2ee-4752-9e41-df75a435cdb1","ios":"levelo://app?vid=f8dc9e04-d2ee-4752-9e41-df75a435cdb1"},"vehicle_type_id":"4","last_reported":1747037743,"current_range_meters":18800,"station_id":"ce4bhq12rcd13ifvqhhg","pricing_plan_id":"cebpf4jnsgd1na2vs0mg"},{"bike_id":"8acb5c33-715c-472b-b181-6250c36ed015","system_id":"levelo_inurba_marseille","lat":43.301472,"lon":5.380864,"is_reserved":false,"is_disabled":true,"rental_uris":{"android":"levelo://app?vid=8acb5c33-715c-472b-b181-6250c36ed015","ios":"levelo://app?vid=8acb5c33-715c-472b-b181-6250c36ed015"},"vehicle_type_id":"4","last_reported":1747037743,"current_range_meters":18800,"station_id":"","pricing_plan_id":"cebpf4jnsgd1na2vs0mg"},{"bike_id":"60c69132-7413-4c86-b480-4ebf3d1d14b0","system_id":"levelo_inurba_marseille","lat":43.32541,"lon":5.41428,"is_reserved":false,"is_disabled":false,"rental_uris":{"android":"levelo://app?vid=60c69132-7413-4c86-b480-4ebf3d1d14b0","ios":"levelo://app?vid=60c69132-7413-4c86-b480-4ebf3d1d14b0"},"vehicle_type_id":"4","last_reported":1747037743,"current_range_meters":18800,"station_id":"ce4bhq12rcd13ifvqhhg","pricing_plan_id":"cebpf4jnsgd1na2vs0mg"},{"bike_id":"59f1650b-5316-4c32-958f-af974e25987b","system_id":"levelo_inurba_marseille","lat":43.27375,"lon":5.36259,"is_reserved":false,"is_disabled":false,"rental_uris":{"android":"levelo://app?vid=59f1650b-5316-4c32-958f-af974e25987b","ios":"levelo://app?vid=59f1650b-5316-4c32-958f-af974e25987b"},"vehicle_type_id":"4","last_reported":1747037743,"current_range_meters":18800,"station_id":"ce4bhbh2rcd13ifvqeo0","pricing_plan_id":"cebpf4jnsgd1na2vs0mg"},{"bike_id":"5c0afe02-e4ef-4129-808a-cc1834fa7ec0","system_id":"levelo_inurba_marseille","lat":43.269528,"lon":5.386307,"is_reserved":false,"is_disabled":true,"rental_uris":{"android":"levelo://app?vid=5c0afe02-e4ef-4129-808a-cc1834fa7ec0","ios":"levelo://app?vid=5c0afe02-e4ef-4129-808a-cc1834fa7ec0"},"vehicle_type_id":"4","last_reported":1747037743,"current_range_meters":18800,"station_id":"ce4bhh92rcd13ifvqfh0","pricing_plan_id":"cebpf4jnsgd1na2vs0mg"},{"bike_id":"d027de36-f3c5-487b-bf97-0ea587270eaa","system_id":"levelo_inurba_marseille","lat":43.260276,"lon":5.375492,"is_reserved":false,"is_disabled":false,"rental_uris":{"android":"levelo://app?vid=d027de36-f3c5-487b-bf97-0ea587270eaa","ios":"levelo://app?vid=d027de36-f3c5-487b-bf97-0ea587270eaa"},"vehicle_type_id":"4","last_reported":1747037743,"current_range_meters":18000,"station_id":"ce4bhgh2rcd13ifvqfa0","pricing_plan_id":"cebpf4jnsgd1na2vs0mg"},{"bike_id":"6a4f700e-2091-4ba2-940a-dc26934d0b22","system_id":"levelo_inurba_marseille","lat":43.292564,"lon":5.376163,"is_reserved":false,"is_disabled":false,"rental_uris":{"android":"levelo://app?vid=6a4f700e-2091-4ba2-940a-dc26934d0b22","ios":"levelo://app?vid=6a4f700e-2091-4ba2-940a-dc26934d0b22"},"vehicle_type_id":"4","last_reported":1747037743,"current_range_meters":19200,"station_id":"ce4bgi12rcd13ifvqb80","pricing_plan_id":"cebpf4jnsgd1na2vs0mg"},{"bike_id":"2df1ab65-61e9-4fcf-9a25-275a30df03a7","system_id":"levelo_inurba_marseille","lat":43.30914,"lon":5.36852,"is_reserved":false,"is_disabled":false,"rental_uris":{"android":"levelo://app?vid=2df1ab65-61e9-4fcf-9a25-275a30df03a7","ios":"levelo://app?vid=2df1ab65-61e9-4fcf-9a25-275a30df03a7"},"vehicle_type_id":"4","last_reported":1747037743,"current_range_meters":19200,"station_id":"ce4bgn92rcd13ifvqbvg","pricing_plan_id":"cebpf4jnsgd1na2vs0mg"},{"bike_id":"cc6105f9-6f7d-4848-9f36-916e401bfe26","system_id":"levelo_inurba_marseille","lat":43.31327,"lon":5.36741,"is_reserved":false,"is_disabled":false,"rental_uris":{"android":"levelo://app?vid=cc6105f9-6f7d-4848-9f36-916e401bfe26","ios":"levelo://app?vid=cc6105f9-6f7d-4848-9f36-916e401bfe26"},"vehicle_type_id":"4","last_reported":1747037743,"current_range_meters":19200,"station_id":"ce4bgr92rcd13ifvqc6g","pricing_plan_id":"cebpf4jnsgd1na2vs0mg"},{"bike_id":"06d5c192-bb57-491d-af41-f34fc3be25a6","system_id":"levelo_inurba_marseille","lat":43.30146,"lon":5.37423,"is_reserved":false,"is_disabled":false,"rental_uris":{"android":"levelo://app?vid=06d5c192-bb57-491d-af41-f34fc3be25a6","ios":"levelo://app?vid=06d5c192-bb57-491d-af41-f34fc3be25a6"},"vehicle_type_id":"4","last_reported":1747037743,"current_range_meters":19200,"station_id":"ce4bgs92rcd13ifvqcc0","pricing_plan_id":"cebpf4jnsgd1na2vs0mg"},{"bike_id":"d0d77266-b030-48e7-bb4a-e4747b4776ec","system_id":"levelo_inurba_marseille","lat":43.3014,"lon":5.39875,"is_reserved":false,"is_disabled":true,"rental_uris":{"android":"levelo://app?vid=d0d77266-b030-48e7-bb4a-e4747b4776ec","ios":"levelo://app?vid=d0d77266-b030-48e7-bb4a-e4747b4776ec"},"vehicle_type_id":"4","last_reported":1747037743,"current_range_meters":19200,"station_id":"ce4bh0h2rcd13ifvqd40","pricing_plan_id":"cebpf4jnsgd1na2vs0mg"},{"bike_id":"f023d5da-6c8e-4a6a-bb3e-046cd3c4d71c","system_id":"levelo_inurba_marseille","lat":43.3032,"lon":5.36906,"is_reserved":false,"is_disabled":false,"rental_uris":{"android":"levelo://app?vid=f023d5da-6c8e-4a6a-bb3e-046cd3c4d71c","ios":"levelo://app?vid=f023d5da-6c8e-4a6a-bb3e-046cd3c4d71c"},"vehicle_type_id":"4","last_reported":1747037743,"current_range_meters":19200,"station_id":"ce4bgqh2rcd13ifvqc5g","pricing_plan_id":"cebpf4jnsgd1na2vs0mg"},{"bike_id":"cddebfb5-ba9a-4b45-8db6-1d3b911c2d1f","system_id":"levelo_inurba_marseille","lat":43.30924,"lon":5.36862,"is_reserved":false,"is_disabled":false,"rental_uris":{"android":"levelo://app?vid=cddebfb5-ba9a-4b45-8db6-1d3b911c2d1f","ios":"levelo://app?vid=cddebfb5-ba9a-4b45-8db6-1d3b911c2d1f"},"vehicle_type_id":"4","last_reported":1747037743,"current_range_meters":19200,"station_id":"ce4bgn92rcd13ifvqbvg","pricing_plan_id":"cebpf4jnsgd1na2vs0mg"},{"bike_id":"0b55e254-f197-4a4a-bb91-9570c6144ee8","system_id":"levelo_inurba_marseille","lat":43.251068,"lon":5.403277,"is_reserved":false,"is_disabled":false,"rental_uris":{"android":"levelo://app?vid=0b55e254-f197-4a4a-bb91-9570c6144ee8","ios":"levelo://app?vid=0b55e254-f197-4a4a-bb91-9570c6144ee8"},"vehicle_type_id":"4","last_reported":1747037743,"current_range_meters":19200,"station_id":"ce4bhlh2rcd13ifvqgig","pricing_plan_id":"cebpf4jnsgd1na2vs0mg"},{"bike_id":"c2180296-e525-4f7e-aeda-5622275d4cbc","system_id":"levelo_inurba_marseille","lat":43.30524,"lon":5.36525,"is_reserved":false,"is_disabled":false,"rental_uris":{"android":"levelo://app?vid=c2180296-e525-4f7e-aeda-5622275d4cbc","ios":"levelo://app?vid=c2180296-e525-4f7e-aeda-5622275d4cbc"},"vehicle_type_id":"4","last_reported":1747037743,"current_range_meters":19600,"station_id":"ce4bgs12rcd13ifvqcag","pricing_plan_id":"cebpf4jnsgd1na2vs0mg"},{"bike_id":"52113851-1488-4df3-816e-7070c016bca6","system_id":"levelo_inurba_marseille","lat":43.26572,"lon":5.39033,"is_reserved":false,"is_disabled":false,"rental_uris":{"android":"levelo://app?vid=52113851-1488-4df3-816e-7070c016bca6","ios":"levelo://app?vid=52113851-1488-4df3-816e-7070c016bca6"},"vehicle_type_id":"4","last_reported":1747037743,"current_range_meters":19600,"station_id":"ce4bhe12rcd13ifvqf30","pricing_plan_id":"cebpf4jnsgd1na2vs0mg"},{"bike_id":"41fd632e-8367-4c7d-8e83-7415e2869898","system_id":"levelo_inurba_marseille","lat":43.30302,"lon":5.36884,"is_reserved":false,"is_disabled":false,"rental_uris":{"android":"levelo://app?vid=41fd632e-8367-4c7d-8e83-7415e2869898","ios":"levelo://app?vid=41fd632e-8367-4c7d-8e83-7415e2869898"},"vehicle_type_id":"4","last_reported":1747037743,"current_range_meters":19600,"station_id":"ce4bgqh2rcd13ifvqc5g","pricing_plan_id":"cebpf4jnsgd1na2vs0mg"},{"bike_id":"6b335384-884e-4a9b-a5c3-4f818d710f88","system_id":"levelo_inurba_marseille","lat":43.32546,"lon":5.41411,"is_reserved":false,"is_disabled":false,"rental_uris":{"android":"levelo://app?vid=6b335384-884e-4a9b-a5c3-4f818d710f88","ios":"levelo://app?vid=6b335384-884e-4a9b-a5c3-4f818d710f88"},"vehicle_type_id":"4","last_reported":1747037743,"current_range_meters":20000,"station_id":"ce4bhq12rcd13ifvqhhg","pricing_plan_id":"cebpf4jnsgd1na2vs0mg"},{"bike_id":"ea1eca92-ae8d-4090-800e-971b03021a45","system_id":"levelo_inurba_marseille","lat":43.27495,"lon":5.4246,"is_reserved":false,"is_disabled":false,"rental_uris":{"android":"levelo://app?vid=ea1eca92-ae8d-4090-800e-971b03021a45","ios":"levelo://app?vid=ea1eca92-ae8d-4090-800e-971b03021a45"},"vehicle_type_id":"4","last_reported":1747037743,"current_range_meters":20000,"station_id":"ce4bhn92rcd13ifvqgrg","pricing_plan_id":"cebpf4jnsgd1na2vs0mg"},{"bike_id":"f3c7a222-69bc-4ce3-8ca4-2c8e332d46cb","system_id":"levelo_inurba_marseille","lat":43.295263,"lon":5.394036,"is_reserved":false,"is_disabled":false,"rental_uris":{"android":"levelo://app?vid=f3c7a222-69bc-4ce3-8ca4-2c8e332d46cb","ios":"levelo://app?vid=f3c7a222-69bc-4ce3-8ca4-2c8e332d46cb"},"vehicle_type_id":"4","last_reported":1747037743,"current_range_meters":20000,"station_id":"ce4bhm92rcd13ifvqglg","pricing_plan_id":"cebpf4jnsgd1na2vs0mg"},{"bike_id":"aa0a5e4d-a1cb-491d-8775-3fcacc0b60b4","system_id":"levelo_inurba_marseille","lat":43.29707,"lon":5.36607,"is_reserved":false,"is_disabled":false,"rental_uris":{"android":"levelo://app?vid=aa0a5e4d-a1cb-491d-8775-3fcacc0b60b4","ios":"levelo://app?vid=aa0a5e4d-a1cb-491d-8775-3fcacc0b60b4"},"vehicle_type_id":"4","last_reported":1747037743,"current_range_meters":19600,"station_id":"ce4bgn12rcd13ifvqbt0","pricing_plan_id":"cebpf4jnsgd1na2vs0mg"},{"bike_id":"bf6d392c-76ea-4e2e-8173-b31e7f798cd8","system_id":"levelo_inurba_marseille","lat":43.25918,"lon":5.40902,"is_reserved":false,"is_disabled":false,"rental_uris":{"android":"levelo://app?vid=bf6d392c-76ea-4e2e-8173-b31e7f798cd8","ios":"levelo://app?vid=bf6d392c-76ea-4e2e-8173-b31e7f798cd8"},"vehicle_type_id":"4","last_reported":1747037743,"current_range_meters":20000,"station_id":"ce4bhm92rcd13ifvqglg","pricing_plan_id":"cebpf4jnsgd1na2vs0mg"},{"bike_id":"9f952b18-032d-4a87-a464-b179467689ad","system_id":"levelo_inurba_marseille","lat":43.28287,"lon":5.35074,"is_reserved":false,"is_disabled":true,"rental_uris":{"android":"levelo://app?vid=9f952b18-032d-4a87-a464-b179467689ad","ios":"levelo://app?vid=9f952b18-032d-4a87-a464-b179467689ad"},"vehicle_type_id":"4","last_reported":1747037743,"current_range_meters":20000,"station_id":"ce4bhbp2rcd13ifvqerg","pricing_plan_id":"cebpf4jnsgd1na2vs0mg"},{"bike_id":"b74440fb-a055-4f6e-ab47-b3f483f1cc70","system_id":"levelo_inurba_marseille","lat":43.32486,"lon":5.36553,"is_reserved":false,"is_disabled":false,"rental_uris":{"android":"levelo://app?vid=b74440fb-a055-4f6e-ab47-b3f483f1cc70","ios":"levelo://app?vid=b74440fb-a055-4f6e-ab47-b3f483f1cc70"},"vehicle_type_id":"4","last_reported":1747037743,"current_range_meters":20400,"station_id":"ce4bhs12rcd13ifvqhvg","pricing_plan_id":"cebpf4jnsgd1na2vs0mg"},{"bike_id":"f52ac0a1-aac5-455d-a880-8e13fabb2b52","system_id":"levelo_inurba_marseille","lat":43.32366,"lon":5.38883,"is_reserved":false,"is_disabled":false,"rental_uris":{"android":"levelo://app?vid=f52ac0a1-aac5-455d-a880-8e13fabb2b52","ios":"levelo://app?vid=f52ac0a1-aac5-455d-a880-8e13fabb2b52"},"vehicle_type_id":"4","last_reported":1747037743,"current_range_meters":20400,"station_id":"ce4bhqp2rcd13ifvqhog","pricing_plan_id":"cebpf4jnsgd1na2vs0mg"},{"bike_id":"908f7214-0325-4d53-bf3a-1d65338e5b81","system_id":"levelo_inurba_marseille","lat":43.295707,"lon":5.375187,"is_reserved":false,"is_disabled":false,"rental_uris":{"android":"levelo://app?vid=908f7214-0325-4d53-bf3a-1d65338e5b81","ios":"levelo://app?vid=908f7214-0325-4d53-bf3a-1d65338e5b81"},"vehicle_type_id":"4","last_reported":1747037743,"current_range_meters":20400,"station_id":"ce4bgh92rcd13ifvqb50","pricing_plan_id":"cebpf4jnsgd1na2vs0mg"},{"bike_id":"641094cf-af75-4792-8ce7-2c9d985200e5","system_id":"levelo_inurba_marseille","lat":43.30954,"lon":5.39056,"is_reserved":false,"is_disabled":false,"rental_uris":{"android":"levelo://app?vid=641094cf-af75-4792-8ce7-2c9d985200e5","ios":"levelo://app?vid=641094cf-af75-4792-8ce7-2c9d985200e5"},"vehicle_type_id":"4","last_reported":1747037743,"current_range_meters":20400,"station_id":"ce4bgup2rcd13ifvqco0","pricing_plan_id":"cebpf4jnsgd1na2vs0mg"},{"bike_id":"96dfed76-c1af-4f46-924a-29865cd3e472","system_id":"levelo_inurba_marseille","lat":43.29594,"lon":5.38099,"is_reserved":false,"is_disabled":false,"rental_uris":{"android":"levelo://app?vid=96dfed76-c1af-4f46-924a-29865cd3e472","ios":"levelo://app?vid=96dfed76-c1af-4f46-924a-29865cd3e472"},"vehicle_type_id":"4","last_reported":1747037743,"current_range_meters":20400,"station_id":"ce4bgl12rcd13ifvqbo0","pricing_plan_id":"cebpf4jnsgd1na2vs0mg"},{"bike_id":"ad318f3b-2a79-4060-98f6-ed32498cf202","system_id":"levelo_inurba_marseille","lat":43.25934,"lon":5.40905,"is_reserved":false,"is_disabled":false,"rental_uris":{"android":"levelo://app?vid=ad318f3b-2a79-4060-98f6-ed32498cf202","ios":"levelo://app?vid=ad318f3b-2a79-4060-98f6-ed32498cf202"},"vehicle_type_id":"4","last_reported":1747037743,"current_range_meters":20400,"station_id":"ce4bhm92rcd13ifvqglg","pricing_plan_id":"cebpf4jnsgd1na2vs0mg"},{"bike_id":"c84cc980-38fe-4761-924e-99f94b7ce9c7","system_id":"levelo_inurba_marseille","lat":43.337444,"lon":5.374475,"is_reserved":false,"is_disabled":true,"rental_uris":{"android":"levelo://app?vid=c84cc980-38fe-4761-924e-99f94b7ce9c7","ios":"levelo://app?vid=c84cc980-38fe-4761-924e-99f94b7ce9c7"},"vehicle_type_id":"4","last_reported":1747037743,"current_range_meters":20400,"station_id":"","pricing_plan_id":"cebpf4jnsgd1na2vs0mg"},{"bike_id":"b336a229-0bf1-452c-97d8-afd000b0f02e","system_id":"levelo_inurba_marseille","lat":43.32481,"lon":5.3658,"is_reserved":false,"is_disabled":true,"rental_uris":{"android":"levelo://app?vid=b336a229-0bf1-452c-97d8-afd000b0f02e","ios":"levelo://app?vid=b336a229-0bf1-452c-97d8-afd000b0f02e"},"vehicle_type_id":"4","last_reported":1747037743,"current_range_meters":20400,"station_id":"ce4bhs12rcd13ifvqhvg","pricing_plan_id":"cebpf4jnsgd1na2vs0mg"},{"bike_id":"001dac55-ee53-476a-9924-0ffd9d379db6","system_id":"levelo_inurba_marseille","lat":43.26678,"lon":5.38272,"is_reserved":false,"is_disabled":false,"rental_uris":{"android":"levelo://app?vid=001dac55-ee53-476a-9924-0ffd9d379db6","ios":"levelo://app?vid=001dac55-ee53-476a-9924-0ffd9d379db6"},"vehicle_type_id":"4","last_reported":1747037743,"current_range_meters":20400,"station_id":"ce4bhg92rcd13ifvqf90","pricing_plan_id":"cebpf4jnsgd1na2vs0mg"},{"bike_id":"7f9abf71-8019-498c-8243-8b5ce9ff851e","system_id":"levelo_inurba_marseille","lat":43.298539,"lon":5.362953,"is_reserved":false,"is_disabled":true,"rental_uris":{"android":"levelo://app?vid=7f9abf71-8019-498c-8243-8b5ce9ff851e","ios":"levelo://app?vid=7f9abf71-8019-498c-8243-8b5ce9ff851e"},"vehicle_type_id":"4","last_reported":1747037743,"current_range_meters":20400,"station_id":"","pricing_plan_id":"cebpf4jnsgd1na2vs0mg"},{"bike_id":"5c544d8d-bf21-4814-a71e-d81bf0190338","system_id":"levelo_inurba_marseille","lat":43.30949,"lon":5.39034,"is_reserved":false,"is_disabled":false,"rental_uris":{"android":"levelo://app?vid=5c544d8d-bf21-4814-a71e-d81bf0190338","ios":"levelo://app?vid=5c544d8d-bf21-4814-a71e-d81bf0190338"},"vehicle_type_id":"4","last_reported":1747037743,"current_range_meters":20800,"station_id":"","pricing_plan_id":"cebpf4jnsgd1na2vs0mg"},{"bike_id":"dc53d17a-6042-4f83-8552-4e608df3f076","system_id":"levelo_inurba_marseille","lat":43.25518,"lon":5.40093,"is_reserved":false,"is_disabled":false,"rental_uris":{"android":"levelo://app?vid=dc53d17a-6042-4f83-8552-4e608df3f076","ios":"levelo://app?vid=dc53d17a-6042-4f83-8552-4e608df3f076"},"vehicle_type_id":"4","last_reported":1747037743,"current_range_meters":20800,"station_id":"","pricing_plan_id":"cebpf4jnsgd1na2vs0mg"},{"bike_id":"cc25aae6-3197-44f8-8471-8a0efb35cc4f","system_id":"levelo_inurba_marseille","lat":43.30614,"lon":5.36544,"is_reserved":false,"is_disabled":true,"rental_uris":{"android":"levelo://app?vid=cc25aae6-3197-44f8-8471-8a0efb35cc4f","ios":"levelo://app?vid=cc25aae6-3197-44f8-8471-8a0efb35cc4f"},"vehicle_type_id":"4","last_reported":1747037743,"current_range_meters":20800,"station_id":"","pricing_plan_id":"cebpf4jnsgd1na2vs0mg"},{"bike_id":"32573e92-7eb7-4f88-a70f-c0ec9a65849a","system_id":"levelo_inurba_marseille","lat":43.30597,"lon":5.37231,"is_reserved":false,"is_disabled":false,"rental_uris":{"android":"levelo://app?vid=32573e92-7eb7-4f88-a70f-c0ec9a65849a","ios":"levelo://app?vid=32573e92-7eb7-4f88-a70f-c0ec9a65849a"},"vehicle_type_id":"4","last_reported":1747037743,"current_range_meters":20800,"station_id":"ce4bgqh2rcd13ifvqc4g","pricing_plan_id":"cebpf4jnsgd1na2vs0mg"},{"bike_id":"504380e2-220e-4851-8fb5-3d12b71f87de","system_id":"levelo_inurba_marseille","lat":43.309093,"lon":5.36855,"is_reserved":false,"is_disabled":false,"rental_uris":{"android":"levelo://app?vid=504380e2-220e-4851-8fb5-3d12b71f87de","ios":"levelo://app?vid=504380e2-220e-4851-8fb5-3d12b71f87de"},"vehicle_type_id":"4","last_reported":1747037743,"current_range_meters":20800,"station_id":"ce4bgn92rcd13ifvqbvg","pricing_plan_id":"cebpf4jnsgd1na2vs0mg"},{"bike_id":"dbd895d8-924b-478f-bd90-1998095e67fd","system_id":"levelo_inurba_marseille","lat":43.25879,"lon":5.39893,"is_reserved":false,"is_disabled":false,"rental_uris":{"android":"levelo://app?vid=dbd895d8-924b-478f-bd90-1998095e67fd","ios":"levelo://app?vid=dbd895d8-924b-478f-bd90-1998095e67fd"},"vehicle_type_id":"4","last_reported":1747037743,"current_range_meters":21600,"station_id":"ce4bhl92rcd13ifvqghg","pricing_plan_id":"cebpf4jnsgd1na2vs0mg"},{"bike_id":"d3cbc46f-5375-4d60-978c-d259ee44514f","system_id":"levelo_inurba_marseille","lat":43.29308,"lon":5.37467,"is_reserved":false,"is_disabled":true,"rental_uris":{"android":"levelo://app?vid=d3cbc46f-5375-4d60-978c-d259ee44514f","ios":"levelo://app?vid=d3cbc46f-5375-4d60-978c-d259ee44514f"},"vehicle_type_id":"4","last_reported":1747037743,"current_range_meters":21600,"station_id":"","pricing_plan_id":"cebpf4jnsgd1na2vs0mg"},{"bike_id":"3659918b-71e8-4d35-8c1a-31662964ae88","system_id":"levelo_inurba_marseille","lat":43.30793,"lon":5.43526,"is_reserved":false,"is_disabled":false,"rental_uris":{"android":"levelo://app?vid=3659918b-71e8-4d35-8c1a-31662964ae88","ios":"levelo://app?vid=3659918b-71e8-4d35-8c1a-31662964ae88"},"vehicle_type_id":"4","last_reported":1747037743,"current_range_meters":20800,"station_id":"ce4bhph2rcd13ifvqheg","pricing_plan_id":"cebpf4jnsgd1na2vs0mg"},{"bike_id":"8de0a9a3-7e07-4fff-90c6-2e6a7262b942","system_id":"levelo_inurba_marseille","lat":43.31199,"lon":5.36863,"is_reserved":false,"is_disabled":false,"rental_uris":{"android":"levelo://app?vid=8de0a9a3-7e07-4fff-90c6-2e6a7262b942","ios":"levelo://app?vid=8de0a9a3-7e07-4fff-90c6-2e6a7262b942"},"vehicle_type_id":"4","last_reported":1747037743,"current_range_meters":21600,"station_id":"ce4bgl92rcd13ifvqbq0","pricing_plan_id":"cebpf4jnsgd1na2vs0mg"},{"bike_id":"94aecf60-80e2-4740-9194-acfe27b5c88e","system_id":"levelo_inurba_marseille","lat":43.27496,"lon":5.42451,"is_reserved":false,"is_disabled":false,"rental_uris":{"android":"levelo://app?vid=94aecf60-80e2-4740-9194-acfe27b5c88e","ios":"levelo://app?vid=94aecf60-80e2-4740-9194-acfe27b5c88e"},"vehicle_type_id":"4","last_reported":1747037743,"current_range_meters":21600,"station_id":"ce4bhn92rcd13ifvqgrg","pricing_plan_id":"cebpf4jnsgd1na2vs0mg"},{"bike_id":"fc3a7349-b974-4225-b326-69dcdbf47e88","system_id":"levelo_inurba_marseille","lat":43.30464,"lon":5.37905,"is_reserved":false,"is_disabled":false,"rental_uris":{"android":"levelo://app?vid=fc3a7349-b974-4225-b326-69dcdbf47e88","ios":"levelo://app?vid=fc3a7349-b974-4225-b326-69dcdbf47e88"},"vehicle_type_id":"4","last_reported":1747037743,"current_range_meters":21600,"station_id":"ce4bgup2rcd13ifvqcn0","pricing_plan_id":"cebpf4jnsgd1na2vs0mg"},{"bike_id":"986f1567-4a9f-471e-ad2c-3c962c5d9526","system_id":"levelo_inurba_marseille","lat":43.281317,"lon":5.386067,"is_reserved":false,"is_disabled":true,"rental_uris":{"android":"levelo://app?vid=986f1567-4a9f-471e-ad2c-3c962c5d9526","ios":"levelo://app?vid=986f1567-4a9f-471e-ad2c-3c962c5d9526"},"vehicle_type_id":"4","last_reported":1747037743,"current_range_meters":21600,"station_id":"","pricing_plan_id":"cebpf4jnsgd1na2vs0mg"},{"bike_id":"0bf9c336-2203-4801-89d0-7d5a9c844224","system_id":"levelo_inurba_marseille","lat":43.27497,"lon":5.42446,"is_reserved":false,"is_disabled":false,"rental_uris":{"android":"levelo://app?vid=0bf9c336-2203-4801-89d0-7d5a9c844224","ios":"levelo://app?vid=0bf9c336-2203-4801-89d0-7d5a9c844224"},"vehicle_type_id":"4","last_reported":1747037743,"current_range_meters":21600,"station_id":"ce4bhn92rcd13ifvqgrg","pricing_plan_id":"cebpf4jnsgd1na2vs0mg"},{"bike_id":"feaed5e1-8dfb-4df7-bd3a-9eb769163c1a","system_id":"levelo_inurba_marseille","lat":43.30905,"lon":5.36841,"is_reserved":false,"is_disabled":false,"rental_uris":{"android":"levelo://app?vid=feaed5e1-8dfb-4df7-bd3a-9eb769163c1a","ios":"levelo://app?vid=feaed5e1-8dfb-4df7-bd3a-9eb769163c1a"},"vehicle_type_id":"4","last_reported":1747037743,"current_range_meters":21600,"station_id":"ce4bgn92rcd13ifvqbvg","pricing_plan_id":"cebpf4jnsgd1na2vs0mg"},{"bike_id":"0ff5100d-86c0-4f46-bc4c-c1d779085578","system_id":"levelo_inurba_marseille","lat":43.23177,"lon":5.39984,"is_reserved":false,"is_disabled":false,"rental_uris":{"android":"levelo://app?vid=0ff5100d-86c0-4f46-bc4c-c1d779085578","ios":"levelo://app?vid=0ff5100d-86c0-4f46-bc4c-c1d779085578"},"vehicle_type_id":"4","last_reported":1747037743,"current_range_meters":22000,"station_id":"ce4bhn12rcd13ifvqgqg","pricing_plan_id":"cebpf4jnsgd1na2vs0mg"},{"bike_id":"77f04649-f9d2-4222-99e5-75d958567933","system_id":"levelo_inurba_marseille","lat":43.25916,"lon":5.40897,"is_reserved":false,"is_disabled":false,"rental_uris":{"android":"levelo://app?vid=77f04649-f9d2-4222-99e5-75d958567933","ios":"levelo://app?vid=77f04649-f9d2-4222-99e5-75d958567933"},"vehicle_type_id":"4","last_reported":1747037743,"current_range_meters":22000,"station_id":"ce4bhm92rcd13ifvqglg","pricing_plan_id":"cebpf4jnsgd1na2vs0mg"},{"bike_id":"fcf9463b-401b-4157-a5a9-4c36ca7d015d","system_id":"levelo_inurba_marseille","lat":43.306769,"lon":5.370524,"is_reserved":false,"is_disabled":false,"rental_uris":{"android":"levelo://app?vid=fcf9463b-401b-4157-a5a9-4c36ca7d015d","ios":"levelo://app?vid=fcf9463b-401b-4157-a5a9-4c36ca7d015d"},"vehicle_type_id":"4","last_reported":1747037743,"current_range_meters":22000,"station_id":"","pricing_plan_id":"cebpf4jnsgd1na2vs0mg"},{"bike_id":"02ad220e-4f4a-4d8d-96bd-3ecf889fe3eb","system_id":"levelo_inurba_marseille","lat":43.29848,"lon":5.36281,"is_reserved":false,"is_disabled":false,"rental_uris":{"android":"levelo://app?vid=02ad220e-4f4a-4d8d-96bd-3ecf889fe3eb","ios":"levelo://app?vid=02ad220e-4f4a-4d8d-96bd-3ecf889fe3eb"},"vehicle_type_id":"4","last_reported":1747037743,"current_range_meters":22000,"station_id":"ce4bgpp2rcd13ifvqc3g","pricing_plan_id":"cebpf4jnsgd1na2vs0mg"},{"bike_id":"025b2018-5ff3-4c4c-9661-1931d34e9be8","system_id":"levelo_inurba_marseille","lat":43.23597,"lon":5.36054,"is_reserved":false,"is_disabled":true,"rental_uris":{"android":"levelo://app?vid=025b2018-5ff3-4c4c-9661-1931d34e9be8","ios":"levelo://app?vid=025b2018-5ff3-4c4c-9661-1931d34e9be8"},"vehicle_type_id":"4","last_reported":1747037743,"current_range_meters":22000,"station_id":"","pricing_plan_id":"cebpf4jnsgd1na2vs0mg"},{"bike_id":"7836b4bc-7d58-466b-be3c-0a70e9c2ba81","system_id":"levelo_inurba_marseille","lat":43.30559,"lon":5.36543,"is_reserved":false,"is_disabled":false,"rental_uris":{"android":"levelo://app?vid=7836b4bc-7d58-466b-be3c-0a70e9c2ba81","ios":"levelo://app?vid=7836b4bc-7d58-466b-be3c-0a70e9c2ba81"},"vehicle_type_id":"4","last_reported":1747037743,"current_range_meters":22000,"station_id":"ce4bgs12rcd13ifvqcag","pricing_plan_id":"cebpf4jnsgd1na2vs0mg"},{"bike_id":"b5bf798b-62b6-4c83-b4af-1967f8178485","system_id":"levelo_inurba_marseille","lat":43.34152,"lon":5.40911,"is_reserved":false,"is_disabled":false,"rental_uris":{"android":"levelo://app?vid=b5bf798b-62b6-4c83-b4af-1967f8178485","ios":"levelo://app?vid=b5bf798b-62b6-4c83-b4af-1967f8178485"},"vehicle_type_id":"4","last_reported":1747037743,"current_range_meters":22400,"station_id":"ce4bhqh2rcd13ifvqhlg","pricing_plan_id":"cebpf4jnsgd1na2vs0mg"},{"bike_id":"e7158a9a-3af1-4d8c-8e6a-5473923438db","system_id":"levelo_inurba_marseille","lat":43.30949,"lon":5.39046,"is_reserved":false,"is_disabled":false,"rental_uris":{"android":"levelo://app?vid=e7158a9a-3af1-4d8c-8e6a-5473923438db","ios":"levelo://app?vid=e7158a9a-3af1-4d8c-8e6a-5473923438db"},"vehicle_type_id":"4","last_reported":1747037743,"current_range_meters":22400,"station_id":"ce4bgup2rcd13ifvqco0","pricing_plan_id":"cebpf4jnsgd1na2vs0mg"},{"bike_id":"c8e3f745-b06b-4bed-911e-4375e67ee469","system_id":"levelo_inurba_marseille","lat":43.25929,"lon":5.40905,"is_reserved":false,"is_disabled":false,"rental_uris":{"android":"levelo://app?vid=c8e3f745-b06b-4bed-911e-4375e67ee469","ios":"levelo://app?vid=c8e3f745-b06b-4bed-911e-4375e67ee469"},"vehicle_type_id":"4","last_reported":1747037743,"current_range_meters":22400,"station_id":"ce4bhm92rcd13ifvqglg","pricing_plan_id":"cebpf4jnsgd1na2vs0mg"},{"bike_id":"a2ca5ede-ce4f-4c21-a020-bb0d99beeee4","system_id":"levelo_inurba_marseille","lat":43.25929,"lon":5.40896,"is_reserved":false,"is_disabled":false,"rental_uris":{"android":"levelo://app?vid=a2ca5ede-ce4f-4c21-a020-bb0d99beeee4","ios":"levelo://app?vid=a2ca5ede-ce4f-4c21-a020-bb0d99beeee4"},"vehicle_type_id":"4","last_reported":1747037743,"current_range_meters":22400,"station_id":"ce4bhm92rcd13ifvqglg","pricing_plan_id":"cebpf4jnsgd1na2vs0mg"},{"bike_id":"0b130e14-e91f-4ca7-953c-36d02ceb7060","system_id":"levelo_inurba_marseille","lat":43.24545,"lon":5.39524,"is_reserved":false,"is_disabled":false,"rental_uris":{"android":"levelo://app?vid=0b130e14-e91f-4ca7-953c-36d02ceb7060","ios":"levelo://app?vid=0b130e14-e91f-4ca7-953c-36d02ceb7060"},"vehicle_type_id":"4","last_reported":1747037743,"current_range_meters":22000,"station_id":"ce4bhlp2rcd13ifvqgjg","pricing_plan_id":"cebpf4jnsgd1na2vs0mg"},{"bike_id":"45eb10b2-1312-490c-9fcf-3c7991e677d0","system_id":"levelo_inurba_marseille","lat":43.29861,"lon":5.36255,"is_reserved":false,"is_disabled":false,"rental_uris":{"android":"levelo://app?vid=45eb10b2-1312-490c-9fcf-3c7991e677d0","ios":"levelo://app?vid=45eb10b2-1312-490c-9fcf-3c7991e677d0"},"vehicle_type_id":"4","last_reported":1747037743,"current_range_meters":22400,"station_id":"ce4bgpp2rcd13ifvqc3g","pricing_plan_id":"cebpf4jnsgd1na2vs0mg"},{"bike_id":"652ef3a5-dc7f-481e-bd9b-81fde3255843","system_id":"levelo_inurba_marseille","lat":43.2895,"lon":5.36393,"is_reserved":false,"is_disabled":false,"rental_uris":{"android":"levelo://app?vid=652ef3a5-dc7f-481e-bd9b-81fde3255843","ios":"levelo://app?vid=652ef3a5-dc7f-481e-bd9b-81fde3255843"},"vehicle_type_id":"4","last_reported":1747037743,"current_range_meters":22400,"station_id":"ce4bhc92rcd13ifvqetg","pricing_plan_id":"cebpf4jnsgd1na2vs0mg"},{"bike_id":"8584741d-2a43-4b7c-9b55-91100baec944","system_id":"levelo_inurba_marseille","lat":43.29841,"lon":5.36272,"is_reserved":false,"is_disabled":false,"rental_uris":{"android":"levelo://app?vid=8584741d-2a43-4b7c-9b55-91100baec944","ios":"levelo://app?vid=8584741d-2a43-4b7c-9b55-91100baec944"},"vehicle_type_id":"4","last_reported":1747037743,"current_range_meters":22400,"station_id":"ce4bgpp2rcd13ifvqc3g","pricing_plan_id":"cebpf4jnsgd1na2vs0mg"},{"bike_id":"fc672f5c-5de6-47b7-a817-76fa969196d1","system_id":"levelo_inurba_marseille","lat":43.24172,"lon":5.3973,"is_reserved":false,"is_disabled":false,"rental_uris":{"android":"levelo://app?vid=fc672f5c-5de6-47b7-a817-76fa969196d1","ios":"levelo://app?vid=fc672f5c-5de6-47b7-a817-76fa969196d1"},"vehicle_type_id":"4","last_reported":1747037743,"current_range_meters":22400,"station_id":"ce4bhn12rcd13ifvqgpg","pricing_plan_id":"cebpf4jnsgd1na2vs0mg"},{"bike_id":"53c5158b-8654-45d3-9c36-b5bb183b0340","system_id":"levelo_inurba_marseille","lat":43.29257,"lon":5.37632,"is_reserved":false,"is_disabled":false,"rental_uris":{"android":"levelo://app?vid=53c5158b-8654-45d3-9c36-b5bb183b0340","ios":"levelo://app?vid=53c5158b-8654-45d3-9c36-b5bb183b0340"},"vehicle_type_id":"4","last_reported":1747037743,"current_range_meters":22400,"station_id":"ce4bgi12rcd13ifvqb80","pricing_plan_id":"cebpf4jnsgd1na2vs0mg"},{"bike_id":"2adb4982-84b6-4db5-b0a1-e420a44635c4","system_id":"levelo_inurba_marseille","lat":43.24165,"lon":5.36392,"is_reserved":false,"is_disabled":false,"rental_uris":{"android":"levelo://app?vid=2adb4982-84b6-4db5-b0a1-e420a44635c4","ios":"levelo://app?vid=2adb4982-84b6-4db5-b0a1-e420a44635c4"},"vehicle_type_id":"4","last_reported":1747037743,"current_range_meters":22400,"station_id":"cpo36qri1sfpv3e86is0","pricing_plan_id":"cebpf4jnsgd1na2vs0mg"},{"bike_id":"ea5f4cd8-3650-4c02-bb6d-7c8641e06da7","system_id":"levelo_inurba_marseille","lat":43.30915,"lon":5.36852,"is_reserved":false,"is_disabled":false,"rental_uris":{"android":"levelo://app?vid=ea5f4cd8-3650-4c02-bb6d-7c8641e06da7","ios":"levelo://app?vid=ea5f4cd8-3650-4c02-bb6d-7c8641e06da7"},"vehicle_type_id":"4","last_reported":1747037743,"current_range_meters":22800,"station_id":"ce4bgn92rcd13ifvqbvg","pricing_plan_id":"cebpf4jnsgd1na2vs0mg"},{"bike_id":"a3c1f81e-2f52-49e5-b67d-66511957d98c","system_id":"levelo_inurba_marseille","lat":43.27309,"lon":5.39082,"is_reserved":false,"is_disabled":false,"rental_uris":{"android":"levelo://app?vid=a3c1f81e-2f52-49e5-b67d-66511957d98c","ios":"levelo://app?vid=a3c1f81e-2f52-49e5-b67d-66511957d98c"},"vehicle_type_id":"4","last_reported":1747037743,"current_range_meters":22800,"station_id":"ce4bhgp2rcd13ifvqfe0","pricing_plan_id":"cebpf4jnsgd1na2vs0mg"},{"bike_id":"ca70da56-e1dc-4125-9d67-13fa2947c4d5","system_id":"levelo_inurba_marseille","lat":43.26556,"lon":5.37282,"is_reserved":false,"is_disabled":false,"rental_uris":{"android":"levelo://app?vid=ca70da56-e1dc-4125-9d67-13fa2947c4d5","ios":"levelo://app?vid=ca70da56-e1dc-4125-9d67-13fa2947c4d5"},"vehicle_type_id":"4","last_reported":1747037743,"current_range_meters":22800,"station_id":"ce4bhg12rcd13ifvqf70","pricing_plan_id":"cebpf4jnsgd1na2vs0mg"},{"bike_id":"3b53ac3a-b5bc-4b31-bcbe-57a1dd409a2a","system_id":"levelo_inurba_marseille","lat":43.29811,"lon":5.38095,"is_reserved":false,"is_disabled":false,"rental_uris":{"android":"levelo://app?vid=3b53ac3a-b5bc-4b31-bcbe-57a1dd409a2a","ios":"levelo://app?vid=3b53ac3a-b5bc-4b31-bcbe-57a1dd409a2a"},"vehicle_type_id":"4","last_reported":1747037743,"current_range_meters":22800,"station_id":"ce4bgip2rcd13ifvqbb0","pricing_plan_id":"cebpf4jnsgd1na2vs0mg"},{"bike_id":"8c762d58-fcbe-4c12-b06c-364f35e644c9","system_id":"levelo_inurba_marseille","lat":43.295736,"lon":5.375217,"is_reserved":false,"is_disabled":false,"rental_uris":{"android":"levelo://app?vid=8c762d58-fcbe-4c12-b06c-364f35e644c9","ios":"levelo://app?vid=8c762d58-fcbe-4c12-b06c-364f35e644c9"},"vehicle_type_id":"4","last_reported":1747037743,"current_range_meters":22800,"station_id":"ce4bgi92rcd13ifvqb90","pricing_plan_id":"cebpf4jnsgd1na2vs0mg"},{"bike_id":"e732ad4b-234a-4e91-83fb-753764661738","system_id":"levelo_inurba_marseille","lat":43.23179,"lon":5.39992,"is_reserved":false,"is_disabled":false,"rental_uris":{"android":"levelo://app?vid=e732ad4b-234a-4e91-83fb-753764661738","ios":"levelo://app?vid=e732ad4b-234a-4e91-83fb-753764661738"},"vehicle_type_id":"4","last_reported":1747037743,"current_range_meters":21600,"station_id":"ce4bhn12rcd13ifvqgqg","pricing_plan_id":"cebpf4jnsgd1na2vs0mg"},{"bike_id":"1fe5cd3c-b89c-47be-8fa0-fbcac5696485","system_id":"levelo_inurba_marseille","lat":43.26562,"lon":5.39013,"is_reserved":false,"is_disabled":false,"rental_uris":{"android":"levelo://app?vid=1fe5cd3c-b89c-47be-8fa0-fbcac5696485","ios":"levelo://app?vid=1fe5cd3c-b89c-47be-8fa0-fbcac5696485"},"vehicle_type_id":"4","last_reported":1747037743,"current_range_meters":22800,"station_id":"ce4bhe12rcd13ifvqf30","pricing_plan_id":"cebpf4jnsgd1na2vs0mg"},{"bike_id":"3253283c-395b-44a0-adfb-9fad390f2066","system_id":"levelo_inurba_marseille","lat":43.3133,"lon":5.39687,"is_reserved":false,"is_disabled":false,"rental_uris":{"android":"levelo://app?vid=3253283c-395b-44a0-adfb-9fad390f2066","ios":"levelo://app?vid=3253283c-395b-44a0-adfb-9fad390f2066"},"vehicle_type_id":"4","last_reported":1747037743,"current_range_meters":22400,"station_id":"ce4bgvp2rcd13ifvqcu0","pricing_plan_id":"cebpf4jnsgd1na2vs0mg"},{"bike_id":"61573251-66a1-44f9-a20c-38b4c14d0973","system_id":"levelo_inurba_marseille","lat":43.28105,"lon":5.37832,"is_reserved":false,"is_disabled":false,"rental_uris":{"android":"levelo://app?vid=61573251-66a1-44f9-a20c-38b4c14d0973","ios":"levelo://app?vid=61573251-66a1-44f9-a20c-38b4c14d0973"},"vehicle_type_id":"4","last_reported":1747037743,"current_range_meters":22800,"station_id":"ce4bha12rcd13ifvqee0","pricing_plan_id":"cebpf4jnsgd1na2vs0mg"},{"bike_id":"258115f8-73f8-4d77-b694-726fe88922f3","system_id":"levelo_inurba_marseille","lat":43.29528,"lon":5.39037,"is_reserved":false,"is_disabled":false,"rental_uris":{"android":"levelo://app?vid=258115f8-73f8-4d77-b694-726fe88922f3","ios":"levelo://app?vid=258115f8-73f8-4d77-b694-726fe88922f3"},"vehicle_type_id":"4","last_reported":1747037743,"current_range_meters":23200,"station_id":"ce4bh3p2rcd13ifvqdp0","pricing_plan_id":"cebpf4jnsgd1na2vs0mg"},{"bike_id":"31aff3d1-8b7d-44bd-941e-c886557a73c4","system_id":"levelo_inurba_marseille","lat":43.27495,"lon":5.42458,"is_reserved":false,"is_disabled":false,"rental_uris":{"android":"levelo://app?vid=31aff3d1-8b7d-44bd-941e-c886557a73c4","ios":"levelo://app?vid=31aff3d1-8b7d-44bd-941e-c886557a73c4"},"vehicle_type_id":"4","last_reported":1747037743,"current_range_meters":23200,"station_id":"ce4bhn92rcd13ifvqgrg","pricing_plan_id":"cebpf4jnsgd1na2vs0mg"},{"bike_id":"c1f18fd5-4aec-4849-a2f8-621a6dc32ec1","system_id":"levelo_inurba_marseille","lat":43.3038,"lon":5.42479,"is_reserved":false,"is_disabled":false,"rental_uris":{"android":"levelo://app?vid=c1f18fd5-4aec-4849-a2f8-621a6dc32ec1","ios":"levelo://app?vid=c1f18fd5-4aec-4849-a2f8-621a6dc32ec1"},"vehicle_type_id":"4","last_reported":1747037743,"current_range_meters":23200,"station_id":"ce4bhoh2rcd13ifvqh6g","pricing_plan_id":"cebpf4jnsgd1na2vs0mg"},{"bike_id":"5728e68c-f162-4e22-b613-26d103e45857","system_id":"levelo_inurba_marseille","lat":43.25918,"lon":5.40894,"is_reserved":false,"is_disabled":false,"rental_uris":{"android":"levelo://app?vid=5728e68c-f162-4e22-b613-26d103e45857","ios":"levelo://app?vid=5728e68c-f162-4e22-b613-26d103e45857"},"vehicle_type_id":"4","last_reported":1747037743,"current_range_meters":23200,"station_id":"ce4bhm92rcd13ifvqglg","pricing_plan_id":"cebpf4jnsgd1na2vs0mg"},{"bike_id":"9f480ce6-71eb-46d6-af21-ed9d3348125b","system_id":"levelo_inurba_marseille","lat":43.3148,"lon":5.3731,"is_reserved":false,"is_disabled":false,"rental_uris":{"android":"levelo://app?vid=9f480ce6-71eb-46d6-af21-ed9d3348125b","ios":"levelo://app?vid=9f480ce6-71eb-46d6-af21-ed9d3348125b"},"vehicle_type_id":"4","last_reported":1747037743,"current_range_meters":23200,"station_id":"ce4bgt12rcd13ifvqcd0","pricing_plan_id":"cebpf4jnsgd1na2vs0mg"},{"bike_id":"6144ad03-1e2b-4d52-86c0-aa5bb18d5e62","system_id":"levelo_inurba_marseille","lat":43.30912,"lon":5.36842,"is_reserved":false,"is_disabled":false,"rental_uris":{"android":"levelo://app?vid=6144ad03-1e2b-4d52-86c0-aa5bb18d5e62","ios":"levelo://app?vid=6144ad03-1e2b-4d52-86c0-aa5bb18d5e62"},"vehicle_type_id":"4","last_reported":1747037743,"current_range_meters":24000,"station_id":"ce4bgn92rcd13ifvqbvg","pricing_plan_id":"cebpf4jnsgd1na2vs0mg"},{"bike_id":"9190df99-a307-433e-90e0-340a66f17de6","system_id":"levelo_inurba_marseille","lat":43.25921,"lon":5.40905,"is_reserved":false,"is_disabled":false,"rental_uris":{"android":"levelo://app?vid=9190df99-a307-433e-90e0-340a66f17de6","ios":"levelo://app?vid=9190df99-a307-433e-90e0-340a66f17de6"},"vehicle_type_id":"4","last_reported":1747037743,"current_range_meters":24000,"station_id":"ce4bhm92rcd13ifvqglg","pricing_plan_id":"cebpf4jnsgd1na2vs0mg"},{"bike_id":"df6fd38e-7bfa-483c-bbb2-8a00977ac030","system_id":"levelo_inurba_marseille","lat":43.31685,"lon":5.40472,"is_reserved":false,"is_disabled":false,"rental_uris":{"android":"levelo://app?vid=df6fd38e-7bfa-483c-bbb2-8a00977ac030","ios":"levelo://app?vid=df6fd38e-7bfa-483c-bbb2-8a00977ac030"},"vehicle_type_id":"4","last_reported":1747037743,"current_range_meters":24000,"station_id":"ce4bh012rcd13ifvqd00","pricing_plan_id":"cebpf4jnsgd1na2vs0mg"},{"bike_id":"093772c5-fb44-482c-a0c3-8501aa31b989","system_id":"levelo_inurba_marseille","lat":43.29893,"lon":5.43678,"is_reserved":false,"is_disabled":true,"rental_uris":{"android":"levelo://app?vid=093772c5-fb44-482c-a0c3-8501aa31b989","ios":"levelo://app?vid=093772c5-fb44-482c-a0c3-8501aa31b989"},"vehicle_type_id":"4","last_reported":1747037743,"current_range_meters":24000,"station_id":"ce4bhpp2rcd13ifvqhfg","pricing_plan_id":"cebpf4jnsgd1na2vs0mg"},{"bike_id":"581a76c6-406f-436c-80cf-424046378536","system_id":"levelo_inurba_marseille","lat":43.23126,"lon":5.43722,"is_reserved":false,"is_disabled":false,"rental_uris":{"android":"levelo://app?vid=581a76c6-406f-436c-80cf-424046378536","ios":"levelo://app?vid=581a76c6-406f-436c-80cf-424046378536"},"vehicle_type_id":"4","last_reported":1747037743,"current_range_meters":24000,"station_id":"ce4bhmp2rcd13ifvqgog","pricing_plan_id":"cebpf4jnsgd1na2vs0mg"},{"bike_id":"408d9330-e303-418f-8f08-2214028633bb","system_id":"levelo_inurba_marseille","lat":43.31223,"lon":5.36858,"is_reserved":false,"is_disabled":false,"rental_uris":{"android":"levelo://app?vid=408d9330-e303-418f-8f08-2214028633bb","ios":"levelo://app?vid=408d9330-e303-418f-8f08-2214028633bb"},"vehicle_type_id":"4","last_reported":1747037743,"current_range_meters":24400,"station_id":"ce4bgl92rcd13ifvqbq0","pricing_plan_id":"cebpf4jnsgd1na2vs0mg"},{"bike_id":"21b355e8-84d0-4bc2-97c9-37a3f641d826","system_id":"levelo_inurba_marseille","lat":43.24154,"lon":5.39709,"is_reserved":false,"is_disabled":false,"rental_uris":{"android":"levelo://app?vid=21b355e8-84d0-4bc2-97c9-37a3f641d826","ios":"levelo://app?vid=21b355e8-84d0-4bc2-97c9-37a3f641d826"},"vehicle_type_id":"4","last_reported":1747037743,"current_range_meters":24400,"station_id":"ce4bhn12rcd13ifvqgpg","pricing_plan_id":"cebpf4jnsgd1na2vs0mg"},{"bike_id":"4d3578a6-c851-417b-8d9b-0884f2336443","system_id":"levelo_inurba_marseille","lat":43.30489,"lon":5.36716,"is_reserved":false,"is_disabled":false,"rental_uris":{"android":"levelo://app?vid=4d3578a6-c851-417b-8d9b-0884f2336443","ios":"levelo://app?vid=4d3578a6-c851-417b-8d9b-0884f2336443"},"vehicle_type_id":"4","last_reported":1747037743,"current_range_meters":24400,"station_id":"","pricing_plan_id":"cebpf4jnsgd1na2vs0mg"},{"bike_id":"f7b28b14-5137-4023-b1b7-b7e5bb33d722","system_id":"levelo_inurba_marseille","lat":43.2592,"lon":5.40862,"is_reserved":false,"is_disabled":false,"rental_uris":{"android":"levelo://app?vid=f7b28b14-5137-4023-b1b7-b7e5bb33d722","ios":"levelo://app?vid=f7b28b14-5137-4023-b1b7-b7e5bb33d722"},"vehicle_type_id":"4","last_reported":1747037743,"current_range_meters":24400,"station_id":"ce4bhm92rcd13ifvqglg","pricing_plan_id":"cebpf4jnsgd1na2vs0mg"},{"bike_id":"33d5bdca-18e5-45b1-9662-d20e6756bf73","system_id":"levelo_inurba_marseille","lat":43.303565,"lon":5.36483,"is_reserved":false,"is_disabled":false,"rental_uris":{"android":"levelo://app?vid=33d5bdca-18e5-45b1-9662-d20e6756bf73","ios":"levelo://app?vid=33d5bdca-18e5-45b1-9662-d20e6756bf73"},"vehicle_type_id":"4","last_reported":1747037743,"current_range_meters":24400,"station_id":"ce4bgpp2rcd13ifvqc3g","pricing_plan_id":"cebpf4jnsgd1na2vs0mg"},{"bike_id":"22076a30-cd42-4842-af66-be73565e119a","system_id":"levelo_inurba_marseille","lat":43.257278,"lon":5.41106,"is_reserved":false,"is_disabled":false,"rental_uris":{"android":"levelo://app?vid=22076a30-cd42-4842-af66-be73565e119a","ios":"levelo://app?vid=22076a30-cd42-4842-af66-be73565e119a"},"vehicle_type_id":"4","last_reported":1747037743,"current_range_meters":24400,"station_id":"ce4bhkp2rcd13ifvqgd0","pricing_plan_id":"cebpf4jnsgd1na2vs0mg"},{"bike_id":"99bdd88a-6c79-4c7b-9277-5e8dbca0d025","system_id":"levelo_inurba_marseille","lat":43.270768,"lon":5.422694,"is_reserved":false,"is_disabled":false,"rental_uris":{"android":"levelo://app?vid=99bdd88a-6c79-4c7b-9277-5e8dbca0d025","ios":"levelo://app?vid=99bdd88a-6c79-4c7b-9277-5e8dbca0d025"},"vehicle_type_id":"4","last_reported":1747037743,"current_range_meters":24400,"station_id":"ce4bhk92rcd13ifvqgb0","pricing_plan_id":"cebpf4jnsgd1na2vs0mg"},{"bike_id":"9b512796-5cf5-4e5c-bb20-3633a3a5db4f","system_id":"levelo_inurba_marseille","lat":43.29572,"lon":5.39978,"is_reserved":false,"is_disabled":false,"rental_uris":{"android":"levelo://app?vid=9b512796-5cf5-4e5c-bb20-3633a3a5db4f","ios":"levelo://app?vid=9b512796-5cf5-4e5c-bb20-3633a3a5db4f"},"vehicle_type_id":"4","last_reported":1747037743,"current_range_meters":24000,"station_id":"ce4bh312rcd13ifvqdj0","pricing_plan_id":"cebpf4jnsgd1na2vs0mg"},{"bike_id":"3bb76f8d-de22-4c8b-9c35-324f92e2c0ce","system_id":"levelo_inurba_marseille","lat":43.27338,"lon":5.39127,"is_reserved":false,"is_disabled":true,"rental_uris":{"android":"levelo://app?vid=3bb76f8d-de22-4c8b-9c35-324f92e2c0ce","ios":"levelo://app?vid=3bb76f8d-de22-4c8b-9c35-324f92e2c0ce"},"vehicle_type_id":"4","last_reported":1747037743,"current_range_meters":24400,"station_id":"ce4bhgp2rcd13ifvqfe0","pricing_plan_id":"cebpf4jnsgd1na2vs0mg"},{"bike_id":"b2d47361-f448-48d2-95ac-1d9d3d2a9642","system_id":"levelo_inurba_marseille","lat":43.30591,"lon":5.39359,"is_reserved":false,"is_disabled":false,"rental_uris":{"android":"levelo://app?vid=b2d47361-f448-48d2-95ac-1d9d3d2a9642","ios":"levelo://app?vid=b2d47361-f448-48d2-95ac-1d9d3d2a9642"},"vehicle_type_id":"4","last_reported":1747037743,"current_range_meters":24400,"station_id":"ce4bh0p2rcd13ifvqd80","pricing_plan_id":"cebpf4jnsgd1na2vs0mg"},{"bike_id":"fd388c54-4eb4-4f54-ace2-004153200feb","system_id":"levelo_inurba_marseille","lat":43.29284,"lon":5.37176,"is_reserved":false,"is_disabled":true,"rental_uris":{"android":"levelo://app?vid=fd388c54-4eb4-4f54-ace2-004153200feb","ios":"levelo://app?vid=fd388c54-4eb4-4f54-ace2-004153200feb"},"vehicle_type_id":"4","last_reported":1747037743,"current_range_meters":24400,"station_id":"ce4bgh92rcd13ifvqb40","pricing_plan_id":"cebpf4jnsgd1na2vs0mg"},{"bike_id":"07f1b24b-ba6d-438e-9eb4-f33d0faca218","system_id":"levelo_inurba_marseille","lat":43.34137,"lon":5.40907,"is_reserved":false,"is_disabled":false,"rental_uris":{"android":"levelo://app?vid=07f1b24b-ba6d-438e-9eb4-f33d0faca218","ios":"levelo://app?vid=07f1b24b-ba6d-438e-9eb4-f33d0faca218"},"vehicle_type_id":"4","last_reported":1747037743,"current_range_meters":24800,"station_id":"ce4bhqh2rcd13ifvqhlg","pricing_plan_id":"cebpf4jnsgd1na2vs0mg"},{"bike_id":"0d19f400-7a92-49b0-8bde-33c71d956a65","system_id":"levelo_inurba_marseille","lat":43.27501,"lon":5.42444,"is_reserved":false,"is_disabled":false,"rental_uris":{"android":"levelo://app?vid=0d19f400-7a92-49b0-8bde-33c71d956a65","ios":"levelo://app?vid=0d19f400-7a92-49b0-8bde-33c71d956a65"},"vehicle_type_id":"4","last_reported":1747037743,"current_range_meters":24800,"station_id":"ce4bhn92rcd13ifvqgrg","pricing_plan_id":"cebpf4jnsgd1na2vs0mg"},{"bike_id":"ebcadc07-4256-45d7-af27-ac3797fb9ed3","system_id":"levelo_inurba_marseille","lat":43.28421,"lon":5.37537,"is_reserved":false,"is_disabled":true,"rental_uris":{"android":"levelo://app?vid=ebcadc07-4256-45d7-af27-ac3797fb9ed3","ios":"levelo://app?vid=ebcadc07-4256-45d7-af27-ac3797fb9ed3"},"vehicle_type_id":"4","last_reported":1747037743,"current_range_meters":24800,"station_id":"ce4bh412rcd13ifvqds0","pricing_plan_id":"cebpf4jnsgd1na2vs0mg"},{"bike_id":"067a21ac-3f3f-4a38-a554-2cc54eb16272","system_id":"levelo_inurba_marseille","lat":43.24671,"lon":5.38139,"is_reserved":false,"is_disabled":false,"rental_uris":{"android":"levelo://app?vid=067a21ac-3f3f-4a38-a554-2cc54eb16272","ios":"levelo://app?vid=067a21ac-3f3f-4a38-a554-2cc54eb16272"},"vehicle_type_id":"4","last_reported":1747037743,"current_range_meters":24800,"station_id":"ce4bhih2rcd13ifvqfr0","pricing_plan_id":"cebpf4jnsgd1na2vs0mg"},{"bike_id":"7aa4e56d-5864-4ab7-bf77-b19631727168","system_id":"levelo_inurba_marseille","lat":43.29848,"lon":5.36268,"is_reserved":false,"is_disabled":false,"rental_uris":{"android":"levelo://app?vid=7aa4e56d-5864-4ab7-bf77-b19631727168","ios":"levelo://app?vid=7aa4e56d-5864-4ab7-bf77-b19631727168"},"vehicle_type_id":"4","last_reported":1747037743,"current_range_meters":24800,"station_id":"ce4bgpp2rcd13ifvqc3g","pricing_plan_id":"cebpf4jnsgd1na2vs0mg"},