{"last_updated":1781350460,"ttl":60,"version":"2.2","data":{"bikes":[{"bike_id":"ec12d144-24c8-4071-abf6-197e520eae96","system_id":"levelo_inurba_marseille","lat":43.337444,"lon":5.374475,"is_reserved":false,"is_disabled":false,"rental_uris":{"android":"levelo://app?vid=ec12d144-24c8-4071-abf6-197e520eae96","ios":"levelo://app?vid=ec12d144-24c8-4071-abf6-197e520eae96"},"vehicle_type_id":"4","last_reported":1781350461,"current_range_meters":0,"station_id":"","pricing_plan_id":"cebpf4jnsgd1na2vs0mg"},{"bike_id":"a55fb716-4065-4b0d-9549-e35b48436bf9","system_id":"levelo_inurba_marseille","lat":43.28851,"lon":5.35846,"is_reserved":false,"is_disabled":false,"rental_uris":{"android":"levelo://app?vid=a55fb716-4065-4b0d-9549-e35b48436bf9","ios":"levelo://app?vid=a55fb716-4065-4b0d-9549-e35b48436bf9"},"vehicle_type_id":"4","last_reported":1781350461,"current_range_meters":2800,"station_id":"ce4bhb12rcd13ifvqem0","pricing_plan_id":"cebpf4jnsgd1na2vs0mg"},{"bike_id":"497db4fe-414c-4f3e-9d03-238169542317","system_id":"levelo_inurba_marseille","lat":43.35127,"lon":5.35001,"is_reserved":false,"is_disabled":false,"rental_uris":{"android":"levelo://app?vid=497db4fe-414c-4f3e-9d03-238169542317","ios":"levelo://app?vid=497db4fe-414c-4f3e-9d03-238169542317"},"vehicle_type_id":"4","last_reported":1781350461,"current_range_meters":2800,"station_id":"","pricing_plan_id":"cebpf4jnsgd1na2vs0mg"},{"bike_id":"b6c56bf7-4f93-44e9-90e4-99081cb5245e","system_id":"levelo_inurba_marseille","lat":43.29719,"lon":5.37685,"is_reserved":false,"is_disabled":false,"rental_uris":{"android":"levelo://app?vid=b6c56bf7-4f93-44e9-90e4-99081cb5245e","ios":"levelo://app?vid=b6c56bf7-4f93-44e9-90e4-99081cb5245e"},"vehicle_type_id":"4","last_reported":1781350461,"current_range_meters":2800,"station_id":"ce4bgkh2rcd13ifvqbl0","pricing_plan_id":"cebpf4jnsgd1na2vs0mg"},{"bike_id":"c1870c4c-efac-4459-80ba-4771e4fcfeeb","system_id":"levelo_inurba_marseille","lat":43.21753,"lon":5.3459,"is_reserved":false,"is_disabled":false,"rental_uris":{"android":"levelo://app?vid=c1870c4c-efac-4459-80ba-4771e4fcfeeb","ios":"levelo://app?vid=c1870c4c-efac-4459-80ba-4771e4fcfeeb"},"vehicle_type_id":"4","last_reported":1781350461,"current_range_meters":2800,"station_id":"st_cvj6r9ubvosntc0bgbag","pricing_plan_id":"cebpf4jnsgd1na2vs0mg"},{"bike_id":"8e750df2-ca25-4fd3-ad86-d363c2540552","system_id":"levelo_inurba_marseille","lat":43.27065,"lon":5.40247,"is_reserved":false,"is_disabled":false,"rental_uris":{"android":"levelo://app?vid=8e750df2-ca25-4fd3-ad86-d363c2540552","ios":"levelo://app?vid=8e750df2-ca25-4fd3-ad86-d363c2540552"},"vehicle_type_id":"4","last_reported":1781350461,"current_range_meters":2800,"station_id":"ce4bhk92rcd13ifvqgc0","pricing_plan_id":"cebpf4jnsgd1na2vs0mg"},{"bike_id":"a2e601fa-08f5-4ed9-9ff3-d6b24bffc3c0","system_id":"levelo_inurba_marseille","lat":43.27371,"lon":5.36257,"is_reserved":false,"is_disabled":false,"rental_uris":{"android":"levelo://app?vid=a2e601fa-08f5-4ed9-9ff3-d6b24bffc3c0","ios":"levelo://app?vid=a2e601fa-08f5-4ed9-9ff3-d6b24bffc3c0"},"vehicle_type_id":"4","last_reported":1781350461,"current_range_meters":2800,"station_id":"ce4bhbh2rcd13ifvqeo0","pricing_plan_id":"cebpf4jnsgd1na2vs0mg"},{"bike_id":"edd7f6cf-c00d-4334-ba4f-ddda86c6a12e","system_id":"levelo_inurba_marseille","lat":43.30267,"lon":5.37706,"is_reserved":false,"is_disabled":false,"rental_uris":{"android":"levelo://app?vid=edd7f6cf-c00d-4334-ba4f-ddda86c6a12e","ios":"levelo://app?vid=edd7f6cf-c00d-4334-ba4f-ddda86c6a12e"},"vehicle_type_id":"4","last_reported":1781350461,"current_range_meters":2800,"station_id":"ce4bguh2rcd13ifvqcj0","pricing_plan_id":"cebpf4jnsgd1na2vs0mg"},{"bike_id":"83a0d0c1-c4fa-4fd8-8dd3-da22c90ce2a4","system_id":"levelo_inurba_marseille","lat":43.292195,"lon":5.360306,"is_reserved":false,"is_disabled":true,"rental_uris":{"android":"levelo://app?vid=83a0d0c1-c4fa-4fd8-8dd3-da22c90ce2a4","ios":"levelo://app?vid=83a0d0c1-c4fa-4fd8-8dd3-da22c90ce2a4"},"vehicle_type_id":"4","last_reported":1781350461,"current_range_meters":2800,"station_id":"ce4bhbh2rcd13ifvqeqg","pricing_plan_id":"cebpf4jnsgd1na2vs0mg"},{"bike_id":"6c149b80-daf1-4dc6-b899-1e8147e8b6f7","system_id":"levelo_inurba_marseille","lat":43.25081,"lon":5.40459,"is_reserved":false,"is_disabled":false,"rental_uris":{"android":"levelo://app?vid=6c149b80-daf1-4dc6-b899-1e8147e8b6f7","ios":"levelo://app?vid=6c149b80-daf1-4dc6-b899-1e8147e8b6f7"},"vehicle_type_id":"4","last_reported":1781350461,"current_range_meters":2800,"station_id":"","pricing_plan_id":"cebpf4jnsgd1na2vs0mg"},{"bike_id":"cdb51552-946c-4f57-8807-f1cfa55d450c","system_id":"levelo_inurba_marseille","lat":43.31545,"lon":5.37296,"is_reserved":false,"is_disabled":true,"rental_uris":{"android":"levelo://app?vid=cdb51552-946c-4f57-8807-f1cfa55d450c","ios":"levelo://app?vid=cdb51552-946c-4f57-8807-f1cfa55d450c"},"vehicle_type_id":"4","last_reported":1781350461,"current_range_meters":2800,"station_id":"","pricing_plan_id":"cebpf4jnsgd1na2vs0mg"},{"bike_id":"a23ce3ec-3394-4aa2-80b1-fe02c4daa772","system_id":"levelo_inurba_marseille","lat":43.29785,"lon":5.38101,"is_reserved":false,"is_disabled":false,"rental_uris":{"android":"levelo://app?vid=a23ce3ec-3394-4aa2-80b1-fe02c4daa772","ios":"levelo://app?vid=a23ce3ec-3394-4aa2-80b1-fe02c4daa772"},"vehicle_type_id":"4","last_reported":1781350461,"current_range_meters":2800,"station_id":"ce4bgip2rcd13ifvqbb0","pricing_plan_id":"cebpf4jnsgd1na2vs0mg"},{"bike_id":"11f41eef-b776-4660-8564-7303bd553c06","system_id":"levelo_inurba_marseille","lat":43.26203,"lon":5.37441,"is_reserved":false,"is_disabled":false,"rental_uris":{"android":"levelo://app?vid=11f41eef-b776-4660-8564-7303bd553c06","ios":"levelo://app?vid=11f41eef-b776-4660-8564-7303bd553c06"},"vehicle_type_id":"4","last_reported":1781350461,"current_range_meters":2800,"station_id":"ce4bhgp2rcd13ifvqfc0","pricing_plan_id":"cebpf4jnsgd1na2vs0mg"},{"bike_id":"dbcda9ae-c30a-47f2-91a8-8dac9b33d85e","system_id":"levelo_inurba_marseille","lat":43.2802,"lon":5.3602,"is_reserved":false,"is_disabled":false,"rental_uris":{"android":"levelo://app?vid=dbcda9ae-c30a-47f2-91a8-8dac9b33d85e","ios":"levelo://app?vid=dbcda9ae-c30a-47f2-91a8-8dac9b33d85e"},"vehicle_type_id":"4","last_reported":1781350461,"current_range_meters":2800,"station_id":"","pricing_plan_id":"cebpf4jnsgd1na2vs0mg"},{"bike_id":"bcfd0583-66ac-4ad0-8607-c56c22a87f69","system_id":"levelo_inurba_marseille","lat":43.29817,"lon":5.38093,"is_reserved":false,"is_disabled":false,"rental_uris":{"android":"levelo://app?vid=bcfd0583-66ac-4ad0-8607-c56c22a87f69","ios":"levelo://app?vid=bcfd0583-66ac-4ad0-8607-c56c22a87f69"},"vehicle_type_id":"4","last_reported":1781350461,"current_range_meters":2800,"station_id":"ce4bgip2rcd13ifvqbb0","pricing_plan_id":"cebpf4jnsgd1na2vs0mg"},{"bike_id":"c62338d9-deea-41a6-b5bf-481e3d2e8183","system_id":"levelo_inurba_marseille","lat":43.31142,"lon":5.3873,"is_reserved":false,"is_disabled":false,"rental_uris":{"android":"levelo://app?vid=c62338d9-deea-41a6-b5bf-481e3d2e8183","ios":"levelo://app?vid=c62338d9-deea-41a6-b5bf-481e3d2e8183"},"vehicle_type_id":"4","last_reported":1781350461,"current_range_meters":2800,"station_id":"","pricing_plan_id":"cebpf4jnsgd1na2vs0mg"},{"bike_id":"52e0ca30-f6db-4b40-a595-fe3e1b7ca10e","system_id":"levelo_inurba_marseille","lat":43.25118,"lon":5.40365,"is_reserved":false,"is_disabled":true,"rental_uris":{"android":"levelo://app?vid=52e0ca30-f6db-4b40-a595-fe3e1b7ca10e","ios":"levelo://app?vid=52e0ca30-f6db-4b40-a595-fe3e1b7ca10e"},"vehicle_type_id":"4","last_reported":1781350461,"current_range_meters":3200,"station_id":"ce4bhlh2rcd13ifvqgig","pricing_plan_id":"cebpf4jnsgd1na2vs0mg"},{"bike_id":"34d571b2-7447-44f4-ad5a-1e998394f77b","system_id":"levelo_inurba_marseille","lat":43.30351,"lon":5.4189,"is_reserved":false,"is_disabled":false,"rental_uris":{"android":"levelo://app?vid=34d571b2-7447-44f4-ad5a-1e998394f77b","ios":"levelo://app?vid=34d571b2-7447-44f4-ad5a-1e998394f77b"},"vehicle_type_id":"4","last_reported":1781350461,"current_range_meters":3200,"station_id":"ce4bhop2rcd13ifvqh7g","pricing_plan_id":"cebpf4jnsgd1na2vs0mg"},{"bike_id":"379f8066-5ce1-4a4c-bfaa-9fd9ac023697","system_id":"levelo_inurba_marseille","lat":43.30748,"lon":5.42459,"is_reserved":false,"is_disabled":false,"rental_uris":{"android":"levelo://app?vid=379f8066-5ce1-4a4c-bfaa-9fd9ac023697","ios":"levelo://app?vid=379f8066-5ce1-4a4c-bfaa-9fd9ac023697"},"vehicle_type_id":"4","last_reported":1781350461,"current_range_meters":3200,"station_id":"st_cvj6ca6bvosntc0bfgr0","pricing_plan_id":"cebpf4jnsgd1na2vs0mg"},{"bike_id":"cc96638a-9c2a-4b2c-a6c3-c28abc9d8717","system_id":"levelo_inurba_marseille","lat":43.28404,"lon":5.34991,"is_reserved":false,"is_disabled":false,"rental_uris":{"android":"levelo://app?vid=cc96638a-9c2a-4b2c-a6c3-c28abc9d8717","ios":"levelo://app?vid=cc96638a-9c2a-4b2c-a6c3-c28abc9d8717"},"vehicle_type_id":"4","last_reported":1781350461,"current_range_meters":3200,"station_id":"ce4bhbh2rcd13ifvqepg","pricing_plan_id":"cebpf4jnsgd1na2vs0mg"},{"bike_id":"b105e559-ad92-41ad-9bdf-4bd2f454dd68","system_id":"levelo_inurba_marseille","lat":43.3016,"lon":5.44946,"is_reserved":false,"is_disabled":false,"rental_uris":{"android":"levelo://app?vid=b105e559-ad92-41ad-9bdf-4bd2f454dd68","ios":"levelo://app?vid=b105e559-ad92-41ad-9bdf-4bd2f454dd68"},"vehicle_type_id":"4","last_reported":1781350461,"current_range_meters":3200,"station_id":"","pricing_plan_id":"cebpf4jnsgd1na2vs0mg"},{"bike_id":"9408fe7e-61df-4660-8fa2-c4c582e40e57","system_id":"levelo_inurba_marseille","lat":43.27207,"lon":5.39183,"is_reserved":false,"is_disabled":false,"rental_uris":{"android":"levelo://app?vid=9408fe7e-61df-4660-8fa2-c4c582e40e57","ios":"levelo://app?vid=9408fe7e-61df-4660-8fa2-c4c582e40e57"},"vehicle_type_id":"4","last_reported":1781350461,"current_range_meters":3200,"station_id":"ce4bhhp2rcd13ifvqfm0","pricing_plan_id":"cebpf4jnsgd1na2vs0mg"},{"bike_id":"a50af965-b87b-4f91-9b9a-3e26dc71f7c1","system_id":"levelo_inurba_marseille","lat":43.29057,"lon":5.43899,"is_reserved":false,"is_disabled":false,"rental_uris":{"android":"levelo://app?vid=a50af965-b87b-4f91-9b9a-3e26dc71f7c1","ios":"levelo://app?vid=a50af965-b87b-4f91-9b9a-3e26dc71f7c1"},"vehicle_type_id":"4","last_reported":1781350461,"current_range_meters":3200,"station_id":"","pricing_plan_id":"cebpf4jnsgd1na2vs0mg"},{"bike_id":"a4b5c841-081f-4864-9ad4-e1c7a6e60416","system_id":"levelo_inurba_marseille","lat":43.2376,"lon":5.36661,"is_reserved":false,"is_disabled":true,"rental_uris":{"android":"levelo://app?vid=a4b5c841-081f-4864-9ad4-e1c7a6e60416","ios":"levelo://app?vid=a4b5c841-081f-4864-9ad4-e1c7a6e60416"},"vehicle_type_id":"4","last_reported":1781350461,"current_range_meters":3200,"station_id":"st_d3nk18o9ro0c73en2l3g","pricing_plan_id":"cebpf4jnsgd1na2vs0mg"},{"bike_id":"b154e503-5e6b-4b2c-aea8-7afe1c19122c","system_id":"levelo_inurba_marseille","lat":43.28119,"lon":5.42648,"is_reserved":false,"is_disabled":false,"rental_uris":{"android":"levelo://app?vid=b154e503-5e6b-4b2c-aea8-7afe1c19122c","ios":"levelo://app?vid=b154e503-5e6b-4b2c-aea8-7afe1c19122c"},"vehicle_type_id":"4","last_reported":1781350461,"current_range_meters":3200,"station_id":"ce4bhnh2rcd13ifvqgug","pricing_plan_id":"cebpf4jnsgd1na2vs0mg"},{"bike_id":"b8c2173e-2315-4229-9130-367e90468e13","system_id":"levelo_inurba_marseille","lat":43.30537,"lon":5.36706,"is_reserved":false,"is_disabled":false,"rental_uris":{"android":"levelo://app?vid=b8c2173e-2315-4229-9130-367e90468e13","ios":"levelo://app?vid=b8c2173e-2315-4229-9130-367e90468e13"},"vehicle_type_id":"4","last_reported":1781350461,"current_range_meters":3200,"station_id":"ce4bgrp2rcd13ifvqc9g","pricing_plan_id":"cebpf4jnsgd1na2vs0mg"},{"bike_id":"95a6a820-080c-4047-9edc-2eab85cc3ea0","system_id":"levelo_inurba_marseille","lat":43.31246,"lon":5.37259,"is_reserved":false,"is_disabled":false,"rental_uris":{"android":"levelo://app?vid=95a6a820-080c-4047-9edc-2eab85cc3ea0","ios":"levelo://app?vid=95a6a820-080c-4047-9edc-2eab85cc3ea0"},"vehicle_type_id":"4","last_reported":1781350461,"current_range_meters":3200,"station_id":"","pricing_plan_id":"cebpf4jnsgd1na2vs0mg"},{"bike_id":"ee494397-ad1c-4b5e-80ed-9cc6e888762d","system_id":"levelo_inurba_marseille","lat":43.31886,"lon":5.42477,"is_reserved":false,"is_disabled":false,"rental_uris":{"android":"levelo://app?vid=ee494397-ad1c-4b5e-80ed-9cc6e888762d","ios":"levelo://app?vid=ee494397-ad1c-4b5e-80ed-9cc6e888762d"},"vehicle_type_id":"4","last_reported":1781350461,"current_range_meters":3200,"station_id":"","pricing_plan_id":"cebpf4jnsgd1na2vs0mg"},{"bike_id":"38babb72-1158-4cb5-9877-6fd79c7ff4ec","system_id":"levelo_inurba_marseille","lat":43.28416,"lon":5.34965,"is_reserved":false,"is_disabled":false,"rental_uris":{"android":"levelo://app?vid=38babb72-1158-4cb5-9877-6fd79c7ff4ec","ios":"levelo://app?vid=38babb72-1158-4cb5-9877-6fd79c7ff4ec"},"vehicle_type_id":"4","last_reported":1781350461,"current_range_meters":3200,"station_id":"ce4bhbh2rcd13ifvqepg","pricing_plan_id":"cebpf4jnsgd1na2vs0mg"},{"bike_id":"70f0bc29-7bd0-43d0-8163-83e56721f61e","system_id":"levelo_inurba_marseille","lat":43.21199,"lon":5.35076,"is_reserved":false,"is_disabled":false,"rental_uris":{"android":"levelo://app?vid=70f0bc29-7bd0-43d0-8163-83e56721f61e","ios":"levelo://app?vid=70f0bc29-7bd0-43d0-8163-83e56721f61e"},"vehicle_type_id":"4","last_reported":1781350461,"current_range_meters":3200,"station_id":"st_cvj6sg6p6f1abm77japg","pricing_plan_id":"cebpf4jnsgd1na2vs0mg"},{"bike_id":"9ce1846d-7f29-4225-a14b-463492552d29","system_id":"levelo_inurba_marseille","lat":43.28258,"lon":5.35073,"is_reserved":false,"is_disabled":false,"rental_uris":{"android":"levelo://app?vid=9ce1846d-7f29-4225-a14b-463492552d29","ios":"levelo://app?vid=9ce1846d-7f29-4225-a14b-463492552d29"},"vehicle_type_id":"4","last_reported":1781350461,"current_range_meters":3200,"station_id":"ce4bhbp2rcd13ifvqerg","pricing_plan_id":"cebpf4jnsgd1na2vs0mg"},{"bike_id":"4bbd9026-ac9b-4dc1-97ad-6610089734db","system_id":"levelo_inurba_marseille","lat":43.31567,"lon":5.38798,"is_reserved":false,"is_disabled":false,"rental_uris":{"android":"levelo://app?vid=4bbd9026-ac9b-4dc1-97ad-6610089734db","ios":"levelo://app?vid=4bbd9026-ac9b-4dc1-97ad-6610089734db"},"vehicle_type_id":"4","last_reported":1781350461,"current_range_meters":3600,"station_id":"","pricing_plan_id":"cebpf4jnsgd1na2vs0mg"},{"bike_id":"62a7283c-3986-4a36-a4a9-466e25d3d521","system_id":"levelo_inurba_marseille","lat":43.26948,"lon":5.38926,"is_reserved":false,"is_disabled":true,"rental_uris":{"android":"levelo://app?vid=62a7283c-3986-4a36-a4a9-466e25d3d521","ios":"levelo://app?vid=62a7283c-3986-4a36-a4a9-466e25d3d521"},"vehicle_type_id":"4","last_reported":1781350461,"current_range_meters":3600,"station_id":"ce4bhhh2rcd13ifvqfl0","pricing_plan_id":"cebpf4jnsgd1na2vs0mg"},{"bike_id":"d39db183-6bf7-420a-96f5-b25822544857","system_id":"levelo_inurba_marseille","lat":43.32352,"lon":5.36741,"is_reserved":false,"is_disabled":false,"rental_uris":{"android":"levelo://app?vid=d39db183-6bf7-420a-96f5-b25822544857","ios":"levelo://app?vid=d39db183-6bf7-420a-96f5-b25822544857"},"vehicle_type_id":"4","last_reported":1781350461,"current_range_meters":3600,"station_id":"ce4bhsh2rcd13ifvqi2g","pricing_plan_id":"cebpf4jnsgd1na2vs0mg"},{"bike_id":"bbae9a50-3738-4a3c-acd3-0130cb9ede77","system_id":"levelo_inurba_marseille","lat":43.239655,"lon":5.36625,"is_reserved":false,"is_disabled":false,"rental_uris":{"android":"levelo://app?vid=bbae9a50-3738-4a3c-acd3-0130cb9ede77","ios":"levelo://app?vid=bbae9a50-3738-4a3c-acd3-0130cb9ede77"},"vehicle_type_id":"4","last_reported":1781350461,"current_range_meters":3600,"station_id":"ce4bhi12rcd13ifvqfp0","pricing_plan_id":"cebpf4jnsgd1na2vs0mg"},{"bike_id":"8a34dd43-a765-4200-841d-1c3572871779","system_id":"levelo_inurba_marseille","lat":43.30426,"lon":5.39761,"is_reserved":false,"is_disabled":false,"rental_uris":{"android":"levelo://app?vid=8a34dd43-a765-4200-841d-1c3572871779","ios":"levelo://app?vid=8a34dd43-a765-4200-841d-1c3572871779"},"vehicle_type_id":"4","last_reported":1781350461,"current_range_meters":3600,"station_id":"ce4bh092rcd13ifvqd20","pricing_plan_id":"cebpf4jnsgd1na2vs0mg"},{"bike_id":"8a9f3474-1ba5-4fc3-b4e6-1d2f8579f9d1","system_id":"levelo_inurba_marseille","lat":43.26567,"lon":5.39033,"is_reserved":false,"is_disabled":true,"rental_uris":{"android":"levelo://app?vid=8a9f3474-1ba5-4fc3-b4e6-1d2f8579f9d1","ios":"levelo://app?vid=8a9f3474-1ba5-4fc3-b4e6-1d2f8579f9d1"},"vehicle_type_id":"4","last_reported":1781350461,"current_range_meters":3600,"station_id":"ce4bhe12rcd13ifvqf30","pricing_plan_id":"cebpf4jnsgd1na2vs0mg"},{"bike_id":"97db66d6-9008-44d1-9f96-cd035dc547b2","system_id":"levelo_inurba_marseille","lat":43.28151,"lon":5.42646,"is_reserved":false,"is_disabled":false,"rental_uris":{"android":"levelo://app?vid=97db66d6-9008-44d1-9f96-cd035dc547b2","ios":"levelo://app?vid=97db66d6-9008-44d1-9f96-cd035dc547b2"},"vehicle_type_id":"4","last_reported":1781350461,"current_range_meters":3600,"station_id":"ce4bhnh2rcd13ifvqgug","pricing_plan_id":"cebpf4jnsgd1na2vs0mg"},{"bike_id":"52019f44-2094-4429-bf07-8130949f665e","system_id":"levelo_inurba_marseille","lat":43.301401,"lon":5.387776,"is_reserved":false,"is_disabled":false,"rental_uris":{"android":"levelo://app?vid=52019f44-2094-4429-bf07-8130949f665e","ios":"levelo://app?vid=52019f44-2094-4429-bf07-8130949f665e"},"vehicle_type_id":"4","last_reported":1781350461,"current_range_meters":3600,"station_id":"ce4bghh2rcd13ifvqb60","pricing_plan_id":"cebpf4jnsgd1na2vs0mg"},{"bike_id":"a318bc01-9889-445e-ad9e-b36118278119","system_id":"levelo_inurba_marseille","lat":43.28617,"lon":5.35096,"is_reserved":false,"is_disabled":true,"rental_uris":{"android":"levelo://app?vid=a318bc01-9889-445e-ad9e-b36118278119","ios":"levelo://app?vid=a318bc01-9889-445e-ad9e-b36118278119"},"vehicle_type_id":"4","last_reported":1781350461,"current_range_meters":3600,"station_id":"ce4bhch2rcd13ifvqeug","pricing_plan_id":"cebpf4jnsgd1na2vs0mg"},{"bike_id":"c76fb42d-fecb-4c6b-9a87-0ecb5eb05426","system_id":"levelo_inurba_marseille","lat":43.2951,"lon":5.37504,"is_reserved":false,"is_disabled":false,"rental_uris":{"android":"levelo://app?vid=c76fb42d-fecb-4c6b-9a87-0ecb5eb05426","ios":"levelo://app?vid=c76fb42d-fecb-4c6b-9a87-0ecb5eb05426"},"vehicle_type_id":"4","last_reported":1781350461,"current_range_meters":3600,"station_id":"ce4bgkp2rcd13ifvqbmg","pricing_plan_id":"cebpf4jnsgd1na2vs0mg"},{"bike_id":"71ff1b84-8b94-42b3-b268-5f8769e9e7d8","system_id":"levelo_inurba_marseille","lat":43.21189,"lon":5.35076,"is_reserved":false,"is_disabled":false,"rental_uris":{"android":"levelo://app?vid=71ff1b84-8b94-42b3-b268-5f8769e9e7d8","ios":"levelo://app?vid=71ff1b84-8b94-42b3-b268-5f8769e9e7d8"},"vehicle_type_id":"4","last_reported":1781350461,"current_range_meters":3600,"station_id":"st_cvj6sg6p6f1abm77japg","pricing_plan_id":"cebpf4jnsgd1na2vs0mg"},{"bike_id":"cfc1fd7a-86fe-4625-ad49-4f065273c26e","system_id":"levelo_inurba_marseille","lat":43.24542,"lon":5.3953,"is_reserved":false,"is_disabled":false,"rental_uris":{"android":"levelo://app?vid=cfc1fd7a-86fe-4625-ad49-4f065273c26e","ios":"levelo://app?vid=cfc1fd7a-86fe-4625-ad49-4f065273c26e"},"vehicle_type_id":"4","last_reported":1781350461,"current_range_meters":3600,"station_id":"ce4bhlp2rcd13ifvqgjg","pricing_plan_id":"cebpf4jnsgd1na2vs0mg"},{"bike_id":"76ff20aa-c2bd-4fa2-8dca-7099f4d9bbe6","system_id":"levelo_inurba_marseille","lat":43.2119,"lon":5.35071,"is_reserved":false,"is_disabled":false,"rental_uris":{"android":"levelo://app?vid=76ff20aa-c2bd-4fa2-8dca-7099f4d9bbe6","ios":"levelo://app?vid=76ff20aa-c2bd-4fa2-8dca-7099f4d9bbe6"},"vehicle_type_id":"4","last_reported":1781350461,"current_range_meters":3600,"station_id":"st_cvj6sg6p6f1abm77japg","pricing_plan_id":"cebpf4jnsgd1na2vs0mg"},{"bike_id":"724bd3c7-2ba0-4c04-aed3-07c69b552e52","system_id":"levelo_inurba_marseille","lat":43.30599,"lon":5.39367,"is_reserved":false,"is_disabled":false,"rental_uris":{"android":"levelo://app?vid=724bd3c7-2ba0-4c04-aed3-07c69b552e52","ios":"levelo://app?vid=724bd3c7-2ba0-4c04-aed3-07c69b552e52"},"vehicle_type_id":"4","last_reported":1781350461,"current_range_meters":4000,"station_id":"ce4bh0p2rcd13ifvqd80","pricing_plan_id":"cebpf4jnsgd1na2vs0mg"},{"bike_id":"8f361732-5d9e-4989-ab2a-14520c00e48c","system_id":"levelo_inurba_marseille","lat":43.26376,"lon":5.41073,"is_reserved":false,"is_disabled":false,"rental_uris":{"android":"levelo://app?vid=8f361732-5d9e-4989-ab2a-14520c00e48c","ios":"levelo://app?vid=8f361732-5d9e-4989-ab2a-14520c00e48c"},"vehicle_type_id":"4","last_reported":1781350461,"current_range_meters":4000,"station_id":"st_d4e5ca6na9uc73bfl5fg","pricing_plan_id":"cebpf4jnsgd1na2vs0mg"},{"bike_id":"c0d07620-d8ac-4322-b71a-e6b75c2e0d7d","system_id":"levelo_inurba_marseille","lat":43.22673,"lon":5.34792,"is_reserved":false,"is_disabled":false,"rental_uris":{"android":"levelo://app?vid=c0d07620-d8ac-4322-b71a-e6b75c2e0d7d","ios":"levelo://app?vid=c0d07620-d8ac-4322-b71a-e6b75c2e0d7d"},"vehicle_type_id":"4","last_reported":1781350461,"current_range_meters":4000,"station_id":"","pricing_plan_id":"cebpf4jnsgd1na2vs0mg"},{"bike_id":"6592f03d-a34c-4add-9022-fdbf188f6bdf","system_id":"levelo_inurba_marseille","lat":43.23185,"lon":5.40002,"is_reserved":false,"is_disabled":false,"rental_uris":{"android":"levelo://app?vid=6592f03d-a34c-4add-9022-fdbf188f6bdf","ios":"levelo://app?vid=6592f03d-a34c-4add-9022-fdbf188f6bdf"},"vehicle_type_id":"4","last_reported":1781350461,"current_range_meters":4000,"station_id":"ce4bhn12rcd13ifvqgqg","pricing_plan_id":"cebpf4jnsgd1na2vs0mg"},{"bike_id":"a0d2ac5f-fff6-43f6-831d-dfa81e9c3981","system_id":"levelo_inurba_marseille","lat":43.29633,"lon":5.36394,"is_reserved":false,"is_disabled":false,"rental_uris":{"android":"levelo://app?vid=a0d2ac5f-fff6-43f6-831d-dfa81e9c3981","ios":"levelo://app?vid=a0d2ac5f-fff6-43f6-831d-dfa81e9c3981"},"vehicle_type_id":"4","last_reported":1781350461,"current_range_meters":4000,"station_id":"","pricing_plan_id":"cebpf4jnsgd1na2vs0mg"},{"bike_id":"eb19e857-b1c1-45b5-84c1-214461e44a33","system_id":"levelo_inurba_marseille","lat":43.28257,"lon":5.35062,"is_reserved":false,"is_disabled":false,"rental_uris":{"android":"levelo://app?vid=eb19e857-b1c1-45b5-84c1-214461e44a33","ios":"levelo://app?vid=eb19e857-b1c1-45b5-84c1-214461e44a33"},"vehicle_type_id":"4","last_reported":1781350461,"current_range_meters":4000,"station_id":"ce4bhbp2rcd13ifvqerg","pricing_plan_id":"cebpf4jnsgd1na2vs0mg"},{"bike_id":"fb2a1f7d-f7e9-4d12-bb3c-32e8cd55f82d","system_id":"levelo_inurba_marseille","lat":43.29068,"lon":5.4426,"is_reserved":false,"is_disabled":false,"rental_uris":{"android":"levelo://app?vid=fb2a1f7d-f7e9-4d12-bb3c-32e8cd55f82d","ios":"levelo://app?vid=fb2a1f7d-f7e9-4d12-bb3c-32e8cd55f82d"},"vehicle_type_id":"4","last_reported":1781350461,"current_range_meters":4000,"station_id":"","pricing_plan_id":"cebpf4jnsgd1na2vs0mg"},{"bike_id":"be210286-2255-4fa4-81be-cb404027d6aa","system_id":"levelo_inurba_marseille","lat":43.28618,"lon":5.35108,"is_reserved":false,"is_disabled":false,"rental_uris":{"android":"levelo://app?vid=be210286-2255-4fa4-81be-cb404027d6aa","ios":"levelo://app?vid=be210286-2255-4fa4-81be-cb404027d6aa"},"vehicle_type_id":"4","last_reported":1781350461,"current_range_meters":4000,"station_id":"ce4bhch2rcd13ifvqeug","pricing_plan_id":"cebpf4jnsgd1na2vs0mg"},{"bike_id":"5ab25b28-e35d-4f10-9ca9-7d658cce4ea9","system_id":"levelo_inurba_marseille","lat":43.28906,"lon":5.38406,"is_reserved":false,"is_disabled":true,"rental_uris":{"android":"levelo://app?vid=5ab25b28-e35d-4f10-9ca9-7d658cce4ea9","ios":"levelo://app?vid=5ab25b28-e35d-4f10-9ca9-7d658cce4ea9"},"vehicle_type_id":"4","last_reported":1781350461,"current_range_meters":4000,"station_id":"ce4bh612rcd13ifvqe6g","pricing_plan_id":"cebpf4jnsgd1na2vs0mg"},{"bike_id":"b7318fae-c2dc-4a08-bdd2-faa99830cdf6","system_id":"levelo_inurba_marseille","lat":43.23155,"lon":5.43712,"is_reserved":false,"is_disabled":false,"rental_uris":{"android":"levelo://app?vid=b7318fae-c2dc-4a08-bdd2-faa99830cdf6","ios":"levelo://app?vid=b7318fae-c2dc-4a08-bdd2-faa99830cdf6"},"vehicle_type_id":"4","last_reported":1781350461,"current_range_meters":4000,"station_id":"ce4bhmp2rcd13ifvqgog","pricing_plan_id":"cebpf4jnsgd1na2vs0mg"},{"bike_id":"f0bcafec-c9b8-4c1f-a36b-9e238eff20a0","system_id":"levelo_inurba_marseille","lat":43.28267,"lon":5.35074,"is_reserved":false,"is_disabled":false,"rental_uris":{"android":"levelo://app?vid=f0bcafec-c9b8-4c1f-a36b-9e238eff20a0","ios":"levelo://app?vid=f0bcafec-c9b8-4c1f-a36b-9e238eff20a0"},"vehicle_type_id":"4","last_reported":1781350461,"current_range_meters":4000,"station_id":"ce4bhbp2rcd13ifvqerg","pricing_plan_id":"cebpf4jnsgd1na2vs0mg"},{"bike_id":"9baebc47-9a21-445a-b575-5e8cc4ed7549","system_id":"levelo_inurba_marseille","lat":43.28485,"lon":5.48402,"is_reserved":false,"is_disabled":false,"rental_uris":{"android":"levelo://app?vid=9baebc47-9a21-445a-b575-5e8cc4ed7549","ios":"levelo://app?vid=9baebc47-9a21-445a-b575-5e8cc4ed7549"},"vehicle_type_id":"4","last_reported":1781350461,"current_range_meters":4000,"station_id":"st_d3svhcjqgbts73a3dn0g","pricing_plan_id":"cebpf4jnsgd1na2vs0mg"},{"bike_id":"7717390a-9f55-4678-b2a5-ba0a73b8a548","system_id":"levelo_inurba_marseille","lat":43.31581,"lon":5.36981,"is_reserved":false,"is_disabled":false,"rental_uris":{"android":"levelo://app?vid=7717390a-9f55-4678-b2a5-ba0a73b8a548","ios":"levelo://app?vid=7717390a-9f55-4678-b2a5-ba0a73b8a548"},"vehicle_type_id":"4","last_reported":1781350461,"current_range_meters":4000,"station_id":"","pricing_plan_id":"cebpf4jnsgd1na2vs0mg"},{"bike_id":"324fca38-ee71-4d59-8a1c-e4ddddd5ef44","system_id":"levelo_inurba_marseille","lat":43.28617,"lon":5.35105,"is_reserved":false,"is_disabled":false,"rental_uris":{"android":"levelo://app?vid=324fca38-ee71-4d59-8a1c-e4ddddd5ef44","ios":"levelo://app?vid=324fca38-ee71-4d59-8a1c-e4ddddd5ef44"},"vehicle_type_id":"4","last_reported":1781350461,"current_range_meters":4000,"station_id":"ce4bhch2rcd13ifvqeug","pricing_plan_id":"cebpf4jnsgd1na2vs0mg"},{"bike_id":"a997d587-a19f-4fc9-8f2c-45ff5e616adc","system_id":"levelo_inurba_marseille","lat":43.27675,"lon":5.38891,"is_reserved":false,"is_disabled":false,"rental_uris":{"android":"levelo://app?vid=a997d587-a19f-4fc9-8f2c-45ff5e616adc","ios":"levelo://app?vid=a997d587-a19f-4fc9-8f2c-45ff5e616adc"},"vehicle_type_id":"4","last_reported":1781350461,"current_range_meters":4400,"station_id":"ce4bhi12rcd13ifvqfo0","pricing_plan_id":"cebpf4jnsgd1na2vs0mg"},{"bike_id":"44577758-9781-4e26-a98a-6f13509dbbf8","system_id":"levelo_inurba_marseille","lat":43.33756,"lon":5.39224,"is_reserved":false,"is_disabled":false,"rental_uris":{"android":"levelo://app?vid=44577758-9781-4e26-a98a-6f13509dbbf8","ios":"levelo://app?vid=44577758-9781-4e26-a98a-6f13509dbbf8"},"vehicle_type_id":"4","last_reported":1781350461,"current_range_meters":4400,"station_id":"","pricing_plan_id":"cebpf4jnsgd1na2vs0mg"},{"bike_id":"7c56fbf2-b06b-4ad4-bd6e-fb0ad9ba401c","system_id":"levelo_inurba_marseille","lat":43.28701,"lon":5.37937,"is_reserved":false,"is_disabled":true,"rental_uris":{"android":"levelo://app?vid=7c56fbf2-b06b-4ad4-bd6e-fb0ad9ba401c","ios":"levelo://app?vid=7c56fbf2-b06b-4ad4-bd6e-fb0ad9ba401c"},"vehicle_type_id":"4","last_reported":1781350461,"current_range_meters":4400,"station_id":"ce4bh9p2rcd13ifvqec0","pricing_plan_id":"cebpf4jnsgd1na2vs0mg"},{"bike_id":"2f86dca4-711f-4105-8f52-e190a5543aaf","system_id":"levelo_inurba_marseille","lat":43.22539,"lon":5.34823,"is_reserved":false,"is_disabled":false,"rental_uris":{"android":"levelo://app?vid=2f86dca4-711f-4105-8f52-e190a5543aaf","ios":"levelo://app?vid=2f86dca4-711f-4105-8f52-e190a5543aaf"},"vehicle_type_id":"4","last_reported":1781350461,"current_range_meters":4400,"station_id":"st_cvj5dfep6f1abm77gieg","pricing_plan_id":"cebpf4jnsgd1na2vs0mg"},{"bike_id":"1c473110-d1bf-46d5-b76a-f9dab2005eac","system_id":"levelo_inurba_marseille","lat":43.29911,"lon":5.38148,"is_reserved":false,"is_disabled":false,"rental_uris":{"android":"levelo://app?vid=1c473110-d1bf-46d5-b76a-f9dab2005eac","ios":"levelo://app?vid=1c473110-d1bf-46d5-b76a-f9dab2005eac"},"vehicle_type_id":"4","last_reported":1781350461,"current_range_meters":4400,"station_id":"ce4bgj12rcd13ifvqbc0","pricing_plan_id":"cebpf4jnsgd1na2vs0mg"},{"bike_id":"d40fa19f-4e18-4440-821f-98b044b67033","system_id":"levelo_inurba_marseille","lat":43.26787,"lon":5.3942,"is_reserved":false,"is_disabled":false,"rental_uris":{"android":"levelo://app?vid=d40fa19f-4e18-4440-821f-98b044b67033","ios":"levelo://app?vid=d40fa19f-4e18-4440-821f-98b044b67033"},"vehicle_type_id":"4","last_reported":1781350461,"current_range_meters":4400,"station_id":"ce4bhh12rcd13ifvqfg0","pricing_plan_id":"cebpf4jnsgd1na2vs0mg"},{"bike_id":"f312a474-3688-43e4-8515-a784a5c48528","system_id":"levelo_inurba_marseille","lat":43.21191,"lon":5.35074,"is_reserved":false,"is_disabled":true,"rental_uris":{"android":"levelo://app?vid=f312a474-3688-43e4-8515-a784a5c48528","ios":"levelo://app?vid=f312a474-3688-43e4-8515-a784a5c48528"},"vehicle_type_id":"4","last_reported":1781350461,"current_range_meters":4400,"station_id":"st_cvj6sg6p6f1abm77japg","pricing_plan_id":"cebpf4jnsgd1na2vs0mg"},{"bike_id":"375aa780-9294-44bf-9f1a-d3f215aa635a","system_id":"levelo_inurba_marseille","lat":43.30523,"lon":5.36529,"is_reserved":false,"is_disabled":false,"rental_uris":{"android":"levelo://app?vid=375aa780-9294-44bf-9f1a-d3f215aa635a","ios":"levelo://app?vid=375aa780-9294-44bf-9f1a-d3f215aa635a"},"vehicle_type_id":"4","last_reported":1781350461,"current_range_meters":4400,"station_id":"","pricing_plan_id":"cebpf4jnsgd1na2vs0mg"},{"bike_id":"6c76d6a8-c723-4f08-bd32-0c8db00c5189","system_id":"levelo_inurba_marseille","lat":43.298671,"lon":5.397365,"is_reserved":false,"is_disabled":false,"rental_uris":{"android":"levelo://app?vid=6c76d6a8-c723-4f08-bd32-0c8db00c5189","ios":"levelo://app?vid=6c76d6a8-c723-4f08-bd32-0c8db00c5189"},"vehicle_type_id":"4","last_reported":1781350461,"current_range_meters":4400,"station_id":"ce4bh0h2rcd13ifvqd50","pricing_plan_id":"cebpf4jnsgd1na2vs0mg"},{"bike_id":"a921a687-4f8b-4d1b-a254-2ddeeeaf8a37","system_id":"levelo_inurba_marseille","lat":43.24208,"lon":5.37084,"is_reserved":false,"is_disabled":false,"rental_uris":{"android":"levelo://app?vid=a921a687-4f8b-4d1b-a254-2ddeeeaf8a37","ios":"levelo://app?vid=a921a687-4f8b-4d1b-a254-2ddeeeaf8a37"},"vehicle_type_id":"4","last_reported":1781350461,"current_range_meters":4400,"station_id":"","pricing_plan_id":"cebpf4jnsgd1na2vs0mg"},{"bike_id":"bd9b6a68-643b-4076-b66c-3437c3dc0dba","system_id":"levelo_inurba_marseille","lat":43.2862,"lon":5.35094,"is_reserved":false,"is_disabled":false,"rental_uris":{"android":"levelo://app?vid=bd9b6a68-643b-4076-b66c-3437c3dc0dba","ios":"levelo://app?vid=bd9b6a68-643b-4076-b66c-3437c3dc0dba"},"vehicle_type_id":"4","last_reported":1781350461,"current_range_meters":4400,"station_id":"ce4bhch2rcd13ifvqeug","pricing_plan_id":"cebpf4jnsgd1na2vs0mg"},{"bike_id":"f27c27ce-0250-4934-8831-7cc6b718e142","system_id":"levelo_inurba_marseille","lat":43.23195,"lon":5.35552,"is_reserved":false,"is_disabled":false,"rental_uris":{"android":"levelo://app?vid=f27c27ce-0250-4934-8831-7cc6b718e142","ios":"levelo://app?vid=f27c27ce-0250-4934-8831-7cc6b718e142"},"vehicle_type_id":"4","last_reported":1781350461,"current_range_meters":4400,"station_id":"ce4bhu92rcd13ifvqi70","pricing_plan_id":"cebpf4jnsgd1na2vs0mg"},{"bike_id":"a2c711c8-548f-4dc6-bb25-004e55b1b2ed","system_id":"levelo_inurba_marseille","lat":43.337444,"lon":5.374475,"is_reserved":false,"is_disabled":false,"rental_uris":{"android":"levelo://app?vid=a2c711c8-548f-4dc6-bb25-004e55b1b2ed","ios":"levelo://app?vid=a2c711c8-548f-4dc6-bb25-004e55b1b2ed"},"vehicle_type_id":"4","last_reported":1781350461,"current_range_meters":4400,"station_id":"","pricing_plan_id":"cebpf4jnsgd1na2vs0mg"},{"bike_id":"7b5c4967-4cdf-4ff9-b55d-ca673866ad61","system_id":"levelo_inurba_marseille","lat":43.28215,"lon":5.40579,"is_reserved":false,"is_disabled":false,"rental_uris":{"android":"levelo://app?vid=7b5c4967-4cdf-4ff9-b55d-ca673866ad61","ios":"levelo://app?vid=7b5c4967-4cdf-4ff9-b55d-ca673866ad61"},"vehicle_type_id":"4","last_reported":1781350461,"current_range_meters":4400,"station_id":"","pricing_plan_id":"cebpf4jnsgd1na2vs0mg"},{"bike_id":"dba08d41-a0bc-48d4-8b57-3a1f571fc795","system_id":"levelo_inurba_marseille","lat":43.24169,"lon":5.39755,"is_reserved":false,"is_disabled":false,"rental_uris":{"android":"levelo://app?vid=dba08d41-a0bc-48d4-8b57-3a1f571fc795","ios":"levelo://app?vid=dba08d41-a0bc-48d4-8b57-3a1f571fc795"},"vehicle_type_id":"4","last_reported":1781350461,"current_range_meters":4400,"station_id":"ce4bhn12rcd13ifvqgpg","pricing_plan_id":"cebpf4jnsgd1na2vs0mg"},{"bike_id":"f3b4da85-a9f4-412e-9fd9-93161a4d52cd","system_id":"levelo_inurba_marseille","lat":43.297909,"lon":5.37096,"is_reserved":false,"is_disabled":false,"rental_uris":{"android":"levelo://app?vid=f3b4da85-a9f4-412e-9fd9-93161a4d52cd","ios":"levelo://app?vid=f3b4da85-a9f4-412e-9fd9-93161a4d52cd"},"vehicle_type_id":"4","last_reported":1781350461,"current_range_meters":4400,"station_id":"ce4bgop2rcd13ifvqc1g","pricing_plan_id":"cebpf4jnsgd1na2vs0mg"},{"bike_id":"edd47405-d388-4d04-852e-90210eefdaf9","system_id":"levelo_inurba_marseille","lat":43.23159,"lon":5.43718,"is_reserved":false,"is_disabled":false,"rental_uris":{"android":"levelo://app?vid=edd47405-d388-4d04-852e-90210eefdaf9","ios":"levelo://app?vid=edd47405-d388-4d04-852e-90210eefdaf9"},"vehicle_type_id":"4","last_reported":1781350461,"current_range_meters":4400,"station_id":"ce4bhmp2rcd13ifvqgog","pricing_plan_id":"cebpf4jnsgd1na2vs0mg"},{"bike_id":"6063d252-323b-431a-9439-3c3a4c45c525","system_id":"levelo_inurba_marseille","lat":43.29837,"lon":5.36304,"is_reserved":false,"is_disabled":true,"rental_uris":{"android":"levelo://app?vid=6063d252-323b-431a-9439-3c3a4c45c525","ios":"levelo://app?vid=6063d252-323b-431a-9439-3c3a4c45c525"},"vehicle_type_id":"4","last_reported":1781350461,"current_range_meters":4400,"station_id":"ce4bgpp2rcd13ifvqc3g","pricing_plan_id":"cebpf4jnsgd1na2vs0mg"},{"bike_id":"a978a716-1e2d-4970-afb4-cac444d19730","system_id":"levelo_inurba_marseille","lat":43.23151,"lon":5.43707,"is_reserved":false,"is_disabled":false,"rental_uris":{"android":"levelo://app?vid=a978a716-1e2d-4970-afb4-cac444d19730","ios":"levelo://app?vid=a978a716-1e2d-4970-afb4-cac444d19730"},"vehicle_type_id":"4","last_reported":1781350461,"current_range_meters":4400,"station_id":"ce4bhmp2rcd13ifvqgog","pricing_plan_id":"cebpf4jnsgd1na2vs0mg"},{"bike_id":"18530a8c-4d28-406a-a831-b9e4933f46f1","system_id":"levelo_inurba_marseille","lat":43.28354,"lon":5.38106,"is_reserved":false,"is_disabled":false,"rental_uris":{"android":"levelo://app?vid=18530a8c-4d28-406a-a831-b9e4933f46f1","ios":"levelo://app?vid=18530a8c-4d28-406a-a831-b9e4933f46f1"},"vehicle_type_id":"4","last_reported":1781350461,"current_range_meters":4400,"station_id":"ce4bh412rcd13ifvqdr0","pricing_plan_id":"cebpf4jnsgd1na2vs0mg"},{"bike_id":"514ca461-1ef9-452d-90bb-837f0bf92baf","system_id":"levelo_inurba_marseille","lat":43.31688,"lon":5.40475,"is_reserved":false,"is_disabled":false,"rental_uris":{"android":"levelo://app?vid=514ca461-1ef9-452d-90bb-837f0bf92baf","ios":"levelo://app?vid=514ca461-1ef9-452d-90bb-837f0bf92baf"},"vehicle_type_id":"4","last_reported":1781350461,"current_range_meters":4400,"station_id":"ce4bh012rcd13ifvqd00","pricing_plan_id":"cebpf4jnsgd1na2vs0mg"},{"bike_id":"77a3e5cd-10a1-4b18-bd77-e146c62f220c","system_id":"levelo_inurba_marseille","lat":43.28021,"lon":5.3749,"is_reserved":false,"is_disabled":false,"rental_uris":{"android":"levelo://app?vid=77a3e5cd-10a1-4b18-bd77-e146c62f220c","ios":"levelo://app?vid=77a3e5cd-10a1-4b18-bd77-e146c62f220c"},"vehicle_type_id":"4","last_reported":1781350461,"current_range_meters":4400,"station_id":"","pricing_plan_id":"cebpf4jnsgd1na2vs0mg"},{"bike_id":"789bb187-05f0-427e-a77f-6842144ea4ab","system_id":"levelo_inurba_marseille","lat":43.24635,"lon":5.43148,"is_reserved":false,"is_disabled":false,"rental_uris":{"android":"levelo://app?vid=789bb187-05f0-427e-a77f-6842144ea4ab","ios":"levelo://app?vid=789bb187-05f0-427e-a77f-6842144ea4ab"},"vehicle_type_id":"4","last_reported":1781350461,"current_range_meters":4400,"station_id":"st_d2m6c4gdas8pm72e190g","pricing_plan_id":"cebpf4jnsgd1na2vs0mg"},{"bike_id":"3768733e-7671-4f44-a57b-bac89fbdb686","system_id":"levelo_inurba_marseille","lat":43.3016,"lon":5.38078,"is_reserved":false,"is_disabled":false,"rental_uris":{"android":"levelo://app?vid=3768733e-7671-4f44-a57b-bac89fbdb686","ios":"levelo://app?vid=3768733e-7671-4f44-a57b-bac89fbdb686"},"vehicle_type_id":"4","last_reported":1781350461,"current_range_meters":4800,"station_id":"ce4bgjp2rcd13ifvqbh0","pricing_plan_id":"cebpf4jnsgd1na2vs0mg"},{"bike_id":"7ec5ac6c-1ad1-484e-b1ac-0dd6240aeac8","system_id":"levelo_inurba_marseille","lat":43.32093,"lon":5.36824,"is_reserved":false,"is_disabled":false,"rental_uris":{"android":"levelo://app?vid=7ec5ac6c-1ad1-484e-b1ac-0dd6240aeac8","ios":"levelo://app?vid=7ec5ac6c-1ad1-484e-b1ac-0dd6240aeac8"},"vehicle_type_id":"4","last_reported":1781350461,"current_range_meters":4800,"station_id":"ce4bhrh2rcd13ifvqhug","pricing_plan_id":"cebpf4jnsgd1na2vs0mg"},{"bike_id":"dbec9561-ef7f-41df-80d3-2c0c18917c60","system_id":"levelo_inurba_marseille","lat":43.30541,"lon":5.36552,"is_reserved":false,"is_disabled":false,"rental_uris":{"android":"levelo://app?vid=dbec9561-ef7f-41df-80d3-2c0c18917c60","ios":"levelo://app?vid=dbec9561-ef7f-41df-80d3-2c0c18917c60"},"vehicle_type_id":"4","last_reported":1781350461,"current_range_meters":4800,"station_id":"ce4bgs12rcd13ifvqcag","pricing_plan_id":"cebpf4jnsgd1na2vs0mg"},{"bike_id":"a88c18f7-a05b-424b-a2e6-87c48e40dd60","system_id":"levelo_inurba_marseille","lat":43.23905,"lon":5.37453,"is_reserved":false,"is_disabled":true,"rental_uris":{"android":"levelo://app?vid=a88c18f7-a05b-424b-a2e6-87c48e40dd60","ios":"levelo://app?vid=a88c18f7-a05b-424b-a2e6-87c48e40dd60"},"vehicle_type_id":"4","last_reported":1781350461,"current_range_meters":4800,"station_id":"st_d6sm7csbq4hs73f8fpjg","pricing_plan_id":"cebpf4jnsgd1na2vs0mg"},{"bike_id":"1bd36802-444b-47b8-b6d5-5854caf6a4a9","system_id":"levelo_inurba_marseille","lat":43.31468,"lon":5.3731,"is_reserved":false,"is_disabled":false,"rental_uris":{"android":"levelo://app?vid=1bd36802-444b-47b8-b6d5-5854caf6a4a9","ios":"levelo://app?vid=1bd36802-444b-47b8-b6d5-5854caf6a4a9"},"vehicle_type_id":"4","last_reported":1781350461,"current_range_meters":4800,"station_id":"ce4bgt12rcd13ifvqcd0","pricing_plan_id":"cebpf4jnsgd1na2vs0mg"},{"bike_id":"e128b65e-1a46-4b25-bad3-8ba661209936","system_id":"levelo_inurba_marseille","lat":43.29272,"lon":5.40163,"is_reserved":false,"is_disabled":false,"rental_uris":{"android":"levelo://app?vid=e128b65e-1a46-4b25-bad3-8ba661209936","ios":"levelo://app?vid=e128b65e-1a46-4b25-bad3-8ba661209936"},"vehicle_type_id":"4","last_reported":1781350461,"current_range_meters":4800,"station_id":"ce4bh312rcd13ifvqdk0","pricing_plan_id":"cebpf4jnsgd1na2vs0mg"},{"bike_id":"1f4cf7cf-98e2-40ce-8e0b-c74ae682295d","system_id":"levelo_inurba_marseille","lat":43.26235,"lon":5.38782,"is_reserved":false,"is_disabled":false,"rental_uris":{"android":"levelo://app?vid=1f4cf7cf-98e2-40ce-8e0b-c74ae682295d","ios":"levelo://app?vid=1f4cf7cf-98e2-40ce-8e0b-c74ae682295d"},"vehicle_type_id":"4","last_reported":1781350461,"current_range_meters":4800,"station_id":"st_d8gjfg747rts73coq3b0","pricing_plan_id":"cebpf4jnsgd1na2vs0mg"},{"bike_id":"178788d6-7709-4484-9971-d7cbf5ca17ce","system_id":"levelo_inurba_marseille","lat":43.217533,"lon":5.345997,"is_reserved":false,"is_disabled":false,"rental_uris":{"android":"levelo://app?vid=178788d6-7709-4484-9971-d7cbf5ca17ce","ios":"levelo://app?vid=178788d6-7709-4484-9971-d7cbf5ca17ce"},"vehicle_type_id":"4","last_reported":1781350461,"current_range_meters":4800,"station_id":"st_cvj6r9ubvosntc0bgbag","pricing_plan_id":"cebpf4jnsgd1na2vs0mg"},{"bike_id":"db8c5b68-a2ae-4ccd-8b82-df47b61ade41","system_id":"levelo_inurba_marseille","lat":43.2464,"lon":5.37984,"is_reserved":false,"is_disabled":false,"rental_uris":{"android":"levelo://app?vid=db8c5b68-a2ae-4ccd-8b82-df47b61ade41","ios":"levelo://app?vid=db8c5b68-a2ae-4ccd-8b82-df47b61ade41"},"vehicle_type_id":"4","last_reported":1781350461,"current_range_meters":4800,"station_id":"","pricing_plan_id":"cebpf4jnsgd1na2vs0mg"},{"bike_id":"2882d32d-720c-4b6b-b52a-a70816ab5176","system_id":"levelo_inurba_marseille","lat":43.2463,"lon":5.43161,"is_reserved":false,"is_disabled":false,"rental_uris":{"android":"levelo://app?vid=2882d32d-720c-4b6b-b52a-a70816ab5176","ios":"levelo://app?vid=2882d32d-720c-4b6b-b52a-a70816ab5176"},"vehicle_type_id":"4","last_reported":1781350461,"current_range_meters":4800,"station_id":"st_d2m6c4gdas8pm72e190g","pricing_plan_id":"cebpf4jnsgd1na2vs0mg"},{"bike_id":"a54092f5-5005-43ac-91d0-c52d3f93dcdf","system_id":"levelo_inurba_marseille","lat":43.25496,"lon":5.37672,"is_reserved":false,"is_disabled":false,"rental_uris":{"android":"levelo://app?vid=a54092f5-5005-43ac-91d0-c52d3f93dcdf","ios":"levelo://app?vid=a54092f5-5005-43ac-91d0-c52d3f93dcdf"},"vehicle_type_id":"4","last_reported":1781350461,"current_range_meters":4800,"station_id":"ce4bhh12rcd13ifvqff0","pricing_plan_id":"cebpf4jnsgd1na2vs0mg"},{"bike_id":"ed1b8ea2-ecf3-46da-8352-26963074c835","system_id":"levelo_inurba_marseille","lat":43.24466,"lon":5.42566,"is_reserved":false,"is_disabled":false,"rental_uris":{"android":"levelo://app?vid=ed1b8ea2-ecf3-46da-8352-26963074c835","ios":"levelo://app?vid=ed1b8ea2-ecf3-46da-8352-26963074c835"},"vehicle_type_id":"4","last_reported":1781350461,"current_range_meters":4800,"station_id":"st_d4a3vfp97mjs738cd8kg","pricing_plan_id":"cebpf4jnsgd1na2vs0mg"},{"bike_id":"9cd63e9f-d649-4a3a-aed9-c10f2061522e","system_id":"levelo_inurba_marseille","lat":43.30434,"lon":5.39742,"is_reserved":false,"is_disabled":false,"rental_uris":{"android":"levelo://app?vid=9cd63e9f-d649-4a3a-aed9-c10f2061522e","ios":"levelo://app?vid=9cd63e9f-d649-4a3a-aed9-c10f2061522e"},"vehicle_type_id":"4","last_reported":1781350461,"current_range_meters":4800,"station_id":"ce4bh092rcd13ifvqd20","pricing_plan_id":"cebpf4jnsgd1na2vs0mg"},{"bike_id":"6e14b337-33c4-4415-be13-1325eb0efb18","system_id":"levelo_inurba_marseille","lat":43.29703,"lon":5.37697,"is_reserved":false,"is_disabled":false,"rental_uris":{"android":"levelo://app?vid=6e14b337-33c4-4415-be13-1325eb0efb18","ios":"levelo://app?vid=6e14b337-33c4-4415-be13-1325eb0efb18"},"vehicle_type_id":"4","last_reported":1781350461,"current_range_meters":4800,"station_id":"ce4bgkh2rcd13ifvqbl0","pricing_plan_id":"cebpf4jnsgd1na2vs0mg"},{"bike_id":"8ec4238f-ba66-43e8-ba04-4f52a7b4c36b","system_id":"levelo_inurba_marseille","lat":43.23151,"lon":5.43718,"is_reserved":false,"is_disabled":false,"rental_uris":{"android":"levelo://app?vid=8ec4238f-ba66-43e8-ba04-4f52a7b4c36b","ios":"levelo://app?vid=8ec4238f-ba66-43e8-ba04-4f52a7b4c36b"},"vehicle_type_id":"4","last_reported":1781350461,"current_range_meters":4800,"station_id":"ce4bhmp2rcd13ifvqgog","pricing_plan_id":"cebpf4jnsgd1na2vs0mg"},{"bike_id":"9f069751-295a-496b-b19c-281f4491a5fd","system_id":"levelo_inurba_marseille","lat":43.35062,"lon":5.35072,"is_reserved":false,"is_disabled":false,"rental_uris":{"android":"levelo://app?vid=9f069751-295a-496b-b19c-281f4491a5fd","ios":"levelo://app?vid=9f069751-295a-496b-b19c-281f4491a5fd"},"vehicle_type_id":"4","last_reported":1781350461,"current_range_meters":5600,"station_id":"","pricing_plan_id":"cebpf4jnsgd1na2vs0mg"},{"bike_id":"b250cbdb-4d15-48f1-8d3b-9f0804befd16","system_id":"levelo_inurba_marseille","lat":43.25342,"lon":5.42181,"is_reserved":false,"is_disabled":false,"rental_uris":{"android":"levelo://app?vid=b250cbdb-4d15-48f1-8d3b-9f0804befd16","ios":"levelo://app?vid=b250cbdb-4d15-48f1-8d3b-9f0804befd16"},"vehicle_type_id":"4","last_reported":1781350461,"current_range_meters":5600,"station_id":"st_d2m65c5bi1j21697t3ng","pricing_plan_id":"cebpf4jnsgd1na2vs0mg"},{"bike_id":"6a27404a-fd45-46ef-b0c6-d19df52b0472","system_id":"levelo_inurba_marseille","lat":43.30076,"lon":5.37769,"is_reserved":false,"is_disabled":false,"rental_uris":{"android":"levelo://app?vid=6a27404a-fd45-46ef-b0c6-d19df52b0472","ios":"levelo://app?vid=6a27404a-fd45-46ef-b0c6-d19df52b0472"},"vehicle_type_id":"4","last_reported":1781350461,"current_range_meters":5600,"station_id":"","pricing_plan_id":"cebpf4jnsgd1na2vs0mg"},{"bike_id":"d43d82bc-dd66-4ccb-ba98-7fe9c5e7c015","system_id":"levelo_inurba_marseille","lat":43.27196,"lon":5.39207,"is_reserved":false,"is_disabled":true,"rental_uris":{"android":"levelo://app?vid=d43d82bc-dd66-4ccb-ba98-7fe9c5e7c015","ios":"levelo://app?vid=d43d82bc-dd66-4ccb-ba98-7fe9c5e7c015"},"vehicle_type_id":"4","last_reported":1781350461,"current_range_meters":5600,"station_id":"ce4bhhp2rcd13ifvqfm0","pricing_plan_id":"cebpf4jnsgd1na2vs0mg"},{"bike_id":"8f1b82fd-c14a-43f8-8bb4-d6edafe4cc76","system_id":"levelo_inurba_marseille","lat":43.29675,"lon":5.37298,"is_reserved":false,"is_disabled":false,"rental_uris":{"android":"levelo://app?vid=8f1b82fd-c14a-43f8-8bb4-d6edafe4cc76","ios":"levelo://app?vid=8f1b82fd-c14a-43f8-8bb4-d6edafe4cc76"},"vehicle_type_id":"4","last_reported":1781350461,"current_range_meters":5600,"station_id":"ce4bgk12rcd13ifvqbj0","pricing_plan_id":"cebpf4jnsgd1na2vs0mg"},{"bike_id":"858e56b7-dbde-454e-aa20-818b9a8b4382","system_id":"levelo_inurba_marseille","lat":43.21759,"lon":5.34587,"is_reserved":false,"is_disabled":false,"rental_uris":{"android":"levelo://app?vid=858e56b7-dbde-454e-aa20-818b9a8b4382","ios":"levelo://app?vid=858e56b7-dbde-454e-aa20-818b9a8b4382"},"vehicle_type_id":"4","last_reported":1781350461,"current_range_meters":5600,"station_id":"st_cvj6r9ubvosntc0bgbag","pricing_plan_id":"cebpf4jnsgd1na2vs0mg"},{"bike_id":"e0a4acaa-b62c-4970-818b-fd1170d95561","system_id":"levelo_inurba_marseille","lat":43.26209,"lon":5.37444,"is_reserved":false,"is_disabled":false,"rental_uris":{"android":"levelo://app?vid=e0a4acaa-b62c-4970-818b-fd1170d95561","ios":"levelo://app?vid=e0a4acaa-b62c-4970-818b-fd1170d95561"},"vehicle_type_id":"4","last_reported":1781350461,"current_range_meters":5600,"station_id":"ce4bhgp2rcd13ifvqfc0","pricing_plan_id":"cebpf4jnsgd1na2vs0mg"},{"bike_id":"98c0a183-7ee6-4b0b-b809-46c8824508e7","system_id":"levelo_inurba_marseille","lat":43.29617,"lon":5.41922,"is_reserved":false,"is_disabled":false,"rental_uris":{"android":"levelo://app?vid=98c0a183-7ee6-4b0b-b809-46c8824508e7","ios":"levelo://app?vid=98c0a183-7ee6-4b0b-b809-46c8824508e7"},"vehicle_type_id":"4","last_reported":1781350461,"current_range_meters":5600,"station_id":"","pricing_plan_id":"cebpf4jnsgd1na2vs0mg"},{"bike_id":"b94500b0-c8e7-4697-a363-e6426899264d","system_id":"levelo_inurba_marseille","lat":43.26395,"lon":5.41051,"is_reserved":false,"is_disabled":false,"rental_uris":{"android":"levelo://app?vid=b94500b0-c8e7-4697-a363-e6426899264d","ios":"levelo://app?vid=b94500b0-c8e7-4697-a363-e6426899264d"},"vehicle_type_id":"4","last_reported":1781350461,"current_range_meters":5600,"station_id":"st_d4e5ca6na9uc73bfl5fg","pricing_plan_id":"cebpf4jnsgd1na2vs0mg"},{"bike_id":"9a8afc9c-d976-4d5b-8bd4-2296bdf51c40","system_id":"levelo_inurba_marseille","lat":43.29708,"lon":5.37707,"is_reserved":false,"is_disabled":false,"rental_uris":{"android":"levelo://app?vid=9a8afc9c-d976-4d5b-8bd4-2296bdf51c40","ios":"levelo://app?vid=9a8afc9c-d976-4d5b-8bd4-2296bdf51c40"},"vehicle_type_id":"4","last_reported":1781350461,"current_range_meters":5600,"station_id":"ce4bgkh2rcd13ifvqbl0","pricing_plan_id":"cebpf4jnsgd1na2vs0mg"},{"bike_id":"61abc050-794c-43f3-96ae-15565612cd1b","system_id":"levelo_inurba_marseille","lat":43.28686,"lon":5.46696,"is_reserved":false,"is_disabled":false,"rental_uris":{"android":"levelo://app?vid=61abc050-794c-43f3-96ae-15565612cd1b","ios":"levelo://app?vid=61abc050-794c-43f3-96ae-15565612cd1b"},"vehicle_type_id":"4","last_reported":1781350461,"current_range_meters":5600,"station_id":"st_d6tc3vkotcvc738tfjhg","pricing_plan_id":"cebpf4jnsgd1na2vs0mg"},{"bike_id":"66e086f4-0afb-4a20-9bb1-921e690c8325","system_id":"levelo_inurba_marseille","lat":43.21743,"lon":5.34601,"is_reserved":false,"is_disabled":false,"rental_uris":{"android":"levelo://app?vid=66e086f4-0afb-4a20-9bb1-921e690c8325","ios":"levelo://app?vid=66e086f4-0afb-4a20-9bb1-921e690c8325"},"vehicle_type_id":"4","last_reported":1781350461,"current_range_meters":5600,"station_id":"st_cvj6r9ubvosntc0bgbag","pricing_plan_id":"cebpf4jnsgd1na2vs0mg"},{"bike_id":"3e0e61b2-028e-48c8-a21d-fe5880a99474","system_id":"levelo_inurba_marseille","lat":43.23964,"lon":5.36614,"is_reserved":false,"is_disabled":false,"rental_uris":{"android":"levelo://app?vid=3e0e61b2-028e-48c8-a21d-fe5880a99474","ios":"levelo://app?vid=3e0e61b2-028e-48c8-a21d-fe5880a99474"},"vehicle_type_id":"4","last_reported":1781350461,"current_range_meters":5600,"station_id":"ce4bhi12rcd13ifvqfp0","pricing_plan_id":"cebpf4jnsgd1na2vs0mg"},{"bike_id":"6aed5474-f6e4-4b32-bf87-be1c34b08d0f","system_id":"levelo_inurba_marseille","lat":43.29263,"lon":5.40904,"is_reserved":false,"is_disabled":false,"rental_uris":{"android":"levelo://app?vid=6aed5474-f6e4-4b32-bf87-be1c34b08d0f","ios":"levelo://app?vid=6aed5474-f6e4-4b32-bf87-be1c34b08d0f"},"vehicle_type_id":"4","last_reported":1781350461,"current_range_meters":5600,"station_id":"ce4bh192rcd13ifvqdc0","pricing_plan_id":"cebpf4jnsgd1na2vs0mg"},{"bike_id":"01974ce9-2ce7-4184-9698-03768bec9bb4","system_id":"levelo_inurba_marseille","lat":43.28693,"lon":5.46663,"is_reserved":false,"is_disabled":false,"rental_uris":{"android":"levelo://app?vid=01974ce9-2ce7-4184-9698-03768bec9bb4","ios":"levelo://app?vid=01974ce9-2ce7-4184-9698-03768bec9bb4"},"vehicle_type_id":"4","last_reported":1781350461,"current_range_meters":5600,"station_id":"st_d6tc3vkotcvc738tfjhg","pricing_plan_id":"cebpf4jnsgd1na2vs0mg"},{"bike_id":"e37613eb-2b80-45f6-8be7-6bbc2d17cf64","system_id":"levelo_inurba_marseille","lat":43.24811,"lon":5.37454,"is_reserved":false,"is_disabled":false,"rental_uris":{"android":"levelo://app?vid=e37613eb-2b80-45f6-8be7-6bbc2d17cf64","ios":"levelo://app?vid=e37613eb-2b80-45f6-8be7-6bbc2d17cf64"},"vehicle_type_id":"4","last_reported":1781350461,"current_range_meters":5600,"station_id":"ce4bhgh2rcd13ifvqfb0","pricing_plan_id":"cebpf4jnsgd1na2vs0mg"},{"bike_id":"a0704a6c-26e7-4cb3-88ea-ea581e546366","system_id":"levelo_inurba_marseille","lat":43.28282,"lon":5.35096,"is_reserved":false,"is_disabled":false,"rental_uris":{"android":"levelo://app?vid=a0704a6c-26e7-4cb3-88ea-ea581e546366","ios":"levelo://app?vid=a0704a6c-26e7-4cb3-88ea-ea581e546366"},"vehicle_type_id":"4","last_reported":1781350461,"current_range_meters":5600,"station_id":"ce4bhbp2rcd13ifvqerg","pricing_plan_id":"cebpf4jnsgd1na2vs0mg"},{"bike_id":"292ba82b-0dab-46c1-b4a2-48a52268ff1c","system_id":"levelo_inurba_marseille","lat":43.26567,"lon":5.38984,"is_reserved":false,"is_disabled":true,"rental_uris":{"android":"levelo://app?vid=292ba82b-0dab-46c1-b4a2-48a52268ff1c","ios":"levelo://app?vid=292ba82b-0dab-46c1-b4a2-48a52268ff1c"},"vehicle_type_id":"4","last_reported":1781350461,"current_range_meters":5600,"station_id":"ce4bhe12rcd13ifvqf30","pricing_plan_id":"cebpf4jnsgd1na2vs0mg"},{"bike_id":"eda98293-5c91-4dae-89c6-486a45b00f60","system_id":"levelo_inurba_marseille","lat":43.2328,"lon":5.40079,"is_reserved":false,"is_disabled":false,"rental_uris":{"android":"levelo://app?vid=eda98293-5c91-4dae-89c6-486a45b00f60","ios":"levelo://app?vid=eda98293-5c91-4dae-89c6-486a45b00f60"},"vehicle_type_id":"4","last_reported":1781350461,"current_range_meters":5600,"station_id":"","pricing_plan_id":"cebpf4jnsgd1na2vs0mg"},{"bike_id":"ccc32958-168e-4c33-8a28-5da0464cfb12","system_id":"levelo_inurba_marseille","lat":43.23154,"lon":5.43711,"is_reserved":false,"is_disabled":false,"rental_uris":{"android":"levelo://app?vid=ccc32958-168e-4c33-8a28-5da0464cfb12","ios":"levelo://app?vid=ccc32958-168e-4c33-8a28-5da0464cfb12"},"vehicle_type_id":"4","last_reported":1781350461,"current_range_meters":5600,"station_id":"ce4bhmp2rcd13ifvqgog","pricing_plan_id":"cebpf4jnsgd1na2vs0mg"},{"bike_id":"6e4387d7-bd16-4a30-af78-71416e460c6d","system_id":"levelo_inurba_marseille","lat":43.30825,"lon":5.38386,"is_reserved":false,"is_disabled":false,"rental_uris":{"android":"levelo://app?vid=6e4387d7-bd16-4a30-af78-71416e460c6d","ios":"levelo://app?vid=6e4387d7-bd16-4a30-af78-71416e460c6d"},"vehicle_type_id":"4","last_reported":1781350461,"current_range_meters":5600,"station_id":"","pricing_plan_id":"cebpf4jnsgd1na2vs0mg"},{"bike_id":"12bc8195-da67-400f-a7df-3034e734d1e1","system_id":"levelo_inurba_marseille","lat":43.28475,"lon":5.38427,"is_reserved":false,"is_disabled":false,"rental_uris":{"android":"levelo://app?vid=12bc8195-da67-400f-a7df-3034e734d1e1","ios":"levelo://app?vid=12bc8195-da67-400f-a7df-3034e734d1e1"},"vehicle_type_id":"4","last_reported":1781350461,"current_range_meters":5600,"station_id":"ce4bh512rcd13ifvqe3g","pricing_plan_id":"cebpf4jnsgd1na2vs0mg"},{"bike_id":"bda92f95-d650-44a4-a086-eb846c0b1e5c","system_id":"levelo_inurba_marseille","lat":43.28265,"lon":5.35064,"is_reserved":false,"is_disabled":false,"rental_uris":{"android":"levelo://app?vid=bda92f95-d650-44a4-a086-eb846c0b1e5c","ios":"levelo://app?vid=bda92f95-d650-44a4-a086-eb846c0b1e5c"},"vehicle_type_id":"4","last_reported":1781350461,"current_range_meters":5600,"station_id":"ce4bhbp2rcd13ifvqerg","pricing_plan_id":"cebpf4jnsgd1na2vs0mg"},{"bike_id":"8317fa90-533d-42df-bd78-357469fd10ff","system_id":"levelo_inurba_marseille","lat":43.28261,"lon":5.35087,"is_reserved":false,"is_disabled":false,"rental_uris":{"android":"levelo://app?vid=8317fa90-533d-42df-bd78-357469fd10ff","ios":"levelo://app?vid=8317fa90-533d-42df-bd78-357469fd10ff"},"vehicle_type_id":"4","last_reported":1781350461,"current_range_meters":5600,"station_id":"ce4bhbp2rcd13ifvqerg","pricing_plan_id":"cebpf4jnsgd1na2vs0mg"},{"bike_id":"2f5a2eb1-a60a-4fe8-a5aa-002259731410","system_id":"levelo_inurba_marseille","lat":43.31049,"lon":5.37186,"is_reserved":false,"is_disabled":true,"rental_uris":{"android":"levelo://app?vid=2f5a2eb1-a60a-4fe8-a5aa-002259731410","ios":"levelo://app?vid=2f5a2eb1-a60a-4fe8-a5aa-002259731410"},"vehicle_type_id":"4","last_reported":1781350461,"current_range_meters":5600,"station_id":"st_d4kl2rp97mjs73e7tdfg","pricing_plan_id":"cebpf4jnsgd1na2vs0mg"},{"bike_id":"3a8a168a-7510-448e-b2e0-01a6636fcabb","system_id":"levelo_inurba_marseille","lat":43.23153,"lon":5.43716,"is_reserved":false,"is_disabled":false,"rental_uris":{"android":"levelo://app?vid=3a8a168a-7510-448e-b2e0-01a6636fcabb","ios":"levelo://app?vid=3a8a168a-7510-448e-b2e0-01a6636fcabb"},"vehicle_type_id":"4","last_reported":1781350461,"current_range_meters":5600,"station_id":"ce4bhmp2rcd13ifvqgog","pricing_plan_id":"cebpf4jnsgd1na2vs0mg"},{"bike_id":"3ea61c54-5ae4-4ec5-8d1e-95c813254f6e","system_id":"levelo_inurba_marseille","lat":43.2448,"lon":5.42527,"is_reserved":false,"is_disabled":false,"rental_uris":{"android":"levelo://app?vid=3ea61c54-5ae4-4ec5-8d1e-95c813254f6e","ios":"levelo://app?vid=3ea61c54-5ae4-4ec5-8d1e-95c813254f6e"},"vehicle_type_id":"4","last_reported":1781350461,"current_range_meters":5600,"station_id":"st_d4a3vfp97mjs738cd8kg","pricing_plan_id":"cebpf4jnsgd1na2vs0mg"},{"bike_id":"b88cdece-4ff3-477d-8f49-d847d368a2ed","system_id":"levelo_inurba_marseille","lat":43.30529,"lon":5.36554,"is_reserved":false,"is_disabled":false,"rental_uris":{"android":"levelo://app?vid=b88cdece-4ff3-477d-8f49-d847d368a2ed","ios":"levelo://app?vid=b88cdece-4ff3-477d-8f49-d847d368a2ed"},"vehicle_type_id":"4","last_reported":1781350461,"current_range_meters":6000,"station_id":"ce4bgs12rcd13ifvqcag","pricing_plan_id":"cebpf4jnsgd1na2vs0mg"},{"bike_id":"289efcac-ae69-49a1-98df-a656a0ea867e","system_id":"levelo_inurba_marseille","lat":43.21737,"lon":5.34604,"is_reserved":false,"is_disabled":false,"rental_uris":{"android":"levelo://app?vid=289efcac-ae69-49a1-98df-a656a0ea867e","ios":"levelo://app?vid=289efcac-ae69-49a1-98df-a656a0ea867e"},"vehicle_type_id":"4","last_reported":1781350461,"current_range_meters":6000,"station_id":"st_cvj6r9ubvosntc0bgbag","pricing_plan_id":"cebpf4jnsgd1na2vs0mg"},{"bike_id":"54b03ce9-bc41-41de-b1f4-0746c792dc2e","system_id":"levelo_inurba_marseille","lat":43.27381,"lon":5.36259,"is_reserved":false,"is_disabled":false,"rental_uris":{"android":"levelo://app?vid=54b03ce9-bc41-41de-b1f4-0746c792dc2e","ios":"levelo://app?vid=54b03ce9-bc41-41de-b1f4-0746c792dc2e"},"vehicle_type_id":"4","last_reported":1781350461,"current_range_meters":6000,"station_id":"ce4bhbh2rcd13ifvqeo0","pricing_plan_id":"cebpf4jnsgd1na2vs0mg"},{"bike_id":"2d8a047b-0411-40fc-a69f-3169f78c4ee9","system_id":"levelo_inurba_marseille","lat":43.3236,"lon":5.36752,"is_reserved":false,"is_disabled":false,"rental_uris":{"android":"levelo://app?vid=2d8a047b-0411-40fc-a69f-3169f78c4ee9","ios":"levelo://app?vid=2d8a047b-0411-40fc-a69f-3169f78c4ee9"},"vehicle_type_id":"4","last_reported":1781350461,"current_range_meters":6000,"station_id":"ce4bhsh2rcd13ifvqi2g","pricing_plan_id":"cebpf4jnsgd1na2vs0mg"},{"bike_id":"ade4a260-b27c-4102-9932-7b724d1d2255","system_id":"levelo_inurba_marseille","lat":43.231911,"lon":5.355541,"is_reserved":false,"is_disabled":false,"rental_uris":{"android":"levelo://app?vid=ade4a260-b27c-4102-9932-7b724d1d2255","ios":"levelo://app?vid=ade4a260-b27c-4102-9932-7b724d1d2255"},"vehicle_type_id":"4","last_reported":1781350461,"current_range_meters":6000,"station_id":"ce4bhu92rcd13ifvqi70","pricing_plan_id":"cebpf4jnsgd1na2vs0mg"},{"bike_id":"a303e4db-b9ba-4d63-9eff-f7e5a8e536c2","system_id":"levelo_inurba_marseille","lat":43.28017,"lon":5.40893,"is_reserved":false,"is_disabled":false,"rental_uris":{"android":"levelo://app?vid=a303e4db-b9ba-4d63-9eff-f7e5a8e536c2","ios":"levelo://app?vid=a303e4db-b9ba-4d63-9eff-f7e5a8e536c2"},"vehicle_type_id":"4","last_reported":1781350461,"current_range_meters":6000,"station_id":"","pricing_plan_id":"cebpf4jnsgd1na2vs0mg"},{"bike_id":"8a9787a5-9a28-427a-a205-4aa9d9212c91","system_id":"levelo_inurba_marseille","lat":43.2883,"lon":5.35537,"is_reserved":false,"is_disabled":false,"rental_uris":{"android":"levelo://app?vid=8a9787a5-9a28-427a-a205-4aa9d9212c91","ios":"levelo://app?vid=8a9787a5-9a28-427a-a205-4aa9d9212c91"},"vehicle_type_id":"4","last_reported":1781350461,"current_range_meters":6000,"station_id":"","pricing_plan_id":"cebpf4jnsgd1na2vs0mg"},{"bike_id":"09d9c6f1-ccd6-4075-9a03-4634c196f8cd","system_id":"levelo_inurba_marseille","lat":43.24172,"lon":5.36393,"is_reserved":false,"is_disabled":false,"rental_uris":{"android":"levelo://app?vid=09d9c6f1-ccd6-4075-9a03-4634c196f8cd","ios":"levelo://app?vid=09d9c6f1-ccd6-4075-9a03-4634c196f8cd"},"vehicle_type_id":"4","last_reported":1781350461,"current_range_meters":6000,"station_id":"cpo36qri1sfpv3e86is0","pricing_plan_id":"cebpf4jnsgd1na2vs0mg"},{"bike_id":"419e20aa-4648-4b0d-a29d-6da5f6351dd9","system_id":"levelo_inurba_marseille","lat":43.2954,"lon":5.39393,"is_reserved":false,"is_disabled":false,"rental_uris":{"android":"levelo://app?vid=419e20aa-4648-4b0d-a29d-6da5f6351dd9","ios":"levelo://app?vid=419e20aa-4648-4b0d-a29d-6da5f6351dd9"},"vehicle_type_id":"4","last_reported":1781350461,"current_range_meters":6000,"station_id":"ce4bh292rcd13ifvqdf0","pricing_plan_id":"cebpf4jnsgd1na2vs0mg"},{"bike_id":"75dd71f5-ea2e-44aa-9406-565953c0fb3c","system_id":"levelo_inurba_marseille","lat":43.30538,"lon":5.36531,"is_reserved":false,"is_disabled":false,"rental_uris":{"android":"levelo://app?vid=75dd71f5-ea2e-44aa-9406-565953c0fb3c","ios":"levelo://app?vid=75dd71f5-ea2e-44aa-9406-565953c0fb3c"},"vehicle_type_id":"4","last_reported":1781350461,"current_range_meters":6000,"station_id":"ce4bgs12rcd13ifvqcag","pricing_plan_id":"cebpf4jnsgd1na2vs0mg"},{"bike_id":"170d5920-d5e0-4694-8eff-d1bd5d54e8e6","system_id":"levelo_inurba_marseille","lat":43.21753,"lon":5.34609,"is_reserved":false,"is_disabled":false,"rental_uris":{"android":"levelo://app?vid=170d5920-d5e0-4694-8eff-d1bd5d54e8e6","ios":"levelo://app?vid=170d5920-d5e0-4694-8eff-d1bd5d54e8e6"},"vehicle_type_id":"4","last_reported":1781350461,"current_range_meters":6000,"station_id":"st_cvj6r9ubvosntc0bgbag","pricing_plan_id":"cebpf4jnsgd1na2vs0mg"},{"bike_id":"f389c322-123d-4144-915a-383855424cea","system_id":"levelo_inurba_marseille","lat":43.244,"lon":5.37048,"is_reserved":false,"is_disabled":false,"rental_uris":{"android":"levelo://app?vid=f389c322-123d-4144-915a-383855424cea","ios":"levelo://app?vid=f389c322-123d-4144-915a-383855424cea"},"vehicle_type_id":"4","last_reported":1781350461,"current_range_meters":6000,"station_id":"ce4bhhh2rcd13ifvqfk0","pricing_plan_id":"cebpf4jnsgd1na2vs0mg"},{"bike_id":"960d68cb-472e-483d-974c-3b485764f425","system_id":"levelo_inurba_marseille","lat":43.31726,"lon":5.40465,"is_reserved":false,"is_disabled":false,"rental_uris":{"android":"levelo://app?vid=960d68cb-472e-483d-974c-3b485764f425","ios":"levelo://app?vid=960d68cb-472e-483d-974c-3b485764f425"},"vehicle_type_id":"4","last_reported":1781350461,"current_range_meters":6000,"station_id":"ce4bh012rcd13ifvqd00","pricing_plan_id":"cebpf4jnsgd1na2vs0mg"},{"bike_id":"6bbfd4bb-130b-4e7d-807e-daf94603397d","system_id":"levelo_inurba_marseille","lat":43.25106,"lon":5.39492,"is_reserved":false,"is_disabled":false,"rental_uris":{"android":"levelo://app?vid=6bbfd4bb-130b-4e7d-807e-daf94603397d","ios":"levelo://app?vid=6bbfd4bb-130b-4e7d-807e-daf94603397d"},"vehicle_type_id":"4","last_reported":1781350461,"current_range_meters":6000,"station_id":"ce4bhm12rcd13ifvqgkg","pricing_plan_id":"cebpf4jnsgd1na2vs0mg"},{"bike_id":"1e2011a9-e6da-4836-bd87-fa5dfcf943e2","system_id":"levelo_inurba_marseille","lat":43.26213,"lon":5.37446,"is_reserved":false,"is_disabled":false,"rental_uris":{"android":"levelo://app?vid=1e2011a9-e6da-4836-bd87-fa5dfcf943e2","ios":"levelo://app?vid=1e2011a9-e6da-4836-bd87-fa5dfcf943e2"},"vehicle_type_id":"4","last_reported":1781350461,"current_range_meters":6000,"station_id":"ce4bhgp2rcd13ifvqfc0","pricing_plan_id":"cebpf4jnsgd1na2vs0mg"},{"bike_id":"57bfd0f8-0112-425c-9ca9-e1cb3d003bc6","system_id":"levelo_inurba_marseille","lat":43.32082,"lon":5.36831,"is_reserved":false,"is_disabled":false,"rental_uris":{"android":"levelo://app?vid=57bfd0f8-0112-425c-9ca9-e1cb3d003bc6","ios":"levelo://app?vid=57bfd0f8-0112-425c-9ca9-e1cb3d003bc6"},"vehicle_type_id":"4","last_reported":1781350461,"current_range_meters":6000,"station_id":"ce4bhrh2rcd13ifvqhug","pricing_plan_id":"cebpf4jnsgd1na2vs0mg"},{"bike_id":"4ada14b1-acd8-4130-a2ae-2ee1cc65e2d2","system_id":"levelo_inurba_marseille","lat":43.28577,"lon":5.39389,"is_reserved":false,"is_disabled":false,"rental_uris":{"android":"levelo://app?vid=4ada14b1-acd8-4130-a2ae-2ee1cc65e2d2","ios":"levelo://app?vid=4ada14b1-acd8-4130-a2ae-2ee1cc65e2d2"},"vehicle_type_id":"4","last_reported":1781350461,"current_range_meters":6000,"station_id":"","pricing_plan_id":"cebpf4jnsgd1na2vs0mg"},{"bike_id":"5b721959-b843-4261-959d-635897c03c13","system_id":"levelo_inurba_marseille","lat":43.24646,"lon":5.43145,"is_reserved":false,"is_disabled":false,"rental_uris":{"android":"levelo://app?vid=5b721959-b843-4261-959d-635897c03c13","ios":"levelo://app?vid=5b721959-b843-4261-959d-635897c03c13"},"vehicle_type_id":"4","last_reported":1781350461,"current_range_meters":6000,"station_id":"st_d2m6c4gdas8pm72e190g","pricing_plan_id":"cebpf4jnsgd1na2vs0mg"},{"bike_id":"5f189998-b2b6-4e38-b849-68910c9a3d84","system_id":"levelo_inurba_marseille","lat":43.317514,"lon":5.39012,"is_reserved":false,"is_disabled":false,"rental_uris":{"android":"levelo://app?vid=5f189998-b2b6-4e38-b849-68910c9a3d84","ios":"levelo://app?vid=5f189998-b2b6-4e38-b849-68910c9a3d84"},"vehicle_type_id":"4","last_reported":1781350461,"current_range_meters":6000,"station_id":"","pricing_plan_id":"cebpf4jnsgd1na2vs0mg"},{"bike_id":"04c1b736-db5e-4833-b100-3a96d4c95bbe","system_id":"levelo_inurba_marseille","lat":43.29007,"lon":5.35604,"is_reserved":false,"is_disabled":false,"rental_uris":{"android":"levelo://app?vid=04c1b736-db5e-4833-b100-3a96d4c95bbe","ios":"levelo://app?vid=04c1b736-db5e-4833-b100-3a96d4c95bbe"},"vehicle_type_id":"4","last_reported":1781350461,"current_range_meters":6000,"station_id":"ce4bhb92rcd13ifvqen0","pricing_plan_id":"cebpf4jnsgd1na2vs0mg"},{"bike_id":"6d61433d-2c57-4ec7-9f49-1c6f93b7a6ee","system_id":"levelo_inurba_marseille","lat":43.25512,"lon":5.37646,"is_reserved":false,"is_disabled":false,"rental_uris":{"android":"levelo://app?vid=6d61433d-2c57-4ec7-9f49-1c6f93b7a6ee","ios":"levelo://app?vid=6d61433d-2c57-4ec7-9f49-1c6f93b7a6ee"},"vehicle_type_id":"4","last_reported":1781350461,"current_range_meters":6000,"station_id":"ce4bhh12rcd13ifvqff0","pricing_plan_id":"cebpf4jnsgd1na2vs0mg"},{"bike_id":"2966e569-5f6f-488b-810b-7eb0b0a695b7","system_id":"levelo_inurba_marseille","lat":43.24162,"lon":5.3971,"is_reserved":false,"is_disabled":false,"rental_uris":{"android":"levelo://app?vid=2966e569-5f6f-488b-810b-7eb0b0a695b7","ios":"levelo://app?vid=2966e569-5f6f-488b-810b-7eb0b0a695b7"},"vehicle_type_id":"4","last_reported":1781350461,"current_range_meters":6000,"station_id":"ce4bhn12rcd13ifvqgpg","pricing_plan_id":"cebpf4jnsgd1na2vs0mg"},{"bike_id":"0297113f-11e1-4497-8b79-ab7198c0f3d4","system_id":"levelo_inurba_marseille","lat":43.28448,"lon":5.35006,"is_reserved":false,"is_disabled":false,"rental_uris":{"android":"levelo://app?vid=0297113f-11e1-4497-8b79-ab7198c0f3d4","ios":"levelo://app?vid=0297113f-11e1-4497-8b79-ab7198c0f3d4"},"vehicle_type_id":"4","last_reported":1781350461,"current_range_meters":6000,"station_id":"ce4bhbh2rcd13ifvqepg","pricing_plan_id":"cebpf4jnsgd1na2vs0mg"},{"bike_id":"aec8333f-a9c6-4953-b628-b84715e28c57","system_id":"levelo_inurba_marseille","lat":43.27825,"lon":5.40716,"is_reserved":false,"is_disabled":false,"rental_uris":{"android":"levelo://app?vid=aec8333f-a9c6-4953-b628-b84715e28c57","ios":"levelo://app?vid=aec8333f-a9c6-4953-b628-b84715e28c57"},"vehicle_type_id":"4","last_reported":1781350461,"current_range_meters":6000,"station_id":"ce4bhnh2rcd13ifvqgtg","pricing_plan_id":"cebpf4jnsgd1na2vs0mg"},{"bike_id":"7042a3ac-53be-4298-91ef-4af216d264b8","system_id":"levelo_inurba_marseille","lat":43.28252,"lon":5.35084,"is_reserved":false,"is_disabled":false,"rental_uris":{"android":"levelo://app?vid=7042a3ac-53be-4298-91ef-4af216d264b8","ios":"levelo://app?vid=7042a3ac-53be-4298-91ef-4af216d264b8"},"vehicle_type_id":"4","last_reported":1781350461,"current_range_meters":6000,"station_id":"ce4bhbp2rcd13ifvqerg","pricing_plan_id":"cebpf4jnsgd1na2vs0mg"},{"bike_id":"bbcbb2dd-841e-4503-8c72-a15d9c979dd5","system_id":"levelo_inurba_marseille","lat":43.31483,"lon":5.37315,"is_reserved":false,"is_disabled":false,"rental_uris":{"android":"levelo://app?vid=bbcbb2dd-841e-4503-8c72-a15d9c979dd5","ios":"levelo://app?vid=bbcbb2dd-841e-4503-8c72-a15d9c979dd5"},"vehicle_type_id":"4","last_reported":1781350461,"current_range_meters":6000,"station_id":"ce4bgt12rcd13ifvqcd0","pricing_plan_id":"cebpf4jnsgd1na2vs0mg"},{"bike_id":"2a709130-4599-4287-9f95-81ffcaf193c0","system_id":"levelo_inurba_marseille","lat":43.23155,"lon":5.43696,"is_reserved":false,"is_disabled":false,"rental_uris":{"android":"levelo://app?vid=2a709130-4599-4287-9f95-81ffcaf193c0","ios":"levelo://app?vid=2a709130-4599-4287-9f95-81ffcaf193c0"},"vehicle_type_id":"4","last_reported":1781350461,"current_range_meters":6000,"station_id":"ce4bhmp2rcd13ifvqgog","pricing_plan_id":"cebpf4jnsgd1na2vs0mg"},{"bike_id":"f2f41311-bb5c-4ea3-b093-81b210f508fb","system_id":"levelo_inurba_marseille","lat":43.32471,"lon":5.36582,"is_reserved":false,"is_disabled":false,"rental_uris":{"android":"levelo://app?vid=f2f41311-bb5c-4ea3-b093-81b210f508fb","ios":"levelo://app?vid=f2f41311-bb5c-4ea3-b093-81b210f508fb"},"vehicle_type_id":"4","last_reported":1781350461,"current_range_meters":6000,"station_id":"ce4bhs12rcd13ifvqhvg","pricing_plan_id":"cebpf4jnsgd1na2vs0mg"},{"bike_id":"b91d9fa1-4fec-403b-8038-57eb8aa275ac","system_id":"levelo_inurba_marseille","lat":43.24386,"lon":5.37052,"is_reserved":false,"is_disabled":false,"rental_uris":{"android":"levelo://app?vid=b91d9fa1-4fec-403b-8038-57eb8aa275ac","ios":"levelo://app?vid=b91d9fa1-4fec-403b-8038-57eb8aa275ac"},"vehicle_type_id":"4","last_reported":1781350461,"current_range_meters":6000,"station_id":"ce4bhhh2rcd13ifvqfk0","pricing_plan_id":"cebpf4jnsgd1na2vs0mg"},{"bike_id":"0a91b7e5-aad5-456e-b905-400413669c01","system_id":"levelo_inurba_marseille","lat":43.27771,"lon":5.37609,"is_reserved":false,"is_disabled":false,"rental_uris":{"android":"levelo://app?vid=0a91b7e5-aad5-456e-b905-400413669c01","ios":"levelo://app?vid=0a91b7e5-aad5-456e-b905-400413669c01"},"vehicle_type_id":"4","last_reported":1781350461,"current_range_meters":6000,"station_id":"","pricing_plan_id":"cebpf4jnsgd1na2vs0mg"},{"bike_id":"62c3f239-efce-4093-b9be-af970fbf7e8f","system_id":"levelo_inurba_marseille","lat":43.24053,"lon":5.37755,"is_reserved":false,"is_disabled":false,"rental_uris":{"android":"levelo://app?vid=62c3f239-efce-4093-b9be-af970fbf7e8f","ios":"levelo://app?vid=62c3f239-efce-4093-b9be-af970fbf7e8f"},"vehicle_type_id":"4","last_reported":1781350461,"current_range_meters":6000,"station_id":"ce4bhnp2rcd13ifvqgvg","pricing_plan_id":"cebpf4jnsgd1na2vs0mg"},{"bike_id":"9abf9a11-4c4b-47a6-aa38-304b95195f1e","system_id":"levelo_inurba_marseille","lat":43.31225,"lon":5.36854,"is_reserved":false,"is_disabled":false,"rental_uris":{"android":"levelo://app?vid=9abf9a11-4c4b-47a6-aa38-304b95195f1e","ios":"levelo://app?vid=9abf9a11-4c4b-47a6-aa38-304b95195f1e"},"vehicle_type_id":"4","last_reported":1781350461,"current_range_meters":6000,"station_id":"ce4bgl92rcd13ifvqbq0","pricing_plan_id":"cebpf4jnsgd1na2vs0mg"},{"bike_id":"78f96ec0-3651-40e0-9064-540398d155f5","system_id":"levelo_inurba_marseille","lat":43.24458,"lon":5.4254,"is_reserved":false,"is_disabled":false,"rental_uris":{"android":"levelo://app?vid=78f96ec0-3651-40e0-9064-540398d155f5","ios":"levelo://app?vid=78f96ec0-3651-40e0-9064-540398d155f5"},"vehicle_type_id":"4","last_reported":1781350461,"current_range_meters":6000,"station_id":"st_d4a3vfp97mjs738cd8kg","pricing_plan_id":"cebpf4jnsgd1na2vs0mg"},{"bike_id":"2f70ef4e-6af0-41d0-bdb7-405718b4158d","system_id":"levelo_inurba_marseille","lat":43.24515,"lon":5.372983,"is_reserved":false,"is_disabled":false,"rental_uris":{"android":"levelo://app?vid=2f70ef4e-6af0-41d0-bdb7-405718b4158d","ios":"levelo://app?vid=2f70ef4e-6af0-41d0-bdb7-405718b4158d"},"vehicle_type_id":"4","last_reported":1781350461,"current_range_meters":6400,"station_id":"st_cvj6r9ubvosntc0bgbag","pricing_plan_id":"cebpf4jnsgd1na2vs0mg"},{"bike_id":"fbec45c4-dbf1-4374-ae37-3dda306e37df","system_id":"levelo_inurba_marseille","lat":43.254929,"lon":5.37645,"is_reserved":false,"is_disabled":false,"rental_uris":{"android":"levelo://app?vid=fbec45c4-dbf1-4374-ae37-3dda306e37df","ios":"levelo://app?vid=fbec45c4-dbf1-4374-ae37-3dda306e37df"},"vehicle_type_id":"4","last_reported":1781350461,"current_range_meters":6400,"station_id":"ce4bhh12rcd13ifvqff0","pricing_plan_id":"cebpf4jnsgd1na2vs0mg"},{"bike_id":"6edf579f-78f6-4a80-8faa-35bdd39ec8f9","system_id":"levelo_inurba_marseille","lat":43.30533,"lon":5.36545,"is_reserved":false,"is_disabled":false,"rental_uris":{"android":"levelo://app?vid=6edf579f-78f6-4a80-8faa-35bdd39ec8f9","ios":"levelo://app?vid=6edf579f-78f6-4a80-8faa-35bdd39ec8f9"},"vehicle_type_id":"4","last_reported":1781350461,"current_range_meters":6400,"station_id":"ce4bgs12rcd13ifvqcag","pricing_plan_id":"cebpf4jnsgd1na2vs0mg"},{"bike_id":"b9d1843a-d85f-480b-9e0d-ac8e9afe5d9f","system_id":"levelo_inurba_marseille","lat":43.337444,"lon":5.374475,"is_reserved":false,"is_disabled":false,"rental_uris":{"android":"levelo://app?vid=b9d1843a-d85f-480b-9e0d-ac8e9afe5d9f","ios":"levelo://app?vid=b9d1843a-d85f-480b-9e0d-ac8e9afe5d9f"},"vehicle_type_id":"4","last_reported":1781350461,"current_range_meters":6400,"station_id":"","pricing_plan_id":"cebpf4jnsgd1na2vs0mg"},{"bike_id":"75f2ac1b-0110-4a69-8e2b-928c67794bef","system_id":"levelo_inurba_marseille","lat":43.24461,"lon":5.42534,"is_reserved":false,"is_disabled":false,"rental_uris":{"android":"levelo://app?vid=75f2ac1b-0110-4a69-8e2b-928c67794bef","ios":"levelo://app?vid=75f2ac1b-0110-4a69-8e2b-928c67794bef"},"vehicle_type_id":"4","last_reported":1781350461,"current_range_meters":6400,"station_id":"st_d4a3vfp97mjs738cd8kg","pricing_plan_id":"cebpf4jnsgd1na2vs0mg"},{"bike_id":"ec7ff123-2191-49c9-b4f8-c9b1016b4d1d","system_id":"levelo_inurba_marseille","lat":43.33532,"lon":5.37463,"is_reserved":false,"is_disabled":false,"rental_uris":{"android":"levelo://app?vid=ec7ff123-2191-49c9-b4f8-c9b1016b4d1d","ios":"levelo://app?vid=ec7ff123-2191-49c9-b4f8-c9b1016b4d1d"},"vehicle_type_id":"4","last_reported":1781350461,"current_range_meters":6400,"station_id":"st_d46tts09ee8s73dlu43g","pricing_plan_id":"cebpf4jnsgd1na2vs0mg"},{"bike_id":"35565049-90de-4fb4-b35d-e9c548924e41","system_id":"levelo_inurba_marseille","lat":43.26765,"lon":5.39422,"is_reserved":false,"is_disabled":true,"rental_uris":{"android":"levelo://app?vid=35565049-90de-4fb4-b35d-e9c548924e41","ios":"levelo://app?vid=35565049-90de-4fb4-b35d-e9c548924e41"},"vehicle_type_id":"4","last_reported":1781350461,"current_range_meters":6400,"station_id":"ce4bhh12rcd13ifvqfg0","pricing_plan_id":"cebpf4jnsgd1na2vs0mg"},{"bike_id":"02f881ce-8c59-44ab-8b85-1dfc45ac5519","system_id":"levelo_inurba_marseille","lat":43.30589,"lon":5.37197,"is_reserved":false,"is_disabled":false,"rental_uris":{"android":"levelo://app?vid=02f881ce-8c59-44ab-8b85-1dfc45ac5519","ios":"levelo://app?vid=02f881ce-8c59-44ab-8b85-1dfc45ac5519"},"vehicle_type_id":"4","last_reported":1781350461,"current_range_meters":6400,"station_id":"ce4bgqh2rcd13ifvqc4g","pricing_plan_id":"cebpf4jnsgd1na2vs0mg"},{"bike_id":"f28e59bc-76e4-4b07-beae-e627bf741f0c","system_id":"levelo_inurba_marseille","lat":43.2781,"lon":5.4071,"is_reserved":false,"is_disabled":false,"rental_uris":{"android":"levelo://app?vid=f28e59bc-76e4-4b07-beae-e627bf741f0c","ios":"levelo://app?vid=f28e59bc-76e4-4b07-beae-e627bf741f0c"},"vehicle_type_id":"4","last_reported":1781350461,"current_range_meters":6400,"station_id":"ce4bhnh2rcd13ifvqgtg","pricing_plan_id":"cebpf4jnsgd1na2vs0mg"},{"bike_id":"6e576f7a-e6d3-4733-a6f9-a53e44ae7572","system_id":"levelo_inurba_marseille","lat":43.286573,"lon":5.363379,"is_reserved":false,"is_disabled":false,"rental_uris":{"android":"levelo://app?vid=6e576f7a-e6d3-4733-a6f9-a53e44ae7572","ios":"levelo://app?vid=6e576f7a-e6d3-4733-a6f9-a53e44ae7572"},"vehicle_type_id":"4","last_reported":1781350461,"current_range_meters":6400,"station_id":"ce4bhah2rcd13ifvqej0","pricing_plan_id":"cebpf4jnsgd1na2vs0mg"},{"bike_id":"d476aca5-3b70-40b3-8b78-89f47aa194b2","system_id":"levelo_inurba_marseille","lat":43.24073,"lon":5.37733,"is_reserved":false,"is_disabled":false,"rental_uris":{"android":"levelo://app?vid=d476aca5-3b70-40b3-8b78-89f47aa194b2","ios":"levelo://app?vid=d476aca5-3b70-40b3-8b78-89f47aa194b2"},"vehicle_type_id":"4","last_reported":1781350461,"current_range_meters":6400,"station_id":"ce4bhnp2rcd13ifvqgvg","pricing_plan_id":"cebpf4jnsgd1na2vs0mg"},{"bike_id":"d0eaaaf5-2389-4ef7-ba35-3dd1405dcd69","system_id":"levelo_inurba_marseille","lat":43.282616,"lon":5.379049,"is_reserved":false,"is_disabled":false,"rental_uris":{"android":"levelo://app?vid=d0eaaaf5-2389-4ef7-ba35-3dd1405dcd69","ios":"levelo://app?vid=d0eaaaf5-2389-4ef7-ba35-3dd1405dcd69"},"vehicle_type_id":"4","last_reported":1781350461,"current_range_meters":6400,"station_id":"ce4bha12rcd13ifvqee0","pricing_plan_id":"cebpf4jnsgd1na2vs0mg"},{"bike_id":"81ad8437-392a-453d-8bd0-b213367c4c99","system_id":"levelo_inurba_marseille","lat":43.32347,"lon":5.40619,"is_reserved":false,"is_disabled":false,"rental_uris":{"android":"levelo://app?vid=81ad8437-392a-453d-8bd0-b213367c4c99","ios":"levelo://app?vid=81ad8437-392a-453d-8bd0-b213367c4c99"},"vehicle_type_id":"4","last_reported":1781350461,"current_range_meters":6400,"station_id":"","pricing_plan_id":"cebpf4jnsgd1na2vs0mg"},{"bike_id":"8973ed0e-0f1d-4b17-8f92-c0a250fe8e91","system_id":"levelo_inurba_marseille","lat":43.27954,"lon":5.41027,"is_reserved":false,"is_disabled":false,"rental_uris":{"android":"levelo://app?vid=8973ed0e-0f1d-4b17-8f92-c0a250fe8e91","ios":"levelo://app?vid=8973ed0e-0f1d-4b17-8f92-c0a250fe8e91"},"vehicle_type_id":"4","last_reported":1781350461,"current_range_meters":6400,"station_id":"ce4bhnp2rcd13ifvqh0g","pricing_plan_id":"cebpf4jnsgd1na2vs0mg"},{"bike_id":"20c31014-f070-4043-96b2-81ad3164473b","system_id":"levelo_inurba_marseille","lat":43.29254,"lon":5.40916,"is_reserved":false,"is_disabled":false,"rental_uris":{"android":"levelo://app?vid=20c31014-f070-4043-96b2-81ad3164473b","ios":"levelo://app?vid=20c31014-f070-4043-96b2-81ad3164473b"},"vehicle_type_id":"4","last_reported":1781350461,"current_range_meters":6400,"station_id":"ce4bh192rcd13ifvqdc0","pricing_plan_id":"cebpf4jnsgd1na2vs0mg"},{"bike_id":"881a4b8c-11de-4a7a-9d78-12a7d883c428","system_id":"levelo_inurba_marseille","lat":43.27561,"lon":5.38442,"is_reserved":false,"is_disabled":false,"rental_uris":{"android":"levelo://app?vid=881a4b8c-11de-4a7a-9d78-12a7d883c428","ios":"levelo://app?vid=881a4b8c-11de-4a7a-9d78-12a7d883c428"},"vehicle_type_id":"4","last_reported":1781350461,"current_range_meters":6400,"station_id":"ce4bhh92rcd13ifvqfi0","pricing_plan_id":"cebpf4jnsgd1na2vs0mg"},{"bike_id":"eafcac8f-4e35-4bea-bcbf-9122613364b1","system_id":"levelo_inurba_marseille","lat":43.24084,"lon":5.37671,"is_reserved":false,"is_disabled":false,"rental_uris":{"android":"levelo://app?vid=eafcac8f-4e35-4bea-bcbf-9122613364b1","ios":"levelo://app?vid=eafcac8f-4e35-4bea-bcbf-9122613364b1"},"vehicle_type_id":"4","last_reported":1781350461,"current_range_meters":6400,"station_id":"ce4bhnp2rcd13ifvqgvg","pricing_plan_id":"cebpf4jnsgd1na2vs0mg"},{"bike_id":"5f68454a-3f46-4716-98ea-a07b68026da7","system_id":"levelo_inurba_marseille","lat":43.30099,"lon":5.37717,"is_reserved":false,"is_disabled":false,"rental_uris":{"android":"levelo://app?vid=5f68454a-3f46-4716-98ea-a07b68026da7","ios":"levelo://app?vid=5f68454a-3f46-4716-98ea-a07b68026da7"},"vehicle_type_id":"4","last_reported":1781350461,"current_range_meters":6400,"station_id":"","pricing_plan_id":"cebpf4jnsgd1na2vs0mg"},{"bike_id":"b0e1c627-e366-414e-b921-4572a58307db","system_id":"levelo_inurba_marseille","lat":43.28625,"lon":5.3509,"is_reserved":false,"is_disabled":true,"rental_uris":{"android":"levelo://app?vid=b0e1c627-e366-414e-b921-4572a58307db","ios":"levelo://app?vid=b0e1c627-e366-414e-b921-4572a58307db"},"vehicle_type_id":"4","last_reported":1781350461,"current_range_meters":6400,"station_id":"ce4bhch2rcd13ifvqeug","pricing_plan_id":"cebpf4jnsgd1na2vs0mg"},{"bike_id":"e5143b02-0bac-4c3e-8c38-e7137673014d","system_id":"levelo_inurba_marseille","lat":43.28617,"lon":5.35102,"is_reserved":false,"is_disabled":false,"rental_uris":{"android":"levelo://app?vid=e5143b02-0bac-4c3e-8c38-e7137673014d","ios":"levelo://app?vid=e5143b02-0bac-4c3e-8c38-e7137673014d"},"vehicle_type_id":"4","last_reported":1781350461,"current_range_meters":6400,"station_id":"ce4bhch2rcd13ifvqeug","pricing_plan_id":"cebpf4jnsgd1na2vs0mg"},{"bike_id":"d345fc02-8e7b-4f21-8f4d-b87a617e574a","system_id":"levelo_inurba_marseille","lat":43.28721,"lon":5.36082,"is_reserved":false,"is_disabled":false,"rental_uris":{"android":"levelo://app?vid=d345fc02-8e7b-4f21-8f4d-b87a617e574a","ios":"levelo://app?vid=d345fc02-8e7b-4f21-8f4d-b87a617e574a"},"vehicle_type_id":"4","last_reported":1781350461,"current_range_meters":6400,"station_id":"cki0cbj6b192h4jlfktg","pricing_plan_id":"cebpf4jnsgd1na2vs0mg"},{"bike_id":"bf740f93-dcae-45bd-8189-93f0bf5977b3","system_id":"levelo_inurba_marseille","lat":43.22557,"lon":5.41628,"is_reserved":false,"is_disabled":false,"rental_uris":{"android":"levelo://app?vid=bf740f93-dcae-45bd-8189-93f0bf5977b3","ios":"levelo://app?vid=bf740f93-dcae-45bd-8189-93f0bf5977b3"},"vehicle_type_id":"4","last_reported":1781350461,"current_range_meters":6400,"station_id":"st_d2o4gvlbi1j2169b742g","pricing_plan_id":"cebpf4jnsgd1na2vs0mg"},{"bike_id":"049baa7c-8cf0-4258-a907-45281671c213","system_id":"levelo_inurba_marseille","lat":43.27839,"lon":5.40692,"is_reserved":false,"is_disabled":false,"rental_uris":{"android":"levelo://app?vid=049baa7c-8cf0-4258-a907-45281671c213","ios":"levelo://app?vid=049baa7c-8cf0-4258-a907-45281671c213"},"vehicle_type_id":"4","last_reported":1781350461,"current_range_meters":6400,"station_id":"ce4bhnh2rcd13ifvqgtg","pricing_plan_id":"cebpf4jnsgd1na2vs0mg"},{"bike_id":"45561d4b-51d0-4410-bcb0-9648ea56f781","system_id":"levelo_inurba_marseille","lat":43.26031,"lon":5.37545,"is_reserved":false,"is_disabled":false,"rental_uris":{"android":"levelo://app?vid=45561d4b-51d0-4410-bcb0-9648ea56f781","ios":"levelo://app?vid=45561d4b-51d0-4410-bcb0-9648ea56f781"},"vehicle_type_id":"4","last_reported":1781350461,"current_range_meters":6400,"station_id":"ce4bhgh2rcd13ifvqfa0","pricing_plan_id":"cebpf4jnsgd1na2vs0mg"},{"bike_id":"89bb52f4-6289-4149-b454-a0de92c10c56","system_id":"levelo_inurba_marseille","lat":43.26224,"lon":5.37438,"is_reserved":false,"is_disabled":false,"rental_uris":{"android":"levelo://app?vid=89bb52f4-6289-4149-b454-a0de92c10c56","ios":"levelo://app?vid=89bb52f4-6289-4149-b454-a0de92c10c56"},"vehicle_type_id":"4","last_reported":1781350461,"current_range_meters":6400,"station_id":"ce4bhgp2rcd13ifvqfc0","pricing_plan_id":"cebpf4jnsgd1na2vs0mg"},{"bike_id":"010f2b89-a7df-4f5e-beb5-08a293350360","system_id":"levelo_inurba_marseille","lat":43.23155,"lon":5.43713,"is_reserved":false,"is_disabled":false,"rental_uris":{"android":"levelo://app?vid=010f2b89-a7df-4f5e-beb5-08a293350360","ios":"levelo://app?vid=010f2b89-a7df-4f5e-beb5-08a293350360"},"vehicle_type_id":"4","last_reported":1781350461,"current_range_meters":6400,"station_id":"ce4bhmp2rcd13ifvqgog","pricing_plan_id":"cebpf4jnsgd1na2vs0mg"},{"bike_id":"a1c4eb56-61a8-4e51-a22e-c5fa2fc89d3d","system_id":"levelo_inurba_marseille","lat":43.27555,"lon":5.38456,"is_reserved":false,"is_disabled":false,"rental_uris":{"android":"levelo://app?vid=a1c4eb56-61a8-4e51-a22e-c5fa2fc89d3d","ios":"levelo://app?vid=a1c4eb56-61a8-4e51-a22e-c5fa2fc89d3d"},"vehicle_type_id":"4","last_reported":1781350461,"current_range_meters":6400,"station_id":"","pricing_plan_id":"cebpf4jnsgd1na2vs0mg"},{"bike_id":"b2b66218-a4a0-4a7d-829e-0fbd5991f761","system_id":"levelo_inurba_marseille","lat":43.26559,"lon":5.37277,"is_reserved":false,"is_disabled":false,"rental_uris":{"android":"levelo://app?vid=b2b66218-a4a0-4a7d-829e-0fbd5991f761","ios":"levelo://app?vid=b2b66218-a4a0-4a7d-829e-0fbd5991f761"},"vehicle_type_id":"4","last_reported":1781350461,"current_range_meters":6400,"station_id":"ce4bhg12rcd13ifvqf70","pricing_plan_id":"cebpf4jnsgd1na2vs0mg"},{"bike_id":"a4367c49-3ad9-4e5d-b890-d24a763f0a44","system_id":"levelo_inurba_marseille","lat":43.28824,"lon":5.42761,"is_reserved":false,"is_disabled":false,"rental_uris":{"android":"levelo://app?vid=a4367c49-3ad9-4e5d-b890-d24a763f0a44","ios":"levelo://app?vid=a4367c49-3ad9-4e5d-b890-d24a763f0a44"},"vehicle_type_id":"4","last_reported":1781350461,"current_range_meters":6400,"station_id":"","pricing_plan_id":"cebpf4jnsgd1na2vs0mg"},{"bike_id":"437e3ba7-ea12-4e88-a20f-de0ed79ac149","system_id":"levelo_inurba_marseille","lat":43.24078,"lon":5.37785,"is_reserved":false,"is_disabled":false,"rental_uris":{"android":"levelo://app?vid=437e3ba7-ea12-4e88-a20f-de0ed79ac149","ios":"levelo://app?vid=437e3ba7-ea12-4e88-a20f-de0ed79ac149"},"vehicle_type_id":"4","last_reported":1781350461,"current_range_meters":6400,"station_id":"ce4bhnp2rcd13ifvqgvg","pricing_plan_id":"cebpf4jnsgd1na2vs0mg"},{"bike_id":"cc919f01-5b51-40e2-8309-fcbdb0de80e0","system_id":"levelo_inurba_marseille","lat":43.308941,"lon":5.396531,"is_reserved":false,"is_disabled":false,"rental_uris":{"android":"levelo://app?vid=cc919f01-5b51-40e2-8309-fcbdb0de80e0","ios":"levelo://app?vid=cc919f01-5b51-40e2-8309-fcbdb0de80e0"},"vehicle_type_id":"4","last_reported":1781350461,"current_range_meters":6400,"station_id":"ce4bh012rcd13ifvqcv0","pricing_plan_id":"cebpf4jnsgd1na2vs0mg"},{"bike_id":"30e11970-43f1-4eb4-85d6-ae8736f298f2","system_id":"levelo_inurba_marseille","lat":43.29103,"lon":5.38152,"is_reserved":false,"is_disabled":true,"rental_uris":{"android":"levelo://app?vid=30e11970-43f1-4eb4-85d6-ae8736f298f2","ios":"levelo://app?vid=30e11970-43f1-4eb4-85d6-ae8736f298f2"},"vehicle_type_id":"4","last_reported":1781350461,"current_range_meters":6800,"station_id":"ce4bh512rcd13ifvqe2g","pricing_plan_id":"cebpf4jnsgd1na2vs0mg"},{"bike_id":"86b4821b-066f-4af7-9341-601c3120669c","system_id":"levelo_inurba_marseille","lat":43.2624,"lon":5.38828,"is_reserved":false,"is_disabled":false,"rental_uris":{"android":"levelo://app?vid=86b4821b-066f-4af7-9341-601c3120669c","ios":"levelo://app?vid=86b4821b-066f-4af7-9341-601c3120669c"},"vehicle_type_id":"4","last_reported":1781350461,"current_range_meters":6800,"station_id":"","pricing_plan_id":"cebpf4jnsgd1na2vs0mg"},{"bike_id":"d71c8d9c-12a5-4980-92e9-d2d32c577fca","system_id":"levelo_inurba_marseille","lat":43.2119,"lon":5.35072,"is_reserved":false,"is_disabled":false,"rental_uris":{"android":"levelo://app?vid=d71c8d9c-12a5-4980-92e9-d2d32c577fca","ios":"levelo://app?vid=d71c8d9c-12a5-4980-92e9-d2d32c577fca"},"vehicle_type_id":"4","last_reported":1781350461,"current_range_meters":6800,"station_id":"st_cvj6sg6p6f1abm77japg","pricing_plan_id":"cebpf4jnsgd1na2vs0mg"},{"bike_id":"c175211b-3da4-46cc-a60f-4967a28b1b76","system_id":"levelo_inurba_marseille","lat":43.33165,"lon":5.37692,"is_reserved":false,"is_disabled":false,"rental_uris":{"android":"levelo://app?vid=c175211b-3da4-46cc-a60f-4967a28b1b76","ios":"levelo://app?vid=c175211b-3da4-46cc-a60f-4967a28b1b76"},"vehicle_type_id":"4","last_reported":1781350461,"current_range_meters":6800,"station_id":"st_d46cu089ee8s73dldbu0","pricing_plan_id":"cebpf4jnsgd1na2vs0mg"},{"bike_id":"60ef35b5-2df4-436e-b925-da19a11c6328","system_id":"levelo_inurba_marseille","lat":43.32108,"lon":5.36794,"is_reserved":false,"is_disabled":false,"rental_uris":{"android":"levelo://app?vid=60ef35b5-2df4-436e-b925-da19a11c6328","ios":"levelo://app?vid=60ef35b5-2df4-436e-b925-da19a11c6328"},"vehicle_type_id":"4","last_reported":1781350461,"current_range_meters":6800,"station_id":"ce4bhrh2rcd13ifvqhug","pricing_plan_id":"cebpf4jnsgd1na2vs0mg"},{"bike_id":"117176f1-66e3-4c2f-80e5-83a0581ccce9","system_id":"levelo_inurba_marseille","lat":43.28623,"lon":5.35138,"is_reserved":false,"is_disabled":false,"rental_uris":{"android":"levelo://app?vid=117176f1-66e3-4c2f-80e5-83a0581ccce9","ios":"levelo://app?vid=117176f1-66e3-4c2f-80e5-83a0581ccce9"},"vehicle_type_id":"4","last_reported":1781350461,"current_range_meters":6800,"station_id":"ce4bhch2rcd13ifvqeug","pricing_plan_id":"cebpf4jnsgd1na2vs0mg"},{"bike_id":"4a305e61-cb85-41d9-877c-cbe7f71a47fa","system_id":"levelo_inurba_marseille","lat":43.26212,"lon":5.37448,"is_reserved":false,"is_disabled":false,"rental_uris":{"android":"levelo://app?vid=4a305e61-cb85-41d9-877c-cbe7f71a47fa","ios":"levelo://app?vid=4a305e61-cb85-41d9-877c-cbe7f71a47fa"},"vehicle_type_id":"4","last_reported":1781350461,"current_range_meters":6800,"station_id":"ce4bhgp2rcd13ifvqfc0","pricing_plan_id":"cebpf4jnsgd1na2vs0mg"},{"bike_id":"ac3358ce-481e-4fda-9f9b-670be68b265e","system_id":"levelo_inurba_marseille","lat":43.31462,"lon":5.40178,"is_reserved":false,"is_disabled":false,"rental_uris":{"android":"levelo://app?vid=ac3358ce-481e-4fda-9f9b-670be68b265e","ios":"levelo://app?vid=ac3358ce-481e-4fda-9f9b-670be68b265e"},"vehicle_type_id":"4","last_reported":1781350461,"current_range_meters":6800,"station_id":"","pricing_plan_id":"cebpf4jnsgd1na2vs0mg"},{"bike_id":"4a78a1cb-5a48-4926-ac23-b18c5f5ab305","system_id":"levelo_inurba_marseille","lat":43.2319,"lon":5.35558,"is_reserved":false,"is_disabled":false,"rental_uris":{"android":"levelo://app?vid=4a78a1cb-5a48-4926-ac23-b18c5f5ab305","ios":"levelo://app?vid=4a78a1cb-5a48-4926-ac23-b18c5f5ab305"},"vehicle_type_id":"4","last_reported":1781350461,"current_range_meters":6800,"station_id":"ce4bhu92rcd13ifvqi70","pricing_plan_id":"cebpf4jnsgd1na2vs0mg"},{"bike_id":"5b5ea2fb-3ba8-4c10-841c-ca34891a615c","system_id":"levelo_inurba_marseille","lat":43.29408,"lon":5.36341,"is_reserved":false,"is_disabled":false,"rental_uris":{"android":"levelo://app?vid=5b5ea2fb-3ba8-4c10-841c-ca34891a615c","ios":"levelo://app?vid=5b5ea2fb-3ba8-4c10-841c-ca34891a615c"},"vehicle_type_id":"4","last_reported":1781350461,"current_range_meters":6800,"station_id":"","pricing_plan_id":"cebpf4jnsgd1na2vs0mg"},{"bike_id":"b75b860e-f642-4d57-ae10-a57f8b9673f2","system_id":"levelo_inurba_marseille","lat":43.26232,"lon":5.38779,"is_reserved":false,"is_disabled":false,"rental_uris":{"android":"levelo://app?vid=b75b860e-f642-4d57-ae10-a57f8b9673f2","ios":"levelo://app?vid=b75b860e-f642-4d57-ae10-a57f8b9673f2"},"vehicle_type_id":"4","last_reported":1781350461,"current_range_meters":6800,"station_id":"st_d8gjfg747rts73coq3b0","pricing_plan_id":"cebpf4jnsgd1na2vs0mg"},{"bike_id":"f8512e4c-12f1-407d-a418-7fa99b208e7f","system_id":"levelo_inurba_marseille","lat":43.24802,"lon":5.37448,"is_reserved":false,"is_disabled":false,"rental_uris":{"android":"levelo://app?vid=f8512e4c-12f1-407d-a418-7fa99b208e7f","ios":"levelo://app?vid=f8512e4c-12f1-407d-a418-7fa99b208e7f"},"vehicle_type_id":"4","last_reported":1781350461,"current_range_meters":6800,"station_id":"ce4bhgh2rcd13ifvqfb0","pricing_plan_id":"cebpf4jnsgd1na2vs0mg"},{"bike_id":"be004f60-661b-45b9-a00d-02d877da6c38","system_id":"levelo_inurba_marseille","lat":43.2538,"lon":5.42269,"is_reserved":false,"is_disabled":false,"rental_uris":{"android":"levelo://app?vid=be004f60-661b-45b9-a00d-02d877da6c38","ios":"levelo://app?vid=be004f60-661b-45b9-a00d-02d877da6c38"},"vehicle_type_id":"4","last_reported":1781350461,"current_range_meters":6800,"station_id":"","pricing_plan_id":"cebpf4jnsgd1na2vs0mg"},{"bike_id":"27d3f6f8-8cc3-4981-a68f-1397edf5966f","system_id":"levelo_inurba_marseille","lat":43.28539,"lon":5.44107,"is_reserved":false,"is_disabled":false,"rental_uris":{"android":"levelo://app?vid=27d3f6f8-8cc3-4981-a68f-1397edf5966f","ios":"levelo://app?vid=27d3f6f8-8cc3-4981-a68f-1397edf5966f"},"vehicle_type_id":"4","last_reported":1781350461,"current_range_meters":6800,"station_id":"st_d3j3df2ikq2c7380ej80","pricing_plan_id":"cebpf4jnsgd1na2vs0mg"},{"bike_id":"4b84cc20-93d9-4e85-811a-ba432f50bc38","system_id":"levelo_inurba_marseille","lat":43.26179,"lon":5.38071,"is_reserved":false,"is_disabled":false,"rental_uris":{"android":"levelo://app?vid=4b84cc20-93d9-4e85-811a-ba432f50bc38","ios":"levelo://app?vid=4b84cc20-93d9-4e85-811a-ba432f50bc38"},"vehicle_type_id":"4","last_reported":1781350461,"current_range_meters":6800,"station_id":"","pricing_plan_id":"cebpf4jnsgd1na2vs0mg"},{"bike_id":"5458e9e4-5a60-46b0-950d-75ac07433e31","system_id":"levelo_inurba_marseille","lat":43.2912,"lon":5.38416,"is_reserved":false,"is_disabled":false,"rental_uris":{"android":"levelo://app?vid=5458e9e4-5a60-46b0-950d-75ac07433e31","ios":"levelo://app?vid=5458e9e4-5a60-46b0-950d-75ac07433e31"},"vehicle_type_id":"4","last_reported":1781350461,"current_range_meters":6800,"station_id":"","pricing_plan_id":"cebpf4jnsgd1na2vs0mg"},{"bike_id":"bf162283-a48e-4288-8efb-61cbd1f68f3f","system_id":"levelo_inurba_marseille","lat":43.28248,"lon":5.35097,"is_reserved":false,"is_disabled":false,"rental_uris":{"android":"levelo://app?vid=bf162283-a48e-4288-8efb-61cbd1f68f3f","ios":"levelo://app?vid=bf162283-a48e-4288-8efb-61cbd1f68f3f"},"vehicle_type_id":"4","last_reported":1781350461,"current_range_meters":6800,"station_id":"ce4bhbp2rcd13ifvqerg","pricing_plan_id":"cebpf4jnsgd1na2vs0mg"},{"bike_id":"d9bbcfa4-a44d-4020-b0df-d2651b3bdf41","system_id":"levelo_inurba_marseille","lat":43.21194,"lon":5.35071,"is_reserved":false,"is_disabled":false,"rental_uris":{"android":"levelo://app?vid=d9bbcfa4-a44d-4020-b0df-d2651b3bdf41","ios":"levelo://app?vid=d9bbcfa4-a44d-4020-b0df-d2651b3bdf41"},"vehicle_type_id":"4","last_reported":1781350461,"current_range_meters":6800,"station_id":"st_cvj6sg6p6f1abm77japg","pricing_plan_id":"cebpf4jnsgd1na2vs0mg"},{"bike_id":"dc3e3e35-560a-41ac-8b92-c31e5b3f3434","system_id":"levelo_inurba_marseille","lat":43.26692,"lon":5.39274,"is_reserved":false,"is_disabled":false,"rental_uris":{"android":"levelo://app?vid=dc3e3e35-560a-41ac-8b92-c31e5b3f3434","ios":"levelo://app?vid=dc3e3e35-560a-41ac-8b92-c31e5b3f3434"},"vehicle_type_id":"4","last_reported":1781350461,"current_range_meters":6800,"station_id":"","pricing_plan_id":"cebpf4jnsgd1na2vs0mg"},{"bike_id":"b334c7c0-8403-42e4-a52a-2327702cdbf3","system_id":"levelo_inurba_marseille","lat":43.26557,"lon":5.37286,"is_reserved":false,"is_disabled":false,"rental_uris":{"android":"levelo://app?vid=b334c7c0-8403-42e4-a52a-2327702cdbf3","ios":"levelo://app?vid=b334c7c0-8403-42e4-a52a-2327702cdbf3"},"vehicle_type_id":"4","last_reported":1781350461,"current_range_meters":6800,"station_id":"ce4bhg12rcd13ifvqf70","pricing_plan_id":"cebpf4jnsgd1na2vs0mg"},{"bike_id":"bb794378-854d-48fe-be2c-f6b13e488264","system_id":"levelo_inurba_marseille","lat":43.23966,"lon":5.3664,"is_reserved":false,"is_disabled":false,"rental_uris":{"android":"levelo://app?vid=bb794378-854d-48fe-be2c-f6b13e488264","ios":"levelo://app?vid=bb794378-854d-48fe-be2c-f6b13e488264"},"vehicle_type_id":"4","last_reported":1781350461,"current_range_meters":6800,"station_id":"ce4bhi12rcd13ifvqfp0","pricing_plan_id":"cebpf4jnsgd1na2vs0mg"},{"bike_id":"718f124d-94f3-40ba-81e9-d9212ea32caa","system_id":"levelo_inurba_marseille","lat":43.30093,"lon":5.39069,"is_reserved":false,"is_disabled":false,"rental_uris":{"android":"levelo://app?vid=718f124d-94f3-40ba-81e9-d9212ea32caa","ios":"levelo://app?vid=718f124d-94f3-40ba-81e9-d9212ea32caa"},"vehicle_type_id":"4","last_reported":1781350461,"current_range_meters":6800,"station_id":"ce4bh192rcd13ifvqdb0","pricing_plan_id":"cebpf4jnsgd1na2vs0mg"},{"bike_id":"f85f6381-61f9-49f1-b5d1-4e80c0b6acbd","system_id":"levelo_inurba_marseille","lat":43.30477,"lon":5.37903,"is_reserved":false,"is_disabled":false,"rental_uris":{"android":"levelo://app?vid=f85f6381-61f9-49f1-b5d1-4e80c0b6acbd","ios":"levelo://app?vid=f85f6381-61f9-49f1-b5d1-4e80c0b6acbd"},"vehicle_type_id":"4","last_reported":1781350461,"current_range_meters":6800,"station_id":"ce4bgup2rcd13ifvqcn0","pricing_plan_id":"cebpf4jnsgd1na2vs0mg"},{"bike_id":"8f5b297e-a101-4dac-9b10-8764ca019902","system_id":"levelo_inurba_marseille","lat":43.313634,"lon":5.38489,"is_reserved":false,"is_disabled":true,"rental_uris":{"android":"levelo://app?vid=8f5b297e-a101-4dac-9b10-8764ca019902","ios":"levelo://app?vid=8f5b297e-a101-4dac-9b10-8764ca019902"},"vehicle_type_id":"4","last_reported":1781350461,"current_range_meters":6800,"station_id":"","pricing_plan_id":"cebpf4jnsgd1na2vs0mg"},{"bike_id":"9f041565-0780-4f89-a35d-fec053461d26","system_id":"levelo_inurba_marseille","lat":43.26563,"lon":5.37342,"is_reserved":false,"is_disabled":false,"rental_uris":{"android":"levelo://app?vid=9f041565-0780-4f89-a35d-fec053461d26","ios":"levelo://app?vid=9f041565-0780-4f89-a35d-fec053461d26"},"vehicle_type_id":"4","last_reported":1781350461,"current_range_meters":6800,"station_id":"ce4bhg12rcd13ifvqf70","pricing_plan_id":"cebpf4jnsgd1na2vs0mg"},{"bike_id":"6fb07b35-b88f-45ae-9e9e-ceed1b219374","system_id":"levelo_inurba_marseille","lat":43.32485,"lon":5.36572,"is_reserved":false,"is_disabled":true,"rental_uris":{"android":"levelo://app?vid=6fb07b35-b88f-45ae-9e9e-ceed1b219374","ios":"levelo://app?vid=6fb07b35-b88f-45ae-9e9e-ceed1b219374"},"vehicle_type_id":"4","last_reported":1781350461,"current_range_meters":6800,"station_id":"ce4bhs12rcd13ifvqhvg","pricing_plan_id":"cebpf4jnsgd1na2vs0mg"},{"bike_id":"903543e1-84f5-420c-985c-087b50f51827","system_id":"levelo_inurba_marseille","lat":43.28619,"lon":5.35124,"is_reserved":false,"is_disabled":false,"rental_uris":{"android":"levelo://app?vid=903543e1-84f5-420c-985c-087b50f51827","ios":"levelo://app?vid=903543e1-84f5-420c-985c-087b50f51827"},"vehicle_type_id":"4","last_reported":1781350461,"current_range_meters":6800,"station_id":"ce4bhch2rcd13ifvqeug","pricing_plan_id":"cebpf4jnsgd1na2vs0mg"},{"bike_id":"3ac38b3a-df68-4ddb-8be7-f5ce5af56eb3","system_id":"levelo_inurba_marseille","lat":43.29004,"lon":5.35619,"is_reserved":false,"is_disabled":true,"rental_uris":{"android":"levelo://app?vid=3ac38b3a-df68-4ddb-8be7-f5ce5af56eb3","ios":"levelo://app?vid=3ac38b3a-df68-4ddb-8be7-f5ce5af56eb3"},"vehicle_type_id":"4","last_reported":1781350461,"current_range_meters":6800,"station_id":"ce4bhb92rcd13ifvqen0","pricing_plan_id":"cebpf4jnsgd1na2vs0mg"},{"bike_id":"651c270d-3d5c-49ac-b11f-7c22496c4d50","system_id":"levelo_inurba_marseille","lat":43.284229,"lon":5.349767,"is_reserved":false,"is_disabled":false,"rental_uris":{"android":"levelo://app?vid=651c270d-3d5c-49ac-b11f-7c22496c4d50","ios":"levelo://app?vid=651c270d-3d5c-49ac-b11f-7c22496c4d50"},"vehicle_type_id":"4","last_reported":1781350461,"current_range_meters":6800,"station_id":"ce4bhbh2rcd13ifvqepg","pricing_plan_id":"cebpf4jnsgd1na2vs0mg"},{"bike_id":"df316ba0-e138-4f8a-b68c-849ea840ebe0","system_id":"levelo_inurba_marseille","lat":43.30169,"lon":5.38085,"is_reserved":false,"is_disabled":false,"rental_uris":{"android":"levelo://app?vid=df316ba0-e138-4f8a-b68c-849ea840ebe0","ios":"levelo://app?vid=df316ba0-e138-4f8a-b68c-849ea840ebe0"},"vehicle_type_id":"4","last_reported":1781350461,"current_range_meters":6800,"station_id":"ce4bgjp2rcd13ifvqbh0","pricing_plan_id":"cebpf4jnsgd1na2vs0mg"},{"bike_id":"6df7054b-12fc-4820-90eb-30a94928fe3f","system_id":"levelo_inurba_marseille","lat":43.23785,"lon":5.36643,"is_reserved":false,"is_disabled":false,"rental_uris":{"android":"levelo://app?vid=6df7054b-12fc-4820-90eb-30a94928fe3f","ios":"levelo://app?vid=6df7054b-12fc-4820-90eb-30a94928fe3f"},"vehicle_type_id":"4","last_reported":1781350461,"current_range_meters":6800,"station_id":"st_d3nk18o9ro0c73en2l3g","pricing_plan_id":"cebpf4jnsgd1na2vs0mg"},{"bike_id":"bcee63ed-fb2c-4c5a-a4b9-a2f7f8a62e07","system_id":"levelo_inurba_marseille","lat":43.31115,"lon":5.37768,"is_reserved":false,"is_disabled":false,"rental_uris":{"android":"levelo://app?vid=bcee63ed-fb2c-4c5a-a4b9-a2f7f8a62e07","ios":"levelo://app?vid=bcee63ed-fb2c-4c5a-a4b9-a2f7f8a62e07"},"vehicle_type_id":"4","last_reported":1781350461,"current_range_meters":6800,"station_id":"ce4bgt92rcd13ifvqcg0","pricing_plan_id":"cebpf4jnsgd1na2vs0mg"},{"bike_id":"a8da77e4-dc80-4573-aff2-042d5a0489c3","system_id":"levelo_inurba_marseille","lat":43.30617,"lon":5.39908,"is_reserved":false,"is_disabled":false,"rental_uris":{"android":"levelo://app?vid=a8da77e4-dc80-4573-aff2-042d5a0489c3","ios":"levelo://app?vid=a8da77e4-dc80-4573-aff2-042d5a0489c3"},"vehicle_type_id":"4","last_reported":1781350461,"current_range_meters":6800,"station_id":"","pricing_plan_id":"cebpf4jnsgd1na2vs0mg"},{"bike_id":"45469403-b2c5-4518-9427-6181c2421365","system_id":"levelo_inurba_marseille","lat":43.22531,"lon":5.3484,"is_reserved":false,"is_disabled":false,"rental_uris":{"android":"levelo://app?vid=45469403-b2c5-4518-9427-6181c2421365","ios":"levelo://app?vid=45469403-b2c5-4518-9427-6181c2421365"},