{"last_updated":1751890916,"ttl":60,"version":"2.2","data":{"bikes":[{"bike_id":"3da29fb8-fc97-44c6-b9ac-31dd456b2fd4","system_id":"levelo_inurba_marseille","lat":43.33771,"lon":5.37424,"is_reserved":false,"is_disabled":true,"rental_uris":{"android":"levelo://app?vid=3da29fb8-fc97-44c6-b9ac-31dd456b2fd4","ios":"levelo://app?vid=3da29fb8-fc97-44c6-b9ac-31dd456b2fd4"},"vehicle_type_id":"4","last_reported":1751890916,"current_range_meters":0,"station_id":"","pricing_plan_id":"cebpf4jnsgd1na2vs0mg"},{"bike_id":"01861ad8-a8d7-4be6-816e-651927c87584","system_id":"levelo_inurba_marseille","lat":43.33751,"lon":5.37456,"is_reserved":false,"is_disabled":true,"rental_uris":{"android":"levelo://app?vid=01861ad8-a8d7-4be6-816e-651927c87584","ios":"levelo://app?vid=01861ad8-a8d7-4be6-816e-651927c87584"},"vehicle_type_id":"4","last_reported":1751890916,"current_range_meters":0,"station_id":"","pricing_plan_id":"cebpf4jnsgd1na2vs0mg"},{"bike_id":"95c194a9-5cae-4867-bc56-f8781828dc70","system_id":"levelo_inurba_marseille","lat":43.337444,"lon":5.374475,"is_reserved":false,"is_disabled":true,"rental_uris":{"android":"levelo://app?vid=95c194a9-5cae-4867-bc56-f8781828dc70","ios":"levelo://app?vid=95c194a9-5cae-4867-bc56-f8781828dc70"},"vehicle_type_id":"4","last_reported":1751890916,"current_range_meters":0,"station_id":"","pricing_plan_id":"cebpf4jnsgd1na2vs0mg"},{"bike_id":"573a928a-27e4-4c41-92dd-ed057948734b","system_id":"levelo_inurba_marseille","lat":43.31927,"lon":5.37383,"is_reserved":false,"is_disabled":true,"rental_uris":{"android":"levelo://app?vid=573a928a-27e4-4c41-92dd-ed057948734b","ios":"levelo://app?vid=573a928a-27e4-4c41-92dd-ed057948734b"},"vehicle_type_id":"4","last_reported":1751890916,"current_range_meters":0,"station_id":"","pricing_plan_id":"cebpf4jnsgd1na2vs0mg"},{"bike_id":"318b73ce-fb81-4f93-8d0a-043102cd8f2d","system_id":"levelo_inurba_marseille","lat":43.31124,"lon":5.36919,"is_reserved":false,"is_disabled":true,"rental_uris":{"android":"levelo://app?vid=318b73ce-fb81-4f93-8d0a-043102cd8f2d","ios":"levelo://app?vid=318b73ce-fb81-4f93-8d0a-043102cd8f2d"},"vehicle_type_id":"4","last_reported":1751890916,"current_range_meters":0,"station_id":"","pricing_plan_id":"cebpf4jnsgd1na2vs0mg"},{"bike_id":"1989fea6-4750-43bd-8400-3317758950fa","system_id":"levelo_inurba_marseille","lat":43.3047,"lon":5.37908,"is_reserved":false,"is_disabled":true,"rental_uris":{"android":"levelo://app?vid=1989fea6-4750-43bd-8400-3317758950fa","ios":"levelo://app?vid=1989fea6-4750-43bd-8400-3317758950fa"},"vehicle_type_id":"4","last_reported":1751890916,"current_range_meters":0,"station_id":"ce4bgup2rcd13ifvqcn0","pricing_plan_id":"cebpf4jnsgd1na2vs0mg"},{"bike_id":"b4fad069-4146-4f1d-82cc-40dad4b202fc","system_id":"levelo_inurba_marseille","lat":43.31055,"lon":5.38345,"is_reserved":false,"is_disabled":true,"rental_uris":{"android":"levelo://app?vid=b4fad069-4146-4f1d-82cc-40dad4b202fc","ios":"levelo://app?vid=b4fad069-4146-4f1d-82cc-40dad4b202fc"},"vehicle_type_id":"4","last_reported":1751890916,"current_range_meters":0,"station_id":"ce4bgv92rcd13ifvqcr0","pricing_plan_id":"cebpf4jnsgd1na2vs0mg"},{"bike_id":"51981953-2140-4022-b40a-01334e7e2c2b","system_id":"levelo_inurba_marseille","lat":43.27377,"lon":5.36272,"is_reserved":false,"is_disabled":true,"rental_uris":{"android":"levelo://app?vid=51981953-2140-4022-b40a-01334e7e2c2b","ios":"levelo://app?vid=51981953-2140-4022-b40a-01334e7e2c2b"},"vehicle_type_id":"4","last_reported":1751890916,"current_range_meters":0,"station_id":"ce4bhbh2rcd13ifvqeo0","pricing_plan_id":"cebpf4jnsgd1na2vs0mg"},{"bike_id":"89c081bb-29c1-49ec-851a-ee35c7cbdcc8","system_id":"levelo_inurba_marseille","lat":43.28415,"lon":5.34983,"is_reserved":false,"is_disabled":true,"rental_uris":{"android":"levelo://app?vid=89c081bb-29c1-49ec-851a-ee35c7cbdcc8","ios":"levelo://app?vid=89c081bb-29c1-49ec-851a-ee35c7cbdcc8"},"vehicle_type_id":"4","last_reported":1751890916,"current_range_meters":0,"station_id":"ce4bhbh2rcd13ifvqepg","pricing_plan_id":"cebpf4jnsgd1na2vs0mg"},{"bike_id":"5b709ab3-27eb-44be-9159-c5f1579e09cd","system_id":"levelo_inurba_marseille","lat":43.31919,"lon":5.40808,"is_reserved":false,"is_disabled":true,"rental_uris":{"android":"levelo://app?vid=5b709ab3-27eb-44be-9159-c5f1579e09cd","ios":"levelo://app?vid=5b709ab3-27eb-44be-9159-c5f1579e09cd"},"vehicle_type_id":"4","last_reported":1751890916,"current_range_meters":0,"station_id":"ce4bhq12rcd13ifvqhig","pricing_plan_id":"cebpf4jnsgd1na2vs0mg"},{"bike_id":"c66442ba-1799-4279-ae93-7dfb7b069424","system_id":"levelo_inurba_marseille","lat":43.320498,"lon":5.415598,"is_reserved":false,"is_disabled":true,"rental_uris":{"android":"levelo://app?vid=c66442ba-1799-4279-ae93-7dfb7b069424","ios":"levelo://app?vid=c66442ba-1799-4279-ae93-7dfb7b069424"},"vehicle_type_id":"4","last_reported":1751890916,"current_range_meters":0,"station_id":"ce4bhq92rcd13ifvqhkg","pricing_plan_id":"cebpf4jnsgd1na2vs0mg"},{"bike_id":"b6c7b6c7-a031-4a0b-81c9-f2d9f0d67de1","system_id":"levelo_inurba_marseille","lat":43.3203,"lon":5.41563,"is_reserved":false,"is_disabled":true,"rental_uris":{"android":"levelo://app?vid=b6c7b6c7-a031-4a0b-81c9-f2d9f0d67de1","ios":"levelo://app?vid=b6c7b6c7-a031-4a0b-81c9-f2d9f0d67de1"},"vehicle_type_id":"4","last_reported":1751890916,"current_range_meters":0,"station_id":"ce4bhq92rcd13ifvqhkg","pricing_plan_id":"cebpf4jnsgd1na2vs0mg"},{"bike_id":"b4b7eb6f-5d24-4d35-87d8-f90bab30d04c","system_id":"levelo_inurba_marseille","lat":43.32296,"lon":5.38295,"is_reserved":false,"is_disabled":true,"rental_uris":{"android":"levelo://app?vid=b4b7eb6f-5d24-4d35-87d8-f90bab30d04c","ios":"levelo://app?vid=b4b7eb6f-5d24-4d35-87d8-f90bab30d04c"},"vehicle_type_id":"4","last_reported":1751890916,"current_range_meters":0,"station_id":"ce4bhr12rcd13ifvqhqg","pricing_plan_id":"cebpf4jnsgd1na2vs0mg"},{"bike_id":"3d508917-55ee-42b6-894b-89c2a444dc06","system_id":"levelo_inurba_marseille","lat":43.22507,"lon":5.34782,"is_reserved":false,"is_disabled":true,"rental_uris":{"android":"levelo://app?vid=3d508917-55ee-42b6-894b-89c2a444dc06","ios":"levelo://app?vid=3d508917-55ee-42b6-894b-89c2a444dc06"},"vehicle_type_id":"4","last_reported":1751890916,"current_range_meters":0,"station_id":"st_cvj5dfep6f1abm77gieg","pricing_plan_id":"cebpf4jnsgd1na2vs0mg"},{"bike_id":"34982e0d-3864-470b-a989-cf9eb1bc1f10","system_id":"levelo_inurba_marseille","lat":43.225105,"lon":5.347893,"is_reserved":false,"is_disabled":true,"rental_uris":{"android":"levelo://app?vid=34982e0d-3864-470b-a989-cf9eb1bc1f10","ios":"levelo://app?vid=34982e0d-3864-470b-a989-cf9eb1bc1f10"},"vehicle_type_id":"4","last_reported":1751890916,"current_range_meters":0,"station_id":"st_cvj5dfep6f1abm77gieg","pricing_plan_id":"cebpf4jnsgd1na2vs0mg"},{"bike_id":"e86ba8c9-208d-482c-a826-4c100938472a","system_id":"levelo_inurba_marseille","lat":43.21193,"lon":5.35076,"is_reserved":false,"is_disabled":true,"rental_uris":{"android":"levelo://app?vid=e86ba8c9-208d-482c-a826-4c100938472a","ios":"levelo://app?vid=e86ba8c9-208d-482c-a826-4c100938472a"},"vehicle_type_id":"4","last_reported":1751890916,"current_range_meters":0,"station_id":"st_cvj6sg6p6f1abm77japg","pricing_plan_id":"cebpf4jnsgd1na2vs0mg"},{"bike_id":"74b1dda8-0f9c-4b4d-b7f6-1d17291e04a0","system_id":"levelo_inurba_marseille","lat":43.28429,"lon":5.37524,"is_reserved":false,"is_disabled":true,"rental_uris":{"android":"levelo://app?vid=74b1dda8-0f9c-4b4d-b7f6-1d17291e04a0","ios":"levelo://app?vid=74b1dda8-0f9c-4b4d-b7f6-1d17291e04a0"},"vehicle_type_id":"4","last_reported":1751890916,"current_range_meters":400,"station_id":"ce4bh412rcd13ifvqds0","pricing_plan_id":"cebpf4jnsgd1na2vs0mg"},{"bike_id":"fc11f1e3-fd7d-492a-8c42-2fb8faf16c6a","system_id":"levelo_inurba_marseille","lat":43.30373,"lon":5.42496,"is_reserved":false,"is_disabled":true,"rental_uris":{"android":"levelo://app?vid=fc11f1e3-fd7d-492a-8c42-2fb8faf16c6a","ios":"levelo://app?vid=fc11f1e3-fd7d-492a-8c42-2fb8faf16c6a"},"vehicle_type_id":"4","last_reported":1751890916,"current_range_meters":400,"station_id":"ce4bhoh2rcd13ifvqh6g","pricing_plan_id":"cebpf4jnsgd1na2vs0mg"},{"bike_id":"892b89da-d408-4a58-b276-e346f2cf795c","system_id":"levelo_inurba_marseille","lat":43.29279,"lon":5.38457,"is_reserved":false,"is_disabled":true,"rental_uris":{"android":"levelo://app?vid=892b89da-d408-4a58-b276-e346f2cf795c","ios":"levelo://app?vid=892b89da-d408-4a58-b276-e346f2cf795c"},"vehicle_type_id":"4","last_reported":1751890916,"current_range_meters":800,"station_id":"ce4bh692rcd13ifvqea0","pricing_plan_id":"cebpf4jnsgd1na2vs0mg"},{"bike_id":"f0a19a9e-f150-4c1e-bcc6-db3195370cac","system_id":"levelo_inurba_marseille","lat":43.32696,"lon":5.43144,"is_reserved":false,"is_disabled":true,"rental_uris":{"android":"levelo://app?vid=f0a19a9e-f150-4c1e-bcc6-db3195370cac","ios":"levelo://app?vid=f0a19a9e-f150-4c1e-bcc6-db3195370cac"},"vehicle_type_id":"4","last_reported":1751890916,"current_range_meters":1200,"station_id":"","pricing_plan_id":"cebpf4jnsgd1na2vs0mg"},{"bike_id":"3ed68d12-3756-42e2-aa56-a31522c50e97","system_id":"levelo_inurba_marseille","lat":43.28109,"lon":5.37843,"is_reserved":false,"is_disabled":true,"rental_uris":{"android":"levelo://app?vid=3ed68d12-3756-42e2-aa56-a31522c50e97","ios":"levelo://app?vid=3ed68d12-3756-42e2-aa56-a31522c50e97"},"vehicle_type_id":"4","last_reported":1751890916,"current_range_meters":1200,"station_id":"ce4bha12rcd13ifvqee0","pricing_plan_id":"cebpf4jnsgd1na2vs0mg"},{"bike_id":"d1b57efa-9072-4bf9-af7d-4e264d31470d","system_id":"levelo_inurba_marseille","lat":43.28619,"lon":5.35108,"is_reserved":false,"is_disabled":false,"rental_uris":{"android":"levelo://app?vid=d1b57efa-9072-4bf9-af7d-4e264d31470d","ios":"levelo://app?vid=d1b57efa-9072-4bf9-af7d-4e264d31470d"},"vehicle_type_id":"4","last_reported":1751890916,"current_range_meters":2800,"station_id":"ce4bhch2rcd13ifvqeug","pricing_plan_id":"cebpf4jnsgd1na2vs0mg"},{"bike_id":"4f6702f7-c169-44ef-aeca-b04d2f72f546","system_id":"levelo_inurba_marseille","lat":43.27384,"lon":5.36262,"is_reserved":false,"is_disabled":false,"rental_uris":{"android":"levelo://app?vid=4f6702f7-c169-44ef-aeca-b04d2f72f546","ios":"levelo://app?vid=4f6702f7-c169-44ef-aeca-b04d2f72f546"},"vehicle_type_id":"4","last_reported":1751890916,"current_range_meters":3200,"station_id":"ce4bhbh2rcd13ifvqeo0","pricing_plan_id":"cebpf4jnsgd1na2vs0mg"},{"bike_id":"8eb283fe-44c7-4bb1-836e-cde6c55f1adf","system_id":"levelo_inurba_marseille","lat":43.31798,"lon":5.36846,"is_reserved":false,"is_disabled":false,"rental_uris":{"android":"levelo://app?vid=8eb283fe-44c7-4bb1-836e-cde6c55f1adf","ios":"levelo://app?vid=8eb283fe-44c7-4bb1-836e-cde6c55f1adf"},"vehicle_type_id":"4","last_reported":1751890916,"current_range_meters":4000,"station_id":"","pricing_plan_id":"cebpf4jnsgd1na2vs0mg"},{"bike_id":"b2f2c7b7-fc5a-4e4e-991e-fd4459d05bdf","system_id":"levelo_inurba_marseille","lat":43.307,"lon":5.39533,"is_reserved":false,"is_disabled":false,"rental_uris":{"android":"levelo://app?vid=b2f2c7b7-fc5a-4e4e-991e-fd4459d05bdf","ios":"levelo://app?vid=b2f2c7b7-fc5a-4e4e-991e-fd4459d05bdf"},"vehicle_type_id":"4","last_reported":1751890916,"current_range_meters":4000,"station_id":"","pricing_plan_id":"cebpf4jnsgd1na2vs0mg"},{"bike_id":"d16dfb85-ea93-41bb-8bd7-da7a3f13f3e4","system_id":"levelo_inurba_marseille","lat":43.30127,"lon":5.38778,"is_reserved":false,"is_disabled":false,"rental_uris":{"android":"levelo://app?vid=d16dfb85-ea93-41bb-8bd7-da7a3f13f3e4","ios":"levelo://app?vid=d16dfb85-ea93-41bb-8bd7-da7a3f13f3e4"},"vehicle_type_id":"4","last_reported":1751890916,"current_range_meters":4000,"station_id":"ce4bghh2rcd13ifvqb60","pricing_plan_id":"cebpf4jnsgd1na2vs0mg"},{"bike_id":"d6473402-d988-490f-87e8-fcf4e9347885","system_id":"levelo_inurba_marseille","lat":43.30421,"lon":5.41294,"is_reserved":false,"is_disabled":false,"rental_uris":{"android":"levelo://app?vid=d6473402-d988-490f-87e8-fcf4e9347885","ios":"levelo://app?vid=d6473402-d988-490f-87e8-fcf4e9347885"},"vehicle_type_id":"4","last_reported":1751890916,"current_range_meters":4000,"station_id":"ce4bhop2rcd13ifvqh8g","pricing_plan_id":"cebpf4jnsgd1na2vs0mg"},{"bike_id":"4a34ce47-ca1a-4180-9a50-c3136b705344","system_id":"levelo_inurba_marseille","lat":43.26686,"lon":5.38277,"is_reserved":false,"is_disabled":false,"rental_uris":{"android":"levelo://app?vid=4a34ce47-ca1a-4180-9a50-c3136b705344","ios":"levelo://app?vid=4a34ce47-ca1a-4180-9a50-c3136b705344"},"vehicle_type_id":"4","last_reported":1751890916,"current_range_meters":4400,"station_id":"ce4bhg92rcd13ifvqf90","pricing_plan_id":"cebpf4jnsgd1na2vs0mg"},{"bike_id":"3b778c0a-676c-4063-845a-59206cead12b","system_id":"levelo_inurba_marseille","lat":43.307904,"lon":5.376384,"is_reserved":false,"is_disabled":false,"rental_uris":{"android":"levelo://app?vid=3b778c0a-676c-4063-845a-59206cead12b","ios":"levelo://app?vid=3b778c0a-676c-4063-845a-59206cead12b"},"vehicle_type_id":"4","last_reported":1751890916,"current_range_meters":4800,"station_id":"ce4bgv92rcd13ifvqcq0","pricing_plan_id":"cebpf4jnsgd1na2vs0mg"},{"bike_id":"86c92dc1-b4da-49d9-acb8-ba390f939865","system_id":"levelo_inurba_marseille","lat":43.330276,"lon":5.392427,"is_reserved":false,"is_disabled":false,"rental_uris":{"android":"levelo://app?vid=86c92dc1-b4da-49d9-acb8-ba390f939865","ios":"levelo://app?vid=86c92dc1-b4da-49d9-acb8-ba390f939865"},"vehicle_type_id":"4","last_reported":1751890916,"current_range_meters":6000,"station_id":"","pricing_plan_id":"cebpf4jnsgd1na2vs0mg"},{"bike_id":"dd35cf19-5c68-4f15-84e1-3b0e51e6a65b","system_id":"levelo_inurba_marseille","lat":43.23968,"lon":5.36638,"is_reserved":false,"is_disabled":false,"rental_uris":{"android":"levelo://app?vid=dd35cf19-5c68-4f15-84e1-3b0e51e6a65b","ios":"levelo://app?vid=dd35cf19-5c68-4f15-84e1-3b0e51e6a65b"},"vehicle_type_id":"4","last_reported":1751890916,"current_range_meters":6000,"station_id":"ce4bhi12rcd13ifvqfp0","pricing_plan_id":"cebpf4jnsgd1na2vs0mg"},{"bike_id":"622f1dbb-766b-49b2-962e-ce9f5bd9fc48","system_id":"levelo_inurba_marseille","lat":43.27072,"lon":5.4228,"is_reserved":false,"is_disabled":false,"rental_uris":{"android":"levelo://app?vid=622f1dbb-766b-49b2-962e-ce9f5bd9fc48","ios":"levelo://app?vid=622f1dbb-766b-49b2-962e-ce9f5bd9fc48"},"vehicle_type_id":"4","last_reported":1751890916,"current_range_meters":6000,"station_id":"ce4bhk92rcd13ifvqgb0","pricing_plan_id":"cebpf4jnsgd1na2vs0mg"},{"bike_id":"d154df90-1dea-4358-a9b9-86e47edb0cca","system_id":"levelo_inurba_marseille","lat":43.27209,"lon":5.39178,"is_reserved":false,"is_disabled":false,"rental_uris":{"android":"levelo://app?vid=d154df90-1dea-4358-a9b9-86e47edb0cca","ios":"levelo://app?vid=d154df90-1dea-4358-a9b9-86e47edb0cca"},"vehicle_type_id":"4","last_reported":1751890916,"current_range_meters":6400,"station_id":"ce4bhhp2rcd13ifvqfm0","pricing_plan_id":"cebpf4jnsgd1na2vs0mg"},{"bike_id":"79aa9203-d48f-4598-9901-24d7b0b1656c","system_id":"levelo_inurba_marseille","lat":43.27077,"lon":5.42288,"is_reserved":false,"is_disabled":false,"rental_uris":{"android":"levelo://app?vid=79aa9203-d48f-4598-9901-24d7b0b1656c","ios":"levelo://app?vid=79aa9203-d48f-4598-9901-24d7b0b1656c"},"vehicle_type_id":"4","last_reported":1751890916,"current_range_meters":6400,"station_id":"ce4bhk92rcd13ifvqgb0","pricing_plan_id":"cebpf4jnsgd1na2vs0mg"},{"bike_id":"268baf60-9c7a-419c-8df6-646409f735b6","system_id":"levelo_inurba_marseille","lat":43.31487,"lon":5.37293,"is_reserved":false,"is_disabled":false,"rental_uris":{"android":"levelo://app?vid=268baf60-9c7a-419c-8df6-646409f735b6","ios":"levelo://app?vid=268baf60-9c7a-419c-8df6-646409f735b6"},"vehicle_type_id":"4","last_reported":1751890916,"current_range_meters":6800,"station_id":"ce4bgt12rcd13ifvqcd0","pricing_plan_id":"cebpf4jnsgd1na2vs0mg"},{"bike_id":"bdfeeb2e-d827-4107-a815-3383f42458b1","system_id":"levelo_inurba_marseille","lat":43.28486,"lon":5.38427,"is_reserved":false,"is_disabled":false,"rental_uris":{"android":"levelo://app?vid=bdfeeb2e-d827-4107-a815-3383f42458b1","ios":"levelo://app?vid=bdfeeb2e-d827-4107-a815-3383f42458b1"},"vehicle_type_id":"4","last_reported":1751890916,"current_range_meters":6800,"station_id":"ce4bh512rcd13ifvqe3g","pricing_plan_id":"cebpf4jnsgd1na2vs0mg"},{"bike_id":"9b12efb3-4ae6-4bf8-8f04-335a6a010975","system_id":"levelo_inurba_marseille","lat":43.29274,"lon":5.36837,"is_reserved":false,"is_disabled":false,"rental_uris":{"android":"levelo://app?vid=9b12efb3-4ae6-4bf8-8f04-335a6a010975","ios":"levelo://app?vid=9b12efb3-4ae6-4bf8-8f04-335a6a010975"},"vehicle_type_id":"4","last_reported":1751890916,"current_range_meters":6800,"station_id":"ce4bhbp2rcd13ifvqesg","pricing_plan_id":"cebpf4jnsgd1na2vs0mg"},{"bike_id":"9c2b2351-84ef-4b61-b87d-d4d3c3bf8e9a","system_id":"levelo_inurba_marseille","lat":43.28153,"lon":5.42643,"is_reserved":false,"is_disabled":false,"rental_uris":{"android":"levelo://app?vid=9c2b2351-84ef-4b61-b87d-d4d3c3bf8e9a","ios":"levelo://app?vid=9c2b2351-84ef-4b61-b87d-d4d3c3bf8e9a"},"vehicle_type_id":"4","last_reported":1751890916,"current_range_meters":6800,"station_id":"ce4bhnh2rcd13ifvqgug","pricing_plan_id":"cebpf4jnsgd1na2vs0mg"},{"bike_id":"383db20e-d9c1-45c4-bd13-eab9918b6bae","system_id":"levelo_inurba_marseille","lat":43.292291,"lon":5.360511,"is_reserved":false,"is_disabled":false,"rental_uris":{"android":"levelo://app?vid=383db20e-d9c1-45c4-bd13-eab9918b6bae","ios":"levelo://app?vid=383db20e-d9c1-45c4-bd13-eab9918b6bae"},"vehicle_type_id":"4","last_reported":1751890916,"current_range_meters":7200,"station_id":"","pricing_plan_id":"cebpf4jnsgd1na2vs0mg"},{"bike_id":"ed290504-6948-4f69-8584-2e2b0286febf","system_id":"levelo_inurba_marseille","lat":43.21202,"lon":5.35105,"is_reserved":false,"is_disabled":false,"rental_uris":{"android":"levelo://app?vid=ed290504-6948-4f69-8584-2e2b0286febf","ios":"levelo://app?vid=ed290504-6948-4f69-8584-2e2b0286febf"},"vehicle_type_id":"4","last_reported":1751890916,"current_range_meters":7200,"station_id":"st_cvj6sg6p6f1abm77japg","pricing_plan_id":"cebpf4jnsgd1na2vs0mg"},{"bike_id":"a199db9b-89d8-4934-b4b4-a639f5cfde2b","system_id":"levelo_inurba_marseille","lat":43.31127,"lon":5.37784,"is_reserved":false,"is_disabled":false,"rental_uris":{"android":"levelo://app?vid=a199db9b-89d8-4934-b4b4-a639f5cfde2b","ios":"levelo://app?vid=a199db9b-89d8-4934-b4b4-a639f5cfde2b"},"vehicle_type_id":"4","last_reported":1751890916,"current_range_meters":8000,"station_id":"ce4bgt92rcd13ifvqcg0","pricing_plan_id":"cebpf4jnsgd1na2vs0mg"},{"bike_id":"fe44924c-dcf0-4048-a1ad-9e680cc9c00c","system_id":"levelo_inurba_marseille","lat":43.26025,"lon":5.41743,"is_reserved":false,"is_disabled":false,"rental_uris":{"android":"levelo://app?vid=fe44924c-dcf0-4048-a1ad-9e680cc9c00c","ios":"levelo://app?vid=fe44924c-dcf0-4048-a1ad-9e680cc9c00c"},"vehicle_type_id":"4","last_reported":1751890916,"current_range_meters":8400,"station_id":"","pricing_plan_id":"cebpf4jnsgd1na2vs0mg"},{"bike_id":"e9c059f6-b0fe-4485-a35c-9749dd357939","system_id":"levelo_inurba_marseille","lat":43.29538,"lon":5.3854,"is_reserved":false,"is_disabled":false,"rental_uris":{"android":"levelo://app?vid=e9c059f6-b0fe-4485-a35c-9749dd357939","ios":"levelo://app?vid=e9c059f6-b0fe-4485-a35c-9749dd357939"},"vehicle_type_id":"4","last_reported":1751890916,"current_range_meters":8400,"station_id":"ce4bgih2rcd13ifvqba0","pricing_plan_id":"cebpf4jnsgd1na2vs0mg"},{"bike_id":"ffa4db6d-0824-4100-ad76-e8c1d78014e6","system_id":"levelo_inurba_marseille","lat":43.29998,"lon":5.37294,"is_reserved":false,"is_disabled":false,"rental_uris":{"android":"levelo://app?vid=ffa4db6d-0824-4100-ad76-e8c1d78014e6","ios":"levelo://app?vid=ffa4db6d-0824-4100-ad76-e8c1d78014e6"},"vehicle_type_id":"4","last_reported":1751890916,"current_range_meters":8800,"station_id":"ce4bgr92rcd13ifvqc7g","pricing_plan_id":"cebpf4jnsgd1na2vs0mg"},{"bike_id":"b3bcb66d-d236-4f13-8020-b3d623b5fb37","system_id":"levelo_inurba_marseille","lat":43.28411,"lon":5.34996,"is_reserved":false,"is_disabled":false,"rental_uris":{"android":"levelo://app?vid=b3bcb66d-d236-4f13-8020-b3d623b5fb37","ios":"levelo://app?vid=b3bcb66d-d236-4f13-8020-b3d623b5fb37"},"vehicle_type_id":"4","last_reported":1751890916,"current_range_meters":8800,"station_id":"ce4bhbh2rcd13ifvqepg","pricing_plan_id":"cebpf4jnsgd1na2vs0mg"},{"bike_id":"4b663405-7b2f-4cb8-ad1e-6620ab39650d","system_id":"levelo_inurba_marseille","lat":43.23137,"lon":5.43726,"is_reserved":false,"is_disabled":false,"rental_uris":{"android":"levelo://app?vid=4b663405-7b2f-4cb8-ad1e-6620ab39650d","ios":"levelo://app?vid=4b663405-7b2f-4cb8-ad1e-6620ab39650d"},"vehicle_type_id":"4","last_reported":1751890916,"current_range_meters":8800,"station_id":"ce4bhmp2rcd13ifvqgog","pricing_plan_id":"cebpf4jnsgd1na2vs0mg"},{"bike_id":"fd586474-0a0c-4ada-8c0d-c3f0262ebb11","system_id":"levelo_inurba_marseille","lat":43.28001,"lon":5.40011,"is_reserved":false,"is_disabled":false,"rental_uris":{"android":"levelo://app?vid=fd586474-0a0c-4ada-8c0d-c3f0262ebb11","ios":"levelo://app?vid=fd586474-0a0c-4ada-8c0d-c3f0262ebb11"},"vehicle_type_id":"4","last_reported":1751890916,"current_range_meters":8800,"station_id":"ce4bho92rcd13ifvqh4g","pricing_plan_id":"cebpf4jnsgd1na2vs0mg"},{"bike_id":"ed7c9e0d-6b04-46f2-a48e-9998e89c71fe","system_id":"levelo_inurba_marseille","lat":43.28415,"lon":5.34982,"is_reserved":false,"is_disabled":false,"rental_uris":{"android":"levelo://app?vid=ed7c9e0d-6b04-46f2-a48e-9998e89c71fe","ios":"levelo://app?vid=ed7c9e0d-6b04-46f2-a48e-9998e89c71fe"},"vehicle_type_id":"4","last_reported":1751890916,"current_range_meters":9200,"station_id":"ce4bhbh2rcd13ifvqepg","pricing_plan_id":"cebpf4jnsgd1na2vs0mg"},{"bike_id":"60f3d515-a9ba-4358-ba10-5994fece7a0d","system_id":"levelo_inurba_marseille","lat":43.321,"lon":5.367791,"is_reserved":false,"is_disabled":false,"rental_uris":{"android":"levelo://app?vid=60f3d515-a9ba-4358-ba10-5994fece7a0d","ios":"levelo://app?vid=60f3d515-a9ba-4358-ba10-5994fece7a0d"},"vehicle_type_id":"4","last_reported":1751890916,"current_range_meters":9200,"station_id":"ce4bhrh2rcd13ifvqhug","pricing_plan_id":"cebpf4jnsgd1na2vs0mg"},{"bike_id":"d6c5e041-56d5-44d3-8767-93bb0abd1776","system_id":"levelo_inurba_marseille","lat":43.21766,"lon":5.34614,"is_reserved":false,"is_disabled":false,"rental_uris":{"android":"levelo://app?vid=d6c5e041-56d5-44d3-8767-93bb0abd1776","ios":"levelo://app?vid=d6c5e041-56d5-44d3-8767-93bb0abd1776"},"vehicle_type_id":"4","last_reported":1751890916,"current_range_meters":9200,"station_id":"st_cvj6r9ubvosntc0bgbag","pricing_plan_id":"cebpf4jnsgd1na2vs0mg"},{"bike_id":"3fd7951e-7e67-4568-8552-086bd0052874","system_id":"levelo_inurba_marseille","lat":43.217512,"lon":5.345908,"is_reserved":false,"is_disabled":false,"rental_uris":{"android":"levelo://app?vid=3fd7951e-7e67-4568-8552-086bd0052874","ios":"levelo://app?vid=3fd7951e-7e67-4568-8552-086bd0052874"},"vehicle_type_id":"4","last_reported":1751890916,"current_range_meters":9200,"station_id":"st_cvj6r9ubvosntc0bgbag","pricing_plan_id":"cebpf4jnsgd1na2vs0mg"},{"bike_id":"653697c4-c439-4a6d-869a-0ee928b604f9","system_id":"levelo_inurba_marseille","lat":43.2601,"lon":5.4174,"is_reserved":false,"is_disabled":false,"rental_uris":{"android":"levelo://app?vid=653697c4-c439-4a6d-869a-0ee928b604f9","ios":"levelo://app?vid=653697c4-c439-4a6d-869a-0ee928b604f9"},"vehicle_type_id":"4","last_reported":1751890916,"current_range_meters":9600,"station_id":"","pricing_plan_id":"cebpf4jnsgd1na2vs0mg"},{"bike_id":"f709a840-f82a-44d6-b7b6-b9b893b58502","system_id":"levelo_inurba_marseille","lat":43.260225,"lon":5.375465,"is_reserved":false,"is_disabled":false,"rental_uris":{"android":"levelo://app?vid=f709a840-f82a-44d6-b7b6-b9b893b58502","ios":"levelo://app?vid=f709a840-f82a-44d6-b7b6-b9b893b58502"},"vehicle_type_id":"4","last_reported":1751890916,"current_range_meters":9600,"station_id":"ce4bhgh2rcd13ifvqfa0","pricing_plan_id":"cebpf4jnsgd1na2vs0mg"},{"bike_id":"31d0e433-68bf-4957-b424-ed52a22f117f","system_id":"levelo_inurba_marseille","lat":43.27072,"lon":5.42276,"is_reserved":false,"is_disabled":false,"rental_uris":{"android":"levelo://app?vid=31d0e433-68bf-4957-b424-ed52a22f117f","ios":"levelo://app?vid=31d0e433-68bf-4957-b424-ed52a22f117f"},"vehicle_type_id":"4","last_reported":1751890916,"current_range_meters":9600,"station_id":"ce4bhk92rcd13ifvqgb0","pricing_plan_id":"cebpf4jnsgd1na2vs0mg"},{"bike_id":"0b2ccd0f-688e-4ec3-aac3-f69227ec388f","system_id":"levelo_inurba_marseille","lat":43.32099,"lon":5.36741,"is_reserved":false,"is_disabled":false,"rental_uris":{"android":"levelo://app?vid=0b2ccd0f-688e-4ec3-aac3-f69227ec388f","ios":"levelo://app?vid=0b2ccd0f-688e-4ec3-aac3-f69227ec388f"},"vehicle_type_id":"4","last_reported":1751890916,"current_range_meters":9600,"station_id":"ce4bhrh2rcd13ifvqhug","pricing_plan_id":"cebpf4jnsgd1na2vs0mg"},{"bike_id":"f9a13235-15f4-4575-bf20-2ff258626944","system_id":"levelo_inurba_marseille","lat":43.29625,"lon":5.38099,"is_reserved":false,"is_disabled":false,"rental_uris":{"android":"levelo://app?vid=f9a13235-15f4-4575-bf20-2ff258626944","ios":"levelo://app?vid=f9a13235-15f4-4575-bf20-2ff258626944"},"vehicle_type_id":"4","last_reported":1751890916,"current_range_meters":10000,"station_id":"ce4bgl12rcd13ifvqbo0","pricing_plan_id":"cebpf4jnsgd1na2vs0mg"},{"bike_id":"ab506a97-485c-40df-a9cf-906b44e77dbd","system_id":"levelo_inurba_marseille","lat":43.2872,"lon":5.379453,"is_reserved":false,"is_disabled":false,"rental_uris":{"android":"levelo://app?vid=ab506a97-485c-40df-a9cf-906b44e77dbd","ios":"levelo://app?vid=ab506a97-485c-40df-a9cf-906b44e77dbd"},"vehicle_type_id":"4","last_reported":1751890916,"current_range_meters":10000,"station_id":"ce4bh9p2rcd13ifvqec0","pricing_plan_id":"cebpf4jnsgd1na2vs0mg"},{"bike_id":"e7296137-e0f0-47f0-935c-9393d3e7121f","system_id":"levelo_inurba_marseille","lat":43.24378,"lon":5.37054,"is_reserved":false,"is_disabled":false,"rental_uris":{"android":"levelo://app?vid=e7296137-e0f0-47f0-935c-9393d3e7121f","ios":"levelo://app?vid=e7296137-e0f0-47f0-935c-9393d3e7121f"},"vehicle_type_id":"4","last_reported":1751890916,"current_range_meters":10000,"station_id":"ce4bhhh2rcd13ifvqfk0","pricing_plan_id":"cebpf4jnsgd1na2vs0mg"},{"bike_id":"e113175a-26c2-4709-bd2e-8b90ec8dd3ee","system_id":"levelo_inurba_marseille","lat":43.27504,"lon":5.42476,"is_reserved":false,"is_disabled":false,"rental_uris":{"android":"levelo://app?vid=e113175a-26c2-4709-bd2e-8b90ec8dd3ee","ios":"levelo://app?vid=e113175a-26c2-4709-bd2e-8b90ec8dd3ee"},"vehicle_type_id":"4","last_reported":1751890916,"current_range_meters":10000,"station_id":"ce4bhn92rcd13ifvqgrg","pricing_plan_id":"cebpf4jnsgd1na2vs0mg"},{"bike_id":"06ec5e73-7c37-4d7d-9933-e904369ec74e","system_id":"levelo_inurba_marseille","lat":43.3236,"lon":5.36765,"is_reserved":false,"is_disabled":false,"rental_uris":{"android":"levelo://app?vid=06ec5e73-7c37-4d7d-9933-e904369ec74e","ios":"levelo://app?vid=06ec5e73-7c37-4d7d-9933-e904369ec74e"},"vehicle_type_id":"4","last_reported":1751890916,"current_range_meters":10000,"station_id":"ce4bhsh2rcd13ifvqi2g","pricing_plan_id":"cebpf4jnsgd1na2vs0mg"},{"bike_id":"7b527f00-f6ea-4963-b59d-8da04a2feedb","system_id":"levelo_inurba_marseille","lat":43.32086,"lon":5.401166,"is_reserved":false,"is_disabled":false,"rental_uris":{"android":"levelo://app?vid=7b527f00-f6ea-4963-b59d-8da04a2feedb","ios":"levelo://app?vid=7b527f00-f6ea-4963-b59d-8da04a2feedb"},"vehicle_type_id":"4","last_reported":1751890916,"current_range_meters":10800,"station_id":"","pricing_plan_id":"cebpf4jnsgd1na2vs0mg"},{"bike_id":"88ea42cb-cf0f-4e4a-8442-732645bc4ba5","system_id":"levelo_inurba_marseille","lat":43.31047,"lon":5.36632,"is_reserved":false,"is_disabled":false,"rental_uris":{"android":"levelo://app?vid=88ea42cb-cf0f-4e4a-8442-732645bc4ba5","ios":"levelo://app?vid=88ea42cb-cf0f-4e4a-8442-732645bc4ba5"},"vehicle_type_id":"4","last_reported":1751890916,"current_range_meters":10800,"station_id":"","pricing_plan_id":"cebpf4jnsgd1na2vs0mg"},{"bike_id":"6242fc81-dbc8-4ad1-bc93-df76cf8913fe","system_id":"levelo_inurba_marseille","lat":43.29626,"lon":5.37741,"is_reserved":false,"is_disabled":false,"rental_uris":{"android":"levelo://app?vid=6242fc81-dbc8-4ad1-bc93-df76cf8913fe","ios":"levelo://app?vid=6242fc81-dbc8-4ad1-bc93-df76cf8913fe"},"vehicle_type_id":"4","last_reported":1751890916,"current_range_meters":10800,"station_id":"ce4bgi92rcd13ifvqb90","pricing_plan_id":"cebpf4jnsgd1na2vs0mg"},{"bike_id":"1975a84e-548a-4c22-9393-a28b8b514f15","system_id":"levelo_inurba_marseille","lat":43.28099,"lon":5.3783,"is_reserved":false,"is_disabled":false,"rental_uris":{"android":"levelo://app?vid=1975a84e-548a-4c22-9393-a28b8b514f15","ios":"levelo://app?vid=1975a84e-548a-4c22-9393-a28b8b514f15"},"vehicle_type_id":"4","last_reported":1751890916,"current_range_meters":10800,"station_id":"ce4bha12rcd13ifvqee0","pricing_plan_id":"cebpf4jnsgd1na2vs0mg"},{"bike_id":"afec862a-443d-4cf9-892d-c4f5dcd0f583","system_id":"levelo_inurba_marseille","lat":43.26264,"lon":5.40426,"is_reserved":false,"is_disabled":false,"rental_uris":{"android":"levelo://app?vid=afec862a-443d-4cf9-892d-c4f5dcd0f583","ios":"levelo://app?vid=afec862a-443d-4cf9-892d-c4f5dcd0f583"},"vehicle_type_id":"4","last_reported":1751890916,"current_range_meters":10800,"station_id":"ce4bhmh2rcd13ifvqgmg","pricing_plan_id":"cebpf4jnsgd1na2vs0mg"},{"bike_id":"13b4271e-3c69-4635-afe5-4c938a23e42a","system_id":"levelo_inurba_marseille","lat":43.26203,"lon":5.37934,"is_reserved":false,"is_disabled":false,"rental_uris":{"android":"levelo://app?vid=13b4271e-3c69-4635-afe5-4c938a23e42a","ios":"levelo://app?vid=13b4271e-3c69-4635-afe5-4c938a23e42a"},"vehicle_type_id":"4","last_reported":1751890916,"current_range_meters":11200,"station_id":"ce4bhjp2rcd13ifvqg90","pricing_plan_id":"cebpf4jnsgd1na2vs0mg"},{"bike_id":"bc14cd89-81ef-4802-92f5-1ca822cf0d0e","system_id":"levelo_inurba_marseille","lat":43.30807,"lon":5.43529,"is_reserved":false,"is_disabled":false,"rental_uris":{"android":"levelo://app?vid=bc14cd89-81ef-4802-92f5-1ca822cf0d0e","ios":"levelo://app?vid=bc14cd89-81ef-4802-92f5-1ca822cf0d0e"},"vehicle_type_id":"4","last_reported":1751890916,"current_range_meters":11200,"station_id":"ce4bhph2rcd13ifvqheg","pricing_plan_id":"cebpf4jnsgd1na2vs0mg"},{"bike_id":"80955d0f-8669-4c02-b90f-c6fe20790c37","system_id":"levelo_inurba_marseille","lat":43.23185,"lon":5.35059,"is_reserved":false,"is_disabled":false,"rental_uris":{"android":"levelo://app?vid=80955d0f-8669-4c02-b90f-c6fe20790c37","ios":"levelo://app?vid=80955d0f-8669-4c02-b90f-c6fe20790c37"},"vehicle_type_id":"4","last_reported":1751890916,"current_range_meters":11600,"station_id":"","pricing_plan_id":"cebpf4jnsgd1na2vs0mg"},{"bike_id":"3b22f952-d0bc-4c00-8fd3-7e27b88aea23","system_id":"levelo_inurba_marseille","lat":43.29659,"lon":5.36245,"is_reserved":false,"is_disabled":false,"rental_uris":{"android":"levelo://app?vid=3b22f952-d0bc-4c00-8fd3-7e27b88aea23","ios":"levelo://app?vid=3b22f952-d0bc-4c00-8fd3-7e27b88aea23"},"vehicle_type_id":"4","last_reported":1751890916,"current_range_meters":11600,"station_id":"","pricing_plan_id":"cebpf4jnsgd1na2vs0mg"},{"bike_id":"9c3ac5b6-5a45-4ae7-98c2-8a6dbd0029ea","system_id":"levelo_inurba_marseille","lat":43.284843,"lon":5.384383,"is_reserved":false,"is_disabled":false,"rental_uris":{"android":"levelo://app?vid=9c3ac5b6-5a45-4ae7-98c2-8a6dbd0029ea","ios":"levelo://app?vid=9c3ac5b6-5a45-4ae7-98c2-8a6dbd0029ea"},"vehicle_type_id":"4","last_reported":1751890916,"current_range_meters":11600,"station_id":"ce4bh512rcd13ifvqe3g","pricing_plan_id":"cebpf4jnsgd1na2vs0mg"},{"bike_id":"59e6fdcd-236c-49c7-a355-011f3021f656","system_id":"levelo_inurba_marseille","lat":43.28945,"lon":5.36407,"is_reserved":false,"is_disabled":false,"rental_uris":{"android":"levelo://app?vid=59e6fdcd-236c-49c7-a355-011f3021f656","ios":"levelo://app?vid=59e6fdcd-236c-49c7-a355-011f3021f656"},"vehicle_type_id":"4","last_reported":1751890916,"current_range_meters":11600,"station_id":"ce4bhc92rcd13ifvqetg","pricing_plan_id":"cebpf4jnsgd1na2vs0mg"},{"bike_id":"bdbe998e-c786-4ade-87a4-fbd73c6963ac","system_id":"levelo_inurba_marseille","lat":43.23961,"lon":5.36643,"is_reserved":false,"is_disabled":false,"rental_uris":{"android":"levelo://app?vid=bdbe998e-c786-4ade-87a4-fbd73c6963ac","ios":"levelo://app?vid=bdbe998e-c786-4ade-87a4-fbd73c6963ac"},"vehicle_type_id":"4","last_reported":1751890916,"current_range_meters":11600,"station_id":"ce4bhi12rcd13ifvqfp0","pricing_plan_id":"cebpf4jnsgd1na2vs0mg"},{"bike_id":"37f2becd-23f9-4f13-a711-38b8024eeec7","system_id":"levelo_inurba_marseille","lat":43.33768,"lon":5.37516,"is_reserved":false,"is_disabled":false,"rental_uris":{"android":"levelo://app?vid=37f2becd-23f9-4f13-a711-38b8024eeec7","ios":"levelo://app?vid=37f2becd-23f9-4f13-a711-38b8024eeec7"},"vehicle_type_id":"4","last_reported":1751890916,"current_range_meters":12400,"station_id":"","pricing_plan_id":"cebpf4jnsgd1na2vs0mg"},{"bike_id":"fe50ba37-c36d-49de-ae3f-e42171ba7166","system_id":"levelo_inurba_marseille","lat":43.25085,"lon":5.39523,"is_reserved":false,"is_disabled":false,"rental_uris":{"android":"levelo://app?vid=fe50ba37-c36d-49de-ae3f-e42171ba7166","ios":"levelo://app?vid=fe50ba37-c36d-49de-ae3f-e42171ba7166"},"vehicle_type_id":"4","last_reported":1751890916,"current_range_meters":12400,"station_id":"ce4bhm12rcd13ifvqgkg","pricing_plan_id":"cebpf4jnsgd1na2vs0mg"},{"bike_id":"b3854816-e1e5-498c-9947-e1b4099c5e05","system_id":"levelo_inurba_marseille","lat":43.29034,"lon":5.36933,"is_reserved":false,"is_disabled":false,"rental_uris":{"android":"levelo://app?vid=b3854816-e1e5-498c-9947-e1b4099c5e05","ios":"levelo://app?vid=b3854816-e1e5-498c-9947-e1b4099c5e05"},"vehicle_type_id":"4","last_reported":1751890916,"current_range_meters":12800,"station_id":"","pricing_plan_id":"cebpf4jnsgd1na2vs0mg"},{"bike_id":"ccc29df5-1113-42b5-b8de-771b9f206409","system_id":"levelo_inurba_marseille","lat":43.262607,"lon":5.374121,"is_reserved":false,"is_disabled":false,"rental_uris":{"android":"levelo://app?vid=ccc29df5-1113-42b5-b8de-771b9f206409","ios":"levelo://app?vid=ccc29df5-1113-42b5-b8de-771b9f206409"},"vehicle_type_id":"4","last_reported":1751890916,"current_range_meters":12800,"station_id":"","pricing_plan_id":"cebpf4jnsgd1na2vs0mg"},{"bike_id":"ac882886-b35e-4961-9293-3db50de918aa","system_id":"levelo_inurba_marseille","lat":43.30573,"lon":5.36534,"is_reserved":false,"is_disabled":false,"rental_uris":{"android":"levelo://app?vid=ac882886-b35e-4961-9293-3db50de918aa","ios":"levelo://app?vid=ac882886-b35e-4961-9293-3db50de918aa"},"vehicle_type_id":"4","last_reported":1751890916,"current_range_meters":12800,"station_id":"ce4bgs12rcd13ifvqcag","pricing_plan_id":"cebpf4jnsgd1na2vs0mg"},{"bike_id":"abcdfac5-fe00-4da2-b177-13430b577d14","system_id":"levelo_inurba_marseille","lat":43.3056,"lon":5.36549,"is_reserved":false,"is_disabled":false,"rental_uris":{"android":"levelo://app?vid=abcdfac5-fe00-4da2-b177-13430b577d14","ios":"levelo://app?vid=abcdfac5-fe00-4da2-b177-13430b577d14"},"vehicle_type_id":"4","last_reported":1751890916,"current_range_meters":12800,"station_id":"ce4bgs12rcd13ifvqcag","pricing_plan_id":"cebpf4jnsgd1na2vs0mg"},{"bike_id":"8cade8fe-d7e6-49e4-b764-a0d4e5bb21c1","system_id":"levelo_inurba_marseille","lat":43.31488,"lon":5.37309,"is_reserved":false,"is_disabled":false,"rental_uris":{"android":"levelo://app?vid=8cade8fe-d7e6-49e4-b764-a0d4e5bb21c1","ios":"levelo://app?vid=8cade8fe-d7e6-49e4-b764-a0d4e5bb21c1"},"vehicle_type_id":"4","last_reported":1751890916,"current_range_meters":12800,"station_id":"ce4bgt12rcd13ifvqcd0","pricing_plan_id":"cebpf4jnsgd1na2vs0mg"},{"bike_id":"a81d3533-a399-4572-ab62-a88d714accd0","system_id":"levelo_inurba_marseille","lat":43.30803,"lon":5.43527,"is_reserved":false,"is_disabled":false,"rental_uris":{"android":"levelo://app?vid=a81d3533-a399-4572-ab62-a88d714accd0","ios":"levelo://app?vid=a81d3533-a399-4572-ab62-a88d714accd0"},"vehicle_type_id":"4","last_reported":1751890916,"current_range_meters":12800,"station_id":"ce4bhph2rcd13ifvqheg","pricing_plan_id":"cebpf4jnsgd1na2vs0mg"},{"bike_id":"a31d7b1d-f875-4f27-b8f6-640a4ac62493","system_id":"levelo_inurba_marseille","lat":43.33722,"lon":5.39193,"is_reserved":false,"is_disabled":false,"rental_uris":{"android":"levelo://app?vid=a31d7b1d-f875-4f27-b8f6-640a4ac62493","ios":"levelo://app?vid=a31d7b1d-f875-4f27-b8f6-640a4ac62493"},"vehicle_type_id":"4","last_reported":1751890916,"current_range_meters":12800,"station_id":"ce4bhr92rcd13ifvqhsg","pricing_plan_id":"cebpf4jnsgd1na2vs0mg"},{"bike_id":"8075b88c-e2cd-494d-b518-ccfde64ff2b4","system_id":"levelo_inurba_marseille","lat":43.29618,"lon":5.37729,"is_reserved":false,"is_disabled":false,"rental_uris":{"android":"levelo://app?vid=8075b88c-e2cd-494d-b518-ccfde64ff2b4","ios":"levelo://app?vid=8075b88c-e2cd-494d-b518-ccfde64ff2b4"},"vehicle_type_id":"4","last_reported":1751890916,"current_range_meters":13600,"station_id":"ce4bgi92rcd13ifvqb90","pricing_plan_id":"cebpf4jnsgd1na2vs0mg"},{"bike_id":"751d80b1-143e-476e-8d7d-c9c4ef5f35f8","system_id":"levelo_inurba_marseille","lat":43.30276,"lon":5.37713,"is_reserved":false,"is_disabled":false,"rental_uris":{"android":"levelo://app?vid=751d80b1-143e-476e-8d7d-c9c4ef5f35f8","ios":"levelo://app?vid=751d80b1-143e-476e-8d7d-c9c4ef5f35f8"},"vehicle_type_id":"4","last_reported":1751890916,"current_range_meters":13600,"station_id":"ce4bguh2rcd13ifvqcj0","pricing_plan_id":"cebpf4jnsgd1na2vs0mg"},{"bike_id":"26f42d5a-c5ed-47ac-9385-9ad52ca76783","system_id":"levelo_inurba_marseille","lat":43.266801,"lon":5.382717,"is_reserved":false,"is_disabled":false,"rental_uris":{"android":"levelo://app?vid=26f42d5a-c5ed-47ac-9385-9ad52ca76783","ios":"levelo://app?vid=26f42d5a-c5ed-47ac-9385-9ad52ca76783"},"vehicle_type_id":"4","last_reported":1751890916,"current_range_meters":13600,"station_id":"ce4bhg92rcd13ifvqf90","pricing_plan_id":"cebpf4jnsgd1na2vs0mg"},{"bike_id":"1fb82bdf-c09f-4cdb-9e9d-e00aaf380252","system_id":"levelo_inurba_marseille","lat":43.27063,"lon":5.40286,"is_reserved":false,"is_disabled":false,"rental_uris":{"android":"levelo://app?vid=1fb82bdf-c09f-4cdb-9e9d-e00aaf380252","ios":"levelo://app?vid=1fb82bdf-c09f-4cdb-9e9d-e00aaf380252"},"vehicle_type_id":"4","last_reported":1751890916,"current_range_meters":13600,"station_id":"ce4bhk92rcd13ifvqgc0","pricing_plan_id":"cebpf4jnsgd1na2vs0mg"},{"bike_id":"000f6f24-dd7f-4d74-bd4f-f8990b5bd21d","system_id":"levelo_inurba_marseille","lat":43.320523,"lon":5.415312,"is_reserved":false,"is_disabled":false,"rental_uris":{"android":"levelo://app?vid=000f6f24-dd7f-4d74-bd4f-f8990b5bd21d","ios":"levelo://app?vid=000f6f24-dd7f-4d74-bd4f-f8990b5bd21d"},"vehicle_type_id":"4","last_reported":1751890916,"current_range_meters":13600,"station_id":"ce4bhq92rcd13ifvqhkg","pricing_plan_id":"cebpf4jnsgd1na2vs0mg"},{"bike_id":"949188bf-6148-425e-828f-98a1d9650134","system_id":"levelo_inurba_marseille","lat":43.32482,"lon":5.36563,"is_reserved":false,"is_disabled":false,"rental_uris":{"android":"levelo://app?vid=949188bf-6148-425e-828f-98a1d9650134","ios":"levelo://app?vid=949188bf-6148-425e-828f-98a1d9650134"},"vehicle_type_id":"4","last_reported":1751890916,"current_range_meters":13600,"station_id":"ce4bhs12rcd13ifvqhvg","pricing_plan_id":"cebpf4jnsgd1na2vs0mg"},{"bike_id":"a15b23e2-c09a-4169-ac3c-8082fac83b56","system_id":"levelo_inurba_marseille","lat":43.290333,"lon":5.375681,"is_reserved":false,"is_disabled":false,"rental_uris":{"android":"levelo://app?vid=a15b23e2-c09a-4169-ac3c-8082fac83b56","ios":"levelo://app?vid=a15b23e2-c09a-4169-ac3c-8082fac83b56"},"vehicle_type_id":"4","last_reported":1751890916,"current_range_meters":14000,"station_id":"","pricing_plan_id":"cebpf4jnsgd1na2vs0mg"},{"bike_id":"78c65a7f-d308-40b5-accc-8e6897ac9f8a","system_id":"levelo_inurba_marseille","lat":43.30098,"lon":5.37817,"is_reserved":false,"is_disabled":false,"rental_uris":{"android":"levelo://app?vid=78c65a7f-d308-40b5-accc-8e6897ac9f8a","ios":"levelo://app?vid=78c65a7f-d308-40b5-accc-8e6897ac9f8a"},"vehicle_type_id":"4","last_reported":1751890916,"current_range_meters":14000,"station_id":"","pricing_plan_id":"cebpf4jnsgd1na2vs0mg"},{"bike_id":"8cd290ac-8440-41a9-821c-6b69f691a9fd","system_id":"levelo_inurba_marseille","lat":43.29376,"lon":5.37841,"is_reserved":false,"is_disabled":false,"rental_uris":{"android":"levelo://app?vid=8cd290ac-8440-41a9-821c-6b69f691a9fd","ios":"levelo://app?vid=8cd290ac-8440-41a9-821c-6b69f691a9fd"},"vehicle_type_id":"4","last_reported":1751890916,"current_range_meters":14000,"station_id":"ce4bgjh2rcd13ifvqbf0","pricing_plan_id":"cebpf4jnsgd1na2vs0mg"},{"bike_id":"5a9693e6-ca2f-4c04-b4a1-04215c7b0d6a","system_id":"levelo_inurba_marseille","lat":43.30546,"lon":5.36709,"is_reserved":false,"is_disabled":false,"rental_uris":{"android":"levelo://app?vid=5a9693e6-ca2f-4c04-b4a1-04215c7b0d6a","ios":"levelo://app?vid=5a9693e6-ca2f-4c04-b4a1-04215c7b0d6a"},"vehicle_type_id":"4","last_reported":1751890916,"current_range_meters":14000,"station_id":"ce4bgrp2rcd13ifvqc9g","pricing_plan_id":"cebpf4jnsgd1na2vs0mg"},{"bike_id":"29102da4-02a2-4f9c-99ed-89cdef887179","system_id":"levelo_inurba_marseille","lat":43.22522,"lon":5.34785,"is_reserved":false,"is_disabled":false,"rental_uris":{"android":"levelo://app?vid=29102da4-02a2-4f9c-99ed-89cdef887179","ios":"levelo://app?vid=29102da4-02a2-4f9c-99ed-89cdef887179"},"vehicle_type_id":"4","last_reported":1751890916,"current_range_meters":14000,"station_id":"st_cvj5dfep6f1abm77gieg","pricing_plan_id":"cebpf4jnsgd1na2vs0mg"},{"bike_id":"a70cfab5-f447-4d61-b80a-343a49825360","system_id":"levelo_inurba_marseille","lat":43.31449,"lon":5.39195,"is_reserved":false,"is_disabled":false,"rental_uris":{"android":"levelo://app?vid=a70cfab5-f447-4d61-b80a-343a49825360","ios":"levelo://app?vid=a70cfab5-f447-4d61-b80a-343a49825360"},"vehicle_type_id":"4","last_reported":1751890916,"current_range_meters":14400,"station_id":"","pricing_plan_id":"cebpf4jnsgd1na2vs0mg"},{"bike_id":"2a45d725-7c86-4b71-ac8f-fbb41538a388","system_id":"levelo_inurba_marseille","lat":43.3121,"lon":5.36859,"is_reserved":false,"is_disabled":false,"rental_uris":{"android":"levelo://app?vid=2a45d725-7c86-4b71-ac8f-fbb41538a388","ios":"levelo://app?vid=2a45d725-7c86-4b71-ac8f-fbb41538a388"},"vehicle_type_id":"4","last_reported":1751890916,"current_range_meters":14400,"station_id":"ce4bgl92rcd13ifvqbq0","pricing_plan_id":"cebpf4jnsgd1na2vs0mg"},{"bike_id":"746cd6b3-973d-4cd9-9e12-2285306dd4aa","system_id":"levelo_inurba_marseille","lat":43.30135,"lon":5.37396,"is_reserved":false,"is_disabled":false,"rental_uris":{"android":"levelo://app?vid=746cd6b3-973d-4cd9-9e12-2285306dd4aa","ios":"levelo://app?vid=746cd6b3-973d-4cd9-9e12-2285306dd4aa"},"vehicle_type_id":"4","last_reported":1751890916,"current_range_meters":14400,"station_id":"ce4bgs92rcd13ifvqcc0","pricing_plan_id":"cebpf4jnsgd1na2vs0mg"},{"bike_id":"83ff54ab-c809-4d0a-86fe-6aad4247cd2e","system_id":"levelo_inurba_marseille","lat":43.30461,"lon":5.37908,"is_reserved":false,"is_disabled":false,"rental_uris":{"android":"levelo://app?vid=83ff54ab-c809-4d0a-86fe-6aad4247cd2e","ios":"levelo://app?vid=83ff54ab-c809-4d0a-86fe-6aad4247cd2e"},"vehicle_type_id":"4","last_reported":1751890916,"current_range_meters":14400,"station_id":"ce4bgup2rcd13ifvqcn0","pricing_plan_id":"cebpf4jnsgd1na2vs0mg"},{"bike_id":"547bbc5f-a58e-4b79-9a73-ff5df5955f9c","system_id":"levelo_inurba_marseille","lat":43.29097,"lon":5.38134,"is_reserved":false,"is_disabled":false,"rental_uris":{"android":"levelo://app?vid=547bbc5f-a58e-4b79-9a73-ff5df5955f9c","ios":"levelo://app?vid=547bbc5f-a58e-4b79-9a73-ff5df5955f9c"},"vehicle_type_id":"4","last_reported":1751890916,"current_range_meters":14400,"station_id":"ce4bh512rcd13ifvqe2g","pricing_plan_id":"cebpf4jnsgd1na2vs0mg"},{"bike_id":"9def8b07-8521-4023-8fea-449215b8264b","system_id":"levelo_inurba_marseille","lat":43.243899,"lon":5.370634,"is_reserved":false,"is_disabled":false,"rental_uris":{"android":"levelo://app?vid=9def8b07-8521-4023-8fea-449215b8264b","ios":"levelo://app?vid=9def8b07-8521-4023-8fea-449215b8264b"},"vehicle_type_id":"4","last_reported":1751890916,"current_range_meters":14400,"station_id":"ce4bhhh2rcd13ifvqfk0","pricing_plan_id":"cebpf4jnsgd1na2vs0mg"},{"bike_id":"53e9b7ad-625a-486c-a022-46e5911f21a5","system_id":"levelo_inurba_marseille","lat":43.25904,"lon":5.40883,"is_reserved":false,"is_disabled":false,"rental_uris":{"android":"levelo://app?vid=53e9b7ad-625a-486c-a022-46e5911f21a5","ios":"levelo://app?vid=53e9b7ad-625a-486c-a022-46e5911f21a5"},"vehicle_type_id":"4","last_reported":1751890916,"current_range_meters":14400,"station_id":"ce4bhm92rcd13ifvqglg","pricing_plan_id":"cebpf4jnsgd1na2vs0mg"},{"bike_id":"955c95c1-93b3-4bfd-a50c-efe2bdf9ebac","system_id":"levelo_inurba_marseille","lat":43.2417,"lon":5.36398,"is_reserved":false,"is_disabled":false,"rental_uris":{"android":"levelo://app?vid=955c95c1-93b3-4bfd-a50c-efe2bdf9ebac","ios":"levelo://app?vid=955c95c1-93b3-4bfd-a50c-efe2bdf9ebac"},"vehicle_type_id":"4","last_reported":1751890916,"current_range_meters":14400,"station_id":"cpo36qri1sfpv3e86is0","pricing_plan_id":"cebpf4jnsgd1na2vs0mg"},{"bike_id":"8b9d210c-02a9-4e44-90f6-2c4abc68691a","system_id":"levelo_inurba_marseille","lat":43.29728,"lon":5.36621,"is_reserved":false,"is_disabled":false,"rental_uris":{"android":"levelo://app?vid=8b9d210c-02a9-4e44-90f6-2c4abc68691a","ios":"levelo://app?vid=8b9d210c-02a9-4e44-90f6-2c4abc68691a"},"vehicle_type_id":"4","last_reported":1751890916,"current_range_meters":14800,"station_id":"ce4bgn12rcd13ifvqbt0","pricing_plan_id":"cebpf4jnsgd1na2vs0mg"},{"bike_id":"d23ff5eb-dc32-46e8-a11a-2ae72fe24931","system_id":"levelo_inurba_marseille","lat":43.29858,"lon":5.36297,"is_reserved":false,"is_disabled":false,"rental_uris":{"android":"levelo://app?vid=d23ff5eb-dc32-46e8-a11a-2ae72fe24931","ios":"levelo://app?vid=d23ff5eb-dc32-46e8-a11a-2ae72fe24931"},"vehicle_type_id":"4","last_reported":1751890916,"current_range_meters":14800,"station_id":"ce4bgpp2rcd13ifvqc3g","pricing_plan_id":"cebpf4jnsgd1na2vs0mg"},{"bike_id":"31a165aa-5cba-4c49-9aa4-a0abfd815163","system_id":"levelo_inurba_marseille","lat":43.31178,"lon":5.38725,"is_reserved":false,"is_disabled":false,"rental_uris":{"android":"levelo://app?vid=31a165aa-5cba-4c49-9aa4-a0abfd815163","ios":"levelo://app?vid=31a165aa-5cba-4c49-9aa4-a0abfd815163"},"vehicle_type_id":"4","last_reported":1751890916,"current_range_meters":14800,"station_id":"ce4bgv12rcd13ifvqcp0","pricing_plan_id":"cebpf4jnsgd1na2vs0mg"},{"bike_id":"bd671a81-b860-4c6c-ba30-6ce689fad810","system_id":"levelo_inurba_marseille","lat":43.29883,"lon":5.38909,"is_reserved":false,"is_disabled":false,"rental_uris":{"android":"levelo://app?vid=bd671a81-b860-4c6c-ba30-6ce689fad810","ios":"levelo://app?vid=bd671a81-b860-4c6c-ba30-6ce689fad810"},"vehicle_type_id":"4","last_reported":1751890916,"current_range_meters":14800,"station_id":"ce4bh392rcd13ifvqdl0","pricing_plan_id":"cebpf4jnsgd1na2vs0mg"},{"bike_id":"cae49035-9185-4058-84f0-a02784882ed3","system_id":"levelo_inurba_marseille","lat":43.31992,"lon":5.36752,"is_reserved":false,"is_disabled":false,"rental_uris":{"android":"levelo://app?vid=cae49035-9185-4058-84f0-a02784882ed3","ios":"levelo://app?vid=cae49035-9185-4058-84f0-a02784882ed3"},"vehicle_type_id":"4","last_reported":1751890916,"current_range_meters":14800,"station_id":"ce4bhrh2rcd13ifvqhug","pricing_plan_id":"cebpf4jnsgd1na2vs0mg"},{"bike_id":"0fb4f76a-7753-4bea-bde7-ab009d52288f","system_id":"levelo_inurba_marseille","lat":43.312743,"lon":5.366541,"is_reserved":false,"is_disabled":false,"rental_uris":{"android":"levelo://app?vid=0fb4f76a-7753-4bea-bde7-ab009d52288f","ios":"levelo://app?vid=0fb4f76a-7753-4bea-bde7-ab009d52288f"},"vehicle_type_id":"4","last_reported":1751890916,"current_range_meters":15200,"station_id":"ce4bgr92rcd13ifvqc6g","pricing_plan_id":"cebpf4jnsgd1na2vs0mg"},{"bike_id":"ebfa4619-c81d-4e18-add1-0091d5937e5d","system_id":"levelo_inurba_marseille","lat":43.32035,"lon":5.4154,"is_reserved":false,"is_disabled":false,"rental_uris":{"android":"levelo://app?vid=ebfa4619-c81d-4e18-add1-0091d5937e5d","ios":"levelo://app?vid=ebfa4619-c81d-4e18-add1-0091d5937e5d"},"vehicle_type_id":"4","last_reported":1751890916,"current_range_meters":15200,"station_id":"ce4bhq92rcd13ifvqhkg","pricing_plan_id":"cebpf4jnsgd1na2vs0mg"},{"bike_id":"cd921873-e060-4800-a6eb-05ae1b62a4cb","system_id":"levelo_inurba_marseille","lat":43.31233,"lon":5.3686,"is_reserved":false,"is_disabled":false,"rental_uris":{"android":"levelo://app?vid=cd921873-e060-4800-a6eb-05ae1b62a4cb","ios":"levelo://app?vid=cd921873-e060-4800-a6eb-05ae1b62a4cb"},"vehicle_type_id":"4","last_reported":1751890916,"current_range_meters":16000,"station_id":"ce4bgl92rcd13ifvqbq0","pricing_plan_id":"cebpf4jnsgd1na2vs0mg"},{"bike_id":"c775bd2e-9bc6-4175-b133-8f754ee622e5","system_id":"levelo_inurba_marseille","lat":43.30567,"lon":5.36706,"is_reserved":false,"is_disabled":false,"rental_uris":{"android":"levelo://app?vid=c775bd2e-9bc6-4175-b133-8f754ee622e5","ios":"levelo://app?vid=c775bd2e-9bc6-4175-b133-8f754ee622e5"},"vehicle_type_id":"4","last_reported":1751890916,"current_range_meters":16000,"station_id":"ce4bgrp2rcd13ifvqc9g","pricing_plan_id":"cebpf4jnsgd1na2vs0mg"},{"bike_id":"2ddd6815-6193-4bc9-bd9f-34f36bc7c904","system_id":"levelo_inurba_marseille","lat":43.28426,"lon":5.3501,"is_reserved":false,"is_disabled":false,"rental_uris":{"android":"levelo://app?vid=2ddd6815-6193-4bc9-bd9f-34f36bc7c904","ios":"levelo://app?vid=2ddd6815-6193-4bc9-bd9f-34f36bc7c904"},"vehicle_type_id":"4","last_reported":1751890916,"current_range_meters":16000,"station_id":"ce4bhbh2rcd13ifvqepg","pricing_plan_id":"cebpf4jnsgd1na2vs0mg"},{"bike_id":"55fda3be-3cc6-4a93-8ee8-a4fd7514483c","system_id":"levelo_inurba_marseille","lat":43.229267,"lon":5.353737,"is_reserved":false,"is_disabled":false,"rental_uris":{"android":"levelo://app?vid=55fda3be-3cc6-4a93-8ee8-a4fd7514483c","ios":"levelo://app?vid=55fda3be-3cc6-4a93-8ee8-a4fd7514483c"},"vehicle_type_id":"4","last_reported":1751890916,"current_range_meters":16000,"station_id":"cpo3532slgdg3j2ikp40","pricing_plan_id":"cebpf4jnsgd1na2vs0mg"},{"bike_id":"cc31f220-c7dc-408c-9063-551032a7cd16","system_id":"levelo_inurba_marseille","lat":43.287423,"lon":5.38438,"is_reserved":false,"is_disabled":false,"rental_uris":{"android":"levelo://app?vid=cc31f220-c7dc-408c-9063-551032a7cd16","ios":"levelo://app?vid=cc31f220-c7dc-408c-9063-551032a7cd16"},"vehicle_type_id":"4","last_reported":1751890916,"current_range_meters":16400,"station_id":"ce4bgjh2rcd13ifvqbg0","pricing_plan_id":"cebpf4jnsgd1na2vs0mg"},{"bike_id":"e79346c8-86fc-4daa-86ef-e1e68b65043e","system_id":"levelo_inurba_marseille","lat":43.24081,"lon":5.37758,"is_reserved":false,"is_disabled":false,"rental_uris":{"android":"levelo://app?vid=e79346c8-86fc-4daa-86ef-e1e68b65043e","ios":"levelo://app?vid=e79346c8-86fc-4daa-86ef-e1e68b65043e"},"vehicle_type_id":"4","last_reported":1751890916,"current_range_meters":16400,"station_id":"ce4bhnp2rcd13ifvqgvg","pricing_plan_id":"cebpf4jnsgd1na2vs0mg"},{"bike_id":"a7c39d59-40bd-4f7b-a228-ff2080b9cf69","system_id":"levelo_inurba_marseille","lat":43.26943,"lon":5.40258,"is_reserved":false,"is_disabled":false,"rental_uris":{"android":"levelo://app?vid=a7c39d59-40bd-4f7b-a228-ff2080b9cf69","ios":"levelo://app?vid=a7c39d59-40bd-4f7b-a228-ff2080b9cf69"},"vehicle_type_id":"4","last_reported":1751890916,"current_range_meters":16400,"station_id":"cjm6bp8fraef2m0cb0m0","pricing_plan_id":"cebpf4jnsgd1na2vs0mg"},{"bike_id":"88448def-5dd0-4785-bf46-b6c2e5cfe176","system_id":"levelo_inurba_marseille","lat":43.22505,"lon":5.34786,"is_reserved":false,"is_disabled":false,"rental_uris":{"android":"levelo://app?vid=88448def-5dd0-4785-bf46-b6c2e5cfe176","ios":"levelo://app?vid=88448def-5dd0-4785-bf46-b6c2e5cfe176"},"vehicle_type_id":"4","last_reported":1751890916,"current_range_meters":16400,"station_id":"st_cvj5dfep6f1abm77gieg","pricing_plan_id":"cebpf4jnsgd1na2vs0mg"},{"bike_id":"212827c2-5775-418b-81c4-ee6678099c2b","system_id":"levelo_inurba_marseille","lat":43.21762,"lon":5.34611,"is_reserved":false,"is_disabled":false,"rental_uris":{"android":"levelo://app?vid=212827c2-5775-418b-81c4-ee6678099c2b","ios":"levelo://app?vid=212827c2-5775-418b-81c4-ee6678099c2b"},"vehicle_type_id":"4","last_reported":1751890916,"current_range_meters":16400,"station_id":"st_cvj6r9ubvosntc0bgbag","pricing_plan_id":"cebpf4jnsgd1na2vs0mg"},{"bike_id":"c3e5cc68-68b5-4b74-b597-a157acacf420","system_id":"levelo_inurba_marseille","lat":43.2952,"lon":5.38541,"is_reserved":false,"is_disabled":false,"rental_uris":{"android":"levelo://app?vid=c3e5cc68-68b5-4b74-b597-a157acacf420","ios":"levelo://app?vid=c3e5cc68-68b5-4b74-b597-a157acacf420"},"vehicle_type_id":"4","last_reported":1751890916,"current_range_meters":16800,"station_id":"ce4bgih2rcd13ifvqba0","pricing_plan_id":"cebpf4jnsgd1na2vs0mg"},{"bike_id":"450e874d-b836-491e-9449-b0948ecd6f9a","system_id":"levelo_inurba_marseille","lat":43.305487,"lon":5.365323,"is_reserved":false,"is_disabled":false,"rental_uris":{"android":"levelo://app?vid=450e874d-b836-491e-9449-b0948ecd6f9a","ios":"levelo://app?vid=450e874d-b836-491e-9449-b0948ecd6f9a"},"vehicle_type_id":"4","last_reported":1751890916,"current_range_meters":16800,"station_id":"ce4bgs12rcd13ifvqcag","pricing_plan_id":"cebpf4jnsgd1na2vs0mg"},{"bike_id":"7df8690c-d637-4bb8-80c6-364b04a5407b","system_id":"levelo_inurba_marseille","lat":43.29228,"lon":5.36069,"is_reserved":false,"is_disabled":false,"rental_uris":{"android":"levelo://app?vid=7df8690c-d637-4bb8-80c6-364b04a5407b","ios":"levelo://app?vid=7df8690c-d637-4bb8-80c6-364b04a5407b"},"vehicle_type_id":"4","last_reported":1751890916,"current_range_meters":16800,"station_id":"ce4bhbh2rcd13ifvqeqg","pricing_plan_id":"cebpf4jnsgd1na2vs0mg"},{"bike_id":"abe0cc5d-86c6-4c1b-b216-75b1bc559fb1","system_id":"levelo_inurba_marseille","lat":43.26213,"lon":5.37441,"is_reserved":false,"is_disabled":false,"rental_uris":{"android":"levelo://app?vid=abe0cc5d-86c6-4c1b-b216-75b1bc559fb1","ios":"levelo://app?vid=abe0cc5d-86c6-4c1b-b216-75b1bc559fb1"},"vehicle_type_id":"4","last_reported":1751890916,"current_range_meters":16800,"station_id":"ce4bhgp2rcd13ifvqfc0","pricing_plan_id":"cebpf4jnsgd1na2vs0mg"},{"bike_id":"6724b3bb-481b-4829-a8e8-71b2cb5369d9","system_id":"levelo_inurba_marseille","lat":43.259435,"lon":5.408893,"is_reserved":false,"is_disabled":false,"rental_uris":{"android":"levelo://app?vid=6724b3bb-481b-4829-a8e8-71b2cb5369d9","ios":"levelo://app?vid=6724b3bb-481b-4829-a8e8-71b2cb5369d9"},"vehicle_type_id":"4","last_reported":1751890916,"current_range_meters":16800,"station_id":"ce4bhm92rcd13ifvqglg","pricing_plan_id":"cebpf4jnsgd1na2vs0mg"},{"bike_id":"df121aba-8966-45b0-a464-9b228286cc92","system_id":"levelo_inurba_marseille","lat":43.24098,"lon":5.37764,"is_reserved":false,"is_disabled":false,"rental_uris":{"android":"levelo://app?vid=df121aba-8966-45b0-a464-9b228286cc92","ios":"levelo://app?vid=df121aba-8966-45b0-a464-9b228286cc92"},"vehicle_type_id":"4","last_reported":1751890916,"current_range_meters":16800,"station_id":"ce4bhnp2rcd13ifvqgvg","pricing_plan_id":"cebpf4jnsgd1na2vs0mg"},{"bike_id":"9e08be27-1cf0-4f33-8cfd-3ef9c07ffd78","system_id":"levelo_inurba_marseille","lat":43.319993,"lon":5.381534,"is_reserved":false,"is_disabled":false,"rental_uris":{"android":"levelo://app?vid=9e08be27-1cf0-4f33-8cfd-3ef9c07ffd78","ios":"levelo://app?vid=9e08be27-1cf0-4f33-8cfd-3ef9c07ffd78"},"vehicle_type_id":"4","last_reported":1751890916,"current_range_meters":16800,"station_id":"ce4bhr12rcd13ifvqhpg","pricing_plan_id":"cebpf4jnsgd1na2vs0mg"},{"bike_id":"32cd8ff5-148c-484b-8eab-3f02380d1efc","system_id":"levelo_inurba_marseille","lat":43.29294,"lon":5.37455,"is_reserved":false,"is_disabled":false,"rental_uris":{"android":"levelo://app?vid=32cd8ff5-148c-484b-8eab-3f02380d1efc","ios":"levelo://app?vid=32cd8ff5-148c-484b-8eab-3f02380d1efc"},"vehicle_type_id":"4","last_reported":1751890916,"current_range_meters":17200,"station_id":"ce4bgi12rcd13ifvqb70","pricing_plan_id":"cebpf4jnsgd1na2vs0mg"},{"bike_id":"c4d80167-db70-4f18-b0d8-7c35c6b724a0","system_id":"levelo_inurba_marseille","lat":43.29851,"lon":5.36285,"is_reserved":false,"is_disabled":false,"rental_uris":{"android":"levelo://app?vid=c4d80167-db70-4f18-b0d8-7c35c6b724a0","ios":"levelo://app?vid=c4d80167-db70-4f18-b0d8-7c35c6b724a0"},"vehicle_type_id":"4","last_reported":1751890916,"current_range_meters":17200,"station_id":"ce4bgpp2rcd13ifvqc3g","pricing_plan_id":"cebpf4jnsgd1na2vs0mg"},{"bike_id":"1f529d5e-891d-4c69-8150-4d1e4e9c984e","system_id":"levelo_inurba_marseille","lat":43.30325,"lon":5.36912,"is_reserved":false,"is_disabled":false,"rental_uris":{"android":"levelo://app?vid=1f529d5e-891d-4c69-8150-4d1e4e9c984e","ios":"levelo://app?vid=1f529d5e-891d-4c69-8150-4d1e4e9c984e"},"vehicle_type_id":"4","last_reported":1751890916,"current_range_meters":17200,"station_id":"ce4bgqh2rcd13ifvqc5g","pricing_plan_id":"cebpf4jnsgd1na2vs0mg"},{"bike_id":"2a769ea3-7515-421a-884e-2a6a16a1f9a4","system_id":"levelo_inurba_marseille","lat":43.30582,"lon":5.36582,"is_reserved":false,"is_disabled":false,"rental_uris":{"android":"levelo://app?vid=2a769ea3-7515-421a-884e-2a6a16a1f9a4","ios":"levelo://app?vid=2a769ea3-7515-421a-884e-2a6a16a1f9a4"},"vehicle_type_id":"4","last_reported":1751890916,"current_range_meters":17200,"station_id":"ce4bgs12rcd13ifvqcag","pricing_plan_id":"cebpf4jnsgd1na2vs0mg"},{"bike_id":"2a46d152-a5a3-464c-8658-69c5063f616f","system_id":"levelo_inurba_marseille","lat":43.29037,"lon":5.38653,"is_reserved":false,"is_disabled":false,"rental_uris":{"android":"levelo://app?vid=2a46d152-a5a3-464c-8658-69c5063f616f","ios":"levelo://app?vid=2a46d152-a5a3-464c-8658-69c5063f616f"},"vehicle_type_id":"4","last_reported":1751890916,"current_range_meters":17200,"station_id":"ce4bh4p2rcd13ifvqe0g","pricing_plan_id":"cebpf4jnsgd1na2vs0mg"},{"bike_id":"942a983a-7094-47d3-97b7-ba4ab853d965","system_id":"levelo_inurba_marseille","lat":43.27083,"lon":5.42282,"is_reserved":false,"is_disabled":false,"rental_uris":{"android":"levelo://app?vid=942a983a-7094-47d3-97b7-ba4ab853d965","ios":"levelo://app?vid=942a983a-7094-47d3-97b7-ba4ab853d965"},"vehicle_type_id":"4","last_reported":1751890916,"current_range_meters":17200,"station_id":"ce4bhk92rcd13ifvqgb0","pricing_plan_id":"cebpf4jnsgd1na2vs0mg"},{"bike_id":"2090512e-543d-4a55-b888-2423e2f84234","system_id":"levelo_inurba_marseille","lat":43.24087,"lon":5.37739,"is_reserved":false,"is_disabled":false,"rental_uris":{"android":"levelo://app?vid=2090512e-543d-4a55-b888-2423e2f84234","ios":"levelo://app?vid=2090512e-543d-4a55-b888-2423e2f84234"},"vehicle_type_id":"4","last_reported":1751890916,"current_range_meters":17200,"station_id":"ce4bhnp2rcd13ifvqgvg","pricing_plan_id":"cebpf4jnsgd1na2vs0mg"},{"bike_id":"762784bc-76e0-4220-961c-3afad064fde2","system_id":"levelo_inurba_marseille","lat":43.32108,"lon":5.36753,"is_reserved":false,"is_disabled":false,"rental_uris":{"android":"levelo://app?vid=762784bc-76e0-4220-961c-3afad064fde2","ios":"levelo://app?vid=762784bc-76e0-4220-961c-3afad064fde2"},"vehicle_type_id":"4","last_reported":1751890916,"current_range_meters":17200,"station_id":"ce4bhrh2rcd13ifvqhug","pricing_plan_id":"cebpf4jnsgd1na2vs0mg"},{"bike_id":"9bfc7d3d-4e60-4f8a-9c32-ef3d0e77ec5b","system_id":"levelo_inurba_marseille","lat":43.211911,"lon":5.350741,"is_reserved":false,"is_disabled":false,"rental_uris":{"android":"levelo://app?vid=9bfc7d3d-4e60-4f8a-9c32-ef3d0e77ec5b","ios":"levelo://app?vid=9bfc7d3d-4e60-4f8a-9c32-ef3d0e77ec5b"},"vehicle_type_id":"4","last_reported":1751890916,"current_range_meters":17200,"station_id":"st_cvj6sg6p6f1abm77japg","pricing_plan_id":"cebpf4jnsgd1na2vs0mg"},{"bike_id":"c5c0441e-12e1-4acb-90bf-00ad4768237b","system_id":"levelo_inurba_marseille","lat":43.24118,"lon":5.37794,"is_reserved":false,"is_disabled":false,"rental_uris":{"android":"levelo://app?vid=c5c0441e-12e1-4acb-90bf-00ad4768237b","ios":"levelo://app?vid=c5c0441e-12e1-4acb-90bf-00ad4768237b"},"vehicle_type_id":"4","last_reported":1751890916,"current_range_meters":17600,"station_id":"","pricing_plan_id":"cebpf4jnsgd1na2vs0mg"},{"bike_id":"77af0acf-746c-42f4-ace2-ed50ce66ad93","system_id":"levelo_inurba_marseille","lat":43.31222,"lon":5.36858,"is_reserved":false,"is_disabled":false,"rental_uris":{"android":"levelo://app?vid=77af0acf-746c-42f4-ace2-ed50ce66ad93","ios":"levelo://app?vid=77af0acf-746c-42f4-ace2-ed50ce66ad93"},"vehicle_type_id":"4","last_reported":1751890916,"current_range_meters":17600,"station_id":"ce4bgl92rcd13ifvqbq0","pricing_plan_id":"cebpf4jnsgd1na2vs0mg"},{"bike_id":"869426ca-2edf-448e-a40f-b5b7fafdd2c2","system_id":"levelo_inurba_marseille","lat":43.27057,"lon":5.40264,"is_reserved":false,"is_disabled":false,"rental_uris":{"android":"levelo://app?vid=869426ca-2edf-448e-a40f-b5b7fafdd2c2","ios":"levelo://app?vid=869426ca-2edf-448e-a40f-b5b7fafdd2c2"},"vehicle_type_id":"4","last_reported":1751890916,"current_range_meters":17600,"station_id":"ce4bhk92rcd13ifvqgc0","pricing_plan_id":"cebpf4jnsgd1na2vs0mg"},{"bike_id":"43d0a216-171e-45fe-88be-8650fec68cf8","system_id":"levelo_inurba_marseille","lat":43.2121,"lon":5.35062,"is_reserved":false,"is_disabled":false,"rental_uris":{"android":"levelo://app?vid=43d0a216-171e-45fe-88be-8650fec68cf8","ios":"levelo://app?vid=43d0a216-171e-45fe-88be-8650fec68cf8"},"vehicle_type_id":"4","last_reported":1751890916,"current_range_meters":17600,"station_id":"st_cvj6sg6p6f1abm77japg","pricing_plan_id":"cebpf4jnsgd1na2vs0mg"},{"bike_id":"6a3a3e65-1839-43d5-b574-3a73e4e32dac","system_id":"levelo_inurba_marseille","lat":43.32321,"lon":5.3887,"is_reserved":false,"is_disabled":false,"rental_uris":{"android":"levelo://app?vid=6a3a3e65-1839-43d5-b574-3a73e4e32dac","ios":"levelo://app?vid=6a3a3e65-1839-43d5-b574-3a73e4e32dac"},"vehicle_type_id":"4","last_reported":1751890916,"current_range_meters":18000,"station_id":"","pricing_plan_id":"cebpf4jnsgd1na2vs0mg"},{"bike_id":"c8810e8f-2a78-4a6d-8cb6-3d76e1b529a8","system_id":"levelo_inurba_marseille","lat":43.30545,"lon":5.3671,"is_reserved":false,"is_disabled":false,"rental_uris":{"android":"levelo://app?vid=c8810e8f-2a78-4a6d-8cb6-3d76e1b529a8","ios":"levelo://app?vid=c8810e8f-2a78-4a6d-8cb6-3d76e1b529a8"},"vehicle_type_id":"4","last_reported":1751890916,"current_range_meters":18000,"station_id":"ce4bgrp2rcd13ifvqc9g","pricing_plan_id":"cebpf4jnsgd1na2vs0mg"},{"bike_id":"f5dea849-dfd2-4da3-9d01-d677028525fa","system_id":"levelo_inurba_marseille","lat":43.30244,"lon":5.37435,"is_reserved":false,"is_disabled":false,"rental_uris":{"android":"levelo://app?vid=f5dea849-dfd2-4da3-9d01-d677028525fa","ios":"levelo://app?vid=f5dea849-dfd2-4da3-9d01-d677028525fa"},"vehicle_type_id":"4","last_reported":1751890916,"current_range_meters":18000,"station_id":"ce4bgs92rcd13ifvqcc0","pricing_plan_id":"cebpf4jnsgd1na2vs0mg"},{"bike_id":"d844ac78-7d32-49a4-8099-d3ee87e837c9","system_id":"levelo_inurba_marseille","lat":43.30145,"lon":5.374,"is_reserved":false,"is_disabled":false,"rental_uris":{"android":"levelo://app?vid=d844ac78-7d32-49a4-8099-d3ee87e837c9","ios":"levelo://app?vid=d844ac78-7d32-49a4-8099-d3ee87e837c9"},"vehicle_type_id":"4","last_reported":1751890916,"current_range_meters":18000,"station_id":"ce4bgs92rcd13ifvqcc0","pricing_plan_id":"cebpf4jnsgd1na2vs0mg"},{"bike_id":"b80026ac-765d-4a49-873d-341521acb0e2","system_id":"levelo_inurba_marseille","lat":43.28669,"lon":5.38667,"is_reserved":false,"is_disabled":false,"rental_uris":{"android":"levelo://app?vid=b80026ac-765d-4a49-873d-341521acb0e2","ios":"levelo://app?vid=b80026ac-765d-4a49-873d-341521acb0e2"},"vehicle_type_id":"4","last_reported":1751890916,"current_range_meters":18000,"station_id":"ce4bh492rcd13ifvqdug","pricing_plan_id":"cebpf4jnsgd1na2vs0mg"},{"bike_id":"cc1b2903-dac3-4bba-a0d6-c28034bf4a29","system_id":"levelo_inurba_marseille","lat":43.28415,"lon":5.34979,"is_reserved":false,"is_disabled":false,"rental_uris":{"android":"levelo://app?vid=cc1b2903-dac3-4bba-a0d6-c28034bf4a29","ios":"levelo://app?vid=cc1b2903-dac3-4bba-a0d6-c28034bf4a29"},"vehicle_type_id":"4","last_reported":1751890916,"current_range_meters":18000,"station_id":"ce4bhbh2rcd13ifvqepg","pricing_plan_id":"cebpf4jnsgd1na2vs0mg"},{"bike_id":"a19af955-9f5f-4ebf-9657-f7a0141cb78d","system_id":"levelo_inurba_marseille","lat":43.28418,"lon":5.35001,"is_reserved":false,"is_disabled":false,"rental_uris":{"android":"levelo://app?vid=a19af955-9f5f-4ebf-9657-f7a0141cb78d","ios":"levelo://app?vid=a19af955-9f5f-4ebf-9657-f7a0141cb78d"},"vehicle_type_id":"4","last_reported":1751890916,"current_range_meters":18000,"station_id":"ce4bhbh2rcd13ifvqepg","pricing_plan_id":"cebpf4jnsgd1na2vs0mg"},{"bike_id":"a09be466-0460-4b5c-854a-90b74bdd23de","system_id":"levelo_inurba_marseille","lat":43.3035,"lon":5.41874,"is_reserved":false,"is_disabled":false,"rental_uris":{"android":"levelo://app?vid=a09be466-0460-4b5c-854a-90b74bdd23de","ios":"levelo://app?vid=a09be466-0460-4b5c-854a-90b74bdd23de"},"vehicle_type_id":"4","last_reported":1751890916,"current_range_meters":18000,"station_id":"ce4bhop2rcd13ifvqh7g","pricing_plan_id":"cebpf4jnsgd1na2vs0mg"},{"bike_id":"89aed59f-866e-4768-b8b5-54548cd7d320","system_id":"levelo_inurba_marseille","lat":43.22508,"lon":5.34781,"is_reserved":false,"is_disabled":false,"rental_uris":{"android":"levelo://app?vid=89aed59f-866e-4768-b8b5-54548cd7d320","ios":"levelo://app?vid=89aed59f-866e-4768-b8b5-54548cd7d320"},"vehicle_type_id":"4","last_reported":1751890916,"current_range_meters":18000,"station_id":"st_cvj5dfep6f1abm77gieg","pricing_plan_id":"cebpf4jnsgd1na2vs0mg"},{"bike_id":"d5ef770d-9759-47e3-b3a5-7d2785ef76db","system_id":"levelo_inurba_marseille","lat":43.32929,"lon":5.39031,"is_reserved":false,"is_disabled":false,"rental_uris":{"android":"levelo://app?vid=d5ef770d-9759-47e3-b3a5-7d2785ef76db","ios":"levelo://app?vid=d5ef770d-9759-47e3-b3a5-7d2785ef76db"},"vehicle_type_id":"4","last_reported":1751890916,"current_range_meters":18800,"station_id":"","pricing_plan_id":"cebpf4jnsgd1na2vs0mg"},{"bike_id":"afd2c671-b274-4716-95f7-9abfdfc6dc55","system_id":"levelo_inurba_marseille","lat":43.314,"lon":5.37543,"is_reserved":false,"is_disabled":false,"rental_uris":{"android":"levelo://app?vid=afd2c671-b274-4716-95f7-9abfdfc6dc55","ios":"levelo://app?vid=afd2c671-b274-4716-95f7-9abfdfc6dc55"},"vehicle_type_id":"4","last_reported":1751890916,"current_range_meters":18800,"station_id":"","pricing_plan_id":"cebpf4jnsgd1na2vs0mg"},{"bike_id":"0df513a5-66af-4575-9c13-0844e112b6d9","system_id":"levelo_inurba_marseille","lat":43.30108,"lon":5.38028,"is_reserved":false,"is_disabled":false,"rental_uris":{"android":"levelo://app?vid=0df513a5-66af-4575-9c13-0844e112b6d9","ios":"levelo://app?vid=0df513a5-66af-4575-9c13-0844e112b6d9"},"vehicle_type_id":"4","last_reported":1751890916,"current_range_meters":18800,"station_id":"","pricing_plan_id":"cebpf4jnsgd1na2vs0mg"},{"bike_id":"888522e3-39b6-4ff3-ad74-ff6c6f771157","system_id":"levelo_inurba_marseille","lat":43.294972,"lon":5.402592,"is_reserved":false,"is_disabled":false,"rental_uris":{"android":"levelo://app?vid=888522e3-39b6-4ff3-ad74-ff6c6f771157","ios":"levelo://app?vid=888522e3-39b6-4ff3-ad74-ff6c6f771157"},"vehicle_type_id":"4","last_reported":1751890916,"current_range_meters":18800,"station_id":"","pricing_plan_id":"cebpf4jnsgd1na2vs0mg"},{"bike_id":"58175272-5c22-4c26-940f-2a2e59b6bb51","system_id":"levelo_inurba_marseille","lat":43.28408,"lon":5.37511,"is_reserved":false,"is_disabled":false,"rental_uris":{"android":"levelo://app?vid=58175272-5c22-4c26-940f-2a2e59b6bb51","ios":"levelo://app?vid=58175272-5c22-4c26-940f-2a2e59b6bb51"},"vehicle_type_id":"4","last_reported":1751890916,"current_range_meters":18800,"station_id":"ce4bh412rcd13ifvqds0","pricing_plan_id":"cebpf4jnsgd1na2vs0mg"},{"bike_id":"045e572a-74b3-489c-b938-fc5326ebcfb6","system_id":"levelo_inurba_marseille","lat":43.28971,"lon":5.37831,"is_reserved":false,"is_disabled":false,"rental_uris":{"android":"levelo://app?vid=045e572a-74b3-489c-b938-fc5326ebcfb6","ios":"levelo://app?vid=045e572a-74b3-489c-b938-fc5326ebcfb6"},"vehicle_type_id":"4","last_reported":1751890916,"current_range_meters":18800,"station_id":"ce4bh9p2rcd13ifvqed0","pricing_plan_id":"cebpf4jnsgd1na2vs0mg"},{"bike_id":"da3c16a7-1722-44ec-a60c-bdcaac1fbdad","system_id":"levelo_inurba_marseille","lat":43.28617,"lon":5.35103,"is_reserved":false,"is_disabled":false,"rental_uris":{"android":"levelo://app?vid=da3c16a7-1722-44ec-a60c-bdcaac1fbdad","ios":"levelo://app?vid=da3c16a7-1722-44ec-a60c-bdcaac1fbdad"},"vehicle_type_id":"4","last_reported":1751890916,"current_range_meters":19200,"station_id":"ce4bhch2rcd13ifvqeug","pricing_plan_id":"cebpf4jnsgd1na2vs0mg"},{"bike_id":"88eca37b-ec34-467d-97e5-25cdf32352b1","system_id":"levelo_inurba_marseille","lat":43.27939,"lon":5.41051,"is_reserved":false,"is_disabled":false,"rental_uris":{"android":"levelo://app?vid=88eca37b-ec34-467d-97e5-25cdf32352b1","ios":"levelo://app?vid=88eca37b-ec34-467d-97e5-25cdf32352b1"},"vehicle_type_id":"4","last_reported":1751890916,"current_range_meters":19200,"station_id":"ce4bhnp2rcd13ifvqh0g","pricing_plan_id":"cebpf4jnsgd1na2vs0mg"},{"bike_id":"51890362-46b0-4ee7-9f02-afbf036d064e","system_id":"levelo_inurba_marseille","lat":43.21191,"lon":5.35139,"is_reserved":false,"is_disabled":false,"rental_uris":{"android":"levelo://app?vid=51890362-46b0-4ee7-9f02-afbf036d064e","ios":"levelo://app?vid=51890362-46b0-4ee7-9f02-afbf036d064e"},"vehicle_type_id":"4","last_reported":1751890916,"current_range_meters":19200,"station_id":"st_cvj6sg6p6f1abm77japg","pricing_plan_id":"cebpf4jnsgd1na2vs0mg"},{"bike_id":"084f14d4-0bc9-446c-902e-a4f3b90135fe","system_id":"levelo_inurba_marseille","lat":43.32439,"lon":5.42891,"is_reserved":false,"is_disabled":false,"rental_uris":{"android":"levelo://app?vid=084f14d4-0bc9-446c-902e-a4f3b90135fe","ios":"levelo://app?vid=084f14d4-0bc9-446c-902e-a4f3b90135fe"},"vehicle_type_id":"4","last_reported":1751890916,"current_range_meters":19600,"station_id":"","pricing_plan_id":"cebpf4jnsgd1na2vs0mg"},{"bike_id":"87c2d236-4978-4760-be77-27d7f5a212e4","system_id":"levelo_inurba_marseille","lat":43.29644,"lon":5.36205,"is_reserved":false,"is_disabled":false,"rental_uris":{"android":"levelo://app?vid=87c2d236-4978-4760-be77-27d7f5a212e4","ios":"levelo://app?vid=87c2d236-4978-4760-be77-27d7f5a212e4"},"vehicle_type_id":"4","last_reported":1751890916,"current_range_meters":19600,"station_id":"","pricing_plan_id":"cebpf4jnsgd1na2vs0mg"},{"bike_id":"ff99d5d7-bfa1-448a-a4e8-b750e7acaf05","system_id":"levelo_inurba_marseille","lat":43.30161,"lon":5.38085,"is_reserved":false,"is_disabled":false,"rental_uris":{"android":"levelo://app?vid=ff99d5d7-bfa1-448a-a4e8-b750e7acaf05","ios":"levelo://app?vid=ff99d5d7-bfa1-448a-a4e8-b750e7acaf05"},"vehicle_type_id":"4","last_reported":1751890916,"current_range_meters":19600,"station_id":"ce4bgjp2rcd13ifvqbh0","pricing_plan_id":"cebpf4jnsgd1na2vs0mg"},{"bike_id":"74d1dd5c-9f07-4c49-948a-3ae0ce476859","system_id":"levelo_inurba_marseille","lat":43.30549,"lon":5.36707,"is_reserved":false,"is_disabled":false,"rental_uris":{"android":"levelo://app?vid=74d1dd5c-9f07-4c49-948a-3ae0ce476859","ios":"levelo://app?vid=74d1dd5c-9f07-4c49-948a-3ae0ce476859"},"vehicle_type_id":"4","last_reported":1751890916,"current_range_meters":19600,"station_id":"ce4bgrp2rcd13ifvqc9g","pricing_plan_id":"cebpf4jnsgd1na2vs0mg"},{"bike_id":"3c35c1cb-c3a7-4f8d-81dc-c78b3d7ef6f7","system_id":"levelo_inurba_marseille","lat":43.31475,"lon":5.37269,"is_reserved":false,"is_disabled":false,"rental_uris":{"android":"levelo://app?vid=3c35c1cb-c3a7-4f8d-81dc-c78b3d7ef6f7","ios":"levelo://app?vid=3c35c1cb-c3a7-4f8d-81dc-c78b3d7ef6f7"},"vehicle_type_id":"4","last_reported":1751890916,"current_range_meters":19600,"station_id":"ce4bgt12rcd13ifvqcd0","pricing_plan_id":"cebpf4jnsgd1na2vs0mg"},{"bike_id":"a8186e13-8322-472a-8a33-490343db9ddd","system_id":"levelo_inurba_marseille","lat":43.30902,"lon":5.37206,"is_reserved":false,"is_disabled":false,"rental_uris":{"android":"levelo://app?vid=a8186e13-8322-472a-8a33-490343db9ddd","ios":"levelo://app?vid=a8186e13-8322-472a-8a33-490343db9ddd"},"vehicle_type_id":"4","last_reported":1751890916,"current_range_meters":19600,"station_id":"ce4bguh2rcd13ifvqckg","pricing_plan_id":"cebpf4jnsgd1na2vs0mg"},{"bike_id":"5f663f1f-def5-40cc-9abe-924bd04570e3","system_id":"levelo_inurba_marseille","lat":43.2842,"lon":5.34986,"is_reserved":false,"is_disabled":false,"rental_uris":{"android":"levelo://app?vid=5f663f1f-def5-40cc-9abe-924bd04570e3","ios":"levelo://app?vid=5f663f1f-def5-40cc-9abe-924bd04570e3"},"vehicle_type_id":"4","last_reported":1751890916,"current_range_meters":19600,"station_id":"ce4bhbh2rcd13ifvqepg","pricing_plan_id":"cebpf4jnsgd1na2vs0mg"},{"bike_id":"54a02f23-552c-4ab6-92e9-c5073b92cfd1","system_id":"levelo_inurba_marseille","lat":43.241,"lon":5.37785,"is_reserved":false,"is_disabled":false,"rental_uris":{"android":"levelo://app?vid=54a02f23-552c-4ab6-92e9-c5073b92cfd1","ios":"levelo://app?vid=54a02f23-552c-4ab6-92e9-c5073b92cfd1"},"vehicle_type_id":"4","last_reported":1751890916,"current_range_meters":19600,"station_id":"ce4bhnp2rcd13ifvqgvg","pricing_plan_id":"cebpf4jnsgd1na2vs0mg"},{"bike_id":"fbee8eaf-7c05-42e0-bcf9-78b03aa5b0cb","system_id":"levelo_inurba_marseille","lat":43.26926,"lon":5.38932,"is_reserved":false,"is_disabled":false,"rental_uris":{"android":"levelo://app?vid=fbee8eaf-7c05-42e0-bcf9-78b03aa5b0cb","ios":"levelo://app?vid=fbee8eaf-7c05-42e0-bcf9-78b03aa5b0cb"},"vehicle_type_id":"4","last_reported":1751890916,"current_range_meters":20000,"station_id":"ce4bhhh2rcd13ifvqfl0","pricing_plan_id":"cebpf4jnsgd1na2vs0mg"},{"bike_id":"5b33c4a4-5802-46d3-9e87-1c2e42887469","system_id":"levelo_inurba_marseille","lat":43.28152,"lon":5.42639,"is_reserved":false,"is_disabled":false,"rental_uris":{"android":"levelo://app?vid=5b33c4a4-5802-46d3-9e87-1c2e42887469","ios":"levelo://app?vid=5b33c4a4-5802-46d3-9e87-1c2e42887469"},"vehicle_type_id":"4","last_reported":1751890916,"current_range_meters":20000,"station_id":"ce4bhnh2rcd13ifvqgug","pricing_plan_id":"cebpf4jnsgd1na2vs0mg"},{"bike_id":"8b735b5d-e576-4f89-bcea-2d063effe603","system_id":"levelo_inurba_marseille","lat":43.32479,"lon":5.36581,"is_reserved":false,"is_disabled":false,"rental_uris":{"android":"levelo://app?vid=8b735b5d-e576-4f89-bcea-2d063effe603","ios":"levelo://app?vid=8b735b5d-e576-4f89-bcea-2d063effe603"},"vehicle_type_id":"4","last_reported":1751890916,"current_range_meters":20000,"station_id":"ce4bhs12rcd13ifvqhvg","pricing_plan_id":"cebpf4jnsgd1na2vs0mg"},{"bike_id":"08862939-b60a-4b82-97e7-27f5e6cfd3c1","system_id":"levelo_inurba_marseille","lat":43.23195,"lon":5.35553,"is_reserved":false,"is_disabled":false,"rental_uris":{"android":"levelo://app?vid=08862939-b60a-4b82-97e7-27f5e6cfd3c1","ios":"levelo://app?vid=08862939-b60a-4b82-97e7-27f5e6cfd3c1"},"vehicle_type_id":"4","last_reported":1751890916,"current_range_meters":20000,"station_id":"ce4bhu92rcd13ifvqi70","pricing_plan_id":"cebpf4jnsgd1na2vs0mg"},{"bike_id":"16344d98-25d4-4075-9859-4b3ea0b9d039","system_id":"levelo_inurba_marseille","lat":43.24169,"lon":5.36399,"is_reserved":false,"is_disabled":false,"rental_uris":{"android":"levelo://app?vid=16344d98-25d4-4075-9859-4b3ea0b9d039","ios":"levelo://app?vid=16344d98-25d4-4075-9859-4b3ea0b9d039"},"vehicle_type_id":"4","last_reported":1751890916,"current_range_meters":20000,"station_id":"cpo36qri1sfpv3e86is0","pricing_plan_id":"cebpf4jnsgd1na2vs0mg"},{"bike_id":"eee11ad8-fb01-4e1a-97f5-9b869342d505","system_id":"levelo_inurba_marseille","lat":43.22517,"lon":5.34795,"is_reserved":false,"is_disabled":false,"rental_uris":{"android":"levelo://app?vid=eee11ad8-fb01-4e1a-97f5-9b869342d505","ios":"levelo://app?vid=eee11ad8-fb01-4e1a-97f5-9b869342d505"},"vehicle_type_id":"4","last_reported":1751890916,"current_range_meters":20000,"station_id":"st_cvj5dfep6f1abm77gieg","pricing_plan_id":"cebpf4jnsgd1na2vs0mg"},{"bike_id":"17305cf0-7079-45f0-9183-900c08dd7439","system_id":"levelo_inurba_marseille","lat":43.2175,"lon":5.34612,"is_reserved":false,"is_disabled":false,"rental_uris":{"android":"levelo://app?vid=17305cf0-7079-45f0-9183-900c08dd7439","ios":"levelo://app?vid=17305cf0-7079-45f0-9183-900c08dd7439"},"vehicle_type_id":"4","last_reported":1751890916,"current_range_meters":20000,"station_id":"st_cvj6r9ubvosntc0bgbag","pricing_plan_id":"cebpf4jnsgd1na2vs0mg"},{"bike_id":"75b304a6-8ece-4655-b3f4-47cc4e42bb0b","system_id":"levelo_inurba_marseille","lat":43.29717,"lon":5.36607,"is_reserved":false,"is_disabled":false,"rental_uris":{"android":"levelo://app?vid=75b304a6-8ece-4655-b3f4-47cc4e42bb0b","ios":"levelo://app?vid=75b304a6-8ece-4655-b3f4-47cc4e42bb0b"},"vehicle_type_id":"4","last_reported":1751890916,"current_range_meters":20400,"station_id":"ce4bgn12rcd13ifvqbt0","pricing_plan_id":"cebpf4jnsgd1na2vs0mg"},{"bike_id":"e59e19b7-a7e9-420d-80ef-2f5d3c7b61ef","system_id":"levelo_inurba_marseille","lat":43.2706,"lon":5.42291,"is_reserved":false,"is_disabled":false,"rental_uris":{"android":"levelo://app?vid=e59e19b7-a7e9-420d-80ef-2f5d3c7b61ef","ios":"levelo://app?vid=e59e19b7-a7e9-420d-80ef-2f5d3c7b61ef"},"vehicle_type_id":"4","last_reported":1751890916,"current_range_meters":20400,"station_id":"ce4bhk92rcd13ifvqgb0","pricing_plan_id":"cebpf4jnsgd1na2vs0mg"},{"bike_id":"a7c9f70f-9a0d-416c-b8fd-c3c4e2af0fcb","system_id":"levelo_inurba_marseille","lat":43.217524,"lon":5.345994,"is_reserved":false,"is_disabled":false,"rental_uris":{"android":"levelo://app?vid=a7c9f70f-9a0d-416c-b8fd-c3c4e2af0fcb","ios":"levelo://app?vid=a7c9f70f-9a0d-416c-b8fd-c3c4e2af0fcb"},"vehicle_type_id":"4","last_reported":1751890916,"current_range_meters":20400,"station_id":"st_cvj6r9ubvosntc0bgbag","pricing_plan_id":"cebpf4jnsgd1na2vs0mg"},{"bike_id":"43014856-d8b6-4a20-b8e7-d4bd45434099","system_id":"levelo_inurba_marseille","lat":43.29914,"lon":5.37454,"is_reserved":false,"is_disabled":false,"rental_uris":{"android":"levelo://app?vid=43014856-d8b6-4a20-b8e7-d4bd45434099","ios":"levelo://app?vid=43014856-d8b6-4a20-b8e7-d4bd45434099"},"vehicle_type_id":"4","last_reported":1751890916,"current_range_meters":20800,"station_id":"ce4bgjh2rcd13ifvqbg0","pricing_plan_id":"cebpf4jnsgd1na2vs0mg"},{"bike_id":"2695c39e-6304-4770-aa91-558309af57af","system_id":"levelo_inurba_marseille","lat":43.27999,"lon":5.40039,"is_reserved":false,"is_disabled":false,"rental_uris":{"android":"levelo://app?vid=2695c39e-6304-4770-aa91-558309af57af","ios":"levelo://app?vid=2695c39e-6304-4770-aa91-558309af57af"},"vehicle_type_id":"4","last_reported":1751890916,"current_range_meters":20800,"station_id":"ce4bho92rcd13ifvqh4g","pricing_plan_id":"cebpf4jnsgd1na2vs0mg"},{"bike_id":"35d41f41-e942-42c5-97f1-40ccdd96f7a4","system_id":"levelo_inurba_marseille","lat":43.2117,"lon":5.35031,"is_reserved":false,"is_disabled":false,"rental_uris":{"android":"levelo://app?vid=35d41f41-e942-42c5-97f1-40ccdd96f7a4","ios":"levelo://app?vid=35d41f41-e942-42c5-97f1-40ccdd96f7a4"},"vehicle_type_id":"4","last_reported":1751890916,"current_range_meters":20800,"station_id":"st_cvj6sg6p6f1abm77japg","pricing_plan_id":"cebpf4jnsgd1na2vs0mg"},{"bike_id":"b4ceee0d-d902-47c5-8ecb-7f1ccbc0874d","system_id":"levelo_inurba_marseille","lat":43.31339,"lon":5.36713,"is_reserved":false,"is_disabled":false,"rental_uris":{"android":"levelo://app?vid=b4ceee0d-d902-47c5-8ecb-7f1ccbc0874d","ios":"levelo://app?vid=b4ceee0d-d902-47c5-8ecb-7f1ccbc0874d"},"vehicle_type_id":"4","last_reported":1751890916,"current_range_meters":21600,"station_id":"ce4bgr92rcd13ifvqc6g","pricing_plan_id":"cebpf4jnsgd1na2vs0mg"},{"bike_id":"2507669e-7dd0-4250-a44a-58624b6439e7","system_id":"levelo_inurba_marseille","lat":43.30805,"lon":5.38159,"is_reserved":false,"is_disabled":false,"rental_uris":{"android":"levelo://app?vid=2507669e-7dd0-4250-a44a-58624b6439e7","ios":"levelo://app?vid=2507669e-7dd0-4250-a44a-58624b6439e7"},"vehicle_type_id":"4","last_reported":1751890916,"current_range_meters":21600,"station_id":"ce4bgt12rcd13ifvqce0","pricing_plan_id":"cebpf4jnsgd1na2vs0mg"},{"bike_id":"5ea0e9e9-2442-4888-af90-633f24feaf1b","system_id":"levelo_inurba_marseille","lat":43.30156,"lon":5.3809,"is_reserved":false,"is_disabled":false,"rental_uris":{"android":"levelo://app?vid=5ea0e9e9-2442-4888-af90-633f24feaf1b","ios":"levelo://app?vid=5ea0e9e9-2442-4888-af90-633f24feaf1b"},"vehicle_type_id":"4","last_reported":1751890916,"current_range_meters":22000,"station_id":"ce4bgjp2rcd13ifvqbh0","pricing_plan_id":"cebpf4jnsgd1na2vs0mg"},{"bike_id":"cfb0d5b5-0461-440a-957f-e3b1c1612ad1","system_id":"levelo_inurba_marseille","lat":43.28931,"lon":5.39626,"is_reserved":false,"is_disabled":false,"rental_uris":{"android":"levelo://app?vid=cfb0d5b5-0461-440a-957f-e3b1c1612ad1","ios":"levelo://app?vid=cfb0d5b5-0461-440a-957f-e3b1c1612ad1"},"vehicle_type_id":"4","last_reported":1751890916,"current_range_meters":22000,"station_id":"ce4bh3h2rcd13ifvqdn0","pricing_plan_id":"cebpf4jnsgd1na2vs0mg"},{"bike_id":"d5a61851-9430-4206-b95f-26e7d53a641f","system_id":"levelo_inurba_marseille","lat":43.28424,"lon":5.34996,"is_reserved":false,"is_disabled":false,"rental_uris":{"android":"levelo://app?vid=d5a61851-9430-4206-b95f-26e7d53a641f","ios":"levelo://app?vid=d5a61851-9430-4206-b95f-26e7d53a641f"},"vehicle_type_id":"4","last_reported":1751890916,"current_range_meters":22000,"station_id":"ce4bhbh2rcd13ifvqepg","pricing_plan_id":"cebpf4jnsgd1na2vs0mg"},{"bike_id":"af6529ad-21b0-4e6a-b512-9251b7636df6","system_id":"levelo_inurba_marseille","lat":43.29219,"lon":5.36062,"is_reserved":false,"is_disabled":false,"rental_uris":{"android":"levelo://app?vid=af6529ad-21b0-4e6a-b512-9251b7636df6","ios":"levelo://app?vid=af6529ad-21b0-4e6a-b512-9251b7636df6"},"vehicle_type_id":"4","last_reported":1751890916,"current_range_meters":22000,"station_id":"ce4bhbh2rcd13ifvqeqg","pricing_plan_id":"cebpf4jnsgd1na2vs0mg"},{"bike_id":"a9a18757-4002-42a2-a512-916b21a7e17f","system_id":"levelo_inurba_marseille","lat":43.260302,"lon":5.375486,"is_reserved":false,"is_disabled":false,"rental_uris":{"android":"levelo://app?vid=a9a18757-4002-42a2-a512-916b21a7e17f","ios":"levelo://app?vid=a9a18757-4002-42a2-a512-916b21a7e17f"},"vehicle_type_id":"4","last_reported":1751890916,"current_range_meters":22000,"station_id":"ce4bhgh2rcd13ifvqfa0","pricing_plan_id":"cebpf4jnsgd1na2vs0mg"},{"bike_id":"4e1b2306-c7d2-4df8-91f9-2dff0eb712f8","system_id":"levelo_inurba_marseille","lat":43.27676,"lon":5.38872,"is_reserved":false,"is_disabled":false,"rental_uris":{"android":"levelo://app?vid=4e1b2306-c7d2-4df8-91f9-2dff0eb712f8","ios":"levelo://app?vid=4e1b2306-c7d2-4df8-91f9-2dff0eb712f8"},"vehicle_type_id":"4","last_reported":1751890916,"current_range_meters":22000,"station_id":"ce4bhi12rcd13ifvqfo0","pricing_plan_id":"cebpf4jnsgd1na2vs0mg"},{"bike_id":"737bdff5-eb55-433a-8643-41ec5cc0a721","system_id":"levelo_inurba_marseille","lat":43.24175,"lon":5.39722,"is_reserved":false,"is_disabled":false,"rental_uris":{"android":"levelo://app?vid=737bdff5-eb55-433a-8643-41ec5cc0a721","ios":"levelo://app?vid=737bdff5-eb55-433a-8643-41ec5cc0a721"},"vehicle_type_id":"4","last_reported":1751890916,"current_range_meters":22000,"station_id":"ce4bhn12rcd13ifvqgpg","pricing_plan_id":"cebpf4jnsgd1na2vs0mg"},{"bike_id":"b287377f-3d0b-47ac-86fe-9e0dfc1563de","system_id":"levelo_inurba_marseille","lat":43.22509,"lon":5.34764,"is_reserved":false,"is_disabled":false,"rental_uris":{"android":"levelo://app?vid=b287377f-3d0b-47ac-86fe-9e0dfc1563de","ios":"levelo://app?vid=b287377f-3d0b-47ac-86fe-9e0dfc1563de"},"vehicle_type_id":"4","last_reported":1751890916,"current_range_meters":22000,"station_id":"st_cvj5dfep6f1abm77gieg","pricing_plan_id":"cebpf4jnsgd1na2vs0mg"},{"bike_id":"ea7df389-5dc0-4c58-88fe-80a5af035925","system_id":"levelo_inurba_marseille","lat":43.29845,"lon":5.36434,"is_reserved":false,"is_disabled":false,"rental_uris":{"android":"levelo://app?vid=ea7df389-5dc0-4c58-88fe-80a5af035925","ios":"levelo://app?vid=ea7df389-5dc0-4c58-88fe-80a5af035925"},"vehicle_type_id":"4","last_reported":1751890916,"current_range_meters":22400,"station_id":"","pricing_plan_id":"cebpf4jnsgd1na2vs0mg"},{"bike_id":"3b276905-0076-414c-9cf2-a5378712b3d7","system_id":"levelo_inurba_marseille","lat":43.28701,"lon":5.37391,"is_reserved":false,"is_disabled":false,"rental_uris":{"android":"levelo://app?vid=3b276905-0076-414c-9cf2-a5378712b3d7","ios":"levelo://app?vid=3b276905-0076-414c-9cf2-a5378712b3d7"},"vehicle_type_id":"4","last_reported":1751890916,"current_range_meters":22400,"station_id":"ce4bh3p2rcd13ifvqdq0","pricing_plan_id":"cebpf4jnsgd1na2vs0mg"},{"bike_id":"f5c16f07-bc6f-4121-91a7-5ad90eec4f34","system_id":"levelo_inurba_marseille","lat":43.312172,"lon":5.373385,"is_reserved":false,"is_disabled":false,"rental_uris":{"android":"levelo://app?vid=f5c16f07-bc6f-4121-91a7-5ad90eec4f34","ios":"levelo://app?vid=f5c16f07-bc6f-4121-91a7-5ad90eec4f34"},"vehicle_type_id":"4","last_reported":1751890916,"current_range_meters":22800,"station_id":"","pricing_plan_id":"cebpf4jnsgd1na2vs0mg"},{"bike_id":"15748ede-3729-487e-9d75-30a4ab49715b","system_id":"levelo_inurba_marseille","lat":43.30142,"lon":5.38775,"is_reserved":false,"is_disabled":false,"rental_uris":{"android":"levelo://app?vid=15748ede-3729-487e-9d75-30a4ab49715b","ios":"levelo://app?vid=15748ede-3729-487e-9d75-30a4ab49715b"},"vehicle_type_id":"4","last_reported":1751890916,"current_range_meters":22800,"station_id":"ce4bghh2rcd13ifvqb60","pricing_plan_id":"cebpf4jnsgd1na2vs0mg"},{"bike_id":"42aa09a8-ac53-4e56-afd3-6a071c961439","system_id":"levelo_inurba_marseille","lat":43.2656,"lon":5.37294,"is_reserved":false,"is_disabled":false,"rental_uris":{"android":"levelo://app?vid=42aa09a8-ac53-4e56-afd3-6a071c961439","ios":"levelo://app?vid=42aa09a8-ac53-4e56-afd3-6a071c961439"},"vehicle_type_id":"4","last_reported":1751890916,"current_range_meters":22800,"station_id":"ce4bhg12rcd13ifvqf70","pricing_plan_id":"cebpf4jnsgd1na2vs0mg"},{"bike_id":"8f5acc85-56c6-4b00-b606-c26d4205bf52","system_id":"levelo_inurba_marseille","lat":43.26674,"lon":5.38263,"is_reserved":false,"is_disabled":false,"rental_uris":{"android":"levelo://app?vid=8f5acc85-56c6-4b00-b606-c26d4205bf52","ios":"levelo://app?vid=8f5acc85-56c6-4b00-b606-c26d4205bf52"},"vehicle_type_id":"4","last_reported":1751890916,"current_range_meters":22800,"station_id":"ce4bhg92rcd13ifvqf90","pricing_plan_id":"cebpf4jnsgd1na2vs0mg"},{"bike_id":"997c74fe-5e84-4449-adbc-eb0ae92899be","system_id":"levelo_inurba_marseille","lat":43.30264,"lon":5.37753,"is_reserved":false,"is_disabled":false,"rental_uris":{"android":"levelo://app?vid=997c74fe-5e84-4449-adbc-eb0ae92899be","ios":"levelo://app?vid=997c74fe-5e84-4449-adbc-eb0ae92899be"},"vehicle_type_id":"4","last_reported":1751890916,"current_range_meters":23200,"station_id":"ce4bguh2rcd13ifvqcj0","pricing_plan_id":"cebpf4jnsgd1na2vs0mg"},{"bike_id":"fa02fbc1-e167-4d7a-adc1-642f109772f6","system_id":"levelo_inurba_marseille","lat":43.30272,"lon":5.37707,"is_reserved":false,"is_disabled":false,"rental_uris":{"android":"levelo://app?vid=fa02fbc1-e167-4d7a-adc1-642f109772f6","ios":"levelo://app?vid=fa02fbc1-e167-4d7a-adc1-642f109772f6"},"vehicle_type_id":"4","last_reported":1751890916,"current_range_meters":23200,"station_id":"ce4bguh2rcd13ifvqcj0","pricing_plan_id":"cebpf4jnsgd1na2vs0mg"},{"bike_id":"88edee64-2cd7-4850-962a-c11e3ee40b10","system_id":"levelo_inurba_marseille","lat":43.27994,"lon":5.40016,"is_reserved":false,"is_disabled":false,"rental_uris":{"android":"levelo://app?vid=88edee64-2cd7-4850-962a-c11e3ee40b10","ios":"levelo://app?vid=88edee64-2cd7-4850-962a-c11e3ee40b10"},"vehicle_type_id":"4","last_reported":1751890916,"current_range_meters":23200,"station_id":"ce4bho92rcd13ifvqh4g","pricing_plan_id":"cebpf4jnsgd1na2vs0mg"},{"bike_id":"d6d0ea9c-a8ce-4c5c-8cc1-bbb995dc1da8","system_id":"levelo_inurba_marseille","lat":43.21759,"lon":5.34649,"is_reserved":false,"is_disabled":false,"rental_uris":{"android":"levelo://app?vid=d6d0ea9c-a8ce-4c5c-8cc1-bbb995dc1da8","ios":"levelo://app?vid=d6d0ea9c-a8ce-4c5c-8cc1-bbb995dc1da8"},"vehicle_type_id":"4","last_reported":1751890916,"current_range_meters":23200,"station_id":"st_cvj6r9ubvosntc0bgbag","pricing_plan_id":"cebpf4jnsgd1na2vs0mg"},{"bike_id":"e4793d5e-b4cd-4c12-b9d4-446cb97752b9","system_id":"levelo_inurba_marseille","lat":43.292745,"lon":5.39054,"is_reserved":false,"is_disabled":false,"rental_uris":{"android":"levelo://app?vid=e4793d5e-b4cd-4c12-b9d4-446cb97752b9","ios":"levelo://app?vid=e4793d5e-b4cd-4c12-b9d4-446cb97752b9"},"vehicle_type_id":"4","last_reported":1751890916,"current_range_meters":24000,"station_id":"","pricing_plan_id":"cebpf4jnsgd1na2vs0mg"},{"bike_id":"7d189fb6-c2de-46be-aa41-a048bc00b4f1","system_id":"levelo_inurba_marseille","lat":43.29644,"lon":5.37354,"is_reserved":false,"is_disabled":false,"rental_uris":{"android":"levelo://app?vid=7d189fb6-c2de-46be-aa41-a048bc00b4f1","ios":"levelo://app?vid=7d189fb6-c2de-46be-aa41-a048bc00b4f1"},"vehicle_type_id":"4","last_reported":1751890916,"current_range_meters":24000,"station_id":"","pricing_plan_id":"cebpf4jnsgd1na2vs0mg"},{"bike_id":"06feb6af-5eb5-49ba-8d41-8d2f4dbe1ee1","system_id":"levelo_inurba_marseille","lat":43.2994,"lon":5.36562,"is_reserved":false,"is_disabled":false,"rental_uris":{"android":"levelo://app?vid=06feb6af-5eb5-49ba-8d41-8d2f4dbe1ee1","ios":"levelo://app?vid=06feb6af-5eb5-49ba-8d41-8d2f4dbe1ee1"},"vehicle_type_id":"4","last_reported":1751890916,"current_range_meters":24000,"station_id":"","pricing_plan_id":"cebpf4jnsgd1na2vs0mg"},{"bike_id":"b1bc1b79-f8f6-4cc1-8f69-9443922907e4","system_id":"levelo_inurba_marseille","lat":43.29792,"lon":5.37107,"is_reserved":false,"is_disabled":false,"rental_uris":{"android":"levelo://app?vid=b1bc1b79-f8f6-4cc1-8f69-9443922907e4","ios":"levelo://app?vid=b1bc1b79-f8f6-4cc1-8f69-9443922907e4"},"vehicle_type_id":"4","last_reported":1751890916,"current_range_meters":24000,"station_id":"ce4bgop2rcd13ifvqc1g","pricing_plan_id":"cebpf4jnsgd1na2vs0mg"},{"bike_id":"c2b72fe0-bae6-4c7b-ad48-9e771b203dc8","system_id":"levelo_inurba_marseille","lat":43.31358,"lon":5.38467,"is_reserved":false,"is_disabled":false,"rental_uris":{"android":"levelo://app?vid=c2b72fe0-bae6-4c7b-ad48-9e771b203dc8","ios":"levelo://app?vid=c2b72fe0-bae6-4c7b-ad48-9e771b203dc8"},"vehicle_type_id":"4","last_reported":1751890916,"current_range_meters":24000,"station_id":"ce4bgt92rcd13ifvqcf0","pricing_plan_id":"cebpf4jnsgd1na2vs0mg"},{"bike_id":"3e2b4fe8-569d-4573-bfdc-af394f586a22","system_id":"levelo_inurba_marseille","lat":43.30921,"lon":5.39683,"is_reserved":false,"is_disabled":false,"rental_uris":{"android":"levelo://app?vid=3e2b4fe8-569d-4573-bfdc-af394f586a22","ios":"levelo://app?vid=3e2b4fe8-569d-4573-bfdc-af394f586a22"},"vehicle_type_id":"4","last_reported":1751890916,"current_range_meters":24000,"station_id":"ce4bh012rcd13ifvqcv0","pricing_plan_id":"cebpf4jnsgd1na2vs0mg"},{"bike_id":"02b45dfb-0c4e-4824-a0fe-77ef905bb847","system_id":"levelo_inurba_marseille","lat":43.28571,"lon":5.39491,"is_reserved":false,"is_disabled":false,"rental_uris":{"android":"levelo://app?vid=02b45dfb-0c4e-4824-a0fe-77ef905bb847","ios":"levelo://app?vid=02b45dfb-0c4e-4824-a0fe-77ef905bb847"},"vehicle_type_id":"4","last_reported":1751890916,"current_range_meters":24000,"station_id":"ce4bh292rcd13ifvqdg0","pricing_plan_id":"cebpf4jnsgd1na2vs0mg"},{"bike_id":"830ca9e4-d0d0-404e-8fec-4e78d9607304","system_id":"levelo_inurba_marseille","lat":43.28617,"lon":5.35103,"is_reserved":false,"is_disabled":false,"rental_uris":{"android":"levelo://app?vid=830ca9e4-d0d0-404e-8fec-4e78d9607304","ios":"levelo://app?vid=830ca9e4-d0d0-404e-8fec-4e78d9607304"},"vehicle_type_id":"4","last_reported":1751890916,"current_range_meters":24000,"station_id":"ce4bhch2rcd13ifvqeug","pricing_plan_id":"cebpf4jnsgd1na2vs0mg"},{"bike_id":"9ced161e-3397-4ef7-87bd-1b22305f26da","system_id":"levelo_inurba_marseille","lat":43.28617,"lon":5.35098,"is_reserved":false,"is_disabled":false,"rental_uris":{"android":"levelo://app?vid=9ced161e-3397-4ef7-87bd-1b22305f26da","ios":"levelo://app?vid=9ced161e-3397-4ef7-87bd-1b22305f26da"},"vehicle_type_id":"4","last_reported":1751890916,"current_range_meters":24000,"station_id":"ce4bhch2rcd13ifvqeug","pricing_plan_id":"cebpf4jnsgd1na2vs0mg"},{"bike_id":"95842d71-ef23-4c09-927f-04c9e7aad5e9","system_id":"levelo_inurba_marseille","lat":43.27075,"lon":5.42279,"is_reserved":false,"is_disabled":false,"rental_uris":{"android":"levelo://app?vid=95842d71-ef23-4c09-927f-04c9e7aad5e9","ios":"levelo://app?vid=95842d71-ef23-4c09-927f-04c9e7aad5e9"},"vehicle_type_id":"4","last_reported":1751890916,"current_range_meters":24000,"station_id":"ce4bhk92rcd13ifvqgb0","pricing_plan_id":"cebpf4jnsgd1na2vs0mg"},{"bike_id":"56eb3fdf-ea87-4fcf-85df-3680fa66363e","system_id":"levelo_inurba_marseille","lat":43.22504,"lon":5.34786,"is_reserved":false,"is_disabled":false,"rental_uris":{"android":"levelo://app?vid=56eb3fdf-ea87-4fcf-85df-3680fa66363e","ios":"levelo://app?vid=56eb3fdf-ea87-4fcf-85df-3680fa66363e"},"vehicle_type_id":"4","last_reported":1751890916,"current_range_meters":24000,"station_id":"st_cvj5dfep6f1abm77gieg","pricing_plan_id":"cebpf4jnsgd1na2vs0mg"},{"bike_id":"1e91cee9-7d4a-458c-9805-68ef6c30eb40","system_id":"levelo_inurba_marseille","lat":43.21773,"lon":5.34629,"is_reserved":false,"is_disabled":false,"rental_uris":{"android":"levelo://app?vid=1e91cee9-7d4a-458c-9805-68ef6c30eb40","ios":"levelo://app?vid=1e91cee9-7d4a-458c-9805-68ef6c30eb40"},"vehicle_type_id":"4","last_reported":1751890916,"current_range_meters":24000,"station_id":"st_cvj6r9ubvosntc0bgbag","pricing_plan_id":"cebpf4jnsgd1na2vs0mg"},{"bike_id":"bbca0986-aa7a-4363-940e-5dd8032bf40e","system_id":"levelo_inurba_marseille","lat":43.217533,"lon":5.346038,"is_reserved":false,"is_disabled":false,"rental_uris":{"android":"levelo://app?vid=bbca0986-aa7a-4363-940e-5dd8032bf40e","ios":"levelo://app?vid=bbca0986-aa7a-4363-940e-5dd8032bf40e"},"vehicle_type_id":"4","last_reported":1751890916,"current_range_meters":24000,"station_id":"st_cvj6r9ubvosntc0bgbag","pricing_plan_id":"cebpf4jnsgd1na2vs0mg"},{"bike_id":"dd424475-1b09-4cb5-b79b-f20728299dd6","system_id":"levelo_inurba_marseille","lat":43.21201,"lon":5.35078,"is_reserved":false,"is_disabled":false,"rental_uris":{"android":"levelo://app?vid=dd424475-1b09-4cb5-b79b-f20728299dd6","ios":"levelo://app?vid=dd424475-1b09-4cb5-b79b-f20728299dd6"},"vehicle_type_id":"4","last_reported":1751890916,"current_range_meters":24000,"station_id":"st_cvj6sg6p6f1abm77japg","pricing_plan_id":"cebpf4jnsgd1na2vs0mg"},{"bike_id":"d0f90c24-dd03-411b-9731-55305f76b7c8","system_id":"levelo_inurba_marseille","lat":43.21194,"lon":5.35105,"is_reserved":false,"is_disabled":false,"rental_uris":{"android":"levelo://app?vid=d0f90c24-dd03-411b-9731-55305f76b7c8","ios":"levelo://app?vid=d0f90c24-dd03-411b-9731-55305f76b7c8"},"vehicle_type_id":"4","last_reported":1751890916,"current_range_meters":24000,"station_id":"st_cvj6sg6p6f1abm77japg","pricing_plan_id":"cebpf4jnsgd1na2vs0mg"},{"bike_id":"df574868-231d-4f6b-b5a1-69fa93b58da3","system_id":"levelo_inurba_marseille","lat":43.29842,"lon":5.36295,"is_reserved":false,"is_disabled":false,"rental_uris":{"android":"levelo://app?vid=df574868-231d-4f6b-b5a1-69fa93b58da3","ios":"levelo://app?vid=df574868-231d-4f6b-b5a1-69fa93b58da3"},"vehicle_type_id":"4","last_reported":1751890916,"current_range_meters":24400,"station_id":"ce4bgpp2rcd13ifvqc3g","pricing_plan_id":"cebpf4jnsgd1na2vs0mg"},{"bike_id":"12e1b30c-af2a-4d5f-809b-4d93cc8b1fe1","system_id":"levelo_inurba_marseille","lat":43.31118,"lon":5.37772,"is_reserved":false,"is_disabled":false,"rental_uris":{"android":"levelo://app?vid=12e1b30c-af2a-4d5f-809b-4d93cc8b1fe1","ios":"levelo://app?vid=12e1b30c-af2a-4d5f-809b-4d93cc8b1fe1"},"vehicle_type_id":"4","last_reported":1751890916,"current_range_meters":24400,"station_id":"ce4bgt92rcd13ifvqcg0","pricing_plan_id":"cebpf4jnsgd1na2vs0mg"},{"bike_id":"5700bc5d-6bd8-4b2d-9796-077482409ef4","system_id":"levelo_inurba_marseille","lat":43.27904,"lon":5.38027,"is_reserved":false,"is_disabled":false,"rental_uris":{"android":"levelo://app?vid=5700bc5d-6bd8-4b2d-9796-077482409ef4","ios":"levelo://app?vid=5700bc5d-6bd8-4b2d-9796-077482409ef4"},"vehicle_type_id":"4","last_reported":1751890916,"current_range_meters":24400,"station_id":"ce4bhf92rcd13ifvqf50","pricing_plan_id":"cebpf4jnsgd1na2vs0mg"},{"bike_id":"861632c9-404c-41e9-a7b6-92f0c32ddc7d","system_id":"levelo_inurba_marseille","lat":43.27317,"lon":5.39077,"is_reserved":false,"is_disabled":false,"rental_uris":{"android":"levelo://app?vid=861632c9-404c-41e9-a7b6-92f0c32ddc7d","ios":"levelo://app?vid=861632c9-404c-41e9-a7b6-92f0c32ddc7d"},"vehicle_type_id":"4","last_reported":1751890916,"current_range_meters":24400,"station_id":"ce4bhgp2rcd13ifvqfe0","pricing_plan_id":"cebpf4jnsgd1na2vs0mg"},{"bike_id":"39ae33c7-725c-4a96-bf73-a2991db701cf","system_id":"levelo_inurba_marseille","lat":43.24172,"lon":5.39731,"is_reserved":false,"is_disabled":false,"rental_uris":{"android":"levelo://app?vid=39ae33c7-725c-4a96-bf73-a2991db701cf","ios":"levelo://app?vid=39ae33c7-725c-4a96-bf73-a2991db701cf"},"vehicle_type_id":"4","last_reported":1751890916,"current_range_meters":24400,"station_id":"ce4bhn12rcd13ifvqgpg","pricing_plan_id":"cebpf4jnsgd1na2vs0mg"},{"bike_id":"b6d9b946-f66a-4c6f-96e5-5d23e176360c","system_id":"levelo_inurba_marseille","lat":43.31305,"lon":5.38179,"is_reserved":false,"is_disabled":false,"rental_uris":{"android":"levelo://app?vid=b6d9b946-f66a-4c6f-96e5-5d23e176360c","ios":"levelo://app?vid=b6d9b946-f66a-4c6f-96e5-5d23e176360c"},"vehicle_type_id":"4","last_reported":1751890916,"current_range_meters":24800,"station_id":"","pricing_plan_id":"cebpf4jnsgd1na2vs0mg"},{"bike_id":"c026958a-2c62-4268-9db7-7205b4cc9322","system_id":"levelo_inurba_marseille","lat":43.212786,"lon":5.349967,"is_reserved":false,"is_disabled":false,"rental_uris":{"android":"levelo://app?vid=c026958a-2c62-4268-9db7-7205b4cc9322","ios":"levelo://app?vid=c026958a-2c62-4268-9db7-7205b4cc9322"},"vehicle_type_id":"4","last_reported":1751890916,"current_range_meters":24800,"station_id":"","pricing_plan_id":"cebpf4jnsgd1na2vs0mg"},{"bike_id":"e0666d25-7812-44cc-a3c7-9d932baf9a66","system_id":"levelo_inurba_marseille","lat":43.217819,"lon":5.345886,"is_reserved":false,"is_disabled":false,"rental_uris":{"android":"levelo://app?vid=e0666d25-7812-44cc-a3c7-9d932baf9a66","ios":"levelo://app?vid=e0666d25-7812-44cc-a3c7-9d932baf9a66"},"vehicle_type_id":"4","last_reported":1751890916,"current_range_meters":24800,"station_id":"","pricing_plan_id":"cebpf4jnsgd1na2vs0mg"},{"bike_id":"b2caa530-bb19-4cc6-a6bd-61e3e1d7432e","system_id":"levelo_inurba_marseille","lat":43.33763,"lon":5.37461,"is_reserved":false,"is_disabled":false,"rental_uris":{"android":"levelo://app?vid=b2caa530-bb19-4cc6-a6bd-61e3e1d7432e","ios":"levelo://app?vid=b2caa530-bb19-4cc6-a6bd-61e3e1d7432e"},"vehicle_type_id":"4","last_reported":1751890916,"current_range_meters":24800,"station_id":"","pricing_plan_id":"cebpf4jnsgd1na2vs0mg"},{"bike_id":"732e361e-6ccf-408a-a8e7-c31603c93cdf","system_id":"levelo_inurba_marseille","lat":43.30136,"lon":5.38785,"is_reserved":false,"is_disabled":false,"rental_uris":{"android":"levelo://app?vid=732e361e-6ccf-408a-a8e7-c31603c93cdf","ios":"levelo://app?vid=732e361e-6ccf-408a-a8e7-c31603c93cdf"},"vehicle_type_id":"4","last_reported":1751890916,"current_range_meters":24800,"station_id":"ce4bghh2rcd13ifvqb60","pricing_plan_id":"cebpf4jnsgd1na2vs0mg"},