{"last_updated":1730283066,"ttl":60,"version":"2.2","data":{"bikes":[{"bike_id":"e0594c9b-1912-4f09-958a-91f8a4561c29","system_id":"levelo_inurba_marseille","lat":43.24389,"lon":5.37045,"is_reserved":false,"is_disabled":false,"rental_uris":{"android":"levelo://app?vid=e0594c9b-1912-4f09-958a-91f8a4561c29","ios":"levelo://app?vid=e0594c9b-1912-4f09-958a-91f8a4561c29"},"vehicle_type_id":"4","last_reported":1730283066,"current_range_meters":38800,"station_id":"ce4bhhh2rcd13ifvqfk0","pricing_plan_id":"cebpf4jnsgd1na2vs0mg"},{"bike_id":"9932cb1a-63a4-4e1c-a11b-c6a6ee00d266","system_id":"levelo_inurba_marseille","lat":43.31231,"lon":5.36855,"is_reserved":false,"is_disabled":false,"rental_uris":{"android":"levelo://app?vid=9932cb1a-63a4-4e1c-a11b-c6a6ee00d266","ios":"levelo://app?vid=9932cb1a-63a4-4e1c-a11b-c6a6ee00d266"},"vehicle_type_id":"4","last_reported":1730283066,"current_range_meters":11600,"station_id":"ce4bgl92rcd13ifvqbq0","pricing_plan_id":"cebpf4jnsgd1na2vs0mg"},{"bike_id":"6daefb7d-890b-4927-bca4-1e9b57c2727d","system_id":"levelo_inurba_marseille","lat":43.27194,"lon":5.40993,"is_reserved":false,"is_disabled":false,"rental_uris":{"android":"levelo://app?vid=6daefb7d-890b-4927-bca4-1e9b57c2727d","ios":"levelo://app?vid=6daefb7d-890b-4927-bca4-1e9b57c2727d"},"vehicle_type_id":"4","last_reported":1730283066,"current_range_meters":36800,"station_id":"ce4bhl12rcd13ifvqgf0","pricing_plan_id":"cebpf4jnsgd1na2vs0mg"},{"bike_id":"e1d18b81-986d-4e87-b61a-22535be9c7fe","system_id":"levelo_inurba_marseille","lat":43.27067,"lon":5.42276,"is_reserved":false,"is_disabled":false,"rental_uris":{"android":"levelo://app?vid=e1d18b81-986d-4e87-b61a-22535be9c7fe","ios":"levelo://app?vid=e1d18b81-986d-4e87-b61a-22535be9c7fe"},"vehicle_type_id":"4","last_reported":1730283066,"current_range_meters":39200,"station_id":"ce4bhk92rcd13ifvqgb0","pricing_plan_id":"cebpf4jnsgd1na2vs0mg"},{"bike_id":"2793bc5b-91a9-4cc9-bf8b-ae410f9a97a5","system_id":"levelo_inurba_marseille","lat":43.29987,"lon":5.38489,"is_reserved":false,"is_disabled":false,"rental_uris":{"android":"levelo://app?vid=2793bc5b-91a9-4cc9-bf8b-ae410f9a97a5","ios":"levelo://app?vid=2793bc5b-91a9-4cc9-bf8b-ae410f9a97a5"},"vehicle_type_id":"4","last_reported":1730283066,"current_range_meters":38000,"station_id":"ce4bgj92rcd13ifvqbd0","pricing_plan_id":"cebpf4jnsgd1na2vs0mg"},{"bike_id":"389a0521-41ae-44e7-b647-f0e587e1b12f","system_id":"levelo_inurba_marseille","lat":43.24174,"lon":5.39734,"is_reserved":false,"is_disabled":false,"rental_uris":{"android":"levelo://app?vid=389a0521-41ae-44e7-b647-f0e587e1b12f","ios":"levelo://app?vid=389a0521-41ae-44e7-b647-f0e587e1b12f"},"vehicle_type_id":"4","last_reported":1730283066,"current_range_meters":10000,"station_id":"ce4bhn12rcd13ifvqgpg","pricing_plan_id":"cebpf4jnsgd1na2vs0mg"},{"bike_id":"d2176af4-4cab-487a-abac-e74d2464f415","system_id":"levelo_inurba_marseille","lat":43.30558,"lon":5.36537,"is_reserved":false,"is_disabled":false,"rental_uris":{"android":"levelo://app?vid=d2176af4-4cab-487a-abac-e74d2464f415","ios":"levelo://app?vid=d2176af4-4cab-487a-abac-e74d2464f415"},"vehicle_type_id":"4","last_reported":1730283066,"current_range_meters":16800,"station_id":"ce4bgs12rcd13ifvqcag","pricing_plan_id":"cebpf4jnsgd1na2vs0mg"},{"bike_id":"e69003c5-61d9-410c-8600-03d60dc443c9","system_id":"levelo_inurba_marseille","lat":43.29916,"lon":5.38148,"is_reserved":false,"is_disabled":false,"rental_uris":{"android":"levelo://app?vid=e69003c5-61d9-410c-8600-03d60dc443c9","ios":"levelo://app?vid=e69003c5-61d9-410c-8600-03d60dc443c9"},"vehicle_type_id":"4","last_reported":1730283066,"current_range_meters":30000,"station_id":"ce4bgj12rcd13ifvqbc0","pricing_plan_id":"cebpf4jnsgd1na2vs0mg"},{"bike_id":"37495b5c-1740-4288-a9d0-b8aadf1e2a17","system_id":"levelo_inurba_marseille","lat":43.29722,"lon":5.37682,"is_reserved":false,"is_disabled":false,"rental_uris":{"android":"levelo://app?vid=37495b5c-1740-4288-a9d0-b8aadf1e2a17","ios":"levelo://app?vid=37495b5c-1740-4288-a9d0-b8aadf1e2a17"},"vehicle_type_id":"4","last_reported":1730283066,"current_range_meters":22800,"station_id":"ce4bgkh2rcd13ifvqbl0","pricing_plan_id":"cebpf4jnsgd1na2vs0mg"},{"bike_id":"28ebbb1d-8af2-4a3a-a040-b8e7f776133c","system_id":"levelo_inurba_marseille","lat":43.2961,"lon":5.38107,"is_reserved":false,"is_disabled":false,"rental_uris":{"android":"levelo://app?vid=28ebbb1d-8af2-4a3a-a040-b8e7f776133c","ios":"levelo://app?vid=28ebbb1d-8af2-4a3a-a040-b8e7f776133c"},"vehicle_type_id":"4","last_reported":1730283066,"current_range_meters":33200,"station_id":"ce4bgl12rcd13ifvqbo0","pricing_plan_id":"cebpf4jnsgd1na2vs0mg"},{"bike_id":"a0f5d9ec-bdca-49ed-9410-eea9bb121fec","system_id":"levelo_inurba_marseille","lat":43.32659,"lon":5.40988,"is_reserved":false,"is_disabled":false,"rental_uris":{"android":"levelo://app?vid=a0f5d9ec-bdca-49ed-9410-eea9bb121fec","ios":"levelo://app?vid=a0f5d9ec-bdca-49ed-9410-eea9bb121fec"},"vehicle_type_id":"4","last_reported":1730283066,"current_range_meters":38000,"station_id":"ce4bhpp2rcd13ifvqhgg","pricing_plan_id":"cebpf4jnsgd1na2vs0mg"},{"bike_id":"122308d7-9770-4e4b-b7e7-f3f1e6c322cb","system_id":"levelo_inurba_marseille","lat":43.29727,"lon":5.37683,"is_reserved":false,"is_disabled":false,"rental_uris":{"android":"levelo://app?vid=122308d7-9770-4e4b-b7e7-f3f1e6c322cb","ios":"levelo://app?vid=122308d7-9770-4e4b-b7e7-f3f1e6c322cb"},"vehicle_type_id":"4","last_reported":1730283066,"current_range_meters":34800,"station_id":"ce4bgkh2rcd13ifvqbl0","pricing_plan_id":"cebpf4jnsgd1na2vs0mg"},{"bike_id":"e8d85e8e-18a6-4ab4-ac32-ba9abb50d129","system_id":"levelo_inurba_marseille","lat":43.29167,"lon":5.3716,"is_reserved":false,"is_disabled":false,"rental_uris":{"android":"levelo://app?vid=e8d85e8e-18a6-4ab4-ac32-ba9abb50d129","ios":"levelo://app?vid=e8d85e8e-18a6-4ab4-ac32-ba9abb50d129"},"vehicle_type_id":"4","last_reported":1730283066,"current_range_meters":38800,"station_id":"ce4bha92rcd13ifvqeh0","pricing_plan_id":"cebpf4jnsgd1na2vs0mg"},{"bike_id":"b240039e-c50d-4884-bbaf-45c1fe416cf2","system_id":"levelo_inurba_marseille","lat":43.24166,"lon":5.36385,"is_reserved":false,"is_disabled":false,"rental_uris":{"android":"levelo://app?vid=b240039e-c50d-4884-bbaf-45c1fe416cf2","ios":"levelo://app?vid=b240039e-c50d-4884-bbaf-45c1fe416cf2"},"vehicle_type_id":"4","last_reported":1730283066,"current_range_meters":32800,"station_id":"cpo36qri1sfpv3e86is0","pricing_plan_id":"cebpf4jnsgd1na2vs0mg"},{"bike_id":"0f237200-9f2c-4569-b096-745ca33d76d3","system_id":"levelo_inurba_marseille","lat":43.3055,"lon":5.36533,"is_reserved":false,"is_disabled":false,"rental_uris":{"android":"levelo://app?vid=0f237200-9f2c-4569-b096-745ca33d76d3","ios":"levelo://app?vid=0f237200-9f2c-4569-b096-745ca33d76d3"},"vehicle_type_id":"4","last_reported":1730283066,"current_range_meters":30800,"station_id":"ce4bgs12rcd13ifvqcag","pricing_plan_id":"cebpf4jnsgd1na2vs0mg"},{"bike_id":"98af7aaf-680f-4013-9acb-3127feae2bb0","system_id":"levelo_inurba_marseille","lat":43.33018,"lon":5.39039,"is_reserved":false,"is_disabled":false,"rental_uris":{"android":"levelo://app?vid=98af7aaf-680f-4013-9acb-3127feae2bb0","ios":"levelo://app?vid=98af7aaf-680f-4013-9acb-3127feae2bb0"},"vehicle_type_id":"4","last_reported":1730283066,"current_range_meters":38800,"station_id":"ce4bhr92rcd13ifvqhrg","pricing_plan_id":"cebpf4jnsgd1na2vs0mg"},{"bike_id":"5607110e-580f-48db-ba88-212c55d8989d","system_id":"levelo_inurba_marseille","lat":43.23184,"lon":5.39995,"is_reserved":false,"is_disabled":false,"rental_uris":{"android":"levelo://app?vid=5607110e-580f-48db-ba88-212c55d8989d","ios":"levelo://app?vid=5607110e-580f-48db-ba88-212c55d8989d"},"vehicle_type_id":"4","last_reported":1730283066,"current_range_meters":10000,"station_id":"ce4bhn12rcd13ifvqgqg","pricing_plan_id":"cebpf4jnsgd1na2vs0mg"},{"bike_id":"a374ab18-c8cc-4f7a-810c-cb9e611a50df","system_id":"levelo_inurba_marseille","lat":43.26811,"lon":5.40268,"is_reserved":false,"is_disabled":false,"rental_uris":{"android":"levelo://app?vid=a374ab18-c8cc-4f7a-810c-cb9e611a50df","ios":"levelo://app?vid=a374ab18-c8cc-4f7a-810c-cb9e611a50df"},"vehicle_type_id":"4","last_reported":1730283066,"current_range_meters":26800,"station_id":"ce501612rcd8frsf0b60","pricing_plan_id":"cebpf4jnsgd1na2vs0mg"},{"bike_id":"17dedbe8-c1d7-4797-9330-67ab3daf7c0b","system_id":"levelo_inurba_marseille","lat":43.33728,"lon":5.39185,"is_reserved":false,"is_disabled":false,"rental_uris":{"android":"levelo://app?vid=17dedbe8-c1d7-4797-9330-67ab3daf7c0b","ios":"levelo://app?vid=17dedbe8-c1d7-4797-9330-67ab3daf7c0b"},"vehicle_type_id":"4","last_reported":1730283066,"current_range_meters":6400,"station_id":"ce4bhr92rcd13ifvqhsg","pricing_plan_id":"cebpf4jnsgd1na2vs0mg"},{"bike_id":"28243c0e-3d63-467c-bb0d-eacbbfdd097d","system_id":"levelo_inurba_marseille","lat":43.27915,"lon":5.39583,"is_reserved":false,"is_disabled":false,"rental_uris":{"android":"levelo://app?vid=28243c0e-3d63-467c-bb0d-eacbbfdd097d","ios":"levelo://app?vid=28243c0e-3d63-467c-bb0d-eacbbfdd097d"},"vehicle_type_id":"4","last_reported":1730283066,"current_range_meters":15200,"station_id":"ce4bhf92rcd13ifvqf40","pricing_plan_id":"cebpf4jnsgd1na2vs0mg"},{"bike_id":"0c074560-8ac3-46f4-bbf6-3d47e9833728","system_id":"levelo_inurba_marseille","lat":43.24999,"lon":5.3892,"is_reserved":false,"is_disabled":false,"rental_uris":{"android":"levelo://app?vid=0c074560-8ac3-46f4-bbf6-3d47e9833728","ios":"levelo://app?vid=0c074560-8ac3-46f4-bbf6-3d47e9833728"},"vehicle_type_id":"4","last_reported":1730283066,"current_range_meters":38000,"station_id":"ce4bhgp2rcd13ifvqfd0","pricing_plan_id":"cebpf4jnsgd1na2vs0mg"},{"bike_id":"23cfbedb-6938-4c37-9302-249be55a0302","system_id":"levelo_inurba_marseille","lat":43.30549,"lon":5.36711,"is_reserved":false,"is_disabled":false,"rental_uris":{"android":"levelo://app?vid=23cfbedb-6938-4c37-9302-249be55a0302","ios":"levelo://app?vid=23cfbedb-6938-4c37-9302-249be55a0302"},"vehicle_type_id":"4","last_reported":1730283066,"current_range_meters":14000,"station_id":"ce4bgrp2rcd13ifvqc9g","pricing_plan_id":"cebpf4jnsgd1na2vs0mg"},{"bike_id":"1cd8d7e3-0ce1-40bb-812b-9a4e1822ff6c","system_id":"levelo_inurba_marseille","lat":43.3248,"lon":5.36557,"is_reserved":false,"is_disabled":false,"rental_uris":{"android":"levelo://app?vid=1cd8d7e3-0ce1-40bb-812b-9a4e1822ff6c","ios":"levelo://app?vid=1cd8d7e3-0ce1-40bb-812b-9a4e1822ff6c"},"vehicle_type_id":"4","last_reported":1730283066,"current_range_meters":34000,"station_id":"ce4bhs12rcd13ifvqhvg","pricing_plan_id":"cebpf4jnsgd1na2vs0mg"},{"bike_id":"89aa9320-e671-45f6-8b3e-0d673563b4d9","system_id":"levelo_inurba_marseille","lat":43.25585,"lon":5.38228,"is_reserved":false,"is_disabled":false,"rental_uris":{"android":"levelo://app?vid=89aa9320-e671-45f6-8b3e-0d673563b4d9","ios":"levelo://app?vid=89aa9320-e671-45f6-8b3e-0d673563b4d9"},"vehicle_type_id":"4","last_reported":1730283066,"current_range_meters":32400,"station_id":"ce4bhih2rcd13ifvqfs0","pricing_plan_id":"cebpf4jnsgd1na2vs0mg"},{"bike_id":"c6b8984c-4dca-4296-9a56-9a3d0a2c06e8","system_id":"levelo_inurba_marseille","lat":43.2656,"lon":5.37282,"is_reserved":false,"is_disabled":false,"rental_uris":{"android":"levelo://app?vid=c6b8984c-4dca-4296-9a56-9a3d0a2c06e8","ios":"levelo://app?vid=c6b8984c-4dca-4296-9a56-9a3d0a2c06e8"},"vehicle_type_id":"4","last_reported":1730283066,"current_range_meters":15200,"station_id":"ce4bhg12rcd13ifvqf70","pricing_plan_id":"cebpf4jnsgd1na2vs0mg"},{"bike_id":"f6572077-93fc-435f-9911-97eaf2c82e29","system_id":"levelo_inurba_marseille","lat":43.29618,"lon":5.37717,"is_reserved":false,"is_disabled":false,"rental_uris":{"android":"levelo://app?vid=f6572077-93fc-435f-9911-97eaf2c82e29","ios":"levelo://app?vid=f6572077-93fc-435f-9911-97eaf2c82e29"},"vehicle_type_id":"4","last_reported":1730283066,"current_range_meters":39200,"station_id":"ce4bgi92rcd13ifvqb90","pricing_plan_id":"cebpf4jnsgd1na2vs0mg"},{"bike_id":"caf349c8-ed3b-4304-909b-160d602b00a5","system_id":"levelo_inurba_marseille","lat":43.31684,"lon":5.3776,"is_reserved":false,"is_disabled":false,"rental_uris":{"android":"levelo://app?vid=caf349c8-ed3b-4304-909b-160d602b00a5","ios":"levelo://app?vid=caf349c8-ed3b-4304-909b-160d602b00a5"},"vehicle_type_id":"4","last_reported":1730283066,"current_range_meters":5600,"station_id":"ce4bgth2rcd13ifvqch0","pricing_plan_id":"cebpf4jnsgd1na2vs0mg"},{"bike_id":"74df42bc-22c9-4384-8bbc-4904bc13c3d1","system_id":"levelo_inurba_marseille","lat":43.31467,"lon":5.37386,"is_reserved":false,"is_disabled":false,"rental_uris":{"android":"levelo://app?vid=74df42bc-22c9-4384-8bbc-4904bc13c3d1","ios":"levelo://app?vid=74df42bc-22c9-4384-8bbc-4904bc13c3d1"},"vehicle_type_id":"4","last_reported":1730283066,"current_range_meters":33600,"station_id":"","pricing_plan_id":"cebpf4jnsgd1na2vs0mg"},{"bike_id":"8d1620e7-e5ab-4df0-827f-1b7a5189e865","system_id":"levelo_inurba_marseille","lat":43.27993,"lon":5.40019,"is_reserved":false,"is_disabled":false,"rental_uris":{"android":"levelo://app?vid=8d1620e7-e5ab-4df0-827f-1b7a5189e865","ios":"levelo://app?vid=8d1620e7-e5ab-4df0-827f-1b7a5189e865"},"vehicle_type_id":"4","last_reported":1730283066,"current_range_meters":38400,"station_id":"ce4bho92rcd13ifvqh4g","pricing_plan_id":"cebpf4jnsgd1na2vs0mg"},{"bike_id":"82a16fa2-3542-4820-b609-018ed6790cc4","system_id":"levelo_inurba_marseille","lat":43.25572,"lon":5.38236,"is_reserved":false,"is_disabled":false,"rental_uris":{"android":"levelo://app?vid=82a16fa2-3542-4820-b609-018ed6790cc4","ios":"levelo://app?vid=82a16fa2-3542-4820-b609-018ed6790cc4"},"vehicle_type_id":"4","last_reported":1730283066,"current_range_meters":35200,"station_id":"ce4bhih2rcd13ifvqfs0","pricing_plan_id":"cebpf4jnsgd1na2vs0mg"},{"bike_id":"83e8370a-0578-402b-b179-be4cd80c393d","system_id":"levelo_inurba_marseille","lat":43.31368,"lon":5.38494,"is_reserved":false,"is_disabled":false,"rental_uris":{"android":"levelo://app?vid=83e8370a-0578-402b-b179-be4cd80c393d","ios":"levelo://app?vid=83e8370a-0578-402b-b179-be4cd80c393d"},"vehicle_type_id":"4","last_reported":1730283066,"current_range_meters":36000,"station_id":"ce4bgt92rcd13ifvqcf0","pricing_plan_id":"cebpf4jnsgd1na2vs0mg"},{"bike_id":"25d54563-41fe-4ed4-ad31-420cee931136","system_id":"levelo_inurba_marseille","lat":43.31074,"lon":5.38355,"is_reserved":false,"is_disabled":false,"rental_uris":{"android":"levelo://app?vid=25d54563-41fe-4ed4-ad31-420cee931136","ios":"levelo://app?vid=25d54563-41fe-4ed4-ad31-420cee931136"},"vehicle_type_id":"4","last_reported":1730283066,"current_range_meters":10000,"station_id":"ce4bgv92rcd13ifvqcr0","pricing_plan_id":"cebpf4jnsgd1na2vs0mg"},{"bike_id":"b064c4d6-367c-48e1-ba77-b9d395acae51","system_id":"levelo_inurba_marseille","lat":43.30464,"lon":5.37897,"is_reserved":false,"is_disabled":false,"rental_uris":{"android":"levelo://app?vid=b064c4d6-367c-48e1-ba77-b9d395acae51","ios":"levelo://app?vid=b064c4d6-367c-48e1-ba77-b9d395acae51"},"vehicle_type_id":"4","last_reported":1730283066,"current_range_meters":26000,"station_id":"ce4bgup2rcd13ifvqcn0","pricing_plan_id":"cebpf4jnsgd1na2vs0mg"},{"bike_id":"c2ca085f-b204-4824-8fac-269bf8983484","system_id":"levelo_inurba_marseille","lat":43.27619,"lon":5.3611,"is_reserved":false,"is_disabled":false,"rental_uris":{"android":"levelo://app?vid=c2ca085f-b204-4824-8fac-269bf8983484","ios":"levelo://app?vid=c2ca085f-b204-4824-8fac-269bf8983484"},"vehicle_type_id":"4","last_reported":1730283066,"current_range_meters":34000,"station_id":"ce4bgj92rcd13ifvqbe0","pricing_plan_id":"cebpf4jnsgd1na2vs0mg"},{"bike_id":"b716834f-53c4-426a-ae7f-a08629dee012","system_id":"levelo_inurba_marseille","lat":43.23061,"lon":5.3549,"is_reserved":false,"is_disabled":false,"rental_uris":{"android":"levelo://app?vid=b716834f-53c4-426a-ae7f-a08629dee012","ios":"levelo://app?vid=b716834f-53c4-426a-ae7f-a08629dee012"},"vehicle_type_id":"4","last_reported":1730283066,"current_range_meters":19200,"station_id":"cpo3342slgdg3j2ifvpg","pricing_plan_id":"cebpf4jnsgd1na2vs0mg"},{"bike_id":"34630d18-75dd-4aec-9bb1-0ce7aab0afdf","system_id":"levelo_inurba_marseille","lat":43.24663,"lon":5.38163,"is_reserved":false,"is_disabled":false,"rental_uris":{"android":"levelo://app?vid=34630d18-75dd-4aec-9bb1-0ce7aab0afdf","ios":"levelo://app?vid=34630d18-75dd-4aec-9bb1-0ce7aab0afdf"},"vehicle_type_id":"4","last_reported":1730283066,"current_range_meters":38800,"station_id":"ce4bhih2rcd13ifvqfr0","pricing_plan_id":"cebpf4jnsgd1na2vs0mg"},{"bike_id":"fca70fb1-2c2b-46bb-a35c-c4971041e2df","system_id":"levelo_inurba_marseille","lat":43.23181,"lon":5.39973,"is_reserved":false,"is_disabled":false,"rental_uris":{"android":"levelo://app?vid=fca70fb1-2c2b-46bb-a35c-c4971041e2df","ios":"levelo://app?vid=fca70fb1-2c2b-46bb-a35c-c4971041e2df"},"vehicle_type_id":"4","last_reported":1730283066,"current_range_meters":22000,"station_id":"ce4bhn12rcd13ifvqgqg","pricing_plan_id":"cebpf4jnsgd1na2vs0mg"},{"bike_id":"94ddc1d2-b94e-412d-840b-da90f0ce712c","system_id":"levelo_inurba_marseille","lat":43.30537,"lon":5.3654,"is_reserved":false,"is_disabled":false,"rental_uris":{"android":"levelo://app?vid=94ddc1d2-b94e-412d-840b-da90f0ce712c","ios":"levelo://app?vid=94ddc1d2-b94e-412d-840b-da90f0ce712c"},"vehicle_type_id":"4","last_reported":1730283066,"current_range_meters":38800,"station_id":"ce4bgs12rcd13ifvqcag","pricing_plan_id":"cebpf4jnsgd1na2vs0mg"},{"bike_id":"c5ab8f86-3c93-447c-b767-f885bdebd2ff","system_id":"levelo_inurba_marseille","lat":43.27065,"lon":5.42274,"is_reserved":false,"is_disabled":false,"rental_uris":{"android":"levelo://app?vid=c5ab8f86-3c93-447c-b767-f885bdebd2ff","ios":"levelo://app?vid=c5ab8f86-3c93-447c-b767-f885bdebd2ff"},"vehicle_type_id":"4","last_reported":1730283066,"current_range_meters":39200,"station_id":"ce4bhk92rcd13ifvqgb0","pricing_plan_id":"cebpf4jnsgd1na2vs0mg"},{"bike_id":"6bfb62a6-63c3-4bd5-8676-7b2f3dd6580d","system_id":"levelo_inurba_marseille","lat":43.28149,"lon":5.42639,"is_reserved":false,"is_disabled":false,"rental_uris":{"android":"levelo://app?vid=6bfb62a6-63c3-4bd5-8676-7b2f3dd6580d","ios":"levelo://app?vid=6bfb62a6-63c3-4bd5-8676-7b2f3dd6580d"},"vehicle_type_id":"4","last_reported":1730283066,"current_range_meters":14000,"station_id":"ce4bhnh2rcd13ifvqgug","pricing_plan_id":"cebpf4jnsgd1na2vs0mg"},{"bike_id":"70bb78fe-4bef-4d56-a833-affc0bdfc9f3","system_id":"levelo_inurba_marseille","lat":43.23193,"lon":5.35555,"is_reserved":false,"is_disabled":false,"rental_uris":{"android":"levelo://app?vid=70bb78fe-4bef-4d56-a833-affc0bdfc9f3","ios":"levelo://app?vid=70bb78fe-4bef-4d56-a833-affc0bdfc9f3"},"vehicle_type_id":"4","last_reported":1730283066,"current_range_meters":37600,"station_id":"ce4bhu92rcd13ifvqi70","pricing_plan_id":"cebpf4jnsgd1na2vs0mg"},{"bike_id":"7b48dd76-9cf8-430f-a07d-cd75cf7ca1bd","system_id":"levelo_inurba_marseille","lat":43.25006,"lon":5.38929,"is_reserved":false,"is_disabled":false,"rental_uris":{"android":"levelo://app?vid=7b48dd76-9cf8-430f-a07d-cd75cf7ca1bd","ios":"levelo://app?vid=7b48dd76-9cf8-430f-a07d-cd75cf7ca1bd"},"vehicle_type_id":"4","last_reported":1730283066,"current_range_meters":31200,"station_id":"ce4bhgp2rcd13ifvqfd0","pricing_plan_id":"cebpf4jnsgd1na2vs0mg"},{"bike_id":"d608461b-25f3-447e-b28f-b2914942a9ce","system_id":"levelo_inurba_marseille","lat":43.29015,"lon":5.38128,"is_reserved":false,"is_disabled":false,"rental_uris":{"android":"levelo://app?vid=d608461b-25f3-447e-b28f-b2914942a9ce","ios":"levelo://app?vid=d608461b-25f3-447e-b28f-b2914942a9ce"},"vehicle_type_id":"4","last_reported":1730283066,"current_range_meters":28400,"station_id":"ce4bh4p2rcd13ifvqe1g","pricing_plan_id":"cebpf4jnsgd1na2vs0mg"},{"bike_id":"9c4e8573-fe6e-4614-b7af-9a36717ed9b9","system_id":"levelo_inurba_marseille","lat":43.27905,"lon":5.39584,"is_reserved":false,"is_disabled":false,"rental_uris":{"android":"levelo://app?vid=9c4e8573-fe6e-4614-b7af-9a36717ed9b9","ios":"levelo://app?vid=9c4e8573-fe6e-4614-b7af-9a36717ed9b9"},"vehicle_type_id":"4","last_reported":1730283066,"current_range_meters":23200,"station_id":"ce4bhf92rcd13ifvqf40","pricing_plan_id":"cebpf4jnsgd1na2vs0mg"},{"bike_id":"5c244c3d-8fd7-4c95-b825-2f7fe2f15994","system_id":"levelo_inurba_marseille","lat":43.23188,"lon":5.35546,"is_reserved":false,"is_disabled":false,"rental_uris":{"android":"levelo://app?vid=5c244c3d-8fd7-4c95-b825-2f7fe2f15994","ios":"levelo://app?vid=5c244c3d-8fd7-4c95-b825-2f7fe2f15994"},"vehicle_type_id":"4","last_reported":1730283066,"current_range_meters":38800,"station_id":"ce4bhu92rcd13ifvqi70","pricing_plan_id":"cebpf4jnsgd1na2vs0mg"},{"bike_id":"5efd5148-f738-4c82-8164-c1739863b28d","system_id":"levelo_inurba_marseille","lat":43.26941,"lon":5.40241,"is_reserved":false,"is_disabled":false,"rental_uris":{"android":"levelo://app?vid=5efd5148-f738-4c82-8164-c1739863b28d","ios":"levelo://app?vid=5efd5148-f738-4c82-8164-c1739863b28d"},"vehicle_type_id":"4","last_reported":1730283066,"current_range_meters":16000,"station_id":"cjm6bp8fraef2m0cb0m0","pricing_plan_id":"cebpf4jnsgd1na2vs0mg"},{"bike_id":"e10ff328-93b2-4d6a-af26-12f189d78479","system_id":"levelo_inurba_marseille","lat":43.33731,"lon":5.39187,"is_reserved":false,"is_disabled":false,"rental_uris":{"android":"levelo://app?vid=e10ff328-93b2-4d6a-af26-12f189d78479","ios":"levelo://app?vid=e10ff328-93b2-4d6a-af26-12f189d78479"},"vehicle_type_id":"4","last_reported":1730283066,"current_range_meters":38800,"station_id":"ce4bhr92rcd13ifvqhsg","pricing_plan_id":"cebpf4jnsgd1na2vs0mg"},{"bike_id":"2f179f8e-912a-4178-91f6-3d0a37319f15","system_id":"levelo_inurba_marseille","lat":43.30616,"lon":5.37225,"is_reserved":false,"is_disabled":false,"rental_uris":{"android":"levelo://app?vid=2f179f8e-912a-4178-91f6-3d0a37319f15","ios":"levelo://app?vid=2f179f8e-912a-4178-91f6-3d0a37319f15"},"vehicle_type_id":"4","last_reported":1730283066,"current_range_meters":33200,"station_id":"ce4bgs12rcd13ifvqcag","pricing_plan_id":"cebpf4jnsgd1na2vs0mg"},{"bike_id":"ee25898e-1a32-40b2-9b00-4218c7c2270d","system_id":"levelo_inurba_marseille","lat":43.34145,"lon":5.40898,"is_reserved":false,"is_disabled":false,"rental_uris":{"android":"levelo://app?vid=ee25898e-1a32-40b2-9b00-4218c7c2270d","ios":"levelo://app?vid=ee25898e-1a32-40b2-9b00-4218c7c2270d"},"vehicle_type_id":"4","last_reported":1730283066,"current_range_meters":35600,"station_id":"ce4bhqh2rcd13ifvqhlg","pricing_plan_id":"cebpf4jnsgd1na2vs0mg"},{"bike_id":"1260669a-f7ae-4d8c-b1d2-665ed6edf654","system_id":"levelo_inurba_marseille","lat":43.29032,"lon":5.37566,"is_reserved":false,"is_disabled":false,"rental_uris":{"android":"levelo://app?vid=1260669a-f7ae-4d8c-b1d2-665ed6edf654","ios":"levelo://app?vid=1260669a-f7ae-4d8c-b1d2-665ed6edf654"},"vehicle_type_id":"4","last_reported":1730283066,"current_range_meters":24000,"station_id":"ce4bh692rcd13ifvqe90","pricing_plan_id":"cebpf4jnsgd1na2vs0mg"},{"bike_id":"c6472a4b-15fb-475c-a800-9db188055ce2","system_id":"levelo_inurba_marseille","lat":43.25827,"lon":5.39436,"is_reserved":false,"is_disabled":false,"rental_uris":{"android":"levelo://app?vid=c6472a4b-15fb-475c-a800-9db188055ce2","ios":"levelo://app?vid=c6472a4b-15fb-475c-a800-9db188055ce2"},"vehicle_type_id":"4","last_reported":1730283066,"current_range_meters":13600,"station_id":"ce4bhip2rcd13ifvqft0","pricing_plan_id":"cebpf4jnsgd1na2vs0mg"},{"bike_id":"4ad4128e-10e6-4dd4-b1a8-383f9c965099","system_id":"levelo_inurba_marseille","lat":43.29522,"lon":5.37507,"is_reserved":false,"is_disabled":false,"rental_uris":{"android":"levelo://app?vid=4ad4128e-10e6-4dd4-b1a8-383f9c965099","ios":"levelo://app?vid=4ad4128e-10e6-4dd4-b1a8-383f9c965099"},"vehicle_type_id":"4","last_reported":1730283066,"current_range_meters":14400,"station_id":"ce4bgkp2rcd13ifvqbmg","pricing_plan_id":"cebpf4jnsgd1na2vs0mg"},{"bike_id":"56dc04b7-06b7-4e88-ac29-730a7abdd49b","system_id":"levelo_inurba_marseille","lat":43.31369,"lon":5.38498,"is_reserved":false,"is_disabled":false,"rental_uris":{"android":"levelo://app?vid=56dc04b7-06b7-4e88-ac29-730a7abdd49b","ios":"levelo://app?vid=56dc04b7-06b7-4e88-ac29-730a7abdd49b"},"vehicle_type_id":"4","last_reported":1730283066,"current_range_meters":38000,"station_id":"ce4bgt92rcd13ifvqcf0","pricing_plan_id":"cebpf4jnsgd1na2vs0mg"},{"bike_id":"ee9927da-db62-4b18-894c-b5fe829dc733","system_id":"levelo_inurba_marseille","lat":43.30912,"lon":5.36848,"is_reserved":false,"is_disabled":false,"rental_uris":{"android":"levelo://app?vid=ee9927da-db62-4b18-894c-b5fe829dc733","ios":"levelo://app?vid=ee9927da-db62-4b18-894c-b5fe829dc733"},"vehicle_type_id":"4","last_reported":1730283066,"current_range_meters":38800,"station_id":"ce4bgn92rcd13ifvqbvg","pricing_plan_id":"cebpf4jnsgd1na2vs0mg"},{"bike_id":"92adf987-4779-4b78-ad9c-8e29ab9175f3","system_id":"levelo_inurba_marseille","lat":43.23188,"lon":5.35557,"is_reserved":false,"is_disabled":false,"rental_uris":{"android":"levelo://app?vid=92adf987-4779-4b78-ad9c-8e29ab9175f3","ios":"levelo://app?vid=92adf987-4779-4b78-ad9c-8e29ab9175f3"},"vehicle_type_id":"4","last_reported":1730283066,"current_range_meters":13600,"station_id":"ce4bhu92rcd13ifvqi70","pricing_plan_id":"cebpf4jnsgd1na2vs0mg"},{"bike_id":"ee1c7d9a-2bf9-48ed-9197-7213b7dc6efa","system_id":"levelo_inurba_marseille","lat":43.29007,"lon":5.35606,"is_reserved":false,"is_disabled":false,"rental_uris":{"android":"levelo://app?vid=ee1c7d9a-2bf9-48ed-9197-7213b7dc6efa","ios":"levelo://app?vid=ee1c7d9a-2bf9-48ed-9197-7213b7dc6efa"},"vehicle_type_id":"4","last_reported":1730283066,"current_range_meters":26800,"station_id":"ce4bhb92rcd13ifvqen0","pricing_plan_id":"cebpf4jnsgd1na2vs0mg"},{"bike_id":"e546b065-2350-4d25-89c1-48d33eb67c39","system_id":"levelo_inurba_marseille","lat":43.30141,"lon":5.37426,"is_reserved":false,"is_disabled":false,"rental_uris":{"android":"levelo://app?vid=e546b065-2350-4d25-89c1-48d33eb67c39","ios":"levelo://app?vid=e546b065-2350-4d25-89c1-48d33eb67c39"},"vehicle_type_id":"4","last_reported":1730283066,"current_range_meters":38800,"station_id":"ce4bgs92rcd13ifvqcc0","pricing_plan_id":"cebpf4jnsgd1na2vs0mg"},{"bike_id":"c03f3456-93bb-418a-8ce0-ca351e254b4e","system_id":"levelo_inurba_marseille","lat":43.31765,"lon":5.39013,"is_reserved":false,"is_disabled":false,"rental_uris":{"android":"levelo://app?vid=c03f3456-93bb-418a-8ce0-ca351e254b4e","ios":"levelo://app?vid=c03f3456-93bb-418a-8ce0-ca351e254b4e"},"vehicle_type_id":"4","last_reported":1730283066,"current_range_meters":37600,"station_id":"ce4bhqp2rcd13ifvqhng","pricing_plan_id":"cebpf4jnsgd1na2vs0mg"},{"bike_id":"dfc52c87-3773-41be-8e69-6425bfdc959b","system_id":"levelo_inurba_marseille","lat":43.29975,"lon":5.38481,"is_reserved":false,"is_disabled":false,"rental_uris":{"android":"levelo://app?vid=dfc52c87-3773-41be-8e69-6425bfdc959b","ios":"levelo://app?vid=dfc52c87-3773-41be-8e69-6425bfdc959b"},"vehicle_type_id":"4","last_reported":1730283066,"current_range_meters":19600,"station_id":"ce4bgj92rcd13ifvqbd0","pricing_plan_id":"cebpf4jnsgd1na2vs0mg"},{"bike_id":"bf6f39e3-218c-41b9-9e94-1a8f2bb4fc1d","system_id":"levelo_inurba_marseille","lat":43.27615,"lon":5.36105,"is_reserved":false,"is_disabled":false,"rental_uris":{"android":"levelo://app?vid=bf6f39e3-218c-41b9-9e94-1a8f2bb4fc1d","ios":"levelo://app?vid=bf6f39e3-218c-41b9-9e94-1a8f2bb4fc1d"},"vehicle_type_id":"4","last_reported":1730283066,"current_range_meters":33200,"station_id":"ce4bgj92rcd13ifvqbe0","pricing_plan_id":"cebpf4jnsgd1na2vs0mg"},{"bike_id":"6084bb8b-15a8-4039-8d98-d9914b85d883","system_id":"levelo_inurba_marseille","lat":43.26203,"lon":5.37927,"is_reserved":false,"is_disabled":false,"rental_uris":{"android":"levelo://app?vid=6084bb8b-15a8-4039-8d98-d9914b85d883","ios":"levelo://app?vid=6084bb8b-15a8-4039-8d98-d9914b85d883"},"vehicle_type_id":"4","last_reported":1730283066,"current_range_meters":38400,"station_id":"ce4bhjp2rcd13ifvqg90","pricing_plan_id":"cebpf4jnsgd1na2vs0mg"},{"bike_id":"1b0e2bab-c76a-4b02-87ab-e2dcd0cfc1cd","system_id":"levelo_inurba_marseille","lat":43.25108,"lon":5.40324,"is_reserved":false,"is_disabled":false,"rental_uris":{"android":"levelo://app?vid=1b0e2bab-c76a-4b02-87ab-e2dcd0cfc1cd","ios":"levelo://app?vid=1b0e2bab-c76a-4b02-87ab-e2dcd0cfc1cd"},"vehicle_type_id":"4","last_reported":1730283066,"current_range_meters":16400,"station_id":"ce4bhlh2rcd13ifvqgig","pricing_plan_id":"cebpf4jnsgd1na2vs0mg"},{"bike_id":"269a4193-03a6-4fe1-93c0-2b8610ca1e7f","system_id":"levelo_inurba_marseille","lat":43.24393,"lon":5.37054,"is_reserved":false,"is_disabled":false,"rental_uris":{"android":"levelo://app?vid=269a4193-03a6-4fe1-93c0-2b8610ca1e7f","ios":"levelo://app?vid=269a4193-03a6-4fe1-93c0-2b8610ca1e7f"},"vehicle_type_id":"4","last_reported":1730283066,"current_range_meters":18800,"station_id":"ce4bhhh2rcd13ifvqfk0","pricing_plan_id":"cebpf4jnsgd1na2vs0mg"},{"bike_id":"9821e82f-5836-45de-8da2-dcaa482cb3ed","system_id":"levelo_inurba_marseille","lat":43.26197,"lon":5.37446,"is_reserved":false,"is_disabled":false,"rental_uris":{"android":"levelo://app?vid=9821e82f-5836-45de-8da2-dcaa482cb3ed","ios":"levelo://app?vid=9821e82f-5836-45de-8da2-dcaa482cb3ed"},"vehicle_type_id":"4","last_reported":1730283066,"current_range_meters":26800,"station_id":"ce4bhgp2rcd13ifvqfc0","pricing_plan_id":"cebpf4jnsgd1na2vs0mg"},{"bike_id":"3928d2b2-5322-4bfc-935c-f02931565366","system_id":"levelo_inurba_marseille","lat":43.28,"lon":5.41653,"is_reserved":false,"is_disabled":false,"rental_uris":{"android":"levelo://app?vid=3928d2b2-5322-4bfc-935c-f02931565366","ios":"levelo://app?vid=3928d2b2-5322-4bfc-935c-f02931565366"},"vehicle_type_id":"4","last_reported":1730283066,"current_range_meters":11200,"station_id":"ce4bho12rcd13ifvqh1g","pricing_plan_id":"cebpf4jnsgd1na2vs0mg"},{"bike_id":"48006ff9-0d9a-4c0a-984e-0769fc1900b6","system_id":"levelo_inurba_marseille","lat":43.30424,"lon":5.38875,"is_reserved":false,"is_disabled":false,"rental_uris":{"android":"levelo://app?vid=48006ff9-0d9a-4c0a-984e-0769fc1900b6","ios":"levelo://app?vid=48006ff9-0d9a-4c0a-984e-0769fc1900b6"},"vehicle_type_id":"4","last_reported":1730283066,"current_range_meters":38000,"station_id":"ce4bgk12rcd13ifvqbi0","pricing_plan_id":"cebpf4jnsgd1na2vs0mg"},{"bike_id":"87d4cda7-2b7e-47cf-854a-98224e62b405","system_id":"levelo_inurba_marseille","lat":43.31224,"lon":5.36853,"is_reserved":false,"is_disabled":false,"rental_uris":{"android":"levelo://app?vid=87d4cda7-2b7e-47cf-854a-98224e62b405","ios":"levelo://app?vid=87d4cda7-2b7e-47cf-854a-98224e62b405"},"vehicle_type_id":"4","last_reported":1730283066,"current_range_meters":39200,"station_id":"ce4bgl92rcd13ifvqbq0","pricing_plan_id":"cebpf4jnsgd1na2vs0mg"},{"bike_id":"cc855eba-35d1-4e86-a06b-48f4f48e424a","system_id":"levelo_inurba_marseille","lat":43.27997,"lon":5.41658,"is_reserved":false,"is_disabled":false,"rental_uris":{"android":"levelo://app?vid=cc855eba-35d1-4e86-a06b-48f4f48e424a","ios":"levelo://app?vid=cc855eba-35d1-4e86-a06b-48f4f48e424a"},"vehicle_type_id":"4","last_reported":1730283066,"current_range_meters":30800,"station_id":"ce4bho12rcd13ifvqh1g","pricing_plan_id":"cebpf4jnsgd1na2vs0mg"},{"bike_id":"d8fccfbd-937c-4e29-884d-47d5d52747ed","system_id":"levelo_inurba_marseille","lat":43.29987,"lon":5.38491,"is_reserved":false,"is_disabled":false,"rental_uris":{"android":"levelo://app?vid=d8fccfbd-937c-4e29-884d-47d5d52747ed","ios":"levelo://app?vid=d8fccfbd-937c-4e29-884d-47d5d52747ed"},"vehicle_type_id":"4","last_reported":1730283066,"current_range_meters":38000,"station_id":"ce4bgj92rcd13ifvqbd0","pricing_plan_id":"cebpf4jnsgd1na2vs0mg"},{"bike_id":"be60fbf2-abd3-4884-a823-f491a6f4899c","system_id":"levelo_inurba_marseille","lat":43.337444,"lon":5.374475,"is_reserved":false,"is_disabled":false,"rental_uris":{"android":"levelo://app?vid=be60fbf2-abd3-4884-a823-f491a6f4899c","ios":"levelo://app?vid=be60fbf2-abd3-4884-a823-f491a6f4899c"},"vehicle_type_id":"4","last_reported":1730283066,"current_range_meters":32800,"station_id":"","pricing_plan_id":"cebpf4jnsgd1na2vs0mg"},{"bike_id":"e86fb38e-1e6b-4ff6-a66b-b9ff93ed1621","system_id":"levelo_inurba_marseille","lat":43.30424,"lon":5.38884,"is_reserved":false,"is_disabled":false,"rental_uris":{"android":"levelo://app?vid=e86fb38e-1e6b-4ff6-a66b-b9ff93ed1621","ios":"levelo://app?vid=e86fb38e-1e6b-4ff6-a66b-b9ff93ed1621"},"vehicle_type_id":"4","last_reported":1730283066,"current_range_meters":38800,"station_id":"ce4bgk12rcd13ifvqbi0","pricing_plan_id":"cebpf4jnsgd1na2vs0mg"},{"bike_id":"a9cb9816-4291-465d-8bba-6d7e7f9731d6","system_id":"levelo_inurba_marseille","lat":43.291534,"lon":5.383066,"is_reserved":false,"is_disabled":false,"rental_uris":{"android":"levelo://app?vid=a9cb9816-4291-465d-8bba-6d7e7f9731d6","ios":"levelo://app?vid=a9cb9816-4291-465d-8bba-6d7e7f9731d6"},"vehicle_type_id":"4","last_reported":1730283066,"current_range_meters":26000,"station_id":"ce4bhh12rcd13ifvqfg0","pricing_plan_id":"cebpf4jnsgd1na2vs0mg"},{"bike_id":"971f2511-c8d0-41c1-8a13-048d3995bac1","system_id":"levelo_inurba_marseille","lat":43.30959,"lon":5.39028,"is_reserved":false,"is_disabled":false,"rental_uris":{"android":"levelo://app?vid=971f2511-c8d0-41c1-8a13-048d3995bac1","ios":"levelo://app?vid=971f2511-c8d0-41c1-8a13-048d3995bac1"},"vehicle_type_id":"4","last_reported":1730283066,"current_range_meters":12000,"station_id":"ce4bgup2rcd13ifvqco0","pricing_plan_id":"cebpf4jnsgd1na2vs0mg"},{"bike_id":"defdda9f-a11b-4b2f-8fc8-580691ee0a13","system_id":"levelo_inurba_marseille","lat":43.30553,"lon":5.36534,"is_reserved":false,"is_disabled":false,"rental_uris":{"android":"levelo://app?vid=defdda9f-a11b-4b2f-8fc8-580691ee0a13","ios":"levelo://app?vid=defdda9f-a11b-4b2f-8fc8-580691ee0a13"},"vehicle_type_id":"4","last_reported":1730283066,"current_range_meters":39200,"station_id":"ce4bgs12rcd13ifvqcag","pricing_plan_id":"cebpf4jnsgd1na2vs0mg"},{"bike_id":"c1b9fa0c-e0b0-4d90-965f-49343b4b8c16","system_id":"levelo_inurba_marseille","lat":43.31222,"lon":5.36858,"is_reserved":false,"is_disabled":false,"rental_uris":{"android":"levelo://app?vid=c1b9fa0c-e0b0-4d90-965f-49343b4b8c16","ios":"levelo://app?vid=c1b9fa0c-e0b0-4d90-965f-49343b4b8c16"},"vehicle_type_id":"4","last_reported":1730283066,"current_range_meters":38800,"station_id":"ce4bgl92rcd13ifvqbq0","pricing_plan_id":"cebpf4jnsgd1na2vs0mg"},{"bike_id":"92b1fee1-36c3-45ad-8fd9-216ac48d3c8b","system_id":"levelo_inurba_marseille","lat":43.32538,"lon":5.41426,"is_reserved":false,"is_disabled":false,"rental_uris":{"android":"levelo://app?vid=92b1fee1-36c3-45ad-8fd9-216ac48d3c8b","ios":"levelo://app?vid=92b1fee1-36c3-45ad-8fd9-216ac48d3c8b"},"vehicle_type_id":"4","last_reported":1730283066,"current_range_meters":10800,"station_id":"ce4bhq12rcd13ifvqhhg","pricing_plan_id":"cebpf4jnsgd1na2vs0mg"},{"bike_id":"a499e673-4f57-4342-9063-be4db69af0ba","system_id":"levelo_inurba_marseille","lat":43.31494,"lon":5.37299,"is_reserved":false,"is_disabled":false,"rental_uris":{"android":"levelo://app?vid=a499e673-4f57-4342-9063-be4db69af0ba","ios":"levelo://app?vid=a499e673-4f57-4342-9063-be4db69af0ba"},"vehicle_type_id":"4","last_reported":1730283066,"current_range_meters":38800,"station_id":"ce4bgt12rcd13ifvqcd0","pricing_plan_id":"cebpf4jnsgd1na2vs0mg"},{"bike_id":"54454bef-56f4-4fd7-9cf7-c57a75a8c623","system_id":"levelo_inurba_marseille","lat":43.3171,"lon":5.37758,"is_reserved":false,"is_disabled":false,"rental_uris":{"android":"levelo://app?vid=54454bef-56f4-4fd7-9cf7-c57a75a8c623","ios":"levelo://app?vid=54454bef-56f4-4fd7-9cf7-c57a75a8c623"},"vehicle_type_id":"4","last_reported":1730283066,"current_range_meters":38800,"station_id":"ce4bgth2rcd13ifvqch0","pricing_plan_id":"cebpf4jnsgd1na2vs0mg"},{"bike_id":"0654c497-4be7-4675-a9e6-72a505c542ad","system_id":"levelo_inurba_marseille","lat":43.33733,"lon":5.39185,"is_reserved":false,"is_disabled":false,"rental_uris":{"android":"levelo://app?vid=0654c497-4be7-4675-a9e6-72a505c542ad","ios":"levelo://app?vid=0654c497-4be7-4675-a9e6-72a505c542ad"},"vehicle_type_id":"4","last_reported":1730283066,"current_range_meters":29600,"station_id":"ce4bhr92rcd13ifvqhsg","pricing_plan_id":"cebpf4jnsgd1na2vs0mg"},{"bike_id":"2370a04e-d358-4a29-b67a-890bf50b34fd","system_id":"levelo_inurba_marseille","lat":43.24168,"lon":5.36399,"is_reserved":false,"is_disabled":false,"rental_uris":{"android":"levelo://app?vid=2370a04e-d358-4a29-b67a-890bf50b34fd","ios":"levelo://app?vid=2370a04e-d358-4a29-b67a-890bf50b34fd"},"vehicle_type_id":"4","last_reported":1730283066,"current_range_meters":7200,"station_id":"cpo36qri1sfpv3e86is0","pricing_plan_id":"cebpf4jnsgd1na2vs0mg"},{"bike_id":"a229a8e4-b487-4ce6-880f-8ce6175737ff","system_id":"levelo_inurba_marseille","lat":43.27058,"lon":5.40256,"is_reserved":false,"is_disabled":false,"rental_uris":{"android":"levelo://app?vid=a229a8e4-b487-4ce6-880f-8ce6175737ff","ios":"levelo://app?vid=a229a8e4-b487-4ce6-880f-8ce6175737ff"},"vehicle_type_id":"4","last_reported":1730283066,"current_range_meters":38800,"station_id":"ce4bhk92rcd13ifvqgc0","pricing_plan_id":"cebpf4jnsgd1na2vs0mg"},{"bike_id":"15d8dcfc-68bd-4961-8f0c-139ae8a6663c","system_id":"levelo_inurba_marseille","lat":43.29299,"lon":5.37453,"is_reserved":false,"is_disabled":false,"rental_uris":{"android":"levelo://app?vid=15d8dcfc-68bd-4961-8f0c-139ae8a6663c","ios":"levelo://app?vid=15d8dcfc-68bd-4961-8f0c-139ae8a6663c"},"vehicle_type_id":"4","last_reported":1730283066,"current_range_meters":38800,"station_id":"ce4bgi12rcd13ifvqb70","pricing_plan_id":"cebpf4jnsgd1na2vs0mg"},{"bike_id":"767555bf-3af2-492a-8c45-114526287e8f","system_id":"levelo_inurba_marseille","lat":43.30542,"lon":5.36536,"is_reserved":false,"is_disabled":false,"rental_uris":{"android":"levelo://app?vid=767555bf-3af2-492a-8c45-114526287e8f","ios":"levelo://app?vid=767555bf-3af2-492a-8c45-114526287e8f"},"vehicle_type_id":"4","last_reported":1730283066,"current_range_meters":34800,"station_id":"ce4bgs12rcd13ifvqcag","pricing_plan_id":"cebpf4jnsgd1na2vs0mg"},{"bike_id":"538c6c97-8738-4e40-afde-1ced2fc6b778","system_id":"levelo_inurba_marseille","lat":43.33726,"lon":5.39179,"is_reserved":false,"is_disabled":false,"rental_uris":{"android":"levelo://app?vid=538c6c97-8738-4e40-afde-1ced2fc6b778","ios":"levelo://app?vid=538c6c97-8738-4e40-afde-1ced2fc6b778"},"vehicle_type_id":"4","last_reported":1730283066,"current_range_meters":36800,"station_id":"ce4bhr92rcd13ifvqhsg","pricing_plan_id":"cebpf4jnsgd1na2vs0mg"},{"bike_id":"ba9f94e2-ba1b-4b8f-b7f1-62670c392268","system_id":"levelo_inurba_marseille","lat":43.29311,"lon":5.37179,"is_reserved":false,"is_disabled":false,"rental_uris":{"android":"levelo://app?vid=ba9f94e2-ba1b-4b8f-b7f1-62670c392268","ios":"levelo://app?vid=ba9f94e2-ba1b-4b8f-b7f1-62670c392268"},"vehicle_type_id":"4","last_reported":1730283066,"current_range_meters":10000,"station_id":"ce4bgh92rcd13ifvqb40","pricing_plan_id":"cebpf4jnsgd1na2vs0mg"},{"bike_id":"03e26363-1adc-494c-8098-91070571fba5","system_id":"levelo_inurba_marseille","lat":43.23194,"lon":5.35541,"is_reserved":false,"is_disabled":false,"rental_uris":{"android":"levelo://app?vid=03e26363-1adc-494c-8098-91070571fba5","ios":"levelo://app?vid=03e26363-1adc-494c-8098-91070571fba5"},"vehicle_type_id":"4","last_reported":1730283066,"current_range_meters":31200,"station_id":"ce4bhu92rcd13ifvqi70","pricing_plan_id":"cebpf4jnsgd1na2vs0mg"},{"bike_id":"c497513d-9d1d-4320-a1e3-875a8b21d4c5","system_id":"levelo_inurba_marseille","lat":43.27173,"lon":5.41001,"is_reserved":false,"is_disabled":false,"rental_uris":{"android":"levelo://app?vid=c497513d-9d1d-4320-a1e3-875a8b21d4c5","ios":"levelo://app?vid=c497513d-9d1d-4320-a1e3-875a8b21d4c5"},"vehicle_type_id":"4","last_reported":1730283066,"current_range_meters":32800,"station_id":"ce4bhl12rcd13ifvqgf0","pricing_plan_id":"cebpf4jnsgd1na2vs0mg"},{"bike_id":"3f296890-19ce-46b6-884b-d2e34dba8783","system_id":"levelo_inurba_marseille","lat":43.24807,"lon":5.37455,"is_reserved":false,"is_disabled":false,"rental_uris":{"android":"levelo://app?vid=3f296890-19ce-46b6-884b-d2e34dba8783","ios":"levelo://app?vid=3f296890-19ce-46b6-884b-d2e34dba8783"},"vehicle_type_id":"4","last_reported":1730283066,"current_range_meters":38000,"station_id":"ce4bhgh2rcd13ifvqfb0","pricing_plan_id":"cebpf4jnsgd1na2vs0mg"},{"bike_id":"07db3fac-6e28-436c-af3e-dde1a581b97f","system_id":"levelo_inurba_marseille","lat":43.26954,"lon":5.38628,"is_reserved":false,"is_disabled":false,"rental_uris":{"android":"levelo://app?vid=07db3fac-6e28-436c-af3e-dde1a581b97f","ios":"levelo://app?vid=07db3fac-6e28-436c-af3e-dde1a581b97f"},"vehicle_type_id":"4","last_reported":1730283066,"current_range_meters":16800,"station_id":"ce4bhh92rcd13ifvqfh0","pricing_plan_id":"cebpf4jnsgd1na2vs0mg"},{"bike_id":"81e191dc-36a3-4dd3-a48a-138cae2d571f","system_id":"levelo_inurba_marseille","lat":43.23152,"lon":5.43709,"is_reserved":false,"is_disabled":false,"rental_uris":{"android":"levelo://app?vid=81e191dc-36a3-4dd3-a48a-138cae2d571f","ios":"levelo://app?vid=81e191dc-36a3-4dd3-a48a-138cae2d571f"},"vehicle_type_id":"4","last_reported":1730283066,"current_range_meters":38800,"station_id":"ce4bhmp2rcd13ifvqgog","pricing_plan_id":"cebpf4jnsgd1na2vs0mg"},{"bike_id":"e9141b44-30ab-459c-94b2-99dbe6b7a845","system_id":"levelo_inurba_marseille","lat":43.2955,"lon":5.42284,"is_reserved":false,"is_disabled":false,"rental_uris":{"android":"levelo://app?vid=e9141b44-30ab-459c-94b2-99dbe6b7a845","ios":"levelo://app?vid=e9141b44-30ab-459c-94b2-99dbe6b7a845"},"vehicle_type_id":"4","last_reported":1730283066,"current_range_meters":36800,"station_id":"ce4bhph2rcd13ifvqhdg","pricing_plan_id":"cebpf4jnsgd1na2vs0mg"},{"bike_id":"ceabe4bd-e47c-40f3-8a8d-3b7a103e7129","system_id":"levelo_inurba_marseille","lat":43.33601,"lon":5.41001,"is_reserved":false,"is_disabled":false,"rental_uris":{"android":"levelo://app?vid=ceabe4bd-e47c-40f3-8a8d-3b7a103e7129","ios":"levelo://app?vid=ceabe4bd-e47c-40f3-8a8d-3b7a103e7129"},"vehicle_type_id":"4","last_reported":1730283066,"current_range_meters":12000,"station_id":"ce4bhqh2rcd13ifvqhmg","pricing_plan_id":"cebpf4jnsgd1na2vs0mg"},{"bike_id":"8fc8f69f-228e-4754-8013-e3713d197b92","system_id":"levelo_inurba_marseille","lat":43.24668,"lon":5.38155,"is_reserved":false,"is_disabled":false,"rental_uris":{"android":"levelo://app?vid=8fc8f69f-228e-4754-8013-e3713d197b92","ios":"levelo://app?vid=8fc8f69f-228e-4754-8013-e3713d197b92"},"vehicle_type_id":"4","last_reported":1730283066,"current_range_meters":38800,"station_id":"ce4bhih2rcd13ifvqfr0","pricing_plan_id":"cebpf4jnsgd1na2vs0mg"},{"bike_id":"a306c469-7544-4489-af82-e9fb1e9b4215","system_id":"levelo_inurba_marseille","lat":43.23179,"lon":5.39979,"is_reserved":false,"is_disabled":false,"rental_uris":{"android":"levelo://app?vid=a306c469-7544-4489-af82-e9fb1e9b4215","ios":"levelo://app?vid=a306c469-7544-4489-af82-e9fb1e9b4215"},"vehicle_type_id":"4","last_reported":1730283066,"current_range_meters":38800,"station_id":"ce4bhn12rcd13ifvqgqg","pricing_plan_id":"cebpf4jnsgd1na2vs0mg"},{"bike_id":"7a4d6c6c-3990-47c6-9c5b-9359b7b1ecd0","system_id":"levelo_inurba_marseille","lat":43.30313,"lon":5.36899,"is_reserved":false,"is_disabled":false,"rental_uris":{"android":"levelo://app?vid=7a4d6c6c-3990-47c6-9c5b-9359b7b1ecd0","ios":"levelo://app?vid=7a4d6c6c-3990-47c6-9c5b-9359b7b1ecd0"},"vehicle_type_id":"4","last_reported":1730283066,"current_range_meters":36400,"station_id":"ce4bgqh2rcd13ifvqc5g","pricing_plan_id":"cebpf4jnsgd1na2vs0mg"},{"bike_id":"6e94cb63-11ed-4730-b69e-c86f3588d904","system_id":"levelo_inurba_marseille","lat":43.31331,"lon":5.39692,"is_reserved":false,"is_disabled":false,"rental_uris":{"android":"levelo://app?vid=6e94cb63-11ed-4730-b69e-c86f3588d904","ios":"levelo://app?vid=6e94cb63-11ed-4730-b69e-c86f3588d904"},"vehicle_type_id":"4","last_reported":1730283066,"current_range_meters":9600,"station_id":"ce4bgvp2rcd13ifvqcu0","pricing_plan_id":"cebpf4jnsgd1na2vs0mg"},{"bike_id":"b72913b6-9d4a-45c6-9992-146504dc2537","system_id":"levelo_inurba_marseille","lat":43.31232,"lon":5.3686,"is_reserved":false,"is_disabled":false,"rental_uris":{"android":"levelo://app?vid=b72913b6-9d4a-45c6-9992-146504dc2537","ios":"levelo://app?vid=b72913b6-9d4a-45c6-9992-146504dc2537"},"vehicle_type_id":"4","last_reported":1730283066,"current_range_meters":28400,"station_id":"ce4bgl92rcd13ifvqbq0","pricing_plan_id":"cebpf4jnsgd1na2vs0mg"},{"bike_id":"425bf88c-c285-43e4-94f6-326aefffd445","system_id":"levelo_inurba_marseille","lat":43.26793,"lon":5.39408,"is_reserved":false,"is_disabled":false,"rental_uris":{"android":"levelo://app?vid=425bf88c-c285-43e4-94f6-326aefffd445","ios":"levelo://app?vid=425bf88c-c285-43e4-94f6-326aefffd445"},"vehicle_type_id":"4","last_reported":1730283066,"current_range_meters":28800,"station_id":"ce4bhh12rcd13ifvqfg0","pricing_plan_id":"cebpf4jnsgd1na2vs0mg"},{"bike_id":"1c8653b8-822d-4908-8cf4-86271b095a05","system_id":"levelo_inurba_marseille","lat":43.23152,"lon":5.43699,"is_reserved":false,"is_disabled":false,"rental_uris":{"android":"levelo://app?vid=1c8653b8-822d-4908-8cf4-86271b095a05","ios":"levelo://app?vid=1c8653b8-822d-4908-8cf4-86271b095a05"},"vehicle_type_id":"4","last_reported":1730283066,"current_range_meters":38800,"station_id":"ce4bhmp2rcd13ifvqgog","pricing_plan_id":"cebpf4jnsgd1na2vs0mg"},{"bike_id":"38522a9f-8258-4dd2-8865-f00dae2500c2","system_id":"levelo_inurba_marseille","lat":43.308807,"lon":5.396516,"is_reserved":false,"is_disabled":false,"rental_uris":{"android":"levelo://app?vid=38522a9f-8258-4dd2-8865-f00dae2500c2","ios":"levelo://app?vid=38522a9f-8258-4dd2-8865-f00dae2500c2"},"vehicle_type_id":"4","last_reported":1730283066,"current_range_meters":23200,"station_id":"ce4bh012rcd13ifvqcv0","pricing_plan_id":"cebpf4jnsgd1na2vs0mg"},{"bike_id":"5cb1da62-ae37-4239-b0ea-7b8a2446885a","system_id":"levelo_inurba_marseille","lat":43.31124,"lon":5.37759,"is_reserved":false,"is_disabled":false,"rental_uris":{"android":"levelo://app?vid=5cb1da62-ae37-4239-b0ea-7b8a2446885a","ios":"levelo://app?vid=5cb1da62-ae37-4239-b0ea-7b8a2446885a"},"vehicle_type_id":"4","last_reported":1730283066,"current_range_meters":20800,"station_id":"ce4bgt92rcd13ifvqcg0","pricing_plan_id":"cebpf4jnsgd1na2vs0mg"},{"bike_id":"28be2e90-3ac6-4686-ae54-ecfc500be0fc","system_id":"levelo_inurba_marseille","lat":43.24807,"lon":5.3745,"is_reserved":false,"is_disabled":false,"rental_uris":{"android":"levelo://app?vid=28be2e90-3ac6-4686-ae54-ecfc500be0fc","ios":"levelo://app?vid=28be2e90-3ac6-4686-ae54-ecfc500be0fc"},"vehicle_type_id":"4","last_reported":1730283066,"current_range_meters":38800,"station_id":"ce4bhgh2rcd13ifvqfb0","pricing_plan_id":"cebpf4jnsgd1na2vs0mg"},{"bike_id":"d8727bac-17ee-4f4a-ac67-5aef09323d56","system_id":"levelo_inurba_marseille","lat":43.31346,"lon":5.36701,"is_reserved":false,"is_disabled":false,"rental_uris":{"android":"levelo://app?vid=d8727bac-17ee-4f4a-ac67-5aef09323d56","ios":"levelo://app?vid=d8727bac-17ee-4f4a-ac67-5aef09323d56"},"vehicle_type_id":"4","last_reported":1730283066,"current_range_meters":5600,"station_id":"ce4bgr92rcd13ifvqc6g","pricing_plan_id":"cebpf4jnsgd1na2vs0mg"},{"bike_id":"5a684be4-7c13-402d-b8cd-679b4ca5b676","system_id":"levelo_inurba_marseille","lat":43.31354,"lon":5.36711,"is_reserved":false,"is_disabled":false,"rental_uris":{"android":"levelo://app?vid=5a684be4-7c13-402d-b8cd-679b4ca5b676","ios":"levelo://app?vid=5a684be4-7c13-402d-b8cd-679b4ca5b676"},"vehicle_type_id":"4","last_reported":1730283066,"current_range_meters":39200,"station_id":"ce4bgr92rcd13ifvqc6g","pricing_plan_id":"cebpf4jnsgd1na2vs0mg"},{"bike_id":"641fdce1-1cf0-4fe1-966f-eba4125dc29d","system_id":"levelo_inurba_marseille","lat":43.29024,"lon":5.37563,"is_reserved":false,"is_disabled":false,"rental_uris":{"android":"levelo://app?vid=641fdce1-1cf0-4fe1-966f-eba4125dc29d","ios":"levelo://app?vid=641fdce1-1cf0-4fe1-966f-eba4125dc29d"},"vehicle_type_id":"4","last_reported":1730283066,"current_range_meters":32000,"station_id":"ce4bh692rcd13ifvqe90","pricing_plan_id":"cebpf4jnsgd1na2vs0mg"},{"bike_id":"0b992a27-b095-4e47-971c-b5fa7de9ea4a","system_id":"levelo_inurba_marseille","lat":43.29876,"lon":5.39724,"is_reserved":false,"is_disabled":false,"rental_uris":{"android":"levelo://app?vid=0b992a27-b095-4e47-971c-b5fa7de9ea4a","ios":"levelo://app?vid=0b992a27-b095-4e47-971c-b5fa7de9ea4a"},"vehicle_type_id":"4","last_reported":1730283066,"current_range_meters":38800,"station_id":"ce4bh0h2rcd13ifvqd50","pricing_plan_id":"cebpf4jnsgd1na2vs0mg"},{"bike_id":"16a6ed29-6269-4385-b276-78c51fa152d4","system_id":"levelo_inurba_marseille","lat":43.26555,"lon":5.37283,"is_reserved":false,"is_disabled":false,"rental_uris":{"android":"levelo://app?vid=16a6ed29-6269-4385-b276-78c51fa152d4","ios":"levelo://app?vid=16a6ed29-6269-4385-b276-78c51fa152d4"},"vehicle_type_id":"4","last_reported":1730283066,"current_range_meters":20000,"station_id":"ce4bhg12rcd13ifvqf70","pricing_plan_id":"cebpf4jnsgd1na2vs0mg"},{"bike_id":"7095b495-718a-4796-8fa3-b738528aec6e","system_id":"levelo_inurba_marseille","lat":43.32364,"lon":5.38882,"is_reserved":false,"is_disabled":false,"rental_uris":{"android":"levelo://app?vid=7095b495-718a-4796-8fa3-b738528aec6e","ios":"levelo://app?vid=7095b495-718a-4796-8fa3-b738528aec6e"},"vehicle_type_id":"4","last_reported":1730283066,"current_range_meters":31200,"station_id":"ce4bhqp2rcd13ifvqhog","pricing_plan_id":"cebpf4jnsgd1na2vs0mg"},{"bike_id":"259292b4-4820-4a1f-8d6e-6d988ce23247","system_id":"levelo_inurba_marseille","lat":43.32485,"lon":5.36564,"is_reserved":false,"is_disabled":false,"rental_uris":{"android":"levelo://app?vid=259292b4-4820-4a1f-8d6e-6d988ce23247","ios":"levelo://app?vid=259292b4-4820-4a1f-8d6e-6d988ce23247"},"vehicle_type_id":"4","last_reported":1730283066,"current_range_meters":24800,"station_id":"ce4bhs12rcd13ifvqhvg","pricing_plan_id":"cebpf4jnsgd1na2vs0mg"},{"bike_id":"dbfafde0-c582-408a-8e0f-30168d4bd53c","system_id":"levelo_inurba_marseille","lat":43.25576,"lon":5.38234,"is_reserved":false,"is_disabled":false,"rental_uris":{"android":"levelo://app?vid=dbfafde0-c582-408a-8e0f-30168d4bd53c","ios":"levelo://app?vid=dbfafde0-c582-408a-8e0f-30168d4bd53c"},"vehicle_type_id":"4","last_reported":1730283066,"current_range_meters":28400,"station_id":"ce4bhih2rcd13ifvqfs0","pricing_plan_id":"cebpf4jnsgd1na2vs0mg"},{"bike_id":"37e4c4be-74c2-4035-9b14-69785c48207f","system_id":"levelo_inurba_marseille","lat":43.28976,"lon":5.37828,"is_reserved":false,"is_disabled":false,"rental_uris":{"android":"levelo://app?vid=37e4c4be-74c2-4035-9b14-69785c48207f","ios":"levelo://app?vid=37e4c4be-74c2-4035-9b14-69785c48207f"},"vehicle_type_id":"4","last_reported":1730283066,"current_range_meters":37600,"station_id":"ce4bh9p2rcd13ifvqed0","pricing_plan_id":"cebpf4jnsgd1na2vs0mg"},{"bike_id":"77ef9249-82da-4405-a0ac-aa5f331bd6de","system_id":"levelo_inurba_marseille","lat":43.29939,"lon":5.36543,"is_reserved":false,"is_disabled":false,"rental_uris":{"android":"levelo://app?vid=77ef9249-82da-4405-a0ac-aa5f331bd6de","ios":"levelo://app?vid=77ef9249-82da-4405-a0ac-aa5f331bd6de"},"vehicle_type_id":"4","last_reported":1730283066,"current_range_meters":28800,"station_id":"ce4bgm92rcd13ifvqbr0","pricing_plan_id":"cebpf4jnsgd1na2vs0mg"},{"bike_id":"24ddeb69-29dd-4d44-8637-4450ae68ef28","system_id":"levelo_inurba_marseille","lat":43.27904,"lon":5.38005,"is_reserved":false,"is_disabled":false,"rental_uris":{"android":"levelo://app?vid=24ddeb69-29dd-4d44-8637-4450ae68ef28","ios":"levelo://app?vid=24ddeb69-29dd-4d44-8637-4450ae68ef28"},"vehicle_type_id":"4","last_reported":1730283066,"current_range_meters":35600,"station_id":"ce4bhf92rcd13ifvqf50","pricing_plan_id":"cebpf4jnsgd1na2vs0mg"},{"bike_id":"67c82576-6467-4908-923a-54ed28549ca5","system_id":"levelo_inurba_marseille","lat":43.32484,"lon":5.36553,"is_reserved":false,"is_disabled":false,"rental_uris":{"android":"levelo://app?vid=67c82576-6467-4908-923a-54ed28549ca5","ios":"levelo://app?vid=67c82576-6467-4908-923a-54ed28549ca5"},"vehicle_type_id":"4","last_reported":1730283066,"current_range_meters":38400,"station_id":"ce4bhs12rcd13ifvqhvg","pricing_plan_id":"cebpf4jnsgd1na2vs0mg"},{"bike_id":"4d3d0d5a-7ae6-443d-a21c-b28591aac869","system_id":"levelo_inurba_marseille","lat":43.29883,"lon":5.3973,"is_reserved":false,"is_disabled":false,"rental_uris":{"android":"levelo://app?vid=4d3d0d5a-7ae6-443d-a21c-b28591aac869","ios":"levelo://app?vid=4d3d0d5a-7ae6-443d-a21c-b28591aac869"},"vehicle_type_id":"4","last_reported":1730283066,"current_range_meters":18800,"station_id":"ce4bh0h2rcd13ifvqd50","pricing_plan_id":"cebpf4jnsgd1na2vs0mg"},{"bike_id":"5eba2c8e-aaff-41af-9181-494c30a08700","system_id":"levelo_inurba_marseille","lat":43.29863,"lon":5.3973,"is_reserved":false,"is_disabled":false,"rental_uris":{"android":"levelo://app?vid=5eba2c8e-aaff-41af-9181-494c30a08700","ios":"levelo://app?vid=5eba2c8e-aaff-41af-9181-494c30a08700"},"vehicle_type_id":"4","last_reported":1730283066,"current_range_meters":37600,"station_id":"ce4bh0h2rcd13ifvqd50","pricing_plan_id":"cebpf4jnsgd1na2vs0mg"},{"bike_id":"1a2a801e-4a88-461b-bdc4-c2998b90b7e4","system_id":"levelo_inurba_marseille","lat":43.3092,"lon":5.36842,"is_reserved":false,"is_disabled":false,"rental_uris":{"android":"levelo://app?vid=1a2a801e-4a88-461b-bdc4-c2998b90b7e4","ios":"levelo://app?vid=1a2a801e-4a88-461b-bdc4-c2998b90b7e4"},"vehicle_type_id":"4","last_reported":1730283066,"current_range_meters":37600,"station_id":"ce4bgn92rcd13ifvqbvg","pricing_plan_id":"cebpf4jnsgd1na2vs0mg"},{"bike_id":"25e90825-819c-494a-9a04-12bbb0c56b6b","system_id":"levelo_inurba_marseille","lat":43.31537,"lon":5.38029,"is_reserved":false,"is_disabled":false,"rental_uris":{"android":"levelo://app?vid=25e90825-819c-494a-9a04-12bbb0c56b6b","ios":"levelo://app?vid=25e90825-819c-494a-9a04-12bbb0c56b6b"},"vehicle_type_id":"4","last_reported":1730283066,"current_range_meters":28800,"station_id":"ce4bhsp2rcd13ifvqi50","pricing_plan_id":"cebpf4jnsgd1na2vs0mg"},{"bike_id":"d445c6a4-0f84-4b9c-af2f-2482b2939351","system_id":"levelo_inurba_marseille","lat":43.24075,"lon":5.37755,"is_reserved":false,"is_disabled":false,"rental_uris":{"android":"levelo://app?vid=d445c6a4-0f84-4b9c-af2f-2482b2939351","ios":"levelo://app?vid=d445c6a4-0f84-4b9c-af2f-2482b2939351"},"vehicle_type_id":"4","last_reported":1730283066,"current_range_meters":18000,"station_id":"ce4bhnp2rcd13ifvqgvg","pricing_plan_id":"cebpf4jnsgd1na2vs0mg"},{"bike_id":"d9aa2ebc-afa1-438c-8b33-63d12a47bc38","system_id":"levelo_inurba_marseille","lat":43.26057,"lon":5.3939,"is_reserved":false,"is_disabled":false,"rental_uris":{"android":"levelo://app?vid=d9aa2ebc-afa1-438c-8b33-63d12a47bc38","ios":"levelo://app?vid=d9aa2ebc-afa1-438c-8b33-63d12a47bc38"},"vehicle_type_id":"4","last_reported":1730283066,"current_range_meters":33200,"station_id":"ce4bhh92rcd13ifvqfj0","pricing_plan_id":"cebpf4jnsgd1na2vs0mg"},{"bike_id":"4ed80fb7-6d84-478e-be7b-5d1d98b59246","system_id":"levelo_inurba_marseille","lat":43.30157,"lon":5.3808,"is_reserved":false,"is_disabled":false,"rental_uris":{"android":"levelo://app?vid=4ed80fb7-6d84-478e-be7b-5d1d98b59246","ios":"levelo://app?vid=4ed80fb7-6d84-478e-be7b-5d1d98b59246"},"vehicle_type_id":"4","last_reported":1730283066,"current_range_meters":31200,"station_id":"ce4bgjp2rcd13ifvqbh0","pricing_plan_id":"cebpf4jnsgd1na2vs0mg"},{"bike_id":"32724ce4-79b3-4766-bd7f-1b32301ca45e","system_id":"levelo_inurba_marseille","lat":43.2558,"lon":5.38238,"is_reserved":false,"is_disabled":false,"rental_uris":{"android":"levelo://app?vid=32724ce4-79b3-4766-bd7f-1b32301ca45e","ios":"levelo://app?vid=32724ce4-79b3-4766-bd7f-1b32301ca45e"},"vehicle_type_id":"4","last_reported":1730283066,"current_range_meters":16400,"station_id":"ce4bhih2rcd13ifvqfs0","pricing_plan_id":"cebpf4jnsgd1na2vs0mg"},{"bike_id":"28cbcf23-5ad0-4746-be8b-7a028cbebf33","system_id":"levelo_inurba_marseille","lat":43.32645,"lon":5.38884,"is_reserved":false,"is_disabled":false,"rental_uris":{"android":"levelo://app?vid=28cbcf23-5ad0-4746-be8b-7a028cbebf33","ios":"levelo://app?vid=28cbcf23-5ad0-4746-be8b-7a028cbebf33"},"vehicle_type_id":"4","last_reported":1730283066,"current_range_meters":32400,"station_id":"","pricing_plan_id":"cebpf4jnsgd1na2vs0mg"},{"bike_id":"f01d5525-578f-4e58-8182-ddfaec96571d","system_id":"levelo_inurba_marseille","lat":43.26485,"lon":5.39548,"is_reserved":false,"is_disabled":false,"rental_uris":{"android":"levelo://app?vid=f01d5525-578f-4e58-8182-ddfaec96571d","ios":"levelo://app?vid=f01d5525-578f-4e58-8182-ddfaec96571d"},"vehicle_type_id":"4","last_reported":1730283066,"current_range_meters":3200,"station_id":"ce4bhi12rcd13ifvqfq0","pricing_plan_id":"cebpf4jnsgd1na2vs0mg"},{"bike_id":"249f4139-b1bb-4fc2-87b9-dd8c4909e5b1","system_id":"levelo_inurba_marseille","lat":43.29552,"lon":5.4229,"is_reserved":false,"is_disabled":false,"rental_uris":{"android":"levelo://app?vid=249f4139-b1bb-4fc2-87b9-dd8c4909e5b1","ios":"levelo://app?vid=249f4139-b1bb-4fc2-87b9-dd8c4909e5b1"},"vehicle_type_id":"4","last_reported":1730283066,"current_range_meters":38800,"station_id":"ce4bhph2rcd13ifvqhdg","pricing_plan_id":"cebpf4jnsgd1na2vs0mg"},{"bike_id":"53eb6c66-b12c-466e-af32-042a668df35f","system_id":"levelo_inurba_marseille","lat":43.23183,"lon":5.39986,"is_reserved":false,"is_disabled":false,"rental_uris":{"android":"levelo://app?vid=53eb6c66-b12c-466e-af32-042a668df35f","ios":"levelo://app?vid=53eb6c66-b12c-466e-af32-042a668df35f"},"vehicle_type_id":"4","last_reported":1730283066,"current_range_meters":38800,"station_id":"ce4bhn12rcd13ifvqgqg","pricing_plan_id":"cebpf4jnsgd1na2vs0mg"},{"bike_id":"15e517f1-ebec-47c6-9ffd-2a035f728a02","system_id":"levelo_inurba_marseille","lat":43.24812,"lon":5.37454,"is_reserved":false,"is_disabled":false,"rental_uris":{"android":"levelo://app?vid=15e517f1-ebec-47c6-9ffd-2a035f728a02","ios":"levelo://app?vid=15e517f1-ebec-47c6-9ffd-2a035f728a02"},"vehicle_type_id":"4","last_reported":1730283066,"current_range_meters":26800,"station_id":"ce4bhgh2rcd13ifvqfb0","pricing_plan_id":"cebpf4jnsgd1na2vs0mg"},{"bike_id":"8c9f8ce0-3dcd-4eea-aa54-bf982bafd694","system_id":"levelo_inurba_marseille","lat":43.3031,"lon":5.368865,"is_reserved":false,"is_disabled":false,"rental_uris":{"android":"levelo://app?vid=8c9f8ce0-3dcd-4eea-aa54-bf982bafd694","ios":"levelo://app?vid=8c9f8ce0-3dcd-4eea-aa54-bf982bafd694"},"vehicle_type_id":"4","last_reported":1730283066,"current_range_meters":38800,"station_id":"ce4bgqh2rcd13ifvqc5g","pricing_plan_id":"cebpf4jnsgd1na2vs0mg"},{"bike_id":"31b23ddf-11e5-4737-b737-7ed49100e135","system_id":"levelo_inurba_marseille","lat":43.2621,"lon":5.37445,"is_reserved":false,"is_disabled":false,"rental_uris":{"android":"levelo://app?vid=31b23ddf-11e5-4737-b737-7ed49100e135","ios":"levelo://app?vid=31b23ddf-11e5-4737-b737-7ed49100e135"},"vehicle_type_id":"4","last_reported":1730283066,"current_range_meters":24800,"station_id":"ce4bhgp2rcd13ifvqfc0","pricing_plan_id":"cebpf4jnsgd1na2vs0mg"},{"bike_id":"2d198377-2c19-4e5f-b7b9-5acc4795c543","system_id":"levelo_inurba_marseille","lat":43.31757,"lon":5.39021,"is_reserved":false,"is_disabled":false,"rental_uris":{"android":"levelo://app?vid=2d198377-2c19-4e5f-b7b9-5acc4795c543","ios":"levelo://app?vid=2d198377-2c19-4e5f-b7b9-5acc4795c543"},"vehicle_type_id":"4","last_reported":1730283066,"current_range_meters":9200,"station_id":"ce4bhqp2rcd13ifvqhng","pricing_plan_id":"cebpf4jnsgd1na2vs0mg"},{"bike_id":"06561c72-7555-4a64-ba97-61733eefc759","system_id":"levelo_inurba_marseille","lat":43.279266,"lon":5.383714,"is_reserved":false,"is_disabled":false,"rental_uris":{"android":"levelo://app?vid=06561c72-7555-4a64-ba97-61733eefc759","ios":"levelo://app?vid=06561c72-7555-4a64-ba97-61733eefc759"},"vehicle_type_id":"4","last_reported":1730283066,"current_range_meters":25200,"station_id":"","pricing_plan_id":"cebpf4jnsgd1na2vs0mg"},{"bike_id":"fc9f95a3-8743-452e-a5e9-f50e54844cf6","system_id":"levelo_inurba_marseille","lat":43.29931,"lon":5.36547,"is_reserved":false,"is_disabled":false,"rental_uris":{"android":"levelo://app?vid=fc9f95a3-8743-452e-a5e9-f50e54844cf6","ios":"levelo://app?vid=fc9f95a3-8743-452e-a5e9-f50e54844cf6"},"vehicle_type_id":"4","last_reported":1730283066,"current_range_meters":30000,"station_id":"ce4bgm92rcd13ifvqbr0","pricing_plan_id":"cebpf4jnsgd1na2vs0mg"},{"bike_id":"ba95326f-14d1-4dbf-a03e-21c6813d0699","system_id":"levelo_inurba_marseille","lat":43.324802,"lon":5.36574,"is_reserved":false,"is_disabled":false,"rental_uris":{"android":"levelo://app?vid=ba95326f-14d1-4dbf-a03e-21c6813d0699","ios":"levelo://app?vid=ba95326f-14d1-4dbf-a03e-21c6813d0699"},"vehicle_type_id":"4","last_reported":1730283066,"current_range_meters":39200,"station_id":"ce4bgj12rcd13ifvqbc0","pricing_plan_id":"cebpf4jnsgd1na2vs0mg"},{"bike_id":"9445a670-8cad-4552-a342-d1a968da3c5a","system_id":"levelo_inurba_marseille","lat":43.32059,"lon":5.41548,"is_reserved":false,"is_disabled":false,"rental_uris":{"android":"levelo://app?vid=9445a670-8cad-4552-a342-d1a968da3c5a","ios":"levelo://app?vid=9445a670-8cad-4552-a342-d1a968da3c5a"},"vehicle_type_id":"4","last_reported":1730283066,"current_range_meters":39200,"station_id":"ce4bhq92rcd13ifvqhkg","pricing_plan_id":"cebpf4jnsgd1na2vs0mg"},{"bike_id":"79a9d8a5-aae3-4086-95c4-4f56865306f1","system_id":"levelo_inurba_marseille","lat":43.29512,"lon":5.37508,"is_reserved":false,"is_disabled":false,"rental_uris":{"android":"levelo://app?vid=79a9d8a5-aae3-4086-95c4-4f56865306f1","ios":"levelo://app?vid=79a9d8a5-aae3-4086-95c4-4f56865306f1"},"vehicle_type_id":"4","last_reported":1730283066,"current_range_meters":36800,"station_id":"ce4bgkp2rcd13ifvqbmg","pricing_plan_id":"cebpf4jnsgd1na2vs0mg"},{"bike_id":"fc857e95-ca7f-4c06-b13e-5bb6b2b76a8b","system_id":"levelo_inurba_marseille","lat":43.23185,"lon":5.39987,"is_reserved":false,"is_disabled":false,"rental_uris":{"android":"levelo://app?vid=fc857e95-ca7f-4c06-b13e-5bb6b2b76a8b","ios":"levelo://app?vid=fc857e95-ca7f-4c06-b13e-5bb6b2b76a8b"},"vehicle_type_id":"4","last_reported":1730283066,"current_range_meters":39200,"station_id":"ce4bhn12rcd13ifvqgqg","pricing_plan_id":"cebpf4jnsgd1na2vs0mg"},{"bike_id":"a1f83bf3-eed6-45ed-a98a-d29a1a4fe512","system_id":"levelo_inurba_marseille","lat":43.2993,"lon":5.41307,"is_reserved":false,"is_disabled":false,"rental_uris":{"android":"levelo://app?vid=a1f83bf3-eed6-45ed-a98a-d29a1a4fe512","ios":"levelo://app?vid=a1f83bf3-eed6-45ed-a98a-d29a1a4fe512"},"vehicle_type_id":"4","last_reported":1730283066,"current_range_meters":23200,"station_id":"ce4bhp12rcd13ifvqh9g","pricing_plan_id":"cebpf4jnsgd1na2vs0mg"},{"bike_id":"362adb37-4b1e-46a2-851f-9924e387e7c9","system_id":"levelo_inurba_marseille","lat":43.25939,"lon":5.40903,"is_reserved":false,"is_disabled":false,"rental_uris":{"android":"levelo://app?vid=362adb37-4b1e-46a2-851f-9924e387e7c9","ios":"levelo://app?vid=362adb37-4b1e-46a2-851f-9924e387e7c9"},"vehicle_type_id":"4","last_reported":1730283066,"current_range_meters":27600,"station_id":"ce4bhm92rcd13ifvqglg","pricing_plan_id":"cebpf4jnsgd1na2vs0mg"},{"bike_id":"5a9ea6a9-408c-4fd5-946a-c4dec84f55ec","system_id":"levelo_inurba_marseille","lat":43.29597,"lon":5.38098,"is_reserved":false,"is_disabled":false,"rental_uris":{"android":"levelo://app?vid=5a9ea6a9-408c-4fd5-946a-c4dec84f55ec","ios":"levelo://app?vid=5a9ea6a9-408c-4fd5-946a-c4dec84f55ec"},"vehicle_type_id":"4","last_reported":1730283066,"current_range_meters":20000,"station_id":"ce4bgl12rcd13ifvqbo0","pricing_plan_id":"cebpf4jnsgd1na2vs0mg"},{"bike_id":"f7a46ee1-8232-43a2-bb85-f0a61eb6f3ff","system_id":"levelo_inurba_marseille","lat":43.29609,"lon":5.37707,"is_reserved":false,"is_disabled":false,"rental_uris":{"android":"levelo://app?vid=f7a46ee1-8232-43a2-bb85-f0a61eb6f3ff","ios":"levelo://app?vid=f7a46ee1-8232-43a2-bb85-f0a61eb6f3ff"},"vehicle_type_id":"4","last_reported":1730283066,"current_range_meters":38000,"station_id":"","pricing_plan_id":"cebpf4jnsgd1na2vs0mg"},{"bike_id":"a3380b74-d7c1-4a05-98d2-dd31ab032453","system_id":"levelo_inurba_marseille","lat":43.25444,"lon":5.38201,"is_reserved":false,"is_disabled":false,"rental_uris":{"android":"levelo://app?vid=a3380b74-d7c1-4a05-98d2-dd31ab032453","ios":"levelo://app?vid=a3380b74-d7c1-4a05-98d2-dd31ab032453"},"vehicle_type_id":"4","last_reported":1730283066,"current_range_meters":30800,"station_id":"","pricing_plan_id":"cebpf4jnsgd1na2vs0mg"},{"bike_id":"e4ff3c52-73dc-458c-8024-1873c8f5875c","system_id":"levelo_inurba_marseille","lat":43.26799,"lon":5.39416,"is_reserved":false,"is_disabled":false,"rental_uris":{"android":"levelo://app?vid=e4ff3c52-73dc-458c-8024-1873c8f5875c","ios":"levelo://app?vid=e4ff3c52-73dc-458c-8024-1873c8f5875c"},"vehicle_type_id":"4","last_reported":1730283066,"current_range_meters":24800,"station_id":"ce4bhh12rcd13ifvqfg0","pricing_plan_id":"cebpf4jnsgd1na2vs0mg"},{"bike_id":"766801a5-7dbd-464a-bc56-398e14b9cf78","system_id":"levelo_inurba_marseille","lat":43.29805,"lon":5.37136,"is_reserved":false,"is_disabled":false,"rental_uris":{"android":"levelo://app?vid=766801a5-7dbd-464a-bc56-398e14b9cf78","ios":"levelo://app?vid=766801a5-7dbd-464a-bc56-398e14b9cf78"},"vehicle_type_id":"4","last_reported":1730283066,"current_range_meters":6800,"station_id":"","pricing_plan_id":"cebpf4jnsgd1na2vs0mg"},{"bike_id":"afc8a59e-718c-432c-b226-d6be0903e5fb","system_id":"levelo_inurba_marseille","lat":43.24388,"lon":5.3706,"is_reserved":false,"is_disabled":false,"rental_uris":{"android":"levelo://app?vid=afc8a59e-718c-432c-b226-d6be0903e5fb","ios":"levelo://app?vid=afc8a59e-718c-432c-b226-d6be0903e5fb"},"vehicle_type_id":"4","last_reported":1730283066,"current_range_meters":33600,"station_id":"ce4bhhh2rcd13ifvqfk0","pricing_plan_id":"cebpf4jnsgd1na2vs0mg"},{"bike_id":"67493f69-7a41-4316-b5cf-cbdacdbde3e5","system_id":"levelo_inurba_marseille","lat":43.30541,"lon":5.36542,"is_reserved":false,"is_disabled":false,"rental_uris":{"android":"levelo://app?vid=67493f69-7a41-4316-b5cf-cbdacdbde3e5","ios":"levelo://app?vid=67493f69-7a41-4316-b5cf-cbdacdbde3e5"},"vehicle_type_id":"4","last_reported":1730283066,"current_range_meters":6400,"station_id":"ce4bgs12rcd13ifvqcag","pricing_plan_id":"cebpf4jnsgd1na2vs0mg"},{"bike_id":"72e37474-1bc8-4568-aec8-ce5464e6b828","system_id":"levelo_inurba_marseille","lat":43.23189,"lon":5.35545,"is_reserved":false,"is_disabled":false,"rental_uris":{"android":"levelo://app?vid=72e37474-1bc8-4568-aec8-ce5464e6b828","ios":"levelo://app?vid=72e37474-1bc8-4568-aec8-ce5464e6b828"},"vehicle_type_id":"4","last_reported":1730283066,"current_range_meters":29600,"station_id":"ce4bhu92rcd13ifvqi70","pricing_plan_id":"cebpf4jnsgd1na2vs0mg"},{"bike_id":"f60c22c9-8859-4064-a562-7bc4d70b8b13","system_id":"levelo_inurba_marseille","lat":43.29519,"lon":5.37508,"is_reserved":false,"is_disabled":false,"rental_uris":{"android":"levelo://app?vid=f60c22c9-8859-4064-a562-7bc4d70b8b13","ios":"levelo://app?vid=f60c22c9-8859-4064-a562-7bc4d70b8b13"},"vehicle_type_id":"4","last_reported":1730283066,"current_range_meters":14800,"station_id":"ce4bhbh2rcd13ifvqepg","pricing_plan_id":"cebpf4jnsgd1na2vs0mg"},{"bike_id":"38ee520c-1b9b-4b67-a784-65bd4967f90d","system_id":"levelo_inurba_marseille","lat":43.29072,"lon":5.37165,"is_reserved":false,"is_disabled":false,"rental_uris":{"android":"levelo://app?vid=38ee520c-1b9b-4b67-a784-65bd4967f90d","ios":"levelo://app?vid=38ee520c-1b9b-4b67-a784-65bd4967f90d"},"vehicle_type_id":"4","last_reported":1730283066,"current_range_meters":36400,"station_id":"ce4bh5p2rcd13ifvqe4g","pricing_plan_id":"cebpf4jnsgd1na2vs0mg"},{"bike_id":"87bfafc4-0640-4ef7-8be0-b54cbb7f1415","system_id":"levelo_inurba_marseille","lat":43.29616,"lon":5.3772,"is_reserved":false,"is_disabled":false,"rental_uris":{"android":"levelo://app?vid=87bfafc4-0640-4ef7-8be0-b54cbb7f1415","ios":"levelo://app?vid=87bfafc4-0640-4ef7-8be0-b54cbb7f1415"},"vehicle_type_id":"4","last_reported":1730283066,"current_range_meters":28000,"station_id":"ce4bgi92rcd13ifvqb90","pricing_plan_id":"cebpf4jnsgd1na2vs0mg"},{"bike_id":"c2964dd9-86d7-477b-837f-6d5fbdb82788","system_id":"levelo_inurba_marseille","lat":43.24387,"lon":5.37056,"is_reserved":false,"is_disabled":false,"rental_uris":{"android":"levelo://app?vid=c2964dd9-86d7-477b-837f-6d5fbdb82788","ios":"levelo://app?vid=c2964dd9-86d7-477b-837f-6d5fbdb82788"},"vehicle_type_id":"4","last_reported":1730283066,"current_range_meters":16400,"station_id":"ce4bhhh2rcd13ifvqfk0","pricing_plan_id":"cebpf4jnsgd1na2vs0mg"},{"bike_id":"4c8aa017-6d4b-4e37-821a-186202615f9d","system_id":"levelo_inurba_marseille","lat":43.31757,"lon":5.39014,"is_reserved":false,"is_disabled":false,"rental_uris":{"android":"levelo://app?vid=4c8aa017-6d4b-4e37-821a-186202615f9d","ios":"levelo://app?vid=4c8aa017-6d4b-4e37-821a-186202615f9d"},"vehicle_type_id":"4","last_reported":1730283066,"current_range_meters":33200,"station_id":"ce4bhqp2rcd13ifvqhng","pricing_plan_id":"cebpf4jnsgd1na2vs0mg"},{"bike_id":"32090ad6-4c79-46d0-8047-2d9a08fafcfd","system_id":"levelo_inurba_marseille","lat":43.27564,"lon":5.38415,"is_reserved":false,"is_disabled":false,"rental_uris":{"android":"levelo://app?vid=32090ad6-4c79-46d0-8047-2d9a08fafcfd","ios":"levelo://app?vid=32090ad6-4c79-46d0-8047-2d9a08fafcfd"},"vehicle_type_id":"4","last_reported":1730283066,"current_range_meters":28400,"station_id":"ce4bhh92rcd13ifvqfi0","pricing_plan_id":"cebpf4jnsgd1na2vs0mg"},{"bike_id":"294e1691-17ad-45de-a54c-951fff9c5854","system_id":"levelo_inurba_marseille","lat":43.29518,"lon":5.375,"is_reserved":false,"is_disabled":false,"rental_uris":{"android":"levelo://app?vid=294e1691-17ad-45de-a54c-951fff9c5854","ios":"levelo://app?vid=294e1691-17ad-45de-a54c-951fff9c5854"},"vehicle_type_id":"4","last_reported":1730283066,"current_range_meters":25200,"station_id":"ce4bgkp2rcd13ifvqbmg","pricing_plan_id":"cebpf4jnsgd1na2vs0mg"},{"bike_id":"9abd6673-c151-4989-942d-2d1482e14778","system_id":"levelo_inurba_marseille","lat":43.30305,"lon":5.36877,"is_reserved":false,"is_disabled":false,"rental_uris":{"android":"levelo://app?vid=9abd6673-c151-4989-942d-2d1482e14778","ios":"levelo://app?vid=9abd6673-c151-4989-942d-2d1482e14778"},"vehicle_type_id":"4","last_reported":1730283066,"current_range_meters":27600,"station_id":"ce4bgqh2rcd13ifvqc5g","pricing_plan_id":"cebpf4jnsgd1na2vs0mg"},{"bike_id":"ac38949f-f5b8-4142-b959-ebc73ec11f14","system_id":"levelo_inurba_marseille","lat":43.29878,"lon":5.39729,"is_reserved":false,"is_disabled":false,"rental_uris":{"android":"levelo://app?vid=ac38949f-f5b8-4142-b959-ebc73ec11f14","ios":"levelo://app?vid=ac38949f-f5b8-4142-b959-ebc73ec11f14"},"vehicle_type_id":"4","last_reported":1730283066,"current_range_meters":27200,"station_id":"ce4bh0h2rcd13ifvqd50","pricing_plan_id":"cebpf4jnsgd1na2vs0mg"},{"bike_id":"cf1bf93e-b987-4f03-9549-b984bb838aa3","system_id":"levelo_inurba_marseille","lat":43.26774,"lon":5.39414,"is_reserved":false,"is_disabled":false,"rental_uris":{"android":"levelo://app?vid=cf1bf93e-b987-4f03-9549-b984bb838aa3","ios":"levelo://app?vid=cf1bf93e-b987-4f03-9549-b984bb838aa3"},"vehicle_type_id":"4","last_reported":1730283066,"current_range_meters":38000,"station_id":"ce4bhh12rcd13ifvqfg0","pricing_plan_id":"cebpf4jnsgd1na2vs0mg"},{"bike_id":"b76a38e9-45ec-4afc-b514-c5026792aa86","system_id":"levelo_inurba_marseille","lat":43.24077,"lon":5.37753,"is_reserved":false,"is_disabled":false,"rental_uris":{"android":"levelo://app?vid=b76a38e9-45ec-4afc-b514-c5026792aa86","ios":"levelo://app?vid=b76a38e9-45ec-4afc-b514-c5026792aa86"},"vehicle_type_id":"4","last_reported":1730283066,"current_range_meters":32800,"station_id":"ce4bhnp2rcd13ifvqgvg","pricing_plan_id":"cebpf4jnsgd1na2vs0mg"},{"bike_id":"3e7ccb55-c2c4-4413-99cd-f5ca3288a764","system_id":"levelo_inurba_marseille","lat":43.30138,"lon":5.3742,"is_reserved":false,"is_disabled":false,"rental_uris":{"android":"levelo://app?vid=3e7ccb55-c2c4-4413-99cd-f5ca3288a764","ios":"levelo://app?vid=3e7ccb55-c2c4-4413-99cd-f5ca3288a764"},"vehicle_type_id":"4","last_reported":1730283066,"current_range_meters":30000,"station_id":"ce4bgs92rcd13ifvqcc0","pricing_plan_id":"cebpf4jnsgd1na2vs0mg"},{"bike_id":"2f3c02e3-338e-4fd5-a822-f3ce6b9b8213","system_id":"levelo_inurba_marseille","lat":43.30099,"lon":5.39076,"is_reserved":false,"is_disabled":false,"rental_uris":{"android":"levelo://app?vid=2f3c02e3-338e-4fd5-a822-f3ce6b9b8213","ios":"levelo://app?vid=2f3c02e3-338e-4fd5-a822-f3ce6b9b8213"},"vehicle_type_id":"4","last_reported":1730283066,"current_range_meters":38800,"station_id":"ce4bh192rcd13ifvqdb0","pricing_plan_id":"cebpf4jnsgd1na2vs0mg"},{"bike_id":"75645640-a347-4705-966c-cee9dcce09c4","system_id":"levelo_inurba_marseille","lat":43.26121,"lon":5.40077,"is_reserved":false,"is_disabled":false,"rental_uris":{"android":"levelo://app?vid=75645640-a347-4705-966c-cee9dcce09c4","ios":"levelo://app?vid=75645640-a347-4705-966c-cee9dcce09c4"},"vehicle_type_id":"4","last_reported":1730283066,"current_range_meters":8000,"station_id":"","pricing_plan_id":"cebpf4jnsgd1na2vs0mg"},{"bike_id":"ed4542ec-a766-43c5-bc78-9617bcbbe71c","system_id":"levelo_inurba_marseille","lat":43.2587,"lon":5.39899,"is_reserved":false,"is_disabled":false,"rental_uris":{"android":"levelo://app?vid=ed4542ec-a766-43c5-bc78-9617bcbbe71c","ios":"levelo://app?vid=ed4542ec-a766-43c5-bc78-9617bcbbe71c"},"vehicle_type_id":"4","last_reported":1730283066,"current_range_meters":9200,"station_id":"ce4bhl92rcd13ifvqghg","pricing_plan_id":"cebpf4jnsgd1na2vs0mg"},{"bike_id":"81fa75e8-c2e4-4315-a186-ed4a50c9ffcc","system_id":"levelo_inurba_marseille","lat":43.29521,"lon":5.3904,"is_reserved":false,"is_disabled":false,"rental_uris":{"android":"levelo://app?vid=81fa75e8-c2e4-4315-a186-ed4a50c9ffcc","ios":"levelo://app?vid=81fa75e8-c2e4-4315-a186-ed4a50c9ffcc"},"vehicle_type_id":"4","last_reported":1730283066,"current_range_meters":36800,"station_id":"ce4bh3p2rcd13ifvqdp0","pricing_plan_id":"cebpf4jnsgd1na2vs0mg"},{"bike_id":"1f675603-396f-4c29-99b8-e658a198ceb9","system_id":"levelo_inurba_marseille","lat":43.30415,"lon":5.41283,"is_reserved":false,"is_disabled":false,"rental_uris":{"android":"levelo://app?vid=1f675603-396f-4c29-99b8-e658a198ceb9","ios":"levelo://app?vid=1f675603-396f-4c29-99b8-e658a198ceb9"},"vehicle_type_id":"4","last_reported":1730283066,"current_range_meters":38800,"station_id":"ce4bhop2rcd13ifvqh8g","pricing_plan_id":"cebpf4jnsgd1na2vs0mg"},{"bike_id":"4b5a780a-dbb8-4b80-bac3-b6c3e3bb0331","system_id":"levelo_inurba_marseille","lat":43.28353,"lon":5.38105,"is_reserved":false,"is_disabled":false,"rental_uris":{"android":"levelo://app?vid=4b5a780a-dbb8-4b80-bac3-b6c3e3bb0331","ios":"levelo://app?vid=4b5a780a-dbb8-4b80-bac3-b6c3e3bb0331"},"vehicle_type_id":"4","last_reported":1730283066,"current_range_meters":32800,"station_id":"ce4bh412rcd13ifvqdr0","pricing_plan_id":"cebpf4jnsgd1na2vs0mg"},{"bike_id":"a06aaa3a-469c-4c08-9a71-0d7e5c362262","system_id":"levelo_inurba_marseille","lat":43.33726,"lon":5.39182,"is_reserved":false,"is_disabled":false,"rental_uris":{"android":"levelo://app?vid=a06aaa3a-469c-4c08-9a71-0d7e5c362262","ios":"levelo://app?vid=a06aaa3a-469c-4c08-9a71-0d7e5c362262"},"vehicle_type_id":"4","last_reported":1730283066,"current_range_meters":27600,"station_id":"ce4bhr92rcd13ifvqhsg","pricing_plan_id":"cebpf4jnsgd1na2vs0mg"},{"bike_id":"88ba3583-c8e5-450e-b225-1e7caeed896c","system_id":"levelo_inurba_marseille","lat":43.29606,"lon":5.37715,"is_reserved":false,"is_disabled":false,"rental_uris":{"android":"levelo://app?vid=88ba3583-c8e5-450e-b225-1e7caeed896c","ios":"levelo://app?vid=88ba3583-c8e5-450e-b225-1e7caeed896c"},"vehicle_type_id":"4","last_reported":1730283066,"current_range_meters":24400,"station_id":"ce4bgi92rcd13ifvqb90","pricing_plan_id":"cebpf4jnsgd1na2vs0mg"},{"bike_id":"23282dec-3330-47e5-9957-7b4241401df4","system_id":"levelo_inurba_marseille","lat":43.30104,"lon":5.39063,"is_reserved":false,"is_disabled":false,"rental_uris":{"android":"levelo://app?vid=23282dec-3330-47e5-9957-7b4241401df4","ios":"levelo://app?vid=23282dec-3330-47e5-9957-7b4241401df4"},"vehicle_type_id":"4","last_reported":1730283066,"current_range_meters":32800,"station_id":"ce4bh192rcd13ifvqdb0","pricing_plan_id":"cebpf4jnsgd1na2vs0mg"},{"bike_id":"a304456a-80e0-4286-9e10-742da1a3e7f4","system_id":"levelo_inurba_marseille","lat":43.30954,"lon":5.39032,"is_reserved":false,"is_disabled":false,"rental_uris":{"android":"levelo://app?vid=a304456a-80e0-4286-9e10-742da1a3e7f4","ios":"levelo://app?vid=a304456a-80e0-4286-9e10-742da1a3e7f4"},"vehicle_type_id":"4","last_reported":1730283066,"current_range_meters":18800,"station_id":"ce4bgup2rcd13ifvqco0","pricing_plan_id":"cebpf4jnsgd1na2vs0mg"},{"bike_id":"e7a565d8-771d-41d3-b79b-485e6e8cdb0e","system_id":"levelo_inurba_marseille","lat":43.337444,"lon":5.374475,"is_reserved":false,"is_disabled":false,"rental_uris":{"android":"levelo://app?vid=e7a565d8-771d-41d3-b79b-485e6e8cdb0e","ios":"levelo://app?vid=e7a565d8-771d-41d3-b79b-485e6e8cdb0e"},"vehicle_type_id":"4","last_reported":1730283066,"current_range_meters":38800,"station_id":"","pricing_plan_id":"cebpf4jnsgd1na2vs0mg"},{"bike_id":"d3834406-5180-48ae-986e-7eca8f9a66e3","system_id":"levelo_inurba_marseille","lat":43.27065,"lon":5.42269,"is_reserved":false,"is_disabled":false,"rental_uris":{"android":"levelo://app?vid=d3834406-5180-48ae-986e-7eca8f9a66e3","ios":"levelo://app?vid=d3834406-5180-48ae-986e-7eca8f9a66e3"},"vehicle_type_id":"4","last_reported":1730283066,"current_range_meters":20800,"station_id":"ce4bhk92rcd13ifvqgb0","pricing_plan_id":"cebpf4jnsgd1na2vs0mg"},{"bike_id":"1995d42f-9bb2-423e-a419-1706f5fab24e","system_id":"levelo_inurba_marseille","lat":43.27072,"lon":5.42278,"is_reserved":false,"is_disabled":false,"rental_uris":{"android":"levelo://app?vid=1995d42f-9bb2-423e-a419-1706f5fab24e","ios":"levelo://app?vid=1995d42f-9bb2-423e-a419-1706f5fab24e"},"vehicle_type_id":"4","last_reported":1730283066,"current_range_meters":34000,"station_id":"ce4bhk92rcd13ifvqgb0","pricing_plan_id":"cebpf4jnsgd1na2vs0mg"},{"bike_id":"5b54ae5c-2f67-41f3-8035-2314f9596429","system_id":"levelo_inurba_marseille","lat":43.23153,"lon":5.43716,"is_reserved":false,"is_disabled":false,"rental_uris":{"android":"levelo://app?vid=5b54ae5c-2f67-41f3-8035-2314f9596429","ios":"levelo://app?vid=5b54ae5c-2f67-41f3-8035-2314f9596429"},"vehicle_type_id":"4","last_reported":1730283066,"current_range_meters":30800,"station_id":"ce4bhmp2rcd13ifvqgog","pricing_plan_id":"cebpf4jnsgd1na2vs0mg"},{"bike_id":"13c85d59-c7cb-409d-b7e2-9aa757f7035f","system_id":"levelo_inurba_marseille","lat":43.32655,"lon":5.40991,"is_reserved":false,"is_disabled":false,"rental_uris":{"android":"levelo://app?vid=13c85d59-c7cb-409d-b7e2-9aa757f7035f","ios":"levelo://app?vid=13c85d59-c7cb-409d-b7e2-9aa757f7035f"},"vehicle_type_id":"4","last_reported":1730283066,"current_range_meters":7200,"station_id":"ce4bhpp2rcd13ifvqhgg","pricing_plan_id":"cebpf4jnsgd1na2vs0mg"},{"bike_id":"1bc7c6f3-e915-4831-8e0c-cd3cf17ed3ea","system_id":"levelo_inurba_marseille","lat":43.296356,"lon":5.405965,"is_reserved":false,"is_disabled":false,"rental_uris":{"android":"levelo://app?vid=1bc7c6f3-e915-4831-8e0c-cd3cf17ed3ea","ios":"levelo://app?vid=1bc7c6f3-e915-4831-8e0c-cd3cf17ed3ea"},"vehicle_type_id":"4","last_reported":1730283066,"current_range_meters":26800,"station_id":"ce4bh192rcd13ifvqdd0","pricing_plan_id":"cebpf4jnsgd1na2vs0mg"},{"bike_id":"b48eacfa-a4c4-4e90-acf3-6e3bbaaa5f6e","system_id":"levelo_inurba_marseille","lat":43.30929,"lon":5.40139,"is_reserved":false,"is_disabled":false,"rental_uris":{"android":"levelo://app?vid=b48eacfa-a4c4-4e90-acf3-6e3bbaaa5f6e","ios":"levelo://app?vid=b48eacfa-a4c4-4e90-acf3-6e3bbaaa5f6e"},"vehicle_type_id":"4","last_reported":1730283066,"current_range_meters":38400,"station_id":"ce4bgvp2rcd13ifvqct0","pricing_plan_id":"cebpf4jnsgd1na2vs0mg"},{"bike_id":"6496de7c-a611-41f5-be76-c2eee211d4ed","system_id":"levelo_inurba_marseille","lat":43.26201,"lon":5.37926,"is_reserved":false,"is_disabled":false,"rental_uris":{"android":"levelo://app?vid=6496de7c-a611-41f5-be76-c2eee211d4ed","ios":"levelo://app?vid=6496de7c-a611-41f5-be76-c2eee211d4ed"},"vehicle_type_id":"4","last_reported":1730283066,"current_range_meters":38000,"station_id":"ce4bhjp2rcd13ifvqg90","pricing_plan_id":"cebpf4jnsgd1na2vs0mg"},{"bike_id":"2be9bc22-5c5c-4737-9da1-744ca95ac8b4","system_id":"levelo_inurba_marseille","lat":43.32662,"lon":5.40992,"is_reserved":false,"is_disabled":false,"rental_uris":{"android":"levelo://app?vid=2be9bc22-5c5c-4737-9da1-744ca95ac8b4","ios":"levelo://app?vid=2be9bc22-5c5c-4737-9da1-744ca95ac8b4"},"vehicle_type_id":"4","last_reported":1730283066,"current_range_meters":6000,"station_id":"ce4bhpp2rcd13ifvqhgg","pricing_plan_id":"cebpf4jnsgd1na2vs0mg"},{"bike_id":"59c7403a-36af-4ab9-a8fb-4e8f180bdcbe","system_id":"levelo_inurba_marseille","lat":43.2408,"lon":5.37742,"is_reserved":false,"is_disabled":false,"rental_uris":{"android":"levelo://app?vid=59c7403a-36af-4ab9-a8fb-4e8f180bdcbe","ios":"levelo://app?vid=59c7403a-36af-4ab9-a8fb-4e8f180bdcbe"},"vehicle_type_id":"4","last_reported":1730283066,"current_range_meters":8000,"station_id":"ce4bhnp2rcd13ifvqgvg","pricing_plan_id":"cebpf4jnsgd1na2vs0mg"},{"bike_id":"319628af-6ed0-4c6b-85da-8e8cbc64e217","system_id":"levelo_inurba_marseille","lat":43.24388,"lon":5.37058,"is_reserved":false,"is_disabled":false,"rental_uris":{"android":"levelo://app?vid=319628af-6ed0-4c6b-85da-8e8cbc64e217","ios":"levelo://app?vid=319628af-6ed0-4c6b-85da-8e8cbc64e217"},"vehicle_type_id":"4","last_reported":1730283066,"current_range_meters":36800,"station_id":"ce4bhhh2rcd13ifvqfk0","pricing_plan_id":"cebpf4jnsgd1na2vs0mg"},{"bike_id":"96f1fe2b-27b3-45a5-8e58-f339dd6c49b1","system_id":"levelo_inurba_marseille","lat":43.3055,"lon":5.36526,"is_reserved":false,"is_disabled":false,"rental_uris":{"android":"levelo://app?vid=96f1fe2b-27b3-45a5-8e58-f339dd6c49b1","ios":"levelo://app?vid=96f1fe2b-27b3-45a5-8e58-f339dd6c49b1"},"vehicle_type_id":"4","last_reported":1730283066,"current_range_meters":32000,"station_id":"ce4bgs12rcd13ifvqcag","pricing_plan_id":"cebpf4jnsgd1na2vs0mg"},{"bike_id":"9093d695-bec2-4727-9c9c-01c6d9e2075a","system_id":"levelo_inurba_marseille","lat":43.25934,"lon":5.40898,"is_reserved":false,"is_disabled":false,"rental_uris":{"android":"levelo://app?vid=9093d695-bec2-4727-9c9c-01c6d9e2075a","ios":"levelo://app?vid=9093d695-bec2-4727-9c9c-01c6d9e2075a"},"vehicle_type_id":"4","last_reported":1730283066,"current_range_meters":29600,"station_id":"ce4bhm92rcd13ifvqglg","pricing_plan_id":"cebpf4jnsgd1na2vs0mg"},{"bike_id":"2a59e468-664b-4487-a13d-372ee2a99421","system_id":"levelo_inurba_marseille","lat":43.30279,"lon":5.37705,"is_reserved":false,"is_disabled":false,"rental_uris":{"android":"levelo://app?vid=2a59e468-664b-4487-a13d-372ee2a99421","ios":"levelo://app?vid=2a59e468-664b-4487-a13d-372ee2a99421"},"vehicle_type_id":"4","last_reported":1730283066,"current_range_meters":39200,"station_id":"ce4bguh2rcd13ifvqcj0","pricing_plan_id":"cebpf4jnsgd1na2vs0mg"},{"bike_id":"5e40d3bd-7a44-4c2e-ac56-490293d581b4","system_id":"levelo_inurba_marseille","lat":43.29896,"lon":5.43667,"is_reserved":false,"is_disabled":false,"rental_uris":{"android":"levelo://app?vid=5e40d3bd-7a44-4c2e-ac56-490293d581b4","ios":"levelo://app?vid=5e40d3bd-7a44-4c2e-ac56-490293d581b4"},"vehicle_type_id":"4","last_reported":1730283066,"current_range_meters":13600,"station_id":"ce4bhpp2rcd13ifvqhfg","pricing_plan_id":"cebpf4jnsgd1na2vs0mg"},{"bike_id":"044ac87b-d753-4172-b94a-38af1af05266","system_id":"levelo_inurba_marseille","lat":43.2962,"lon":5.3715,"is_reserved":false,"is_disabled":false,"rental_uris":{"android":"levelo://app?vid=044ac87b-d753-4172-b94a-38af1af05266","ios":"levelo://app?vid=044ac87b-d753-4172-b94a-38af1af05266"},"vehicle_type_id":"4","last_reported":1730283066,"current_range_meters":26000,"station_id":"ce4bgnh2rcd13ifvqc0g","pricing_plan_id":"cebpf4jnsgd1na2vs0mg"},{"bike_id":"211fc61b-374e-419a-8f8b-cf7eb1fca45b","system_id":"levelo_inurba_marseille","lat":43.29606,"lon":5.37708,"is_reserved":false,"is_disabled":false,"rental_uris":{"android":"levelo://app?vid=211fc61b-374e-419a-8f8b-cf7eb1fca45b","ios":"levelo://app?vid=211fc61b-374e-419a-8f8b-cf7eb1fca45b"},"vehicle_type_id":"4","last_reported":1730283066,"current_range_meters":36800,"station_id":"ce4bgi92rcd13ifvqb90","pricing_plan_id":"cebpf4jnsgd1na2vs0mg"},{"bike_id":"9fe288c9-fe9f-4c89-b717-b20c89225f06","system_id":"levelo_inurba_marseille","lat":43.29906,"lon":5.38153,"is_reserved":false,"is_disabled":false,"rental_uris":{"android":"levelo://app?vid=9fe288c9-fe9f-4c89-b717-b20c89225f06","ios":"levelo://app?vid=9fe288c9-fe9f-4c89-b717-b20c89225f06"},"vehicle_type_id":"4","last_reported":1730283066,"current_range_meters":28800,"station_id":"ce4bgj12rcd13ifvqbc0","pricing_plan_id":"cebpf4jnsgd1na2vs0mg"},{"bike_id":"e57ec0cf-e8e2-4e64-a3ab-7fed01a88635","system_id":"levelo_inurba_marseille","lat":43.313332,"lon":5.367182,"is_reserved":false,"is_disabled":false,"rental_uris":{"android":"levelo://app?vid=e57ec0cf-e8e2-4e64-a3ab-7fed01a88635","ios":"levelo://app?vid=e57ec0cf-e8e2-4e64-a3ab-7fed01a88635"},"vehicle_type_id":"4","last_reported":1730283066,"current_range_meters":26000,"station_id":"ce4bgr92rcd13ifvqc6g","pricing_plan_id":"cebpf4jnsgd1na2vs0mg"},{"bike_id":"34294e45-0e27-4221-ad9a-96993664c40d","system_id":"levelo_inurba_marseille","lat":43.26876,"lon":5.369667,"is_reserved":false,"is_disabled":false,"rental_uris":{"android":"levelo://app?vid=34294e45-0e27-4221-ad9a-96993664c40d","ios":"levelo://app?vid=34294e45-0e27-4221-ad9a-96993664c40d"},"vehicle_type_id":"4","last_reported":1730283066,"current_range_meters":25600,"station_id":"","pricing_plan_id":"cebpf4jnsgd1na2vs0mg"},{"bike_id":"90d46870-9f40-4b4b-88a4-7acd7fb37a95","system_id":"levelo_inurba_marseille","lat":43.30529,"lon":5.36536,"is_reserved":false,"is_disabled":false,"rental_uris":{"android":"levelo://app?vid=90d46870-9f40-4b4b-88a4-7acd7fb37a95","ios":"levelo://app?vid=90d46870-9f40-4b4b-88a4-7acd7fb37a95"},"vehicle_type_id":"4","last_reported":1730283066,"current_range_meters":27600,"station_id":"ce4bgs12rcd13ifvqcag","pricing_plan_id":"cebpf4jnsgd1na2vs0mg"},{"bike_id":"d721ff6d-485d-48c6-84c6-b1a6b8d95c72","system_id":"levelo_inurba_marseille","lat":43.30531,"lon":5.36541,"is_reserved":false,"is_disabled":false,"rental_uris":{"android":"levelo://app?vid=d721ff6d-485d-48c6-84c6-b1a6b8d95c72","ios":"levelo://app?vid=d721ff6d-485d-48c6-84c6-b1a6b8d95c72"},"vehicle_type_id":"4","last_reported":1730283066,"current_range_meters":38800,"station_id":"ce4bgs12rcd13ifvqcag","pricing_plan_id":"cebpf4jnsgd1na2vs0mg"},{"bike_id":"77651b28-7240-49aa-9efe-a082cc337b36","system_id":"levelo_inurba_marseille","lat":43.30548,"lon":5.36699,"is_reserved":false,"is_disabled":false,"rental_uris":{"android":"levelo://app?vid=77651b28-7240-49aa-9efe-a082cc337b36","ios":"levelo://app?vid=77651b28-7240-49aa-9efe-a082cc337b36"},"vehicle_type_id":"4","last_reported":1730283066,"current_range_meters":18000,"station_id":"ce4bgrp2rcd13ifvqc9g","pricing_plan_id":"cebpf4jnsgd1na2vs0mg"},{"bike_id":"30f8cbc7-4f9c-4e25-97c7-60c47647f3ec","system_id":"levelo_inurba_marseille","lat":43.28982,"lon":5.37833,"is_reserved":false,"is_disabled":false,"rental_uris":{"android":"levelo://app?vid=30f8cbc7-4f9c-4e25-97c7-60c47647f3ec","ios":"levelo://app?vid=30f8cbc7-4f9c-4e25-97c7-60c47647f3ec"},"vehicle_type_id":"4","last_reported":1730283066,"current_range_meters":31200,"station_id":"ce4bh9p2rcd13ifvqed0","pricing_plan_id":"cebpf4jnsgd1na2vs0mg"},{"bike_id":"140e9036-5bb8-4aaa-a123-243fdf234154","system_id":"levelo_inurba_marseille","lat":43.27975,"lon":5.38728,"is_reserved":false,"is_disabled":false,"rental_uris":{"android":"levelo://app?vid=140e9036-5bb8-4aaa-a123-243fdf234154","ios":"levelo://app?vid=140e9036-5bb8-4aaa-a123-243fdf234154"},"vehicle_type_id":"4","last_reported":1730283066,"current_range_meters":18000,"station_id":"ce4bhg12rcd13ifvqf80","pricing_plan_id":"cebpf4jnsgd1na2vs0mg"},{"bike_id":"3ad7c9bf-5f3c-42a8-9e6e-37db2d430dee","system_id":"levelo_inurba_marseille","lat":43.29875,"lon":5.39732,"is_reserved":false,"is_disabled":false,"rental_uris":{"android":"levelo://app?vid=3ad7c9bf-5f3c-42a8-9e6e-37db2d430dee","ios":"levelo://app?vid=3ad7c9bf-5f3c-42a8-9e6e-37db2d430dee"},"vehicle_type_id":"4","last_reported":1730283066,"current_range_meters":30800,"station_id":"ce4bh0h2rcd13ifvqd50","pricing_plan_id":"cebpf4jnsgd1na2vs0mg"},{"bike_id":"c038471f-f406-4869-b58a-610c2fbc7bf4","system_id":"levelo_inurba_marseille","lat":43.29561,"lon":5.37516,"is_reserved":false,"is_disabled":false,"rental_uris":{"android":"levelo://app?vid=c038471f-f406-4869-b58a-610c2fbc7bf4","ios":"levelo://app?vid=c038471f-f406-4869-b58a-610c2fbc7bf4"},"vehicle_type_id":"4","last_reported":1730283066,"current_range_meters":25200,"station_id":"ce4bgh92rcd13ifvqb50","pricing_plan_id":"cebpf4jnsgd1na2vs0mg"},{"bike_id":"b61c7e2d-60bf-4f28-ab5a-9724e00e185c","system_id":"levelo_inurba_marseille","lat":43.23968,"lon":5.3662,"is_reserved":false,"is_disabled":false,"rental_uris":{"android":"levelo://app?vid=b61c7e2d-60bf-4f28-ab5a-9724e00e185c","ios":"levelo://app?vid=b61c7e2d-60bf-4f28-ab5a-9724e00e185c"},"vehicle_type_id":"4","last_reported":1730283066,"current_range_meters":14000,"station_id":"ce4bhi12rcd13ifvqfp0","pricing_plan_id":"cebpf4jnsgd1na2vs0mg"},{"bike_id":"ea848b0a-5785-4e5d-83d4-e4515f54c692","system_id":"levelo_inurba_marseille","lat":43.23183,"lon":5.39982,"is_reserved":false,"is_disabled":false,"rental_uris":{"android":"levelo://app?vid=ea848b0a-5785-4e5d-83d4-e4515f54c692","ios":"levelo://app?vid=ea848b0a-5785-4e5d-83d4-e4515f54c692"},"vehicle_type_id":"4","last_reported":1730283066,"current_range_meters":26800,"station_id":"ce4bhn12rcd13ifvqgqg","pricing_plan_id":"cebpf4jnsgd1na2vs0mg"},{"bike_id":"988e0a49-e802-42cf-abe7-99dd75b0a3dd","system_id":"levelo_inurba_marseille","lat":43.30145,"lon":5.37417,"is_reserved":false,"is_disabled":false,"rental_uris":{"android":"levelo://app?vid=988e0a49-e802-42cf-abe7-99dd75b0a3dd","ios":"levelo://app?vid=988e0a49-e802-42cf-abe7-99dd75b0a3dd"},"vehicle_type_id":"4","last_reported":1730283066,"current_range_meters":36000,"station_id":"ce4bgs92rcd13ifvqcc0","pricing_plan_id":"cebpf4jnsgd1na2vs0mg"},{"bike_id":"6cc66733-83a3-4a51-a9b7-0f2bd0fd0c94","system_id":"levelo_inurba_marseille","lat":43.28278,"lon":5.35068,"is_reserved":false,"is_disabled":false,"rental_uris":{"android":"levelo://app?vid=6cc66733-83a3-4a51-a9b7-0f2bd0fd0c94","ios":"levelo://app?vid=6cc66733-83a3-4a51-a9b7-0f2bd0fd0c94"},"vehicle_type_id":"4","last_reported":1730283066,"current_range_meters":26000,"station_id":"ce4bhbp2rcd13ifvqerg","pricing_plan_id":"cebpf4jnsgd1na2vs0mg"},{"bike_id":"1768b2ed-b293-42f5-a095-345317bb060b","system_id":"levelo_inurba_marseille","lat":43.30913,"lon":5.3685,"is_reserved":false,"is_disabled":false,"rental_uris":{"android":"levelo://app?vid=1768b2ed-b293-42f5-a095-345317bb060b","ios":"levelo://app?vid=1768b2ed-b293-42f5-a095-345317bb060b"},"vehicle_type_id":"4","last_reported":1730283066,"current_range_meters":24400,"station_id":"ce4bgn92rcd13ifvqbvg","pricing_plan_id":"cebpf4jnsgd1na2vs0mg"},{"bike_id":"e1d5344e-a6d4-4068-bf2e-e347a3432fb0","system_id":"levelo_inurba_marseille","lat":43.30284,"lon":5.37699,"is_reserved":false,"is_disabled":false,"rental_uris":{"android":"levelo://app?vid=e1d5344e-a6d4-4068-bf2e-e347a3432fb0","ios":"levelo://app?vid=e1d5344e-a6d4-4068-bf2e-e347a3432fb0"},"vehicle_type_id":"4","last_reported":1730283066,"current_range_meters":35600,"station_id":"ce4bguh2rcd13ifvqcj0","pricing_plan_id":"cebpf4jnsgd1na2vs0mg"},{"bike_id":"03f9e53e-7a03-4a95-9ef4-373c86c54ed6","system_id":"levelo_inurba_marseille","lat":43.25939,"lon":5.40902,"is_reserved":false,"is_disabled":false,"rental_uris":{"android":"levelo://app?vid=03f9e53e-7a03-4a95-9ef4-373c86c54ed6","ios":"levelo://app?vid=03f9e53e-7a03-4a95-9ef4-373c86c54ed6"},"vehicle_type_id":"4","last_reported":1730283066,"current_range_meters":36400,"station_id":"ce4bhm92rcd13ifvqglg","pricing_plan_id":"cebpf4jnsgd1na2vs0mg"},{"bike_id":"e3baddfa-96f0-46ad-b708-ceb31993a23c","system_id":"levelo_inurba_marseille","lat":43.33757,"lon":5.37437,"is_reserved":false,"is_disabled":false,"rental_uris":{"android":"levelo://app?vid=e3baddfa-96f0-46ad-b708-ceb31993a23c","ios":"levelo://app?vid=e3baddfa-96f0-46ad-b708-ceb31993a23c"},"vehicle_type_id":"4","last_reported":1730283066,"current_range_meters":28000,"station_id":"","pricing_plan_id":"cebpf4jnsgd1na2vs0mg"},{"bike_id":"a0a2b278-3c52-4c26-9330-91fb0b590d02","system_id":"levelo_inurba_marseille","lat":43.30155,"lon":5.38082,"is_reserved":false,"is_disabled":false,"rental_uris":{"android":"levelo://app?vid=a0a2b278-3c52-4c26-9330-91fb0b590d02","ios":"levelo://app?vid=a0a2b278-3c52-4c26-9330-91fb0b590d02"},"vehicle_type_id":"4","last_reported":1730283066,"current_range_meters":32400,"station_id":"ce4bgjp2rcd13ifvqbh0","pricing_plan_id":"cebpf4jnsgd1na2vs0mg"},{"bike_id":"ca471b80-8d95-48df-88a2-5ea37fef7ad5","system_id":"levelo_inurba_marseille","lat":43.25108,"lon":5.40322,"is_reserved":false,"is_disabled":false,"rental_uris":{"android":"levelo://app?vid=ca471b80-8d95-48df-88a2-5ea37fef7ad5","ios":"levelo://app?vid=ca471b80-8d95-48df-88a2-5ea37fef7ad5"},"vehicle_type_id":"4","last_reported":1730283066,"current_range_meters":11200,"station_id":"ce4bhlh2rcd13ifvqgig","pricing_plan_id":"cebpf4jnsgd1na2vs0mg"},{"bike_id":"160c3125-d109-49e3-a687-ede78b99dea2","system_id":"levelo_inurba_marseille","lat":43.23196,"lon":5.35544,"is_reserved":false,"is_disabled":false,"rental_uris":{"android":"levelo://app?vid=160c3125-d109-49e3-a687-ede78b99dea2","ios":"levelo://app?vid=160c3125-d109-49e3-a687-ede78b99dea2"},"vehicle_type_id":"4","last_reported":1730283066,"current_range_meters":10800,"station_id":"ce4bhu92rcd13ifvqi70","pricing_plan_id":"cebpf4jnsgd1na2vs0mg"},{"bike_id":"d15e5a3a-5812-42ae-8a22-b064b9e316b7","system_id":"levelo_inurba_marseille","lat":43.27994,"lon":5.40014,"is_reserved":false,"is_disabled":false,"rental_uris":{"android":"levelo://app?vid=d15e5a3a-5812-42ae-8a22-b064b9e316b7","ios":"levelo://app?vid=d15e5a3a-5812-42ae-8a22-b064b9e316b7"},"vehicle_type_id":"4","last_reported":1730283066,"current_range_meters":36400,"station_id":"ce4bho92rcd13ifvqh4g","pricing_plan_id":"cebpf4jnsgd1na2vs0mg"},{"bike_id":"7af2b873-1cf2-4188-a6a9-b5da3c0b420c","system_id":"levelo_inurba_marseille","lat":43.28293,"lon":5.37465,"is_reserved":false,"is_disabled":false,"rental_uris":{"android":"levelo://app?vid=7af2b873-1cf2-4188-a6a9-b5da3c0b420c","ios":"levelo://app?vid=7af2b873-1cf2-4188-a6a9-b5da3c0b420c"},"vehicle_type_id":"4","last_reported":1730283066,"current_range_meters":24400,"station_id":"ce4bh412rcd13ifvqds0","pricing_plan_id":"cebpf4jnsgd1na2vs0mg"},{"bike_id":"6baeb595-3699-4f73-ad2e-bef84e3a39f7","system_id":"levelo_inurba_marseille","lat":43.31364,"lon":5.36713,"is_reserved":false,"is_disabled":false,"rental_uris":{"android":"levelo://app?vid=6baeb595-3699-4f73-ad2e-bef84e3a39f7","ios":"levelo://app?vid=6baeb595-3699-4f73-ad2e-bef84e3a39f7"},"vehicle_type_id":"4","last_reported":1730283066,"current_range_meters":32400,"station_id":"ce4bgr92rcd13ifvqc6g","pricing_plan_id":"cebpf4jnsgd1na2vs0mg"},{"bike_id":"07e324bc-7357-4a50-a71d-ea19063c9374","system_id":"levelo_inurba_marseille","lat":43.27201,"lon":5.39992,"is_reserved":false,"is_disabled":false,"rental_uris":{"android":"levelo://app?vid=07e324bc-7357-4a50-a71d-ea19063c9374","ios":"levelo://app?vid=07e324bc-7357-4a50-a71d-ea19063c9374"},"vehicle_type_id":"4","last_reported":1730283066,"current_range_meters":14400,"station_id":"","pricing_plan_id":"cebpf4jnsgd1na2vs0mg"},{"bike_id":"76ae65e7-1304-4c14-b23b-fa35af4a2ade","system_id":"levelo_inurba_marseille","lat":43.28428,"lon":5.34985,"is_reserved":false,"is_disabled":false,"rental_uris":{"android":"levelo://app?vid=76ae65e7-1304-4c14-b23b-fa35af4a2ade","ios":"levelo://app?vid=76ae65e7-1304-4c14-b23b-fa35af4a2ade"},"vehicle_type_id":"4","last_reported":1730283066,"current_range_meters":36000,"station_id":"ce4bhbh2rcd13ifvqepg","pricing_plan_id":"cebpf4jnsgd1na2vs0mg"},{"bike_id":"e995be9e-f3ec-4587-aa82-de19955b81c7","system_id":"levelo_inurba_marseille","lat":43.26811,"lon":5.40271,"is_reserved":false,"is_disabled":false,"rental_uris":{"android":"levelo://app?vid=e995be9e-f3ec-4587-aa82-de19955b81c7","ios":"levelo://app?vid=e995be9e-f3ec-4587-aa82-de19955b81c7"},"vehicle_type_id":"4","last_reported":1730283066,"current_range_meters":38800,"station_id":"ce501612rcd8frsf0b60","pricing_plan_id":"cebpf4jnsgd1na2vs0mg"},{"bike_id":"ccdfd319-6908-4ad8-9315-50628bb4a478","system_id":"levelo_inurba_marseille","lat":43.27178,"lon":5.40986,"is_reserved":false,"is_disabled":false,"rental_uris":{"android":"levelo://app?vid=ccdfd319-6908-4ad8-9315-50628bb4a478","ios":"levelo://app?vid=ccdfd319-6908-4ad8-9315-50628bb4a478"},"vehicle_type_id":"4","last_reported":1730283066,"current_range_meters":38800,"station_id":"ce4bhl12rcd13ifvqgf0","pricing_plan_id":"cebpf4jnsgd1na2vs0mg"},{"bike_id":"7d7c7b0a-2e7f-435e-9a0b-9fedc54eb71b","system_id":"levelo_inurba_marseille","lat":43.32542,"lon":5.41441,"is_reserved":false,"is_disabled":false,"rental_uris":{"android":"levelo://app?vid=7d7c7b0a-2e7f-435e-9a0b-9fedc54eb71b","ios":"levelo://app?vid=7d7c7b0a-2e7f-435e-9a0b-9fedc54eb71b"},"vehicle_type_id":"4","last_reported":1730283066,"current_range_meters":19600,"station_id":"ce4bhq12rcd13ifvqhhg","pricing_plan_id":"cebpf4jnsgd1na2vs0mg"},{"bike_id":"72607bf4-bf02-4d9e-a724-b2a1cbfa169d","system_id":"levelo_inurba_marseille","lat":43.24074,"lon":5.37756,"is_reserved":false,"is_disabled":false,"rental_uris":{"android":"levelo://app?vid=72607bf4-bf02-4d9e-a724-b2a1cbfa169d","ios":"levelo://app?vid=72607bf4-bf02-4d9e-a724-b2a1cbfa169d"},"vehicle_type_id":"4","last_reported":1730283066,"current_range_meters":38800,"station_id":"ce4bhnp2rcd13ifvqgvg","pricing_plan_id":"cebpf4jnsgd1na2vs0mg"},{"bike_id":"b1a99226-ccc1-4db9-a7fd-eb25c9449489","system_id":"levelo_inurba_marseille","lat":43.3206,"lon":5.41531,"is_reserved":false,"is_disabled":false,"rental_uris":{"android":"levelo://app?vid=b1a99226-ccc1-4db9-a7fd-eb25c9449489","ios":"levelo://app?vid=b1a99226-ccc1-4db9-a7fd-eb25c9449489"},"vehicle_type_id":"4","last_reported":1730283066,"current_range_meters":30800,"station_id":"ce4bhq92rcd13ifvqhkg","pricing_plan_id":"cebpf4jnsgd1na2vs0mg"},{"bike_id":"0fa14306-354f-4dd4-a517-29422b1fd161","system_id":"levelo_inurba_marseille","lat":43.27999,"lon":5.40005,"is_reserved":false,"is_disabled":false,"rental_uris":{"android":"levelo://app?vid=0fa14306-354f-4dd4-a517-29422b1fd161","ios":"levelo://app?vid=0fa14306-354f-4dd4-a517-29422b1fd161"},"vehicle_type_id":"4","last_reported":1730283066,"current_range_meters":19600,"station_id":"ce4bho92rcd13ifvqh4g","pricing_plan_id":"cebpf4jnsgd1na2vs0mg"},{"bike_id":"1cdad1e0-5255-4c69-973d-12b025ca8c3e","system_id":"levelo_inurba_marseille","lat":43.26948,"lon":5.38631,"is_reserved":false,"is_disabled":false,"rental_uris":{"android":"levelo://app?vid=1cdad1e0-5255-4c69-973d-12b025ca8c3e","ios":"levelo://app?vid=1cdad1e0-5255-4c69-973d-12b025ca8c3e"},"vehicle_type_id":"4","last_reported":1730283066,"current_range_meters":32400,"station_id":"ce4bhh92rcd13ifvqfh0","pricing_plan_id":"cebpf4jnsgd1na2vs0mg"},{"bike_id":"f0fd9080-980d-4869-bed0-f3618cd0eee7","system_id":"levelo_inurba_marseille","lat":43.31357,"lon":5.36706,"is_reserved":false,"is_disabled":false,"rental_uris":{"android":"levelo://app?vid=f0fd9080-980d-4869-bed0-f3618cd0eee7","ios":"levelo://app?vid=f0fd9080-980d-4869-bed0-f3618cd0eee7"},"vehicle_type_id":"4","last_reported":1730283066,"current_range_meters":25600,"station_id":"ce4bgr92rcd13ifvqc6g","pricing_plan_id":"cebpf4jnsgd1na2vs0mg"},