{"last_updated":1705990224,"ttl":30,"version":"2.2","data":{"bikes":[{"bike_id":"cdab7e3e-64f7-4108-9b88-b41cbdc2e26b","system_id":"levelo_inurba_marseille","lat":43.313391,"lon":5.36706,"is_reserved":false,"is_disabled":false,"rental_uris":{"android":"levelo://app?vid=cdab7e3e-64f7-4108-9b88-b41cbdc2e26b","ios":"levelo://app?vid=cdab7e3e-64f7-4108-9b88-b41cbdc2e26b"},"vehicle_type_id":"4","last_reported":1705990224,"current_range_meters":27200,"station_id":"ce4bgr92rcd13ifvqc6g","pricing_plan_id":"free"},{"bike_id":"0637a5ca-4aec-43fc-8ad8-14c562d27cbb","system_id":"levelo_inurba_marseille","lat":43.313391,"lon":5.36706,"is_reserved":false,"is_disabled":false,"rental_uris":{"android":"levelo://app?vid=0637a5ca-4aec-43fc-8ad8-14c562d27cbb","ios":"levelo://app?vid=0637a5ca-4aec-43fc-8ad8-14c562d27cbb"},"vehicle_type_id":"4","last_reported":1705990224,"current_range_meters":31600,"station_id":"ce4bgr92rcd13ifvqc6g","pricing_plan_id":"free"},{"bike_id":"a56231dc-c786-4864-bd7f-d0bbe4c620df","system_id":"levelo_inurba_marseille","lat":43.312239,"lon":5.368562,"is_reserved":false,"is_disabled":false,"rental_uris":{"android":"levelo://app?vid=a56231dc-c786-4864-bd7f-d0bbe4c620df","ios":"levelo://app?vid=a56231dc-c786-4864-bd7f-d0bbe4c620df"},"vehicle_type_id":"4","last_reported":1705990224,"current_range_meters":21600,"station_id":"ce4bgl92rcd13ifvqbq0","pricing_plan_id":"free"},{"bike_id":"274ca420-53a2-4c43-977e-f6e199ce8f74","system_id":"levelo_inurba_marseille","lat":43.312239,"lon":5.368562,"is_reserved":false,"is_disabled":false,"rental_uris":{"android":"levelo://app?vid=274ca420-53a2-4c43-977e-f6e199ce8f74","ios":"levelo://app?vid=274ca420-53a2-4c43-977e-f6e199ce8f74"},"vehicle_type_id":"4","last_reported":1705990224,"current_range_meters":22000,"station_id":"ce4bgl92rcd13ifvqbq0","pricing_plan_id":"free"},{"bike_id":"194c3b2b-ecb9-4cd8-90eb-75af69923830","system_id":"levelo_inurba_marseille","lat":43.309076,"lon":5.368465,"is_reserved":false,"is_disabled":false,"rental_uris":{"android":"levelo://app?vid=194c3b2b-ecb9-4cd8-90eb-75af69923830","ios":"levelo://app?vid=194c3b2b-ecb9-4cd8-90eb-75af69923830"},"vehicle_type_id":"4","last_reported":1705990224,"current_range_meters":9200,"station_id":"ce4bgn92rcd13ifvqbvg","pricing_plan_id":"free"},{"bike_id":"de5d949d-da4f-4085-b4f6-e5291264e337","system_id":"levelo_inurba_marseille","lat":43.309,"lon":5.36834,"is_reserved":false,"is_disabled":false,"rental_uris":{"android":"levelo://app?vid=de5d949d-da4f-4085-b4f6-e5291264e337","ios":"levelo://app?vid=de5d949d-da4f-4085-b4f6-e5291264e337"},"vehicle_type_id":"4","last_reported":1705990224,"current_range_meters":19200,"station_id":"ce4bgn92rcd13ifvqbvg","pricing_plan_id":"free"},{"bike_id":"98147bdd-4e31-467d-82b3-399ac3146a2e","system_id":"levelo_inurba_marseille","lat":43.314811,"lon":5.373103,"is_reserved":false,"is_disabled":false,"rental_uris":{"android":"levelo://app?vid=98147bdd-4e31-467d-82b3-399ac3146a2e","ios":"levelo://app?vid=98147bdd-4e31-467d-82b3-399ac3146a2e"},"vehicle_type_id":"4","last_reported":1705990224,"current_range_meters":23600,"station_id":"ce4bgt12rcd13ifvqcd0","pricing_plan_id":"free"},{"bike_id":"a3f36745-4977-47b4-a4b3-13b8518f159c","system_id":"levelo_inurba_marseille","lat":43.314811,"lon":5.373103,"is_reserved":false,"is_disabled":false,"rental_uris":{"android":"levelo://app?vid=a3f36745-4977-47b4-a4b3-13b8518f159c","ios":"levelo://app?vid=a3f36745-4977-47b4-a4b3-13b8518f159c"},"vehicle_type_id":"4","last_reported":1705990224,"current_range_meters":15200,"station_id":"ce4bgt12rcd13ifvqcd0","pricing_plan_id":"free"},{"bike_id":"0115d27a-7335-4647-9214-38a7c5015372","system_id":"levelo_inurba_marseille","lat":43.314811,"lon":5.373103,"is_reserved":false,"is_disabled":false,"rental_uris":{"android":"levelo://app?vid=0115d27a-7335-4647-9214-38a7c5015372","ios":"levelo://app?vid=0115d27a-7335-4647-9214-38a7c5015372"},"vehicle_type_id":"4","last_reported":1705990224,"current_range_meters":27200,"station_id":"ce4bgt12rcd13ifvqcd0","pricing_plan_id":"free"},{"bike_id":"405c96bd-5dcc-4f54-978f-65ffc0ec9bb6","system_id":"levelo_inurba_marseille","lat":43.314811,"lon":5.373103,"is_reserved":false,"is_disabled":false,"rental_uris":{"android":"levelo://app?vid=405c96bd-5dcc-4f54-978f-65ffc0ec9bb6","ios":"levelo://app?vid=405c96bd-5dcc-4f54-978f-65ffc0ec9bb6"},"vehicle_type_id":"4","last_reported":1705990224,"current_range_meters":4800,"station_id":"ce4bgt12rcd13ifvqcd0","pricing_plan_id":"free"},{"bike_id":"c7c47c5c-5cf5-41b8-8f78-87208015b124","system_id":"levelo_inurba_marseille","lat":43.314811,"lon":5.373104,"is_reserved":false,"is_disabled":false,"rental_uris":{"android":"levelo://app?vid=c7c47c5c-5cf5-41b8-8f78-87208015b124","ios":"levelo://app?vid=c7c47c5c-5cf5-41b8-8f78-87208015b124"},"vehicle_type_id":"4","last_reported":1705990224,"current_range_meters":28800,"station_id":"ce4bgt12rcd13ifvqcd0","pricing_plan_id":"free"},{"bike_id":"8d453ee7-0dd8-4f80-bb0e-dca2ae4a82ee","system_id":"levelo_inurba_marseille","lat":43.309039,"lon":5.371797,"is_reserved":false,"is_disabled":false,"rental_uris":{"android":"levelo://app?vid=8d453ee7-0dd8-4f80-bb0e-dca2ae4a82ee","ios":"levelo://app?vid=8d453ee7-0dd8-4f80-bb0e-dca2ae4a82ee"},"vehicle_type_id":"4","last_reported":1705990224,"current_range_meters":30000,"station_id":"ce4bguh2rcd13ifvqckg","pricing_plan_id":"free"},{"bike_id":"124c9aef-4d70-4668-bbfa-df9849a7e538","system_id":"levelo_inurba_marseille","lat":43.309034,"lon":5.371783,"is_reserved":false,"is_disabled":false,"rental_uris":{"android":"levelo://app?vid=124c9aef-4d70-4668-bbfa-df9849a7e538","ios":"levelo://app?vid=124c9aef-4d70-4668-bbfa-df9849a7e538"},"vehicle_type_id":"4","last_reported":1705990224,"current_range_meters":0,"station_id":"ce4bguh2rcd13ifvqckg","pricing_plan_id":"free"},{"bike_id":"53c30b12-f0a7-4e03-b0c7-81a09b4da706","system_id":"levelo_inurba_marseille","lat":43.305368,"lon":5.367343,"is_reserved":false,"is_disabled":false,"rental_uris":{"android":"levelo://app?vid=53c30b12-f0a7-4e03-b0c7-81a09b4da706","ios":"levelo://app?vid=53c30b12-f0a7-4e03-b0c7-81a09b4da706"},"vehicle_type_id":"4","last_reported":1705990224,"current_range_meters":22000,"station_id":"ce4bgrp2rcd13ifvqc9g","pricing_plan_id":"free"},{"bike_id":"a27a53bf-6916-4d8e-bc91-ca6e614df06a","system_id":"levelo_inurba_marseille","lat":43.305714,"lon":5.365633,"is_reserved":false,"is_disabled":false,"rental_uris":{"android":"levelo://app?vid=a27a53bf-6916-4d8e-bc91-ca6e614df06a","ios":"levelo://app?vid=a27a53bf-6916-4d8e-bc91-ca6e614df06a"},"vehicle_type_id":"4","last_reported":1705990224,"current_range_meters":2800,"station_id":"ce4bgs12rcd13ifvqcag","pricing_plan_id":"free"},{"bike_id":"e866fff4-c848-451d-8b0f-2ac6446699f6","system_id":"levelo_inurba_marseille","lat":43.305714,"lon":5.365633,"is_reserved":false,"is_disabled":false,"rental_uris":{"android":"levelo://app?vid=e866fff4-c848-451d-8b0f-2ac6446699f6","ios":"levelo://app?vid=e866fff4-c848-451d-8b0f-2ac6446699f6"},"vehicle_type_id":"4","last_reported":1705990224,"current_range_meters":28400,"station_id":"ce4bgs12rcd13ifvqcag","pricing_plan_id":"free"},{"bike_id":"17a13d6b-635a-4ec6-b32e-73986fb301a9","system_id":"levelo_inurba_marseille","lat":43.305714,"lon":5.365633,"is_reserved":false,"is_disabled":false,"rental_uris":{"android":"levelo://app?vid=17a13d6b-635a-4ec6-b32e-73986fb301a9","ios":"levelo://app?vid=17a13d6b-635a-4ec6-b32e-73986fb301a9"},"vehicle_type_id":"4","last_reported":1705990224,"current_range_meters":27600,"station_id":"ce4bgs12rcd13ifvqcag","pricing_plan_id":"free"},{"bike_id":"052514ae-72e8-41c3-a033-8bbb9ee29927","system_id":"levelo_inurba_marseille","lat":43.30533,"lon":5.36697,"is_reserved":false,"is_disabled":false,"rental_uris":{"android":"levelo://app?vid=052514ae-72e8-41c3-a033-8bbb9ee29927","ios":"levelo://app?vid=052514ae-72e8-41c3-a033-8bbb9ee29927"},"vehicle_type_id":"4","last_reported":1705990224,"current_range_meters":16000,"station_id":"ce4bgrp2rcd13ifvqc9g","pricing_plan_id":"free"},{"bike_id":"4aa985fb-105b-4826-8dca-25ba936daad2","system_id":"levelo_inurba_marseille","lat":43.305706,"lon":5.365654,"is_reserved":false,"is_disabled":false,"rental_uris":{"android":"levelo://app?vid=4aa985fb-105b-4826-8dca-25ba936daad2","ios":"levelo://app?vid=4aa985fb-105b-4826-8dca-25ba936daad2"},"vehicle_type_id":"4","last_reported":1705990224,"current_range_meters":26400,"station_id":"ce4bgs12rcd13ifvqcag","pricing_plan_id":"free"},{"bike_id":"186118e3-0cbc-493a-9795-c02b72708984","system_id":"levelo_inurba_marseille","lat":43.305989,"lon":5.37225,"is_reserved":false,"is_disabled":false,"rental_uris":{"android":"levelo://app?vid=186118e3-0cbc-493a-9795-c02b72708984","ios":"levelo://app?vid=186118e3-0cbc-493a-9795-c02b72708984"},"vehicle_type_id":"4","last_reported":1705990224,"current_range_meters":28400,"station_id":"ce4bgqh2rcd13ifvqc4g","pricing_plan_id":"free"},{"bike_id":"30228650-a38f-42fc-b871-4095c5df21bc","system_id":"levelo_inurba_marseille","lat":43.311239,"lon":5.377586,"is_reserved":false,"is_disabled":false,"rental_uris":{"android":"levelo://app?vid=30228650-a38f-42fc-b871-4095c5df21bc","ios":"levelo://app?vid=30228650-a38f-42fc-b871-4095c5df21bc"},"vehicle_type_id":"4","last_reported":1705990224,"current_range_meters":30000,"station_id":"ce4bgt92rcd13ifvqcg0","pricing_plan_id":"free"},{"bike_id":"84f3ad9c-1aa2-469a-a47c-72bee066b7e0","system_id":"levelo_inurba_marseille","lat":43.311124,"lon":5.377569,"is_reserved":false,"is_disabled":false,"rental_uris":{"android":"levelo://app?vid=84f3ad9c-1aa2-469a-a47c-72bee066b7e0","ios":"levelo://app?vid=84f3ad9c-1aa2-469a-a47c-72bee066b7e0"},"vehicle_type_id":"4","last_reported":1705990224,"current_range_meters":30800,"station_id":"ce4bgt92rcd13ifvqcg0","pricing_plan_id":"free"},{"bike_id":"1f4cc8a1-61a5-4902-b684-71376067c557","system_id":"levelo_inurba_marseille","lat":43.311125,"lon":5.377624,"is_reserved":false,"is_disabled":false,"rental_uris":{"android":"levelo://app?vid=1f4cc8a1-61a5-4902-b684-71376067c557","ios":"levelo://app?vid=1f4cc8a1-61a5-4902-b684-71376067c557"},"vehicle_type_id":"4","last_reported":1705990224,"current_range_meters":5600,"station_id":"ce4bgt92rcd13ifvqcg0","pricing_plan_id":"free"},{"bike_id":"5ff8f691-1aa3-4c02-932d-ec8c5d570399","system_id":"levelo_inurba_marseille","lat":43.311177,"lon":5.377609,"is_reserved":false,"is_disabled":false,"rental_uris":{"android":"levelo://app?vid=5ff8f691-1aa3-4c02-932d-ec8c5d570399","ios":"levelo://app?vid=5ff8f691-1aa3-4c02-932d-ec8c5d570399"},"vehicle_type_id":"4","last_reported":1705990224,"current_range_meters":15200,"station_id":"ce4bgt92rcd13ifvqcg0","pricing_plan_id":"free"},{"bike_id":"a8c5d946-d12b-4dad-9138-38806d0d68bf","system_id":"levelo_inurba_marseille","lat":43.311124,"lon":5.377602,"is_reserved":false,"is_disabled":false,"rental_uris":{"android":"levelo://app?vid=a8c5d946-d12b-4dad-9138-38806d0d68bf","ios":"levelo://app?vid=a8c5d946-d12b-4dad-9138-38806d0d68bf"},"vehicle_type_id":"4","last_reported":1705990224,"current_range_meters":26000,"station_id":"ce4bgt92rcd13ifvqcg0","pricing_plan_id":"free"},{"bike_id":"7574a919-a994-42ab-bbb4-0aa33d7c2222","system_id":"levelo_inurba_marseille","lat":43.31125,"lon":5.377646,"is_reserved":false,"is_disabled":false,"rental_uris":{"android":"levelo://app?vid=7574a919-a994-42ab-bbb4-0aa33d7c2222","ios":"levelo://app?vid=7574a919-a994-42ab-bbb4-0aa33d7c2222"},"vehicle_type_id":"4","last_reported":1705990224,"current_range_meters":24000,"station_id":"ce4bgt92rcd13ifvqcg0","pricing_plan_id":"free"},{"bike_id":"686f60c3-0aa1-4f7f-9d26-bf9d46e78eb6","system_id":"levelo_inurba_marseille","lat":43.311171,"lon":5.377648,"is_reserved":false,"is_disabled":false,"rental_uris":{"android":"levelo://app?vid=686f60c3-0aa1-4f7f-9d26-bf9d46e78eb6","ios":"levelo://app?vid=686f60c3-0aa1-4f7f-9d26-bf9d46e78eb6"},"vehicle_type_id":"4","last_reported":1705990224,"current_range_meters":16000,"station_id":"ce4bgt92rcd13ifvqcg0","pricing_plan_id":"free"},{"bike_id":"65ab9c17-cc69-4bd7-bd19-a5fd2e769315","system_id":"levelo_inurba_marseille","lat":43.31118,"lon":5.37767,"is_reserved":false,"is_disabled":false,"rental_uris":{"android":"levelo://app?vid=65ab9c17-cc69-4bd7-bd19-a5fd2e769315","ios":"levelo://app?vid=65ab9c17-cc69-4bd7-bd19-a5fd2e769315"},"vehicle_type_id":"4","last_reported":1705990224,"current_range_meters":9600,"station_id":"ce4bgt92rcd13ifvqcg0","pricing_plan_id":"free"},{"bike_id":"8dacbb65-5f4f-4dfa-885a-b0b450fa2cf5","system_id":"levelo_inurba_marseille","lat":43.311125,"lon":5.377624,"is_reserved":false,"is_disabled":false,"rental_uris":{"android":"levelo://app?vid=8dacbb65-5f4f-4dfa-885a-b0b450fa2cf5","ios":"levelo://app?vid=8dacbb65-5f4f-4dfa-885a-b0b450fa2cf5"},"vehicle_type_id":"4","last_reported":1705990224,"current_range_meters":28000,"station_id":"ce4bgt92rcd13ifvqcg0","pricing_plan_id":"free"},{"bike_id":"d7854f2c-e25b-4567-9ca1-100b79dde627","system_id":"levelo_inurba_marseille","lat":43.31711,"lon":5.376841,"is_reserved":false,"is_disabled":false,"rental_uris":{"android":"levelo://app?vid=d7854f2c-e25b-4567-9ca1-100b79dde627","ios":"levelo://app?vid=d7854f2c-e25b-4567-9ca1-100b79dde627"},"vehicle_type_id":"4","last_reported":1705990224,"current_range_meters":16000,"station_id":"ce4bgth2rcd13ifvqch0","pricing_plan_id":"free"},{"bike_id":"5f955857-1cfe-43b3-b4eb-cf45edda73ce","system_id":"levelo_inurba_marseille","lat":43.307945,"lon":5.376487,"is_reserved":false,"is_disabled":false,"rental_uris":{"android":"levelo://app?vid=5f955857-1cfe-43b3-b4eb-cf45edda73ce","ios":"levelo://app?vid=5f955857-1cfe-43b3-b4eb-cf45edda73ce"},"vehicle_type_id":"4","last_reported":1705990224,"current_range_meters":24000,"station_id":"ce4bgv92rcd13ifvqcq0","pricing_plan_id":"free"},{"bike_id":"bb076879-2da2-4ee0-8f02-f90c12e9d30a","system_id":"levelo_inurba_marseille","lat":43.307945,"lon":5.376487,"is_reserved":false,"is_disabled":false,"rental_uris":{"android":"levelo://app?vid=bb076879-2da2-4ee0-8f02-f90c12e9d30a","ios":"levelo://app?vid=bb076879-2da2-4ee0-8f02-f90c12e9d30a"},"vehicle_type_id":"4","last_reported":1705990224,"current_range_meters":23200,"station_id":"ce4bgv92rcd13ifvqcq0","pricing_plan_id":"free"},{"bike_id":"4088c6f3-d158-450d-a5d1-5141bf2507bb","system_id":"levelo_inurba_marseille","lat":43.307945,"lon":5.376487,"is_reserved":false,"is_disabled":false,"rental_uris":{"android":"levelo://app?vid=4088c6f3-d158-450d-a5d1-5141bf2507bb","ios":"levelo://app?vid=4088c6f3-d158-450d-a5d1-5141bf2507bb"},"vehicle_type_id":"4","last_reported":1705990224,"current_range_meters":31200,"station_id":"ce4bgv92rcd13ifvqcq0","pricing_plan_id":"free"},{"bike_id":"e1b4ba37-08ab-48cb-ae70-f2d4047c4238","system_id":"levelo_inurba_marseille","lat":43.317075,"lon":5.377367,"is_reserved":false,"is_disabled":false,"rental_uris":{"android":"levelo://app?vid=e1b4ba37-08ab-48cb-ae70-f2d4047c4238","ios":"levelo://app?vid=e1b4ba37-08ab-48cb-ae70-f2d4047c4238"},"vehicle_type_id":"4","last_reported":1705990224,"current_range_meters":18000,"station_id":"ce4bgth2rcd13ifvqch0","pricing_plan_id":"free"},{"bike_id":"3e56dc5f-4ea7-40c4-9c6a-5f07c8416939","system_id":"levelo_inurba_marseille","lat":43.317075,"lon":5.377367,"is_reserved":false,"is_disabled":false,"rental_uris":{"android":"levelo://app?vid=3e56dc5f-4ea7-40c4-9c6a-5f07c8416939","ios":"levelo://app?vid=3e56dc5f-4ea7-40c4-9c6a-5f07c8416939"},"vehicle_type_id":"4","last_reported":1705990224,"current_range_meters":27200,"station_id":"ce4bgth2rcd13ifvqch0","pricing_plan_id":"free"},{"bike_id":"9e9c933d-cdb9-40fa-89dc-fdbe9057ab8b","system_id":"levelo_inurba_marseille","lat":43.303046,"lon":5.368981,"is_reserved":false,"is_disabled":false,"rental_uris":{"android":"levelo://app?vid=9e9c933d-cdb9-40fa-89dc-fdbe9057ab8b","ios":"levelo://app?vid=9e9c933d-cdb9-40fa-89dc-fdbe9057ab8b"},"vehicle_type_id":"4","last_reported":1705990224,"current_range_meters":27600,"station_id":"ce4bgqh2rcd13ifvqc5g","pricing_plan_id":"free"},{"bike_id":"ab36abfb-5fa9-418f-b6d5-87258ee5ded9","system_id":"levelo_inurba_marseille","lat":43.315338,"lon":5.380288,"is_reserved":false,"is_disabled":false,"rental_uris":{"android":"levelo://app?vid=ab36abfb-5fa9-418f-b6d5-87258ee5ded9","ios":"levelo://app?vid=ab36abfb-5fa9-418f-b6d5-87258ee5ded9"},"vehicle_type_id":"4","last_reported":1705990224,"current_range_meters":6800,"station_id":"ce4bhsp2rcd13ifvqi50","pricing_plan_id":"free"},{"bike_id":"84341a88-fcb5-43ec-838b-3b236d43415a","system_id":"levelo_inurba_marseille","lat":43.315293,"lon":5.380349,"is_reserved":false,"is_disabled":false,"rental_uris":{"android":"levelo://app?vid=84341a88-fcb5-43ec-838b-3b236d43415a","ios":"levelo://app?vid=84341a88-fcb5-43ec-838b-3b236d43415a"},"vehicle_type_id":"4","last_reported":1705990224,"current_range_meters":12000,"station_id":"ce4bhsp2rcd13ifvqi50","pricing_plan_id":"free"},{"bike_id":"2d8a77ca-906f-4c67-92dc-25200a97f624","system_id":"levelo_inurba_marseille","lat":43.308012,"lon":5.381511,"is_reserved":false,"is_disabled":false,"rental_uris":{"android":"levelo://app?vid=2d8a77ca-906f-4c67-92dc-25200a97f624","ios":"levelo://app?vid=2d8a77ca-906f-4c67-92dc-25200a97f624"},"vehicle_type_id":"4","last_reported":1705990224,"current_range_meters":23600,"station_id":"ce4bgt12rcd13ifvqce0","pricing_plan_id":"free"},{"bike_id":"a09406a2-2af3-4bd8-8e70-f13ade10a8ff","system_id":"levelo_inurba_marseille","lat":43.308012,"lon":5.381511,"is_reserved":false,"is_disabled":false,"rental_uris":{"android":"levelo://app?vid=a09406a2-2af3-4bd8-8e70-f13ade10a8ff","ios":"levelo://app?vid=a09406a2-2af3-4bd8-8e70-f13ade10a8ff"},"vehicle_type_id":"4","last_reported":1705990224,"current_range_meters":31200,"station_id":"ce4bgt12rcd13ifvqce0","pricing_plan_id":"free"},{"bike_id":"25774854-f982-4631-8b07-b974d35f30ff","system_id":"levelo_inurba_marseille","lat":43.304606,"lon":5.379026,"is_reserved":false,"is_disabled":false,"rental_uris":{"android":"levelo://app?vid=25774854-f982-4631-8b07-b974d35f30ff","ios":"levelo://app?vid=25774854-f982-4631-8b07-b974d35f30ff"},"vehicle_type_id":"4","last_reported":1705990224,"current_range_meters":7600,"station_id":"ce4bgup2rcd13ifvqcn0","pricing_plan_id":"free"},{"bike_id":"f733c322-20f8-4c52-a10a-7120fd500249","system_id":"levelo_inurba_marseille","lat":43.304606,"lon":5.379026,"is_reserved":false,"is_disabled":false,"rental_uris":{"android":"levelo://app?vid=f733c322-20f8-4c52-a10a-7120fd500249","ios":"levelo://app?vid=f733c322-20f8-4c52-a10a-7120fd500249"},"vehicle_type_id":"4","last_reported":1705990224,"current_range_meters":28400,"station_id":"ce4bgup2rcd13ifvqcn0","pricing_plan_id":"free"},{"bike_id":"054d0c62-cc92-474d-b0be-c4c1192d25eb","system_id":"levelo_inurba_marseille","lat":43.304606,"lon":5.379026,"is_reserved":false,"is_disabled":false,"rental_uris":{"android":"levelo://app?vid=054d0c62-cc92-474d-b0be-c4c1192d25eb","ios":"levelo://app?vid=054d0c62-cc92-474d-b0be-c4c1192d25eb"},"vehicle_type_id":"4","last_reported":1705990224,"current_range_meters":15600,"station_id":"ce4bgup2rcd13ifvqcn0","pricing_plan_id":"free"},{"bike_id":"31a00991-c465-4701-b44a-ef3ea8764c98","system_id":"levelo_inurba_marseille","lat":43.304606,"lon":5.379026,"is_reserved":false,"is_disabled":false,"rental_uris":{"android":"levelo://app?vid=31a00991-c465-4701-b44a-ef3ea8764c98","ios":"levelo://app?vid=31a00991-c465-4701-b44a-ef3ea8764c98"},"vehicle_type_id":"4","last_reported":1705990224,"current_range_meters":13200,"station_id":"ce4bgup2rcd13ifvqcn0","pricing_plan_id":"free"},{"bike_id":"74aa4181-0a00-4c4d-b19f-797a651237d9","system_id":"levelo_inurba_marseille","lat":43.304606,"lon":5.379026,"is_reserved":false,"is_disabled":false,"rental_uris":{"android":"levelo://app?vid=74aa4181-0a00-4c4d-b19f-797a651237d9","ios":"levelo://app?vid=74aa4181-0a00-4c4d-b19f-797a651237d9"},"vehicle_type_id":"4","last_reported":1705990224,"current_range_meters":31600,"station_id":"ce4bgup2rcd13ifvqcn0","pricing_plan_id":"free"},{"bike_id":"ef4363b8-15e2-4772-9fc6-65a8a440785b","system_id":"levelo_inurba_marseille","lat":43.304606,"lon":5.379026,"is_reserved":false,"is_disabled":false,"rental_uris":{"android":"levelo://app?vid=ef4363b8-15e2-4772-9fc6-65a8a440785b","ios":"levelo://app?vid=ef4363b8-15e2-4772-9fc6-65a8a440785b"},"vehicle_type_id":"4","last_reported":1705990224,"current_range_meters":12000,"station_id":"ce4bgup2rcd13ifvqcn0","pricing_plan_id":"free"},{"bike_id":"731f66f2-338e-4bec-9fb7-778442477c61","system_id":"levelo_inurba_marseille","lat":43.304606,"lon":5.379026,"is_reserved":false,"is_disabled":false,"rental_uris":{"android":"levelo://app?vid=731f66f2-338e-4bec-9fb7-778442477c61","ios":"levelo://app?vid=731f66f2-338e-4bec-9fb7-778442477c61"},"vehicle_type_id":"4","last_reported":1705990224,"current_range_meters":20400,"station_id":"ce4bgup2rcd13ifvqcn0","pricing_plan_id":"free"},{"bike_id":"bf5b7d61-4547-43ae-943f-6895ae346001","system_id":"levelo_inurba_marseille","lat":43.304606,"lon":5.379026,"is_reserved":false,"is_disabled":false,"rental_uris":{"android":"levelo://app?vid=bf5b7d61-4547-43ae-943f-6895ae346001","ios":"levelo://app?vid=bf5b7d61-4547-43ae-943f-6895ae346001"},"vehicle_type_id":"4","last_reported":1705990224,"current_range_meters":26800,"station_id":"ce4bgup2rcd13ifvqcn0","pricing_plan_id":"free"},{"bike_id":"bd007871-7bd0-4320-a47e-d319a4abf7f3","system_id":"levelo_inurba_marseille","lat":43.304606,"lon":5.379026,"is_reserved":false,"is_disabled":false,"rental_uris":{"android":"levelo://app?vid=bd007871-7bd0-4320-a47e-d319a4abf7f3","ios":"levelo://app?vid=bd007871-7bd0-4320-a47e-d319a4abf7f3"},"vehicle_type_id":"4","last_reported":1705990224,"current_range_meters":29600,"station_id":"ce4bgup2rcd13ifvqcn0","pricing_plan_id":"free"},{"bike_id":"d8c71a04-03ef-4e10-bd4d-a8067a14f5b9","system_id":"levelo_inurba_marseille","lat":43.304606,"lon":5.379026,"is_reserved":false,"is_disabled":false,"rental_uris":{"android":"levelo://app?vid=d8c71a04-03ef-4e10-bd4d-a8067a14f5b9","ios":"levelo://app?vid=d8c71a04-03ef-4e10-bd4d-a8067a14f5b9"},"vehicle_type_id":"4","last_reported":1705990224,"current_range_meters":30400,"station_id":"ce4bgup2rcd13ifvqcn0","pricing_plan_id":"free"},{"bike_id":"70e45c56-4c67-470f-85b3-ded887258d5a","system_id":"levelo_inurba_marseille","lat":43.304606,"lon":5.379026,"is_reserved":false,"is_disabled":false,"rental_uris":{"android":"levelo://app?vid=70e45c56-4c67-470f-85b3-ded887258d5a","ios":"levelo://app?vid=70e45c56-4c67-470f-85b3-ded887258d5a"},"vehicle_type_id":"4","last_reported":1705990224,"current_range_meters":6000,"station_id":"ce4bgup2rcd13ifvqcn0","pricing_plan_id":"free"},{"bike_id":"723c0cde-a91b-4c84-87e3-9dbab07982d8","system_id":"levelo_inurba_marseille","lat":43.304606,"lon":5.379026,"is_reserved":false,"is_disabled":false,"rental_uris":{"android":"levelo://app?vid=723c0cde-a91b-4c84-87e3-9dbab07982d8","ios":"levelo://app?vid=723c0cde-a91b-4c84-87e3-9dbab07982d8"},"vehicle_type_id":"4","last_reported":1705990224,"current_range_meters":30800,"station_id":"ce4bgup2rcd13ifvqcn0","pricing_plan_id":"free"},{"bike_id":"65b17776-94ed-46da-9bd3-2605a0fa7763","system_id":"levelo_inurba_marseille","lat":43.304606,"lon":5.379026,"is_reserved":false,"is_disabled":false,"rental_uris":{"android":"levelo://app?vid=65b17776-94ed-46da-9bd3-2605a0fa7763","ios":"levelo://app?vid=65b17776-94ed-46da-9bd3-2605a0fa7763"},"vehicle_type_id":"4","last_reported":1705990224,"current_range_meters":28800,"station_id":"ce4bgup2rcd13ifvqcn0","pricing_plan_id":"free"},{"bike_id":"d556d060-c4bb-4cf7-8aa2-ace44777b3d2","system_id":"levelo_inurba_marseille","lat":43.304606,"lon":5.379026,"is_reserved":false,"is_disabled":false,"rental_uris":{"android":"levelo://app?vid=d556d060-c4bb-4cf7-8aa2-ace44777b3d2","ios":"levelo://app?vid=d556d060-c4bb-4cf7-8aa2-ace44777b3d2"},"vehicle_type_id":"4","last_reported":1705990224,"current_range_meters":7600,"station_id":"ce4bgup2rcd13ifvqcn0","pricing_plan_id":"free"},{"bike_id":"87478fc2-fbc3-47c1-90ff-1d4ec9f4f718","system_id":"levelo_inurba_marseille","lat":43.324771,"lon":5.36557,"is_reserved":false,"is_disabled":false,"rental_uris":{"android":"levelo://app?vid=87478fc2-fbc3-47c1-90ff-1d4ec9f4f718","ios":"levelo://app?vid=87478fc2-fbc3-47c1-90ff-1d4ec9f4f718"},"vehicle_type_id":"4","last_reported":1705990224,"current_range_meters":29200,"station_id":"ce4bhs12rcd13ifvqhvg","pricing_plan_id":"free"},{"bike_id":"603f1217-9350-4f39-b257-bdc4d9f38a2b","system_id":"levelo_inurba_marseille","lat":43.324771,"lon":5.36557,"is_reserved":false,"is_disabled":false,"rental_uris":{"android":"levelo://app?vid=603f1217-9350-4f39-b257-bdc4d9f38a2b","ios":"levelo://app?vid=603f1217-9350-4f39-b257-bdc4d9f38a2b"},"vehicle_type_id":"4","last_reported":1705990224,"current_range_meters":21200,"station_id":"ce4bhs12rcd13ifvqhvg","pricing_plan_id":"free"},{"bike_id":"04340357-b7de-47d9-9c21-c05f5064ddef","system_id":"levelo_inurba_marseille","lat":43.324771,"lon":5.36557,"is_reserved":false,"is_disabled":false,"rental_uris":{"android":"levelo://app?vid=04340357-b7de-47d9-9c21-c05f5064ddef","ios":"levelo://app?vid=04340357-b7de-47d9-9c21-c05f5064ddef"},"vehicle_type_id":"4","last_reported":1705990224,"current_range_meters":4000,"station_id":"ce4bhs12rcd13ifvqhvg","pricing_plan_id":"free"},{"bike_id":"7b8a5220-7abb-407c-a997-b030c55e0e09","system_id":"levelo_inurba_marseille","lat":43.30288,"lon":5.37688,"is_reserved":false,"is_disabled":false,"rental_uris":{"android":"levelo://app?vid=7b8a5220-7abb-407c-a997-b030c55e0e09","ios":"levelo://app?vid=7b8a5220-7abb-407c-a997-b030c55e0e09"},"vehicle_type_id":"4","last_reported":1705990224,"current_range_meters":26400,"station_id":"ce4bguh2rcd13ifvqcj0","pricing_plan_id":"free"},{"bike_id":"58675aee-02e4-4a50-a48f-3fc4c3327eb8","system_id":"levelo_inurba_marseille","lat":43.30278,"lon":5.376921,"is_reserved":false,"is_disabled":false,"rental_uris":{"android":"levelo://app?vid=58675aee-02e4-4a50-a48f-3fc4c3327eb8","ios":"levelo://app?vid=58675aee-02e4-4a50-a48f-3fc4c3327eb8"},"vehicle_type_id":"4","last_reported":1705990224,"current_range_meters":400,"station_id":"ce4bguh2rcd13ifvqcj0","pricing_plan_id":"free"},{"bike_id":"17cc0502-c457-497c-934c-0fc18c7a92a4","system_id":"levelo_inurba_marseille","lat":43.302784,"lon":5.377158,"is_reserved":false,"is_disabled":false,"rental_uris":{"android":"levelo://app?vid=17cc0502-c457-497c-934c-0fc18c7a92a4","ios":"levelo://app?vid=17cc0502-c457-497c-934c-0fc18c7a92a4"},"vehicle_type_id":"4","last_reported":1705990224,"current_range_meters":12800,"station_id":"ce4bguh2rcd13ifvqcj0","pricing_plan_id":"free"},{"bike_id":"af303784-6384-4fe1-9c24-9921e7ef6d4c","system_id":"levelo_inurba_marseille","lat":43.302784,"lon":5.377158,"is_reserved":false,"is_disabled":false,"rental_uris":{"android":"levelo://app?vid=af303784-6384-4fe1-9c24-9921e7ef6d4c","ios":"levelo://app?vid=af303784-6384-4fe1-9c24-9921e7ef6d4c"},"vehicle_type_id":"4","last_reported":1705990224,"current_range_meters":8800,"station_id":"ce4bguh2rcd13ifvqcj0","pricing_plan_id":"free"},{"bike_id":"2c7327fb-2c07-4a7c-bc89-dd7f6ead3891","system_id":"levelo_inurba_marseille","lat":43.302784,"lon":5.377158,"is_reserved":false,"is_disabled":false,"rental_uris":{"android":"levelo://app?vid=2c7327fb-2c07-4a7c-bc89-dd7f6ead3891","ios":"levelo://app?vid=2c7327fb-2c07-4a7c-bc89-dd7f6ead3891"},"vehicle_type_id":"4","last_reported":1705990224,"current_range_meters":16000,"station_id":"ce4bguh2rcd13ifvqcj0","pricing_plan_id":"free"},{"bike_id":"4138e17a-2b06-4fa0-b6c2-16ccdadf1dee","system_id":"levelo_inurba_marseille","lat":43.301429,"lon":5.37413,"is_reserved":false,"is_disabled":false,"rental_uris":{"android":"levelo://app?vid=4138e17a-2b06-4fa0-b6c2-16ccdadf1dee","ios":"levelo://app?vid=4138e17a-2b06-4fa0-b6c2-16ccdadf1dee"},"vehicle_type_id":"4","last_reported":1705990224,"current_range_meters":25200,"station_id":"ce4bgs92rcd13ifvqcc0","pricing_plan_id":"free"},{"bike_id":"41a3b242-96f8-40a9-baa0-95ffc3efa267","system_id":"levelo_inurba_marseille","lat":43.30143,"lon":5.37413,"is_reserved":false,"is_disabled":false,"rental_uris":{"android":"levelo://app?vid=41a3b242-96f8-40a9-baa0-95ffc3efa267","ios":"levelo://app?vid=41a3b242-96f8-40a9-baa0-95ffc3efa267"},"vehicle_type_id":"4","last_reported":1705990224,"current_range_meters":29600,"station_id":"ce4bgs92rcd13ifvqcc0","pricing_plan_id":"free"},{"bike_id":"561f076d-3df3-4d02-9047-b6e6e2285526","system_id":"levelo_inurba_marseille","lat":43.30143,"lon":5.37413,"is_reserved":false,"is_disabled":false,"rental_uris":{"android":"levelo://app?vid=561f076d-3df3-4d02-9047-b6e6e2285526","ios":"levelo://app?vid=561f076d-3df3-4d02-9047-b6e6e2285526"},"vehicle_type_id":"4","last_reported":1705990224,"current_range_meters":31200,"station_id":"ce4bgs92rcd13ifvqcc0","pricing_plan_id":"free"},{"bike_id":"06c6a0e8-9fc9-4cd4-a1d9-3a103d1e1fe1","system_id":"levelo_inurba_marseille","lat":43.319935,"lon":5.381699,"is_reserved":false,"is_disabled":false,"rental_uris":{"android":"levelo://app?vid=06c6a0e8-9fc9-4cd4-a1d9-3a103d1e1fe1","ios":"levelo://app?vid=06c6a0e8-9fc9-4cd4-a1d9-3a103d1e1fe1"},"vehicle_type_id":"4","last_reported":1705990224,"current_range_meters":12400,"station_id":"ce4bhr12rcd13ifvqhpg","pricing_plan_id":"free"},{"bike_id":"80151102-94f6-4718-b770-9c657f000af1","system_id":"levelo_inurba_marseille","lat":43.319935,"lon":5.381699,"is_reserved":false,"is_disabled":false,"rental_uris":{"android":"levelo://app?vid=80151102-94f6-4718-b770-9c657f000af1","ios":"levelo://app?vid=80151102-94f6-4718-b770-9c657f000af1"},"vehicle_type_id":"4","last_reported":1705990224,"current_range_meters":22000,"station_id":"ce4bhr12rcd13ifvqhpg","pricing_plan_id":"free"},{"bike_id":"3fb42323-42ae-4e8f-9257-228ce5e54392","system_id":"levelo_inurba_marseille","lat":43.319935,"lon":5.381699,"is_reserved":false,"is_disabled":false,"rental_uris":{"android":"levelo://app?vid=3fb42323-42ae-4e8f-9257-228ce5e54392","ios":"levelo://app?vid=3fb42323-42ae-4e8f-9257-228ce5e54392"},"vehicle_type_id":"4","last_reported":1705990224,"current_range_meters":9600,"station_id":"ce4bhr12rcd13ifvqhpg","pricing_plan_id":"free"},{"bike_id":"fd388e30-6c90-4fbf-abdf-dd15ef425659","system_id":"levelo_inurba_marseille","lat":43.31996,"lon":5.38147,"is_reserved":false,"is_disabled":false,"rental_uris":{"android":"levelo://app?vid=fd388e30-6c90-4fbf-abdf-dd15ef425659","ios":"levelo://app?vid=fd388e30-6c90-4fbf-abdf-dd15ef425659"},"vehicle_type_id":"4","last_reported":1705990224,"current_range_meters":23200,"station_id":"ce4bhr12rcd13ifvqhpg","pricing_plan_id":"free"},{"bike_id":"5089c761-c622-44d7-ba8f-cc79de596156","system_id":"levelo_inurba_marseille","lat":43.319935,"lon":5.381699,"is_reserved":false,"is_disabled":false,"rental_uris":{"android":"levelo://app?vid=5089c761-c622-44d7-ba8f-cc79de596156","ios":"levelo://app?vid=5089c761-c622-44d7-ba8f-cc79de596156"},"vehicle_type_id":"4","last_reported":1705990224,"current_range_meters":19200,"station_id":"ce4bhr12rcd13ifvqhpg","pricing_plan_id":"free"},{"bike_id":"e113d1c9-da08-4be0-8879-80169af1faf2","system_id":"levelo_inurba_marseille","lat":43.319956,"lon":5.381518,"is_reserved":false,"is_disabled":false,"rental_uris":{"android":"levelo://app?vid=e113d1c9-da08-4be0-8879-80169af1faf2","ios":"levelo://app?vid=e113d1c9-da08-4be0-8879-80169af1faf2"},"vehicle_type_id":"4","last_reported":1705990224,"current_range_meters":19200,"station_id":"ce4bhr12rcd13ifvqhpg","pricing_plan_id":"free"},{"bike_id":"5dea0a61-e9d0-47a8-943b-2d1f36a0d2ed","system_id":"levelo_inurba_marseille","lat":43.319935,"lon":5.381699,"is_reserved":false,"is_disabled":false,"rental_uris":{"android":"levelo://app?vid=5dea0a61-e9d0-47a8-943b-2d1f36a0d2ed","ios":"levelo://app?vid=5dea0a61-e9d0-47a8-943b-2d1f36a0d2ed"},"vehicle_type_id":"4","last_reported":1705990224,"current_range_meters":17600,"station_id":"ce4bhr12rcd13ifvqhpg","pricing_plan_id":"free"},{"bike_id":"45f16985-5dbf-4c42-8a7b-c2a98cbaf9c6","system_id":"levelo_inurba_marseille","lat":43.319935,"lon":5.381699,"is_reserved":false,"is_disabled":false,"rental_uris":{"android":"levelo://app?vid=45f16985-5dbf-4c42-8a7b-c2a98cbaf9c6","ios":"levelo://app?vid=45f16985-5dbf-4c42-8a7b-c2a98cbaf9c6"},"vehicle_type_id":"4","last_reported":1705990224,"current_range_meters":6000,"station_id":"ce4bhr12rcd13ifvqhpg","pricing_plan_id":"free"},{"bike_id":"89784ae0-3df5-4c6d-8bcd-f93d30003d3c","system_id":"levelo_inurba_marseille","lat":43.319935,"lon":5.381699,"is_reserved":false,"is_disabled":false,"rental_uris":{"android":"levelo://app?vid=89784ae0-3df5-4c6d-8bcd-f93d30003d3c","ios":"levelo://app?vid=89784ae0-3df5-4c6d-8bcd-f93d30003d3c"},"vehicle_type_id":"4","last_reported":1705990224,"current_range_meters":8800,"station_id":"ce4bhr12rcd13ifvqhpg","pricing_plan_id":"free"},{"bike_id":"24c5e7af-c20b-4b72-a167-28ab45b95e7c","system_id":"levelo_inurba_marseille","lat":43.3137,"lon":5.384903,"is_reserved":false,"is_disabled":false,"rental_uris":{"android":"levelo://app?vid=24c5e7af-c20b-4b72-a167-28ab45b95e7c","ios":"levelo://app?vid=24c5e7af-c20b-4b72-a167-28ab45b95e7c"},"vehicle_type_id":"4","last_reported":1705990224,"current_range_meters":4000,"station_id":"ce4bgt92rcd13ifvqcf0","pricing_plan_id":"free"},{"bike_id":"33ed264c-8c02-4dba-87ef-0cd23c87e63c","system_id":"levelo_inurba_marseille","lat":43.313702,"lon":5.384946,"is_reserved":false,"is_disabled":false,"rental_uris":{"android":"levelo://app?vid=33ed264c-8c02-4dba-87ef-0cd23c87e63c","ios":"levelo://app?vid=33ed264c-8c02-4dba-87ef-0cd23c87e63c"},"vehicle_type_id":"4","last_reported":1705990224,"current_range_meters":28400,"station_id":"ce4bgt92rcd13ifvqcf0","pricing_plan_id":"free"},{"bike_id":"e6e221d3-abf9-45ff-81cf-60fdfe5384a7","system_id":"levelo_inurba_marseille","lat":43.313716,"lon":5.384981,"is_reserved":false,"is_disabled":false,"rental_uris":{"android":"levelo://app?vid=e6e221d3-abf9-45ff-81cf-60fdfe5384a7","ios":"levelo://app?vid=e6e221d3-abf9-45ff-81cf-60fdfe5384a7"},"vehicle_type_id":"4","last_reported":1705990224,"current_range_meters":400,"station_id":"ce4bgt92rcd13ifvqcf0","pricing_plan_id":"free"},{"bike_id":"7a0751fd-2caf-4753-b767-9e1c9645824a","system_id":"levelo_inurba_marseille","lat":43.313626,"lon":5.384992,"is_reserved":false,"is_disabled":false,"rental_uris":{"android":"levelo://app?vid=7a0751fd-2caf-4753-b767-9e1c9645824a","ios":"levelo://app?vid=7a0751fd-2caf-4753-b767-9e1c9645824a"},"vehicle_type_id":"4","last_reported":1705990224,"current_range_meters":25200,"station_id":"ce4bgt92rcd13ifvqcf0","pricing_plan_id":"free"},{"bike_id":"5da48d6c-0992-49f9-9c74-ea1e1595d117","system_id":"levelo_inurba_marseille","lat":43.313715,"lon":5.384993,"is_reserved":false,"is_disabled":false,"rental_uris":{"android":"levelo://app?vid=5da48d6c-0992-49f9-9c74-ea1e1595d117","ios":"levelo://app?vid=5da48d6c-0992-49f9-9c74-ea1e1595d117"},"vehicle_type_id":"4","last_reported":1705990224,"current_range_meters":20800,"station_id":"ce4bgt92rcd13ifvqcf0","pricing_plan_id":"free"},{"bike_id":"9014089e-919f-4f55-afe5-03547a349fac","system_id":"levelo_inurba_marseille","lat":43.31365,"lon":5.38505,"is_reserved":false,"is_disabled":false,"rental_uris":{"android":"levelo://app?vid=9014089e-919f-4f55-afe5-03547a349fac","ios":"levelo://app?vid=9014089e-919f-4f55-afe5-03547a349fac"},"vehicle_type_id":"4","last_reported":1705990224,"current_range_meters":20400,"station_id":"ce4bgt92rcd13ifvqcf0","pricing_plan_id":"free"},{"bike_id":"07c02bd9-2442-4b16-affa-0bf7b675a6fd","system_id":"levelo_inurba_marseille","lat":43.299222,"lon":5.365554,"is_reserved":false,"is_disabled":false,"rental_uris":{"android":"levelo://app?vid=07c02bd9-2442-4b16-affa-0bf7b675a6fd","ios":"levelo://app?vid=07c02bd9-2442-4b16-affa-0bf7b675a6fd"},"vehicle_type_id":"4","last_reported":1705990224,"current_range_meters":19600,"station_id":"ce4bgm92rcd13ifvqbr0","pricing_plan_id":"free"},{"bike_id":"0ccf23a2-fb73-4ab9-9b6f-b2f168c2ae93","system_id":"levelo_inurba_marseille","lat":43.298433,"lon":5.362774,"is_reserved":false,"is_disabled":false,"rental_uris":{"android":"levelo://app?vid=0ccf23a2-fb73-4ab9-9b6f-b2f168c2ae93","ios":"levelo://app?vid=0ccf23a2-fb73-4ab9-9b6f-b2f168c2ae93"},"vehicle_type_id":"4","last_reported":1705990224,"current_range_meters":24000,"station_id":"ce4bgpp2rcd13ifvqc3g","pricing_plan_id":"free"},{"bike_id":"c4f93199-fed8-40ab-9367-6c1ebce1f9e5","system_id":"levelo_inurba_marseille","lat":43.305364,"lon":5.384119,"is_reserved":false,"is_disabled":false,"rental_uris":{"android":"levelo://app?vid=c4f93199-fed8-40ab-9367-6c1ebce1f9e5","ios":"levelo://app?vid=c4f93199-fed8-40ab-9367-6c1ebce1f9e5"},"vehicle_type_id":"4","last_reported":1705990224,"current_range_meters":23600,"station_id":"ce4bgg92rcd13ifvqb30","pricing_plan_id":"free"},{"bike_id":"25cf9226-f382-47b4-8fc9-a3177014efb8","system_id":"levelo_inurba_marseille","lat":43.311722,"lon":5.387247,"is_reserved":false,"is_disabled":false,"rental_uris":{"android":"levelo://app?vid=25cf9226-f382-47b4-8fc9-a3177014efb8","ios":"levelo://app?vid=25cf9226-f382-47b4-8fc9-a3177014efb8"},"vehicle_type_id":"4","last_reported":1705990224,"current_range_meters":8400,"station_id":"ce4bgv12rcd13ifvqcp0","pricing_plan_id":"free"},{"bike_id":"70792a1d-c0e3-4359-96bd-482c0f0ea0ef","system_id":"levelo_inurba_marseille","lat":43.311812,"lon":5.387095,"is_reserved":false,"is_disabled":false,"rental_uris":{"android":"levelo://app?vid=70792a1d-c0e3-4359-96bd-482c0f0ea0ef","ios":"levelo://app?vid=70792a1d-c0e3-4359-96bd-482c0f0ea0ef"},"vehicle_type_id":"4","last_reported":1705990224,"current_range_meters":11600,"station_id":"ce4bgv12rcd13ifvqcp0","pricing_plan_id":"free"},{"bike_id":"4beee130-a7a9-4a96-a08e-fb9aad73c8e7","system_id":"levelo_inurba_marseille","lat":43.299243,"lon":5.37481,"is_reserved":false,"is_disabled":false,"rental_uris":{"android":"levelo://app?vid=4beee130-a7a9-4a96-a08e-fb9aad73c8e7","ios":"levelo://app?vid=4beee130-a7a9-4a96-a08e-fb9aad73c8e7"},"vehicle_type_id":"4","last_reported":1705990224,"current_range_meters":30800,"station_id":"ce4bgjh2rcd13ifvqbg0","pricing_plan_id":"free"},{"bike_id":"5c32db99-eae0-434b-b173-92acb2ae6beb","system_id":"levelo_inurba_marseille","lat":43.311722,"lon":5.387247,"is_reserved":false,"is_disabled":false,"rental_uris":{"android":"levelo://app?vid=5c32db99-eae0-434b-b173-92acb2ae6beb","ios":"levelo://app?vid=5c32db99-eae0-434b-b173-92acb2ae6beb"},"vehicle_type_id":"4","last_reported":1705990224,"current_range_meters":21600,"station_id":"ce4bgv12rcd13ifvqcp0","pricing_plan_id":"free"},{"bike_id":"1b0fa554-ab5c-4006-ac69-441ed8943a11","system_id":"levelo_inurba_marseille","lat":43.311722,"lon":5.387247,"is_reserved":false,"is_disabled":false,"rental_uris":{"android":"levelo://app?vid=1b0fa554-ab5c-4006-ac69-441ed8943a11","ios":"levelo://app?vid=1b0fa554-ab5c-4006-ac69-441ed8943a11"},"vehicle_type_id":"4","last_reported":1705990224,"current_range_meters":26400,"station_id":"ce4bgv12rcd13ifvqcp0","pricing_plan_id":"free"},{"bike_id":"52774181-19c3-4858-a16a-2f41bf9955a8","system_id":"levelo_inurba_marseille","lat":43.311722,"lon":5.387247,"is_reserved":false,"is_disabled":false,"rental_uris":{"android":"levelo://app?vid=52774181-19c3-4858-a16a-2f41bf9955a8","ios":"levelo://app?vid=52774181-19c3-4858-a16a-2f41bf9955a8"},"vehicle_type_id":"4","last_reported":1705990224,"current_range_meters":21200,"station_id":"ce4bgv12rcd13ifvqcp0","pricing_plan_id":"free"},{"bike_id":"65d75535-6c20-486c-af35-c9c71668c0a5","system_id":"levelo_inurba_marseille","lat":43.297794,"lon":5.370888,"is_reserved":false,"is_disabled":false,"rental_uris":{"android":"levelo://app?vid=65d75535-6c20-486c-af35-c9c71668c0a5","ios":"levelo://app?vid=65d75535-6c20-486c-af35-c9c71668c0a5"},"vehicle_type_id":"4","last_reported":1705990224,"current_range_meters":28400,"station_id":"ce4bgop2rcd13ifvqc1g","pricing_plan_id":"free"},{"bike_id":"ce7380a6-9e0a-44a5-99cf-b6d0d9568202","system_id":"levelo_inurba_marseille","lat":43.322872,"lon":5.382756,"is_reserved":false,"is_disabled":false,"rental_uris":{"android":"levelo://app?vid=ce7380a6-9e0a-44a5-99cf-b6d0d9568202","ios":"levelo://app?vid=ce7380a6-9e0a-44a5-99cf-b6d0d9568202"},"vehicle_type_id":"4","last_reported":1705990224,"current_range_meters":31200,"station_id":"ce4bhr12rcd13ifvqhqg","pricing_plan_id":"free"},{"bike_id":"1eb8e364-083e-4730-9593-9edf03b61104","system_id":"levelo_inurba_marseille","lat":43.32823,"lon":5.36677,"is_reserved":false,"is_disabled":false,"rental_uris":{"android":"levelo://app?vid=1eb8e364-083e-4730-9593-9edf03b61104","ios":"levelo://app?vid=1eb8e364-083e-4730-9593-9edf03b61104"},"vehicle_type_id":"4","last_reported":1705990224,"current_range_meters":19600,"station_id":"ce4bhs92rcd13ifvqi0g","pricing_plan_id":"free"},{"bike_id":"b982bee1-d32f-45f2-a873-826a3328017e","system_id":"levelo_inurba_marseille","lat":43.32823,"lon":5.366759,"is_reserved":false,"is_disabled":false,"rental_uris":{"android":"levelo://app?vid=b982bee1-d32f-45f2-a873-826a3328017e","ios":"levelo://app?vid=b982bee1-d32f-45f2-a873-826a3328017e"},"vehicle_type_id":"4","last_reported":1705990224,"current_range_meters":20000,"station_id":"ce4bhs92rcd13ifvqi0g","pricing_plan_id":"free"},{"bike_id":"572c30ca-2698-4ebb-9720-28d9ee8291d9","system_id":"levelo_inurba_marseille","lat":43.328241,"lon":5.366768,"is_reserved":false,"is_disabled":false,"rental_uris":{"android":"levelo://app?vid=572c30ca-2698-4ebb-9720-28d9ee8291d9","ios":"levelo://app?vid=572c30ca-2698-4ebb-9720-28d9ee8291d9"},"vehicle_type_id":"4","last_reported":1705990224,"current_range_meters":20000,"station_id":"ce4bhs92rcd13ifvqi0g","pricing_plan_id":"free"},{"bike_id":"447532c0-56ca-46ac-9000-fea47d81b433","system_id":"levelo_inurba_marseille","lat":43.32825,"lon":5.366782,"is_reserved":false,"is_disabled":false,"rental_uris":{"android":"levelo://app?vid=447532c0-56ca-46ac-9000-fea47d81b433","ios":"levelo://app?vid=447532c0-56ca-46ac-9000-fea47d81b433"},"vehicle_type_id":"4","last_reported":1705990224,"current_range_meters":28400,"station_id":"ce4bhs92rcd13ifvqi0g","pricing_plan_id":"free"},{"bike_id":"73755ba0-1381-4d5d-8750-d3a07d3f4c75","system_id":"levelo_inurba_marseille","lat":43.328258,"lon":5.366746,"is_reserved":false,"is_disabled":false,"rental_uris":{"android":"levelo://app?vid=73755ba0-1381-4d5d-8750-d3a07d3f4c75","ios":"levelo://app?vid=73755ba0-1381-4d5d-8750-d3a07d3f4c75"},"vehicle_type_id":"4","last_reported":1705990224,"current_range_meters":12000,"station_id":"ce4bhs92rcd13ifvqi0g","pricing_plan_id":"free"},{"bike_id":"ea0178f3-2c6b-4af6-b062-91b0b8dde1df","system_id":"levelo_inurba_marseille","lat":43.32828,"lon":5.366736,"is_reserved":false,"is_disabled":false,"rental_uris":{"android":"levelo://app?vid=ea0178f3-2c6b-4af6-b062-91b0b8dde1df","ios":"levelo://app?vid=ea0178f3-2c6b-4af6-b062-91b0b8dde1df"},"vehicle_type_id":"4","last_reported":1705990224,"current_range_meters":12000,"station_id":"ce4bhs92rcd13ifvqi0g","pricing_plan_id":"free"},{"bike_id":"6da9db5a-42ba-4fa8-afc9-4fdbb45498c1","system_id":"levelo_inurba_marseille","lat":43.328285,"lon":5.36673,"is_reserved":false,"is_disabled":false,"rental_uris":{"android":"levelo://app?vid=6da9db5a-42ba-4fa8-afc9-4fdbb45498c1","ios":"levelo://app?vid=6da9db5a-42ba-4fa8-afc9-4fdbb45498c1"},"vehicle_type_id":"4","last_reported":1705990224,"current_range_meters":20800,"station_id":"ce4bhs92rcd13ifvqi0g","pricing_plan_id":"free"},{"bike_id":"85cedcff-9e9a-415d-8415-195178ea3cb7","system_id":"levelo_inurba_marseille","lat":43.328289,"lon":5.366744,"is_reserved":false,"is_disabled":false,"rental_uris":{"android":"levelo://app?vid=85cedcff-9e9a-415d-8415-195178ea3cb7","ios":"levelo://app?vid=85cedcff-9e9a-415d-8415-195178ea3cb7"},"vehicle_type_id":"4","last_reported":1705990224,"current_range_meters":14000,"station_id":"ce4bhs92rcd13ifvqi0g","pricing_plan_id":"free"},{"bike_id":"b7487b7c-d0ce-4e51-b643-f0cf57cedccc","system_id":"levelo_inurba_marseille","lat":43.297163,"lon":5.365866,"is_reserved":false,"is_disabled":false,"rental_uris":{"android":"levelo://app?vid=b7487b7c-d0ce-4e51-b643-f0cf57cedccc","ios":"levelo://app?vid=b7487b7c-d0ce-4e51-b643-f0cf57cedccc"},"vehicle_type_id":"4","last_reported":1705990224,"current_range_meters":26000,"station_id":"ce4bgn12rcd13ifvqbt0","pricing_plan_id":"free"},{"bike_id":"38d4b3c6-c1c4-4ada-b0ed-8e6826ac2770","system_id":"levelo_inurba_marseille","lat":43.328371,"lon":5.366912,"is_reserved":false,"is_disabled":false,"rental_uris":{"android":"levelo://app?vid=38d4b3c6-c1c4-4ada-b0ed-8e6826ac2770","ios":"levelo://app?vid=38d4b3c6-c1c4-4ada-b0ed-8e6826ac2770"},"vehicle_type_id":"4","last_reported":1705990224,"current_range_meters":19200,"station_id":"ce4bhs92rcd13ifvqi0g","pricing_plan_id":"free"},{"bike_id":"d971af84-f55e-4f02-aa54-b2ecac82a0f2","system_id":"levelo_inurba_marseille","lat":43.328371,"lon":5.366909,"is_reserved":false,"is_disabled":false,"rental_uris":{"android":"levelo://app?vid=d971af84-f55e-4f02-aa54-b2ecac82a0f2","ios":"levelo://app?vid=d971af84-f55e-4f02-aa54-b2ecac82a0f2"},"vehicle_type_id":"4","last_reported":1705990224,"current_range_meters":8400,"station_id":"ce4bhs92rcd13ifvqi0g","pricing_plan_id":"free"},{"bike_id":"f529af8b-6eb5-4dad-b929-2be8fdbdd47b","system_id":"levelo_inurba_marseille","lat":43.328371,"lon":5.366909,"is_reserved":false,"is_disabled":false,"rental_uris":{"android":"levelo://app?vid=f529af8b-6eb5-4dad-b929-2be8fdbdd47b","ios":"levelo://app?vid=f529af8b-6eb5-4dad-b929-2be8fdbdd47b"},"vehicle_type_id":"4","last_reported":1705990224,"current_range_meters":9600,"station_id":"ce4bhs92rcd13ifvqi0g","pricing_plan_id":"free"},{"bike_id":"8e2e258c-9f25-408c-8291-bf6e5ba33180","system_id":"levelo_inurba_marseille","lat":43.328371,"lon":5.366909,"is_reserved":false,"is_disabled":false,"rental_uris":{"android":"levelo://app?vid=8e2e258c-9f25-408c-8291-bf6e5ba33180","ios":"levelo://app?vid=8e2e258c-9f25-408c-8291-bf6e5ba33180"},"vehicle_type_id":"4","last_reported":1705990224,"current_range_meters":30000,"station_id":"ce4bhs92rcd13ifvqi0g","pricing_plan_id":"free"},{"bike_id":"d8b5260c-205c-4300-9784-22ead2fde86f","system_id":"levelo_inurba_marseille","lat":43.328371,"lon":5.366909,"is_reserved":false,"is_disabled":false,"rental_uris":{"android":"levelo://app?vid=d8b5260c-205c-4300-9784-22ead2fde86f","ios":"levelo://app?vid=d8b5260c-205c-4300-9784-22ead2fde86f"},"vehicle_type_id":"4","last_reported":1705990224,"current_range_meters":20800,"station_id":"ce4bhs92rcd13ifvqi0g","pricing_plan_id":"free"},{"bike_id":"ce25d3b4-a15b-4708-aaa0-fbf5f986437b","system_id":"levelo_inurba_marseille","lat":43.328371,"lon":5.366909,"is_reserved":false,"is_disabled":false,"rental_uris":{"android":"levelo://app?vid=ce25d3b4-a15b-4708-aaa0-fbf5f986437b","ios":"levelo://app?vid=ce25d3b4-a15b-4708-aaa0-fbf5f986437b"},"vehicle_type_id":"4","last_reported":1705990224,"current_range_meters":28000,"station_id":"ce4bhs92rcd13ifvqi0g","pricing_plan_id":"free"},{"bike_id":"e92d083a-dfb9-464f-a2d7-ffc480709cb3","system_id":"levelo_inurba_marseille","lat":43.328371,"lon":5.366912,"is_reserved":false,"is_disabled":false,"rental_uris":{"android":"levelo://app?vid=e92d083a-dfb9-464f-a2d7-ffc480709cb3","ios":"levelo://app?vid=e92d083a-dfb9-464f-a2d7-ffc480709cb3"},"vehicle_type_id":"4","last_reported":1705990224,"current_range_meters":15600,"station_id":"ce4bhs92rcd13ifvqi0g","pricing_plan_id":"free"},{"bike_id":"204738f6-469d-4db3-bd14-c2b38ef5e726","system_id":"levelo_inurba_marseille","lat":43.328371,"lon":5.366912,"is_reserved":false,"is_disabled":false,"rental_uris":{"android":"levelo://app?vid=204738f6-469d-4db3-bd14-c2b38ef5e726","ios":"levelo://app?vid=204738f6-469d-4db3-bd14-c2b38ef5e726"},"vehicle_type_id":"4","last_reported":1705990224,"current_range_meters":26000,"station_id":"ce4bhs92rcd13ifvqi0g","pricing_plan_id":"free"},{"bike_id":"5b7aaccd-f0dd-4bc4-a5b7-1581df3aca1d","system_id":"levelo_inurba_marseille","lat":43.328371,"lon":5.366909,"is_reserved":false,"is_disabled":false,"rental_uris":{"android":"levelo://app?vid=5b7aaccd-f0dd-4bc4-a5b7-1581df3aca1d","ios":"levelo://app?vid=5b7aaccd-f0dd-4bc4-a5b7-1581df3aca1d"},"vehicle_type_id":"4","last_reported":1705990224,"current_range_meters":17200,"station_id":"ce4bhs92rcd13ifvqi0g","pricing_plan_id":"free"},{"bike_id":"38082c03-fac1-44d3-a79f-5142b4a113a9","system_id":"levelo_inurba_marseille","lat":43.328373,"lon":5.366902,"is_reserved":false,"is_disabled":false,"rental_uris":{"android":"levelo://app?vid=38082c03-fac1-44d3-a79f-5142b4a113a9","ios":"levelo://app?vid=38082c03-fac1-44d3-a79f-5142b4a113a9"},"vehicle_type_id":"4","last_reported":1705990224,"current_range_meters":15200,"station_id":"ce4bhs92rcd13ifvqi0g","pricing_plan_id":"free"},{"bike_id":"c2f8d07a-6e69-4af2-9e7a-94531e33b994","system_id":"levelo_inurba_marseille","lat":43.297163,"lon":5.365866,"is_reserved":false,"is_disabled":false,"rental_uris":{"android":"levelo://app?vid=c2f8d07a-6e69-4af2-9e7a-94531e33b994","ios":"levelo://app?vid=c2f8d07a-6e69-4af2-9e7a-94531e33b994"},"vehicle_type_id":"4","last_reported":1705990224,"current_range_meters":28000,"station_id":"ce4bgn12rcd13ifvqbt0","pricing_plan_id":"free"},{"bike_id":"79d2d98a-29f2-4ffd-ae01-bfd8a1fa05d5","system_id":"levelo_inurba_marseille","lat":43.328371,"lon":5.366912,"is_reserved":false,"is_disabled":false,"rental_uris":{"android":"levelo://app?vid=79d2d98a-29f2-4ffd-ae01-bfd8a1fa05d5","ios":"levelo://app?vid=79d2d98a-29f2-4ffd-ae01-bfd8a1fa05d5"},"vehicle_type_id":"4","last_reported":1705990224,"current_range_meters":4800,"station_id":"ce4bhs92rcd13ifvqi0g","pricing_plan_id":"free"},{"bike_id":"fc7fd55a-6c22-4485-89db-0e2b0916e9d6","system_id":"levelo_inurba_marseille","lat":43.2968,"lon":5.37291,"is_reserved":false,"is_disabled":false,"rental_uris":{"android":"levelo://app?vid=fc7fd55a-6c22-4485-89db-0e2b0916e9d6","ios":"levelo://app?vid=fc7fd55a-6c22-4485-89db-0e2b0916e9d6"},"vehicle_type_id":"4","last_reported":1705990224,"current_range_meters":26000,"station_id":"ce4bgk12rcd13ifvqbj0","pricing_plan_id":"free"},{"bike_id":"4641597c-f482-4b3b-8af3-68b0cf142bab","system_id":"levelo_inurba_marseille","lat":43.295906,"lon":5.367875,"is_reserved":false,"is_disabled":false,"rental_uris":{"android":"levelo://app?vid=4641597c-f482-4b3b-8af3-68b0cf142bab","ios":"levelo://app?vid=4641597c-f482-4b3b-8af3-68b0cf142bab"},"vehicle_type_id":"4","last_reported":1705990224,"current_range_meters":19200,"station_id":"ce4bgph2rcd13ifvqc2g","pricing_plan_id":"free"},{"bike_id":"b81f0764-f95a-4dbf-8351-f7716088fe4a","system_id":"levelo_inurba_marseille","lat":43.296921,"lon":5.376579,"is_reserved":false,"is_disabled":false,"rental_uris":{"android":"levelo://app?vid=b81f0764-f95a-4dbf-8351-f7716088fe4a","ios":"levelo://app?vid=b81f0764-f95a-4dbf-8351-f7716088fe4a"},"vehicle_type_id":"4","last_reported":1705990224,"current_range_meters":26800,"station_id":"ce4bgkh2rcd13ifvqbl0","pricing_plan_id":"free"},{"bike_id":"2e168df5-09b6-4714-8d6a-ca0b63070320","system_id":"levelo_inurba_marseille","lat":43.296935,"lon":5.376544,"is_reserved":false,"is_disabled":false,"rental_uris":{"android":"levelo://app?vid=2e168df5-09b6-4714-8d6a-ca0b63070320","ios":"levelo://app?vid=2e168df5-09b6-4714-8d6a-ca0b63070320"},"vehicle_type_id":"4","last_reported":1705990224,"current_range_meters":28800,"station_id":"ce4bgkh2rcd13ifvqbl0","pricing_plan_id":"free"},{"bike_id":"8706b8ae-852e-4416-b627-42cb7e419745","system_id":"levelo_inurba_marseille","lat":43.299028,"lon":5.381509,"is_reserved":false,"is_disabled":false,"rental_uris":{"android":"levelo://app?vid=8706b8ae-852e-4416-b627-42cb7e419745","ios":"levelo://app?vid=8706b8ae-852e-4416-b627-42cb7e419745"},"vehicle_type_id":"4","last_reported":1705990224,"current_range_meters":27600,"station_id":"ce4bgj12rcd13ifvqbc0","pricing_plan_id":"free"},{"bike_id":"c109dd07-20d9-44a5-a0bb-83052e7f7b2d","system_id":"levelo_inurba_marseille","lat":43.299028,"lon":5.381509,"is_reserved":false,"is_disabled":false,"rental_uris":{"android":"levelo://app?vid=c109dd07-20d9-44a5-a0bb-83052e7f7b2d","ios":"levelo://app?vid=c109dd07-20d9-44a5-a0bb-83052e7f7b2d"},"vehicle_type_id":"4","last_reported":1705990224,"current_range_meters":25600,"station_id":"ce4bgj12rcd13ifvqbc0","pricing_plan_id":"free"},{"bike_id":"d6b4f35d-673f-4cfc-aef6-95f1bdff37af","system_id":"levelo_inurba_marseille","lat":43.299028,"lon":5.381509,"is_reserved":false,"is_disabled":false,"rental_uris":{"android":"levelo://app?vid=d6b4f35d-673f-4cfc-aef6-95f1bdff37af","ios":"levelo://app?vid=d6b4f35d-673f-4cfc-aef6-95f1bdff37af"},"vehicle_type_id":"4","last_reported":1705990224,"current_range_meters":31200,"station_id":"ce4bgj12rcd13ifvqbc0","pricing_plan_id":"free"},{"bike_id":"893a7244-1845-42f5-a63f-913aa034178b","system_id":"levelo_inurba_marseille","lat":43.299028,"lon":5.381509,"is_reserved":false,"is_disabled":false,"rental_uris":{"android":"levelo://app?vid=893a7244-1845-42f5-a63f-913aa034178b","ios":"levelo://app?vid=893a7244-1845-42f5-a63f-913aa034178b"},"vehicle_type_id":"4","last_reported":1705990224,"current_range_meters":31200,"station_id":"ce4bgj12rcd13ifvqbc0","pricing_plan_id":"free"},{"bike_id":"abf3a319-58da-485f-8a1b-eb3adc644493","system_id":"levelo_inurba_marseille","lat":43.299028,"lon":5.381509,"is_reserved":false,"is_disabled":false,"rental_uris":{"android":"levelo://app?vid=abf3a319-58da-485f-8a1b-eb3adc644493","ios":"levelo://app?vid=abf3a319-58da-485f-8a1b-eb3adc644493"},"vehicle_type_id":"4","last_reported":1705990224,"current_range_meters":27600,"station_id":"ce4bgj12rcd13ifvqbc0","pricing_plan_id":"free"},{"bike_id":"9a36a687-333e-4837-91c2-ad39dede7fb3","system_id":"levelo_inurba_marseille","lat":43.299028,"lon":5.381509,"is_reserved":false,"is_disabled":false,"rental_uris":{"android":"levelo://app?vid=9a36a687-333e-4837-91c2-ad39dede7fb3","ios":"levelo://app?vid=9a36a687-333e-4837-91c2-ad39dede7fb3"},"vehicle_type_id":"4","last_reported":1705990224,"current_range_meters":31200,"station_id":"ce4bgj12rcd13ifvqbc0","pricing_plan_id":"free"},{"bike_id":"58c1a297-316f-455a-843a-2e465e4c0cd5","system_id":"levelo_inurba_marseille","lat":43.299028,"lon":5.381509,"is_reserved":false,"is_disabled":false,"rental_uris":{"android":"levelo://app?vid=58c1a297-316f-455a-843a-2e465e4c0cd5","ios":"levelo://app?vid=58c1a297-316f-455a-843a-2e465e4c0cd5"},"vehicle_type_id":"4","last_reported":1705990224,"current_range_meters":24400,"station_id":"ce4bgj12rcd13ifvqbc0","pricing_plan_id":"free"},{"bike_id":"74942e98-27d5-4fa3-8947-2cdac08ac3bf","system_id":"levelo_inurba_marseille","lat":43.299028,"lon":5.381509,"is_reserved":false,"is_disabled":false,"rental_uris":{"android":"levelo://app?vid=74942e98-27d5-4fa3-8947-2cdac08ac3bf","ios":"levelo://app?vid=74942e98-27d5-4fa3-8947-2cdac08ac3bf"},"vehicle_type_id":"4","last_reported":1705990224,"current_range_meters":30400,"station_id":"ce4bgj12rcd13ifvqbc0","pricing_plan_id":"free"},{"bike_id":"28429971-e2d7-40f4-bb23-c5baa516f00b","system_id":"levelo_inurba_marseille","lat":43.299028,"lon":5.381509,"is_reserved":false,"is_disabled":false,"rental_uris":{"android":"levelo://app?vid=28429971-e2d7-40f4-bb23-c5baa516f00b","ios":"levelo://app?vid=28429971-e2d7-40f4-bb23-c5baa516f00b"},"vehicle_type_id":"4","last_reported":1705990224,"current_range_meters":31600,"station_id":"ce4bgj12rcd13ifvqbc0","pricing_plan_id":"free"},{"bike_id":"ee27c5dc-2679-4f08-b3b9-47b6dd89a9d6","system_id":"levelo_inurba_marseille","lat":43.309589,"lon":5.390258,"is_reserved":false,"is_disabled":false,"rental_uris":{"android":"levelo://app?vid=ee27c5dc-2679-4f08-b3b9-47b6dd89a9d6","ios":"levelo://app?vid=ee27c5dc-2679-4f08-b3b9-47b6dd89a9d6"},"vehicle_type_id":"4","last_reported":1705990224,"current_range_meters":30400,"station_id":"ce4bgup2rcd13ifvqco0","pricing_plan_id":"free"},{"bike_id":"77790d15-2740-41c3-af21-79e35827e3f0","system_id":"levelo_inurba_marseille","lat":43.299028,"lon":5.381509,"is_reserved":false,"is_disabled":false,"rental_uris":{"android":"levelo://app?vid=77790d15-2740-41c3-af21-79e35827e3f0","ios":"levelo://app?vid=77790d15-2740-41c3-af21-79e35827e3f0"},"vehicle_type_id":"4","last_reported":1705990224,"current_range_meters":30400,"station_id":"ce4bgj12rcd13ifvqbc0","pricing_plan_id":"free"},{"bike_id":"48979fdb-2c7a-408a-bbb6-48ab3baeb3f8","system_id":"levelo_inurba_marseille","lat":43.299036,"lon":5.381508,"is_reserved":false,"is_disabled":false,"rental_uris":{"android":"levelo://app?vid=48979fdb-2c7a-408a-bbb6-48ab3baeb3f8","ios":"levelo://app?vid=48979fdb-2c7a-408a-bbb6-48ab3baeb3f8"},"vehicle_type_id":"4","last_reported":1705990224,"current_range_meters":30000,"station_id":"ce4bgj12rcd13ifvqbc0","pricing_plan_id":"free"},{"bike_id":"f2db61d3-942f-44eb-94dd-187e80c4336f","system_id":"levelo_inurba_marseille","lat":43.309589,"lon":5.390258,"is_reserved":false,"is_disabled":false,"rental_uris":{"android":"levelo://app?vid=f2db61d3-942f-44eb-94dd-187e80c4336f","ios":"levelo://app?vid=f2db61d3-942f-44eb-94dd-187e80c4336f"},"vehicle_type_id":"4","last_reported":1705990224,"current_range_meters":9600,"station_id":"ce4bgup2rcd13ifvqco0","pricing_plan_id":"free"},{"bike_id":"f3c8de66-7ad2-4aea-acd7-5cc0c0f4675c","system_id":"levelo_inurba_marseille","lat":43.317557,"lon":5.390173,"is_reserved":false,"is_disabled":false,"rental_uris":{"android":"levelo://app?vid=f3c8de66-7ad2-4aea-acd7-5cc0c0f4675c","ios":"levelo://app?vid=f3c8de66-7ad2-4aea-acd7-5cc0c0f4675c"},"vehicle_type_id":"4","last_reported":1705990224,"current_range_meters":29200,"station_id":"ce4bhqp2rcd13ifvqhng","pricing_plan_id":"free"},{"bike_id":"e67feb8c-37c8-4273-b68c-76a37047730c","system_id":"levelo_inurba_marseille","lat":43.317557,"lon":5.390173,"is_reserved":false,"is_disabled":false,"rental_uris":{"android":"levelo://app?vid=e67feb8c-37c8-4273-b68c-76a37047730c","ios":"levelo://app?vid=e67feb8c-37c8-4273-b68c-76a37047730c"},"vehicle_type_id":"4","last_reported":1705990224,"current_range_meters":31600,"station_id":"ce4bhqp2rcd13ifvqhng","pricing_plan_id":"free"},{"bike_id":"205e53d9-a870-4fd0-9529-5b15eb242dea","system_id":"levelo_inurba_marseille","lat":43.317557,"lon":5.390173,"is_reserved":false,"is_disabled":false,"rental_uris":{"android":"levelo://app?vid=205e53d9-a870-4fd0-9529-5b15eb242dea","ios":"levelo://app?vid=205e53d9-a870-4fd0-9529-5b15eb242dea"},"vehicle_type_id":"4","last_reported":1705990224,"current_range_meters":2400,"station_id":"ce4bhqp2rcd13ifvqhng","pricing_plan_id":"free"},{"bike_id":"60f8e810-5a47-4358-afa3-8a87516f0d00","system_id":"levelo_inurba_marseille","lat":43.317557,"lon":5.390173,"is_reserved":false,"is_disabled":false,"rental_uris":{"android":"levelo://app?vid=60f8e810-5a47-4358-afa3-8a87516f0d00","ios":"levelo://app?vid=60f8e810-5a47-4358-afa3-8a87516f0d00"},"vehicle_type_id":"4","last_reported":1705990224,"current_range_meters":31600,"station_id":"ce4bhqp2rcd13ifvqhng","pricing_plan_id":"free"},{"bike_id":"2b5da60d-3f1d-4c41-9c8a-584482c25210","system_id":"levelo_inurba_marseille","lat":43.317557,"lon":5.390173,"is_reserved":false,"is_disabled":false,"rental_uris":{"android":"levelo://app?vid=2b5da60d-3f1d-4c41-9c8a-584482c25210","ios":"levelo://app?vid=2b5da60d-3f1d-4c41-9c8a-584482c25210"},"vehicle_type_id":"4","last_reported":1705990224,"current_range_meters":30000,"station_id":"ce4bhqp2rcd13ifvqhng","pricing_plan_id":"free"},{"bike_id":"9b44589b-4c8d-4230-b495-72ba00696966","system_id":"levelo_inurba_marseille","lat":43.298037,"lon":5.381066,"is_reserved":false,"is_disabled":false,"rental_uris":{"android":"levelo://app?vid=9b44589b-4c8d-4230-b495-72ba00696966","ios":"levelo://app?vid=9b44589b-4c8d-4230-b495-72ba00696966"},"vehicle_type_id":"4","last_reported":1705990224,"current_range_meters":27600,"station_id":"ce4bgip2rcd13ifvqbb0","pricing_plan_id":"free"},{"bike_id":"3be2e7da-0232-46b7-bb8f-1110804be06d","system_id":"levelo_inurba_marseille","lat":43.29807,"lon":5.38094,"is_reserved":false,"is_disabled":false,"rental_uris":{"android":"levelo://app?vid=3be2e7da-0232-46b7-bb8f-1110804be06d","ios":"levelo://app?vid=3be2e7da-0232-46b7-bb8f-1110804be06d"},"vehicle_type_id":"4","last_reported":1705990224,"current_range_meters":31200,"station_id":"ce4bgip2rcd13ifvqbb0","pricing_plan_id":"free"},{"bike_id":"24e525dd-3cbf-45a9-a9ed-a9f848ed56c4","system_id":"levelo_inurba_marseille","lat":43.298037,"lon":5.381066,"is_reserved":false,"is_disabled":false,"rental_uris":{"android":"levelo://app?vid=24e525dd-3cbf-45a9-a9ed-a9f848ed56c4","ios":"levelo://app?vid=24e525dd-3cbf-45a9-a9ed-a9f848ed56c4"},"vehicle_type_id":"4","last_reported":1705990224,"current_range_meters":25200,"station_id":"ce4bgip2rcd13ifvqbb0","pricing_plan_id":"free"},{"bike_id":"4c19e27d-ecf8-4b30-849a-6c4e15d48430","system_id":"levelo_inurba_marseille","lat":43.295748,"lon":5.37522,"is_reserved":false,"is_disabled":false,"rental_uris":{"android":"levelo://app?vid=4c19e27d-ecf8-4b30-849a-6c4e15d48430","ios":"levelo://app?vid=4c19e27d-ecf8-4b30-849a-6c4e15d48430"},"vehicle_type_id":"4","last_reported":1705990224,"current_range_meters":27200,"station_id":"ce4bgh92rcd13ifvqb50","pricing_plan_id":"free"},{"bike_id":"c0a74dc7-21a5-4516-b9a0-00e81bbd86da","system_id":"levelo_inurba_marseille","lat":43.295748,"lon":5.37522,"is_reserved":false,"is_disabled":false,"rental_uris":{"android":"levelo://app?vid=c0a74dc7-21a5-4516-b9a0-00e81bbd86da","ios":"levelo://app?vid=c0a74dc7-21a5-4516-b9a0-00e81bbd86da"},"vehicle_type_id":"4","last_reported":1705990224,"current_range_meters":26800,"station_id":"ce4bgh92rcd13ifvqb50","pricing_plan_id":"free"},{"bike_id":"50381cf7-a83a-46d7-9aaf-754b759acecf","system_id":"levelo_inurba_marseille","lat":43.295748,"lon":5.37522,"is_reserved":false,"is_disabled":false,"rental_uris":{"android":"levelo://app?vid=50381cf7-a83a-46d7-9aaf-754b759acecf","ios":"levelo://app?vid=50381cf7-a83a-46d7-9aaf-754b759acecf"},"vehicle_type_id":"4","last_reported":1705990224,"current_range_meters":30400,"station_id":"ce4bgh92rcd13ifvqb50","pricing_plan_id":"free"},{"bike_id":"7f7bca11-dcff-4184-9594-287324221278","system_id":"levelo_inurba_marseille","lat":43.29786,"lon":5.38152,"is_reserved":false,"is_disabled":false,"rental_uris":{"android":"levelo://app?vid=7f7bca11-dcff-4184-9594-287324221278","ios":"levelo://app?vid=7f7bca11-dcff-4184-9594-287324221278"},"vehicle_type_id":"4","last_reported":1705990224,"current_range_meters":19600,"station_id":"ce4bgip2rcd13ifvqbb0","pricing_plan_id":"free"},{"bike_id":"8d508b11-a7de-4f36-a6aa-562b058b01e5","system_id":"levelo_inurba_marseille","lat":43.29535,"lon":5.374961,"is_reserved":false,"is_disabled":false,"rental_uris":{"android":"levelo://app?vid=8d508b11-a7de-4f36-a6aa-562b058b01e5","ios":"levelo://app?vid=8d508b11-a7de-4f36-a6aa-562b058b01e5"},"vehicle_type_id":"4","last_reported":1705990224,"current_range_meters":12800,"station_id":"ce4bgkp2rcd13ifvqbmg","pricing_plan_id":"free"},{"bike_id":"fed4a0a9-c934-475b-942a-df22ed62962c","system_id":"levelo_inurba_marseille","lat":43.296263,"lon":5.377094,"is_reserved":false,"is_disabled":false,"rental_uris":{"android":"levelo://app?vid=fed4a0a9-c934-475b-942a-df22ed62962c","ios":"levelo://app?vid=fed4a0a9-c934-475b-942a-df22ed62962c"},"vehicle_type_id":"4","last_reported":1705990224,"current_range_meters":30000,"station_id":"ce4bgi92rcd13ifvqb90","pricing_plan_id":"free"},{"bike_id":"55063834-d975-401a-a24b-d83212367aac","system_id":"levelo_inurba_marseille","lat":43.29513,"lon":5.3751,"is_reserved":false,"is_disabled":false,"rental_uris":{"android":"levelo://app?vid=55063834-d975-401a-a24b-d83212367aac","ios":"levelo://app?vid=55063834-d975-401a-a24b-d83212367aac"},"vehicle_type_id":"4","last_reported":1705990224,"current_range_meters":27200,"station_id":"ce4bgkp2rcd13ifvqbmg","pricing_plan_id":"free"},{"bike_id":"3fed05a6-ce46-4dad-bc0a-88bcfa646dcf","system_id":"levelo_inurba_marseille","lat":43.296921,"lon":5.376579,"is_reserved":false,"is_disabled":false,"rental_uris":{"android":"levelo://app?vid=3fed05a6-ce46-4dad-bc0a-88bcfa646dcf","ios":"levelo://app?vid=3fed05a6-ce46-4dad-bc0a-88bcfa646dcf"},"vehicle_type_id":"4","last_reported":1705990224,"current_range_meters":23600,"station_id":"ce4bgkh2rcd13ifvqbl0","pricing_plan_id":"free"},{"bike_id":"8b06e5de-ee40-4d78-b58d-3db2b3b2ee13","system_id":"levelo_inurba_marseille","lat":43.32367,"lon":5.388836,"is_reserved":false,"is_disabled":false,"rental_uris":{"android":"levelo://app?vid=8b06e5de-ee40-4d78-b58d-3db2b3b2ee13","ios":"levelo://app?vid=8b06e5de-ee40-4d78-b58d-3db2b3b2ee13"},"vehicle_type_id":"4","last_reported":1705990224,"current_range_meters":2000,"station_id":"ce4bhqp2rcd13ifvqhog","pricing_plan_id":"free"},{"bike_id":"b6c693cf-ef92-4666-978b-a38885e3ad4a","system_id":"levelo_inurba_marseille","lat":43.32357,"lon":5.38883,"is_reserved":false,"is_disabled":false,"rental_uris":{"android":"levelo://app?vid=b6c693cf-ef92-4666-978b-a38885e3ad4a","ios":"levelo://app?vid=b6c693cf-ef92-4666-978b-a38885e3ad4a"},"vehicle_type_id":"4","last_reported":1705990224,"current_range_meters":20000,"station_id":"ce4bhqp2rcd13ifvqhog","pricing_plan_id":"free"},{"bike_id":"d165c593-dd6a-45ed-8729-4b2e2207b0bf","system_id":"levelo_inurba_marseille","lat":43.32363,"lon":5.38881,"is_reserved":false,"is_disabled":false,"rental_uris":{"android":"levelo://app?vid=d165c593-dd6a-45ed-8729-4b2e2207b0bf","ios":"levelo://app?vid=d165c593-dd6a-45ed-8729-4b2e2207b0bf"},"vehicle_type_id":"4","last_reported":1705990224,"current_range_meters":20400,"station_id":"ce4bhqp2rcd13ifvqhog","pricing_plan_id":"free"},{"bike_id":"c7253817-d8ac-4c88-a4fb-3885b520e4cf","system_id":"levelo_inurba_marseille","lat":43.32367,"lon":5.388836,"is_reserved":false,"is_disabled":false,"rental_uris":{"android":"levelo://app?vid=c7253817-d8ac-4c88-a4fb-3885b520e4cf","ios":"levelo://app?vid=c7253817-d8ac-4c88-a4fb-3885b520e4cf"},"vehicle_type_id":"4","last_reported":1705990224,"current_range_meters":18000,"station_id":"ce4bhqp2rcd13ifvqhog","pricing_plan_id":"free"},{"bike_id":"5a94c056-ab27-40da-81c8-6a87a7dbd5b2","system_id":"levelo_inurba_marseille","lat":43.32367,"lon":5.388836,"is_reserved":false,"is_disabled":false,"rental_uris":{"android":"levelo://app?vid=5a94c056-ab27-40da-81c8-6a87a7dbd5b2","ios":"levelo://app?vid=5a94c056-ab27-40da-81c8-6a87a7dbd5b2"},"vehicle_type_id":"4","last_reported":1705990224,"current_range_meters":23200,"station_id":"ce4bhqp2rcd13ifvqhog","pricing_plan_id":"free"},{"bike_id":"02a1f268-92dc-41b2-b036-305e4dd3e4f4","system_id":"levelo_inurba_marseille","lat":43.32362,"lon":5.38885,"is_reserved":false,"is_disabled":false,"rental_uris":{"android":"levelo://app?vid=02a1f268-92dc-41b2-b036-305e4dd3e4f4","ios":"levelo://app?vid=02a1f268-92dc-41b2-b036-305e4dd3e4f4"},"vehicle_type_id":"4","last_reported":1705990224,"current_range_meters":0,"station_id":"ce4bhqp2rcd13ifvqhog","pricing_plan_id":"free"},{"bike_id":"6d5ea52f-2d63-414f-b948-62b84897cbe7","system_id":"levelo_inurba_marseille","lat":43.323686,"lon":5.388844,"is_reserved":false,"is_disabled":false,"rental_uris":{"android":"levelo://app?vid=6d5ea52f-2d63-414f-b948-62b84897cbe7","ios":"levelo://app?vid=6d5ea52f-2d63-414f-b948-62b84897cbe7"},"vehicle_type_id":"4","last_reported":1705990224,"current_range_meters":6400,"station_id":"ce4bhqp2rcd13ifvqhog","pricing_plan_id":"free"},{"bike_id":"48b61ba6-1be8-4f51-a657-38965ca79743","system_id":"levelo_inurba_marseille","lat":43.32367,"lon":5.388836,"is_reserved":false,"is_disabled":false,"rental_uris":{"android":"levelo://app?vid=48b61ba6-1be8-4f51-a657-38965ca79743","ios":"levelo://app?vid=48b61ba6-1be8-4f51-a657-38965ca79743"},"vehicle_type_id":"4","last_reported":1705990224,"current_range_meters":10800,"station_id":"ce4bhqp2rcd13ifvqhog","pricing_plan_id":"free"},{"bike_id":"7e33ecf1-d7d3-4879-8e30-b0884e53a7a8","system_id":"levelo_inurba_marseille","lat":43.29601,"lon":5.38098,"is_reserved":false,"is_disabled":false,"rental_uris":{"android":"levelo://app?vid=7e33ecf1-d7d3-4879-8e30-b0884e53a7a8","ios":"levelo://app?vid=7e33ecf1-d7d3-4879-8e30-b0884e53a7a8"},"vehicle_type_id":"4","last_reported":1705990224,"current_range_meters":6400,"station_id":"ce4bgl12rcd13ifvqbo0","pricing_plan_id":"free"},{"bike_id":"34d4d40b-bb18-43e3-92ce-d909e832f876","system_id":"levelo_inurba_marseille","lat":43.29268,"lon":5.36843,"is_reserved":false,"is_disabled":false,"rental_uris":{"android":"levelo://app?vid=34d4d40b-bb18-43e3-92ce-d909e832f876","ios":"levelo://app?vid=34d4d40b-bb18-43e3-92ce-d909e832f876"},"vehicle_type_id":"4","last_reported":1705990224,"current_range_meters":28400,"station_id":"ce4bhbp2rcd13ifvqesg","pricing_plan_id":"free"},{"bike_id":"445469cd-6378-4bae-85ce-1fa50207c268","system_id":"levelo_inurba_marseille","lat":43.293009,"lon":5.374584,"is_reserved":false,"is_disabled":false,"rental_uris":{"android":"levelo://app?vid=445469cd-6378-4bae-85ce-1fa50207c268","ios":"levelo://app?vid=445469cd-6378-4bae-85ce-1fa50207c268"},"vehicle_type_id":"4","last_reported":1705990224,"current_range_meters":29600,"station_id":"ce4bgi12rcd13ifvqb70","pricing_plan_id":"free"},{"bike_id":"8397bc8d-ae61-4ad0-86d5-067ab4571339","system_id":"levelo_inurba_marseille","lat":43.292311,"lon":5.360731,"is_reserved":false,"is_disabled":false,"rental_uris":{"android":"levelo://app?vid=8397bc8d-ae61-4ad0-86d5-067ab4571339","ios":"levelo://app?vid=8397bc8d-ae61-4ad0-86d5-067ab4571339"},"vehicle_type_id":"4","last_reported":1705990224,"current_range_meters":28800,"station_id":"ce4bhbh2rcd13ifvqeqg","pricing_plan_id":"free"},{"bike_id":"6cf4d737-3b52-4be6-85ab-287dddf9231d","system_id":"levelo_inurba_marseille","lat":43.29174,"lon":5.36642,"is_reserved":false,"is_disabled":false,"rental_uris":{"android":"levelo://app?vid=6cf4d737-3b52-4be6-85ab-287dddf9231d","ios":"levelo://app?vid=6cf4d737-3b52-4be6-85ab-287dddf9231d"},"vehicle_type_id":"4","last_reported":1705990224,"current_range_meters":0,"station_id":"","pricing_plan_id":"free"},{"bike_id":"bf95eb61-d7e2-4d21-9798-8be0256041ce","system_id":"levelo_inurba_marseille","lat":43.30085,"lon":5.390856,"is_reserved":false,"is_disabled":false,"rental_uris":{"android":"levelo://app?vid=bf95eb61-d7e2-4d21-9798-8be0256041ce","ios":"levelo://app?vid=bf95eb61-d7e2-4d21-9798-8be0256041ce"},"vehicle_type_id":"4","last_reported":1705990224,"current_range_meters":28800,"station_id":"ce4bh192rcd13ifvqdb0","pricing_plan_id":"free"},{"bike_id":"d2e48869-feb8-4260-a01f-f4724a766d0b","system_id":"levelo_inurba_marseille","lat":43.292206,"lon":5.360637,"is_reserved":false,"is_disabled":false,"rental_uris":{"android":"levelo://app?vid=d2e48869-feb8-4260-a01f-f4724a766d0b","ios":"levelo://app?vid=d2e48869-feb8-4260-a01f-f4724a766d0b"},"vehicle_type_id":"4","last_reported":1705990224,"current_range_meters":31200,"station_id":"ce4bhbh2rcd13ifvqeqg","pricing_plan_id":"free"},{"bike_id":"8dfa69dd-99dc-4e78-8127-44a82fd319e7","system_id":"levelo_inurba_marseille","lat":43.298764,"lon":5.388973,"is_reserved":false,"is_disabled":false,"rental_uris":{"android":"levelo://app?vid=8dfa69dd-99dc-4e78-8127-44a82fd319e7","ios":"levelo://app?vid=8dfa69dd-99dc-4e78-8127-44a82fd319e7"},"vehicle_type_id":"4","last_reported":1705990224,"current_range_meters":22400,"station_id":"ce4bh392rcd13ifvqdl0","pricing_plan_id":"free"},{"bike_id":"736f2de8-d9a1-4783-9b58-a337072a8c25","system_id":"levelo_inurba_marseille","lat":43.309047,"lon":5.396551,"is_reserved":false,"is_disabled":false,"rental_uris":{"android":"levelo://app?vid=736f2de8-d9a1-4783-9b58-a337072a8c25","ios":"levelo://app?vid=736f2de8-d9a1-4783-9b58-a337072a8c25"},"vehicle_type_id":"4","last_reported":1705990224,"current_range_meters":29600,"station_id":"ce4bh012rcd13ifvqcv0","pricing_plan_id":"free"},{"bike_id":"0841cde0-b0f0-41af-ba6d-81d72623c02d","system_id":"levelo_inurba_marseille","lat":43.309038,"lon":5.396546,"is_reserved":false,"is_disabled":false,"rental_uris":{"android":"levelo://app?vid=0841cde0-b0f0-41af-ba6d-81d72623c02d","ios":"levelo://app?vid=0841cde0-b0f0-41af-ba6d-81d72623c02d"},"vehicle_type_id":"4","last_reported":1705990224,"current_range_meters":10000,"station_id":"ce4bh012rcd13ifvqcv0","pricing_plan_id":"free"},{"bike_id":"91dacd66-df61-4b3c-b639-38f081508a8a","system_id":"levelo_inurba_marseille","lat":43.309047,"lon":5.396551,"is_reserved":false,"is_disabled":false,"rental_uris":{"android":"levelo://app?vid=91dacd66-df61-4b3c-b639-38f081508a8a","ios":"levelo://app?vid=91dacd66-df61-4b3c-b639-38f081508a8a"},"vehicle_type_id":"4","last_reported":1705990224,"current_range_meters":27600,"station_id":"ce4bh012rcd13ifvqcv0","pricing_plan_id":"free"},{"bike_id":"eb1f63d9-4c4a-43d2-93b6-ba7b36ba1da4","system_id":"levelo_inurba_marseille","lat":43.291994,"lon":5.357886,"is_reserved":false,"is_disabled":false,"rental_uris":{"android":"levelo://app?vid=eb1f63d9-4c4a-43d2-93b6-ba7b36ba1da4","ios":"levelo://app?vid=eb1f63d9-4c4a-43d2-93b6-ba7b36ba1da4"},"vehicle_type_id":"4","last_reported":1705990224,"current_range_meters":30000,"station_id":"ce4bhb12rcd13ifvqel0","pricing_plan_id":"free"},{"bike_id":"e584137c-b485-4041-9226-7eb59eb5b0e7","system_id":"levelo_inurba_marseille","lat":43.308832,"lon":5.396366,"is_reserved":false,"is_disabled":false,"rental_uris":{"android":"levelo://app?vid=e584137c-b485-4041-9226-7eb59eb5b0e7","ios":"levelo://app?vid=e584137c-b485-4041-9226-7eb59eb5b0e7"},"vehicle_type_id":"4","last_reported":1705990224,"current_range_meters":31200,"station_id":"ce4bh012rcd13ifvqcv0","pricing_plan_id":"free"},{"bike_id":"1a9b07e9-1bc5-42be-9168-2d3224b2250d","system_id":"levelo_inurba_marseille","lat":43.308813,"lon":5.396362,"is_reserved":false,"is_disabled":false,"rental_uris":{"android":"levelo://app?vid=1a9b07e9-1bc5-42be-9168-2d3224b2250d","ios":"levelo://app?vid=1a9b07e9-1bc5-42be-9168-2d3224b2250d"},"vehicle_type_id":"4","last_reported":1705990224,"current_range_meters":26000,"station_id":"ce4bh012rcd13ifvqcv0","pricing_plan_id":"free"},{"bike_id":"0b3488b8-b131-4aeb-ad7e-ce91d92078c5","system_id":"levelo_inurba_marseille","lat":43.308803,"lon":5.396387,"is_reserved":false,"is_disabled":false,"rental_uris":{"android":"levelo://app?vid=0b3488b8-b131-4aeb-ad7e-ce91d92078c5","ios":"levelo://app?vid=0b3488b8-b131-4aeb-ad7e-ce91d92078c5"},"vehicle_type_id":"4","last_reported":1705990224,"current_range_meters":28400,"station_id":"ce4bh012rcd13ifvqcv0","pricing_plan_id":"free"},{"bike_id":"2ee55f86-4240-4874-9251-7c8b674b24b2","system_id":"levelo_inurba_marseille","lat":43.309047,"lon":5.396551,"is_reserved":false,"is_disabled":false,"rental_uris":{"android":"levelo://app?vid=2ee55f86-4240-4874-9251-7c8b674b24b2","ios":"levelo://app?vid=2ee55f86-4240-4874-9251-7c8b674b24b2"},"vehicle_type_id":"4","last_reported":1705990224,"current_range_meters":6800,"station_id":"ce4bh012rcd13ifvqcv0","pricing_plan_id":"free"},{"bike_id":"fcb3b231-c529-47e3-b2e2-1d1b695c2837","system_id":"levelo_inurba_marseille","lat":43.3133,"lon":5.396875,"is_reserved":false,"is_disabled":false,"rental_uris":{"android":"levelo://app?vid=fcb3b231-c529-47e3-b2e2-1d1b695c2837","ios":"levelo://app?vid=fcb3b231-c529-47e3-b2e2-1d1b695c2837"},"vehicle_type_id":"4","last_reported":1705990224,"current_range_meters":7600,"station_id":"ce4bgvp2rcd13ifvqcu0","pricing_plan_id":"free"},{"bike_id":"c000ba76-1be8-4de4-a7a7-2bac853c8e70","system_id":"levelo_inurba_marseille","lat":43.313291,"lon":5.396838,"is_reserved":false,"is_disabled":false,"rental_uris":{"android":"levelo://app?vid=c000ba76-1be8-4de4-a7a7-2bac853c8e70","ios":"levelo://app?vid=c000ba76-1be8-4de4-a7a7-2bac853c8e70"},"vehicle_type_id":"4","last_reported":1705990224,"current_range_meters":22000,"station_id":"ce4bgvp2rcd13ifvqcu0","pricing_plan_id":"free"},{"bike_id":"4e914a54-894e-4ad3-b7e0-25e629a15136","system_id":"levelo_inurba_marseille","lat":43.308823,"lon":5.396401,"is_reserved":false,"is_disabled":false,"rental_uris":{"android":"levelo://app?vid=4e914a54-894e-4ad3-b7e0-25e629a15136","ios":"levelo://app?vid=4e914a54-894e-4ad3-b7e0-25e629a15136"},"vehicle_type_id":"4","last_reported":1705990224,"current_range_meters":6800,"station_id":"ce4bh012rcd13ifvqcv0","pricing_plan_id":"free"},{"bike_id":"f7b139c5-579a-4aa1-82a3-60ecee6294d6","system_id":"levelo_inurba_marseille","lat":43.291994,"lon":5.357886,"is_reserved":false,"is_disabled":false,"rental_uris":{"android":"levelo://app?vid=f7b139c5-579a-4aa1-82a3-60ecee6294d6","ios":"levelo://app?vid=f7b139c5-579a-4aa1-82a3-60ecee6294d6"},"vehicle_type_id":"4","last_reported":1705990224,"current_range_meters":14400,"station_id":"ce4bhb12rcd13ifvqel0","pricing_plan_id":"free"},{"bike_id":"4629583c-b1ea-4840-b672-862935324178","system_id":"levelo_inurba_marseille","lat":43.313291,"lon":5.396838,"is_reserved":false,"is_disabled":false,"rental_uris":{"android":"levelo://app?vid=4629583c-b1ea-4840-b672-862935324178","ios":"levelo://app?vid=4629583c-b1ea-4840-b672-862935324178"},"vehicle_type_id":"4","last_reported":1705990224,"current_range_meters":22400,"station_id":"ce4bgvp2rcd13ifvqcu0","pricing_plan_id":"free"},{"bike_id":"69896822-a2d5-4a05-820d-4fd2fb75de32","system_id":"levelo_inurba_marseille","lat":43.291994,"lon":5.357886,"is_reserved":false,"is_disabled":false,"rental_uris":{"android":"levelo://app?vid=69896822-a2d5-4a05-820d-4fd2fb75de32","ios":"levelo://app?vid=69896822-a2d5-4a05-820d-4fd2fb75de32"},"vehicle_type_id":"4","last_reported":1705990224,"current_range_meters":23200,"station_id":"ce4bhb12rcd13ifvqel0","pricing_plan_id":"free"},{"bike_id":"06e7cdd3-00e8-46d7-addc-bdcff8459390","system_id":"levelo_inurba_marseille","lat":43.313291,"lon":5.396838,"is_reserved":false,"is_disabled":false,"rental_uris":{"android":"levelo://app?vid=06e7cdd3-00e8-46d7-addc-bdcff8459390","ios":"levelo://app?vid=06e7cdd3-00e8-46d7-addc-bdcff8459390"},"vehicle_type_id":"4","last_reported":1705990224,"current_range_meters":29600,"station_id":"ce4bgvp2rcd13ifvqcu0","pricing_plan_id":"free"},{"bike_id":"a7d583b1-b6b7-4d30-8eb9-1f308e7b4037","system_id":"levelo_inurba_marseille","lat":43.31328,"lon":5.39692,"is_reserved":false,"is_disabled":false,"rental_uris":{"android":"levelo://app?vid=a7d583b1-b6b7-4d30-8eb9-1f308e7b4037","ios":"levelo://app?vid=a7d583b1-b6b7-4d30-8eb9-1f308e7b4037"},"vehicle_type_id":"4","last_reported":1705990224,"current_range_meters":20400,"station_id":"ce4bgvp2rcd13ifvqcu0","pricing_plan_id":"free"},{"bike_id":"5a5b014c-7897-404a-a269-4a0a75907dd4","system_id":"levelo_inurba_marseille","lat":43.31329,"lon":5.39692,"is_reserved":false,"is_disabled":false,"rental_uris":{"android":"levelo://app?vid=5a5b014c-7897-404a-a269-4a0a75907dd4","ios":"levelo://app?vid=5a5b014c-7897-404a-a269-4a0a75907dd4"},"vehicle_type_id":"4","last_reported":1705990224,"current_range_meters":13200,"station_id":"ce4bgvp2rcd13ifvqcu0","pricing_plan_id":"free"},{"bike_id":"7d2a302a-8902-4474-8a16-e8f7827e3044","system_id":"levelo_inurba_marseille","lat":43.313291,"lon":5.396838,"is_reserved":false,"is_disabled":false,"rental_uris":{"android":"levelo://app?vid=7d2a302a-8902-4474-8a16-e8f7827e3044","ios":"levelo://app?vid=7d2a302a-8902-4474-8a16-e8f7827e3044"},"vehicle_type_id":"4","last_reported":1705990224,"current_range_meters":31200,"station_id":"ce4bgvp2rcd13ifvqcu0","pricing_plan_id":"free"},{"bike_id":"272b998b-b1de-4166-a87b-19c8be579318","system_id":"levelo_inurba_marseille","lat":43.308805,"lon":5.396444,"is_reserved":false,"is_disabled":false,"rental_uris":{"android":"levelo://app?vid=272b998b-b1de-4166-a87b-19c8be579318","ios":"levelo://app?vid=272b998b-b1de-4166-a87b-19c8be579318"},"vehicle_type_id":"4","last_reported":1705990224,"current_range_meters":29600,"station_id":"ce4bh012rcd13ifvqcv0","pricing_plan_id":"free"},{"bike_id":"d5ebf2ac-e9ba-4c7e-b469-c3e51d9686d9","system_id":"levelo_inurba_marseille","lat":43.313291,"lon":5.396838,"is_reserved":false,"is_disabled":false,"rental_uris":{"android":"levelo://app?vid=d5ebf2ac-e9ba-4c7e-b469-c3e51d9686d9","ios":"levelo://app?vid=d5ebf2ac-e9ba-4c7e-b469-c3e51d9686d9"},"vehicle_type_id":"4","last_reported":1705990224,"current_range_meters":24400,"station_id":"ce4bgvp2rcd13ifvqcu0","pricing_plan_id":"free"},{"bike_id":"f20820ed-4a7c-433b-9fec-bbc4e814ef62","system_id":"levelo_inurba_marseille","lat":43.31328,"lon":5.39694,"is_reserved":false,"is_disabled":false,"rental_uris":{"android":"levelo://app?vid=f20820ed-4a7c-433b-9fec-bbc4e814ef62","ios":"levelo://app?vid=f20820ed-4a7c-433b-9fec-bbc4e814ef62"},"vehicle_type_id":"4","last_reported":1705990224,"current_range_meters":17600,"station_id":"ce4bgvp2rcd13ifvqcu0","pricing_plan_id":"free"},{"bike_id":"e0d3c518-3eae-44e8-972f-606bd74965c7","system_id":"levelo_inurba_marseille","lat":43.313278,"lon":5.396956,"is_reserved":false,"is_disabled":false,"rental_uris":{"android":"levelo://app?vid=e0d3c518-3eae-44e8-972f-606bd74965c7","ios":"levelo://app?vid=e0d3c518-3eae-44e8-972f-606bd74965c7"},"vehicle_type_id":"4","last_reported":1705990224,"current_range_meters":31200,"station_id":"ce4bgvp2rcd13ifvqcu0","pricing_plan_id":"free"},{"bike_id":"ef396dc3-8557-489c-87ed-049cf0eeda33","system_id":"levelo_inurba_marseille","lat":43.31331,"lon":5.39696,"is_reserved":false,"is_disabled":false,"rental_uris":{"android":"levelo://app?vid=ef396dc3-8557-489c-87ed-049cf0eeda33","ios":"levelo://app?vid=ef396dc3-8557-489c-87ed-049cf0eeda33"},"vehicle_type_id":"4","last_reported":1705990224,"current_range_meters":7600,"station_id":"ce4bgvp2rcd13ifvqcu0","pricing_plan_id":"free"},{"bike_id":"e804b5e8-dced-4abf-a3e4-772e410179e3","system_id":"levelo_inurba_marseille","lat":43.31327,"lon":5.39698,"is_reserved":false,"is_disabled":false,"rental_uris":{"android":"levelo://app?vid=e804b5e8-dced-4abf-a3e4-772e410179e3","ios":"levelo://app?vid=e804b5e8-dced-4abf-a3e4-772e410179e3"},"vehicle_type_id":"4","last_reported":1705990224,"current_range_meters":4000,"station_id":"ce4bgvp2rcd13ifvqcu0","pricing_plan_id":"free"},{"bike_id":"e10775dc-9140-4cf4-aafe-7180523a334a","system_id":"levelo_inurba_marseille","lat":43.313205,"lon":5.397044,"is_reserved":false,"is_disabled":false,"rental_uris":{"android":"levelo://app?vid=e10775dc-9140-4cf4-aafe-7180523a334a","ios":"levelo://app?vid=e10775dc-9140-4cf4-aafe-7180523a334a"},"vehicle_type_id":"4","last_reported":1705990224,"current_range_meters":20800,"station_id":"ce4bgvp2rcd13ifvqcu0","pricing_plan_id":"free"},{"bike_id":"9b7a1f5b-f9d0-4b24-916a-9623318b6539","system_id":"levelo_inurba_marseille","lat":43.29529,"lon":5.385581,"is_reserved":false,"is_disabled":false,"rental_uris":{"android":"levelo://app?vid=9b7a1f5b-f9d0-4b24-916a-9623318b6539","ios":"levelo://app?vid=9b7a1f5b-f9d0-4b24-916a-9623318b6539"},"vehicle_type_id":"4","last_reported":1705990224,"current_range_meters":30000,"station_id":"ce4bgih2rcd13ifvqba0","pricing_plan_id":"free"},{"bike_id":"6e33df06-017d-4732-8742-99c6291af0dd","system_id":"levelo_inurba_marseille","lat":43.31323,"lon":5.39708,"is_reserved":false,"is_disabled":false,"rental_uris":{"android":"levelo://app?vid=6e33df06-017d-4732-8742-99c6291af0dd","ios":"levelo://app?vid=6e33df06-017d-4732-8742-99c6291af0dd"},"vehicle_type_id":"4","last_reported":1705990224,"current_range_meters":21600,"station_id":"ce4bgvp2rcd13ifvqcu0","pricing_plan_id":"free"},{"bike_id":"d4888a70-dbd2-4409-922b-dcce818794d3","system_id":"levelo_inurba_marseille","lat":43.29533,"lon":5.38538,"is_reserved":false,"is_disabled":false,"rental_uris":{"android":"levelo://app?vid=d4888a70-dbd2-4409-922b-dcce818794d3","ios":"levelo://app?vid=d4888a70-dbd2-4409-922b-dcce818794d3"},"vehicle_type_id":"4","last_reported":1705990224,"current_range_meters":6000,"station_id":"ce4bgih2rcd13ifvqba0","pricing_plan_id":"free"},{"bike_id":"8b48f6e7-a0cb-45e8-b9cd-c80cd041a1fd","system_id":"levelo_inurba_marseille","lat":43.281044,"lon":5.378308,"is_reserved":false,"is_disabled":false,"rental_uris":{"android":"levelo://app?vid=8b48f6e7-a0cb-45e8-b9cd-c80cd041a1fd","ios":"levelo://app?vid=8b48f6e7-a0cb-45e8-b9cd-c80cd041a1fd"},"vehicle_type_id":"4","last_reported":1705990224,"current_range_meters":28000,"station_id":"ce4bha12rcd13ifvqee0","pricing_plan_id":"free"},{"bike_id":"5d3ea20a-6442-46f5-826f-fa6c66b78e8d","system_id":"levelo_inurba_marseille","lat":43.290779,"lon":5.371482,"is_reserved":false,"is_disabled":false,"rental_uris":{"android":"levelo://app?vid=5d3ea20a-6442-46f5-826f-fa6c66b78e8d","ios":"levelo://app?vid=5d3ea20a-6442-46f5-826f-fa6c66b78e8d"},"vehicle_type_id":"4","last_reported":1705990224,"current_range_meters":24800,"station_id":"ce4bh5p2rcd13ifvqe4g","pricing_plan_id":"free"},{"bike_id":"02969823-b53d-46a5-a7db-f186772c9531","system_id":"levelo_inurba_marseille","lat":43.303046,"lon":5.368981,"is_reserved":false,"is_disabled":false,"rental_uris":{"android":"levelo://app?vid=02969823-b53d-46a5-a7db-f186772c9531","ios":"levelo://app?vid=02969823-b53d-46a5-a7db-f186772c9531"},"vehicle_type_id":"4","last_reported":1705990224,"current_range_meters":27200,"station_id":"ce4bgqh2rcd13ifvqc5g","pricing_plan_id":"free"},{"bike_id":"cb45dc8a-936b-4774-83dd-75690591d2f5","system_id":"levelo_inurba_marseille","lat":43.302008,"lon":5.394694,"is_reserved":false,"is_disabled":false,"rental_uris":{"android":"levelo://app?vid=cb45dc8a-936b-4774-83dd-75690591d2f5","ios":"levelo://app?vid=cb45dc8a-936b-4774-83dd-75690591d2f5"},"vehicle_type_id":"4","last_reported":1705990224,"current_range_meters":31200,"station_id":"ce4bh0p2rcd13ifvqd70","pricing_plan_id":"free"},{"bike_id":"ecb2a8e8-dbe6-48be-bc3c-dbaa2ca8ecdd","system_id":"levelo_inurba_marseille","lat":43.30209,"lon":5.39469,"is_reserved":false,"is_disabled":false,"rental_uris":{"android":"levelo://app?vid=ecb2a8e8-dbe6-48be-bc3c-dbaa2ca8ecdd","ios":"levelo://app?vid=ecb2a8e8-dbe6-48be-bc3c-dbaa2ca8ecdd"},"vehicle_type_id":"4","last_reported":1705990224,"current_range_meters":31200,"station_id":"ce4bh0p2rcd13ifvqd70","pricing_plan_id":"free"},{"bike_id":"9f4505bd-9290-420e-8672-0d634fe361a2","system_id":"levelo_inurba_marseille","lat":43.290327,"lon":5.375711,"is_reserved":false,"is_disabled":false,"rental_uris":{"android":"levelo://app?vid=9f4505bd-9290-420e-8672-0d634fe361a2","ios":"levelo://app?vid=9f4505bd-9290-420e-8672-0d634fe361a2"},"vehicle_type_id":"4","last_reported":1705990224,"current_range_meters":27200,"station_id":"ce4bh692rcd13ifvqe90","pricing_plan_id":"free"},{"bike_id":"09575a0f-2ba2-4e6c-b6ad-7f395bb5d198","system_id":"levelo_inurba_marseille","lat":43.30429,"lon":5.39741,"is_reserved":false,"is_disabled":false,"rental_uris":{"android":"levelo://app?vid=09575a0f-2ba2-4e6c-b6ad-7f395bb5d198","ios":"levelo://app?vid=09575a0f-2ba2-4e6c-b6ad-7f395bb5d198"},"vehicle_type_id":"4","last_reported":1705990224,"current_range_meters":24000,"station_id":"ce4bh092rcd13ifvqd20","pricing_plan_id":"free"},{"bike_id":"a57d8393-e8ad-4cbf-bcf9-60bdea31dcc2","system_id":"levelo_inurba_marseille","lat":43.292644,"lon":5.384257,"is_reserved":false,"is_disabled":false,"rental_uris":{"android":"levelo://app?vid=a57d8393-e8ad-4cbf-bcf9-60bdea31dcc2","ios":"levelo://app?vid=a57d8393-e8ad-4cbf-bcf9-60bdea31dcc2"},"vehicle_type_id":"4","last_reported":1705990224,"current_range_meters":30400,"station_id":"ce4bh692rcd13ifvqea0","pricing_plan_id":"free"},{"bike_id":"51c5b499-2f16-4127-ad37-a7a161284739","system_id":"levelo_inurba_marseille","lat":43.292644,"lon":5.384257,"is_reserved":false,"is_disabled":false,"rental_uris":{"android":"levelo://app?vid=51c5b499-2f16-4127-ad37-a7a161284739","ios":"levelo://app?vid=51c5b499-2f16-4127-ad37-a7a161284739"},"vehicle_type_id":"4","last_reported":1705990224,"current_range_meters":27200,"station_id":"ce4bh692rcd13ifvqea0","pricing_plan_id":"free"},{"bike_id":"7b5fc8b4-bb0c-428b-9ec2-bda2ed87225b","system_id":"levelo_inurba_marseille","lat":43.30427,"lon":5.39753,"is_reserved":false,"is_disabled":false,"rental_uris":{"android":"levelo://app?vid=7b5fc8b4-bb0c-428b-9ec2-bda2ed87225b","ios":"levelo://app?vid=7b5fc8b4-bb0c-428b-9ec2-bda2ed87225b"},"vehicle_type_id":"4","last_reported":1705990224,"current_range_meters":7600,"station_id":"ce4bh092rcd13ifvqd20","pricing_plan_id":"free"},{"bike_id":"3e9dd0f3-c889-4def-854c-3166e699f179","system_id":"levelo_inurba_marseille","lat":43.290104,"lon":5.356111,"is_reserved":false,"is_disabled":false,"rental_uris":{"android":"levelo://app?vid=3e9dd0f3-c889-4def-854c-3166e699f179","ios":"levelo://app?vid=3e9dd0f3-c889-4def-854c-3166e699f179"},"vehicle_type_id":"4","last_reported":1705990224,"current_range_meters":27600,"station_id":"ce4bhb92rcd13ifvqen0","pricing_plan_id":"free"},{"bike_id":"9367f839-44e6-471e-a8db-e47851a226e5","system_id":"levelo_inurba_marseille","lat":43.290103,"lon":5.356114,"is_reserved":false,"is_disabled":false,"rental_uris":{"android":"levelo://app?vid=9367f839-44e6-471e-a8db-e47851a226e5","ios":"levelo://app?vid=9367f839-44e6-471e-a8db-e47851a226e5"},"vehicle_type_id":"4","last_reported":1705990224,"current_range_meters":25200,"station_id":"ce4bhb92rcd13ifvqen0","pricing_plan_id":"free"},{"bike_id":"b3a5f064-fab3-4b98-a57e-e93d718440cc","system_id":"levelo_inurba_marseille","lat":43.290104,"lon":5.356111,"is_reserved":false,"is_disabled":false,"rental_uris":{"android":"levelo://app?vid=b3a5f064-fab3-4b98-a57e-e93d718440cc","ios":"levelo://app?vid=b3a5f064-fab3-4b98-a57e-e93d718440cc"},"vehicle_type_id":"4","last_reported":1705990224,"current_range_meters":30400,"station_id":"ce4bhb92rcd13ifvqen0","pricing_plan_id":"free"},{"bike_id":"26f13e78-0c2a-434b-a18d-b5653021a91b","system_id":"levelo_inurba_marseille","lat":43.290104,"lon":5.356111,"is_reserved":false,"is_disabled":false,"rental_uris":{"android":"levelo://app?vid=26f13e78-0c2a-434b-a18d-b5653021a91b","ios":"levelo://app?vid=26f13e78-0c2a-434b-a18d-b5653021a91b"},"vehicle_type_id":"4","last_reported":1705990224,"current_range_meters":31200,"station_id":"ce4bhb92rcd13ifvqen0","pricing_plan_id":"free"},{"bike_id":"113fa80a-1687-477a-9219-a6146c13bb19","system_id":"levelo_inurba_marseille","lat":43.290104,"lon":5.356111,"is_reserved":false,"is_disabled":false,"rental_uris":{"android":"levelo://app?vid=113fa80a-1687-477a-9219-a6146c13bb19","ios":"levelo://app?vid=113fa80a-1687-477a-9219-a6146c13bb19"},"vehicle_type_id":"4","last_reported":1705990224,"current_range_meters":22800,"station_id":"ce4bhb92rcd13ifvqen0","pricing_plan_id":"free"},{"bike_id":"499c1929-bb3e-4230-ad7a-39785cb68d82","system_id":"levelo_inurba_marseille","lat":43.290995,"lon":5.381361,"is_reserved":false,"is_disabled":false,"rental_uris":{"android":"levelo://app?vid=499c1929-bb3e-4230-ad7a-39785cb68d82","ios":"levelo://app?vid=499c1929-bb3e-4230-ad7a-39785cb68d82"},"vehicle_type_id":"4","last_reported":1705990224,"current_range_meters":29200,"station_id":"ce4bh512rcd13ifvqe2g","pricing_plan_id":"free"},{"bike_id":"093b8b8c-a12c-485b-af22-8d7fd7461225","system_id":"levelo_inurba_marseille","lat":43.290995,"lon":5.381361,"is_reserved":false,"is_disabled":false,"rental_uris":{"android":"levelo://app?vid=093b8b8c-a12c-485b-af22-8d7fd7461225","ios":"levelo://app?vid=093b8b8c-a12c-485b-af22-8d7fd7461225"},"vehicle_type_id":"4","last_reported":1705990224,"current_range_meters":29200,"station_id":"ce4bh512rcd13ifvqe2g","pricing_plan_id":"free"},{"bike_id":"939083b6-7ee5-4f58-b38b-72d3f9c1db2e","system_id":"levelo_inurba_marseille","lat":43.29795,"lon":5.39335,"is_reserved":false,"is_disabled":false,"rental_uris":{"android":"levelo://app?vid=939083b6-7ee5-4f58-b38b-72d3f9c1db2e","ios":"levelo://app?vid=939083b6-7ee5-4f58-b38b-72d3f9c1db2e"},"vehicle_type_id":"4","last_reported":1705990224,"current_range_meters":26400,"station_id":"chh1huq6cuj3fo74tm60","pricing_plan_id":"free"},{"bike_id":"5c9ee738-55b0-4436-81c8-ddcf6a63d13b","system_id":"levelo_inurba_marseille","lat":43.297815,"lon":5.393548,"is_reserved":false,"is_disabled":false,"rental_uris":{"android":"levelo://app?vid=5c9ee738-55b0-4436-81c8-ddcf6a63d13b","ios":"levelo://app?vid=5c9ee738-55b0-4436-81c8-ddcf6a63d13b"},"vehicle_type_id":"4","last_reported":1705990224,"current_range_meters":17600,"station_id":"chh1huq6cuj3fo74tm60","pricing_plan_id":"free"},{"bike_id":"73ae075a-0587-45e0-a21e-ab30b3e2ff70","system_id":"levelo_inurba_marseille","lat":43.297815,"lon":5.393548,"is_reserved":false,"is_disabled":false,"rental_uris":{"android":"levelo://app?vid=73ae075a-0587-45e0-a21e-ab30b3e2ff70","ios":"levelo://app?vid=73ae075a-0587-45e0-a21e-ab30b3e2ff70"},"vehicle_type_id":"4","last_reported":1705990224,"current_range_meters":6800,"station_id":"chh1huq6cuj3fo74tm60","pricing_plan_id":"free"},{"bike_id":"1c5f8ec4-07c6-46aa-a56d-4bf392a31ebb","system_id":"levelo_inurba_marseille","lat":43.29787,"lon":5.39344,"is_reserved":false,"is_disabled":false,"rental_uris":{"android":"levelo://app?vid=1c5f8ec4-07c6-46aa-a56d-4bf392a31ebb","ios":"levelo://app?vid=1c5f8ec4-07c6-46aa-a56d-4bf392a31ebb"},"vehicle_type_id":"4","last_reported":1705990224,"current_range_meters":2000,"station_id":"chh1huq6cuj3fo74tm60","pricing_plan_id":"free"},{"bike_id":"d9d4f45e-9078-4763-b71e-c9646716eb96","system_id":"levelo_inurba_marseille","lat":43.29785,"lon":5.39345,"is_reserved":false,"is_disabled":false,"rental_uris":{"android":"levelo://app?vid=d9d4f45e-9078-4763-b71e-c9646716eb96","ios":"levelo://app?vid=d9d4f45e-9078-4763-b71e-c9646716eb96"},"vehicle_type_id":"4","last_reported":1705990224,"current_range_meters":6400,"station_id":"chh1huq6cuj3fo74tm60","pricing_plan_id":"free"},{"bike_id":"49c210f8-61b3-4d1f-9089-14286fe8d1b1","system_id":"levelo_inurba_marseille","lat":43.297815,"lon":5.393548,"is_reserved":false,"is_disabled":false,"rental_uris":{"android":"levelo://app?vid=49c210f8-61b3-4d1f-9089-14286fe8d1b1","ios":"levelo://app?vid=49c210f8-61b3-4d1f-9089-14286fe8d1b1"},"vehicle_type_id":"4","last_reported":1705990224,"current_range_meters":31200,"station_id":"chh1huq6cuj3fo74tm60","pricing_plan_id":"free"},{"bike_id":"88559521-face-4c20-ba2b-67f07c063d95","system_id":"levelo_inurba_marseille","lat":43.330442,"lon":5.389148,"is_reserved":false,"is_disabled":false,"rental_uris":{"android":"levelo://app?vid=88559521-face-4c20-ba2b-67f07c063d95","ios":"levelo://app?vid=88559521-face-4c20-ba2b-67f07c063d95"},"vehicle_type_id":"4","last_reported":1705990224,"current_range_meters":13600,"station_id":"ce4bhr92rcd13ifvqhrg","pricing_plan_id":"free"},{"bike_id":"05d4df6b-b5d6-461d-98fe-7193d5e0459a","system_id":"levelo_inurba_marseille","lat":43.330251,"lon":5.390302,"is_reserved":false,"is_disabled":false,"rental_uris":{"android":"levelo://app?vid=05d4df6b-b5d6-461d-98fe-7193d5e0459a","ios":"levelo://app?vid=05d4df6b-b5d6-461d-98fe-7193d5e0459a"},"vehicle_type_id":"4","last_reported":1705990224,"current_range_meters":29200,"station_id":"ce4bhr92rcd13ifvqhrg","pricing_plan_id":"free"},{"bike_id":"ae274a34-38eb-4a62-912c-8ad99eb0b799","system_id":"levelo_inurba_marseille","lat":43.330442,"lon":5.389148,"is_reserved":false,"is_disabled":false,"rental_uris":{"android":"levelo://app?vid=ae274a34-38eb-4a62-912c-8ad99eb0b799","ios":"levelo://app?vid=ae274a34-38eb-4a62-912c-8ad99eb0b799"},"vehicle_type_id":"4","last_reported":1705990224,"current_range_meters":5200,"station_id":"ce4bhr92rcd13ifvqhrg","pricing_plan_id":"free"},{"bike_id":"a2647b11-9795-473d-bf33-33b2d37561c2","system_id":"levelo_inurba_marseille","lat":43.330442,"lon":5.389148,"is_reserved":false,"is_disabled":false,"rental_uris":{"android":"levelo://app?vid=a2647b11-9795-473d-bf33-33b2d37561c2","ios":"levelo://app?vid=a2647b11-9795-473d-bf33-33b2d37561c2"},"vehicle_type_id":"4","last_reported":1705990224,"current_range_meters":4400,"station_id":"ce4bhr92rcd13ifvqhrg","pricing_plan_id":"free"},{"bike_id":"c8217cad-9878-4c41-8e21-9a034be5a361","system_id":"levelo_inurba_marseille","lat":43.330442,"lon":5.389148,"is_reserved":false,"is_disabled":false,"rental_uris":{"android":"levelo://app?vid=c8217cad-9878-4c41-8e21-9a034be5a361","ios":"levelo://app?vid=c8217cad-9878-4c41-8e21-9a034be5a361"},"vehicle_type_id":"4","last_reported":1705990224,"current_range_meters":23200,"station_id":"ce4bhr92rcd13ifvqhrg","pricing_plan_id":"free"},{"bike_id":"b79575a0-3cc4-4262-aa99-90adb4a9e65d","system_id":"levelo_inurba_marseille","lat":43.295169,"lon":5.390426,"is_reserved":false,"is_disabled":false,"rental_uris":{"android":"levelo://app?vid=b79575a0-3cc4-4262-aa99-90adb4a9e65d","ios":"levelo://app?vid=b79575a0-3cc4-4262-aa99-90adb4a9e65d"},"vehicle_type_id":"4","last_reported":1705990224,"current_range_meters":28800,"station_id":"ce4bh3p2rcd13ifvqdp0","pricing_plan_id":"free"},{"bike_id":"77f89468-23f4-42b0-aa40-da8db5c2b420","system_id":"levelo_inurba_marseille","lat":43.330275,"lon":5.39036,"is_reserved":false,"is_disabled":false,"rental_uris":{"android":"levelo://app?vid=77f89468-23f4-42b0-aa40-da8db5c2b420","ios":"levelo://app?vid=77f89468-23f4-42b0-aa40-da8db5c2b420"},"vehicle_type_id":"4","last_reported":1705990224,"current_range_meters":16400,"station_id":"ce4bhr92rcd13ifvqhrg","pricing_plan_id":"free"},{"bike_id":"925eaff5-3e49-4fa2-bc92-9f7181735632","system_id":"levelo_inurba_marseille","lat":43.330251,"lon":5.390447,"is_reserved":false,"is_disabled":false,"rental_uris":{"android":"levelo://app?vid=925eaff5-3e49-4fa2-bc92-9f7181735632","ios":"levelo://app?vid=925eaff5-3e49-4fa2-bc92-9f7181735632"},"vehicle_type_id":"4","last_reported":1705990224,"current_range_meters":11600,"station_id":"ce4bhr92rcd13ifvqhrg","pricing_plan_id":"free"},{"bike_id":"e6a2f90f-e929-4352-a66a-fcf4641295a8","system_id":"levelo_inurba_marseille","lat":43.295169,"lon":5.390426,"is_reserved":false,"is_disabled":false,"rental_uris":{"android":"levelo://app?vid=e6a2f90f-e929-4352-a66a-fcf4641295a8","ios":"levelo://app?vid=e6a2f90f-e929-4352-a66a-fcf4641295a8"},"vehicle_type_id":"4","last_reported":1705990224,"current_range_meters":11600,"station_id":"ce4bh3p2rcd13ifvqdp0","pricing_plan_id":"free"},{"bike_id":"42aa897e-156f-44a2-a61c-d4c2cc0e1814","system_id":"levelo_inurba_marseille","lat":43.29026,"lon":5.38118,"is_reserved":false,"is_disabled":false,"rental_uris":{"android":"levelo://app?vid=42aa897e-156f-44a2-a61c-d4c2cc0e1814","ios":"levelo://app?vid=42aa897e-156f-44a2-a61c-d4c2cc0e1814"},"vehicle_type_id":"4","last_reported":1705990224,"current_range_meters":2800,"station_id":"ce4bh4p2rcd13ifvqe1g","pricing_plan_id":"free"},{"bike_id":"71189d73-104f-4b93-a939-cf8a1674f5ce","system_id":"levelo_inurba_marseille","lat":43.28856,"lon":5.358371,"is_reserved":false,"is_disabled":false,"rental_uris":{"android":"levelo://app?vid=71189d73-104f-4b93-a939-cf8a1674f5ce","ios":"levelo://app?vid=71189d73-104f-4b93-a939-cf8a1674f5ce"},"vehicle_type_id":"4","last_reported":1705990224,"current_range_meters":31200,"station_id":"ce4bhb12rcd13ifvqem0","pricing_plan_id":"free"},{"bike_id":"24eeed53-8266-429b-8664-dc34e2c0ef30","system_id":"levelo_inurba_marseille","lat":43.28856,"lon":5.358371,"is_reserved":false,"is_disabled":false,"rental_uris":{"android":"levelo://app?vid=24eeed53-8266-429b-8664-dc34e2c0ef30","ios":"levelo://app?vid=24eeed53-8266-429b-8664-dc34e2c0ef30"},"vehicle_type_id":"4","last_reported":1705990224,"current_range_meters":10800,"station_id":"ce4bhb12rcd13ifvqem0","pricing_plan_id":"free"},{"bike_id":"7efdef8e-5d7d-47e7-bd9a-ccf65e3fcd53","system_id":"levelo_inurba_marseille","lat":43.28856,"lon":5.358371,"is_reserved":false,"is_disabled":false,"rental_uris":{"android":"levelo://app?vid=7efdef8e-5d7d-47e7-bd9a-ccf65e3fcd53","ios":"levelo://app?vid=7efdef8e-5d7d-47e7-bd9a-ccf65e3fcd53"},"vehicle_type_id":"4","last_reported":1705990224,"current_range_meters":16400,"station_id":"ce4bhb12rcd13ifvqem0","pricing_plan_id":"free"},{"bike_id":"ce9f47a8-cd0a-4a2f-9f4a-5f5e6ca9476f","system_id":"levelo_inurba_marseille","lat":43.28856,"lon":5.358371,"is_reserved":false,"is_disabled":false,"rental_uris":{"android":"levelo://app?vid=ce9f47a8-cd0a-4a2f-9f4a-5f5e6ca9476f","ios":"levelo://app?vid=ce9f47a8-cd0a-4a2f-9f4a-5f5e6ca9476f"},