{"last_updated":1729603128,"ttl":60,"version":"2.2","data":{"bikes":[{"bike_id":"58f6d5dc-abd6-4c92-8471-085ec8a088b2","system_id":"levelo_inurba_marseille","lat":43.31882,"lon":5.4281,"is_reserved":false,"is_disabled":false,"rental_uris":{"android":"levelo://app?vid=58f6d5dc-abd6-4c92-8471-085ec8a088b2","ios":"levelo://app?vid=58f6d5dc-abd6-4c92-8471-085ec8a088b2"},"vehicle_type_id":"4","last_reported":1729603128,"current_range_meters":36800,"station_id":"ce4bhp92rcd13ifvqhbg","pricing_plan_id":"cebpf4jnsgd1na2vs0mg"},{"bike_id":"a29beb72-507c-4343-9f6b-7c76f5d39608","system_id":"levelo_inurba_marseille","lat":43.3361,"lon":5.41029,"is_reserved":false,"is_disabled":false,"rental_uris":{"android":"levelo://app?vid=a29beb72-507c-4343-9f6b-7c76f5d39608","ios":"levelo://app?vid=a29beb72-507c-4343-9f6b-7c76f5d39608"},"vehicle_type_id":"4","last_reported":1729603128,"current_range_meters":38800,"station_id":"ce4bhqh2rcd13ifvqhmg","pricing_plan_id":"cebpf4jnsgd1na2vs0mg"},{"bike_id":"21b3bc4a-1729-4894-a3e0-fcce2490fc22","system_id":"levelo_inurba_marseille","lat":43.2969,"lon":5.43409,"is_reserved":false,"is_disabled":false,"rental_uris":{"android":"levelo://app?vid=21b3bc4a-1729-4894-a3e0-fcce2490fc22","ios":"levelo://app?vid=21b3bc4a-1729-4894-a3e0-fcce2490fc22"},"vehicle_type_id":"4","last_reported":1729603128,"current_range_meters":12000,"station_id":"ce4bhpp2rcd13ifvqhfg","pricing_plan_id":"cebpf4jnsgd1na2vs0mg"},{"bike_id":"cffef2ba-3853-49e9-b877-451ac3f6e219","system_id":"levelo_inurba_marseille","lat":43.25502,"lon":5.37647,"is_reserved":false,"is_disabled":false,"rental_uris":{"android":"levelo://app?vid=cffef2ba-3853-49e9-b877-451ac3f6e219","ios":"levelo://app?vid=cffef2ba-3853-49e9-b877-451ac3f6e219"},"vehicle_type_id":"4","last_reported":1729603128,"current_range_meters":5600,"station_id":"ce4bhh12rcd13ifvqff0","pricing_plan_id":"cebpf4jnsgd1na2vs0mg"},{"bike_id":"030f9bfa-b8fe-41b6-b0a2-3f18b463665a","system_id":"levelo_inurba_marseille","lat":43.27973,"lon":5.38732,"is_reserved":false,"is_disabled":false,"rental_uris":{"android":"levelo://app?vid=030f9bfa-b8fe-41b6-b0a2-3f18b463665a","ios":"levelo://app?vid=030f9bfa-b8fe-41b6-b0a2-3f18b463665a"},"vehicle_type_id":"4","last_reported":1729603128,"current_range_meters":21600,"station_id":"ce4bhg12rcd13ifvqf80","pricing_plan_id":"cebpf4jnsgd1na2vs0mg"},{"bike_id":"f9446e24-66c0-49b0-b40b-67b75d44c9d2","system_id":"levelo_inurba_marseille","lat":43.27063,"lon":5.42266,"is_reserved":false,"is_disabled":false,"rental_uris":{"android":"levelo://app?vid=f9446e24-66c0-49b0-b40b-67b75d44c9d2","ios":"levelo://app?vid=f9446e24-66c0-49b0-b40b-67b75d44c9d2"},"vehicle_type_id":"4","last_reported":1729603128,"current_range_meters":39200,"station_id":"ce4bhk92rcd13ifvqgb0","pricing_plan_id":"cebpf4jnsgd1na2vs0mg"},{"bike_id":"2584cf3d-89d5-4195-9d04-86f9c5e39395","system_id":"levelo_inurba_marseille","lat":43.27373,"lon":5.36249,"is_reserved":false,"is_disabled":false,"rental_uris":{"android":"levelo://app?vid=2584cf3d-89d5-4195-9d04-86f9c5e39395","ios":"levelo://app?vid=2584cf3d-89d5-4195-9d04-86f9c5e39395"},"vehicle_type_id":"4","last_reported":1729603128,"current_range_meters":22000,"station_id":"ce4bhbh2rcd13ifvqeo0","pricing_plan_id":"cebpf4jnsgd1na2vs0mg"},{"bike_id":"96514785-d870-47b5-b81e-b009c40258ef","system_id":"levelo_inurba_marseille","lat":43.2439,"lon":5.3706,"is_reserved":false,"is_disabled":false,"rental_uris":{"android":"levelo://app?vid=96514785-d870-47b5-b81e-b009c40258ef","ios":"levelo://app?vid=96514785-d870-47b5-b81e-b009c40258ef"},"vehicle_type_id":"4","last_reported":1729603128,"current_range_meters":39200,"station_id":"ce4bhhh2rcd13ifvqfk0","pricing_plan_id":"cebpf4jnsgd1na2vs0mg"},{"bike_id":"f8460ba4-0a35-4c19-80b3-ac0a186108ef","system_id":"levelo_inurba_marseille","lat":43.26784,"lon":5.39413,"is_reserved":false,"is_disabled":false,"rental_uris":{"android":"levelo://app?vid=f8460ba4-0a35-4c19-80b3-ac0a186108ef","ios":"levelo://app?vid=f8460ba4-0a35-4c19-80b3-ac0a186108ef"},"vehicle_type_id":"4","last_reported":1729603128,"current_range_meters":18800,"station_id":"ce4bhh12rcd13ifvqfg0","pricing_plan_id":"cebpf4jnsgd1na2vs0mg"},{"bike_id":"e3c5e06e-0e93-4d50-8cef-a94632f63fa5","system_id":"levelo_inurba_marseille","lat":43.29369,"lon":5.37855,"is_reserved":false,"is_disabled":false,"rental_uris":{"android":"levelo://app?vid=e3c5e06e-0e93-4d50-8cef-a94632f63fa5","ios":"levelo://app?vid=e3c5e06e-0e93-4d50-8cef-a94632f63fa5"},"vehicle_type_id":"4","last_reported":1729603128,"current_range_meters":37600,"station_id":"ce4bgjh2rcd13ifvqbf0","pricing_plan_id":"cebpf4jnsgd1na2vs0mg"},{"bike_id":"056124ee-b6f9-468d-94ef-5fa46e18bd36","system_id":"levelo_inurba_marseille","lat":43.33603,"lon":5.41022,"is_reserved":false,"is_disabled":false,"rental_uris":{"android":"levelo://app?vid=056124ee-b6f9-468d-94ef-5fa46e18bd36","ios":"levelo://app?vid=056124ee-b6f9-468d-94ef-5fa46e18bd36"},"vehicle_type_id":"4","last_reported":1729603128,"current_range_meters":38800,"station_id":"ce4bhqh2rcd13ifvqhmg","pricing_plan_id":"cebpf4jnsgd1na2vs0mg"},{"bike_id":"c863ab3d-1edc-4863-a6c7-73e4e0932069","system_id":"levelo_inurba_marseille","lat":43.33592,"lon":5.41004,"is_reserved":false,"is_disabled":false,"rental_uris":{"android":"levelo://app?vid=c863ab3d-1edc-4863-a6c7-73e4e0932069","ios":"levelo://app?vid=c863ab3d-1edc-4863-a6c7-73e4e0932069"},"vehicle_type_id":"4","last_reported":1729603128,"current_range_meters":38800,"station_id":"ce4bhqh2rcd13ifvqhmg","pricing_plan_id":"cebpf4jnsgd1na2vs0mg"},{"bike_id":"d26720d8-0182-4601-851b-347232e3b2b6","system_id":"levelo_inurba_marseille","lat":43.27369,"lon":5.36256,"is_reserved":false,"is_disabled":false,"rental_uris":{"android":"levelo://app?vid=d26720d8-0182-4601-851b-347232e3b2b6","ios":"levelo://app?vid=d26720d8-0182-4601-851b-347232e3b2b6"},"vehicle_type_id":"4","last_reported":1729603128,"current_range_meters":30800,"station_id":"ce4bhbh2rcd13ifvqeo0","pricing_plan_id":"cebpf4jnsgd1na2vs0mg"},{"bike_id":"92bae46b-3cd6-4be8-aed3-27789b861965","system_id":"levelo_inurba_marseille","lat":43.29564,"lon":5.37508,"is_reserved":false,"is_disabled":false,"rental_uris":{"android":"levelo://app?vid=92bae46b-3cd6-4be8-aed3-27789b861965","ios":"levelo://app?vid=92bae46b-3cd6-4be8-aed3-27789b861965"},"vehicle_type_id":"4","last_reported":1729603128,"current_range_meters":31200,"station_id":"ce4bgh92rcd13ifvqb50","pricing_plan_id":"cebpf4jnsgd1na2vs0mg"},{"bike_id":"e4ed03eb-7d96-48f9-83d3-8e7ae6673d4a","system_id":"levelo_inurba_marseille","lat":43.29857,"lon":5.39723,"is_reserved":false,"is_disabled":false,"rental_uris":{"android":"levelo://app?vid=e4ed03eb-7d96-48f9-83d3-8e7ae6673d4a","ios":"levelo://app?vid=e4ed03eb-7d96-48f9-83d3-8e7ae6673d4a"},"vehicle_type_id":"4","last_reported":1729603128,"current_range_meters":30400,"station_id":"ce4bh0h2rcd13ifvqd50","pricing_plan_id":"cebpf4jnsgd1na2vs0mg"},{"bike_id":"8459367d-360c-407e-9b46-faf1030167f2","system_id":"levelo_inurba_marseille","lat":43.27058,"lon":5.40261,"is_reserved":false,"is_disabled":false,"rental_uris":{"android":"levelo://app?vid=8459367d-360c-407e-9b46-faf1030167f2","ios":"levelo://app?vid=8459367d-360c-407e-9b46-faf1030167f2"},"vehicle_type_id":"4","last_reported":1729603128,"current_range_meters":36400,"station_id":"ce4bhk92rcd13ifvqgc0","pricing_plan_id":"cebpf4jnsgd1na2vs0mg"},{"bike_id":"bc3ec704-61d9-4ff9-a4d0-13834858e627","system_id":"levelo_inurba_marseille","lat":43.246346,"lon":5.408463,"is_reserved":false,"is_disabled":false,"rental_uris":{"android":"levelo://app?vid=bc3ec704-61d9-4ff9-a4d0-13834858e627","ios":"levelo://app?vid=bc3ec704-61d9-4ff9-a4d0-13834858e627"},"vehicle_type_id":"4","last_reported":1729603128,"current_range_meters":17600,"station_id":"ce4bhr12rcd13ifvqhqg","pricing_plan_id":"cebpf4jnsgd1na2vs0mg"},{"bike_id":"5c449356-4ac4-4d08-a405-c433fbe21a80","system_id":"levelo_inurba_marseille","lat":43.33761,"lon":5.3744,"is_reserved":false,"is_disabled":false,"rental_uris":{"android":"levelo://app?vid=5c449356-4ac4-4d08-a405-c433fbe21a80","ios":"levelo://app?vid=5c449356-4ac4-4d08-a405-c433fbe21a80"},"vehicle_type_id":"4","last_reported":1729603128,"current_range_meters":33600,"station_id":"","pricing_plan_id":"cebpf4jnsgd1na2vs0mg"},{"bike_id":"c32831a9-e064-4d70-bbdd-66063ddbadde","system_id":"levelo_inurba_marseille","lat":43.25938,"lon":5.40897,"is_reserved":false,"is_disabled":false,"rental_uris":{"android":"levelo://app?vid=c32831a9-e064-4d70-bbdd-66063ddbadde","ios":"levelo://app?vid=c32831a9-e064-4d70-bbdd-66063ddbadde"},"vehicle_type_id":"4","last_reported":1729603128,"current_range_meters":30800,"station_id":"ce4bhm92rcd13ifvqglg","pricing_plan_id":"cebpf4jnsgd1na2vs0mg"},{"bike_id":"f23dac58-147c-4e62-af76-bf2973e9522e","system_id":"levelo_inurba_marseille","lat":43.246354,"lon":5.388111,"is_reserved":false,"is_disabled":false,"rental_uris":{"android":"levelo://app?vid=f23dac58-147c-4e62-af76-bf2973e9522e","ios":"levelo://app?vid=f23dac58-147c-4e62-af76-bf2973e9522e"},"vehicle_type_id":"4","last_reported":1729603128,"current_range_meters":16400,"station_id":"ce4bhg12rcd13ifvqf60","pricing_plan_id":"cebpf4jnsgd1na2vs0mg"},{"bike_id":"19e1c8d1-0d94-48fb-9396-866b40a4d73d","system_id":"levelo_inurba_marseille","lat":43.24386,"lon":5.37048,"is_reserved":false,"is_disabled":false,"rental_uris":{"android":"levelo://app?vid=19e1c8d1-0d94-48fb-9396-866b40a4d73d","ios":"levelo://app?vid=19e1c8d1-0d94-48fb-9396-866b40a4d73d"},"vehicle_type_id":"4","last_reported":1729603128,"current_range_meters":32800,"station_id":"ce4bhhh2rcd13ifvqfk0","pricing_plan_id":"cebpf4jnsgd1na2vs0mg"},{"bike_id":"e6582e63-7e5d-493a-9170-f5faf28b017c","system_id":"levelo_inurba_marseille","lat":43.23962,"lon":5.36644,"is_reserved":false,"is_disabled":false,"rental_uris":{"android":"levelo://app?vid=e6582e63-7e5d-493a-9170-f5faf28b017c","ios":"levelo://app?vid=e6582e63-7e5d-493a-9170-f5faf28b017c"},"vehicle_type_id":"4","last_reported":1729603128,"current_range_meters":33600,"station_id":"ce4bhi12rcd13ifvqfp0","pricing_plan_id":"cebpf4jnsgd1na2vs0mg"},{"bike_id":"fe228314-5cc0-4207-9abb-800a21f4916a","system_id":"levelo_inurba_marseille","lat":43.26785,"lon":5.39446,"is_reserved":false,"is_disabled":false,"rental_uris":{"android":"levelo://app?vid=fe228314-5cc0-4207-9abb-800a21f4916a","ios":"levelo://app?vid=fe228314-5cc0-4207-9abb-800a21f4916a"},"vehicle_type_id":"4","last_reported":1729603128,"current_range_meters":9200,"station_id":"ce4bhh12rcd13ifvqfg0","pricing_plan_id":"cebpf4jnsgd1na2vs0mg"},{"bike_id":"df41293a-c986-41ec-a417-ef766b9926c2","system_id":"levelo_inurba_marseille","lat":43.25083,"lon":5.39523,"is_reserved":false,"is_disabled":false,"rental_uris":{"android":"levelo://app?vid=df41293a-c986-41ec-a417-ef766b9926c2","ios":"levelo://app?vid=df41293a-c986-41ec-a417-ef766b9926c2"},"vehicle_type_id":"4","last_reported":1729603128,"current_range_meters":18800,"station_id":"ce4bhm12rcd13ifvqgkg","pricing_plan_id":"cebpf4jnsgd1na2vs0mg"},{"bike_id":"ec209bd7-02ce-4114-a124-501519248a36","system_id":"levelo_inurba_marseille","lat":43.2315,"lon":5.43709,"is_reserved":false,"is_disabled":false,"rental_uris":{"android":"levelo://app?vid=ec209bd7-02ce-4114-a124-501519248a36","ios":"levelo://app?vid=ec209bd7-02ce-4114-a124-501519248a36"},"vehicle_type_id":"4","last_reported":1729603128,"current_range_meters":9600,"station_id":"ce4bhmp2rcd13ifvqgog","pricing_plan_id":"cebpf4jnsgd1na2vs0mg"},{"bike_id":"6d53c141-c25a-4c03-bc57-5a71488e82a8","system_id":"levelo_inurba_marseille","lat":43.299063,"lon":5.37467,"is_reserved":false,"is_disabled":false,"rental_uris":{"android":"levelo://app?vid=6d53c141-c25a-4c03-bc57-5a71488e82a8","ios":"levelo://app?vid=6d53c141-c25a-4c03-bc57-5a71488e82a8"},"vehicle_type_id":"4","last_reported":1729603128,"current_range_meters":26000,"station_id":"ce4bgjh2rcd13ifvqbg0","pricing_plan_id":"cebpf4jnsgd1na2vs0mg"},{"bike_id":"3bb95d1d-9f30-40d2-840f-0512d6d42a6f","system_id":"levelo_inurba_marseille","lat":43.30593,"lon":5.37239,"is_reserved":false,"is_disabled":false,"rental_uris":{"android":"levelo://app?vid=3bb95d1d-9f30-40d2-840f-0512d6d42a6f","ios":"levelo://app?vid=3bb95d1d-9f30-40d2-840f-0512d6d42a6f"},"vehicle_type_id":"4","last_reported":1729603128,"current_range_meters":36000,"station_id":"ce4bgqh2rcd13ifvqc4g","pricing_plan_id":"cebpf4jnsgd1na2vs0mg"},{"bike_id":"a5d75ee9-6a2b-4d07-9f45-a4c08fa6e166","system_id":"levelo_inurba_marseille","lat":43.24071,"lon":5.37753,"is_reserved":false,"is_disabled":false,"rental_uris":{"android":"levelo://app?vid=a5d75ee9-6a2b-4d07-9f45-a4c08fa6e166","ios":"levelo://app?vid=a5d75ee9-6a2b-4d07-9f45-a4c08fa6e166"},"vehicle_type_id":"4","last_reported":1729603128,"current_range_meters":38800,"station_id":"ce4bhnp2rcd13ifvqgvg","pricing_plan_id":"cebpf4jnsgd1na2vs0mg"},{"bike_id":"512179aa-d89f-4d66-a874-98defb4c8b43","system_id":"levelo_inurba_marseille","lat":43.2953,"lon":5.375,"is_reserved":false,"is_disabled":false,"rental_uris":{"android":"levelo://app?vid=512179aa-d89f-4d66-a874-98defb4c8b43","ios":"levelo://app?vid=512179aa-d89f-4d66-a874-98defb4c8b43"},"vehicle_type_id":"4","last_reported":1729603128,"current_range_meters":38400,"station_id":"ce4bgkp2rcd13ifvqbmg","pricing_plan_id":"cebpf4jnsgd1na2vs0mg"},{"bike_id":"5dc6f713-ecfe-4fc6-adc5-2e4fe27ccb20","system_id":"levelo_inurba_marseille","lat":43.31489,"lon":5.37306,"is_reserved":false,"is_disabled":false,"rental_uris":{"android":"levelo://app?vid=5dc6f713-ecfe-4fc6-adc5-2e4fe27ccb20","ios":"levelo://app?vid=5dc6f713-ecfe-4fc6-adc5-2e4fe27ccb20"},"vehicle_type_id":"4","last_reported":1729603128,"current_range_meters":38800,"station_id":"ce4bgt12rcd13ifvqcd0","pricing_plan_id":"cebpf4jnsgd1na2vs0mg"},{"bike_id":"c74121a6-ed1c-4500-8669-50f7244f4553","system_id":"levelo_inurba_marseille","lat":43.25108,"lon":5.40318,"is_reserved":false,"is_disabled":false,"rental_uris":{"android":"levelo://app?vid=c74121a6-ed1c-4500-8669-50f7244f4553","ios":"levelo://app?vid=c74121a6-ed1c-4500-8669-50f7244f4553"},"vehicle_type_id":"4","last_reported":1729603128,"current_range_meters":27200,"station_id":"ce4bhlh2rcd13ifvqgig","pricing_plan_id":"cebpf4jnsgd1na2vs0mg"},{"bike_id":"94a9c30c-6dd6-4cf3-954e-6f0d3e54e7be","system_id":"levelo_inurba_marseille","lat":43.29797,"lon":5.38075,"is_reserved":false,"is_disabled":false,"rental_uris":{"android":"levelo://app?vid=94a9c30c-6dd6-4cf3-954e-6f0d3e54e7be","ios":"levelo://app?vid=94a9c30c-6dd6-4cf3-954e-6f0d3e54e7be"},"vehicle_type_id":"4","last_reported":1729603128,"current_range_meters":37600,"station_id":"ce4bgip2rcd13ifvqbb0","pricing_plan_id":"cebpf4jnsgd1na2vs0mg"},{"bike_id":"ef54ce82-80a8-4f52-a49c-7cc4db80f572","system_id":"levelo_inurba_marseille","lat":43.31982,"lon":5.38159,"is_reserved":false,"is_disabled":false,"rental_uris":{"android":"levelo://app?vid=ef54ce82-80a8-4f52-a49c-7cc4db80f572","ios":"levelo://app?vid=ef54ce82-80a8-4f52-a49c-7cc4db80f572"},"vehicle_type_id":"4","last_reported":1729603128,"current_range_meters":12800,"station_id":"ce4bhr12rcd13ifvqhpg","pricing_plan_id":"cebpf4jnsgd1na2vs0mg"},{"bike_id":"dc6427bc-5ce1-486f-9344-de44b8207f53","system_id":"levelo_inurba_marseille","lat":43.23158,"lon":5.43699,"is_reserved":false,"is_disabled":false,"rental_uris":{"android":"levelo://app?vid=dc6427bc-5ce1-486f-9344-de44b8207f53","ios":"levelo://app?vid=dc6427bc-5ce1-486f-9344-de44b8207f53"},"vehicle_type_id":"4","last_reported":1729603128,"current_range_meters":9600,"station_id":"ce4bhmp2rcd13ifvqgog","pricing_plan_id":"cebpf4jnsgd1na2vs0mg"},{"bike_id":"408cbf17-c781-4424-ab3f-02b6b88382fd","system_id":"levelo_inurba_marseille","lat":43.25724,"lon":5.41107,"is_reserved":false,"is_disabled":false,"rental_uris":{"android":"levelo://app?vid=408cbf17-c781-4424-ab3f-02b6b88382fd","ios":"levelo://app?vid=408cbf17-c781-4424-ab3f-02b6b88382fd"},"vehicle_type_id":"4","last_reported":1729603128,"current_range_meters":38800,"station_id":"ce4bhkp2rcd13ifvqgd0","pricing_plan_id":"cebpf4jnsgd1na2vs0mg"},{"bike_id":"4618cc2c-fba6-4556-b7a3-f469bfff64e6","system_id":"levelo_inurba_marseille","lat":43.28417,"lon":5.3497,"is_reserved":false,"is_disabled":false,"rental_uris":{"android":"levelo://app?vid=4618cc2c-fba6-4556-b7a3-f469bfff64e6","ios":"levelo://app?vid=4618cc2c-fba6-4556-b7a3-f469bfff64e6"},"vehicle_type_id":"4","last_reported":1729603128,"current_range_meters":38400,"station_id":"ce4bhbh2rcd13ifvqepg","pricing_plan_id":"cebpf4jnsgd1na2vs0mg"},{"bike_id":"3123a478-5806-4398-8a11-0d6b16f75bf0","system_id":"levelo_inurba_marseille","lat":43.29017,"lon":5.3812,"is_reserved":false,"is_disabled":false,"rental_uris":{"android":"levelo://app?vid=3123a478-5806-4398-8a11-0d6b16f75bf0","ios":"levelo://app?vid=3123a478-5806-4398-8a11-0d6b16f75bf0"},"vehicle_type_id":"4","last_reported":1729603128,"current_range_meters":38800,"station_id":"ce4bh4p2rcd13ifvqe1g","pricing_plan_id":"cebpf4jnsgd1na2vs0mg"},{"bike_id":"abe658d4-12a8-41db-b6b3-738fdbd608a2","system_id":"levelo_inurba_marseille","lat":43.23198,"lon":5.35554,"is_reserved":false,"is_disabled":false,"rental_uris":{"android":"levelo://app?vid=abe658d4-12a8-41db-b6b3-738fdbd608a2","ios":"levelo://app?vid=abe658d4-12a8-41db-b6b3-738fdbd608a2"},"vehicle_type_id":"4","last_reported":1729603128,"current_range_meters":36400,"station_id":"ce4bhu92rcd13ifvqi70","pricing_plan_id":"cebpf4jnsgd1na2vs0mg"},{"bike_id":"ecf5aaf1-3072-45c8-bc85-9209f1480bbf","system_id":"levelo_inurba_marseille","lat":43.23155,"lon":5.43698,"is_reserved":false,"is_disabled":false,"rental_uris":{"android":"levelo://app?vid=ecf5aaf1-3072-45c8-bc85-9209f1480bbf","ios":"levelo://app?vid=ecf5aaf1-3072-45c8-bc85-9209f1480bbf"},"vehicle_type_id":"4","last_reported":1729603128,"current_range_meters":23200,"station_id":"ce4bhmp2rcd13ifvqgog","pricing_plan_id":"cebpf4jnsgd1na2vs0mg"},{"bike_id":"65839f99-973b-4e02-a365-d217505d110a","system_id":"levelo_inurba_marseille","lat":43.29903,"lon":5.37466,"is_reserved":false,"is_disabled":false,"rental_uris":{"android":"levelo://app?vid=65839f99-973b-4e02-a365-d217505d110a","ios":"levelo://app?vid=65839f99-973b-4e02-a365-d217505d110a"},"vehicle_type_id":"4","last_reported":1729603128,"current_range_meters":16800,"station_id":"ce4bgjh2rcd13ifvqbg0","pricing_plan_id":"cebpf4jnsgd1na2vs0mg"},{"bike_id":"db13cfe5-d726-4fc3-9806-9e81ba9c895b","system_id":"levelo_inurba_marseille","lat":43.30269,"lon":5.37724,"is_reserved":false,"is_disabled":false,"rental_uris":{"android":"levelo://app?vid=db13cfe5-d726-4fc3-9806-9e81ba9c895b","ios":"levelo://app?vid=db13cfe5-d726-4fc3-9806-9e81ba9c895b"},"vehicle_type_id":"4","last_reported":1729603128,"current_range_meters":36400,"station_id":"ce4bguh2rcd13ifvqcj0","pricing_plan_id":"cebpf4jnsgd1na2vs0mg"},{"bike_id":"c076a77d-2268-4985-a420-08653a3e96c3","system_id":"levelo_inurba_marseille","lat":43.30137,"lon":5.37423,"is_reserved":false,"is_disabled":false,"rental_uris":{"android":"levelo://app?vid=c076a77d-2268-4985-a420-08653a3e96c3","ios":"levelo://app?vid=c076a77d-2268-4985-a420-08653a3e96c3"},"vehicle_type_id":"4","last_reported":1729603128,"current_range_meters":28800,"station_id":"ce4bgs92rcd13ifvqcc0","pricing_plan_id":"cebpf4jnsgd1na2vs0mg"},{"bike_id":"b2e1c869-a3ab-499c-b5c6-de9c9df8d37c","system_id":"levelo_inurba_marseille","lat":43.3375,"lon":5.37485,"is_reserved":false,"is_disabled":false,"rental_uris":{"android":"levelo://app?vid=b2e1c869-a3ab-499c-b5c6-de9c9df8d37c","ios":"levelo://app?vid=b2e1c869-a3ab-499c-b5c6-de9c9df8d37c"},"vehicle_type_id":"4","last_reported":1729603128,"current_range_meters":38800,"station_id":"","pricing_plan_id":"cebpf4jnsgd1na2vs0mg"},{"bike_id":"6f32456f-e32e-45f8-bc9f-7855837cfce5","system_id":"levelo_inurba_marseille","lat":43.24802,"lon":5.37457,"is_reserved":false,"is_disabled":false,"rental_uris":{"android":"levelo://app?vid=6f32456f-e32e-45f8-bc9f-7855837cfce5","ios":"levelo://app?vid=6f32456f-e32e-45f8-bc9f-7855837cfce5"},"vehicle_type_id":"4","last_reported":1729603128,"current_range_meters":36800,"station_id":"ce4bhgh2rcd13ifvqfb0","pricing_plan_id":"cebpf4jnsgd1na2vs0mg"},{"bike_id":"d84dd528-04c0-46e5-91ba-ae6395049165","system_id":"levelo_inurba_marseille","lat":43.27995,"lon":5.40015,"is_reserved":false,"is_disabled":false,"rental_uris":{"android":"levelo://app?vid=d84dd528-04c0-46e5-91ba-ae6395049165","ios":"levelo://app?vid=d84dd528-04c0-46e5-91ba-ae6395049165"},"vehicle_type_id":"4","last_reported":1729603128,"current_range_meters":14800,"station_id":"ce4bho92rcd13ifvqh4g","pricing_plan_id":"cebpf4jnsgd1na2vs0mg"},{"bike_id":"3c2e9290-6792-4e2d-b00d-712b965be0bd","system_id":"levelo_inurba_marseille","lat":43.2558,"lon":5.38238,"is_reserved":false,"is_disabled":false,"rental_uris":{"android":"levelo://app?vid=3c2e9290-6792-4e2d-b00d-712b965be0bd","ios":"levelo://app?vid=3c2e9290-6792-4e2d-b00d-712b965be0bd"},"vehicle_type_id":"4","last_reported":1729603128,"current_range_meters":24400,"station_id":"ce4bhih2rcd13ifvqfs0","pricing_plan_id":"cebpf4jnsgd1na2vs0mg"},{"bike_id":"945fbd52-f6d5-41d3-aa72-2ac64cbc7aaa","system_id":"levelo_inurba_marseille","lat":43.2996,"lon":5.41318,"is_reserved":false,"is_disabled":false,"rental_uris":{"android":"levelo://app?vid=945fbd52-f6d5-41d3-aa72-2ac64cbc7aaa","ios":"levelo://app?vid=945fbd52-f6d5-41d3-aa72-2ac64cbc7aaa"},"vehicle_type_id":"4","last_reported":1729603128,"current_range_meters":38800,"station_id":"ce4bhp12rcd13ifvqh9g","pricing_plan_id":"cebpf4jnsgd1na2vs0mg"},{"bike_id":"7f0ee47f-7d92-4f88-8533-5eb9c2fcf798","system_id":"levelo_inurba_marseille","lat":43.27996,"lon":5.41665,"is_reserved":false,"is_disabled":false,"rental_uris":{"android":"levelo://app?vid=7f0ee47f-7d92-4f88-8533-5eb9c2fcf798","ios":"levelo://app?vid=7f0ee47f-7d92-4f88-8533-5eb9c2fcf798"},"vehicle_type_id":"4","last_reported":1729603128,"current_range_meters":38000,"station_id":"ce4bho12rcd13ifvqh1g","pricing_plan_id":"cebpf4jnsgd1na2vs0mg"},{"bike_id":"6b19548c-dc85-4ddd-97a3-97c490e4b5fc","system_id":"levelo_inurba_marseille","lat":43.33023,"lon":5.3904,"is_reserved":false,"is_disabled":false,"rental_uris":{"android":"levelo://app?vid=6b19548c-dc85-4ddd-97a3-97c490e4b5fc","ios":"levelo://app?vid=6b19548c-dc85-4ddd-97a3-97c490e4b5fc"},"vehicle_type_id":"4","last_reported":1729603128,"current_range_meters":27200,"station_id":"ce4bhr92rcd13ifvqhrg","pricing_plan_id":"cebpf4jnsgd1na2vs0mg"},{"bike_id":"8a138d32-c3b1-48ef-ae28-930da869c66f","system_id":"levelo_inurba_marseille","lat":43.2872,"lon":5.36104,"is_reserved":false,"is_disabled":false,"rental_uris":{"android":"levelo://app?vid=8a138d32-c3b1-48ef-ae28-930da869c66f","ios":"levelo://app?vid=8a138d32-c3b1-48ef-ae28-930da869c66f"},"vehicle_type_id":"4","last_reported":1729603128,"current_range_meters":37600,"station_id":"cki0cbj6b192h4jlfktg","pricing_plan_id":"cebpf4jnsgd1na2vs0mg"},{"bike_id":"c6f5637f-b1b3-4c02-b43c-ab12207b514f","system_id":"levelo_inurba_marseille","lat":43.31486,"lon":5.37308,"is_reserved":false,"is_disabled":false,"rental_uris":{"android":"levelo://app?vid=c6f5637f-b1b3-4c02-b43c-ab12207b514f","ios":"levelo://app?vid=c6f5637f-b1b3-4c02-b43c-ab12207b514f"},"vehicle_type_id":"4","last_reported":1729603128,"current_range_meters":10000,"station_id":"ce4bgt12rcd13ifvqcd0","pricing_plan_id":"cebpf4jnsgd1na2vs0mg"},{"bike_id":"566ef3cd-3e87-4087-a6aa-32a145c590e2","system_id":"levelo_inurba_marseille","lat":43.25579,"lon":5.38234,"is_reserved":false,"is_disabled":false,"rental_uris":{"android":"levelo://app?vid=566ef3cd-3e87-4087-a6aa-32a145c590e2","ios":"levelo://app?vid=566ef3cd-3e87-4087-a6aa-32a145c590e2"},"vehicle_type_id":"4","last_reported":1729603128,"current_range_meters":12000,"station_id":"ce4bhih2rcd13ifvqfs0","pricing_plan_id":"cebpf4jnsgd1na2vs0mg"},{"bike_id":"e73397ec-41ef-401f-966f-7b0b12ace5aa","system_id":"levelo_inurba_marseille","lat":43.23187,"lon":5.35551,"is_reserved":false,"is_disabled":false,"rental_uris":{"android":"levelo://app?vid=e73397ec-41ef-401f-966f-7b0b12ace5aa","ios":"levelo://app?vid=e73397ec-41ef-401f-966f-7b0b12ace5aa"},"vehicle_type_id":"4","last_reported":1729603128,"current_range_meters":38800,"station_id":"ce4bhu92rcd13ifvqi70","pricing_plan_id":"cebpf4jnsgd1na2vs0mg"},{"bike_id":"4ecf189d-2cc2-4278-add4-8f877f05628b","system_id":"levelo_inurba_marseille","lat":43.30887,"lon":5.3718,"is_reserved":false,"is_disabled":false,"rental_uris":{"android":"levelo://app?vid=4ecf189d-2cc2-4278-add4-8f877f05628b","ios":"levelo://app?vid=4ecf189d-2cc2-4278-add4-8f877f05628b"},"vehicle_type_id":"4","last_reported":1729603128,"current_range_meters":38400,"station_id":"ce4bguh2rcd13ifvqckg","pricing_plan_id":"cebpf4jnsgd1na2vs0mg"},{"bike_id":"a2e39f87-fcd2-4213-a290-a8750753522e","system_id":"levelo_inurba_marseille","lat":43.25126,"lon":5.39488,"is_reserved":false,"is_disabled":false,"rental_uris":{"android":"levelo://app?vid=a2e39f87-fcd2-4213-a290-a8750753522e","ios":"levelo://app?vid=a2e39f87-fcd2-4213-a290-a8750753522e"},"vehicle_type_id":"4","last_reported":1729603128,"current_range_meters":6800,"station_id":"ce4bh512rcd13ifvqe3g","pricing_plan_id":"cebpf4jnsgd1na2vs0mg"},{"bike_id":"ef093176-380e-4dd7-a507-1b3b75199a16","system_id":"levelo_inurba_marseille","lat":43.312736,"lon":5.401702,"is_reserved":false,"is_disabled":false,"rental_uris":{"android":"levelo://app?vid=ef093176-380e-4dd7-a507-1b3b75199a16","ios":"levelo://app?vid=ef093176-380e-4dd7-a507-1b3b75199a16"},"vehicle_type_id":"4","last_reported":1729603128,"current_range_meters":33200,"station_id":"ce4bh092rcd13ifvqd30","pricing_plan_id":"cebpf4jnsgd1na2vs0mg"},{"bike_id":"4db5f57a-1837-492d-ba97-4e606b1a8f25","system_id":"levelo_inurba_marseille","lat":43.24175,"lon":5.39725,"is_reserved":false,"is_disabled":false,"rental_uris":{"android":"levelo://app?vid=4db5f57a-1837-492d-ba97-4e606b1a8f25","ios":"levelo://app?vid=4db5f57a-1837-492d-ba97-4e606b1a8f25"},"vehicle_type_id":"4","last_reported":1729603128,"current_range_meters":37600,"station_id":"ce4bhn12rcd13ifvqgpg","pricing_plan_id":"cebpf4jnsgd1na2vs0mg"},{"bike_id":"a4bec522-c4e8-47bb-983c-2f5c3143ecc9","system_id":"levelo_inurba_marseille","lat":43.24711,"lon":5.40717,"is_reserved":false,"is_disabled":false,"rental_uris":{"android":"levelo://app?vid=a4bec522-c4e8-47bb-983c-2f5c3143ecc9","ios":"levelo://app?vid=a4bec522-c4e8-47bb-983c-2f5c3143ecc9"},"vehicle_type_id":"4","last_reported":1729603128,"current_range_meters":4800,"station_id":"ce4bhmp2rcd13ifvqgog","pricing_plan_id":"cebpf4jnsgd1na2vs0mg"},{"bike_id":"abaa7a70-fef5-45f6-a2e7-c62943b39b0b","system_id":"levelo_inurba_marseille","lat":43.24666,"lon":5.38168,"is_reserved":false,"is_disabled":false,"rental_uris":{"android":"levelo://app?vid=abaa7a70-fef5-45f6-a2e7-c62943b39b0b","ios":"levelo://app?vid=abaa7a70-fef5-45f6-a2e7-c62943b39b0b"},"vehicle_type_id":"4","last_reported":1729603128,"current_range_meters":19600,"station_id":"ce4bhih2rcd13ifvqfr0","pricing_plan_id":"cebpf4jnsgd1na2vs0mg"},{"bike_id":"dad98780-ab9f-465c-924e-7a746bf1c782","system_id":"levelo_inurba_marseille","lat":43.313293,"lon":5.39693,"is_reserved":false,"is_disabled":false,"rental_uris":{"android":"levelo://app?vid=dad98780-ab9f-465c-924e-7a746bf1c782","ios":"levelo://app?vid=dad98780-ab9f-465c-924e-7a746bf1c782"},"vehicle_type_id":"4","last_reported":1729603128,"current_range_meters":38800,"station_id":"ce4bgj12rcd13ifvqbc0","pricing_plan_id":"cebpf4jnsgd1na2vs0mg"},{"bike_id":"85cb8cd9-d259-4bc1-ac96-c9bf963c606a","system_id":"levelo_inurba_marseille","lat":43.26565,"lon":5.39016,"is_reserved":false,"is_disabled":false,"rental_uris":{"android":"levelo://app?vid=85cb8cd9-d259-4bc1-ac96-c9bf963c606a","ios":"levelo://app?vid=85cb8cd9-d259-4bc1-ac96-c9bf963c606a"},"vehicle_type_id":"4","last_reported":1729603128,"current_range_meters":11200,"station_id":"ce4bhe12rcd13ifvqf30","pricing_plan_id":"cebpf4jnsgd1na2vs0mg"},{"bike_id":"2b5a9c06-25c2-41ce-b61c-998c12a46274","system_id":"levelo_inurba_marseille","lat":43.28422,"lon":5.34989,"is_reserved":false,"is_disabled":false,"rental_uris":{"android":"levelo://app?vid=2b5a9c06-25c2-41ce-b61c-998c12a46274","ios":"levelo://app?vid=2b5a9c06-25c2-41ce-b61c-998c12a46274"},"vehicle_type_id":"4","last_reported":1729603128,"current_range_meters":38800,"station_id":"ce4bhbh2rcd13ifvqepg","pricing_plan_id":"cebpf4jnsgd1na2vs0mg"},{"bike_id":"67349b8d-80b3-4749-832d-07f7e424b34c","system_id":"levelo_inurba_marseille","lat":43.26678,"lon":5.38265,"is_reserved":false,"is_disabled":false,"rental_uris":{"android":"levelo://app?vid=67349b8d-80b3-4749-832d-07f7e424b34c","ios":"levelo://app?vid=67349b8d-80b3-4749-832d-07f7e424b34c"},"vehicle_type_id":"4","last_reported":1729603128,"current_range_meters":38800,"station_id":"ce4bhg92rcd13ifvqf90","pricing_plan_id":"cebpf4jnsgd1na2vs0mg"},{"bike_id":"98eb1a0d-8248-4e10-9a0c-bb3ddf711df4","system_id":"levelo_inurba_marseille","lat":43.2984,"lon":5.36269,"is_reserved":false,"is_disabled":false,"rental_uris":{"android":"levelo://app?vid=98eb1a0d-8248-4e10-9a0c-bb3ddf711df4","ios":"levelo://app?vid=98eb1a0d-8248-4e10-9a0c-bb3ddf711df4"},"vehicle_type_id":"4","last_reported":1729603128,"current_range_meters":24800,"station_id":"ce4bgpp2rcd13ifvqc3g","pricing_plan_id":"cebpf4jnsgd1na2vs0mg"},{"bike_id":"435e7538-a878-4ef7-8587-4a1c9e01de76","system_id":"levelo_inurba_marseille","lat":43.27176,"lon":5.40994,"is_reserved":false,"is_disabled":false,"rental_uris":{"android":"levelo://app?vid=435e7538-a878-4ef7-8587-4a1c9e01de76","ios":"levelo://app?vid=435e7538-a878-4ef7-8587-4a1c9e01de76"},"vehicle_type_id":"4","last_reported":1729603128,"current_range_meters":36800,"station_id":"ce4bhl12rcd13ifvqgf0","pricing_plan_id":"cebpf4jnsgd1na2vs0mg"},{"bike_id":"cafb3b37-d6f2-4602-b556-77ade3996a77","system_id":"levelo_inurba_marseille","lat":43.28611,"lon":5.37062,"is_reserved":false,"is_disabled":false,"rental_uris":{"android":"levelo://app?vid=cafb3b37-d6f2-4602-b556-77ade3996a77","ios":"levelo://app?vid=cafb3b37-d6f2-4602-b556-77ade3996a77"},"vehicle_type_id":"4","last_reported":1729603128,"current_range_meters":6400,"station_id":"ce4bht12rcd13ifvqi60","pricing_plan_id":"cebpf4jnsgd1na2vs0mg"},{"bike_id":"2ac2c75f-a729-470e-9720-ce219d19a49e","system_id":"levelo_inurba_marseille","lat":43.30088,"lon":5.39074,"is_reserved":false,"is_disabled":false,"rental_uris":{"android":"levelo://app?vid=2ac2c75f-a729-470e-9720-ce219d19a49e","ios":"levelo://app?vid=2ac2c75f-a729-470e-9720-ce219d19a49e"},"vehicle_type_id":"4","last_reported":1729603128,"current_range_meters":8400,"station_id":"ce4bh192rcd13ifvqdb0","pricing_plan_id":"cebpf4jnsgd1na2vs0mg"},{"bike_id":"459913a9-98b4-4420-be9f-3ec192e7626b","system_id":"levelo_inurba_marseille","lat":43.2667,"lon":5.38274,"is_reserved":false,"is_disabled":false,"rental_uris":{"android":"levelo://app?vid=459913a9-98b4-4420-be9f-3ec192e7626b","ios":"levelo://app?vid=459913a9-98b4-4420-be9f-3ec192e7626b"},"vehicle_type_id":"4","last_reported":1729603128,"current_range_meters":10800,"station_id":"ce4bhg92rcd13ifvqf90","pricing_plan_id":"cebpf4jnsgd1na2vs0mg"},{"bike_id":"4c72ed75-c17d-47e2-8bb4-e2449803bf90","system_id":"levelo_inurba_marseille","lat":43.29957,"lon":5.41323,"is_reserved":false,"is_disabled":false,"rental_uris":{"android":"levelo://app?vid=4c72ed75-c17d-47e2-8bb4-e2449803bf90","ios":"levelo://app?vid=4c72ed75-c17d-47e2-8bb4-e2449803bf90"},"vehicle_type_id":"4","last_reported":1729603128,"current_range_meters":38800,"station_id":"ce4bhp12rcd13ifvqh9g","pricing_plan_id":"cebpf4jnsgd1na2vs0mg"},{"bike_id":"804fb848-57f6-4944-985c-c6acefd10248","system_id":"levelo_inurba_marseille","lat":43.28152,"lon":5.42647,"is_reserved":false,"is_disabled":false,"rental_uris":{"android":"levelo://app?vid=804fb848-57f6-4944-985c-c6acefd10248","ios":"levelo://app?vid=804fb848-57f6-4944-985c-c6acefd10248"},"vehicle_type_id":"4","last_reported":1729603128,"current_range_meters":38800,"station_id":"ce4bhnh2rcd13ifvqgug","pricing_plan_id":"cebpf4jnsgd1na2vs0mg"},{"bike_id":"15a1206b-e1d3-478c-a77a-5d3b2979f233","system_id":"levelo_inurba_marseille","lat":43.27323,"lon":5.39083,"is_reserved":false,"is_disabled":false,"rental_uris":{"android":"levelo://app?vid=15a1206b-e1d3-478c-a77a-5d3b2979f233","ios":"levelo://app?vid=15a1206b-e1d3-478c-a77a-5d3b2979f233"},"vehicle_type_id":"4","last_reported":1729603128,"current_range_meters":23200,"station_id":"ce4bhgp2rcd13ifvqfe0","pricing_plan_id":"cebpf4jnsgd1na2vs0mg"},{"bike_id":"5c609842-ec3e-42a0-acb6-61f2e1be29a5","system_id":"levelo_inurba_marseille","lat":43.2959,"lon":5.36858,"is_reserved":false,"is_disabled":false,"rental_uris":{"android":"levelo://app?vid=5c609842-ec3e-42a0-acb6-61f2e1be29a5","ios":"levelo://app?vid=5c609842-ec3e-42a0-acb6-61f2e1be29a5"},"vehicle_type_id":"4","last_reported":1729603128,"current_range_meters":33200,"station_id":"ce4bgph2rcd13ifvqc2g","pricing_plan_id":"cebpf4jnsgd1na2vs0mg"},{"bike_id":"468cd4a3-3c16-48b9-86b3-c1b2a2d289db","system_id":"levelo_inurba_marseille","lat":43.30927,"lon":5.40131,"is_reserved":false,"is_disabled":false,"rental_uris":{"android":"levelo://app?vid=468cd4a3-3c16-48b9-86b3-c1b2a2d289db","ios":"levelo://app?vid=468cd4a3-3c16-48b9-86b3-c1b2a2d289db"},"vehicle_type_id":"4","last_reported":1729603128,"current_range_meters":36400,"station_id":"ce4bgvp2rcd13ifvqct0","pricing_plan_id":"cebpf4jnsgd1na2vs0mg"},{"bike_id":"da9e800d-d7ff-4814-8afb-effd7f69db72","system_id":"levelo_inurba_marseille","lat":43.29265,"lon":5.38453,"is_reserved":false,"is_disabled":false,"rental_uris":{"android":"levelo://app?vid=da9e800d-d7ff-4814-8afb-effd7f69db72","ios":"levelo://app?vid=da9e800d-d7ff-4814-8afb-effd7f69db72"},"vehicle_type_id":"4","last_reported":1729603128,"current_range_meters":27600,"station_id":"ce4bh692rcd13ifvqea0","pricing_plan_id":"cebpf4jnsgd1na2vs0mg"},{"bike_id":"1f77f92d-2355-4ad9-80da-df10c79a508c","system_id":"levelo_inurba_marseille","lat":43.29551,"lon":5.42288,"is_reserved":false,"is_disabled":false,"rental_uris":{"android":"levelo://app?vid=1f77f92d-2355-4ad9-80da-df10c79a508c","ios":"levelo://app?vid=1f77f92d-2355-4ad9-80da-df10c79a508c"},"vehicle_type_id":"4","last_reported":1729603128,"current_range_meters":9200,"station_id":"ce4bhph2rcd13ifvqhdg","pricing_plan_id":"cebpf4jnsgd1na2vs0mg"},{"bike_id":"9b3231dc-39a4-481e-82f9-ba746872deb3","system_id":"levelo_inurba_marseille","lat":43.24587,"lon":5.42982,"is_reserved":false,"is_disabled":false,"rental_uris":{"android":"levelo://app?vid=9b3231dc-39a4-481e-82f9-ba746872deb3","ios":"levelo://app?vid=9b3231dc-39a4-481e-82f9-ba746872deb3"},"vehicle_type_id":"4","last_reported":1729603128,"current_range_meters":38800,"station_id":"","pricing_plan_id":"cebpf4jnsgd1na2vs0mg"},{"bike_id":"9fe99e90-9f96-4760-984f-54643ba8205f","system_id":"levelo_inurba_marseille","lat":43.33606,"lon":5.41015,"is_reserved":false,"is_disabled":false,"rental_uris":{"android":"levelo://app?vid=9fe99e90-9f96-4760-984f-54643ba8205f","ios":"levelo://app?vid=9fe99e90-9f96-4760-984f-54643ba8205f"},"vehicle_type_id":"4","last_reported":1729603128,"current_range_meters":25200,"station_id":"ce4bhqh2rcd13ifvqhmg","pricing_plan_id":"cebpf4jnsgd1na2vs0mg"},{"bike_id":"70ca574a-dff1-46a0-ae39-3685642356f5","system_id":"levelo_inurba_marseille","lat":43.29525,"lon":5.37497,"is_reserved":false,"is_disabled":false,"rental_uris":{"android":"levelo://app?vid=70ca574a-dff1-46a0-ae39-3685642356f5","ios":"levelo://app?vid=70ca574a-dff1-46a0-ae39-3685642356f5"},"vehicle_type_id":"4","last_reported":1729603128,"current_range_meters":38800,"station_id":"ce4bgkp2rcd13ifvqbmg","pricing_plan_id":"cebpf4jnsgd1na2vs0mg"},{"bike_id":"0f075d40-fcf9-47c6-9718-536382077367","system_id":"levelo_inurba_marseille","lat":43.31067,"lon":5.40085,"is_reserved":false,"is_disabled":false,"rental_uris":{"android":"levelo://app?vid=0f075d40-fcf9-47c6-9718-536382077367","ios":"levelo://app?vid=0f075d40-fcf9-47c6-9718-536382077367"},"vehicle_type_id":"4","last_reported":1729603128,"current_range_meters":22000,"station_id":"","pricing_plan_id":"cebpf4jnsgd1na2vs0mg"},{"bike_id":"7a030e3c-23e0-4ae3-af5b-9d3c83efe74c","system_id":"levelo_inurba_marseille","lat":43.24393,"lon":5.3706,"is_reserved":false,"is_disabled":false,"rental_uris":{"android":"levelo://app?vid=7a030e3c-23e0-4ae3-af5b-9d3c83efe74c","ios":"levelo://app?vid=7a030e3c-23e0-4ae3-af5b-9d3c83efe74c"},"vehicle_type_id":"4","last_reported":1729603128,"current_range_meters":29600,"station_id":"ce4bhhh2rcd13ifvqfk0","pricing_plan_id":"cebpf4jnsgd1na2vs0mg"},{"bike_id":"f7f4db28-717b-4d9f-8a46-3629d170ca06","system_id":"levelo_inurba_marseille","lat":43.33735,"lon":5.37455,"is_reserved":false,"is_disabled":false,"rental_uris":{"android":"levelo://app?vid=f7f4db28-717b-4d9f-8a46-3629d170ca06","ios":"levelo://app?vid=f7f4db28-717b-4d9f-8a46-3629d170ca06"},"vehicle_type_id":"4","last_reported":1729603128,"current_range_meters":38400,"station_id":"","pricing_plan_id":"cebpf4jnsgd1na2vs0mg"},{"bike_id":"880f7942-b7ef-4c3e-a937-c9106002a87e","system_id":"levelo_inurba_marseille","lat":43.32484,"lon":5.36563,"is_reserved":false,"is_disabled":false,"rental_uris":{"android":"levelo://app?vid=880f7942-b7ef-4c3e-a937-c9106002a87e","ios":"levelo://app?vid=880f7942-b7ef-4c3e-a937-c9106002a87e"},"vehicle_type_id":"4","last_reported":1729603128,"current_range_meters":24800,"station_id":"ce4bhs12rcd13ifvqhvg","pricing_plan_id":"cebpf4jnsgd1na2vs0mg"},{"bike_id":"1d1f509b-9264-4c16-8384-91bdd501e241","system_id":"levelo_inurba_marseille","lat":43.34141,"lon":5.40898,"is_reserved":false,"is_disabled":false,"rental_uris":{"android":"levelo://app?vid=1d1f509b-9264-4c16-8384-91bdd501e241","ios":"levelo://app?vid=1d1f509b-9264-4c16-8384-91bdd501e241"},"vehicle_type_id":"4","last_reported":1729603128,"current_range_meters":25200,"station_id":"ce4bhqh2rcd13ifvqhlg","pricing_plan_id":"cebpf4jnsgd1na2vs0mg"},{"bike_id":"07829a2d-bc30-4fbf-a5bc-6b832ec7c269","system_id":"levelo_inurba_marseille","lat":43.28962,"lon":5.36321,"is_reserved":false,"is_disabled":false,"rental_uris":{"android":"levelo://app?vid=07829a2d-bc30-4fbf-a5bc-6b832ec7c269","ios":"levelo://app?vid=07829a2d-bc30-4fbf-a5bc-6b832ec7c269"},"vehicle_type_id":"4","last_reported":1729603128,"current_range_meters":3600,"station_id":"ce4bhc92rcd13ifvqetg","pricing_plan_id":"cebpf4jnsgd1na2vs0mg"},{"bike_id":"369e5497-5079-455b-916c-52a22c65c317","system_id":"levelo_inurba_marseille","lat":43.28716,"lon":5.37929,"is_reserved":false,"is_disabled":false,"rental_uris":{"android":"levelo://app?vid=369e5497-5079-455b-916c-52a22c65c317","ios":"levelo://app?vid=369e5497-5079-455b-916c-52a22c65c317"},"vehicle_type_id":"4","last_reported":1729603128,"current_range_meters":15200,"station_id":"ce4bh9p2rcd13ifvqec0","pricing_plan_id":"cebpf4jnsgd1na2vs0mg"},{"bike_id":"e2379923-b307-4844-8742-6bc4e1173453","system_id":"levelo_inurba_marseille","lat":43.29601,"lon":5.38108,"is_reserved":false,"is_disabled":false,"rental_uris":{"android":"levelo://app?vid=e2379923-b307-4844-8742-6bc4e1173453","ios":"levelo://app?vid=e2379923-b307-4844-8742-6bc4e1173453"},"vehicle_type_id":"4","last_reported":1729603128,"current_range_meters":14000,"station_id":"ce4bgl12rcd13ifvqbo0","pricing_plan_id":"cebpf4jnsgd1na2vs0mg"},{"bike_id":"396b8a37-3b26-4077-9568-090fda044e26","system_id":"levelo_inurba_marseille","lat":43.29719,"lon":5.377,"is_reserved":false,"is_disabled":false,"rental_uris":{"android":"levelo://app?vid=396b8a37-3b26-4077-9568-090fda044e26","ios":"levelo://app?vid=396b8a37-3b26-4077-9568-090fda044e26"},"vehicle_type_id":"4","last_reported":1729603128,"current_range_meters":38800,"station_id":"ce4bgkh2rcd13ifvqbl0","pricing_plan_id":"cebpf4jnsgd1na2vs0mg"},{"bike_id":"e71f336f-8cff-42c5-b46c-e4608e489f94","system_id":"levelo_inurba_marseille","lat":43.24076,"lon":5.37754,"is_reserved":false,"is_disabled":false,"rental_uris":{"android":"levelo://app?vid=e71f336f-8cff-42c5-b46c-e4608e489f94","ios":"levelo://app?vid=e71f336f-8cff-42c5-b46c-e4608e489f94"},"vehicle_type_id":"4","last_reported":1729603128,"current_range_meters":16800,"station_id":"ce4bhnp2rcd13ifvqgvg","pricing_plan_id":"cebpf4jnsgd1na2vs0mg"},{"bike_id":"a9d99a07-01a7-458e-972d-4ceef2e04eda","system_id":"levelo_inurba_marseille","lat":43.324838,"lon":5.36569,"is_reserved":false,"is_disabled":false,"rental_uris":{"android":"levelo://app?vid=a9d99a07-01a7-458e-972d-4ceef2e04eda","ios":"levelo://app?vid=a9d99a07-01a7-458e-972d-4ceef2e04eda"},"vehicle_type_id":"4","last_reported":1729603128,"current_range_meters":19200,"station_id":"ce4bhs12rcd13ifvqhvg","pricing_plan_id":"cebpf4jnsgd1na2vs0mg"},{"bike_id":"26b6d52d-0566-4908-b015-a804d21f4df3","system_id":"levelo_inurba_marseille","lat":43.24078,"lon":5.37732,"is_reserved":false,"is_disabled":false,"rental_uris":{"android":"levelo://app?vid=26b6d52d-0566-4908-b015-a804d21f4df3","ios":"levelo://app?vid=26b6d52d-0566-4908-b015-a804d21f4df3"},"vehicle_type_id":"4","last_reported":1729603128,"current_range_meters":36800,"station_id":"ce4bhnp2rcd13ifvqgvg","pricing_plan_id":"cebpf4jnsgd1na2vs0mg"},{"bike_id":"864575c1-85b8-4008-92ba-391073d4ed51","system_id":"levelo_inurba_marseille","lat":43.23189,"lon":5.35543,"is_reserved":false,"is_disabled":false,"rental_uris":{"android":"levelo://app?vid=864575c1-85b8-4008-92ba-391073d4ed51","ios":"levelo://app?vid=864575c1-85b8-4008-92ba-391073d4ed51"},"vehicle_type_id":"4","last_reported":1729603128,"current_range_meters":24400,"station_id":"ce4bhu92rcd13ifvqi70","pricing_plan_id":"cebpf4jnsgd1na2vs0mg"},{"bike_id":"a07f0ca4-d551-4b38-aa88-198544400c7c","system_id":"levelo_inurba_marseille","lat":43.24614,"lon":5.43064,"is_reserved":false,"is_disabled":false,"rental_uris":{"android":"levelo://app?vid=a07f0ca4-d551-4b38-aa88-198544400c7c","ios":"levelo://app?vid=a07f0ca4-d551-4b38-aa88-198544400c7c"},"vehicle_type_id":"4","last_reported":1729603128,"current_range_meters":22400,"station_id":"","pricing_plan_id":"cebpf4jnsgd1na2vs0mg"},{"bike_id":"08917b80-2573-433b-95bc-2a26aa0d0b86","system_id":"levelo_inurba_marseille","lat":43.29278,"lon":5.36842,"is_reserved":false,"is_disabled":false,"rental_uris":{"android":"levelo://app?vid=08917b80-2573-433b-95bc-2a26aa0d0b86","ios":"levelo://app?vid=08917b80-2573-433b-95bc-2a26aa0d0b86"},"vehicle_type_id":"4","last_reported":1729603128,"current_range_meters":38400,"station_id":"ce4bhbp2rcd13ifvqesg","pricing_plan_id":"cebpf4jnsgd1na2vs0mg"},{"bike_id":"0578eb46-b64d-4d56-8ccf-81abefea2c6c","system_id":"levelo_inurba_marseille","lat":43.28271,"lon":5.35058,"is_reserved":false,"is_disabled":false,"rental_uris":{"android":"levelo://app?vid=0578eb46-b64d-4d56-8ccf-81abefea2c6c","ios":"levelo://app?vid=0578eb46-b64d-4d56-8ccf-81abefea2c6c"},"vehicle_type_id":"4","last_reported":1729603128,"current_range_meters":8000,"station_id":"ce4bhbp2rcd13ifvqerg","pricing_plan_id":"cebpf4jnsgd1na2vs0mg"},{"bike_id":"5f7d1a7b-9703-4f6d-9c4f-f435f331b854","system_id":"levelo_inurba_marseille","lat":43.2418,"lon":5.39726,"is_reserved":false,"is_disabled":false,"rental_uris":{"android":"levelo://app?vid=5f7d1a7b-9703-4f6d-9c4f-f435f331b854","ios":"levelo://app?vid=5f7d1a7b-9703-4f6d-9c4f-f435f331b854"},"vehicle_type_id":"4","last_reported":1729603128,"current_range_meters":2800,"station_id":"ce4bhn12rcd13ifvqgpg","pricing_plan_id":"cebpf4jnsgd1na2vs0mg"},{"bike_id":"0bb01162-28d0-4a76-a3d3-1f46fc196262","system_id":"levelo_inurba_marseille","lat":43.3054,"lon":5.36528,"is_reserved":false,"is_disabled":false,"rental_uris":{"android":"levelo://app?vid=0bb01162-28d0-4a76-a3d3-1f46fc196262","ios":"levelo://app?vid=0bb01162-28d0-4a76-a3d3-1f46fc196262"},"vehicle_type_id":"4","last_reported":1729603128,"current_range_meters":38800,"station_id":"ce4bgs12rcd13ifvqcag","pricing_plan_id":"cebpf4jnsgd1na2vs0mg"},{"bike_id":"0728974d-1ad5-4181-91f2-6035aab7157d","system_id":"levelo_inurba_marseille","lat":43.23188,"lon":5.35554,"is_reserved":false,"is_disabled":false,"rental_uris":{"android":"levelo://app?vid=0728974d-1ad5-4181-91f2-6035aab7157d","ios":"levelo://app?vid=0728974d-1ad5-4181-91f2-6035aab7157d"},"vehicle_type_id":"4","last_reported":1729603128,"current_range_meters":38800,"station_id":"ce4bhu92rcd13ifvqi70","pricing_plan_id":"cebpf4jnsgd1na2vs0mg"},{"bike_id":"daa87e2b-89c2-4c8f-8935-631baca4941b","system_id":"levelo_inurba_marseille","lat":43.24166,"lon":5.36386,"is_reserved":false,"is_disabled":false,"rental_uris":{"android":"levelo://app?vid=daa87e2b-89c2-4c8f-8935-631baca4941b","ios":"levelo://app?vid=daa87e2b-89c2-4c8f-8935-631baca4941b"},"vehicle_type_id":"4","last_reported":1729603128,"current_range_meters":12400,"station_id":"cpo36qri1sfpv3e86is0","pricing_plan_id":"cebpf4jnsgd1na2vs0mg"},{"bike_id":"c594f0bd-1238-4647-b774-19298d13964d","system_id":"levelo_inurba_marseille","lat":43.23959,"lon":5.36628,"is_reserved":false,"is_disabled":false,"rental_uris":{"android":"levelo://app?vid=c594f0bd-1238-4647-b774-19298d13964d","ios":"levelo://app?vid=c594f0bd-1238-4647-b774-19298d13964d"},"vehicle_type_id":"4","last_reported":1729603128,"current_range_meters":6000,"station_id":"ce4bhi12rcd13ifvqfp0","pricing_plan_id":"cebpf4jnsgd1na2vs0mg"},{"bike_id":"8b5f9249-4841-486c-a827-c0654f91cc8f","system_id":"levelo_inurba_marseille","lat":43.26568,"lon":5.39007,"is_reserved":false,"is_disabled":false,"rental_uris":{"android":"levelo://app?vid=8b5f9249-4841-486c-a827-c0654f91cc8f","ios":"levelo://app?vid=8b5f9249-4841-486c-a827-c0654f91cc8f"},"vehicle_type_id":"4","last_reported":1729603128,"current_range_meters":24800,"station_id":"ce4bhe12rcd13ifvqf30","pricing_plan_id":"cebpf4jnsgd1na2vs0mg"},{"bike_id":"5e54bdc7-6fde-4b99-a878-4cc883b13f73","system_id":"levelo_inurba_marseille","lat":43.26678,"lon":5.38265,"is_reserved":false,"is_disabled":false,"rental_uris":{"android":"levelo://app?vid=5e54bdc7-6fde-4b99-a878-4cc883b13f73","ios":"levelo://app?vid=5e54bdc7-6fde-4b99-a878-4cc883b13f73"},"vehicle_type_id":"4","last_reported":1729603128,"current_range_meters":12000,"station_id":"ce4bhg92rcd13ifvqf90","pricing_plan_id":"cebpf4jnsgd1na2vs0mg"},{"bike_id":"8bc25033-f74d-47f7-9129-ed0bf4d6bbdc","system_id":"levelo_inurba_marseille","lat":43.28269,"lon":5.35052,"is_reserved":false,"is_disabled":false,"rental_uris":{"android":"levelo://app?vid=8bc25033-f74d-47f7-9129-ed0bf4d6bbdc","ios":"levelo://app?vid=8bc25033-f74d-47f7-9129-ed0bf4d6bbdc"},"vehicle_type_id":"4","last_reported":1729603128,"current_range_meters":28400,"station_id":"ce4bhbp2rcd13ifvqerg","pricing_plan_id":"cebpf4jnsgd1na2vs0mg"},{"bike_id":"52bc770e-caa3-429e-90b1-eae6fc5536d3","system_id":"levelo_inurba_marseille","lat":43.24171,"lon":5.36401,"is_reserved":false,"is_disabled":false,"rental_uris":{"android":"levelo://app?vid=52bc770e-caa3-429e-90b1-eae6fc5536d3","ios":"levelo://app?vid=52bc770e-caa3-429e-90b1-eae6fc5536d3"},"vehicle_type_id":"4","last_reported":1729603128,"current_range_meters":10800,"station_id":"cpo36qri1sfpv3e86is0","pricing_plan_id":"cebpf4jnsgd1na2vs0mg"},{"bike_id":"34411301-8865-4b9b-b8f4-f9c430c9a797","system_id":"levelo_inurba_marseille","lat":43.27373,"lon":5.36255,"is_reserved":false,"is_disabled":false,"rental_uris":{"android":"levelo://app?vid=34411301-8865-4b9b-b8f4-f9c430c9a797","ios":"levelo://app?vid=34411301-8865-4b9b-b8f4-f9c430c9a797"},"vehicle_type_id":"4","last_reported":1729603128,"current_range_meters":2800,"station_id":"ce4bhbh2rcd13ifvqeo0","pricing_plan_id":"cebpf4jnsgd1na2vs0mg"},{"bike_id":"b80433ac-4b37-4869-84e8-91999a3765ef","system_id":"levelo_inurba_marseille","lat":43.33599,"lon":5.41019,"is_reserved":false,"is_disabled":false,"rental_uris":{"android":"levelo://app?vid=b80433ac-4b37-4869-84e8-91999a3765ef","ios":"levelo://app?vid=b80433ac-4b37-4869-84e8-91999a3765ef"},"vehicle_type_id":"4","last_reported":1729603128,"current_range_meters":26800,"station_id":"ce4bhqh2rcd13ifvqhmg","pricing_plan_id":"cebpf4jnsgd1na2vs0mg"},{"bike_id":"79a1e020-318b-42a1-a8c0-a424b1daf69e","system_id":"levelo_inurba_marseille","lat":43.296,"lon":5.36142,"is_reserved":false,"is_disabled":false,"rental_uris":{"android":"levelo://app?vid=79a1e020-318b-42a1-a8c0-a424b1daf69e","ios":"levelo://app?vid=79a1e020-318b-42a1-a8c0-a424b1daf69e"},"vehicle_type_id":"4","last_reported":1729603128,"current_range_meters":6000,"station_id":"","pricing_plan_id":"cebpf4jnsgd1na2vs0mg"},{"bike_id":"3e2c12b4-9b33-420b-a7d3-dfba53152df0","system_id":"levelo_inurba_marseille","lat":43.25813,"lon":5.39425,"is_reserved":false,"is_disabled":false,"rental_uris":{"android":"levelo://app?vid=3e2c12b4-9b33-420b-a7d3-dfba53152df0","ios":"levelo://app?vid=3e2c12b4-9b33-420b-a7d3-dfba53152df0"},"vehicle_type_id":"4","last_reported":1729603128,"current_range_meters":36400,"station_id":"ce4bhip2rcd13ifvqft0","pricing_plan_id":"cebpf4jnsgd1na2vs0mg"},{"bike_id":"6eced96a-b021-41b9-89bf-72379aa39c97","system_id":"levelo_inurba_marseille","lat":43.25924,"lon":5.40896,"is_reserved":false,"is_disabled":false,"rental_uris":{"android":"levelo://app?vid=6eced96a-b021-41b9-89bf-72379aa39c97","ios":"levelo://app?vid=6eced96a-b021-41b9-89bf-72379aa39c97"},"vehicle_type_id":"4","last_reported":1729603128,"current_range_meters":32000,"station_id":"ce4bhm92rcd13ifvqglg","pricing_plan_id":"cebpf4jnsgd1na2vs0mg"},{"bike_id":"df5cdff5-7cfb-4989-b9b6-4ce65a2f4fdb","system_id":"levelo_inurba_marseille","lat":43.29187,"lon":5.35793,"is_reserved":false,"is_disabled":false,"rental_uris":{"android":"levelo://app?vid=df5cdff5-7cfb-4989-b9b6-4ce65a2f4fdb","ios":"levelo://app?vid=df5cdff5-7cfb-4989-b9b6-4ce65a2f4fdb"},"vehicle_type_id":"4","last_reported":1729603128,"current_range_meters":16000,"station_id":"ce4bhb12rcd13ifvqel0","pricing_plan_id":"cebpf4jnsgd1na2vs0mg"},{"bike_id":"03add1c1-b997-4af0-8675-b43c8e7e3407","system_id":"levelo_inurba_marseille","lat":43.25502,"lon":5.37647,"is_reserved":false,"is_disabled":false,"rental_uris":{"android":"levelo://app?vid=03add1c1-b997-4af0-8675-b43c8e7e3407","ios":"levelo://app?vid=03add1c1-b997-4af0-8675-b43c8e7e3407"},"vehicle_type_id":"4","last_reported":1729603128,"current_range_meters":25200,"station_id":"ce4bhh12rcd13ifvqff0","pricing_plan_id":"cebpf4jnsgd1na2vs0mg"},{"bike_id":"2024b07b-e95a-46a6-8a70-400d4e43d242","system_id":"levelo_inurba_marseille","lat":43.26791,"lon":5.3942,"is_reserved":false,"is_disabled":false,"rental_uris":{"android":"levelo://app?vid=2024b07b-e95a-46a6-8a70-400d4e43d242","ios":"levelo://app?vid=2024b07b-e95a-46a6-8a70-400d4e43d242"},"vehicle_type_id":"4","last_reported":1729603128,"current_range_meters":8800,"station_id":"ce4bhh12rcd13ifvqfg0","pricing_plan_id":"cebpf4jnsgd1na2vs0mg"},{"bike_id":"7adf842b-4b8c-4356-a23f-1be0cbaf4d21","system_id":"levelo_inurba_marseille","lat":43.23194,"lon":5.35544,"is_reserved":false,"is_disabled":false,"rental_uris":{"android":"levelo://app?vid=7adf842b-4b8c-4356-a23f-1be0cbaf4d21","ios":"levelo://app?vid=7adf842b-4b8c-4356-a23f-1be0cbaf4d21"},"vehicle_type_id":"4","last_reported":1729603128,"current_range_meters":9200,"station_id":"ce4bhu92rcd13ifvqi70","pricing_plan_id":"cebpf4jnsgd1na2vs0mg"},{"bike_id":"4b793f18-a1a8-4850-bf7f-1ac8cb9ac4ea","system_id":"levelo_inurba_marseille","lat":43.32028,"lon":5.41589,"is_reserved":false,"is_disabled":false,"rental_uris":{"android":"levelo://app?vid=4b793f18-a1a8-4850-bf7f-1ac8cb9ac4ea","ios":"levelo://app?vid=4b793f18-a1a8-4850-bf7f-1ac8cb9ac4ea"},"vehicle_type_id":"4","last_reported":1729603128,"current_range_meters":22000,"station_id":"ce4bhq92rcd13ifvqhkg","pricing_plan_id":"cebpf4jnsgd1na2vs0mg"},{"bike_id":"3fbb21dc-457c-4028-8cc7-8a7ddebb915c","system_id":"levelo_inurba_marseille","lat":43.23188,"lon":5.35546,"is_reserved":false,"is_disabled":false,"rental_uris":{"android":"levelo://app?vid=3fbb21dc-457c-4028-8cc7-8a7ddebb915c","ios":"levelo://app?vid=3fbb21dc-457c-4028-8cc7-8a7ddebb915c"},"vehicle_type_id":"4","last_reported":1729603128,"current_range_meters":36400,"station_id":"ce4bhu92rcd13ifvqi70","pricing_plan_id":"cebpf4jnsgd1na2vs0mg"},{"bike_id":"8d66234d-ed10-4a56-b9bf-7024ed1a6c9c","system_id":"levelo_inurba_marseille","lat":43.32595,"lon":5.37872,"is_reserved":false,"is_disabled":false,"rental_uris":{"android":"levelo://app?vid=8d66234d-ed10-4a56-b9bf-7024ed1a6c9c","ios":"levelo://app?vid=8d66234d-ed10-4a56-b9bf-7024ed1a6c9c"},"vehicle_type_id":"4","last_reported":1729603128,"current_range_meters":6400,"station_id":"","pricing_plan_id":"cebpf4jnsgd1na2vs0mg"},{"bike_id":"161945ab-382a-4517-b6e1-9f214f6c4d9a","system_id":"levelo_inurba_marseille","lat":43.23151,"lon":5.43714,"is_reserved":false,"is_disabled":false,"rental_uris":{"android":"levelo://app?vid=161945ab-382a-4517-b6e1-9f214f6c4d9a","ios":"levelo://app?vid=161945ab-382a-4517-b6e1-9f214f6c4d9a"},"vehicle_type_id":"4","last_reported":1729603128,"current_range_meters":9600,"station_id":"ce4bhmp2rcd13ifvqgog","pricing_plan_id":"cebpf4jnsgd1na2vs0mg"},{"bike_id":"f31324ed-9980-4ef2-b66e-6c1fb78515f9","system_id":"levelo_inurba_marseille","lat":43.29218,"lon":5.36076,"is_reserved":false,"is_disabled":false,"rental_uris":{"android":"levelo://app?vid=f31324ed-9980-4ef2-b66e-6c1fb78515f9","ios":"levelo://app?vid=f31324ed-9980-4ef2-b66e-6c1fb78515f9"},"vehicle_type_id":"4","last_reported":1729603128,"current_range_meters":24000,"station_id":"ce4bhbh2rcd13ifvqeqg","pricing_plan_id":"cebpf4jnsgd1na2vs0mg"},{"bike_id":"fadcd59b-a3e7-40f6-9945-a2789b72f9bd","system_id":"levelo_inurba_marseille","lat":43.29799,"lon":5.40393,"is_reserved":false,"is_disabled":false,"rental_uris":{"android":"levelo://app?vid=fadcd59b-a3e7-40f6-9945-a2789b72f9bd","ios":"levelo://app?vid=fadcd59b-a3e7-40f6-9945-a2789b72f9bd"},"vehicle_type_id":"4","last_reported":1729603128,"current_range_meters":17200,"station_id":"ce4bh112rcd13ifvqd90","pricing_plan_id":"cebpf4jnsgd1na2vs0mg"},{"bike_id":"381240ae-0a2b-4391-9a6a-8aae2a77183c","system_id":"levelo_inurba_marseille","lat":43.25502,"lon":5.37645,"is_reserved":false,"is_disabled":false,"rental_uris":{"android":"levelo://app?vid=381240ae-0a2b-4391-9a6a-8aae2a77183c","ios":"levelo://app?vid=381240ae-0a2b-4391-9a6a-8aae2a77183c"},"vehicle_type_id":"4","last_reported":1729603128,"current_range_meters":36800,"station_id":"ce4bhh12rcd13ifvqff0","pricing_plan_id":"cebpf4jnsgd1na2vs0mg"},{"bike_id":"1d043a7e-e4a0-4b52-a511-dae1798912e1","system_id":"levelo_inurba_marseille","lat":43.281529,"lon":5.426306,"is_reserved":false,"is_disabled":false,"rental_uris":{"android":"levelo://app?vid=1d043a7e-e4a0-4b52-a511-dae1798912e1","ios":"levelo://app?vid=1d043a7e-e4a0-4b52-a511-dae1798912e1"},"vehicle_type_id":"4","last_reported":1729603128,"current_range_meters":36800,"station_id":"ce4bhnh2rcd13ifvqgug","pricing_plan_id":"cebpf4jnsgd1na2vs0mg"},{"bike_id":"1e5283a5-d170-4297-9bf1-b72ae5b5c3b7","system_id":"levelo_inurba_marseille","lat":43.297033,"lon":5.367999,"is_reserved":false,"is_disabled":false,"rental_uris":{"android":"levelo://app?vid=1e5283a5-d170-4297-9bf1-b72ae5b5c3b7","ios":"levelo://app?vid=1e5283a5-d170-4297-9bf1-b72ae5b5c3b7"},"vehicle_type_id":"4","last_reported":1729603128,"current_range_meters":18800,"station_id":"ce4bh2h2rcd13ifvqdh0","pricing_plan_id":"cebpf4jnsgd1na2vs0mg"},{"bike_id":"d89fa081-c6ae-4d06-a72d-09f8e4b0ae5e","system_id":"levelo_inurba_marseille","lat":43.26491,"lon":5.39545,"is_reserved":false,"is_disabled":false,"rental_uris":{"android":"levelo://app?vid=d89fa081-c6ae-4d06-a72d-09f8e4b0ae5e","ios":"levelo://app?vid=d89fa081-c6ae-4d06-a72d-09f8e4b0ae5e"},"vehicle_type_id":"4","last_reported":1729603128,"current_range_meters":6400,"station_id":"ce4bhi12rcd13ifvqfq0","pricing_plan_id":"cebpf4jnsgd1na2vs0mg"},{"bike_id":"d12868c5-bc45-4597-99ac-307bf45b5ee3","system_id":"levelo_inurba_marseille","lat":43.29847,"lon":5.36288,"is_reserved":false,"is_disabled":false,"rental_uris":{"android":"levelo://app?vid=d12868c5-bc45-4597-99ac-307bf45b5ee3","ios":"levelo://app?vid=d12868c5-bc45-4597-99ac-307bf45b5ee3"},"vehicle_type_id":"4","last_reported":1729603128,"current_range_meters":23200,"station_id":"ce4bgpp2rcd13ifvqc3g","pricing_plan_id":"cebpf4jnsgd1na2vs0mg"},{"bike_id":"4c9cd873-b86d-45ed-8195-b76cbcf6fe83","system_id":"levelo_inurba_marseille","lat":43.25928,"lon":5.409,"is_reserved":false,"is_disabled":false,"rental_uris":{"android":"levelo://app?vid=4c9cd873-b86d-45ed-8195-b76cbcf6fe83","ios":"levelo://app?vid=4c9cd873-b86d-45ed-8195-b76cbcf6fe83"},"vehicle_type_id":"4","last_reported":1729603128,"current_range_meters":32400,"station_id":"ce4bhm92rcd13ifvqglg","pricing_plan_id":"cebpf4jnsgd1na2vs0mg"},{"bike_id":"b588381e-402d-4ab9-96b0-0e7756bdb50f","system_id":"levelo_inurba_marseille","lat":43.27063,"lon":5.40256,"is_reserved":false,"is_disabled":false,"rental_uris":{"android":"levelo://app?vid=b588381e-402d-4ab9-96b0-0e7756bdb50f","ios":"levelo://app?vid=b588381e-402d-4ab9-96b0-0e7756bdb50f"},"vehicle_type_id":"4","last_reported":1729603128,"current_range_meters":35200,"station_id":"ce4bhk92rcd13ifvqgc0","pricing_plan_id":"cebpf4jnsgd1na2vs0mg"},{"bike_id":"f48b9292-5b23-4c1d-b443-99520d182fe9","system_id":"levelo_inurba_marseille","lat":43.31713,"lon":5.37753,"is_reserved":false,"is_disabled":false,"rental_uris":{"android":"levelo://app?vid=f48b9292-5b23-4c1d-b443-99520d182fe9","ios":"levelo://app?vid=f48b9292-5b23-4c1d-b443-99520d182fe9"},"vehicle_type_id":"4","last_reported":1729603128,"current_range_meters":28400,"station_id":"ce4bgth2rcd13ifvqch0","pricing_plan_id":"cebpf4jnsgd1na2vs0mg"},{"bike_id":"f5c5940f-a22f-4e6e-890d-1c4d83ae1ed5","system_id":"levelo_inurba_marseille","lat":43.2952,"lon":5.37496,"is_reserved":false,"is_disabled":false,"rental_uris":{"android":"levelo://app?vid=f5c5940f-a22f-4e6e-890d-1c4d83ae1ed5","ios":"levelo://app?vid=f5c5940f-a22f-4e6e-890d-1c4d83ae1ed5"},"vehicle_type_id":"4","last_reported":1729603128,"current_range_meters":38800,"station_id":"ce4bgkp2rcd13ifvqbmg","pricing_plan_id":"cebpf4jnsgd1na2vs0mg"},{"bike_id":"fc25705f-5163-4173-a66b-86be426575c4","system_id":"levelo_inurba_marseille","lat":43.24392,"lon":5.37056,"is_reserved":false,"is_disabled":false,"rental_uris":{"android":"levelo://app?vid=fc25705f-5163-4173-a66b-86be426575c4","ios":"levelo://app?vid=fc25705f-5163-4173-a66b-86be426575c4"},"vehicle_type_id":"4","last_reported":1729603128,"current_range_meters":19200,"station_id":"ce4bhhh2rcd13ifvqfk0","pricing_plan_id":"cebpf4jnsgd1na2vs0mg"},{"bike_id":"155517ef-0a83-4c87-b2da-fb3d8d259bc7","system_id":"levelo_inurba_marseille","lat":43.25576,"lon":5.38239,"is_reserved":false,"is_disabled":false,"rental_uris":{"android":"levelo://app?vid=155517ef-0a83-4c87-b2da-fb3d8d259bc7","ios":"levelo://app?vid=155517ef-0a83-4c87-b2da-fb3d8d259bc7"},"vehicle_type_id":"4","last_reported":1729603128,"current_range_meters":36800,"station_id":"ce4bhih2rcd13ifvqfs0","pricing_plan_id":"cebpf4jnsgd1na2vs0mg"},{"bike_id":"9b96872f-0bdd-46af-952e-35b75dd53af1","system_id":"levelo_inurba_marseille","lat":43.3375,"lon":5.37467,"is_reserved":false,"is_disabled":false,"rental_uris":{"android":"levelo://app?vid=9b96872f-0bdd-46af-952e-35b75dd53af1","ios":"levelo://app?vid=9b96872f-0bdd-46af-952e-35b75dd53af1"},"vehicle_type_id":"4","last_reported":1729603128,"current_range_meters":38000,"station_id":"","pricing_plan_id":"cebpf4jnsgd1na2vs0mg"},{"bike_id":"db3a2b4c-3b74-441f-ac70-efb5c5f67d72","system_id":"levelo_inurba_marseille","lat":43.26685,"lon":5.38268,"is_reserved":false,"is_disabled":false,"rental_uris":{"android":"levelo://app?vid=db3a2b4c-3b74-441f-ac70-efb5c5f67d72","ios":"levelo://app?vid=db3a2b4c-3b74-441f-ac70-efb5c5f67d72"},"vehicle_type_id":"4","last_reported":1729603128,"current_range_meters":36000,"station_id":"ce4bhg92rcd13ifvqf90","pricing_plan_id":"cebpf4jnsgd1na2vs0mg"},{"bike_id":"b7402997-a6ea-49a3-908b-f45caf721d03","system_id":"levelo_inurba_marseille","lat":43.29617,"lon":5.37151,"is_reserved":false,"is_disabled":false,"rental_uris":{"android":"levelo://app?vid=b7402997-a6ea-49a3-908b-f45caf721d03","ios":"levelo://app?vid=b7402997-a6ea-49a3-908b-f45caf721d03"},"vehicle_type_id":"4","last_reported":1729603128,"current_range_meters":38800,"station_id":"ce4bgnh2rcd13ifvqc0g","pricing_plan_id":"cebpf4jnsgd1na2vs0mg"},{"bike_id":"d35aead5-74d9-4a00-baad-d7d1ed435177","system_id":"levelo_inurba_marseille","lat":43.2407,"lon":5.37761,"is_reserved":false,"is_disabled":false,"rental_uris":{"android":"levelo://app?vid=d35aead5-74d9-4a00-baad-d7d1ed435177","ios":"levelo://app?vid=d35aead5-74d9-4a00-baad-d7d1ed435177"},"vehicle_type_id":"4","last_reported":1729603128,"current_range_meters":35200,"station_id":"ce4bhnp2rcd13ifvqgvg","pricing_plan_id":"cebpf4jnsgd1na2vs0mg"},{"bike_id":"6b63d172-a2c8-46da-9750-2226af7381c0","system_id":"levelo_inurba_marseille","lat":43.23962,"lon":5.36635,"is_reserved":false,"is_disabled":false,"rental_uris":{"android":"levelo://app?vid=6b63d172-a2c8-46da-9750-2226af7381c0","ios":"levelo://app?vid=6b63d172-a2c8-46da-9750-2226af7381c0"},"vehicle_type_id":"4","last_reported":1729603128,"current_range_meters":38000,"station_id":"ce4bhi12rcd13ifvqfp0","pricing_plan_id":"cebpf4jnsgd1na2vs0mg"},{"bike_id":"d9e37939-a588-4efe-8580-1a5d5825e0e9","system_id":"levelo_inurba_marseille","lat":43.25506,"lon":5.3765,"is_reserved":false,"is_disabled":false,"rental_uris":{"android":"levelo://app?vid=d9e37939-a588-4efe-8580-1a5d5825e0e9","ios":"levelo://app?vid=d9e37939-a588-4efe-8580-1a5d5825e0e9"},"vehicle_type_id":"4","last_reported":1729603128,"current_range_meters":36400,"station_id":"ce4bhh12rcd13ifvqff0","pricing_plan_id":"cebpf4jnsgd1na2vs0mg"},{"bike_id":"e333e5a4-5620-4303-8595-ad0a16214816","system_id":"levelo_inurba_marseille","lat":43.28402,"lon":5.34978,"is_reserved":false,"is_disabled":false,"rental_uris":{"android":"levelo://app?vid=e333e5a4-5620-4303-8595-ad0a16214816","ios":"levelo://app?vid=e333e5a4-5620-4303-8595-ad0a16214816"},"vehicle_type_id":"4","last_reported":1729603128,"current_range_meters":23200,"station_id":"ce4bhbh2rcd13ifvqepg","pricing_plan_id":"cebpf4jnsgd1na2vs0mg"},{"bike_id":"262d6295-809d-45c9-9768-b3b5a2cf90b7","system_id":"levelo_inurba_marseille","lat":43.31355,"lon":5.36725,"is_reserved":false,"is_disabled":false,"rental_uris":{"android":"levelo://app?vid=262d6295-809d-45c9-9768-b3b5a2cf90b7","ios":"levelo://app?vid=262d6295-809d-45c9-9768-b3b5a2cf90b7"},"vehicle_type_id":"4","last_reported":1729603128,"current_range_meters":27200,"station_id":"ce4bgr92rcd13ifvqc6g","pricing_plan_id":"cebpf4jnsgd1na2vs0mg"},{"bike_id":"c3945b60-e38d-4106-8f18-92c7f436cc4f","system_id":"levelo_inurba_marseille","lat":43.33757,"lon":5.37448,"is_reserved":false,"is_disabled":false,"rental_uris":{"android":"levelo://app?vid=c3945b60-e38d-4106-8f18-92c7f436cc4f","ios":"levelo://app?vid=c3945b60-e38d-4106-8f18-92c7f436cc4f"},"vehicle_type_id":"4","last_reported":1729603128,"current_range_meters":32000,"station_id":"","pricing_plan_id":"cebpf4jnsgd1na2vs0mg"},{"bike_id":"6039ddec-9a32-4ee3-8033-3883988be36a","system_id":"levelo_inurba_marseille","lat":43.262,"lon":5.37933,"is_reserved":false,"is_disabled":false,"rental_uris":{"android":"levelo://app?vid=6039ddec-9a32-4ee3-8033-3883988be36a","ios":"levelo://app?vid=6039ddec-9a32-4ee3-8033-3883988be36a"},"vehicle_type_id":"4","last_reported":1729603128,"current_range_meters":28400,"station_id":"ce4bhjp2rcd13ifvqg90","pricing_plan_id":"cebpf4jnsgd1na2vs0mg"},{"bike_id":"04a0a347-1204-43c5-960f-b7ca34008eb2","system_id":"levelo_inurba_marseille","lat":43.28418,"lon":5.34991,"is_reserved":false,"is_disabled":false,"rental_uris":{"android":"levelo://app?vid=04a0a347-1204-43c5-960f-b7ca34008eb2","ios":"levelo://app?vid=04a0a347-1204-43c5-960f-b7ca34008eb2"},"vehicle_type_id":"4","last_reported":1729603128,"current_range_meters":38800,"station_id":"ce4bhbh2rcd13ifvqepg","pricing_plan_id":"cebpf4jnsgd1na2vs0mg"},{"bike_id":"df27a9f5-0a7d-4745-817d-802b59ea3bc0","system_id":"levelo_inurba_marseille","lat":43.29267,"lon":5.36846,"is_reserved":false,"is_disabled":false,"rental_uris":{"android":"levelo://app?vid=df27a9f5-0a7d-4745-817d-802b59ea3bc0","ios":"levelo://app?vid=df27a9f5-0a7d-4745-817d-802b59ea3bc0"},"vehicle_type_id":"4","last_reported":1729603128,"current_range_meters":36800,"station_id":"ce4bhbp2rcd13ifvqesg","pricing_plan_id":"cebpf4jnsgd1na2vs0mg"},{"bike_id":"9819146e-6e38-4bfb-8718-b0a15928bc96","system_id":"levelo_inurba_marseille","lat":43.313507,"lon":5.367093,"is_reserved":false,"is_disabled":false,"rental_uris":{"android":"levelo://app?vid=9819146e-6e38-4bfb-8718-b0a15928bc96","ios":"levelo://app?vid=9819146e-6e38-4bfb-8718-b0a15928bc96"},"vehicle_type_id":"4","last_reported":1729603128,"current_range_meters":28000,"station_id":"ce4bgr92rcd13ifvqc6g","pricing_plan_id":"cebpf4jnsgd1na2vs0mg"},{"bike_id":"f4ac5c82-788d-4548-90eb-28d1189903af","system_id":"levelo_inurba_marseille","lat":43.31483,"lon":5.37308,"is_reserved":false,"is_disabled":false,"rental_uris":{"android":"levelo://app?vid=f4ac5c82-788d-4548-90eb-28d1189903af","ios":"levelo://app?vid=f4ac5c82-788d-4548-90eb-28d1189903af"},"vehicle_type_id":"4","last_reported":1729603128,"current_range_meters":36000,"station_id":"ce4bgt12rcd13ifvqcd0","pricing_plan_id":"cebpf4jnsgd1na2vs0mg"},{"bike_id":"1cc8c524-3a72-465f-8ebe-e4c35d504abb","system_id":"levelo_inurba_marseille","lat":43.24068,"lon":5.37765,"is_reserved":false,"is_disabled":false,"rental_uris":{"android":"levelo://app?vid=1cc8c524-3a72-465f-8ebe-e4c35d504abb","ios":"levelo://app?vid=1cc8c524-3a72-465f-8ebe-e4c35d504abb"},"vehicle_type_id":"4","last_reported":1729603128,"current_range_meters":15200,"station_id":"ce4bhnp2rcd13ifvqgvg","pricing_plan_id":"cebpf4jnsgd1na2vs0mg"},{"bike_id":"997b048d-d8c5-4627-b97a-c194fdecbd4e","system_id":"levelo_inurba_marseille","lat":43.28438,"lon":5.39187,"is_reserved":false,"is_disabled":false,"rental_uris":{"android":"levelo://app?vid=997b048d-d8c5-4627-b97a-c194fdecbd4e","ios":"levelo://app?vid=997b048d-d8c5-4627-b97a-c194fdecbd4e"},"vehicle_type_id":"4","last_reported":1729603128,"current_range_meters":38800,"station_id":"ce4bhoh2rcd13ifvqh5g","pricing_plan_id":"cebpf4jnsgd1na2vs0mg"},{"bike_id":"c497a204-d102-4fb8-8c4f-4d71a1f981d8","system_id":"levelo_inurba_marseille","lat":43.33604,"lon":5.41006,"is_reserved":false,"is_disabled":false,"rental_uris":{"android":"levelo://app?vid=c497a204-d102-4fb8-8c4f-4d71a1f981d8","ios":"levelo://app?vid=c497a204-d102-4fb8-8c4f-4d71a1f981d8"},"vehicle_type_id":"4","last_reported":1729603128,"current_range_meters":17600,"station_id":"ce4bhqh2rcd13ifvqhmg","pricing_plan_id":"cebpf4jnsgd1na2vs0mg"},{"bike_id":"63ac31a3-9e8c-474b-89ec-12a1df8ae1db","system_id":"levelo_inurba_marseille","lat":43.2315,"lon":5.43722,"is_reserved":false,"is_disabled":false,"rental_uris":{"android":"levelo://app?vid=63ac31a3-9e8c-474b-89ec-12a1df8ae1db","ios":"levelo://app?vid=63ac31a3-9e8c-474b-89ec-12a1df8ae1db"},"vehicle_type_id":"4","last_reported":1729603128,"current_range_meters":17200,"station_id":"ce4bhmp2rcd13ifvqgog","pricing_plan_id":"cebpf4jnsgd1na2vs0mg"},{"bike_id":"6ba1088e-f6d7-458a-a335-f0b3c3746983","system_id":"levelo_inurba_marseille","lat":43.24167,"lon":5.39721,"is_reserved":false,"is_disabled":false,"rental_uris":{"android":"levelo://app?vid=6ba1088e-f6d7-458a-a335-f0b3c3746983","ios":"levelo://app?vid=6ba1088e-f6d7-458a-a335-f0b3c3746983"},"vehicle_type_id":"4","last_reported":1729603128,"current_range_meters":37600,"station_id":"ce4bhn12rcd13ifvqgpg","pricing_plan_id":"cebpf4jnsgd1na2vs0mg"},{"bike_id":"6a606450-0244-4420-a512-c69c644c2c13","system_id":"levelo_inurba_marseille","lat":43.25498,"lon":5.37644,"is_reserved":false,"is_disabled":false,"rental_uris":{"android":"levelo://app?vid=6a606450-0244-4420-a512-c69c644c2c13","ios":"levelo://app?vid=6a606450-0244-4420-a512-c69c644c2c13"},"vehicle_type_id":"4","last_reported":1729603128,"current_range_meters":38800,"station_id":"ce4bhh12rcd13ifvqff0","pricing_plan_id":"cebpf4jnsgd1na2vs0mg"},{"bike_id":"4c4a85d3-539e-46eb-bcc9-74268466fb16","system_id":"levelo_inurba_marseille","lat":43.24389,"lon":5.37057,"is_reserved":false,"is_disabled":false,"rental_uris":{"android":"levelo://app?vid=4c4a85d3-539e-46eb-bcc9-74268466fb16","ios":"levelo://app?vid=4c4a85d3-539e-46eb-bcc9-74268466fb16"},"vehicle_type_id":"4","last_reported":1729603128,"current_range_meters":9600,"station_id":"ce4bhhh2rcd13ifvqfk0","pricing_plan_id":"cebpf4jnsgd1na2vs0mg"},{"bike_id":"38b85458-527a-4a36-a5c5-cf4644d630f8","system_id":"levelo_inurba_marseille","lat":43.30549,"lon":5.36534,"is_reserved":false,"is_disabled":false,"rental_uris":{"android":"levelo://app?vid=38b85458-527a-4a36-a5c5-cf4644d630f8","ios":"levelo://app?vid=38b85458-527a-4a36-a5c5-cf4644d630f8"},"vehicle_type_id":"4","last_reported":1729603128,"current_range_meters":38400,"station_id":"ce4bgs12rcd13ifvqcag","pricing_plan_id":"cebpf4jnsgd1na2vs0mg"},{"bike_id":"e044cf73-b6e4-4e96-a3d6-637700d5c12a","system_id":"levelo_inurba_marseille","lat":43.29006,"lon":5.35607,"is_reserved":false,"is_disabled":false,"rental_uris":{"android":"levelo://app?vid=e044cf73-b6e4-4e96-a3d6-637700d5c12a","ios":"levelo://app?vid=e044cf73-b6e4-4e96-a3d6-637700d5c12a"},"vehicle_type_id":"4","last_reported":1729603128,"current_range_meters":16000,"station_id":"ce4bhb92rcd13ifvqen0","pricing_plan_id":"cebpf4jnsgd1na2vs0mg"},{"bike_id":"fed181f1-bf63-44a2-8176-df50744f2b5a","system_id":"levelo_inurba_marseille","lat":43.33599,"lon":5.41017,"is_reserved":false,"is_disabled":false,"rental_uris":{"android":"levelo://app?vid=fed181f1-bf63-44a2-8176-df50744f2b5a","ios":"levelo://app?vid=fed181f1-bf63-44a2-8176-df50744f2b5a"},"vehicle_type_id":"4","last_reported":1729603128,"current_range_meters":18000,"station_id":"ce4bhqh2rcd13ifvqhmg","pricing_plan_id":"cebpf4jnsgd1na2vs0mg"},{"bike_id":"2b502a15-caf3-41e2-bd08-1b0f91c7e988","system_id":"levelo_inurba_marseille","lat":43.23139,"lon":5.43698,"is_reserved":false,"is_disabled":false,"rental_uris":{"android":"levelo://app?vid=2b502a15-caf3-41e2-bd08-1b0f91c7e988","ios":"levelo://app?vid=2b502a15-caf3-41e2-bd08-1b0f91c7e988"},"vehicle_type_id":"4","last_reported":1729603128,"current_range_meters":4800,"station_id":"","pricing_plan_id":"cebpf4jnsgd1na2vs0mg"},{"bike_id":"af0a3970-bbc4-4457-b574-e472a370db44","system_id":"levelo_inurba_marseille","lat":43.279436,"lon":5.410392,"is_reserved":false,"is_disabled":false,"rental_uris":{"android":"levelo://app?vid=af0a3970-bbc4-4457-b574-e472a370db44","ios":"levelo://app?vid=af0a3970-bbc4-4457-b574-e472a370db44"},"vehicle_type_id":"4","last_reported":1729603128,"current_range_meters":18800,"station_id":"ce4bhnp2rcd13ifvqh0g","pricing_plan_id":"cebpf4jnsgd1na2vs0mg"},{"bike_id":"382f8b74-5cc0-4ecc-aac3-cb7428397d32","system_id":"levelo_inurba_marseille","lat":43.31358,"lon":5.36719,"is_reserved":false,"is_disabled":false,"rental_uris":{"android":"levelo://app?vid=382f8b74-5cc0-4ecc-aac3-cb7428397d32","ios":"levelo://app?vid=382f8b74-5cc0-4ecc-aac3-cb7428397d32"},"vehicle_type_id":"4","last_reported":1729603128,"current_range_meters":22400,"station_id":"ce4bgr92rcd13ifvqc6g","pricing_plan_id":"cebpf4jnsgd1na2vs0mg"},{"bike_id":"10cd1eab-b7c4-4809-b16d-4cf4afc0b3c1","system_id":"levelo_inurba_marseille","lat":43.23147,"lon":5.43722,"is_reserved":false,"is_disabled":false,"rental_uris":{"android":"levelo://app?vid=10cd1eab-b7c4-4809-b16d-4cf4afc0b3c1","ios":"levelo://app?vid=10cd1eab-b7c4-4809-b16d-4cf4afc0b3c1"},"vehicle_type_id":"4","last_reported":1729603128,"current_range_meters":38800,"station_id":"ce4bhmp2rcd13ifvqgog","pricing_plan_id":"cebpf4jnsgd1na2vs0mg"},{"bike_id":"ec125df5-44cc-49b7-81e0-c522bd2ca48c","system_id":"levelo_inurba_marseille","lat":43.24627,"lon":5.43128,"is_reserved":false,"is_disabled":false,"rental_uris":{"android":"levelo://app?vid=ec125df5-44cc-49b7-81e0-c522bd2ca48c","ios":"levelo://app?vid=ec125df5-44cc-49b7-81e0-c522bd2ca48c"},"vehicle_type_id":"4","last_reported":1729603128,"current_range_meters":38800,"station_id":"","pricing_plan_id":"cebpf4jnsgd1na2vs0mg"},{"bike_id":"d8d30b00-c51f-42c1-a4bc-5be916aaba37","system_id":"levelo_inurba_marseille","lat":43.2959,"lon":5.37369,"is_reserved":false,"is_disabled":false,"rental_uris":{"android":"levelo://app?vid=d8d30b00-c51f-42c1-a4bc-5be916aaba37","ios":"levelo://app?vid=d8d30b00-c51f-42c1-a4bc-5be916aaba37"},"vehicle_type_id":"4","last_reported":1729603128,"current_range_meters":29600,"station_id":"","pricing_plan_id":"cebpf4jnsgd1na2vs0mg"},{"bike_id":"93494289-6aaa-46f1-9808-40293e880fab","system_id":"levelo_inurba_marseille","lat":43.26063,"lon":5.39393,"is_reserved":false,"is_disabled":false,"rental_uris":{"android":"levelo://app?vid=93494289-6aaa-46f1-9808-40293e880fab","ios":"levelo://app?vid=93494289-6aaa-46f1-9808-40293e880fab"},"vehicle_type_id":"4","last_reported":1729603128,"current_range_meters":30400,"station_id":"ce4bhh92rcd13ifvqfj0","pricing_plan_id":"cebpf4jnsgd1na2vs0mg"},{"bike_id":"dfd546d4-236c-474a-b8e4-2b406a8f101a","system_id":"levelo_inurba_marseille","lat":43.2952,"lon":5.37494,"is_reserved":false,"is_disabled":false,"rental_uris":{"android":"levelo://app?vid=dfd546d4-236c-474a-b8e4-2b406a8f101a","ios":"levelo://app?vid=dfd546d4-236c-474a-b8e4-2b406a8f101a"},"vehicle_type_id":"4","last_reported":1729603128,"current_range_meters":38000,"station_id":"ce4bgkp2rcd13ifvqbmg","pricing_plan_id":"cebpf4jnsgd1na2vs0mg"},{"bike_id":"f5e7b89d-e871-4da2-9801-15e210469b63","system_id":"levelo_inurba_marseille","lat":43.292012,"lon":5.357978,"is_reserved":false,"is_disabled":false,"rental_uris":{"android":"levelo://app?vid=f5e7b89d-e871-4da2-9801-15e210469b63","ios":"levelo://app?vid=f5e7b89d-e871-4da2-9801-15e210469b63"},"vehicle_type_id":"4","last_reported":1729603128,"current_range_meters":9200,"station_id":"ce4bhu92rcd13ifvqi70","pricing_plan_id":"cebpf4jnsgd1na2vs0mg"},{"bike_id":"8cda4019-0e49-4b59-8a40-46d2512f3c11","system_id":"levelo_inurba_marseille","lat":43.2952,"lon":5.38661,"is_reserved":false,"is_disabled":false,"rental_uris":{"android":"levelo://app?vid=8cda4019-0e49-4b59-8a40-46d2512f3c11","ios":"levelo://app?vid=8cda4019-0e49-4b59-8a40-46d2512f3c11"},"vehicle_type_id":"4","last_reported":1729603128,"current_range_meters":25200,"station_id":"ce4bhi12rcd13ifvqfo0","pricing_plan_id":"cebpf4jnsgd1na2vs0mg"},{"bike_id":"f0cc0dcb-c63c-4503-8a09-6c0d61c7bcdf","system_id":"levelo_inurba_marseille","lat":43.25501,"lon":5.37648,"is_reserved":false,"is_disabled":false,"rental_uris":{"android":"levelo://app?vid=f0cc0dcb-c63c-4503-8a09-6c0d61c7bcdf","ios":"levelo://app?vid=f0cc0dcb-c63c-4503-8a09-6c0d61c7bcdf"},"vehicle_type_id":"4","last_reported":1729603128,"current_range_meters":23200,"station_id":"ce4bhh12rcd13ifvqff0","pricing_plan_id":"cebpf4jnsgd1na2vs0mg"},{"bike_id":"e17b4262-eec2-4275-9e46-12f4f5300818","system_id":"levelo_inurba_marseille","lat":43.28266,"lon":5.35062,"is_reserved":false,"is_disabled":false,"rental_uris":{"android":"levelo://app?vid=e17b4262-eec2-4275-9e46-12f4f5300818","ios":"levelo://app?vid=e17b4262-eec2-4275-9e46-12f4f5300818"},"vehicle_type_id":"4","last_reported":1729603128,"current_range_meters":27200,"station_id":"ce4bhbp2rcd13ifvqerg","pricing_plan_id":"cebpf4jnsgd1na2vs0mg"},{"bike_id":"a4508554-827d-4f4a-a5b5-3d799424e867","system_id":"levelo_inurba_marseille","lat":43.292023,"lon":5.39324,"is_reserved":false,"is_disabled":false,"rental_uris":{"android":"levelo://app?vid=a4508554-827d-4f4a-a5b5-3d799424e867","ios":"levelo://app?vid=a4508554-827d-4f4a-a5b5-3d799424e867"},"vehicle_type_id":"4","last_reported":1729603128,"current_range_meters":20400,"station_id":"ce4bh192rcd13ifvqdd0","pricing_plan_id":"cebpf4jnsgd1na2vs0mg"},{"bike_id":"e68074ff-f5e2-424b-ac9b-aa2b95174368","system_id":"levelo_inurba_marseille","lat":43.28151,"lon":5.42642,"is_reserved":false,"is_disabled":false,"rental_uris":{"android":"levelo://app?vid=e68074ff-f5e2-424b-ac9b-aa2b95174368","ios":"levelo://app?vid=e68074ff-f5e2-424b-ac9b-aa2b95174368"},"vehicle_type_id":"4","last_reported":1729603128,"current_range_meters":31200,"station_id":"ce4bhnh2rcd13ifvqgug","pricing_plan_id":"cebpf4jnsgd1na2vs0mg"},{"bike_id":"815dd284-1bd2-4bb9-992a-b2116e2485bc","system_id":"levelo_inurba_marseille","lat":43.32778,"lon":5.36157,"is_reserved":false,"is_disabled":false,"rental_uris":{"android":"levelo://app?vid=815dd284-1bd2-4bb9-992a-b2116e2485bc","ios":"levelo://app?vid=815dd284-1bd2-4bb9-992a-b2116e2485bc"},"vehicle_type_id":"4","last_reported":1729603128,"current_range_meters":33200,"station_id":"","pricing_plan_id":"cebpf4jnsgd1na2vs0mg"},{"bike_id":"a6becff1-00d3-47fa-8898-3ba6d7221fbe","system_id":"levelo_inurba_marseille","lat":43.23191,"lon":5.3555,"is_reserved":false,"is_disabled":false,"rental_uris":{"android":"levelo://app?vid=a6becff1-00d3-47fa-8898-3ba6d7221fbe","ios":"levelo://app?vid=a6becff1-00d3-47fa-8898-3ba6d7221fbe"},"vehicle_type_id":"4","last_reported":1729603128,"current_range_meters":36800,"station_id":"ce4bhu92rcd13ifvqi70","pricing_plan_id":"cebpf4jnsgd1na2vs0mg"},{"bike_id":"66f67b76-429f-4956-9fd8-018cf411f269","system_id":"levelo_inurba_marseille","lat":43.2897,"lon":5.37836,"is_reserved":false,"is_disabled":false,"rental_uris":{"android":"levelo://app?vid=66f67b76-429f-4956-9fd8-018cf411f269","ios":"levelo://app?vid=66f67b76-429f-4956-9fd8-018cf411f269"},"vehicle_type_id":"4","last_reported":1729603128,"current_range_meters":27600,"station_id":"ce4bh9p2rcd13ifvqed0","pricing_plan_id":"cebpf4jnsgd1na2vs0mg"},{"bike_id":"be5d828b-df90-4ad2-b59d-ba3093879b03","system_id":"levelo_inurba_marseille","lat":43.27369,"lon":5.3626,"is_reserved":false,"is_disabled":false,"rental_uris":{"android":"levelo://app?vid=be5d828b-df90-4ad2-b59d-ba3093879b03","ios":"levelo://app?vid=be5d828b-df90-4ad2-b59d-ba3093879b03"},"vehicle_type_id":"4","last_reported":1729603128,"current_range_meters":23200,"station_id":"ce4bhbh2rcd13ifvqeo0","pricing_plan_id":"cebpf4jnsgd1na2vs0mg"},{"bike_id":"641273a1-6b42-4200-b2a3-5de7c2861a99","system_id":"levelo_inurba_marseille","lat":43.26789,"lon":5.39415,"is_reserved":false,"is_disabled":false,"rental_uris":{"android":"levelo://app?vid=641273a1-6b42-4200-b2a3-5de7c2861a99","ios":"levelo://app?vid=641273a1-6b42-4200-b2a3-5de7c2861a99"},"vehicle_type_id":"4","last_reported":1729603128,"current_range_meters":37600,"station_id":"ce4bhh12rcd13ifvqfg0","pricing_plan_id":"cebpf4jnsgd1na2vs0mg"},{"bike_id":"5a67c892-a602-4b40-977c-c1acd665d17e","system_id":"levelo_inurba_marseille","lat":43.25931,"lon":5.40902,"is_reserved":false,"is_disabled":false,"rental_uris":{"android":"levelo://app?vid=5a67c892-a602-4b40-977c-c1acd665d17e","ios":"levelo://app?vid=5a67c892-a602-4b40-977c-c1acd665d17e"},"vehicle_type_id":"4","last_reported":1729603128,"current_range_meters":22000,"station_id":"ce4bhm92rcd13ifvqglg","pricing_plan_id":"cebpf4jnsgd1na2vs0mg"},{"bike_id":"9c707792-8e01-4cab-b4af-8bba517cd583","system_id":"levelo_inurba_marseille","lat":43.25504,"lon":5.3765,"is_reserved":false,"is_disabled":false,"rental_uris":{"android":"levelo://app?vid=9c707792-8e01-4cab-b4af-8bba517cd583","ios":"levelo://app?vid=9c707792-8e01-4cab-b4af-8bba517cd583"},"vehicle_type_id":"4","last_reported":1729603128,"current_range_meters":38800,"station_id":"ce4bhh12rcd13ifvqff0","pricing_plan_id":"cebpf4jnsgd1na2vs0mg"},{"bike_id":"1f52981c-7bb8-4af1-af37-b4a098cafcb2","system_id":"levelo_inurba_marseille","lat":43.28154,"lon":5.42647,"is_reserved":false,"is_disabled":false,"rental_uris":{"android":"levelo://app?vid=1f52981c-7bb8-4af1-af37-b4a098cafcb2","ios":"levelo://app?vid=1f52981c-7bb8-4af1-af37-b4a098cafcb2"},"vehicle_type_id":"4","last_reported":1729603128,"current_range_meters":38800,"station_id":"ce4bhnh2rcd13ifvqgug","pricing_plan_id":"cebpf4jnsgd1na2vs0mg"},{"bike_id":"9f9c67b5-e835-4867-a1ab-761db639107f","system_id":"levelo_inurba_marseille","lat":43.27665,"lon":5.38895,"is_reserved":false,"is_disabled":false,"rental_uris":{"android":"levelo://app?vid=9f9c67b5-e835-4867-a1ab-761db639107f","ios":"levelo://app?vid=9f9c67b5-e835-4867-a1ab-761db639107f"},"vehicle_type_id":"4","last_reported":1729603128,"current_range_meters":17200,"station_id":"ce4bhi12rcd13ifvqfo0","pricing_plan_id":"cebpf4jnsgd1na2vs0mg"},{"bike_id":"2f301d0a-595d-4eaa-b843-3630ec68919a","system_id":"levelo_inurba_marseille","lat":43.30501,"lon":5.36495,"is_reserved":false,"is_disabled":false,"rental_uris":{"android":"levelo://app?vid=2f301d0a-595d-4eaa-b843-3630ec68919a","ios":"levelo://app?vid=2f301d0a-595d-4eaa-b843-3630ec68919a"},"vehicle_type_id":"4","last_reported":1729603128,"current_range_meters":33200,"station_id":"","pricing_plan_id":"cebpf4jnsgd1na2vs0mg"},{"bike_id":"bf8d0617-6bef-47ca-8c84-936cfebcc97c","system_id":"levelo_inurba_marseille","lat":43.32112,"lon":5.36783,"is_reserved":false,"is_disabled":false,"rental_uris":{"android":"levelo://app?vid=bf8d0617-6bef-47ca-8c84-936cfebcc97c","ios":"levelo://app?vid=bf8d0617-6bef-47ca-8c84-936cfebcc97c"},"vehicle_type_id":"4","last_reported":1729603128,"current_range_meters":16400,"station_id":"ce4bhrh2rcd13ifvqhug","pricing_plan_id":"cebpf4jnsgd1na2vs0mg"},{"bike_id":"baf18c3d-f7d4-414a-a1f5-9b7fefa650c9","system_id":"levelo_inurba_marseille","lat":43.29617,"lon":5.3715,"is_reserved":false,"is_disabled":false,"rental_uris":{"android":"levelo://app?vid=baf18c3d-f7d4-414a-a1f5-9b7fefa650c9","ios":"levelo://app?vid=baf18c3d-f7d4-414a-a1f5-9b7fefa650c9"},"vehicle_type_id":"4","last_reported":1729603128,"current_range_meters":34000,"station_id":"ce4bgnh2rcd13ifvqc0g","pricing_plan_id":"cebpf4jnsgd1na2vs0mg"},{"bike_id":"963114b6-61bd-41ef-9c08-0912f98ed52d","system_id":"levelo_inurba_marseille","lat":43.27051,"lon":5.40263,"is_reserved":false,"is_disabled":false,"rental_uris":{"android":"levelo://app?vid=963114b6-61bd-41ef-9c08-0912f98ed52d","ios":"levelo://app?vid=963114b6-61bd-41ef-9c08-0912f98ed52d"},"vehicle_type_id":"4","last_reported":1729603128,"current_range_meters":14800,"station_id":"ce4bhk92rcd13ifvqgc0","pricing_plan_id":"cebpf4jnsgd1na2vs0mg"},{"bike_id":"5ee2a809-6067-4e7e-bf77-993d2ceab946","system_id":"levelo_inurba_marseille","lat":43.25504,"lon":5.37646,"is_reserved":false,"is_disabled":false,"rental_uris":{"android":"levelo://app?vid=5ee2a809-6067-4e7e-bf77-993d2ceab946","ios":"levelo://app?vid=5ee2a809-6067-4e7e-bf77-993d2ceab946"},"vehicle_type_id":"4","last_reported":1729603128,"current_range_meters":38800,"station_id":"ce4bhh12rcd13ifvqff0","pricing_plan_id":"cebpf4jnsgd1na2vs0mg"},{"bike_id":"7e3cb010-b5b3-478f-8b4d-4185ab46a9f4","system_id":"levelo_inurba_marseille","lat":43.31365,"lon":5.36692,"is_reserved":false,"is_disabled":false,"rental_uris":{"android":"levelo://app?vid=7e3cb010-b5b3-478f-8b4d-4185ab46a9f4","ios":"levelo://app?vid=7e3cb010-b5b3-478f-8b4d-4185ab46a9f4"},"vehicle_type_id":"4","last_reported":1729603128,"current_range_meters":34000,"station_id":"ce4bgr92rcd13ifvqc6g","pricing_plan_id":"cebpf4jnsgd1na2vs0mg"},{"bike_id":"6306bed3-0d2b-49da-95c5-973170dba4a6","system_id":"levelo_inurba_marseille","lat":43.2315,"lon":5.4372,"is_reserved":false,"is_disabled":false,"rental_uris":{"android":"levelo://app?vid=6306bed3-0d2b-49da-95c5-973170dba4a6","ios":"levelo://app?vid=6306bed3-0d2b-49da-95c5-973170dba4a6"},"vehicle_type_id":"4","last_reported":1729603128,"current_range_meters":33600,"station_id":"ce4bhmp2rcd13ifvqgog","pricing_plan_id":"cebpf4jnsgd1na2vs0mg"},{"bike_id":"1abcbc0f-ffc9-4ce8-b439-951d03eed020","system_id":"levelo_inurba_marseille","lat":43.28618,"lon":5.35104,"is_reserved":false,"is_disabled":false,"rental_uris":{"android":"levelo://app?vid=1abcbc0f-ffc9-4ce8-b439-951d03eed020","ios":"levelo://app?vid=1abcbc0f-ffc9-4ce8-b439-951d03eed020"},"vehicle_type_id":"4","last_reported":1729603128,"current_range_meters":36000,"station_id":"ce4bhch2rcd13ifvqeug","pricing_plan_id":"cebpf4jnsgd1na2vs0mg"},{"bike_id":"6df03dd8-36f0-4315-a967-029dd3d241a1","system_id":"levelo_inurba_marseille","lat":43.28266,"lon":5.35068,"is_reserved":false,"is_disabled":false,"rental_uris":{"android":"levelo://app?vid=6df03dd8-36f0-4315-a967-029dd3d241a1","ios":"levelo://app?vid=6df03dd8-36f0-4315-a967-029dd3d241a1"},"vehicle_type_id":"4","last_reported":1729603128,"current_range_meters":38800,"station_id":"ce4bhbp2rcd13ifvqerg","pricing_plan_id":"cebpf4jnsgd1na2vs0mg"},{"bike_id":"ee458820-4b5f-4880-a810-7e29f4e09d82","system_id":"levelo_inurba_marseille","lat":43.3135,"lon":5.36762,"is_reserved":false,"is_disabled":false,"rental_uris":{"android":"levelo://app?vid=ee458820-4b5f-4880-a810-7e29f4e09d82","ios":"levelo://app?vid=ee458820-4b5f-4880-a810-7e29f4e09d82"},"vehicle_type_id":"4","last_reported":1729603128,"current_range_meters":11600,"station_id":"ce4bgr92rcd13ifvqc6g","pricing_plan_id":"cebpf4jnsgd1na2vs0mg"},{"bike_id":"e50bcd45-55ad-4134-aba1-dcea1a2c5f28","system_id":"levelo_inurba_marseille","lat":43.28459,"lon":5.35885,"is_reserved":false,"is_disabled":false,"rental_uris":{"android":"levelo://app?vid=e50bcd45-55ad-4134-aba1-dcea1a2c5f28","ios":"levelo://app?vid=e50bcd45-55ad-4134-aba1-dcea1a2c5f28"},"vehicle_type_id":"4","last_reported":1729603128,"current_range_meters":14000,"station_id":"ce4bhah2rcd13ifvqei0","pricing_plan_id":"cebpf4jnsgd1na2vs0mg"},{"bike_id":"143f21e1-e24b-44a3-aee8-5aeb9d83a7f4","system_id":"levelo_inurba_marseille","lat":43.23965,"lon":5.36642,"is_reserved":false,"is_disabled":false,"rental_uris":{"android":"levelo://app?vid=143f21e1-e24b-44a3-aee8-5aeb9d83a7f4","ios":"levelo://app?vid=143f21e1-e24b-44a3-aee8-5aeb9d83a7f4"},"vehicle_type_id":"4","last_reported":1729603128,"current_range_meters":11600,"station_id":"ce4bhi12rcd13ifvqfp0","pricing_plan_id":"cebpf4jnsgd1na2vs0mg"},{"bike_id":"ae3fcb04-be9a-4eda-86cc-c69683243e47","system_id":"levelo_inurba_marseille","lat":43.23961,"lon":5.36634,"is_reserved":false,"is_disabled":false,"rental_uris":{"android":"levelo://app?vid=ae3fcb04-be9a-4eda-86cc-c69683243e47","ios":"levelo://app?vid=ae3fcb04-be9a-4eda-86cc-c69683243e47"},"vehicle_type_id":"4","last_reported":1729603128,"current_range_meters":38000,"station_id":"ce4bhi12rcd13ifvqfp0","pricing_plan_id":"cebpf4jnsgd1na2vs0mg"},{"bike_id":"637e55f5-6390-4078-8e48-7433a8312872","system_id":"levelo_inurba_marseille","lat":43.30878,"lon":5.3966,"is_reserved":false,"is_disabled":false,"rental_uris":{"android":"levelo://app?vid=637e55f5-6390-4078-8e48-7433a8312872","ios":"levelo://app?vid=637e55f5-6390-4078-8e48-7433a8312872"},"vehicle_type_id":"4","last_reported":1729603128,"current_range_meters":38800,"station_id":"ce4bh012rcd13ifvqcv0","pricing_plan_id":"cebpf4jnsgd1na2vs0mg"},{"bike_id":"9f11f62d-91c8-4001-b6ff-c3e296d3071c","system_id":"levelo_inurba_marseille","lat":43.2781,"lon":5.40715,"is_reserved":false,"is_disabled":false,"rental_uris":{"android":"levelo://app?vid=9f11f62d-91c8-4001-b6ff-c3e296d3071c","ios":"levelo://app?vid=9f11f62d-91c8-4001-b6ff-c3e296d3071c"},"vehicle_type_id":"4","last_reported":1729603128,"current_range_meters":23200,"station_id":"ce4bhnh2rcd13ifvqgtg","pricing_plan_id":"cebpf4jnsgd1na2vs0mg"},{"bike_id":"35fe1cb4-d3d4-400f-9405-96bf2a9f7049","system_id":"levelo_inurba_marseille","lat":43.31892,"lon":5.40725,"is_reserved":false,"is_disabled":false,"rental_uris":{"android":"levelo://app?vid=35fe1cb4-d3d4-400f-9405-96bf2a9f7049","ios":"levelo://app?vid=35fe1cb4-d3d4-400f-9405-96bf2a9f7049"},"vehicle_type_id":"4","last_reported":1729603128,"current_range_meters":21600,"station_id":"ce4bhq12rcd13ifvqhig","pricing_plan_id":"cebpf4jnsgd1na2vs0mg"},{"bike_id":"d84f61b7-92f1-4e5b-a2e5-4a1dc51f19f6","system_id":"levelo_inurba_marseille","lat":43.31374,"lon":5.3669,"is_reserved":false,"is_disabled":false,"rental_uris":{"android":"levelo://app?vid=d84f61b7-92f1-4e5b-a2e5-4a1dc51f19f6","ios":"levelo://app?vid=d84f61b7-92f1-4e5b-a2e5-4a1dc51f19f6"},"vehicle_type_id":"4","last_reported":1729603128,"current_range_meters":26800,"station_id":"ce4bgr92rcd13ifvqc6g","pricing_plan_id":"cebpf4jnsgd1na2vs0mg"},{"bike_id":"ba4126ba-c2ad-4225-bc34-88c6959afec0","system_id":"levelo_inurba_marseille","lat":43.29029,"lon":5.37572,"is_reserved":false,"is_disabled":false,"rental_uris":{"android":"levelo://app?vid=ba4126ba-c2ad-4225-bc34-88c6959afec0","ios":"levelo://app?vid=ba4126ba-c2ad-4225-bc34-88c6959afec0"},"vehicle_type_id":"4","last_reported":1729603128,"current_range_meters":30000,"station_id":"ce4bh692rcd13ifvqe90","pricing_plan_id":"cebpf4jnsgd1na2vs0mg"},{"bike_id":"c6e4d7dc-6368-4311-8b36-474982fe0e4c","system_id":"levelo_inurba_marseille","lat":43.28425,"lon":5.34988,"is_reserved":false,"is_disabled":false,"rental_uris":{"android":"levelo://app?vid=c6e4d7dc-6368-4311-8b36-474982fe0e4c","ios":"levelo://app?vid=c6e4d7dc-6368-4311-8b36-474982fe0e4c"},"vehicle_type_id":"4","last_reported":1729603128,"current_range_meters":16800,"station_id":"ce4bhbh2rcd13ifvqepg","pricing_plan_id":"cebpf4jnsgd1na2vs0mg"},{"bike_id":"91139aaa-660f-4474-a89e-7d3a2cc79d86","system_id":"levelo_inurba_marseille","lat":43.323059,"lon":5.406277,"is_reserved":false,"is_disabled":false,"rental_uris":{"android":"levelo://app?vid=91139aaa-660f-4474-a89e-7d3a2cc79d86","ios":"levelo://app?vid=91139aaa-660f-4474-a89e-7d3a2cc79d86"},"vehicle_type_id":"4","last_reported":1729603128,"current_range_meters":36400,"station_id":"ce4bhq92rcd13ifvqhjg","pricing_plan_id":"cebpf4jnsgd1na2vs0mg"},{"bike_id":"8fb4b27c-35e9-47bc-a2a8-80ff62ad597f","system_id":"levelo_inurba_marseille","lat":43.24386,"lon":5.37062,"is_reserved":false,"is_disabled":false,"rental_uris":{"android":"levelo://app?vid=8fb4b27c-35e9-47bc-a2a8-80ff62ad597f","ios":"levelo://app?vid=8fb4b27c-35e9-47bc-a2a8-80ff62ad597f"},"vehicle_type_id":"4","last_reported":1729603128,"current_range_meters":22400,"station_id":"ce4bhhh2rcd13ifvqfk0","pricing_plan_id":"cebpf4jnsgd1na2vs0mg"},{"bike_id":"df5483a4-2233-432f-a449-eb879cf985c0","system_id":"levelo_inurba_marseille","lat":43.28411,"lon":5.34979,"is_reserved":false,"is_disabled":false,"rental_uris":{"android":"levelo://app?vid=df5483a4-2233-432f-a449-eb879cf985c0","ios":"levelo://app?vid=df5483a4-2233-432f-a449-eb879cf985c0"},"vehicle_type_id":"4","last_reported":1729603128,"current_range_meters":38800,"station_id":"ce4bhbh2rcd13ifvqepg","pricing_plan_id":"cebpf4jnsgd1na2vs0mg"},{"bike_id":"85d3f206-1c73-4bdc-b758-c1d3fbe6ffd0","system_id":"levelo_inurba_marseille","lat":43.24072,"lon":5.37747,"is_reserved":false,"is_disabled":false,"rental_uris":{"android":"levelo://app?vid=85d3f206-1c73-4bdc-b758-c1d3fbe6ffd0","ios":"levelo://app?vid=85d3f206-1c73-4bdc-b758-c1d3fbe6ffd0"},"vehicle_type_id":"4","last_reported":1729603128,"current_range_meters":18000,"station_id":"ce4bhnp2rcd13ifvqgvg","pricing_plan_id":"cebpf4jnsgd1na2vs0mg"},{"bike_id":"1a311283-f1f4-444b-9100-f9585766a2fb","system_id":"levelo_inurba_marseille","lat":43.26938,"lon":5.40257,"is_reserved":false,"is_disabled":false,"rental_uris":{"android":"levelo://app?vid=1a311283-f1f4-444b-9100-f9585766a2fb","ios":"levelo://app?vid=1a311283-f1f4-444b-9100-f9585766a2fb"},"vehicle_type_id":"4","last_reported":1729603128,"current_range_meters":38800,"station_id":"cjm6bp8fraef2m0cb0m0","pricing_plan_id":"cebpf4jnsgd1na2vs0mg"},{"bike_id":"f801a972-c648-424a-a7e1-9d8a4bf001b1","system_id":"levelo_inurba_marseille","lat":43.28035,"lon":5.36945,"is_reserved":false,"is_disabled":false,"rental_uris":{"android":"levelo://app?vid=f801a972-c648-424a-a7e1-9d8a4bf001b1","ios":"levelo://app?vid=f801a972-c648-424a-a7e1-9d8a4bf001b1"},"vehicle_type_id":"4","last_reported":1729603128,"current_range_meters":38800,"station_id":"ce4bha12rcd13ifvqef0","pricing_plan_id":"cebpf4jnsgd1na2vs0mg"},{"bike_id":"751d3382-d8f0-4f0a-a67e-10d700e93754","system_id":"levelo_inurba_marseille","lat":43.25936,"lon":5.40905,"is_reserved":false,"is_disabled":false,"rental_uris":{"android":"levelo://app?vid=751d3382-d8f0-4f0a-a67e-10d700e93754","ios":"levelo://app?vid=751d3382-d8f0-4f0a-a67e-10d700e93754"},"vehicle_type_id":"4","last_reported":1729603128,"current_range_meters":35200,"station_id":"ce4bhm92rcd13ifvqglg","pricing_plan_id":"cebpf4jnsgd1na2vs0mg"},{"bike_id":"05ecc4dc-adf4-4dca-8f4d-140679b4ad59","system_id":"levelo_inurba_marseille","lat":43.28967,"lon":5.37827,"is_reserved":false,"is_disabled":false,"rental_uris":{"android":"levelo://app?vid=05ecc4dc-adf4-4dca-8f4d-140679b4ad59","ios":"levelo://app?vid=05ecc4dc-adf4-4dca-8f4d-140679b4ad59"},"vehicle_type_id":"4","last_reported":1729603128,"current_range_meters":33200,"station_id":"ce4bh9p2rcd13ifvqed0","pricing_plan_id":"cebpf4jnsgd1na2vs0mg"},{"bike_id":"11d46caa-7a05-440f-9a94-e44e69d9d5ca","system_id":"levelo_inurba_marseille","lat":43.28078,"lon":5.3966,"is_reserved":false,"is_disabled":false,"rental_uris":{"android":"levelo://app?vid=11d46caa-7a05-440f-9a94-e44e69d9d5ca","ios":"levelo://app?vid=11d46caa-7a05-440f-9a94-e44e69d9d5ca"},"vehicle_type_id":"4","last_reported":1729603128,"current_range_meters":38000,"station_id":"ce4bho12rcd13ifvqh2g","pricing_plan_id":"cebpf4jnsgd1na2vs0mg"},{"bike_id":"c086ca7e-c9ea-41c0-a252-13c170a64630","system_id":"levelo_inurba_marseille","lat":43.2926,"lon":5.3844,"is_reserved":false,"is_disabled":false,"rental_uris":{"android":"levelo://app?vid=c086ca7e-c9ea-41c0-a252-13c170a64630","ios":"levelo://app?vid=c086ca7e-c9ea-41c0-a252-13c170a64630"},"vehicle_type_id":"4","last_reported":1729603128,"current_range_meters":16000,"station_id":"ce4bh692rcd13ifvqea0","pricing_plan_id":"cebpf4jnsgd1na2vs0mg"},{"bike_id":"cca36f5a-cabb-4abb-9aa7-f2a60de77936","system_id":"levelo_inurba_marseille","lat":43.3055,"lon":5.36525,"is_reserved":false,"is_disabled":false,"rental_uris":{"android":"levelo://app?vid=cca36f5a-cabb-4abb-9aa7-f2a60de77936","ios":"levelo://app?vid=cca36f5a-cabb-4abb-9aa7-f2a60de77936"},"vehicle_type_id":"4","last_reported":1729603128,"current_range_meters":9200,"station_id":"ce4bgs12rcd13ifvqcag","pricing_plan_id":"cebpf4jnsgd1na2vs0mg"},{"bike_id":"b6514299-eec4-4895-89f1-d6a2c5bf4d8f","system_id":"levelo_inurba_marseille","lat":43.22929,"lon":5.35376,"is_reserved":false,"is_disabled":false,"rental_uris":{"android":"levelo://app?vid=b6514299-eec4-4895-89f1-d6a2c5bf4d8f","ios":"levelo://app?vid=b6514299-eec4-4895-89f1-d6a2c5bf4d8f"},"vehicle_type_id":"4","last_reported":1729603128,"current_range_meters":8400,"station_id":"cpo3532slgdg3j2ikp40","pricing_plan_id":"cebpf4jnsgd1na2vs0mg"},{"bike_id":"94bf876f-db2f-4206-8944-c80cfa3e0c54","system_id":"levelo_inurba_marseille","lat":43.25714,"lon":5.41118,"is_reserved":false,"is_disabled":false,"rental_uris":{"android":"levelo://app?vid=94bf876f-db2f-4206-8944-c80cfa3e0c54","ios":"levelo://app?vid=94bf876f-db2f-4206-8944-c80cfa3e0c54"},"vehicle_type_id":"4","last_reported":1729603128,"current_range_meters":38800,"station_id":"ce4bhkp2rcd13ifvqgd0","pricing_plan_id":"cebpf4jnsgd1na2vs0mg"},{"bike_id":"154e86a2-3edb-49eb-ab36-f6df71cdc5b1","system_id":"levelo_inurba_marseille","lat":43.24666,"lon":5.38168,"is_reserved":false,"is_disabled":false,"rental_uris":{"android":"levelo://app?vid=154e86a2-3edb-49eb-ab36-f6df71cdc5b1","ios":"levelo://app?vid=154e86a2-3edb-49eb-ab36-f6df71cdc5b1"},"vehicle_type_id":"4","last_reported":1729603128,"current_range_meters":6000,"station_id":"ce4bhih2rcd13ifvqfr0","pricing_plan_id":"cebpf4jnsgd1na2vs0mg"},{"bike_id":"7ecf4e97-237e-45e0-bd84-38ac17d2b93b","system_id":"levelo_inurba_marseille","lat":43.29264,"lon":5.3845,"is_reserved":false,"is_disabled":false,"rental_uris":{"android":"levelo://app?vid=7ecf4e97-237e-45e0-bd84-38ac17d2b93b","ios":"levelo://app?vid=7ecf4e97-237e-45e0-bd84-38ac17d2b93b"},"vehicle_type_id":"4","last_reported":1729603128,"current_range_meters":8400,"station_id":"ce4bh692rcd13ifvqea0","pricing_plan_id":"cebpf4jnsgd1na2vs0mg"},{"bike_id":"2b80f943-bf35-49c7-9584-ea1845fd1d05","system_id":"levelo_inurba_marseille","lat":43.23197,"lon":5.35557,"is_reserved":false,"is_disabled":false,"rental_uris":{"android":"levelo://app?vid=2b80f943-bf35-49c7-9584-ea1845fd1d05","ios":"levelo://app?vid=2b80f943-bf35-49c7-9584-ea1845fd1d05"},"vehicle_type_id":"4","last_reported":1729603128,"current_range_meters":6800,"station_id":"ce4bhu92rcd13ifvqi70","pricing_plan_id":"cebpf4jnsgd1na2vs0mg"},{"bike_id":"81e4488d-b9df-4764-b508-9fca2a6674ff","system_id":"levelo_inurba_marseille","lat":43.23194,"lon":5.35546,"is_reserved":false,"is_disabled":false,"rental_uris":{"android":"levelo://app?vid=81e4488d-b9df-4764-b508-9fca2a6674ff","ios":"levelo://app?vid=81e4488d-b9df-4764-b508-9fca2a6674ff"},"vehicle_type_id":"4","last_reported":1729603128,"current_range_meters":37600,"station_id":"ce4bhu92rcd13ifvqi70","pricing_plan_id":"cebpf4jnsgd1na2vs0mg"},{"bike_id":"44550e6e-2644-4242-b698-239c03743e5c","system_id":"levelo_inurba_marseille","lat":43.24593,"lon":5.43002,"is_reserved":false,"is_disabled":false,"rental_uris":{"android":"levelo://app?vid=44550e6e-2644-4242-b698-239c03743e5c","ios":"levelo://app?vid=44550e6e-2644-4242-b698-239c03743e5c"},"vehicle_type_id":"4","last_reported":1729603128,"current_range_meters":38800,"station_id":"","pricing_plan_id":"cebpf4jnsgd1na2vs0mg"},{"bike_id":"23e6ca2f-6508-428f-91df-505ca4e33c4f","system_id":"levelo_inurba_marseille","lat":43.33604,"lon":5.41036,"is_reserved":false,"is_disabled":false,"rental_uris":{"android":"levelo://app?vid=23e6ca2f-6508-428f-91df-505ca4e33c4f","ios":"levelo://app?vid=23e6ca2f-6508-428f-91df-505ca4e33c4f"},"vehicle_type_id":"4","last_reported":1729603128,"current_range_meters":24000,"station_id":"ce4bhqh2rcd13ifvqhmg","pricing_plan_id":"cebpf4jnsgd1na2vs0mg"},{"bike_id":"cc7ba531-eadc-4a76-b88a-eac33527a1c8","system_id":"levelo_inurba_marseille","lat":43.31895,"lon":5.40742,"is_reserved":false,"is_disabled":false,"rental_uris":{"android":"levelo://app?vid=cc7ba531-eadc-4a76-b88a-eac33527a1c8","ios":"levelo://app?vid=cc7ba531-eadc-4a76-b88a-eac33527a1c8"},"vehicle_type_id":"4","last_reported":1729603128,"current_range_meters":9600,"station_id":"ce4bhq12rcd13ifvqhig","pricing_plan_id":"cebpf4jnsgd1na2vs0mg"},{"bike_id":"e3f48d59-f832-484a-a580-d55195439007","system_id":"levelo_inurba_marseille","lat":43.29572,"lon":5.37519,"is_reserved":false,"is_disabled":false,"rental_uris":{"android":"levelo://app?vid=e3f48d59-f832-484a-a580-d55195439007","ios":"levelo://app?vid=e3f48d59-f832-484a-a580-d55195439007"},"vehicle_type_id":"4","last_reported":1729603128,"current_range_meters":38800,"station_id":"ce4bgh92rcd13ifvqb50","pricing_plan_id":"cebpf4jnsgd1na2vs0mg"},{"bike_id":"ff5fec8f-7e14-496a-a4f4-9db6fdbdedf2","system_id":"levelo_inurba_marseille","lat":43.2827,"lon":5.35069,"is_reserved":false,"is_disabled":false,"rental_uris":{"android":"levelo://app?vid=ff5fec8f-7e14-496a-a4f4-9db6fdbdedf2","ios":"levelo://app?vid=ff5fec8f-7e14-496a-a4f4-9db6fdbdedf2"},"vehicle_type_id":"4","last_reported":1729603128,"current_range_meters":15200,"station_id":"ce4bhbp2rcd13ifvqerg","pricing_plan_id":"cebpf4jnsgd1na2vs0mg"},{"bike_id":"cac5b24b-a017-4521-a27f-353d5bd91d6f","system_id":"levelo_inurba_marseille","lat":43.30155,"lon":5.38093,"is_reserved":false,"is_disabled":false,"rental_uris":{"android":"levelo://app?vid=cac5b24b-a017-4521-a27f-353d5bd91d6f","ios":"levelo://app?vid=cac5b24b-a017-4521-a27f-353d5bd91d6f"},"vehicle_type_id":"4","last_reported":1729603128,"current_range_meters":17600,"station_id":"ce4bgjp2rcd13ifvqbh0","pricing_plan_id":"cebpf4jnsgd1na2vs0mg"},{"bike_id":"087a7bf8-4bdf-408b-a60c-b4b0ac6d7a5a","system_id":"levelo_inurba_marseille","lat":43.32473,"lon":5.3656,"is_reserved":false,"is_disabled":false,"rental_uris":{"android":"levelo://app?vid=087a7bf8-4bdf-408b-a60c-b4b0ac6d7a5a","ios":"levelo://app?vid=087a7bf8-4bdf-408b-a60c-b4b0ac6d7a5a"},"vehicle_type_id":"4","last_reported":1729603128,"current_range_meters":39200,"station_id":"ce4bhs12rcd13ifvqhvg","pricing_plan_id":"cebpf4jnsgd1na2vs0mg"},