{"last_updated":1706641521,"ttl":30,"version":"2.2","data":{"bikes":[{"bike_id":"137b28dd-6157-4b5a-a1f4-b82de61e7aad","system_id":"levelo_inurba_marseille","lat":43.31341,"lon":5.367098,"is_reserved":false,"is_disabled":false,"rental_uris":{"android":"levelo://app?vid=137b28dd-6157-4b5a-a1f4-b82de61e7aad","ios":"levelo://app?vid=137b28dd-6157-4b5a-a1f4-b82de61e7aad"},"vehicle_type_id":"4","last_reported":1706641522,"current_range_meters":19600,"station_id":"ce4bgr92rcd13ifvqc6g","pricing_plan_id":"free"},{"bike_id":"cc35fd38-bedd-4dbb-b4c8-3b27f4494ee1","system_id":"levelo_inurba_marseille","lat":43.312239,"lon":5.368562,"is_reserved":false,"is_disabled":false,"rental_uris":{"android":"levelo://app?vid=cc35fd38-bedd-4dbb-b4c8-3b27f4494ee1","ios":"levelo://app?vid=cc35fd38-bedd-4dbb-b4c8-3b27f4494ee1"},"vehicle_type_id":"4","last_reported":1706641522,"current_range_meters":23200,"station_id":"ce4bgl92rcd13ifvqbq0","pricing_plan_id":"free"},{"bike_id":"8ccc0ad9-2d40-4743-ad23-a9c7b2a1463a","system_id":"levelo_inurba_marseille","lat":43.309076,"lon":5.368465,"is_reserved":false,"is_disabled":false,"rental_uris":{"android":"levelo://app?vid=8ccc0ad9-2d40-4743-ad23-a9c7b2a1463a","ios":"levelo://app?vid=8ccc0ad9-2d40-4743-ad23-a9c7b2a1463a"},"vehicle_type_id":"4","last_reported":1706641522,"current_range_meters":26000,"station_id":"ce4bgn92rcd13ifvqbvg","pricing_plan_id":"free"},{"bike_id":"63a84ad6-02c8-45cc-b4eb-c7b1cd58d035","system_id":"levelo_inurba_marseille","lat":43.314811,"lon":5.373103,"is_reserved":false,"is_disabled":false,"rental_uris":{"android":"levelo://app?vid=63a84ad6-02c8-45cc-b4eb-c7b1cd58d035","ios":"levelo://app?vid=63a84ad6-02c8-45cc-b4eb-c7b1cd58d035"},"vehicle_type_id":"4","last_reported":1706641522,"current_range_meters":6400,"station_id":"ce4bgt12rcd13ifvqcd0","pricing_plan_id":"free"},{"bike_id":"fde01a1a-2e64-4884-8ddb-bb12d042ff72","system_id":"levelo_inurba_marseille","lat":43.314811,"lon":5.373103,"is_reserved":false,"is_disabled":false,"rental_uris":{"android":"levelo://app?vid=fde01a1a-2e64-4884-8ddb-bb12d042ff72","ios":"levelo://app?vid=fde01a1a-2e64-4884-8ddb-bb12d042ff72"},"vehicle_type_id":"4","last_reported":1706641522,"current_range_meters":3600,"station_id":"ce4bgt12rcd13ifvqcd0","pricing_plan_id":"free"},{"bike_id":"757bca03-2335-48aa-b8ee-58a03d2a5848","system_id":"levelo_inurba_marseille","lat":43.314811,"lon":5.373104,"is_reserved":false,"is_disabled":false,"rental_uris":{"android":"levelo://app?vid=757bca03-2335-48aa-b8ee-58a03d2a5848","ios":"levelo://app?vid=757bca03-2335-48aa-b8ee-58a03d2a5848"},"vehicle_type_id":"4","last_reported":1706641522,"current_range_meters":0,"station_id":"ce4bgt12rcd13ifvqcd0","pricing_plan_id":"free"},{"bike_id":"c89fee17-1f6b-45d2-bd55-759cf9d7d1c8","system_id":"levelo_inurba_marseille","lat":43.314811,"lon":5.373103,"is_reserved":false,"is_disabled":false,"rental_uris":{"android":"levelo://app?vid=c89fee17-1f6b-45d2-bd55-759cf9d7d1c8","ios":"levelo://app?vid=c89fee17-1f6b-45d2-bd55-759cf9d7d1c8"},"vehicle_type_id":"4","last_reported":1706641522,"current_range_meters":3200,"station_id":"ce4bgt12rcd13ifvqcd0","pricing_plan_id":"free"},{"bike_id":"bced5f66-85ed-4238-9a5e-1543ad860f7c","system_id":"levelo_inurba_marseille","lat":43.305706,"lon":5.365654,"is_reserved":false,"is_disabled":false,"rental_uris":{"android":"levelo://app?vid=bced5f66-85ed-4238-9a5e-1543ad860f7c","ios":"levelo://app?vid=bced5f66-85ed-4238-9a5e-1543ad860f7c"},"vehicle_type_id":"4","last_reported":1706641522,"current_range_meters":20400,"station_id":"ce4bgs12rcd13ifvqcag","pricing_plan_id":"free"},{"bike_id":"f3550271-2af9-4990-b84e-163bdf866fbe","system_id":"levelo_inurba_marseille","lat":43.305989,"lon":5.37225,"is_reserved":false,"is_disabled":false,"rental_uris":{"android":"levelo://app?vid=f3550271-2af9-4990-b84e-163bdf866fbe","ios":"levelo://app?vid=f3550271-2af9-4990-b84e-163bdf866fbe"},"vehicle_type_id":"4","last_reported":1706641522,"current_range_meters":2400,"station_id":"ce4bgqh2rcd13ifvqc4g","pricing_plan_id":"free"},{"bike_id":"6897dff6-d870-4efd-bb95-bf9991f8f3f8","system_id":"levelo_inurba_marseille","lat":43.311131,"lon":5.377651,"is_reserved":false,"is_disabled":false,"rental_uris":{"android":"levelo://app?vid=6897dff6-d870-4efd-bb95-bf9991f8f3f8","ios":"levelo://app?vid=6897dff6-d870-4efd-bb95-bf9991f8f3f8"},"vehicle_type_id":"4","last_reported":1706641522,"current_range_meters":8400,"station_id":"ce4bgt92rcd13ifvqcg0","pricing_plan_id":"free"},{"bike_id":"f11d4cde-3af7-4167-848a-dcd78644fab3","system_id":"levelo_inurba_marseille","lat":43.307945,"lon":5.376487,"is_reserved":false,"is_disabled":false,"rental_uris":{"android":"levelo://app?vid=f11d4cde-3af7-4167-848a-dcd78644fab3","ios":"levelo://app?vid=f11d4cde-3af7-4167-848a-dcd78644fab3"},"vehicle_type_id":"4","last_reported":1706641522,"current_range_meters":20400,"station_id":"ce4bgv92rcd13ifvqcq0","pricing_plan_id":"free"},{"bike_id":"899d0092-7653-45db-88aa-d3f5eb3a8508","system_id":"levelo_inurba_marseille","lat":43.31088,"lon":5.37845,"is_reserved":false,"is_disabled":false,"rental_uris":{"android":"levelo://app?vid=899d0092-7653-45db-88aa-d3f5eb3a8508","ios":"levelo://app?vid=899d0092-7653-45db-88aa-d3f5eb3a8508"},"vehicle_type_id":"4","last_reported":1706641522,"current_range_meters":16800,"station_id":"","pricing_plan_id":"free"},{"bike_id":"da7dcaae-033a-4491-afc8-287d2278d803","system_id":"levelo_inurba_marseille","lat":43.315293,"lon":5.380349,"is_reserved":false,"is_disabled":false,"rental_uris":{"android":"levelo://app?vid=da7dcaae-033a-4491-afc8-287d2278d803","ios":"levelo://app?vid=da7dcaae-033a-4491-afc8-287d2278d803"},"vehicle_type_id":"4","last_reported":1706641522,"current_range_meters":31200,"station_id":"ce4bhsp2rcd13ifvqi50","pricing_plan_id":"free"},{"bike_id":"f451b387-0e79-4dde-bd10-32f4ba4d50bd","system_id":"levelo_inurba_marseille","lat":43.30835,"lon":5.37943,"is_reserved":false,"is_disabled":false,"rental_uris":{"android":"levelo://app?vid=f451b387-0e79-4dde-bd10-32f4ba4d50bd","ios":"levelo://app?vid=f451b387-0e79-4dde-bd10-32f4ba4d50bd"},"vehicle_type_id":"4","last_reported":1706641522,"current_range_meters":6000,"station_id":"","pricing_plan_id":"free"},{"bike_id":"bf8d6f99-fbe9-4782-bf4e-7cf54ec5c423","system_id":"levelo_inurba_marseille","lat":43.3154,"lon":5.3804,"is_reserved":false,"is_disabled":false,"rental_uris":{"android":"levelo://app?vid=bf8d6f99-fbe9-4782-bf4e-7cf54ec5c423","ios":"levelo://app?vid=bf8d6f99-fbe9-4782-bf4e-7cf54ec5c423"},"vehicle_type_id":"4","last_reported":1706641522,"current_range_meters":6400,"station_id":"","pricing_plan_id":"free"},{"bike_id":"da849baa-df00-46b7-8ae2-62046b1b581d","system_id":"levelo_inurba_marseille","lat":43.301939,"lon":5.366286,"is_reserved":false,"is_disabled":false,"rental_uris":{"android":"levelo://app?vid=da849baa-df00-46b7-8ae2-62046b1b581d","ios":"levelo://app?vid=da849baa-df00-46b7-8ae2-62046b1b581d"},"vehicle_type_id":"4","last_reported":1706641522,"current_range_meters":20800,"station_id":"ce4bgrh2rcd13ifvqc8g","pricing_plan_id":"free"},{"bike_id":"c6076f00-a16e-4801-8061-ca50b8337ea9","system_id":"levelo_inurba_marseille","lat":43.308012,"lon":5.381511,"is_reserved":false,"is_disabled":false,"rental_uris":{"android":"levelo://app?vid=c6076f00-a16e-4801-8061-ca50b8337ea9","ios":"levelo://app?vid=c6076f00-a16e-4801-8061-ca50b8337ea9"},"vehicle_type_id":"4","last_reported":1706641522,"current_range_meters":4400,"station_id":"ce4bgt12rcd13ifvqce0","pricing_plan_id":"free"},{"bike_id":"a6273f5c-ada4-41f6-8889-552f34f0070a","system_id":"levelo_inurba_marseille","lat":43.308012,"lon":5.381511,"is_reserved":false,"is_disabled":false,"rental_uris":{"android":"levelo://app?vid=a6273f5c-ada4-41f6-8889-552f34f0070a","ios":"levelo://app?vid=a6273f5c-ada4-41f6-8889-552f34f0070a"},"vehicle_type_id":"4","last_reported":1706641522,"current_range_meters":5600,"station_id":"ce4bgt12rcd13ifvqce0","pricing_plan_id":"free"},{"bike_id":"a20b7e1f-273e-45a4-bd4b-39f266d8e860","system_id":"levelo_inurba_marseille","lat":43.308012,"lon":5.381511,"is_reserved":false,"is_disabled":false,"rental_uris":{"android":"levelo://app?vid=a20b7e1f-273e-45a4-bd4b-39f266d8e860","ios":"levelo://app?vid=a20b7e1f-273e-45a4-bd4b-39f266d8e860"},"vehicle_type_id":"4","last_reported":1706641522,"current_range_meters":2000,"station_id":"ce4bgt12rcd13ifvqce0","pricing_plan_id":"free"},{"bike_id":"fc8695ac-ba85-434f-8b81-24984799ccd0","system_id":"levelo_inurba_marseille","lat":43.304606,"lon":5.379026,"is_reserved":false,"is_disabled":false,"rental_uris":{"android":"levelo://app?vid=fc8695ac-ba85-434f-8b81-24984799ccd0","ios":"levelo://app?vid=fc8695ac-ba85-434f-8b81-24984799ccd0"},"vehicle_type_id":"4","last_reported":1706641522,"current_range_meters":7200,"station_id":"ce4bgup2rcd13ifvqcn0","pricing_plan_id":"free"},{"bike_id":"04a284c6-ab3f-4874-9aaa-d24e4dd52dec","system_id":"levelo_inurba_marseille","lat":43.304632,"lon":5.379046,"is_reserved":false,"is_disabled":false,"rental_uris":{"android":"levelo://app?vid=04a284c6-ab3f-4874-9aaa-d24e4dd52dec","ios":"levelo://app?vid=04a284c6-ab3f-4874-9aaa-d24e4dd52dec"},"vehicle_type_id":"4","last_reported":1706641522,"current_range_meters":0,"station_id":"ce4bgup2rcd13ifvqcn0","pricing_plan_id":"free"},{"bike_id":"f9b3aa5a-40af-4040-a917-268c7acc95ae","system_id":"levelo_inurba_marseille","lat":43.32481,"lon":5.36578,"is_reserved":false,"is_disabled":false,"rental_uris":{"android":"levelo://app?vid=f9b3aa5a-40af-4040-a917-268c7acc95ae","ios":"levelo://app?vid=f9b3aa5a-40af-4040-a917-268c7acc95ae"},"vehicle_type_id":"4","last_reported":1706641522,"current_range_meters":20800,"station_id":"ce4bhs12rcd13ifvqhvg","pricing_plan_id":"free"},{"bike_id":"4736ab2f-d481-4964-88a7-047c1ca02d2a","system_id":"levelo_inurba_marseille","lat":43.324835,"lon":5.36578,"is_reserved":false,"is_disabled":false,"rental_uris":{"android":"levelo://app?vid=4736ab2f-d481-4964-88a7-047c1ca02d2a","ios":"levelo://app?vid=4736ab2f-d481-4964-88a7-047c1ca02d2a"},"vehicle_type_id":"4","last_reported":1706641522,"current_range_meters":29200,"station_id":"ce4bhs12rcd13ifvqhvg","pricing_plan_id":"free"},{"bike_id":"4c1d912b-8425-4b28-bcd4-0691a1724560","system_id":"levelo_inurba_marseille","lat":43.324845,"lon":5.365813,"is_reserved":false,"is_disabled":false,"rental_uris":{"android":"levelo://app?vid=4c1d912b-8425-4b28-bcd4-0691a1724560","ios":"levelo://app?vid=4c1d912b-8425-4b28-bcd4-0691a1724560"},"vehicle_type_id":"4","last_reported":1706641522,"current_range_meters":22800,"station_id":"ce4bhs12rcd13ifvqhvg","pricing_plan_id":"free"},{"bike_id":"3f4d96cf-b110-4a20-b31e-a4373c40e7be","system_id":"levelo_inurba_marseille","lat":43.31996,"lon":5.38157,"is_reserved":false,"is_disabled":false,"rental_uris":{"android":"levelo://app?vid=3f4d96cf-b110-4a20-b31e-a4373c40e7be","ios":"levelo://app?vid=3f4d96cf-b110-4a20-b31e-a4373c40e7be"},"vehicle_type_id":"4","last_reported":1706641522,"current_range_meters":18400,"station_id":"ce4bhr12rcd13ifvqhpg","pricing_plan_id":"free"},{"bike_id":"d0746e43-620f-459f-9e60-baedd4dac370","system_id":"levelo_inurba_marseille","lat":43.319935,"lon":5.381699,"is_reserved":false,"is_disabled":false,"rental_uris":{"android":"levelo://app?vid=d0746e43-620f-459f-9e60-baedd4dac370","ios":"levelo://app?vid=d0746e43-620f-459f-9e60-baedd4dac370"},"vehicle_type_id":"4","last_reported":1706641522,"current_range_meters":0,"station_id":"ce4bhr12rcd13ifvqhpg","pricing_plan_id":"free"},{"bike_id":"b8b1dbbf-61db-4523-87cf-433d900d312a","system_id":"levelo_inurba_marseille","lat":43.319935,"lon":5.381699,"is_reserved":false,"is_disabled":false,"rental_uris":{"android":"levelo://app?vid=b8b1dbbf-61db-4523-87cf-433d900d312a","ios":"levelo://app?vid=b8b1dbbf-61db-4523-87cf-433d900d312a"},"vehicle_type_id":"4","last_reported":1706641522,"current_range_meters":7200,"station_id":"ce4bhr12rcd13ifvqhpg","pricing_plan_id":"free"},{"bike_id":"c4e490d7-0ea5-4f58-9a22-31a35fb1514e","system_id":"levelo_inurba_marseille","lat":43.319935,"lon":5.381699,"is_reserved":false,"is_disabled":false,"rental_uris":{"android":"levelo://app?vid=c4e490d7-0ea5-4f58-9a22-31a35fb1514e","ios":"levelo://app?vid=c4e490d7-0ea5-4f58-9a22-31a35fb1514e"},"vehicle_type_id":"4","last_reported":1706641522,"current_range_meters":2800,"station_id":"ce4bhr12rcd13ifvqhpg","pricing_plan_id":"free"},{"bike_id":"1781b2aa-3d7f-4b2b-afd5-f591db1ca4e3","system_id":"levelo_inurba_marseille","lat":43.319935,"lon":5.381699,"is_reserved":false,"is_disabled":false,"rental_uris":{"android":"levelo://app?vid=1781b2aa-3d7f-4b2b-afd5-f591db1ca4e3","ios":"levelo://app?vid=1781b2aa-3d7f-4b2b-afd5-f591db1ca4e3"},"vehicle_type_id":"4","last_reported":1706641522,"current_range_meters":20000,"station_id":"ce4bhr12rcd13ifvqhpg","pricing_plan_id":"free"},{"bike_id":"019b88cb-f415-4e12-97d5-61f5c770d6ee","system_id":"levelo_inurba_marseille","lat":43.313571,"lon":5.384829,"is_reserved":false,"is_disabled":false,"rental_uris":{"android":"levelo://app?vid=019b88cb-f415-4e12-97d5-61f5c770d6ee","ios":"levelo://app?vid=019b88cb-f415-4e12-97d5-61f5c770d6ee"},"vehicle_type_id":"4","last_reported":1706641522,"current_range_meters":7200,"station_id":"ce4bgt92rcd13ifvqcf0","pricing_plan_id":"free"},{"bike_id":"88020db4-3cd0-4a44-ae34-22d03870e908","system_id":"levelo_inurba_marseille","lat":43.313571,"lon":5.384829,"is_reserved":false,"is_disabled":false,"rental_uris":{"android":"levelo://app?vid=88020db4-3cd0-4a44-ae34-22d03870e908","ios":"levelo://app?vid=88020db4-3cd0-4a44-ae34-22d03870e908"},"vehicle_type_id":"4","last_reported":1706641522,"current_range_meters":400,"station_id":"ce4bgt92rcd13ifvqcf0","pricing_plan_id":"free"},{"bike_id":"4fa5792f-5ff1-4142-9011-64799749ef0d","system_id":"levelo_inurba_marseille","lat":43.313571,"lon":5.384829,"is_reserved":false,"is_disabled":false,"rental_uris":{"android":"levelo://app?vid=4fa5792f-5ff1-4142-9011-64799749ef0d","ios":"levelo://app?vid=4fa5792f-5ff1-4142-9011-64799749ef0d"},"vehicle_type_id":"4","last_reported":1706641522,"current_range_meters":3600,"station_id":"ce4bgt92rcd13ifvqcf0","pricing_plan_id":"free"},{"bike_id":"97c179e6-8f43-4dcf-9d2b-634dcd15e6c9","system_id":"levelo_inurba_marseille","lat":43.313571,"lon":5.384829,"is_reserved":false,"is_disabled":false,"rental_uris":{"android":"levelo://app?vid=97c179e6-8f43-4dcf-9d2b-634dcd15e6c9","ios":"levelo://app?vid=97c179e6-8f43-4dcf-9d2b-634dcd15e6c9"},"vehicle_type_id":"4","last_reported":1706641522,"current_range_meters":1200,"station_id":"ce4bgt92rcd13ifvqcf0","pricing_plan_id":"free"},{"bike_id":"490060ee-60ab-4c13-9963-1ff7a1e21f30","system_id":"levelo_inurba_marseille","lat":43.313571,"lon":5.384829,"is_reserved":false,"is_disabled":false,"rental_uris":{"android":"levelo://app?vid=490060ee-60ab-4c13-9963-1ff7a1e21f30","ios":"levelo://app?vid=490060ee-60ab-4c13-9963-1ff7a1e21f30"},"vehicle_type_id":"4","last_reported":1706641522,"current_range_meters":18400,"station_id":"ce4bgt92rcd13ifvqcf0","pricing_plan_id":"free"},{"bike_id":"e2d0a3d4-e2a9-4dcc-99e6-eb940863c528","system_id":"levelo_inurba_marseille","lat":43.3137,"lon":5.38496,"is_reserved":false,"is_disabled":false,"rental_uris":{"android":"levelo://app?vid=e2d0a3d4-e2a9-4dcc-99e6-eb940863c528","ios":"levelo://app?vid=e2d0a3d4-e2a9-4dcc-99e6-eb940863c528"},"vehicle_type_id":"4","last_reported":1706641522,"current_range_meters":0,"station_id":"ce4bgt92rcd13ifvqcf0","pricing_plan_id":"free"},{"bike_id":"d1e58052-768b-446f-a6f7-3920b1d6d32e","system_id":"levelo_inurba_marseille","lat":43.313571,"lon":5.384829,"is_reserved":false,"is_disabled":false,"rental_uris":{"android":"levelo://app?vid=d1e58052-768b-446f-a6f7-3920b1d6d32e","ios":"levelo://app?vid=d1e58052-768b-446f-a6f7-3920b1d6d32e"},"vehicle_type_id":"4","last_reported":1706641522,"current_range_meters":26800,"station_id":"ce4bgt92rcd13ifvqcf0","pricing_plan_id":"free"},{"bike_id":"48cd1ab9-fc31-4452-b1a9-914d8dadb358","system_id":"levelo_inurba_marseille","lat":43.313571,"lon":5.384829,"is_reserved":false,"is_disabled":false,"rental_uris":{"android":"levelo://app?vid=48cd1ab9-fc31-4452-b1a9-914d8dadb358","ios":"levelo://app?vid=48cd1ab9-fc31-4452-b1a9-914d8dadb358"},"vehicle_type_id":"4","last_reported":1706641522,"current_range_meters":10800,"station_id":"ce4bgt92rcd13ifvqcf0","pricing_plan_id":"free"},{"bike_id":"b98b133d-2d4f-4456-82c6-b1cf060c5f72","system_id":"levelo_inurba_marseille","lat":43.313571,"lon":5.384829,"is_reserved":false,"is_disabled":false,"rental_uris":{"android":"levelo://app?vid=b98b133d-2d4f-4456-82c6-b1cf060c5f72","ios":"levelo://app?vid=b98b133d-2d4f-4456-82c6-b1cf060c5f72"},"vehicle_type_id":"4","last_reported":1706641522,"current_range_meters":23200,"station_id":"ce4bgt92rcd13ifvqcf0","pricing_plan_id":"free"},{"bike_id":"39b64e8c-33e0-4494-94ef-e13787cc36b5","system_id":"levelo_inurba_marseille","lat":43.313571,"lon":5.384829,"is_reserved":false,"is_disabled":false,"rental_uris":{"android":"levelo://app?vid=39b64e8c-33e0-4494-94ef-e13787cc36b5","ios":"levelo://app?vid=39b64e8c-33e0-4494-94ef-e13787cc36b5"},"vehicle_type_id":"4","last_reported":1706641522,"current_range_meters":26800,"station_id":"ce4bgt92rcd13ifvqcf0","pricing_plan_id":"free"},{"bike_id":"298b3a3c-f213-4696-8193-0f3b64c1bea6","system_id":"levelo_inurba_marseille","lat":43.299222,"lon":5.365554,"is_reserved":false,"is_disabled":false,"rental_uris":{"android":"levelo://app?vid=298b3a3c-f213-4696-8193-0f3b64c1bea6","ios":"levelo://app?vid=298b3a3c-f213-4696-8193-0f3b64c1bea6"},"vehicle_type_id":"4","last_reported":1706641522,"current_range_meters":0,"station_id":"ce4bgm92rcd13ifvqbr0","pricing_plan_id":"free"},{"bike_id":"ef7a8756-6b4f-42c1-a5d6-bfa566148bf7","system_id":"levelo_inurba_marseille","lat":43.29977,"lon":5.37181,"is_reserved":false,"is_disabled":false,"rental_uris":{"android":"levelo://app?vid=ef7a8756-6b4f-42c1-a5d6-bfa566148bf7","ios":"levelo://app?vid=ef7a8756-6b4f-42c1-a5d6-bfa566148bf7"},"vehicle_type_id":"4","last_reported":1706641522,"current_range_meters":0,"station_id":"ce4bgr92rcd13ifvqc7g","pricing_plan_id":"free"},{"bike_id":"14e9c00c-170e-4f7b-9117-4bab39fd7ff3","system_id":"levelo_inurba_marseille","lat":43.299724,"lon":5.371829,"is_reserved":false,"is_disabled":false,"rental_uris":{"android":"levelo://app?vid=14e9c00c-170e-4f7b-9117-4bab39fd7ff3","ios":"levelo://app?vid=14e9c00c-170e-4f7b-9117-4bab39fd7ff3"},"vehicle_type_id":"4","last_reported":1706641522,"current_range_meters":23200,"station_id":"ce4bgr92rcd13ifvqc7g","pricing_plan_id":"free"},{"bike_id":"8745f393-d6f3-4759-95dd-e3a7ee9c24f1","system_id":"levelo_inurba_marseille","lat":43.305364,"lon":5.384119,"is_reserved":false,"is_disabled":false,"rental_uris":{"android":"levelo://app?vid=8745f393-d6f3-4759-95dd-e3a7ee9c24f1","ios":"levelo://app?vid=8745f393-d6f3-4759-95dd-e3a7ee9c24f1"},"vehicle_type_id":"4","last_reported":1706641522,"current_range_meters":6800,"station_id":"ce4bgg92rcd13ifvqb30","pricing_plan_id":"free"},{"bike_id":"e76f7aeb-6f30-4c94-a430-a82a3aef2f40","system_id":"levelo_inurba_marseille","lat":43.305364,"lon":5.384119,"is_reserved":false,"is_disabled":false,"rental_uris":{"android":"levelo://app?vid=e76f7aeb-6f30-4c94-a430-a82a3aef2f40","ios":"levelo://app?vid=e76f7aeb-6f30-4c94-a430-a82a3aef2f40"},"vehicle_type_id":"4","last_reported":1706641522,"current_range_meters":11600,"station_id":"ce4bgg92rcd13ifvqb30","pricing_plan_id":"free"},{"bike_id":"75d58b10-dec8-464d-9b25-ae1059f2441d","system_id":"levelo_inurba_marseille","lat":43.299243,"lon":5.37481,"is_reserved":false,"is_disabled":false,"rental_uris":{"android":"levelo://app?vid=75d58b10-dec8-464d-9b25-ae1059f2441d","ios":"levelo://app?vid=75d58b10-dec8-464d-9b25-ae1059f2441d"},"vehicle_type_id":"4","last_reported":1706641522,"current_range_meters":4000,"station_id":"ce4bgjh2rcd13ifvqbg0","pricing_plan_id":"free"},{"bike_id":"566e1a00-d8ce-458f-8d71-7078ab258d36","system_id":"levelo_inurba_marseille","lat":43.311722,"lon":5.387247,"is_reserved":false,"is_disabled":false,"rental_uris":{"android":"levelo://app?vid=566e1a00-d8ce-458f-8d71-7078ab258d36","ios":"levelo://app?vid=566e1a00-d8ce-458f-8d71-7078ab258d36"},"vehicle_type_id":"4","last_reported":1706641522,"current_range_meters":22000,"station_id":"ce4bgv12rcd13ifvqcp0","pricing_plan_id":"free"},{"bike_id":"8071c376-a39d-498d-ab29-b015d0677246","system_id":"levelo_inurba_marseille","lat":43.311722,"lon":5.387247,"is_reserved":false,"is_disabled":false,"rental_uris":{"android":"levelo://app?vid=8071c376-a39d-498d-ab29-b015d0677246","ios":"levelo://app?vid=8071c376-a39d-498d-ab29-b015d0677246"},"vehicle_type_id":"4","last_reported":1706641522,"current_range_meters":1200,"station_id":"ce4bgv12rcd13ifvqcp0","pricing_plan_id":"free"},{"bike_id":"b63cffa0-64af-40b8-a8ad-c056792f19ed","system_id":"levelo_inurba_marseille","lat":43.322872,"lon":5.382756,"is_reserved":false,"is_disabled":false,"rental_uris":{"android":"levelo://app?vid=b63cffa0-64af-40b8-a8ad-c056792f19ed","ios":"levelo://app?vid=b63cffa0-64af-40b8-a8ad-c056792f19ed"},"vehicle_type_id":"4","last_reported":1706641522,"current_range_meters":26000,"station_id":"ce4bhr12rcd13ifvqhqg","pricing_plan_id":"free"},{"bike_id":"2f8f42c0-817f-4a71-af44-ca5542d95905","system_id":"levelo_inurba_marseille","lat":43.322872,"lon":5.382756,"is_reserved":false,"is_disabled":false,"rental_uris":{"android":"levelo://app?vid=2f8f42c0-817f-4a71-af44-ca5542d95905","ios":"levelo://app?vid=2f8f42c0-817f-4a71-af44-ca5542d95905"},"vehicle_type_id":"4","last_reported":1706641522,"current_range_meters":16400,"station_id":"ce4bhr12rcd13ifvqhqg","pricing_plan_id":"free"},{"bike_id":"7f20dc7e-badd-444e-a7c8-bf3a545cc809","system_id":"levelo_inurba_marseille","lat":43.322872,"lon":5.382756,"is_reserved":false,"is_disabled":false,"rental_uris":{"android":"levelo://app?vid=7f20dc7e-badd-444e-a7c8-bf3a545cc809","ios":"levelo://app?vid=7f20dc7e-badd-444e-a7c8-bf3a545cc809"},"vehicle_type_id":"4","last_reported":1706641522,"current_range_meters":18800,"station_id":"ce4bhr12rcd13ifvqhqg","pricing_plan_id":"free"},{"bike_id":"e53b96f6-0749-4e57-9ae0-506258818dab","system_id":"levelo_inurba_marseille","lat":43.322872,"lon":5.382756,"is_reserved":false,"is_disabled":false,"rental_uris":{"android":"levelo://app?vid=e53b96f6-0749-4e57-9ae0-506258818dab","ios":"levelo://app?vid=e53b96f6-0749-4e57-9ae0-506258818dab"},"vehicle_type_id":"4","last_reported":1706641522,"current_range_meters":15200,"station_id":"ce4bhr12rcd13ifvqhqg","pricing_plan_id":"free"},{"bike_id":"e9842c34-5cb2-47ba-87a1-99bf36004d12","system_id":"levelo_inurba_marseille","lat":43.32825,"lon":5.36677,"is_reserved":false,"is_disabled":false,"rental_uris":{"android":"levelo://app?vid=e9842c34-5cb2-47ba-87a1-99bf36004d12","ios":"levelo://app?vid=e9842c34-5cb2-47ba-87a1-99bf36004d12"},"vehicle_type_id":"4","last_reported":1706641522,"current_range_meters":0,"station_id":"ce4bhs92rcd13ifvqi0g","pricing_plan_id":"free"},{"bike_id":"92589973-d956-4826-a1e1-8b958e0b4b1a","system_id":"levelo_inurba_marseille","lat":43.3283,"lon":5.36679,"is_reserved":false,"is_disabled":false,"rental_uris":{"android":"levelo://app?vid=92589973-d956-4826-a1e1-8b958e0b4b1a","ios":"levelo://app?vid=92589973-d956-4826-a1e1-8b958e0b4b1a"},"vehicle_type_id":"4","last_reported":1706641522,"current_range_meters":0,"station_id":"ce4bhs92rcd13ifvqi0g","pricing_plan_id":"free"},{"bike_id":"5e0d7018-715e-4087-a2d6-cfa7ba43c5e5","system_id":"levelo_inurba_marseille","lat":43.32831,"lon":5.36687,"is_reserved":false,"is_disabled":false,"rental_uris":{"android":"levelo://app?vid=5e0d7018-715e-4087-a2d6-cfa7ba43c5e5","ios":"levelo://app?vid=5e0d7018-715e-4087-a2d6-cfa7ba43c5e5"},"vehicle_type_id":"4","last_reported":1706641522,"current_range_meters":17200,"station_id":"ce4bhs92rcd13ifvqi0g","pricing_plan_id":"free"},{"bike_id":"d2fd0d93-9a42-456a-ad4a-a5813dc11fe4","system_id":"levelo_inurba_marseille","lat":43.32833,"lon":5.36692,"is_reserved":false,"is_disabled":false,"rental_uris":{"android":"levelo://app?vid=d2fd0d93-9a42-456a-ad4a-a5813dc11fe4","ios":"levelo://app?vid=d2fd0d93-9a42-456a-ad4a-a5813dc11fe4"},"vehicle_type_id":"4","last_reported":1706641522,"current_range_meters":11600,"station_id":"ce4bhs92rcd13ifvqi0g","pricing_plan_id":"free"},{"bike_id":"424909ae-9d19-4429-b2eb-854d86d8f2f1","system_id":"levelo_inurba_marseille","lat":43.29715,"lon":5.36612,"is_reserved":false,"is_disabled":false,"rental_uris":{"android":"levelo://app?vid=424909ae-9d19-4429-b2eb-854d86d8f2f1","ios":"levelo://app?vid=424909ae-9d19-4429-b2eb-854d86d8f2f1"},"vehicle_type_id":"4","last_reported":1706641522,"current_range_meters":12400,"station_id":"ce4bgn12rcd13ifvqbt0","pricing_plan_id":"free"},{"bike_id":"953b741b-9f51-40b4-b274-c3f26a75a242","system_id":"levelo_inurba_marseille","lat":43.297163,"lon":5.365866,"is_reserved":false,"is_disabled":false,"rental_uris":{"android":"levelo://app?vid=953b741b-9f51-40b4-b274-c3f26a75a242","ios":"levelo://app?vid=953b741b-9f51-40b4-b274-c3f26a75a242"},"vehicle_type_id":"4","last_reported":1706641522,"current_range_meters":10400,"station_id":"ce4bgn12rcd13ifvqbt0","pricing_plan_id":"free"},{"bike_id":"272bc0b6-3a51-4953-9002-89f001fa4dc3","system_id":"levelo_inurba_marseille","lat":43.29573,"lon":5.367355,"is_reserved":false,"is_disabled":false,"rental_uris":{"android":"levelo://app?vid=272bc0b6-3a51-4953-9002-89f001fa4dc3","ios":"levelo://app?vid=272bc0b6-3a51-4953-9002-89f001fa4dc3"},"vehicle_type_id":"4","last_reported":1706641522,"current_range_meters":7200,"station_id":"ce4bgph2rcd13ifvqc2g","pricing_plan_id":"free"},{"bike_id":"51ef19b7-c4bd-4fa6-9a9c-73f1a11df217","system_id":"levelo_inurba_marseille","lat":43.29573,"lon":5.367355,"is_reserved":false,"is_disabled":false,"rental_uris":{"android":"levelo://app?vid=51ef19b7-c4bd-4fa6-9a9c-73f1a11df217","ios":"levelo://app?vid=51ef19b7-c4bd-4fa6-9a9c-73f1a11df217"},"vehicle_type_id":"4","last_reported":1706641522,"current_range_meters":19200,"station_id":"ce4bgph2rcd13ifvqc2g","pricing_plan_id":"free"},{"bike_id":"0769e490-e139-4f46-8fac-c1615ee476b2","system_id":"levelo_inurba_marseille","lat":43.296921,"lon":5.376579,"is_reserved":false,"is_disabled":false,"rental_uris":{"android":"levelo://app?vid=0769e490-e139-4f46-8fac-c1615ee476b2","ios":"levelo://app?vid=0769e490-e139-4f46-8fac-c1615ee476b2"},"vehicle_type_id":"4","last_reported":1706641522,"current_range_meters":0,"station_id":"ce4bgkh2rcd13ifvqbl0","pricing_plan_id":"free"},{"bike_id":"825dad1e-a270-4671-9b80-b96716720e63","system_id":"levelo_inurba_marseille","lat":43.317557,"lon":5.390173,"is_reserved":false,"is_disabled":false,"rental_uris":{"android":"levelo://app?vid=825dad1e-a270-4671-9b80-b96716720e63","ios":"levelo://app?vid=825dad1e-a270-4671-9b80-b96716720e63"},"vehicle_type_id":"4","last_reported":1706641522,"current_range_meters":2800,"station_id":"ce4bhqp2rcd13ifvqhng","pricing_plan_id":"free"},{"bike_id":"a75a9c03-c10b-46ca-a6f1-f085c90bc0fa","system_id":"levelo_inurba_marseille","lat":43.295748,"lon":5.37522,"is_reserved":false,"is_disabled":false,"rental_uris":{"android":"levelo://app?vid=a75a9c03-c10b-46ca-a6f1-f085c90bc0fa","ios":"levelo://app?vid=a75a9c03-c10b-46ca-a6f1-f085c90bc0fa"},"vehicle_type_id":"4","last_reported":1706641522,"current_range_meters":0,"station_id":"ce4bgh92rcd13ifvqb50","pricing_plan_id":"free"},{"bike_id":"aa5913a5-b4e9-4ade-b933-2f5c784371bb","system_id":"levelo_inurba_marseille","lat":43.29793,"lon":5.38097,"is_reserved":false,"is_disabled":false,"rental_uris":{"android":"levelo://app?vid=aa5913a5-b4e9-4ade-b933-2f5c784371bb","ios":"levelo://app?vid=aa5913a5-b4e9-4ade-b933-2f5c784371bb"},"vehicle_type_id":"4","last_reported":1706641522,"current_range_meters":4400,"station_id":"ce4bgip2rcd13ifvqbb0","pricing_plan_id":"free"},{"bike_id":"5cfaca65-294a-454f-8a5f-f6a4f9be55e1","system_id":"levelo_inurba_marseille","lat":43.304278,"lon":5.388868,"is_reserved":false,"is_disabled":false,"rental_uris":{"android":"levelo://app?vid=5cfaca65-294a-454f-8a5f-f6a4f9be55e1","ios":"levelo://app?vid=5cfaca65-294a-454f-8a5f-f6a4f9be55e1"},"vehicle_type_id":"4","last_reported":1706641522,"current_range_meters":12400,"station_id":"ce4bgk12rcd13ifvqbi0","pricing_plan_id":"free"},{"bike_id":"bfe19def-df48-4f55-92a4-3692475670d7","system_id":"levelo_inurba_marseille","lat":43.304274,"lon":5.388873,"is_reserved":false,"is_disabled":false,"rental_uris":{"android":"levelo://app?vid=bfe19def-df48-4f55-92a4-3692475670d7","ios":"levelo://app?vid=bfe19def-df48-4f55-92a4-3692475670d7"},"vehicle_type_id":"4","last_reported":1706641522,"current_range_meters":0,"station_id":"ce4bgk12rcd13ifvqbi0","pricing_plan_id":"free"},{"bike_id":"0d432734-f006-4d07-ba13-82a4ba93354b","system_id":"levelo_inurba_marseille","lat":43.295748,"lon":5.37522,"is_reserved":false,"is_disabled":false,"rental_uris":{"android":"levelo://app?vid=0d432734-f006-4d07-ba13-82a4ba93354b","ios":"levelo://app?vid=0d432734-f006-4d07-ba13-82a4ba93354b"},"vehicle_type_id":"4","last_reported":1706641522,"current_range_meters":0,"station_id":"ce4bgh92rcd13ifvqb50","pricing_plan_id":"free"},{"bike_id":"a19e7d6a-ef61-40ab-9cde-322153c92e7e","system_id":"levelo_inurba_marseille","lat":43.296277,"lon":5.377108,"is_reserved":false,"is_disabled":false,"rental_uris":{"android":"levelo://app?vid=a19e7d6a-ef61-40ab-9cde-322153c92e7e","ios":"levelo://app?vid=a19e7d6a-ef61-40ab-9cde-322153c92e7e"},"vehicle_type_id":"4","last_reported":1706641522,"current_range_meters":0,"station_id":"ce4bgi92rcd13ifvqb90","pricing_plan_id":"free"},{"bike_id":"711b6e35-0bde-4b8c-aab4-0158680f01a8","system_id":"levelo_inurba_marseille","lat":43.299717,"lon":5.384845,"is_reserved":false,"is_disabled":false,"rental_uris":{"android":"levelo://app?vid=711b6e35-0bde-4b8c-aab4-0158680f01a8","ios":"levelo://app?vid=711b6e35-0bde-4b8c-aab4-0158680f01a8"},"vehicle_type_id":"4","last_reported":1706641522,"current_range_meters":400,"station_id":"ce4bgj92rcd13ifvqbd0","pricing_plan_id":"free"},{"bike_id":"de25d637-84ec-4203-b892-3e1c2d7c4ddb","system_id":"levelo_inurba_marseille","lat":43.33171,"lon":5.364464,"is_reserved":false,"is_disabled":false,"rental_uris":{"android":"levelo://app?vid=de25d637-84ec-4203-b892-3e1c2d7c4ddb","ios":"levelo://app?vid=de25d637-84ec-4203-b892-3e1c2d7c4ddb"},"vehicle_type_id":"4","last_reported":1706641522,"current_range_meters":11200,"station_id":"","pricing_plan_id":"free"},{"bike_id":"0679196a-cfba-4373-a7ff-0b80ba558cd2","system_id":"levelo_inurba_marseille","lat":43.32362,"lon":5.388768,"is_reserved":false,"is_disabled":false,"rental_uris":{"android":"levelo://app?vid=0679196a-cfba-4373-a7ff-0b80ba558cd2","ios":"levelo://app?vid=0679196a-cfba-4373-a7ff-0b80ba558cd2"},"vehicle_type_id":"4","last_reported":1706641522,"current_range_meters":18800,"station_id":"ce4bhqp2rcd13ifvqhog","pricing_plan_id":"free"},{"bike_id":"4e4bc9ec-f8c5-4fd6-9615-35270feaab14","system_id":"levelo_inurba_marseille","lat":43.32367,"lon":5.388836,"is_reserved":false,"is_disabled":false,"rental_uris":{"android":"levelo://app?vid=4e4bc9ec-f8c5-4fd6-9615-35270feaab14","ios":"levelo://app?vid=4e4bc9ec-f8c5-4fd6-9615-35270feaab14"},"vehicle_type_id":"4","last_reported":1706641522,"current_range_meters":2800,"station_id":"ce4bhqp2rcd13ifvqhog","pricing_plan_id":"free"},{"bike_id":"87c37e20-93d8-4821-b2fb-71a6c4f572ed","system_id":"levelo_inurba_marseille","lat":43.32364,"lon":5.38884,"is_reserved":false,"is_disabled":false,"rental_uris":{"android":"levelo://app?vid=87c37e20-93d8-4821-b2fb-71a6c4f572ed","ios":"levelo://app?vid=87c37e20-93d8-4821-b2fb-71a6c4f572ed"},"vehicle_type_id":"4","last_reported":1706641522,"current_range_meters":6400,"station_id":"ce4bhqp2rcd13ifvqhog","pricing_plan_id":"free"},{"bike_id":"2b10781d-71f0-46f3-b6a1-8bde9d3cf93f","system_id":"levelo_inurba_marseille","lat":43.32367,"lon":5.388836,"is_reserved":false,"is_disabled":false,"rental_uris":{"android":"levelo://app?vid=2b10781d-71f0-46f3-b6a1-8bde9d3cf93f","ios":"levelo://app?vid=2b10781d-71f0-46f3-b6a1-8bde9d3cf93f"},"vehicle_type_id":"4","last_reported":1706641522,"current_range_meters":8800,"station_id":"ce4bhqp2rcd13ifvqhog","pricing_plan_id":"free"},{"bike_id":"974bdc56-7362-4963-b9ad-fb0fc21465ae","system_id":"levelo_inurba_marseille","lat":43.29601,"lon":5.381084,"is_reserved":false,"is_disabled":false,"rental_uris":{"android":"levelo://app?vid=974bdc56-7362-4963-b9ad-fb0fc21465ae","ios":"levelo://app?vid=974bdc56-7362-4963-b9ad-fb0fc21465ae"},"vehicle_type_id":"4","last_reported":1706641522,"current_range_meters":1600,"station_id":"ce4bgl12rcd13ifvqbo0","pricing_plan_id":"free"},{"bike_id":"3c96d003-da90-4e38-8c3d-c7f6eb2d3f3f","system_id":"levelo_inurba_marseille","lat":43.30191,"lon":5.38963,"is_reserved":false,"is_disabled":false,"rental_uris":{"android":"levelo://app?vid=3c96d003-da90-4e38-8c3d-c7f6eb2d3f3f","ios":"levelo://app?vid=3c96d003-da90-4e38-8c3d-c7f6eb2d3f3f"},"vehicle_type_id":"4","last_reported":1706641522,"current_range_meters":19200,"station_id":"","pricing_plan_id":"free"},{"bike_id":"67cc158c-ec48-4504-835a-d11592fc516f","system_id":"levelo_inurba_marseille","lat":43.29278,"lon":5.36848,"is_reserved":false,"is_disabled":false,"rental_uris":{"android":"levelo://app?vid=67cc158c-ec48-4504-835a-d11592fc516f","ios":"levelo://app?vid=67cc158c-ec48-4504-835a-d11592fc516f"},"vehicle_type_id":"4","last_reported":1706641522,"current_range_meters":0,"station_id":"ce4bhbp2rcd13ifvqesg","pricing_plan_id":"free"},{"bike_id":"78b3bdfa-e78a-4167-a5c7-efc96f8faea3","system_id":"levelo_inurba_marseille","lat":43.292749,"lon":5.368402,"is_reserved":false,"is_disabled":false,"rental_uris":{"android":"levelo://app?vid=78b3bdfa-e78a-4167-a5c7-efc96f8faea3","ios":"levelo://app?vid=78b3bdfa-e78a-4167-a5c7-efc96f8faea3"},"vehicle_type_id":"4","last_reported":1706641522,"current_range_meters":0,"station_id":"ce4bhbp2rcd13ifvqesg","pricing_plan_id":"free"},{"bike_id":"a7dfa984-eda5-4ae5-8f7e-da3719ff267b","system_id":"levelo_inurba_marseille","lat":43.292749,"lon":5.368402,"is_reserved":false,"is_disabled":false,"rental_uris":{"android":"levelo://app?vid=a7dfa984-eda5-4ae5-8f7e-da3719ff267b","ios":"levelo://app?vid=a7dfa984-eda5-4ae5-8f7e-da3719ff267b"},"vehicle_type_id":"4","last_reported":1706641522,"current_range_meters":4400,"station_id":"ce4bhbp2rcd13ifvqesg","pricing_plan_id":"free"},{"bike_id":"668ea149-bc77-4d9d-9430-7a54cedaeef8","system_id":"levelo_inurba_marseille","lat":43.293009,"lon":5.374584,"is_reserved":false,"is_disabled":false,"rental_uris":{"android":"levelo://app?vid=668ea149-bc77-4d9d-9430-7a54cedaeef8","ios":"levelo://app?vid=668ea149-bc77-4d9d-9430-7a54cedaeef8"},"vehicle_type_id":"4","last_reported":1706641522,"current_range_meters":4000,"station_id":"ce4bgi12rcd13ifvqb70","pricing_plan_id":"free"},{"bike_id":"8072a4b5-1751-43df-97d5-e08ec8023421","system_id":"levelo_inurba_marseille","lat":43.2936,"lon":5.37835,"is_reserved":false,"is_disabled":false,"rental_uris":{"android":"levelo://app?vid=8072a4b5-1751-43df-97d5-e08ec8023421","ios":"levelo://app?vid=8072a4b5-1751-43df-97d5-e08ec8023421"},"vehicle_type_id":"4","last_reported":1706641522,"current_range_meters":13200,"station_id":"ce4bgjh2rcd13ifvqbf0","pricing_plan_id":"free"},{"bike_id":"22a9174a-25a2-4522-925f-754146be795d","system_id":"levelo_inurba_marseille","lat":43.302992,"lon":5.392136,"is_reserved":false,"is_disabled":false,"rental_uris":{"android":"levelo://app?vid=22a9174a-25a2-4522-925f-754146be795d","ios":"levelo://app?vid=22a9174a-25a2-4522-925f-754146be795d"},"vehicle_type_id":"4","last_reported":1706641522,"current_range_meters":17600,"station_id":"ce4bgkh2rcd13ifvqbk0","pricing_plan_id":"free"},{"bike_id":"2e406fe8-3e37-4a9f-a643-732254a2bacd","system_id":"levelo_inurba_marseille","lat":43.30303,"lon":5.39207,"is_reserved":false,"is_disabled":false,"rental_uris":{"android":"levelo://app?vid=2e406fe8-3e37-4a9f-a643-732254a2bacd","ios":"levelo://app?vid=2e406fe8-3e37-4a9f-a643-732254a2bacd"},"vehicle_type_id":"4","last_reported":1706641522,"current_range_meters":20400,"station_id":"ce4bgkh2rcd13ifvqbk0","pricing_plan_id":"free"},{"bike_id":"c97f7ddc-65d1-4db7-90a8-cc5f31be151e","system_id":"levelo_inurba_marseille","lat":43.293749,"lon":5.378659,"is_reserved":false,"is_disabled":false,"rental_uris":{"android":"levelo://app?vid=c97f7ddc-65d1-4db7-90a8-cc5f31be151e","ios":"levelo://app?vid=c97f7ddc-65d1-4db7-90a8-cc5f31be151e"},"vehicle_type_id":"4","last_reported":1706641522,"current_range_meters":0,"station_id":"ce4bgjh2rcd13ifvqbf0","pricing_plan_id":"free"},{"bike_id":"ef7d5cd5-c402-4f7f-ae90-4acf06ddd2af","system_id":"levelo_inurba_marseille","lat":43.292311,"lon":5.360731,"is_reserved":false,"is_disabled":false,"rental_uris":{"android":"levelo://app?vid=ef7d5cd5-c402-4f7f-ae90-4acf06ddd2af","ios":"levelo://app?vid=ef7d5cd5-c402-4f7f-ae90-4acf06ddd2af"},"vehicle_type_id":"4","last_reported":1706641522,"current_range_meters":10000,"station_id":"ce4bhbh2rcd13ifvqeqg","pricing_plan_id":"free"},{"bike_id":"df20549e-97a8-4f9a-99e4-5326ea28bac2","system_id":"levelo_inurba_marseille","lat":43.30085,"lon":5.390856,"is_reserved":false,"is_disabled":false,"rental_uris":{"android":"levelo://app?vid=df20549e-97a8-4f9a-99e4-5326ea28bac2","ios":"levelo://app?vid=df20549e-97a8-4f9a-99e4-5326ea28bac2"},"vehicle_type_id":"4","last_reported":1706641522,"current_range_meters":2800,"station_id":"ce4bh192rcd13ifvqdb0","pricing_plan_id":"free"},{"bike_id":"ea94f227-9972-4fa5-aead-e1014da3a35a","system_id":"levelo_inurba_marseille","lat":43.300968,"lon":5.390786,"is_reserved":false,"is_disabled":false,"rental_uris":{"android":"levelo://app?vid=ea94f227-9972-4fa5-aead-e1014da3a35a","ios":"levelo://app?vid=ea94f227-9972-4fa5-aead-e1014da3a35a"},"vehicle_type_id":"4","last_reported":1706641522,"current_range_meters":0,"station_id":"ce4bh192rcd13ifvqdb0","pricing_plan_id":"free"},{"bike_id":"aebc262b-aaa4-4bd5-92db-a1829c730799","system_id":"levelo_inurba_marseille","lat":43.30085,"lon":5.390856,"is_reserved":false,"is_disabled":false,"rental_uris":{"android":"levelo://app?vid=aebc262b-aaa4-4bd5-92db-a1829c730799","ios":"levelo://app?vid=aebc262b-aaa4-4bd5-92db-a1829c730799"},"vehicle_type_id":"4","last_reported":1706641522,"current_range_meters":9200,"station_id":"ce4bh192rcd13ifvqdb0","pricing_plan_id":"free"},{"bike_id":"1bae008f-956f-4ca3-b5e0-ff8d7cd209dc","system_id":"levelo_inurba_marseille","lat":43.30085,"lon":5.390856,"is_reserved":false,"is_disabled":false,"rental_uris":{"android":"levelo://app?vid=1bae008f-956f-4ca3-b5e0-ff8d7cd209dc","ios":"levelo://app?vid=1bae008f-956f-4ca3-b5e0-ff8d7cd209dc"},"vehicle_type_id":"4","last_reported":1706641522,"current_range_meters":0,"station_id":"ce4bh192rcd13ifvqdb0","pricing_plan_id":"free"},{"bike_id":"dd0cbdc8-0899-41da-ae46-0b37517d76a6","system_id":"levelo_inurba_marseille","lat":43.300852,"lon":5.390859,"is_reserved":false,"is_disabled":false,"rental_uris":{"android":"levelo://app?vid=dd0cbdc8-0899-41da-ae46-0b37517d76a6","ios":"levelo://app?vid=dd0cbdc8-0899-41da-ae46-0b37517d76a6"},"vehicle_type_id":"4","last_reported":1706641522,"current_range_meters":14800,"station_id":"ce4bh192rcd13ifvqdb0","pricing_plan_id":"free"},{"bike_id":"1dd2a345-8186-4cea-ab20-c10a6d16cadb","system_id":"levelo_inurba_marseille","lat":43.30085,"lon":5.390856,"is_reserved":false,"is_disabled":false,"rental_uris":{"android":"levelo://app?vid=1dd2a345-8186-4cea-ab20-c10a6d16cadb","ios":"levelo://app?vid=1dd2a345-8186-4cea-ab20-c10a6d16cadb"},"vehicle_type_id":"4","last_reported":1706641522,"current_range_meters":23200,"station_id":"ce4bh192rcd13ifvqdb0","pricing_plan_id":"free"},{"bike_id":"3356f17f-bae4-4f57-9821-7cd50568bfaa","system_id":"levelo_inurba_marseille","lat":43.298764,"lon":5.388973,"is_reserved":false,"is_disabled":false,"rental_uris":{"android":"levelo://app?vid=3356f17f-bae4-4f57-9821-7cd50568bfaa","ios":"levelo://app?vid=3356f17f-bae4-4f57-9821-7cd50568bfaa"},"vehicle_type_id":"4","last_reported":1706641522,"current_range_meters":24800,"station_id":"ce4bh392rcd13ifvqdl0","pricing_plan_id":"free"},{"bike_id":"688cddb3-1004-47ca-8999-d7e4ffbc91be","system_id":"levelo_inurba_marseille","lat":43.29879,"lon":5.3891,"is_reserved":false,"is_disabled":false,"rental_uris":{"android":"levelo://app?vid=688cddb3-1004-47ca-8999-d7e4ffbc91be","ios":"levelo://app?vid=688cddb3-1004-47ca-8999-d7e4ffbc91be"},"vehicle_type_id":"4","last_reported":1706641522,"current_range_meters":0,"station_id":"ce4bh392rcd13ifvqdl0","pricing_plan_id":"free"},{"bike_id":"4f3da293-0983-4112-a3f7-cd58ce1b9c2a","system_id":"levelo_inurba_marseille","lat":43.298764,"lon":5.388973,"is_reserved":false,"is_disabled":false,"rental_uris":{"android":"levelo://app?vid=4f3da293-0983-4112-a3f7-cd58ce1b9c2a","ios":"levelo://app?vid=4f3da293-0983-4112-a3f7-cd58ce1b9c2a"},"vehicle_type_id":"4","last_reported":1706641522,"current_range_meters":30400,"station_id":"ce4bh392rcd13ifvqdl0","pricing_plan_id":"free"},{"bike_id":"bf2437d5-0648-40ea-b195-65e40bffa0d3","system_id":"levelo_inurba_marseille","lat":43.291675,"lon":5.371583,"is_reserved":false,"is_disabled":false,"rental_uris":{"android":"levelo://app?vid=bf2437d5-0648-40ea-b195-65e40bffa0d3","ios":"levelo://app?vid=bf2437d5-0648-40ea-b195-65e40bffa0d3"},"vehicle_type_id":"4","last_reported":1706641522,"current_range_meters":0,"station_id":"ce4bha92rcd13ifvqeh0","pricing_plan_id":"free"},{"bike_id":"0db245c0-ca51-43d8-b50b-79ed91ded7d6","system_id":"levelo_inurba_marseille","lat":43.298764,"lon":5.388973,"is_reserved":false,"is_disabled":false,"rental_uris":{"android":"levelo://app?vid=0db245c0-ca51-43d8-b50b-79ed91ded7d6","ios":"levelo://app?vid=0db245c0-ca51-43d8-b50b-79ed91ded7d6"},"vehicle_type_id":"4","last_reported":1706641522,"current_range_meters":25200,"station_id":"ce4bh392rcd13ifvqdl0","pricing_plan_id":"free"},{"bike_id":"21d015e2-db24-4902-8b40-5a8765a0c54e","system_id":"levelo_inurba_marseille","lat":43.295196,"lon":5.39397,"is_reserved":false,"is_disabled":false,"rental_uris":{"android":"levelo://app?vid=21d015e2-db24-4902-8b40-5a8765a0c54e","ios":"levelo://app?vid=21d015e2-db24-4902-8b40-5a8765a0c54e"},"vehicle_type_id":"4","last_reported":1706641522,"current_range_meters":15200,"station_id":"ce4bh292rcd13ifvqdf0","pricing_plan_id":"free"},{"bike_id":"59a0e926-be0d-434d-bc8c-f7b4ce442ea5","system_id":"levelo_inurba_marseille","lat":43.291994,"lon":5.357886,"is_reserved":false,"is_disabled":false,"rental_uris":{"android":"levelo://app?vid=59a0e926-be0d-434d-bc8c-f7b4ce442ea5","ios":"levelo://app?vid=59a0e926-be0d-434d-bc8c-f7b4ce442ea5"},"vehicle_type_id":"4","last_reported":1706641522,"current_range_meters":22800,"station_id":"ce4bhb12rcd13ifvqel0","pricing_plan_id":"free"},{"bike_id":"a2c5a250-91bb-4fda-b81a-70a640a74588","system_id":"levelo_inurba_marseille","lat":43.29529,"lon":5.385581,"is_reserved":false,"is_disabled":false,"rental_uris":{"android":"levelo://app?vid=a2c5a250-91bb-4fda-b81a-70a640a74588","ios":"levelo://app?vid=a2c5a250-91bb-4fda-b81a-70a640a74588"},"vehicle_type_id":"4","last_reported":1706641522,"current_range_meters":4800,"station_id":"ce4bgih2rcd13ifvqba0","pricing_plan_id":"free"},{"bike_id":"b674387c-dac7-4c72-8c60-5bdca13ab48d","system_id":"levelo_inurba_marseille","lat":43.31329,"lon":5.39685,"is_reserved":false,"is_disabled":false,"rental_uris":{"android":"levelo://app?vid=b674387c-dac7-4c72-8c60-5bdca13ab48d","ios":"levelo://app?vid=b674387c-dac7-4c72-8c60-5bdca13ab48d"},"vehicle_type_id":"4","last_reported":1706641522,"current_range_meters":0,"station_id":"ce4bgvp2rcd13ifvqcu0","pricing_plan_id":"free"},{"bike_id":"2c385079-e5b2-4b9a-8b42-a844c70ece13","system_id":"levelo_inurba_marseille","lat":43.313291,"lon":5.396838,"is_reserved":false,"is_disabled":false,"rental_uris":{"android":"levelo://app?vid=2c385079-e5b2-4b9a-8b42-a844c70ece13","ios":"levelo://app?vid=2c385079-e5b2-4b9a-8b42-a844c70ece13"},"vehicle_type_id":"4","last_reported":1706641522,"current_range_meters":17200,"station_id":"ce4bgvp2rcd13ifvqcu0","pricing_plan_id":"free"},{"bike_id":"751d9503-550a-45bb-8373-25caab9ec8d7","system_id":"levelo_inurba_marseille","lat":43.313291,"lon":5.396838,"is_reserved":false,"is_disabled":false,"rental_uris":{"android":"levelo://app?vid=751d9503-550a-45bb-8373-25caab9ec8d7","ios":"levelo://app?vid=751d9503-550a-45bb-8373-25caab9ec8d7"},"vehicle_type_id":"4","last_reported":1706641522,"current_range_meters":18000,"station_id":"ce4bgvp2rcd13ifvqcu0","pricing_plan_id":"free"},{"bike_id":"4a5c34f9-7e25-4bfd-94ee-9e57829ead28","system_id":"levelo_inurba_marseille","lat":43.313291,"lon":5.396838,"is_reserved":false,"is_disabled":false,"rental_uris":{"android":"levelo://app?vid=4a5c34f9-7e25-4bfd-94ee-9e57829ead28","ios":"levelo://app?vid=4a5c34f9-7e25-4bfd-94ee-9e57829ead28"},"vehicle_type_id":"4","last_reported":1706641522,"current_range_meters":22800,"station_id":"ce4bgvp2rcd13ifvqcu0","pricing_plan_id":"free"},{"bike_id":"feeb888a-249a-48c9-9c30-faafc06cbb32","system_id":"levelo_inurba_marseille","lat":43.313291,"lon":5.396838,"is_reserved":false,"is_disabled":false,"rental_uris":{"android":"levelo://app?vid=feeb888a-249a-48c9-9c30-faafc06cbb32","ios":"levelo://app?vid=feeb888a-249a-48c9-9c30-faafc06cbb32"},"vehicle_type_id":"4","last_reported":1706641522,"current_range_meters":17600,"station_id":"ce4bgvp2rcd13ifvqcu0","pricing_plan_id":"free"},{"bike_id":"44b03c35-2eea-414c-99d8-0eda96e4f62a","system_id":"levelo_inurba_marseille","lat":43.313291,"lon":5.396838,"is_reserved":false,"is_disabled":false,"rental_uris":{"android":"levelo://app?vid=44b03c35-2eea-414c-99d8-0eda96e4f62a","ios":"levelo://app?vid=44b03c35-2eea-414c-99d8-0eda96e4f62a"},"vehicle_type_id":"4","last_reported":1706641522,"current_range_meters":13200,"station_id":"ce4bgvp2rcd13ifvqcu0","pricing_plan_id":"free"},{"bike_id":"c6bbb307-40ce-4d17-bd61-1e147db096d4","system_id":"levelo_inurba_marseille","lat":43.291865,"lon":5.358147,"is_reserved":false,"is_disabled":false,"rental_uris":{"android":"levelo://app?vid=c6bbb307-40ce-4d17-bd61-1e147db096d4","ios":"levelo://app?vid=c6bbb307-40ce-4d17-bd61-1e147db096d4"},"vehicle_type_id":"4","last_reported":1706641522,"current_range_meters":0,"station_id":"ce4bhb12rcd13ifvqel0","pricing_plan_id":"free"},{"bike_id":"7f6aa594-0861-4485-833e-2c96eb223d5a","system_id":"levelo_inurba_marseille","lat":43.313291,"lon":5.396838,"is_reserved":false,"is_disabled":false,"rental_uris":{"android":"levelo://app?vid=7f6aa594-0861-4485-833e-2c96eb223d5a","ios":"levelo://app?vid=7f6aa594-0861-4485-833e-2c96eb223d5a"},"vehicle_type_id":"4","last_reported":1706641522,"current_range_meters":18000,"station_id":"ce4bgvp2rcd13ifvqcu0","pricing_plan_id":"free"},{"bike_id":"9a015444-c4b0-41cf-b428-0705d5bd5a83","system_id":"levelo_inurba_marseille","lat":43.313291,"lon":5.396838,"is_reserved":false,"is_disabled":false,"rental_uris":{"android":"levelo://app?vid=9a015444-c4b0-41cf-b428-0705d5bd5a83","ios":"levelo://app?vid=9a015444-c4b0-41cf-b428-0705d5bd5a83"},"vehicle_type_id":"4","last_reported":1706641522,"current_range_meters":13600,"station_id":"ce4bgvp2rcd13ifvqcu0","pricing_plan_id":"free"},{"bike_id":"b62bcfa5-473d-4221-b143-66a964158134","system_id":"levelo_inurba_marseille","lat":43.31324,"lon":5.39695,"is_reserved":false,"is_disabled":false,"rental_uris":{"android":"levelo://app?vid=b62bcfa5-473d-4221-b143-66a964158134","ios":"levelo://app?vid=b62bcfa5-473d-4221-b143-66a964158134"},"vehicle_type_id":"4","last_reported":1706641522,"current_range_meters":2400,"station_id":"ce4bgvp2rcd13ifvqcu0","pricing_plan_id":"free"},{"bike_id":"ef62cf81-cc32-4f0e-bdf1-8a6a90e9453b","system_id":"levelo_inurba_marseille","lat":43.313291,"lon":5.396838,"is_reserved":false,"is_disabled":false,"rental_uris":{"android":"levelo://app?vid=ef62cf81-cc32-4f0e-bdf1-8a6a90e9453b","ios":"levelo://app?vid=ef62cf81-cc32-4f0e-bdf1-8a6a90e9453b"},"vehicle_type_id":"4","last_reported":1706641522,"current_range_meters":18000,"station_id":"ce4bgvp2rcd13ifvqcu0","pricing_plan_id":"free"},{"bike_id":"dacef0ad-9800-41af-828e-19ff6aaaffb4","system_id":"levelo_inurba_marseille","lat":43.313291,"lon":5.396838,"is_reserved":false,"is_disabled":false,"rental_uris":{"android":"levelo://app?vid=dacef0ad-9800-41af-828e-19ff6aaaffb4","ios":"levelo://app?vid=dacef0ad-9800-41af-828e-19ff6aaaffb4"},"vehicle_type_id":"4","last_reported":1706641522,"current_range_meters":29200,"station_id":"ce4bgvp2rcd13ifvqcu0","pricing_plan_id":"free"},{"bike_id":"0db4327a-f873-4b61-9e5d-93ba3c4b6379","system_id":"levelo_inurba_marseille","lat":43.313291,"lon":5.396838,"is_reserved":false,"is_disabled":false,"rental_uris":{"android":"levelo://app?vid=0db4327a-f873-4b61-9e5d-93ba3c4b6379","ios":"levelo://app?vid=0db4327a-f873-4b61-9e5d-93ba3c4b6379"},"vehicle_type_id":"4","last_reported":1706641522,"current_range_meters":0,"station_id":"ce4bgvp2rcd13ifvqcu0","pricing_plan_id":"free"},{"bike_id":"7f40c595-1c4f-4ac5-898c-e19e6e7abfa5","system_id":"levelo_inurba_marseille","lat":43.313291,"lon":5.396838,"is_reserved":false,"is_disabled":false,"rental_uris":{"android":"levelo://app?vid=7f40c595-1c4f-4ac5-898c-e19e6e7abfa5","ios":"levelo://app?vid=7f40c595-1c4f-4ac5-898c-e19e6e7abfa5"},"vehicle_type_id":"4","last_reported":1706641522,"current_range_meters":18400,"station_id":"ce4bgvp2rcd13ifvqcu0","pricing_plan_id":"free"},{"bike_id":"50abaccf-dd88-40c7-8675-0ffb04196c99","system_id":"levelo_inurba_marseille","lat":43.313291,"lon":5.396838,"is_reserved":false,"is_disabled":false,"rental_uris":{"android":"levelo://app?vid=50abaccf-dd88-40c7-8675-0ffb04196c99","ios":"levelo://app?vid=50abaccf-dd88-40c7-8675-0ffb04196c99"},"vehicle_type_id":"4","last_reported":1706641522,"current_range_meters":22400,"station_id":"ce4bgvp2rcd13ifvqcu0","pricing_plan_id":"free"},{"bike_id":"961af791-ce80-4780-8123-07223dca3aae","system_id":"levelo_inurba_marseille","lat":43.313291,"lon":5.396838,"is_reserved":false,"is_disabled":false,"rental_uris":{"android":"levelo://app?vid=961af791-ce80-4780-8123-07223dca3aae","ios":"levelo://app?vid=961af791-ce80-4780-8123-07223dca3aae"},"vehicle_type_id":"4","last_reported":1706641522,"current_range_meters":14400,"station_id":"ce4bgvp2rcd13ifvqcu0","pricing_plan_id":"free"},{"bike_id":"1c9ce51b-33d4-41ff-a491-07c4b0b68cb0","system_id":"levelo_inurba_marseille","lat":43.31326,"lon":5.39698,"is_reserved":false,"is_disabled":false,"rental_uris":{"android":"levelo://app?vid=1c9ce51b-33d4-41ff-a491-07c4b0b68cb0","ios":"levelo://app?vid=1c9ce51b-33d4-41ff-a491-07c4b0b68cb0"},"vehicle_type_id":"4","last_reported":1706641522,"current_range_meters":5600,"station_id":"ce4bgvp2rcd13ifvqcu0","pricing_plan_id":"free"},{"bike_id":"08c8936f-6282-4269-ac71-328472fd491d","system_id":"levelo_inurba_marseille","lat":43.313291,"lon":5.396838,"is_reserved":false,"is_disabled":false,"rental_uris":{"android":"levelo://app?vid=08c8936f-6282-4269-ac71-328472fd491d","ios":"levelo://app?vid=08c8936f-6282-4269-ac71-328472fd491d"},"vehicle_type_id":"4","last_reported":1706641522,"current_range_meters":32000,"station_id":"ce4bgvp2rcd13ifvqcu0","pricing_plan_id":"free"},{"bike_id":"1e9ebea3-1c90-403d-a389-255819a2c3df","system_id":"levelo_inurba_marseille","lat":43.30886,"lon":5.39652,"is_reserved":false,"is_disabled":false,"rental_uris":{"android":"levelo://app?vid=1e9ebea3-1c90-403d-a389-255819a2c3df","ios":"levelo://app?vid=1e9ebea3-1c90-403d-a389-255819a2c3df"},"vehicle_type_id":"4","last_reported":1706641522,"current_range_meters":0,"station_id":"ce4bh012rcd13ifvqcv0","pricing_plan_id":"free"},{"bike_id":"fd032832-9814-42c3-abf6-948d3fd5d135","system_id":"levelo_inurba_marseille","lat":43.313291,"lon":5.396838,"is_reserved":false,"is_disabled":false,"rental_uris":{"android":"levelo://app?vid=fd032832-9814-42c3-abf6-948d3fd5d135","ios":"levelo://app?vid=fd032832-9814-42c3-abf6-948d3fd5d135"},"vehicle_type_id":"4","last_reported":1706641522,"current_range_meters":20800,"station_id":"ce4bgvp2rcd13ifvqcu0","pricing_plan_id":"free"},{"bike_id":"4970a1f1-2562-4cd9-ae69-8b029fbc1985","system_id":"levelo_inurba_marseille","lat":43.313291,"lon":5.396838,"is_reserved":false,"is_disabled":false,"rental_uris":{"android":"levelo://app?vid=4970a1f1-2562-4cd9-ae69-8b029fbc1985","ios":"levelo://app?vid=4970a1f1-2562-4cd9-ae69-8b029fbc1985"},"vehicle_type_id":"4","last_reported":1706641522,"current_range_meters":18400,"station_id":"ce4bgvp2rcd13ifvqcu0","pricing_plan_id":"free"},{"bike_id":"067a3f54-cdb1-4351-888c-7235aaac275f","system_id":"levelo_inurba_marseille","lat":43.313291,"lon":5.396838,"is_reserved":false,"is_disabled":false,"rental_uris":{"android":"levelo://app?vid=067a3f54-cdb1-4351-888c-7235aaac275f","ios":"levelo://app?vid=067a3f54-cdb1-4351-888c-7235aaac275f"},"vehicle_type_id":"4","last_reported":1706641522,"current_range_meters":6000,"station_id":"ce4bgvp2rcd13ifvqcu0","pricing_plan_id":"free"},{"bike_id":"33c94b88-26d4-4311-af85-1825f528c93a","system_id":"levelo_inurba_marseille","lat":43.3088,"lon":5.39651,"is_reserved":false,"is_disabled":false,"rental_uris":{"android":"levelo://app?vid=33c94b88-26d4-4311-af85-1825f528c93a","ios":"levelo://app?vid=33c94b88-26d4-4311-af85-1825f528c93a"},"vehicle_type_id":"4","last_reported":1706641522,"current_range_meters":12000,"station_id":"ce4bh012rcd13ifvqcv0","pricing_plan_id":"free"},{"bike_id":"a81ffb1d-f7f4-41a9-a4d4-6a804b0f144a","system_id":"levelo_inurba_marseille","lat":43.313291,"lon":5.396838,"is_reserved":false,"is_disabled":false,"rental_uris":{"android":"levelo://app?vid=a81ffb1d-f7f4-41a9-a4d4-6a804b0f144a","ios":"levelo://app?vid=a81ffb1d-f7f4-41a9-a4d4-6a804b0f144a"},"vehicle_type_id":"4","last_reported":1706641522,"current_range_meters":18400,"station_id":"ce4bgvp2rcd13ifvqcu0","pricing_plan_id":"free"},{"bike_id":"0e939496-2def-4b51-b8a6-8154a39f3ea3","system_id":"levelo_inurba_marseille","lat":43.313291,"lon":5.396838,"is_reserved":false,"is_disabled":false,"rental_uris":{"android":"levelo://app?vid=0e939496-2def-4b51-b8a6-8154a39f3ea3","ios":"levelo://app?vid=0e939496-2def-4b51-b8a6-8154a39f3ea3"},"vehicle_type_id":"4","last_reported":1706641522,"current_range_meters":27600,"station_id":"ce4bgvp2rcd13ifvqcu0","pricing_plan_id":"free"},{"bike_id":"ad62d05c-e4ea-4189-8ac3-d1038681fc6a","system_id":"levelo_inurba_marseille","lat":43.313291,"lon":5.396838,"is_reserved":false,"is_disabled":false,"rental_uris":{"android":"levelo://app?vid=ad62d05c-e4ea-4189-8ac3-d1038681fc6a","ios":"levelo://app?vid=ad62d05c-e4ea-4189-8ac3-d1038681fc6a"},"vehicle_type_id":"4","last_reported":1706641522,"current_range_meters":20800,"station_id":"ce4bgvp2rcd13ifvqcu0","pricing_plan_id":"free"},{"bike_id":"2ffc279e-2799-4474-8220-0a993408586f","system_id":"levelo_inurba_marseille","lat":43.313291,"lon":5.396838,"is_reserved":false,"is_disabled":false,"rental_uris":{"android":"levelo://app?vid=2ffc279e-2799-4474-8220-0a993408586f","ios":"levelo://app?vid=2ffc279e-2799-4474-8220-0a993408586f"},"vehicle_type_id":"4","last_reported":1706641522,"current_range_meters":31600,"station_id":"ce4bgvp2rcd13ifvqcu0","pricing_plan_id":"free"},{"bike_id":"3c4672c7-5915-4150-90ba-d91dd82427ee","system_id":"levelo_inurba_marseille","lat":43.30893,"lon":5.39655,"is_reserved":false,"is_disabled":false,"rental_uris":{"android":"levelo://app?vid=3c4672c7-5915-4150-90ba-d91dd82427ee","ios":"levelo://app?vid=3c4672c7-5915-4150-90ba-d91dd82427ee"},"vehicle_type_id":"4","last_reported":1706641522,"current_range_meters":0,"station_id":"ce4bh012rcd13ifvqcv0","pricing_plan_id":"free"},{"bike_id":"96772678-d17a-43c2-a5f2-9de991a51cc0","system_id":"levelo_inurba_marseille","lat":43.30835,"lon":5.39641,"is_reserved":false,"is_disabled":false,"rental_uris":{"android":"levelo://app?vid=96772678-d17a-43c2-a5f2-9de991a51cc0","ios":"levelo://app?vid=96772678-d17a-43c2-a5f2-9de991a51cc0"},"vehicle_type_id":"4","last_reported":1706641522,"current_range_meters":25200,"station_id":"ce4bh012rcd13ifvqcv0","pricing_plan_id":"free"},{"bike_id":"896a3d3b-cd37-4304-bfe9-90ab1e38fb07","system_id":"levelo_inurba_marseille","lat":43.30884,"lon":5.39654,"is_reserved":false,"is_disabled":false,"rental_uris":{"android":"levelo://app?vid=896a3d3b-cd37-4304-bfe9-90ab1e38fb07","ios":"levelo://app?vid=896a3d3b-cd37-4304-bfe9-90ab1e38fb07"},"vehicle_type_id":"4","last_reported":1706641522,"current_range_meters":14000,"station_id":"ce4bh012rcd13ifvqcv0","pricing_plan_id":"free"},{"bike_id":"ca620246-b329-4925-8cf3-02141c10170e","system_id":"levelo_inurba_marseille","lat":43.309038,"lon":5.396546,"is_reserved":false,"is_disabled":false,"rental_uris":{"android":"levelo://app?vid=ca620246-b329-4925-8cf3-02141c10170e","ios":"levelo://app?vid=ca620246-b329-4925-8cf3-02141c10170e"},"vehicle_type_id":"4","last_reported":1706641522,"current_range_meters":8800,"station_id":"ce4bh012rcd13ifvqcv0","pricing_plan_id":"free"},{"bike_id":"0498f959-33ab-4cf6-a268-c8c1b960fc37","system_id":"levelo_inurba_marseille","lat":43.309038,"lon":5.396546,"is_reserved":false,"is_disabled":false,"rental_uris":{"android":"levelo://app?vid=0498f959-33ab-4cf6-a268-c8c1b960fc37","ios":"levelo://app?vid=0498f959-33ab-4cf6-a268-c8c1b960fc37"},"vehicle_type_id":"4","last_reported":1706641522,"current_range_meters":3600,"station_id":"ce4bh012rcd13ifvqcv0","pricing_plan_id":"free"},{"bike_id":"6c7e1c9a-57cb-4109-b0b9-8f343f78204f","system_id":"levelo_inurba_marseille","lat":43.30883,"lon":5.39658,"is_reserved":false,"is_disabled":false,"rental_uris":{"android":"levelo://app?vid=6c7e1c9a-57cb-4109-b0b9-8f343f78204f","ios":"levelo://app?vid=6c7e1c9a-57cb-4109-b0b9-8f343f78204f"},"vehicle_type_id":"4","last_reported":1706641522,"current_range_meters":800,"station_id":"ce4bh012rcd13ifvqcv0","pricing_plan_id":"free"},{"bike_id":"97de5cfb-158d-4795-bb0f-d5fada6be01e","system_id":"levelo_inurba_marseille","lat":43.29529,"lon":5.385581,"is_reserved":false,"is_disabled":false,"rental_uris":{"android":"levelo://app?vid=97de5cfb-158d-4795-bb0f-d5fada6be01e","ios":"levelo://app?vid=97de5cfb-158d-4795-bb0f-d5fada6be01e"},"vehicle_type_id":"4","last_reported":1706641522,"current_range_meters":6400,"station_id":"ce4bgih2rcd13ifvqba0","pricing_plan_id":"free"},{"bike_id":"b7a00360-072b-4721-ac67-49a14289193e","system_id":"levelo_inurba_marseille","lat":43.29529,"lon":5.385581,"is_reserved":false,"is_disabled":false,"rental_uris":{"android":"levelo://app?vid=b7a00360-072b-4721-ac67-49a14289193e","ios":"levelo://app?vid=b7a00360-072b-4721-ac67-49a14289193e"},"vehicle_type_id":"4","last_reported":1706641522,"current_range_meters":2000,"station_id":"ce4bgih2rcd13ifvqba0","pricing_plan_id":"free"},{"bike_id":"d8ec9cee-cd96-4d8e-9264-8ec7a647a7e2","system_id":"levelo_inurba_marseille","lat":43.290779,"lon":5.371482,"is_reserved":false,"is_disabled":false,"rental_uris":{"android":"levelo://app?vid=d8ec9cee-cd96-4d8e-9264-8ec7a647a7e2","ios":"levelo://app?vid=d8ec9cee-cd96-4d8e-9264-8ec7a647a7e2"},"vehicle_type_id":"4","last_reported":1706641522,"current_range_meters":3600,"station_id":"ce4bh5p2rcd13ifvqe4g","pricing_plan_id":"free"},{"bike_id":"ab99aca3-2390-44d4-8578-d623039345b1","system_id":"levelo_inurba_marseille","lat":43.290779,"lon":5.371482,"is_reserved":false,"is_disabled":false,"rental_uris":{"android":"levelo://app?vid=ab99aca3-2390-44d4-8578-d623039345b1","ios":"levelo://app?vid=ab99aca3-2390-44d4-8578-d623039345b1"},"vehicle_type_id":"4","last_reported":1706641522,"current_range_meters":11600,"station_id":"ce4bh5p2rcd13ifvqe4g","pricing_plan_id":"free"},{"bike_id":"5adce465-bd46-442a-9ff2-cc3a6880d64c","system_id":"levelo_inurba_marseille","lat":43.302008,"lon":5.394694,"is_reserved":false,"is_disabled":false,"rental_uris":{"android":"levelo://app?vid=5adce465-bd46-442a-9ff2-cc3a6880d64c","ios":"levelo://app?vid=5adce465-bd46-442a-9ff2-cc3a6880d64c"},"vehicle_type_id":"4","last_reported":1706641522,"current_range_meters":17600,"station_id":"ce4bh0p2rcd13ifvqd70","pricing_plan_id":"free"},{"bike_id":"f6dd0e14-140d-4707-9519-e4c413ecb8b2","system_id":"levelo_inurba_marseille","lat":43.302008,"lon":5.394694,"is_reserved":false,"is_disabled":false,"rental_uris":{"android":"levelo://app?vid=f6dd0e14-140d-4707-9519-e4c413ecb8b2","ios":"levelo://app?vid=f6dd0e14-140d-4707-9519-e4c413ecb8b2"},"vehicle_type_id":"4","last_reported":1706641522,"current_range_meters":0,"station_id":"ce4bh0p2rcd13ifvqd70","pricing_plan_id":"free"},{"bike_id":"2c1e47ad-3478-424c-8c66-23a600b1f0dc","system_id":"levelo_inurba_marseille","lat":43.290441,"lon":5.359123,"is_reserved":false,"is_disabled":false,"rental_uris":{"android":"levelo://app?vid=2c1e47ad-3478-424c-8c66-23a600b1f0dc","ios":"levelo://app?vid=2c1e47ad-3478-424c-8c66-23a600b1f0dc"},"vehicle_type_id":"4","last_reported":1706641522,"current_range_meters":16800,"station_id":"","pricing_plan_id":"free"},{"bike_id":"c5492cfa-c930-45dc-88ed-9c81870ba716","system_id":"levelo_inurba_marseille","lat":43.29423,"lon":5.38628,"is_reserved":false,"is_disabled":false,"rental_uris":{"android":"levelo://app?vid=c5492cfa-c930-45dc-88ed-9c81870ba716","ios":"levelo://app?vid=c5492cfa-c930-45dc-88ed-9c81870ba716"},"vehicle_type_id":"4","last_reported":1706641522,"current_range_meters":29200,"station_id":"ce4bh2h2rcd13ifvqdh0","pricing_plan_id":"free"},{"bike_id":"a80bfb4e-67ea-43f1-b89b-0c71fecd0823","system_id":"levelo_inurba_marseille","lat":43.294153,"lon":5.386305,"is_reserved":false,"is_disabled":false,"rental_uris":{"android":"levelo://app?vid=a80bfb4e-67ea-43f1-b89b-0c71fecd0823","ios":"levelo://app?vid=a80bfb4e-67ea-43f1-b89b-0c71fecd0823"},"vehicle_type_id":"4","last_reported":1706641522,"current_range_meters":10800,"station_id":"ce4bh2h2rcd13ifvqdh0","pricing_plan_id":"free"},{"bike_id":"5a206d5b-8699-4863-be5f-7f02e5b15273","system_id":"levelo_inurba_marseille","lat":43.29419,"lon":5.38626,"is_reserved":false,"is_disabled":false,"rental_uris":{"android":"levelo://app?vid=5a206d5b-8699-4863-be5f-7f02e5b15273","ios":"levelo://app?vid=5a206d5b-8699-4863-be5f-7f02e5b15273"},"vehicle_type_id":"4","last_reported":1706641522,"current_range_meters":0,"station_id":"ce4bh2h2rcd13ifvqdh0","pricing_plan_id":"free"},{"bike_id":"c432b136-568d-48fa-8ed6-e298adec0fb6","system_id":"levelo_inurba_marseille","lat":43.2942,"lon":5.38629,"is_reserved":false,"is_disabled":false,"rental_uris":{"android":"levelo://app?vid=c432b136-568d-48fa-8ed6-e298adec0fb6","ios":"levelo://app?vid=c432b136-568d-48fa-8ed6-e298adec0fb6"},"vehicle_type_id":"4","last_reported":1706641522,"current_range_meters":22000,"station_id":"ce4bh2h2rcd13ifvqdh0","pricing_plan_id":"free"},{"bike_id":"c00df48e-2504-4c0b-a766-2929857e5dd3","system_id":"levelo_inurba_marseille","lat":43.294123,"lon":5.386217,"is_reserved":false,"is_disabled":false,"rental_uris":{"android":"levelo://app?vid=c00df48e-2504-4c0b-a766-2929857e5dd3","ios":"levelo://app?vid=c00df48e-2504-4c0b-a766-2929857e5dd3"},"vehicle_type_id":"4","last_reported":1706641522,"current_range_meters":12400,"station_id":"ce4bh2h2rcd13ifvqdh0","pricing_plan_id":"free"},{"bike_id":"b5ba83d7-6378-4f59-9e82-61bcb07e385f","system_id":"levelo_inurba_marseille","lat":43.29415,"lon":5.38627,"is_reserved":false,"is_disabled":false,"rental_uris":{"android":"levelo://app?vid=b5ba83d7-6378-4f59-9e82-61bcb07e385f","ios":"levelo://app?vid=b5ba83d7-6378-4f59-9e82-61bcb07e385f"},"vehicle_type_id":"4","last_reported":1706641522,"current_range_meters":0,"station_id":"ce4bh2h2rcd13ifvqdh0","pricing_plan_id":"free"},{"bike_id":"0e095ed7-51f2-470e-be79-54dbd8830cb4","system_id":"levelo_inurba_marseille","lat":43.289184,"lon":5.366408,"is_reserved":false,"is_disabled":false,"rental_uris":{"android":"levelo://app?vid=0e095ed7-51f2-470e-be79-54dbd8830cb4","ios":"levelo://app?vid=0e095ed7-51f2-470e-be79-54dbd8830cb4"},"vehicle_type_id":"4","last_reported":1706641522,"current_range_meters":10400,"station_id":"ce4bhap2rcd13ifvqek0","pricing_plan_id":"free"},{"bike_id":"7c8d0c4f-43bc-409d-822d-709d98054e51","system_id":"levelo_inurba_marseille","lat":43.28936,"lon":5.36645,"is_reserved":false,"is_disabled":false,"rental_uris":{"android":"levelo://app?vid=7c8d0c4f-43bc-409d-822d-709d98054e51","ios":"levelo://app?vid=7c8d0c4f-43bc-409d-822d-709d98054e51"},"vehicle_type_id":"4","last_reported":1706641522,"current_range_meters":0,"station_id":"ce4bhap2rcd13ifvqek0","pricing_plan_id":"free"},{"bike_id":"7dc3d1a6-3944-4cb2-8991-00a236fcb1af","system_id":"levelo_inurba_marseille","lat":43.289184,"lon":5.366408,"is_reserved":false,"is_disabled":false,"rental_uris":{"android":"levelo://app?vid=7dc3d1a6-3944-4cb2-8991-00a236fcb1af","ios":"levelo://app?vid=7dc3d1a6-3944-4cb2-8991-00a236fcb1af"},"vehicle_type_id":"4","last_reported":1706641522,"current_range_meters":0,"station_id":"ce4bhap2rcd13ifvqek0","pricing_plan_id":"free"},{"bike_id":"c6b90b04-0f21-4ae7-b80d-d25594167777","system_id":"levelo_inurba_marseille","lat":43.304296,"lon":5.397513,"is_reserved":false,"is_disabled":false,"rental_uris":{"android":"levelo://app?vid=c6b90b04-0f21-4ae7-b80d-d25594167777","ios":"levelo://app?vid=c6b90b04-0f21-4ae7-b80d-d25594167777"},"vehicle_type_id":"4","last_reported":1706641522,"current_range_meters":19200,"station_id":"ce4bh092rcd13ifvqd20","pricing_plan_id":"free"},{"bike_id":"0a0e8175-5066-44e1-bd96-3efc87881862","system_id":"levelo_inurba_marseille","lat":43.29262,"lon":5.38458,"is_reserved":false,"is_disabled":false,"rental_uris":{"android":"levelo://app?vid=0a0e8175-5066-44e1-bd96-3efc87881862","ios":"levelo://app?vid=0a0e8175-5066-44e1-bd96-3efc87881862"},"vehicle_type_id":"4","last_reported":1706641522,"current_range_meters":6000,"station_id":"ce4bh692rcd13ifvqea0","pricing_plan_id":"free"},{"bike_id":"45c27a85-1e2f-4f26-a2da-7f8c52cc61ff","system_id":"levelo_inurba_marseille","lat":43.29098,"lon":5.38131,"is_reserved":false,"is_disabled":false,"rental_uris":{"android":"levelo://app?vid=45c27a85-1e2f-4f26-a2da-7f8c52cc61ff","ios":"levelo://app?vid=45c27a85-1e2f-4f26-a2da-7f8c52cc61ff"},"vehicle_type_id":"4","last_reported":1706641522,"current_range_meters":0,"station_id":"ce4bh512rcd13ifvqe2g","pricing_plan_id":"free"},{"bike_id":"685ca185-e0a4-4ecc-8357-36a6deeb3ec3","system_id":"levelo_inurba_marseille","lat":43.29796,"lon":5.39341,"is_reserved":false,"is_disabled":false,"rental_uris":{"android":"levelo://app?vid=685ca185-e0a4-4ecc-8357-36a6deeb3ec3","ios":"levelo://app?vid=685ca185-e0a4-4ecc-8357-36a6deeb3ec3"},"vehicle_type_id":"4","last_reported":1706641522,"current_range_meters":22800,"station_id":"chh1huq6cuj3fo74tm60","pricing_plan_id":"free"},{"bike_id":"f33b4bb7-7bd1-4879-8f43-fe58797c302b","system_id":"levelo_inurba_marseille","lat":43.29791,"lon":5.39336,"is_reserved":false,"is_disabled":false,"rental_uris":{"android":"levelo://app?vid=f33b4bb7-7bd1-4879-8f43-fe58797c302b","ios":"levelo://app?vid=f33b4bb7-7bd1-4879-8f43-fe58797c302b"},"vehicle_type_id":"4","last_reported":1706641522,"current_range_meters":0,"station_id":"chh1huq6cuj3fo74tm60","pricing_plan_id":"free"},{"bike_id":"0881d2d9-aeb8-4abf-ba78-43949cd6c0c2","system_id":"levelo_inurba_marseille","lat":43.29793,"lon":5.39351,"is_reserved":false,"is_disabled":false,"rental_uris":{"android":"levelo://app?vid=0881d2d9-aeb8-4abf-ba78-43949cd6c0c2","ios":"levelo://app?vid=0881d2d9-aeb8-4abf-ba78-43949cd6c0c2"},"vehicle_type_id":"4","last_reported":1706641522,"current_range_meters":29600,"station_id":"","pricing_plan_id":"free"},{"bike_id":"d886f36e-218b-497f-bf3c-7716ce70d8cc","system_id":"levelo_inurba_marseille","lat":43.33021,"lon":5.39044,"is_reserved":false,"is_disabled":false,"rental_uris":{"android":"levelo://app?vid=d886f36e-218b-497f-bf3c-7716ce70d8cc","ios":"levelo://app?vid=d886f36e-218b-497f-bf3c-7716ce70d8cc"},"vehicle_type_id":"4","last_reported":1706641522,"current_range_meters":3200,"station_id":"ce4bhr92rcd13ifvqhrg","pricing_plan_id":"free"},{"bike_id":"dde1b304-8ca4-428e-82d4-7f51667fdb61","system_id":"levelo_inurba_marseille","lat":43.295169,"lon":5.390426,"is_reserved":false,"is_disabled":false,"rental_uris":{"android":"levelo://app?vid=dde1b304-8ca4-428e-82d4-7f51667fdb61","ios":"levelo://app?vid=dde1b304-8ca4-428e-82d4-7f51667fdb61"},"vehicle_type_id":"4","last_reported":1706641522,"current_range_meters":17600,"station_id":"ce4bh3p2rcd13ifvqdp0","pricing_plan_id":"free"},{"bike_id":"9c7a9839-bda3-4c8b-b68c-6ac3367bbc8e","system_id":"levelo_inurba_marseille","lat":43.330442,"lon":5.389148,"is_reserved":false,"is_disabled":false,"rental_uris":{"android":"levelo://app?vid=9c7a9839-bda3-4c8b-b68c-6ac3367bbc8e","ios":"levelo://app?vid=9c7a9839-bda3-4c8b-b68c-6ac3367bbc8e"},"vehicle_type_id":"4","last_reported":1706641522,"current_range_meters":25200,"station_id":"ce4bhr92rcd13ifvqhrg","pricing_plan_id":"free"},{"bike_id":"ca47d722-71e1-426b-9f0d-7ca953c3c4ba","system_id":"levelo_inurba_marseille","lat":43.295169,"lon":5.390426,"is_reserved":false,"is_disabled":false,"rental_uris":{"android":"levelo://app?vid=ca47d722-71e1-426b-9f0d-7ca953c3c4ba","ios":"levelo://app?vid=ca47d722-71e1-426b-9f0d-7ca953c3c4ba"},"vehicle_type_id":"4","last_reported":1706641522,"current_range_meters":0,"station_id":"ce4bh3p2rcd13ifvqdp0","pricing_plan_id":"free"},{"bike_id":"ff708cda-0d47-4a10-a7f9-fd329bffdc33","system_id":"levelo_inurba_marseille","lat":43.330442,"lon":5.389148,"is_reserved":false,"is_disabled":false,"rental_uris":{"android":"levelo://app?vid=ff708cda-0d47-4a10-a7f9-fd329bffdc33","ios":"levelo://app?vid=ff708cda-0d47-4a10-a7f9-fd329bffdc33"},"vehicle_type_id":"4","last_reported":1706641522,"current_range_meters":3200,"station_id":"ce4bhr92rcd13ifvqhrg","pricing_plan_id":"free"},{"bike_id":"a07119c2-c5fd-4018-8e6f-f96a1e18d64d","system_id":"levelo_inurba_marseille","lat":43.29528,"lon":5.39048,"is_reserved":false,"is_disabled":false,"rental_uris":{"android":"levelo://app?vid=a07119c2-c5fd-4018-8e6f-f96a1e18d64d","ios":"levelo://app?vid=a07119c2-c5fd-4018-8e6f-f96a1e18d64d"},"vehicle_type_id":"4","last_reported":1706641522,"current_range_meters":5600,"station_id":"ce4bh3p2rcd13ifvqdp0","pricing_plan_id":"free"},{"bike_id":"46da3db9-e90a-44ac-a7b3-747fd1f4f791","system_id":"levelo_inurba_marseille","lat":43.295169,"lon":5.390426,"is_reserved":false,"is_disabled":false,"rental_uris":{"android":"levelo://app?vid=46da3db9-e90a-44ac-a7b3-747fd1f4f791","ios":"levelo://app?vid=46da3db9-e90a-44ac-a7b3-747fd1f4f791"},"vehicle_type_id":"4","last_reported":1706641522,"current_range_meters":14000,"station_id":"ce4bh3p2rcd13ifvqdp0","pricing_plan_id":"free"},{"bike_id":"54340ca4-c385-46ed-b279-556ae3d847cc","system_id":"levelo_inurba_marseille","lat":43.33025,"lon":5.39049,"is_reserved":false,"is_disabled":false,"rental_uris":{"android":"levelo://app?vid=54340ca4-c385-46ed-b279-556ae3d847cc","ios":"levelo://app?vid=54340ca4-c385-46ed-b279-556ae3d847cc"},"vehicle_type_id":"4","last_reported":1706641522,"current_range_meters":13600,"station_id":"ce4bhr92rcd13ifvqhrg","pricing_plan_id":"free"},{"bike_id":"dd0b700c-9a30-4ef4-9a9f-62504c762774","system_id":"levelo_inurba_marseille","lat":43.295169,"lon":5.390426,"is_reserved":false,"is_disabled":false,"rental_uris":{"android":"levelo://app?vid=dd0b700c-9a30-4ef4-9a9f-62504c762774","ios":"levelo://app?vid=dd0b700c-9a30-4ef4-9a9f-62504c762774"},"vehicle_type_id":"4","last_reported":1706641522,"current_range_meters":27200,"station_id":"ce4bh3p2rcd13ifvqdp0","pricing_plan_id":"free"},{"bike_id":"c11dfe63-9dbc-402f-84ab-8b8317733a63","system_id":"levelo_inurba_marseille","lat":43.3303,"lon":5.39053,"is_reserved":false,"is_disabled":false,"rental_uris":{"android":"levelo://app?vid=c11dfe63-9dbc-402f-84ab-8b8317733a63","ios":"levelo://app?vid=c11dfe63-9dbc-402f-84ab-8b8317733a63"},"vehicle_type_id":"4","last_reported":1706641522,"current_range_meters":800,"station_id":"ce4bhr92rcd13ifvqhrg","pricing_plan_id":"free"},{"bike_id":"43244c99-5db6-42f7-9190-d887fb9e70d9","system_id":"levelo_inurba_marseille","lat":43.33028,"lon":5.39065,"is_reserved":false,"is_disabled":false,"rental_uris":{"android":"levelo://app?vid=43244c99-5db6-42f7-9190-d887fb9e70d9","ios":"levelo://app?vid=43244c99-5db6-42f7-9190-d887fb9e70d9"},"vehicle_type_id":"4","last_reported":1706641522,"current_range_meters":18400,"station_id":"ce4bhr92rcd13ifvqhrg","pricing_plan_id":"free"},{"bike_id":"5dbefc5b-1b28-4470-8c8c-aae7bfc29848","system_id":"levelo_inurba_marseille","lat":43.28727,"lon":5.36078,"is_reserved":false,"is_disabled":false,"rental_uris":{"android":"levelo://app?vid=5dbefc5b-1b28-4470-8c8c-aae7bfc29848","ios":"levelo://app?vid=5dbefc5b-1b28-4470-8c8c-aae7bfc29848"},"vehicle_type_id":"4","last_reported":1706641522,"current_range_meters":6800,"station_id":"cki0cbj6b192h4jlfktg","pricing_plan_id":"free"},{"bike_id":"61ac6bdf-04a5-41d8-b609-838050af9446","system_id":"levelo_inurba_marseille","lat":43.28856,"lon":5.358371,"is_reserved":false,"is_disabled":false,"rental_uris":{"android":"levelo://app?vid=61ac6bdf-04a5-41d8-b609-838050af9446","ios":"levelo://app?vid=61ac6bdf-04a5-41d8-b609-838050af9446"},"vehicle_type_id":"4","last_reported":1706641522,"current_range_meters":29600,"station_id":"ce4bhb12rcd13ifvqem0","pricing_plan_id":"free"},{"bike_id":"8a0be387-e59a-4e28-b0df-7e795def2c7b","system_id":"levelo_inurba_marseille","lat":43.28856,"lon":5.358371,"is_reserved":false,"is_disabled":false,"rental_uris":{"android":"levelo://app?vid=8a0be387-e59a-4e28-b0df-7e795def2c7b","ios":"levelo://app?vid=8a0be387-e59a-4e28-b0df-7e795def2c7b"},"vehicle_type_id":"4","last_reported":1706641522,"current_range_meters":30400,"station_id":"ce4bhb12rcd13ifvqem0","pricing_plan_id":"free"},{"bike_id":"69be143d-2d2b-4a08-a569-4d0efe66087e","system_id":"levelo_inurba_marseille","lat":43.28856,"lon":5.358371,"is_reserved":false,"is_disabled":false,"rental_uris":{"android":"levelo://app?vid=69be143d-2d2b-4a08-a569-4d0efe66087e","ios":"levelo://app?vid=69be143d-2d2b-4a08-a569-4d0efe66087e"},"vehicle_type_id":"4","last_reported":1706641522,"current_range_meters":12800,"station_id":"ce4bhb12rcd13ifvqem0","pricing_plan_id":"free"},{"bike_id":"16bdf5c4-14c8-4b05-ad62-d1115b2aa00d","system_id":"levelo_inurba_marseille","lat":43.28856,"lon":5.358371,"is_reserved":false,"is_disabled":false,"rental_uris":{"android":"levelo://app?vid=16bdf5c4-14c8-4b05-ad62-d1115b2aa00d","ios":"levelo://app?vid=16bdf5c4-14c8-4b05-ad62-d1115b2aa00d"},"vehicle_type_id":"4","last_reported":1706641522,"current_range_meters":21200,"station_id":"ce4bhb12rcd13ifvqem0","pricing_plan_id":"free"},{"bike_id":"70770ecd-216a-467f-8858-7aa6679f1335","system_id":"levelo_inurba_marseille","lat":43.28856,"lon":5.358371,"is_reserved":false,"is_disabled":false,"rental_uris":{"android":"levelo://app?vid=70770ecd-216a-467f-8858-7aa6679f1335","ios":"levelo://app?vid=70770ecd-216a-467f-8858-7aa6679f1335"},"vehicle_type_id":"4","last_reported":1706641522,"current_range_meters":18400,"station_id":"ce4bhb12rcd13ifvqem0","pricing_plan_id":"free"},{"bike_id":"24bca81d-f76b-46b1-ad04-20c7073dfe30","system_id":"levelo_inurba_marseille","lat":43.28856,"lon":5.358371,"is_reserved":false,"is_disabled":false,"rental_uris":{"android":"levelo://app?vid=24bca81d-f76b-46b1-ad04-20c7073dfe30","ios":"levelo://app?vid=24bca81d-f76b-46b1-ad04-20c7073dfe30"},"vehicle_type_id":"4","last_reported":1706641522,"current_range_meters":27200,"station_id":"ce4bhb12rcd13ifvqem0","pricing_plan_id":"free"},{"bike_id":"361e0331-e0e5-4d3b-8d7e-42445876ca0c","system_id":"levelo_inurba_marseille","lat":43.28856,"lon":5.358371,"is_reserved":false,"is_disabled":false,"rental_uris":{"android":"levelo://app?vid=361e0331-e0e5-4d3b-8d7e-42445876ca0c","ios":"levelo://app?vid=361e0331-e0e5-4d3b-8d7e-42445876ca0c"},"vehicle_type_id":"4","last_reported":1706641522,"current_range_meters":23600,"station_id":"ce4bhb12rcd13ifvqem0","pricing_plan_id":"free"},{"bike_id":"fbead97e-217a-40a6-89d2-77c35e008d0f","system_id":"levelo_inurba_marseille","lat":43.28856,"lon":5.358371,"is_reserved":false,"is_disabled":false,"rental_uris":{"android":"levelo://app?vid=fbead97e-217a-40a6-89d2-77c35e008d0f","ios":"levelo://app?vid=fbead97e-217a-40a6-89d2-77c35e008d0f"},"vehicle_type_id":"4","last_reported":1706641522,"current_range_meters":5200,"station_id":"ce4bhb12rcd13ifvqem0","pricing_plan_id":"free"},{"bike_id":"a410b630-21f0-488e-b5e2-14f05f8552fd","system_id":"levelo_inurba_marseille","lat":43.28856,"lon":5.358371,"is_reserved":false,"is_disabled":false,"rental_uris":{"android":"levelo://app?vid=a410b630-21f0-488e-b5e2-14f05f8552fd","ios":"levelo://app?vid=a410b630-21f0-488e-b5e2-14f05f8552fd"},"vehicle_type_id":"4","last_reported":1706641522,"current_range_meters":21600,"station_id":"ce4bhb12rcd13ifvqem0","pricing_plan_id":"free"},{"bike_id":"9008239d-ce45-46c2-8381-3c063bd03566","system_id":"levelo_inurba_marseille","lat":43.337345,"lon":5.374588,"is_reserved":false,"is_disabled":false,"rental_uris":{"android":"levelo://app?vid=9008239d-ce45-46c2-8381-3c063bd03566","ios":"levelo://app?vid=9008239d-ce45-46c2-8381-3c063bd03566"},"vehicle_type_id":"4","last_reported":1706641522,"current_range_meters":17200,"station_id":"","pricing_plan_id":"free"},{"bike_id":"b106b04c-a63a-459d-b4af-77ff59901bf1","system_id":"levelo_inurba_marseille","lat":43.29322,"lon":5.38893,"is_reserved":false,"is_disabled":false,"rental_uris":{"android":"levelo://app?vid=b106b04c-a63a-459d-b4af-77ff59901bf1","ios":"levelo://app?vid=b106b04c-a63a-459d-b4af-77ff59901bf1"},"vehicle_type_id":"4","last_reported":1706641522,"current_range_meters":4400,"station_id":"","pricing_plan_id":"free"},{"bike_id":"9fa665cb-b57a-497b-914d-272056bde5b9","system_id":"levelo_inurba_marseille","lat":43.309371,"lon":5.401449,"is_reserved":false,"is_disabled":false,"rental_uris":{"android":"levelo://app?vid=9fa665cb-b57a-497b-914d-272056bde5b9","ios":"levelo://app?vid=9fa665cb-b57a-497b-914d-272056bde5b9"},"vehicle_type_id":"4","last_reported":1706641522,"current_range_meters":14800,"station_id":"ce4bgvp2rcd13ifvqct0","pricing_plan_id":"free"},{"bike_id":"caad8c37-fdb0-4dd8-9853-9a0b62c09b59","system_id":"levelo_inurba_marseille","lat":43.3093,"lon":5.40147,"is_reserved":false,"is_disabled":false,"rental_uris":{"android":"levelo://app?vid=caad8c37-fdb0-4dd8-9853-9a0b62c09b59","ios":"levelo://app?vid=caad8c37-fdb0-4dd8-9853-9a0b62c09b59"},"vehicle_type_id":"4","last_reported":1706641522,"current_range_meters":0,"station_id":"ce4bgvp2rcd13ifvqct0","pricing_plan_id":"free"},{"bike_id":"d56eddc5-3b96-4e84-b7f6-c2c3591a5c40","system_id":"levelo_inurba_marseille","lat":43.309371,"lon":5.401449,"is_reserved":false,"is_disabled":false,"rental_uris":{"android":"levelo://app?vid=d56eddc5-3b96-4e84-b7f6-c2c3591a5c40","ios":"levelo://app?vid=d56eddc5-3b96-4e84-b7f6-c2c3591a5c40"},"vehicle_type_id":"4","last_reported":1706641522,"current_range_meters":14800,"station_id":"ce4bgvp2rcd13ifvqct0","pricing_plan_id":"free"},{"bike_id":"e7f5de90-1e40-49b1-b842-fb030d7f55ee","system_id":"levelo_inurba_marseille","lat":43.3093,"lon":5.40156,"is_reserved":false,"is_disabled":false,"rental_uris":{"android":"levelo://app?vid=e7f5de90-1e40-49b1-b842-fb030d7f55ee","ios":"levelo://app?vid=e7f5de90-1e40-49b1-b842-fb030d7f55ee"},"vehicle_type_id":"4","last_reported":1706641522,"current_range_meters":0,"station_id":"ce4bgvp2rcd13ifvqct0","pricing_plan_id":"free"},{"bike_id":"9568d549-cf4a-4a77-847d-e813f0d6444b","system_id":"levelo_inurba_marseille","lat":43.30661,"lon":5.40087,"is_reserved":false,"is_disabled":false,"rental_uris":{"android":"levelo://app?vid=9568d549-cf4a-4a77-847d-e813f0d6444b","ios":"levelo://app?vid=9568d549-cf4a-4a77-847d-e813f0d6444b"},"vehicle_type_id":"4","last_reported":1706641522,"current_range_meters":800,"station_id":"ce4bh112rcd13ifvqda0","pricing_plan_id":"free"},{"bike_id":"b7d3b81d-d85a-44b5-a0c7-8f9c9f74639e","system_id":"levelo_inurba_marseille","lat":43.337587,"lon":5.374576,"is_reserved":false,"is_disabled":false,"rental_uris":{"android":"levelo://app?vid=b7d3b81d-d85a-44b5-a0c7-8f9c9f74639e","ios":"levelo://app?vid=b7d3b81d-d85a-44b5-a0c7-8f9c9f74639e"},"vehicle_type_id":"4","last_reported":1706641522,"current_range_meters":18400,"station_id":"","pricing_plan_id":"free"},{"bike_id":"12568932-a9a7-4d52-8b2c-668683b75358","system_id":"levelo_inurba_marseille","lat":43.33753,"lon":5.37496,"is_reserved":false,"is_disabled":false,"rental_uris":{"android":"levelo://app?vid=12568932-a9a7-4d52-8b2c-668683b75358","ios":"levelo://app?vid=12568932-a9a7-4d52-8b2c-668683b75358"},"vehicle_type_id":"4","last_reported":1706641522,"current_range_meters":15600,"station_id":"","pricing_plan_id":"free"},{"bike_id":"2fe24097-b1c2-4583-ba1f-cf8501171a4c","system_id":"levelo_inurba_marseille","lat":43.337535,"lon":5.374935,"is_reserved":false,"is_disabled":false,"rental_uris":{"android":"levelo://app?vid=2fe24097-b1c2-4583-ba1f-cf8501171a4c","ios":"levelo://app?vid=2fe24097-b1c2-4583-ba1f-cf8501171a4c"},"vehicle_type_id":"4","last_reported":1706641522,"current_range_meters":1200,"station_id":"","pricing_plan_id":"free"},{"bike_id":"c3a3eb4a-b836-4652-9c3a-fdf607119e88","system_id":"levelo_inurba_marseille","lat":43.306412,"lon":5.401035,"is_reserved":false,"is_disabled":false,"rental_uris":{"android":"levelo://app?vid=c3a3eb4a-b836-4652-9c3a-fdf607119e88","ios":"levelo://app?vid=c3a3eb4a-b836-4652-9c3a-fdf607119e88"},"vehicle_type_id":"4","last_reported":1706641522,"current_range_meters":17600,"station_id":"ce4bh112rcd13ifvqda0","pricing_plan_id":"free"},{"bike_id":"1facbbf3-baac-42f8-85eb-cb1e36f3e4b9","system_id":"levelo_inurba_marseille","lat":43.33757,"lon":5.374877,"is_reserved":false,"is_disabled":false,"rental_uris":{"android":"levelo://app?vid=1facbbf3-baac-42f8-85eb-cb1e36f3e4b9","ios":"levelo://app?vid=1facbbf3-baac-42f8-85eb-cb1e36f3e4b9"},"vehicle_type_id":"4","last_reported":1706641522,"current_range_meters":4000,"station_id":"","pricing_plan_id":"free"},{"bike_id":"66556c4f-8360-4ed4-a873-d2ad3978358d","system_id":"levelo_inurba_marseille","lat":43.306412,"lon":5.401035,"is_reserved":false,"is_disabled":false,"rental_uris":{"android":"levelo://app?vid=66556c4f-8360-4ed4-a873-d2ad3978358d","ios":"levelo://app?vid=66556c4f-8360-4ed4-a873-d2ad3978358d"},"vehicle_type_id":"4","last_reported":1706641522,"current_range_meters":18000,"station_id":"ce4bh112rcd13ifvqda0","pricing_plan_id":"free"},{"bike_id":"1cc35a3d-63a0-48b2-b83e-774bd64e96d2","system_id":"levelo_inurba_marseille","lat":43.301117,"lon":5.398795,"is_reserved":false,"is_disabled":false,"rental_uris":{"android":"levelo://app?vid=1cc35a3d-63a0-48b2-b83e-774bd64e96d2","ios":"levelo://app?vid=1cc35a3d-63a0-48b2-b83e-774bd64e96d2"},"vehicle_type_id":"4","last_reported":1706641522,"current_range_meters":3600,"station_id":"ce4bh0h2rcd13ifvqd40","pricing_plan_id":"free"},{"bike_id":"55f7aa42-6920-44bf-af78-550869d4b484","system_id":"levelo_inurba_marseille","lat":43.301117,"lon":5.398795,"is_reserved":false,"is_disabled":false,"rental_uris":{"android":"levelo://app?vid=55f7aa42-6920-44bf-af78-550869d4b484","ios":"levelo://app?vid=55f7aa42-6920-44bf-af78-550869d4b484"},"vehicle_type_id":"4","last_reported":1706641522,"current_range_meters":4000,"station_id":"ce4bh0h2rcd13ifvqd40","pricing_plan_id":"free"},{"bike_id":"b324fdab-7869-4494-93a6-04c80673bdea","system_id":"levelo_inurba_marseille","lat":43.28727,"lon":5.36078,"is_reserved":false,"is_disabled":false,"rental_uris":{"android":"levelo://app?vid=b324fdab-7869-4494-93a6-04c80673bdea","ios":"levelo://app?vid=b324fdab-7869-4494-93a6-04c80673bdea"},"vehicle_type_id":"4","last_reported":1706641522,"current_range_meters":6400,"station_id":"cki0cbj6b192h4jlfktg","pricing_plan_id":"free"},{"bike_id":"0555e4d1-181a-4cf9-a2af-e40de8c12013","system_id":"levelo_inurba_marseille","lat":43.28727,"lon":5.36078,"is_reserved":false,"is_disabled":false,"rental_uris":{"android":"levelo://app?vid=0555e4d1-181a-4cf9-a2af-e40de8c12013","ios":"levelo://app?vid=0555e4d1-181a-4cf9-a2af-e40de8c12013"},"vehicle_type_id":"4","last_reported":1706641522,"current_range_meters":13200,"station_id":"cki0cbj6b192h4jlfktg","pricing_plan_id":"free"},{"bike_id":"533dd0a7-f715-495b-8838-0d3d3ecf7e8d","system_id":"levelo_inurba_marseille","lat":43.28727,"lon":5.36078,"is_reserved":false,"is_disabled":false,"rental_uris":{"android":"levelo://app?vid=533dd0a7-f715-495b-8838-0d3d3ecf7e8d","ios":"levelo://app?vid=533dd0a7-f715-495b-8838-0d3d3ecf7e8d"},"vehicle_type_id":"4","last_reported":1706641522,"current_range_meters":9600,"station_id":"cki0cbj6b192h4jlfktg","pricing_plan_id":"free"},{"bike_id":"14d0ef62-1764-41e7-af4c-4664d45255ba","system_id":"levelo_inurba_marseille","lat":43.295748,"lon":5.37522,"is_reserved":false,"is_disabled":false,"rental_uris":{"android":"levelo://app?vid=14d0ef62-1764-41e7-af4c-4664d45255ba","ios":"levelo://app?vid=14d0ef62-1764-41e7-af4c-4664d45255ba"},"vehicle_type_id":"4","last_reported":1706641522,"current_range_meters":24800,"station_id":"ce4bgh92rcd13ifvqb50","pricing_plan_id":"free"},{"bike_id":"07f3efc2-7471-4663-8197-7bdffff6c188","system_id":"levelo_inurba_marseille","lat":43.295194,"lon":5.39397,"is_reserved":false,"is_disabled":false,"rental_uris":{"android":"levelo://app?vid=07f3efc2-7471-4663-8197-7bdffff6c188","ios":"levelo://app?vid=07f3efc2-7471-4663-8197-7bdffff6c188"},"vehicle_type_id":"4","last_reported":1706641522,"current_range_meters":5600,"station_id":"ce4bh292rcd13ifvqdf0","pricing_plan_id":"free"},{"bike_id":"02fd108e-b90f-473c-8d29-d5960e6280eb","system_id":"levelo_inurba_marseille","lat":43.295196,"lon":5.39397,"is_reserved":false,"is_disabled":false,"rental_uris":{"android":"levelo://app?vid=02fd108e-b90f-473c-8d29-d5960e6280eb","ios":"levelo://app?vid=02fd108e-b90f-473c-8d29-d5960e6280eb"},"vehicle_type_id":"4","last_reported":1706641522,"current_range_meters":3600,"station_id":"ce4bh292rcd13ifvqdf0","pricing_plan_id":"free"},{"bike_id":"02fa29dc-125d-4268-aaf1-6a080937a7bd","system_id":"levelo_inurba_marseille","lat":43.295196,"lon":5.39397,"is_reserved":false,"is_disabled":false,"rental_uris":{"android":"levelo://app?vid=02fa29dc-125d-4268-aaf1-6a080937a7bd","ios":"levelo://app?vid=02fa29dc-125d-4268-aaf1-6a080937a7bd"},"vehicle_type_id":"4","last_reported":1706641522,"current_range_meters":23600,"station_id":"ce4bh292rcd13ifvqdf0","pricing_plan_id":"free"},{"bike_id":"217bf2a4-dd81-44c7-8fa4-6d14a457783a","system_id":"levelo_inurba_marseille","lat":43.295196,"lon":5.39397,"is_reserved":false,"is_disabled":false,"rental_uris":{"android":"levelo://app?vid=217bf2a4-dd81-44c7-8fa4-6d14a457783a","ios":"levelo://app?vid=217bf2a4-dd81-44c7-8fa4-6d14a457783a"},"vehicle_type_id":"4","last_reported":1706641522,"current_range_meters":24400,"station_id":"ce4bh292rcd13ifvqdf0","pricing_plan_id":"free"},{"bike_id":"b14bf0f9-175f-4bd0-843a-afe614dda8af","system_id":"levelo_inurba_marseille","lat":43.295196,"lon":5.39397,"is_reserved":false,"is_disabled":false,"rental_uris":{"android":"levelo://app?vid=b14bf0f9-175f-4bd0-843a-afe614dda8af","ios":"levelo://app?vid=b14bf0f9-175f-4bd0-843a-afe614dda8af"},"vehicle_type_id":"4","last_reported":1706641522,"current_range_meters":7200,"station_id":"ce4bh292rcd13ifvqdf0","pricing_plan_id":"free"},{"bike_id":"72aa0ab0-ec78-466a-bb3a-3979ab72448b","system_id":"levelo_inurba_marseille","lat":43.290336,"lon":5.386425,"is_reserved":false,"is_disabled":false,"rental_uris":{"android":"levelo://app?vid=72aa0ab0-ec78-466a-bb3a-3979ab72448b","ios":"levelo://app?vid=72aa0ab0-ec78-466a-bb3a-3979ab72448b"},"vehicle_type_id":"4","last_reported":1706641522,"current_range_meters":400,"station_id":"ce4bh4p2rcd13ifvqe0g","pricing_plan_id":"free"},{"bike_id":"37ccc6f9-8ce5-492d-95a6-8307978696f4","system_id":"levelo_inurba_marseille","lat":43.290345,"lon":5.38646,"is_reserved":false,"is_disabled":false,"rental_uris":{"android":"levelo://app?vid=37ccc6f9-8ce5-492d-95a6-8307978696f4","ios":"levelo://app?vid=37ccc6f9-8ce5-492d-95a6-8307978696f4"},"vehicle_type_id":"4","last_reported":1706641522,"current_range_meters":2000,"station_id":"ce4bh4p2rcd13ifvqe0g","pricing_plan_id":"free"},{"bike_id":"e7242daa-ca34-4934-a113-615111809ee2","system_id":"levelo_inurba_marseille","lat":43.302759,"lon":5.400793,"is_reserved":false,"is_disabled":false,"rental_uris":{"android":"levelo://app?vid=e7242daa-ca34-4934-a113-615111809ee2","ios":"levelo://app?vid=e7242daa-ca34-4934-a113-615111809ee2"},"vehicle_type_id":"4","last_reported":1706641522,"current_range_meters":6000,"station_id":"ce4bgvh2rcd13ifvqcs0","pricing_plan_id":"free"},{"bike_id":"43b9e1ce-7920-4b22-a974-e32eda02f634","system_id":"levelo_inurba_marseille","lat":43.28605,"lon":5.37067,"is_reserved":false,"is_disabled":false,"rental_uris":{"android":"levelo://app?vid=43b9e1ce-7920-4b22-a974-e32eda02f634","ios":"levelo://app?vid=43b9e1ce-7920-4b22-a974-e32eda02f634"},"vehicle_type_id":"4","last_reported":1706641522,"current_range_meters":27200,"station_id":"","pricing_plan_id":"free"},{"bike_id":"f9eaa533-9a29-4a11-a91e-2674c7cd964c","system_id":"levelo_inurba_marseille","lat":43.287184,"lon":5.37937,"is_reserved":false,"is_disabled":false,"rental_uris":{"android":"levelo://app?vid=f9eaa533-9a29-4a11-a91e-2674c7cd964c","ios":"levelo://app?vid=f9eaa533-9a29-4a11-a91e-2674c7cd964c"},"vehicle_type_id":"4","last_reported":1706641522,"current_range_meters":0,"station_id":"ce4bh9p2rcd13ifvqec0","pricing_plan_id":"free"},{"bike_id":"cda0563a-42fc-473e-b153-5fcb343d6b15","system_id":"levelo_inurba_marseille","lat":43.28523,"lon":5.37382,"is_reserved":false,"is_disabled":false,"rental_uris":{"android":"levelo://app?vid=cda0563a-42fc-473e-b153-5fcb343d6b15","ios":"levelo://app?vid=cda0563a-42fc-473e-b153-5fcb343d6b15"},"vehicle_type_id":"4","last_reported":1706641522,"current_range_meters":14400,"station_id":"","pricing_plan_id":"free"},{"bike_id":"798d4a69-b054-4391-8310-1c636a5e6693","system_id":"levelo_inurba_marseille","lat":43.291994,"lon":5.392907,"is_reserved":false,"is_disabled":false,"rental_uris":{"android":"levelo://app?vid=798d4a69-b054-4391-8310-1c636a5e6693","ios":"levelo://app?vid=798d4a69-b054-4391-8310-1c636a5e6693"},"vehicle_type_id":"4","last_reported":1706641522,"current_range_meters":6000,"station_id":"ce4bh192rcd13ifvqdd0","pricing_plan_id":"free"},{"bike_id":"242a67bf-1099-4483-81c1-1bf0ea3c2bae","system_id":"levelo_inurba_marseille","lat":43.28467,"lon":5.35897,"is_reserved":false,"is_disabled":false,"rental_uris":{"android":"levelo://app?vid=242a67bf-1099-4483-81c1-1bf0ea3c2bae","ios":"levelo://app?vid=242a67bf-1099-4483-81c1-1bf0ea3c2bae"},"vehicle_type_id":"4","last_reported":1706641522,"current_range_meters":6800,"station_id":"ce4bhah2rcd13ifvqei0","pricing_plan_id":"free"},{"bike_id":"01e6d8e5-4a4b-450d-a606-be54b83c8986","system_id":"levelo_inurba_marseille","lat":43.28466,"lon":5.35891,"is_reserved":false,"is_disabled":false,"rental_uris":{"android":"levelo://app?vid=01e6d8e5-4a4b-450d-a606-be54b83c8986","ios":"levelo://app?vid=01e6d8e5-4a4b-450d-a606-be54b83c8986"},"vehicle_type_id":"4","last_reported":1706641522,"current_range_meters":7600,"station_id":"ce4bhah2rcd13ifvqei0","pricing_plan_id":"free"},{"bike_id":"2356b2fb-7a2b-476d-aceb-304da286bf4d","system_id":"levelo_inurba_marseille","lat":43.28464,"lon":5.35888,"is_reserved":false,"is_disabled":false,"rental_uris":{"android":"levelo://app?vid=2356b2fb-7a2b-476d-aceb-304da286bf4d","ios":"levelo://app?vid=2356b2fb-7a2b-476d-aceb-304da286bf4d"},"vehicle_type_id":"4","last_reported":1706641522,"current_range_meters":14800,"station_id":"ce4bhah2rcd13ifvqei0","pricing_plan_id":"free"},{"bike_id":"32d96b1d-4db0-4436-8c41-03f2afa5164c","system_id":"levelo_inurba_marseille","lat":43.284634,"lon":5.358873,"is_reserved":false,"is_disabled":false,"rental_uris":{"android":"levelo://app?vid=32d96b1d-4db0-4436-8c41-03f2afa5164c","ios":"levelo://app?vid=32d96b1d-4db0-4436-8c41-03f2afa5164c"},"vehicle_type_id":"4","last_reported":1706641522,"current_range_meters":23600,"station_id":"ce4bhah2rcd13ifvqei0","pricing_plan_id":"free"},{"bike_id":"f7484cd4-ff49-46dc-92e9-225670c0bbe6","system_id":"levelo_inurba_marseille","lat":43.28462,"lon":5.35895,"is_reserved":false,"is_disabled":false,"rental_uris":{"android":"levelo://app?vid=f7484cd4-ff49-46dc-92e9-225670c0bbe6","ios":"levelo://app?vid=f7484cd4-ff49-46dc-92e9-225670c0bbe6"},"vehicle_type_id":"4","last_reported":1706641522,"current_range_meters":14400,"station_id":"ce4bhah2rcd13ifvqei0","pricing_plan_id":"free"},{"bike_id":"34b38246-f1ad-4b74-bea6-3e5af5f63c20","system_id":"levelo_inurba_marseille","lat":43.28462,"lon":5.35894,"is_reserved":false,"is_disabled":false,"rental_uris":{"android":"levelo://app?vid=34b38246-f1ad-4b74-bea6-3e5af5f63c20","ios":"levelo://app?vid=34b38246-f1ad-4b74-bea6-3e5af5f63c20"},"vehicle_type_id":"4","last_reported":1706641522,"current_range_meters":18800,"station_id":"ce4bhah2rcd13ifvqei0","pricing_plan_id":"free"},{"bike_id":"506425a4-70e3-4af4-b24e-0a1dcf23a0aa","system_id":"levelo_inurba_marseille","lat":43.284534,"lon":5.358662,"is_reserved":false,"is_disabled":false,"rental_uris":{"android":"levelo://app?vid=506425a4-70e3-4af4-b24e-0a1dcf23a0aa","ios":"levelo://app?vid=506425a4-70e3-4af4-b24e-0a1dcf23a0aa"},"vehicle_type_id":"4","last_reported":1706641522,"current_range_meters":27600,"station_id":"ce4bhah2rcd13ifvqei0","pricing_plan_id":"free"},{"bike_id":"460c6eca-4126-4de8-9ef1-3c340573f9ad","system_id":"levelo_inurba_marseille","lat":43.28461,"lon":5.35889,"is_reserved":false,"is_disabled":false,"rental_uris":{"android":"levelo://app?vid=460c6eca-4126-4de8-9ef1-3c340573f9ad","ios":"levelo://app?vid=460c6eca-4126-4de8-9ef1-3c340573f9ad"},"vehicle_type_id":"4","last_reported":1706641522,"current_range_meters":23200,"station_id":"ce4bhah2rcd13ifvqei0","pricing_plan_id":"free"},{"bike_id":"366819eb-6375-4a2e-b466-ca076395720e","system_id":"levelo_inurba_marseille","lat":43.284606,"lon":5.358906,"is_reserved":false,"is_disabled":false,"rental_uris":{"android":"levelo://app?vid=366819eb-6375-4a2e-b466-ca076395720e","ios":"levelo://app?vid=366819eb-6375-4a2e-b466-ca076395720e"},"vehicle_type_id":"4","last_reported":1706641522,"current_range_meters":0,"station_id":"ce4bhah2rcd13ifvqei0","pricing_plan_id":"free"},{"bike_id":"6e049794-afe4-448e-a566-a812d8a6af54","system_id":"levelo_inurba_marseille","lat":43.284594,"lon":5.358954,"is_reserved":false,"is_disabled":false,"rental_uris":{"android":"levelo://app?vid=6e049794-afe4-448e-a566-a812d8a6af54","ios":"levelo://app?vid=6e049794-afe4-448e-a566-a812d8a6af54"},"vehicle_type_id":"4","last_reported":1706641522,"current_range_meters":15200,"station_id":"ce4bhah2rcd13ifvqei0","pricing_plan_id":"free"},{"bike_id":"8b9c8307-b1c2-4af9-b79b-ed4ffa969089","system_id":"levelo_inurba_marseille","lat":43.284534,"lon":5.358662,"is_reserved":false,"is_disabled":false,"rental_uris":{"android":"levelo://app?vid=8b9c8307-b1c2-4af9-b79b-ed4ffa969089","ios":"levelo://app?vid=8b9c8307-b1c2-4af9-b79b-ed4ffa969089"},"vehicle_type_id":"4","last_reported":1706641522,"current_range_meters":0,"station_id":"ce4bhah2rcd13ifvqei0","pricing_plan_id":"free"},{"bike_id":"e4a68c84-a477-4060-9fdd-7bd31ef7d1ba","system_id":"levelo_inurba_marseille","lat":43.28459,"lon":5.35893,"is_reserved":false,"is_disabled":false,"rental_uris":{"android":"levelo://app?vid=e4a68c84-a477-4060-9fdd-7bd31ef7d1ba","ios":"levelo://app?vid=e4a68c84-a477-4060-9fdd-7bd31ef7d1ba"},"vehicle_type_id":"4","last_reported":1706641522,"current_range_meters":22800,"station_id":"ce4bhah2rcd13ifvqei0","pricing_plan_id":"free"},{"bike_id":"fbdc89de-6655-426c-a29e-3631f777ce70","system_id":"levelo_inurba_marseille","lat":43.284534,"lon":5.358662,"is_reserved":false,"is_disabled":false,"rental_uris":{"android":"levelo://app?vid=fbdc89de-6655-426c-a29e-3631f777ce70","ios":"levelo://app?vid=fbdc89de-6655-426c-a29e-3631f777ce70"},"vehicle_type_id":"4","last_reported":1706641522,"current_range_meters":27600,"station_id":"ce4bhah2rcd13ifvqei0","pricing_plan_id":"free"},{"bike_id":"5f685931-e5d7-4a51-a884-873ae948d17e","system_id":"levelo_inurba_marseille","lat":43.294314,"lon":5.397498,"is_reserved":false,"is_disabled":false,"rental_uris":{"android":"levelo://app?vid=5f685931-e5d7-4a51-a884-873ae948d17e","ios":"levelo://app?vid=5f685931-e5d7-4a51-a884-873ae948d17e"},"vehicle_type_id":"4","last_reported":1706641522,"current_range_meters":9200,"station_id":"ce4bh3h2rcd13ifvqdo0","pricing_plan_id":"free"},{"bike_id":"7f56427f-ad1c-46ae-8a65-e6cf4b9f940b","system_id":"levelo_inurba_marseille","lat":43.284534,"lon":5.358662,"is_reserved":false,"is_disabled":false,"rental_uris":{"android":"levelo://app?vid=7f56427f-ad1c-46ae-8a65-e6cf4b9f940b","ios":"levelo://app?vid=7f56427f-ad1c-46ae-8a65-e6cf4b9f940b"},"vehicle_type_id":"4","last_reported":1706641522,"current_range_meters":24000,"station_id":"ce4bhah2rcd13ifvqei0","pricing_plan_id":"free"},{"bike_id":"81a2f5bf-7075-4e09-a15b-6b43c763bb7b","system_id":"levelo_inurba_marseille","lat":43.28457,"lon":5.3589,"is_reserved":false,"is_disabled":false,"rental_uris":{"android":"levelo://app?vid=81a2f5bf-7075-4e09-a15b-6b43c763bb7b","ios":"levelo://app?vid=81a2f5bf-7075-4e09-a15b-6b43c763bb7b"},"vehicle_type_id":"4","last_reported":1706641522,"current_range_meters":0,"station_id":"ce4bhah2rcd13ifvqei0","pricing_plan_id":"free"},{"bike_id":"2ad997fb-b52e-42d6-856e-44bb8b86a660","system_id":"levelo_inurba_marseille","lat":43.28456,"lon":5.358937,"is_reserved":false,"is_disabled":false,"rental_uris":{"android":"levelo://app?vid=2ad997fb-b52e-42d6-856e-44bb8b86a660","ios":"levelo://app?vid=2ad997fb-b52e-42d6-856e-44bb8b86a660"},"vehicle_type_id":"4","last_reported":1706641522,"current_range_meters":18000,"station_id":"ce4bhah2rcd13ifvqei0","pricing_plan_id":"free"},{"bike_id":"09991aa0-3638-4eaa-99b7-f095b048a0cf","system_id":"levelo_inurba_marseille","lat":43.284534,"lon":5.358662,"is_reserved":false,"is_disabled":false,"rental_uris":{"android":"levelo://app?vid=09991aa0-3638-4eaa-99b7-f095b048a0cf","ios":"levelo://app?vid=09991aa0-3638-4eaa-99b7-f095b048a0cf"},"vehicle_type_id":"4","last_reported":1706641522,"current_range_meters":23200,"station_id":"ce4bhah2rcd13ifvqei0","pricing_plan_id":"free"},{"bike_id":"5104243d-7279-4c11-9ae0-5ff803519a12","system_id":"levelo_inurba_marseille","lat":43.28456,"lon":5.358894,"is_reserved":false,"is_disabled":false,"rental_uris":{"android":"levelo://app?vid=5104243d-7279-4c11-9ae0-5ff803519a12","ios":"levelo://app?vid=5104243d-7279-4c11-9ae0-5ff803519a12"},"vehicle_type_id":"4","last_reported":1706641522,"current_range_meters":5600,"station_id":"ce4bhah2rcd13ifvqei0","pricing_plan_id":"free"},{"bike_id":"a866d2aa-743d-490c-bf1f-19413c1114a3","system_id":"levelo_inurba_marseille","lat":43.284534,"lon":5.358662,"is_reserved":false,"is_disabled":false,"rental_uris":{"android":"levelo://app?vid=a866d2aa-743d-490c-bf1f-19413c1114a3","ios":"levelo://app?vid=a866d2aa-743d-490c-bf1f-19413c1114a3"},"vehicle_type_id":"4","last_reported":1706641522,"current_range_meters":30400,"station_id":"ce4bhah2rcd13ifvqei0","pricing_plan_id":"free"},{"bike_id":"8837eb3d-2b5c-44da-8600-b60d4bb7d6c1","system_id":"levelo_inurba_marseille","lat":43.284534,"lon":5.358662,"is_reserved":false,"is_disabled":false,"rental_uris":{"android":"levelo://app?vid=8837eb3d-2b5c-44da-8600-b60d4bb7d6c1","ios":"levelo://app?vid=8837eb3d-2b5c-44da-8600-b60d4bb7d6c1"},"vehicle_type_id":"4","last_reported":1706641522,"current_range_meters":10000,"station_id":"ce4bhah2rcd13ifvqei0","pricing_plan_id":"free"},{"bike_id":"f40d4de8-897d-4533-9bce-c9be7187bfcd","system_id":"levelo_inurba_marseille","lat":43.28457,"lon":5.35874,"is_reserved":false,"is_disabled":false,"rental_uris":{"android":"levelo://app?vid=f40d4de8-897d-4533-9bce-c9be7187bfcd","ios":"levelo://app?vid=f40d4de8-897d-4533-9bce-c9be7187bfcd"},"vehicle_type_id":"4","last_reported":1706641522,"current_range_meters":16800,"station_id":"ce4bhah2rcd13ifvqei0","pricing_plan_id":"free"},