{"last_updated":1721480920,"ttl":30,"version":"2.2","data":{"bikes":[{"bike_id":"d1d81e54-fed9-443c-944a-6820c8a62e66","system_id":"levelo_inurba_marseille","lat":43.31251,"lon":5.36793,"is_reserved":false,"is_disabled":false,"rental_uris":{"android":"levelo://app?vid=d1d81e54-fed9-443c-944a-6820c8a62e66","ios":"levelo://app?vid=d1d81e54-fed9-443c-944a-6820c8a62e66"},"vehicle_type_id":"4","last_reported":1721480920,"current_range_meters":0,"station_id":"","pricing_plan_id":"cebpf4jnsgd1na2vs0mg"},{"bike_id":"6642bb2d-b772-4e32-a9b7-908c0882f33a","system_id":"levelo_inurba_marseille","lat":43.313391,"lon":5.36706,"is_reserved":false,"is_disabled":false,"rental_uris":{"android":"levelo://app?vid=6642bb2d-b772-4e32-a9b7-908c0882f33a","ios":"levelo://app?vid=6642bb2d-b772-4e32-a9b7-908c0882f33a"},"vehicle_type_id":"4","last_reported":1721480920,"current_range_meters":28400,"station_id":"ce4bgr92rcd13ifvqc6g","pricing_plan_id":"cebpf4jnsgd1na2vs0mg"},{"bike_id":"e1ec02d0-c0e5-48c5-a8fe-a9ce2cb56f46","system_id":"levelo_inurba_marseille","lat":43.31223,"lon":5.3687,"is_reserved":false,"is_disabled":false,"rental_uris":{"android":"levelo://app?vid=e1ec02d0-c0e5-48c5-a8fe-a9ce2cb56f46","ios":"levelo://app?vid=e1ec02d0-c0e5-48c5-a8fe-a9ce2cb56f46"},"vehicle_type_id":"4","last_reported":1721480920,"current_range_meters":0,"station_id":"ce4bgl92rcd13ifvqbq0","pricing_plan_id":"cebpf4jnsgd1na2vs0mg"},{"bike_id":"814a547d-785d-48b5-bd34-7fd5ef034a40","system_id":"levelo_inurba_marseille","lat":43.309076,"lon":5.368465,"is_reserved":false,"is_disabled":false,"rental_uris":{"android":"levelo://app?vid=814a547d-785d-48b5-bd34-7fd5ef034a40","ios":"levelo://app?vid=814a547d-785d-48b5-bd34-7fd5ef034a40"},"vehicle_type_id":"4","last_reported":1721480920,"current_range_meters":26400,"station_id":"ce4bgn92rcd13ifvqbvg","pricing_plan_id":"cebpf4jnsgd1na2vs0mg"},{"bike_id":"e9da30c0-05ba-42ed-946b-44c2f700d8fd","system_id":"levelo_inurba_marseille","lat":43.309076,"lon":5.368465,"is_reserved":false,"is_disabled":false,"rental_uris":{"android":"levelo://app?vid=e9da30c0-05ba-42ed-946b-44c2f700d8fd","ios":"levelo://app?vid=e9da30c0-05ba-42ed-946b-44c2f700d8fd"},"vehicle_type_id":"4","last_reported":1721480920,"current_range_meters":26800,"station_id":"ce4bgn92rcd13ifvqbvg","pricing_plan_id":"cebpf4jnsgd1na2vs0mg"},{"bike_id":"12354745-ae98-4cc6-8c45-9f8fc758ec28","system_id":"levelo_inurba_marseille","lat":43.309076,"lon":5.368465,"is_reserved":false,"is_disabled":false,"rental_uris":{"android":"levelo://app?vid=12354745-ae98-4cc6-8c45-9f8fc758ec28","ios":"levelo://app?vid=12354745-ae98-4cc6-8c45-9f8fc758ec28"},"vehicle_type_id":"4","last_reported":1721480920,"current_range_meters":2800,"station_id":"ce4bgn92rcd13ifvqbvg","pricing_plan_id":"cebpf4jnsgd1na2vs0mg"},{"bike_id":"7dccebaa-75f2-4cc0-acc3-3d0a6186c6ed","system_id":"levelo_inurba_marseille","lat":43.31486,"lon":5.37306,"is_reserved":false,"is_disabled":false,"rental_uris":{"android":"levelo://app?vid=7dccebaa-75f2-4cc0-acc3-3d0a6186c6ed","ios":"levelo://app?vid=7dccebaa-75f2-4cc0-acc3-3d0a6186c6ed"},"vehicle_type_id":"4","last_reported":1721480920,"current_range_meters":1200,"station_id":"ce4bgt12rcd13ifvqcd0","pricing_plan_id":"cebpf4jnsgd1na2vs0mg"},{"bike_id":"e7ef9472-50f9-4343-b7d7-4d6152ecbaa2","system_id":"levelo_inurba_marseille","lat":43.314811,"lon":5.373103,"is_reserved":false,"is_disabled":false,"rental_uris":{"android":"levelo://app?vid=e7ef9472-50f9-4343-b7d7-4d6152ecbaa2","ios":"levelo://app?vid=e7ef9472-50f9-4343-b7d7-4d6152ecbaa2"},"vehicle_type_id":"4","last_reported":1721480920,"current_range_meters":21600,"station_id":"ce4bgt12rcd13ifvqcd0","pricing_plan_id":"cebpf4jnsgd1na2vs0mg"},{"bike_id":"ebf26535-65d0-4f52-b83c-09423ca2a95a","system_id":"levelo_inurba_marseille","lat":43.314811,"lon":5.373103,"is_reserved":false,"is_disabled":false,"rental_uris":{"android":"levelo://app?vid=ebf26535-65d0-4f52-b83c-09423ca2a95a","ios":"levelo://app?vid=ebf26535-65d0-4f52-b83c-09423ca2a95a"},"vehicle_type_id":"4","last_reported":1721480920,"current_range_meters":30000,"station_id":"ce4bgt12rcd13ifvqcd0","pricing_plan_id":"cebpf4jnsgd1na2vs0mg"},{"bike_id":"19302821-d478-4b49-839a-f1b41eec06a1","system_id":"levelo_inurba_marseille","lat":43.314811,"lon":5.373103,"is_reserved":false,"is_disabled":false,"rental_uris":{"android":"levelo://app?vid=19302821-d478-4b49-839a-f1b41eec06a1","ios":"levelo://app?vid=19302821-d478-4b49-839a-f1b41eec06a1"},"vehicle_type_id":"4","last_reported":1721480920,"current_range_meters":16000,"station_id":"ce4bgt12rcd13ifvqcd0","pricing_plan_id":"cebpf4jnsgd1na2vs0mg"},{"bike_id":"1022e76d-6457-4d11-99d1-3fa12402afa3","system_id":"levelo_inurba_marseille","lat":43.314811,"lon":5.373104,"is_reserved":false,"is_disabled":false,"rental_uris":{"android":"levelo://app?vid=1022e76d-6457-4d11-99d1-3fa12402afa3","ios":"levelo://app?vid=1022e76d-6457-4d11-99d1-3fa12402afa3"},"vehicle_type_id":"4","last_reported":1721480920,"current_range_meters":19200,"station_id":"ce4bgt12rcd13ifvqcd0","pricing_plan_id":"cebpf4jnsgd1na2vs0mg"},{"bike_id":"8bda6122-6ff1-4c34-8b38-9852294839e1","system_id":"levelo_inurba_marseille","lat":43.309034,"lon":5.371783,"is_reserved":false,"is_disabled":false,"rental_uris":{"android":"levelo://app?vid=8bda6122-6ff1-4c34-8b38-9852294839e1","ios":"levelo://app?vid=8bda6122-6ff1-4c34-8b38-9852294839e1"},"vehicle_type_id":"4","last_reported":1721480920,"current_range_meters":0,"station_id":"ce4bguh2rcd13ifvqckg","pricing_plan_id":"cebpf4jnsgd1na2vs0mg"},{"bike_id":"32bf86fb-39c7-4520-b12e-60e8f91c25e9","system_id":"levelo_inurba_marseille","lat":43.30643,"lon":5.36802,"is_reserved":false,"is_disabled":false,"rental_uris":{"android":"levelo://app?vid=32bf86fb-39c7-4520-b12e-60e8f91c25e9","ios":"levelo://app?vid=32bf86fb-39c7-4520-b12e-60e8f91c25e9"},"vehicle_type_id":"4","last_reported":1721480920,"current_range_meters":28800,"station_id":"","pricing_plan_id":"cebpf4jnsgd1na2vs0mg"},{"bike_id":"e70f87de-c214-4eba-b210-b18d368c2baf","system_id":"levelo_inurba_marseille","lat":43.30507,"lon":5.36564,"is_reserved":false,"is_disabled":false,"rental_uris":{"android":"levelo://app?vid=e70f87de-c214-4eba-b210-b18d368c2baf","ios":"levelo://app?vid=e70f87de-c214-4eba-b210-b18d368c2baf"},"vehicle_type_id":"4","last_reported":1721480920,"current_range_meters":1200,"station_id":"","pricing_plan_id":"cebpf4jnsgd1na2vs0mg"},{"bike_id":"fd08c9a8-c911-4340-97eb-5ae0883aad7e","system_id":"levelo_inurba_marseille","lat":43.305989,"lon":5.37225,"is_reserved":false,"is_disabled":false,"rental_uris":{"android":"levelo://app?vid=fd08c9a8-c911-4340-97eb-5ae0883aad7e","ios":"levelo://app?vid=fd08c9a8-c911-4340-97eb-5ae0883aad7e"},"vehicle_type_id":"4","last_reported":1721480920,"current_range_meters":12400,"station_id":"ce4bgqh2rcd13ifvqc4g","pricing_plan_id":"cebpf4jnsgd1na2vs0mg"},{"bike_id":"a137ee51-c1ec-4abf-ba49-41f58ad55183","system_id":"levelo_inurba_marseille","lat":43.305989,"lon":5.37225,"is_reserved":false,"is_disabled":false,"rental_uris":{"android":"levelo://app?vid=a137ee51-c1ec-4abf-ba49-41f58ad55183","ios":"levelo://app?vid=a137ee51-c1ec-4abf-ba49-41f58ad55183"},"vehicle_type_id":"4","last_reported":1721480920,"current_range_meters":4000,"station_id":"ce4bgqh2rcd13ifvqc4g","pricing_plan_id":"cebpf4jnsgd1na2vs0mg"},{"bike_id":"be4ee47c-aa8a-49fc-9011-7d80c317756d","system_id":"levelo_inurba_marseille","lat":43.305989,"lon":5.37225,"is_reserved":false,"is_disabled":false,"rental_uris":{"android":"levelo://app?vid=be4ee47c-aa8a-49fc-9011-7d80c317756d","ios":"levelo://app?vid=be4ee47c-aa8a-49fc-9011-7d80c317756d"},"vehicle_type_id":"4","last_reported":1721480920,"current_range_meters":8800,"station_id":"ce4bgqh2rcd13ifvqc4g","pricing_plan_id":"cebpf4jnsgd1na2vs0mg"},{"bike_id":"84b49da4-8796-4a47-bb56-2599d1ec9af9","system_id":"levelo_inurba_marseille","lat":43.305989,"lon":5.37225,"is_reserved":false,"is_disabled":false,"rental_uris":{"android":"levelo://app?vid=84b49da4-8796-4a47-bb56-2599d1ec9af9","ios":"levelo://app?vid=84b49da4-8796-4a47-bb56-2599d1ec9af9"},"vehicle_type_id":"4","last_reported":1721480920,"current_range_meters":20800,"station_id":"ce4bgqh2rcd13ifvqc4g","pricing_plan_id":"cebpf4jnsgd1na2vs0mg"},{"bike_id":"86acd10c-d873-4fa4-b414-c1427f223f5b","system_id":"levelo_inurba_marseille","lat":43.311125,"lon":5.377624,"is_reserved":false,"is_disabled":false,"rental_uris":{"android":"levelo://app?vid=86acd10c-d873-4fa4-b414-c1427f223f5b","ios":"levelo://app?vid=86acd10c-d873-4fa4-b414-c1427f223f5b"},"vehicle_type_id":"4","last_reported":1721480920,"current_range_meters":15600,"station_id":"ce4bgt92rcd13ifvqcg0","pricing_plan_id":"cebpf4jnsgd1na2vs0mg"},{"bike_id":"b32d2777-383c-4fad-9bc6-f44b2f264150","system_id":"levelo_inurba_marseille","lat":43.308,"lon":5.3764,"is_reserved":false,"is_disabled":false,"rental_uris":{"android":"levelo://app?vid=b32d2777-383c-4fad-9bc6-f44b2f264150","ios":"levelo://app?vid=b32d2777-383c-4fad-9bc6-f44b2f264150"},"vehicle_type_id":"4","last_reported":1721480920,"current_range_meters":22000,"station_id":"","pricing_plan_id":"cebpf4jnsgd1na2vs0mg"},{"bike_id":"67861626-e93a-4708-acbb-4f2b362fc3af","system_id":"levelo_inurba_marseille","lat":43.317075,"lon":5.377367,"is_reserved":false,"is_disabled":false,"rental_uris":{"android":"levelo://app?vid=67861626-e93a-4708-acbb-4f2b362fc3af","ios":"levelo://app?vid=67861626-e93a-4708-acbb-4f2b362fc3af"},"vehicle_type_id":"4","last_reported":1721480920,"current_range_meters":9200,"station_id":"ce4bgth2rcd13ifvqch0","pricing_plan_id":"cebpf4jnsgd1na2vs0mg"},{"bike_id":"5083c359-08ea-4867-b74f-dbb2d5c0dcb1","system_id":"levelo_inurba_marseille","lat":43.317075,"lon":5.377367,"is_reserved":false,"is_disabled":false,"rental_uris":{"android":"levelo://app?vid=5083c359-08ea-4867-b74f-dbb2d5c0dcb1","ios":"levelo://app?vid=5083c359-08ea-4867-b74f-dbb2d5c0dcb1"},"vehicle_type_id":"4","last_reported":1721480920,"current_range_meters":21200,"station_id":"ce4bgth2rcd13ifvqch0","pricing_plan_id":"cebpf4jnsgd1na2vs0mg"},{"bike_id":"1659c2e4-37b7-4df1-83f6-40beca7d24dc","system_id":"levelo_inurba_marseille","lat":43.3097,"lon":5.37943,"is_reserved":false,"is_disabled":false,"rental_uris":{"android":"levelo://app?vid=1659c2e4-37b7-4df1-83f6-40beca7d24dc","ios":"levelo://app?vid=1659c2e4-37b7-4df1-83f6-40beca7d24dc"},"vehicle_type_id":"4","last_reported":1721480920,"current_range_meters":0,"station_id":"","pricing_plan_id":"cebpf4jnsgd1na2vs0mg"},{"bike_id":"9ead7e09-a8f2-4ce7-b098-5dabbb5c253b","system_id":"levelo_inurba_marseille","lat":43.315289,"lon":5.380349,"is_reserved":false,"is_disabled":false,"rental_uris":{"android":"levelo://app?vid=9ead7e09-a8f2-4ce7-b098-5dabbb5c253b","ios":"levelo://app?vid=9ead7e09-a8f2-4ce7-b098-5dabbb5c253b"},"vehicle_type_id":"4","last_reported":1721480920,"current_range_meters":22800,"station_id":"ce4bhsp2rcd13ifvqi50","pricing_plan_id":"cebpf4jnsgd1na2vs0mg"},{"bike_id":"754bd8b9-1258-4dd1-812e-44439149fa77","system_id":"levelo_inurba_marseille","lat":43.31532,"lon":5.38037,"is_reserved":false,"is_disabled":false,"rental_uris":{"android":"levelo://app?vid=754bd8b9-1258-4dd1-812e-44439149fa77","ios":"levelo://app?vid=754bd8b9-1258-4dd1-812e-44439149fa77"},"vehicle_type_id":"4","last_reported":1721480920,"current_range_meters":30800,"station_id":"ce4bhsp2rcd13ifvqi50","pricing_plan_id":"cebpf4jnsgd1na2vs0mg"},{"bike_id":"8c1231af-68c4-4309-b370-4e3a93fe10ec","system_id":"levelo_inurba_marseille","lat":43.308012,"lon":5.381511,"is_reserved":false,"is_disabled":false,"rental_uris":{"android":"levelo://app?vid=8c1231af-68c4-4309-b370-4e3a93fe10ec","ios":"levelo://app?vid=8c1231af-68c4-4309-b370-4e3a93fe10ec"},"vehicle_type_id":"4","last_reported":1721480920,"current_range_meters":9200,"station_id":"ce4bgt12rcd13ifvqce0","pricing_plan_id":"cebpf4jnsgd1na2vs0mg"},{"bike_id":"3e7c3b41-aac1-404e-9e8f-59a5c76c2cef","system_id":"levelo_inurba_marseille","lat":43.304606,"lon":5.379026,"is_reserved":false,"is_disabled":false,"rental_uris":{"android":"levelo://app?vid=3e7c3b41-aac1-404e-9e8f-59a5c76c2cef","ios":"levelo://app?vid=3e7c3b41-aac1-404e-9e8f-59a5c76c2cef"},"vehicle_type_id":"4","last_reported":1721480920,"current_range_meters":27200,"station_id":"ce4bgup2rcd13ifvqcn0","pricing_plan_id":"cebpf4jnsgd1na2vs0mg"},{"bike_id":"6f7762c3-bec0-4fad-87ff-9e36edacea57","system_id":"levelo_inurba_marseille","lat":43.3047,"lon":5.37909,"is_reserved":false,"is_disabled":false,"rental_uris":{"android":"levelo://app?vid=6f7762c3-bec0-4fad-87ff-9e36edacea57","ios":"levelo://app?vid=6f7762c3-bec0-4fad-87ff-9e36edacea57"},"vehicle_type_id":"4","last_reported":1721480920,"current_range_meters":0,"station_id":"ce4bgup2rcd13ifvqcn0","pricing_plan_id":"cebpf4jnsgd1na2vs0mg"},{"bike_id":"f24eb116-a0cf-4a11-b351-b2294f5f5f70","system_id":"levelo_inurba_marseille","lat":43.304606,"lon":5.379026,"is_reserved":false,"is_disabled":false,"rental_uris":{"android":"levelo://app?vid=f24eb116-a0cf-4a11-b351-b2294f5f5f70","ios":"levelo://app?vid=f24eb116-a0cf-4a11-b351-b2294f5f5f70"},"vehicle_type_id":"4","last_reported":1721480920,"current_range_meters":30800,"station_id":"ce4bgup2rcd13ifvqcn0","pricing_plan_id":"cebpf4jnsgd1na2vs0mg"},{"bike_id":"3d091401-a528-4266-8641-386b24f9f872","system_id":"levelo_inurba_marseille","lat":43.324771,"lon":5.36557,"is_reserved":false,"is_disabled":false,"rental_uris":{"android":"levelo://app?vid=3d091401-a528-4266-8641-386b24f9f872","ios":"levelo://app?vid=3d091401-a528-4266-8641-386b24f9f872"},"vehicle_type_id":"4","last_reported":1721480920,"current_range_meters":6800,"station_id":"ce4bhs12rcd13ifvqhvg","pricing_plan_id":"cebpf4jnsgd1na2vs0mg"},{"bike_id":"ef2a7c06-0d04-4856-a92e-0158053453e2","system_id":"levelo_inurba_marseille","lat":43.324771,"lon":5.36557,"is_reserved":false,"is_disabled":false,"rental_uris":{"android":"levelo://app?vid=ef2a7c06-0d04-4856-a92e-0158053453e2","ios":"levelo://app?vid=ef2a7c06-0d04-4856-a92e-0158053453e2"},"vehicle_type_id":"4","last_reported":1721480920,"current_range_meters":18400,"station_id":"ce4bhs12rcd13ifvqhvg","pricing_plan_id":"cebpf4jnsgd1na2vs0mg"},{"bike_id":"d578df09-2f93-4597-a29d-698f83419afd","system_id":"levelo_inurba_marseille","lat":43.324771,"lon":5.36557,"is_reserved":false,"is_disabled":false,"rental_uris":{"android":"levelo://app?vid=d578df09-2f93-4597-a29d-698f83419afd","ios":"levelo://app?vid=d578df09-2f93-4597-a29d-698f83419afd"},"vehicle_type_id":"4","last_reported":1721480920,"current_range_meters":9600,"station_id":"ce4bhs12rcd13ifvqhvg","pricing_plan_id":"cebpf4jnsgd1na2vs0mg"},{"bike_id":"e5254798-6f19-4671-8f13-966dbb8e7968","system_id":"levelo_inurba_marseille","lat":43.324771,"lon":5.36557,"is_reserved":false,"is_disabled":false,"rental_uris":{"android":"levelo://app?vid=e5254798-6f19-4671-8f13-966dbb8e7968","ios":"levelo://app?vid=e5254798-6f19-4671-8f13-966dbb8e7968"},"vehicle_type_id":"4","last_reported":1721480920,"current_range_meters":31200,"station_id":"ce4bhs12rcd13ifvqhvg","pricing_plan_id":"cebpf4jnsgd1na2vs0mg"},{"bike_id":"49c9174c-e04b-4e00-9848-b6d035396dd2","system_id":"levelo_inurba_marseille","lat":43.324808,"lon":5.365779,"is_reserved":false,"is_disabled":false,"rental_uris":{"android":"levelo://app?vid=49c9174c-e04b-4e00-9848-b6d035396dd2","ios":"levelo://app?vid=49c9174c-e04b-4e00-9848-b6d035396dd2"},"vehicle_type_id":"4","last_reported":1721480920,"current_range_meters":18400,"station_id":"ce4bhs12rcd13ifvqhvg","pricing_plan_id":"cebpf4jnsgd1na2vs0mg"},{"bike_id":"2d81d620-1af8-42ab-b48f-4efcd125a6d0","system_id":"levelo_inurba_marseille","lat":43.324771,"lon":5.36557,"is_reserved":false,"is_disabled":false,"rental_uris":{"android":"levelo://app?vid=2d81d620-1af8-42ab-b48f-4efcd125a6d0","ios":"levelo://app?vid=2d81d620-1af8-42ab-b48f-4efcd125a6d0"},"vehicle_type_id":"4","last_reported":1721480920,"current_range_meters":31200,"station_id":"ce4bhs12rcd13ifvqhvg","pricing_plan_id":"cebpf4jnsgd1na2vs0mg"},{"bike_id":"83ed33c1-20a8-4446-87a0-42d1d31f47c9","system_id":"levelo_inurba_marseille","lat":43.32483,"lon":5.365775,"is_reserved":false,"is_disabled":false,"rental_uris":{"android":"levelo://app?vid=83ed33c1-20a8-4446-87a0-42d1d31f47c9","ios":"levelo://app?vid=83ed33c1-20a8-4446-87a0-42d1d31f47c9"},"vehicle_type_id":"4","last_reported":1721480920,"current_range_meters":13600,"station_id":"ce4bhs12rcd13ifvqhvg","pricing_plan_id":"cebpf4jnsgd1na2vs0mg"},{"bike_id":"da305b50-b468-4c5f-9a2f-d493538e0f6d","system_id":"levelo_inurba_marseille","lat":43.324771,"lon":5.36557,"is_reserved":false,"is_disabled":false,"rental_uris":{"android":"levelo://app?vid=da305b50-b468-4c5f-9a2f-d493538e0f6d","ios":"levelo://app?vid=da305b50-b468-4c5f-9a2f-d493538e0f6d"},"vehicle_type_id":"4","last_reported":1721480920,"current_range_meters":4800,"station_id":"ce4bhs12rcd13ifvqhvg","pricing_plan_id":"cebpf4jnsgd1na2vs0mg"},{"bike_id":"748566fa-8ca2-49fe-ad78-0356bbb18297","system_id":"levelo_inurba_marseille","lat":43.324771,"lon":5.36557,"is_reserved":false,"is_disabled":false,"rental_uris":{"android":"levelo://app?vid=748566fa-8ca2-49fe-ad78-0356bbb18297","ios":"levelo://app?vid=748566fa-8ca2-49fe-ad78-0356bbb18297"},"vehicle_type_id":"4","last_reported":1721480920,"current_range_meters":31200,"station_id":"ce4bhs12rcd13ifvqhvg","pricing_plan_id":"cebpf4jnsgd1na2vs0mg"},{"bike_id":"2baca4ef-0d69-4564-91f0-6aa88a9ace5b","system_id":"levelo_inurba_marseille","lat":43.324854,"lon":5.365738,"is_reserved":false,"is_disabled":false,"rental_uris":{"android":"levelo://app?vid=2baca4ef-0d69-4564-91f0-6aa88a9ace5b","ios":"levelo://app?vid=2baca4ef-0d69-4564-91f0-6aa88a9ace5b"},"vehicle_type_id":"4","last_reported":1721480920,"current_range_meters":11600,"station_id":"ce4bhs12rcd13ifvqhvg","pricing_plan_id":"cebpf4jnsgd1na2vs0mg"},{"bike_id":"951bc901-c238-42d4-aac0-3c805623be77","system_id":"levelo_inurba_marseille","lat":43.324852,"lon":5.365634,"is_reserved":false,"is_disabled":false,"rental_uris":{"android":"levelo://app?vid=951bc901-c238-42d4-aac0-3c805623be77","ios":"levelo://app?vid=951bc901-c238-42d4-aac0-3c805623be77"},"vehicle_type_id":"4","last_reported":1721480920,"current_range_meters":28800,"station_id":"ce4bhs12rcd13ifvqhvg","pricing_plan_id":"cebpf4jnsgd1na2vs0mg"},{"bike_id":"58c2518d-7bfb-4ae4-a6b8-a96830f1b9da","system_id":"levelo_inurba_marseille","lat":43.324771,"lon":5.36557,"is_reserved":false,"is_disabled":false,"rental_uris":{"android":"levelo://app?vid=58c2518d-7bfb-4ae4-a6b8-a96830f1b9da","ios":"levelo://app?vid=58c2518d-7bfb-4ae4-a6b8-a96830f1b9da"},"vehicle_type_id":"4","last_reported":1721480920,"current_range_meters":31200,"station_id":"ce4bhs12rcd13ifvqhvg","pricing_plan_id":"cebpf4jnsgd1na2vs0mg"},{"bike_id":"bb57fd1e-5c22-4a46-983d-4097d95f4007","system_id":"levelo_inurba_marseille","lat":43.32491,"lon":5.36576,"is_reserved":false,"is_disabled":false,"rental_uris":{"android":"levelo://app?vid=bb57fd1e-5c22-4a46-983d-4097d95f4007","ios":"levelo://app?vid=bb57fd1e-5c22-4a46-983d-4097d95f4007"},"vehicle_type_id":"4","last_reported":1721480920,"current_range_meters":5200,"station_id":"ce4bhs12rcd13ifvqhvg","pricing_plan_id":"cebpf4jnsgd1na2vs0mg"},{"bike_id":"83dccb8d-d970-4f42-97e9-2498eccb6b90","system_id":"levelo_inurba_marseille","lat":43.310804,"lon":5.38359,"is_reserved":false,"is_disabled":false,"rental_uris":{"android":"levelo://app?vid=83dccb8d-d970-4f42-97e9-2498eccb6b90","ios":"levelo://app?vid=83dccb8d-d970-4f42-97e9-2498eccb6b90"},"vehicle_type_id":"4","last_reported":1721480920,"current_range_meters":29600,"station_id":"ce4bgv92rcd13ifvqcr0","pricing_plan_id":"cebpf4jnsgd1na2vs0mg"},{"bike_id":"98ce5775-679e-47a0-aec5-138b0a53c41d","system_id":"levelo_inurba_marseille","lat":43.302784,"lon":5.377158,"is_reserved":false,"is_disabled":false,"rental_uris":{"android":"levelo://app?vid=98ce5775-679e-47a0-aec5-138b0a53c41d","ios":"levelo://app?vid=98ce5775-679e-47a0-aec5-138b0a53c41d"},"vehicle_type_id":"4","last_reported":1721480920,"current_range_meters":31200,"station_id":"ce4bguh2rcd13ifvqcj0","pricing_plan_id":"cebpf4jnsgd1na2vs0mg"},{"bike_id":"8438e451-905c-420d-90e5-bc7dd51b9f60","system_id":"levelo_inurba_marseille","lat":43.302784,"lon":5.377158,"is_reserved":false,"is_disabled":false,"rental_uris":{"android":"levelo://app?vid=8438e451-905c-420d-90e5-bc7dd51b9f60","ios":"levelo://app?vid=8438e451-905c-420d-90e5-bc7dd51b9f60"},"vehicle_type_id":"4","last_reported":1721480920,"current_range_meters":16800,"station_id":"ce4bguh2rcd13ifvqcj0","pricing_plan_id":"cebpf4jnsgd1na2vs0mg"},{"bike_id":"f0069ed2-82af-4955-8642-ed1ca9ad686c","system_id":"levelo_inurba_marseille","lat":43.313571,"lon":5.384829,"is_reserved":false,"is_disabled":false,"rental_uris":{"android":"levelo://app?vid=f0069ed2-82af-4955-8642-ed1ca9ad686c","ios":"levelo://app?vid=f0069ed2-82af-4955-8642-ed1ca9ad686c"},"vehicle_type_id":"4","last_reported":1721480920,"current_range_meters":0,"station_id":"ce4bgt92rcd13ifvqcf0","pricing_plan_id":"cebpf4jnsgd1na2vs0mg"},{"bike_id":"8e763603-b710-4c5a-a26e-6502f139826b","system_id":"levelo_inurba_marseille","lat":43.299222,"lon":5.365554,"is_reserved":false,"is_disabled":false,"rental_uris":{"android":"levelo://app?vid=8e763603-b710-4c5a-a26e-6502f139826b","ios":"levelo://app?vid=8e763603-b710-4c5a-a26e-6502f139826b"},"vehicle_type_id":"4","last_reported":1721480920,"current_range_meters":14800,"station_id":"ce4bgm92rcd13ifvqbr0","pricing_plan_id":"cebpf4jnsgd1na2vs0mg"},{"bike_id":"b9dd487e-978b-4d43-978d-fb84c0914d7b","system_id":"levelo_inurba_marseille","lat":43.298433,"lon":5.362774,"is_reserved":false,"is_disabled":false,"rental_uris":{"android":"levelo://app?vid=b9dd487e-978b-4d43-978d-fb84c0914d7b","ios":"levelo://app?vid=b9dd487e-978b-4d43-978d-fb84c0914d7b"},"vehicle_type_id":"4","last_reported":1721480920,"current_range_meters":28000,"station_id":"ce4bgpp2rcd13ifvqc3g","pricing_plan_id":"cebpf4jnsgd1na2vs0mg"},{"bike_id":"b1cc3810-cfc0-4e7e-ab0a-2fcf8745e7d5","system_id":"levelo_inurba_marseille","lat":43.305364,"lon":5.384119,"is_reserved":false,"is_disabled":false,"rental_uris":{"android":"levelo://app?vid=b1cc3810-cfc0-4e7e-ab0a-2fcf8745e7d5","ios":"levelo://app?vid=b1cc3810-cfc0-4e7e-ab0a-2fcf8745e7d5"},"vehicle_type_id":"4","last_reported":1721480920,"current_range_meters":4000,"station_id":"ce4bgg92rcd13ifvqb30","pricing_plan_id":"cebpf4jnsgd1na2vs0mg"},{"bike_id":"c346bf55-8751-43bc-b1fd-c41053db3c9d","system_id":"levelo_inurba_marseille","lat":43.298433,"lon":5.362774,"is_reserved":false,"is_disabled":false,"rental_uris":{"android":"levelo://app?vid=c346bf55-8751-43bc-b1fd-c41053db3c9d","ios":"levelo://app?vid=c346bf55-8751-43bc-b1fd-c41053db3c9d"},"vehicle_type_id":"4","last_reported":1721480920,"current_range_meters":30400,"station_id":"ce4bgpp2rcd13ifvqc3g","pricing_plan_id":"cebpf4jnsgd1na2vs0mg"},{"bike_id":"0327a15d-0c1d-4309-8f3b-b0f7940af96c","system_id":"levelo_inurba_marseille","lat":43.299243,"lon":5.374807,"is_reserved":false,"is_disabled":false,"rental_uris":{"android":"levelo://app?vid=0327a15d-0c1d-4309-8f3b-b0f7940af96c","ios":"levelo://app?vid=0327a15d-0c1d-4309-8f3b-b0f7940af96c"},"vehicle_type_id":"4","last_reported":1721480920,"current_range_meters":13600,"station_id":"ce4bgjh2rcd13ifvqbg0","pricing_plan_id":"cebpf4jnsgd1na2vs0mg"},{"bike_id":"98df2b3a-1848-4b5f-91ba-589d31a0bdb8","system_id":"levelo_inurba_marseille","lat":43.299243,"lon":5.374807,"is_reserved":false,"is_disabled":false,"rental_uris":{"android":"levelo://app?vid=98df2b3a-1848-4b5f-91ba-589d31a0bdb8","ios":"levelo://app?vid=98df2b3a-1848-4b5f-91ba-589d31a0bdb8"},"vehicle_type_id":"4","last_reported":1721480920,"current_range_meters":28400,"station_id":"ce4bgjh2rcd13ifvqbg0","pricing_plan_id":"cebpf4jnsgd1na2vs0mg"},{"bike_id":"349409be-6698-424f-afaa-70684925abdf","system_id":"levelo_inurba_marseille","lat":43.30157,"lon":5.38023,"is_reserved":false,"is_disabled":false,"rental_uris":{"android":"levelo://app?vid=349409be-6698-424f-afaa-70684925abdf","ios":"levelo://app?vid=349409be-6698-424f-afaa-70684925abdf"},"vehicle_type_id":"4","last_reported":1721480920,"current_range_meters":5200,"station_id":"","pricing_plan_id":"cebpf4jnsgd1na2vs0mg"},{"bike_id":"b3e3c66a-abc7-4671-b8d7-7c4a83aabb3b","system_id":"levelo_inurba_marseille","lat":43.29905,"lon":5.375,"is_reserved":false,"is_disabled":false,"rental_uris":{"android":"levelo://app?vid=b3e3c66a-abc7-4671-b8d7-7c4a83aabb3b","ios":"levelo://app?vid=b3e3c66a-abc7-4671-b8d7-7c4a83aabb3b"},"vehicle_type_id":"4","last_reported":1721480920,"current_range_meters":26800,"station_id":"","pricing_plan_id":"cebpf4jnsgd1na2vs0mg"},{"bike_id":"258b7451-5e6c-4a6e-ac0a-b682adcbafb6","system_id":"levelo_inurba_marseille","lat":43.322872,"lon":5.382756,"is_reserved":false,"is_disabled":false,"rental_uris":{"android":"levelo://app?vid=258b7451-5e6c-4a6e-ac0a-b682adcbafb6","ios":"levelo://app?vid=258b7451-5e6c-4a6e-ac0a-b682adcbafb6"},"vehicle_type_id":"4","last_reported":1721480920,"current_range_meters":0,"station_id":"ce4bhr12rcd13ifvqhqg","pricing_plan_id":"cebpf4jnsgd1na2vs0mg"},{"bike_id":"edb03931-eb7c-4340-8abc-3b6abacdc23e","system_id":"levelo_inurba_marseille","lat":43.322872,"lon":5.382756,"is_reserved":false,"is_disabled":false,"rental_uris":{"android":"levelo://app?vid=edb03931-eb7c-4340-8abc-3b6abacdc23e","ios":"levelo://app?vid=edb03931-eb7c-4340-8abc-3b6abacdc23e"},"vehicle_type_id":"4","last_reported":1721480920,"current_range_meters":30000,"station_id":"ce4bhr12rcd13ifvqhqg","pricing_plan_id":"cebpf4jnsgd1na2vs0mg"},{"bike_id":"05bdae84-1067-465f-ae1f-1f8e13b8e143","system_id":"levelo_inurba_marseille","lat":43.32905,"lon":5.36705,"is_reserved":false,"is_disabled":false,"rental_uris":{"android":"levelo://app?vid=05bdae84-1067-465f-ae1f-1f8e13b8e143","ios":"levelo://app?vid=05bdae84-1067-465f-ae1f-1f8e13b8e143"},"vehicle_type_id":"4","last_reported":1721480920,"current_range_meters":3600,"station_id":"","pricing_plan_id":"cebpf4jnsgd1na2vs0mg"},{"bike_id":"e1ef1435-9f13-42fa-84d5-fcda60633d3c","system_id":"levelo_inurba_marseille","lat":43.2968,"lon":5.37291,"is_reserved":false,"is_disabled":false,"rental_uris":{"android":"levelo://app?vid=e1ef1435-9f13-42fa-84d5-fcda60633d3c","ios":"levelo://app?vid=e1ef1435-9f13-42fa-84d5-fcda60633d3c"},"vehicle_type_id":"4","last_reported":1721480920,"current_range_meters":12800,"station_id":"ce4bgk12rcd13ifvqbj0","pricing_plan_id":"cebpf4jnsgd1na2vs0mg"},{"bike_id":"23b53b45-8738-4503-9d89-edd2bb1678e2","system_id":"levelo_inurba_marseille","lat":43.2968,"lon":5.37291,"is_reserved":false,"is_disabled":false,"rental_uris":{"android":"levelo://app?vid=23b53b45-8738-4503-9d89-edd2bb1678e2","ios":"levelo://app?vid=23b53b45-8738-4503-9d89-edd2bb1678e2"},"vehicle_type_id":"4","last_reported":1721480920,"current_range_meters":31200,"station_id":"ce4bgk12rcd13ifvqbj0","pricing_plan_id":"cebpf4jnsgd1na2vs0mg"},{"bike_id":"e128ce27-9544-422d-9242-1dcd847f159f","system_id":"levelo_inurba_marseille","lat":43.29623,"lon":5.37161,"is_reserved":false,"is_disabled":false,"rental_uris":{"android":"levelo://app?vid=e128ce27-9544-422d-9242-1dcd847f159f","ios":"levelo://app?vid=e128ce27-9544-422d-9242-1dcd847f159f"},"vehicle_type_id":"4","last_reported":1721480920,"current_range_meters":14000,"station_id":"ce4bgnh2rcd13ifvqc0g","pricing_plan_id":"cebpf4jnsgd1na2vs0mg"},{"bike_id":"1acdacd2-5ffc-4df4-b4f6-9473cf58fd95","system_id":"levelo_inurba_marseille","lat":43.296935,"lon":5.376544,"is_reserved":false,"is_disabled":false,"rental_uris":{"android":"levelo://app?vid=1acdacd2-5ffc-4df4-b4f6-9473cf58fd95","ios":"levelo://app?vid=1acdacd2-5ffc-4df4-b4f6-9473cf58fd95"},"vehicle_type_id":"4","last_reported":1721480920,"current_range_meters":28800,"station_id":"ce4bgkh2rcd13ifvqbl0","pricing_plan_id":"cebpf4jnsgd1na2vs0mg"},{"bike_id":"39d00686-f942-4b33-988b-4dc4c3a9d96c","system_id":"levelo_inurba_marseille","lat":43.299028,"lon":5.381509,"is_reserved":false,"is_disabled":false,"rental_uris":{"android":"levelo://app?vid=39d00686-f942-4b33-988b-4dc4c3a9d96c","ios":"levelo://app?vid=39d00686-f942-4b33-988b-4dc4c3a9d96c"},"vehicle_type_id":"4","last_reported":1721480920,"current_range_meters":12000,"station_id":"ce4bgj12rcd13ifvqbc0","pricing_plan_id":"cebpf4jnsgd1na2vs0mg"},{"bike_id":"7a95bd05-dce1-431e-9375-b9c0bed05789","system_id":"levelo_inurba_marseille","lat":43.299028,"lon":5.381509,"is_reserved":false,"is_disabled":false,"rental_uris":{"android":"levelo://app?vid=7a95bd05-dce1-431e-9375-b9c0bed05789","ios":"levelo://app?vid=7a95bd05-dce1-431e-9375-b9c0bed05789"},"vehicle_type_id":"4","last_reported":1721480920,"current_range_meters":8800,"station_id":"ce4bgj12rcd13ifvqbc0","pricing_plan_id":"cebpf4jnsgd1na2vs0mg"},{"bike_id":"7481c064-b614-4e4e-9883-66343015b494","system_id":"levelo_inurba_marseille","lat":43.309589,"lon":5.390258,"is_reserved":false,"is_disabled":false,"rental_uris":{"android":"levelo://app?vid=7481c064-b614-4e4e-9883-66343015b494","ios":"levelo://app?vid=7481c064-b614-4e4e-9883-66343015b494"},"vehicle_type_id":"4","last_reported":1721480920,"current_range_meters":30800,"station_id":"ce4bgup2rcd13ifvqco0","pricing_plan_id":"cebpf4jnsgd1na2vs0mg"},{"bike_id":"40dc1d63-7f4c-4a95-85e9-2eb4bc66dd1a","system_id":"levelo_inurba_marseille","lat":43.309589,"lon":5.390258,"is_reserved":false,"is_disabled":false,"rental_uris":{"android":"levelo://app?vid=40dc1d63-7f4c-4a95-85e9-2eb4bc66dd1a","ios":"levelo://app?vid=40dc1d63-7f4c-4a95-85e9-2eb4bc66dd1a"},"vehicle_type_id":"4","last_reported":1721480920,"current_range_meters":30400,"station_id":"ce4bgup2rcd13ifvqco0","pricing_plan_id":"cebpf4jnsgd1na2vs0mg"},{"bike_id":"decd2eeb-6798-41c8-a282-e2ff1fd5b8d2","system_id":"levelo_inurba_marseille","lat":43.317557,"lon":5.390173,"is_reserved":false,"is_disabled":false,"rental_uris":{"android":"levelo://app?vid=decd2eeb-6798-41c8-a282-e2ff1fd5b8d2","ios":"levelo://app?vid=decd2eeb-6798-41c8-a282-e2ff1fd5b8d2"},"vehicle_type_id":"4","last_reported":1721480920,"current_range_meters":5200,"station_id":"ce4bhqp2rcd13ifvqhng","pricing_plan_id":"cebpf4jnsgd1na2vs0mg"},{"bike_id":"7b64f206-2de9-418e-9cd2-c1e513900ad1","system_id":"levelo_inurba_marseille","lat":43.295748,"lon":5.37522,"is_reserved":false,"is_disabled":false,"rental_uris":{"android":"levelo://app?vid=7b64f206-2de9-418e-9cd2-c1e513900ad1","ios":"levelo://app?vid=7b64f206-2de9-418e-9cd2-c1e513900ad1"},"vehicle_type_id":"4","last_reported":1721480920,"current_range_meters":5600,"station_id":"ce4bgh92rcd13ifvqb50","pricing_plan_id":"cebpf4jnsgd1na2vs0mg"},{"bike_id":"f8e84690-e4a5-43b0-b671-7ec872d068dd","system_id":"levelo_inurba_marseille","lat":43.304274,"lon":5.388873,"is_reserved":false,"is_disabled":false,"rental_uris":{"android":"levelo://app?vid=f8e84690-e4a5-43b0-b671-7ec872d068dd","ios":"levelo://app?vid=f8e84690-e4a5-43b0-b671-7ec872d068dd"},"vehicle_type_id":"4","last_reported":1721480920,"current_range_meters":28800,"station_id":"ce4bgk12rcd13ifvqbi0","pricing_plan_id":"cebpf4jnsgd1na2vs0mg"},{"bike_id":"c36c136f-bc29-46ba-829a-d2fb073760cd","system_id":"levelo_inurba_marseille","lat":43.298037,"lon":5.381066,"is_reserved":false,"is_disabled":false,"rental_uris":{"android":"levelo://app?vid=c36c136f-bc29-46ba-829a-d2fb073760cd","ios":"levelo://app?vid=c36c136f-bc29-46ba-829a-d2fb073760cd"},"vehicle_type_id":"4","last_reported":1721480920,"current_range_meters":21200,"station_id":"ce4bgip2rcd13ifvqbb0","pricing_plan_id":"cebpf4jnsgd1na2vs0mg"},{"bike_id":"4afdc862-16bc-4670-ac8a-f28ad6b0af01","system_id":"levelo_inurba_marseille","lat":43.303897,"lon":5.389194,"is_reserved":false,"is_disabled":false,"rental_uris":{"android":"levelo://app?vid=4afdc862-16bc-4670-ac8a-f28ad6b0af01","ios":"levelo://app?vid=4afdc862-16bc-4670-ac8a-f28ad6b0af01"},"vehicle_type_id":"4","last_reported":1721480920,"current_range_meters":17600,"station_id":"","pricing_plan_id":"cebpf4jnsgd1na2vs0mg"},{"bike_id":"5e9f16d0-40d6-40f9-8ce2-a64df72bda26","system_id":"levelo_inurba_marseille","lat":43.299724,"lon":5.384848,"is_reserved":false,"is_disabled":false,"rental_uris":{"android":"levelo://app?vid=5e9f16d0-40d6-40f9-8ce2-a64df72bda26","ios":"levelo://app?vid=5e9f16d0-40d6-40f9-8ce2-a64df72bda26"},"vehicle_type_id":"4","last_reported":1721480920,"current_range_meters":800,"station_id":"ce4bgj92rcd13ifvqbd0","pricing_plan_id":"cebpf4jnsgd1na2vs0mg"},{"bike_id":"18491e9b-089a-423d-92a6-2224fb4ac1cb","system_id":"levelo_inurba_marseille","lat":43.30473,"lon":5.39011,"is_reserved":false,"is_disabled":false,"rental_uris":{"android":"levelo://app?vid=18491e9b-089a-423d-92a6-2224fb4ac1cb","ios":"levelo://app?vid=18491e9b-089a-423d-92a6-2224fb4ac1cb"},"vehicle_type_id":"4","last_reported":1721480920,"current_range_meters":3600,"station_id":"","pricing_plan_id":"cebpf4jnsgd1na2vs0mg"},{"bike_id":"7617a163-39de-4f93-a594-50793267691f","system_id":"levelo_inurba_marseille","lat":43.301396,"lon":5.387812,"is_reserved":false,"is_disabled":false,"rental_uris":{"android":"levelo://app?vid=7617a163-39de-4f93-a594-50793267691f","ios":"levelo://app?vid=7617a163-39de-4f93-a594-50793267691f"},"vehicle_type_id":"4","last_reported":1721480920,"current_range_meters":3600,"station_id":"ce4bghh2rcd13ifvqb60","pricing_plan_id":"cebpf4jnsgd1na2vs0mg"},{"bike_id":"52f2fdab-d346-471e-810b-a1a7d51c095f","system_id":"levelo_inurba_marseille","lat":43.31542,"lon":5.39279,"is_reserved":false,"is_disabled":false,"rental_uris":{"android":"levelo://app?vid=52f2fdab-d346-471e-810b-a1a7d51c095f","ios":"levelo://app?vid=52f2fdab-d346-471e-810b-a1a7d51c095f"},"vehicle_type_id":"4","last_reported":1721480920,"current_range_meters":30800,"station_id":"","pricing_plan_id":"cebpf4jnsgd1na2vs0mg"},{"bike_id":"1f783074-f2f8-4bea-b8a4-1b17d1555df1","system_id":"levelo_inurba_marseille","lat":43.32367,"lon":5.388836,"is_reserved":false,"is_disabled":false,"rental_uris":{"android":"levelo://app?vid=1f783074-f2f8-4bea-b8a4-1b17d1555df1","ios":"levelo://app?vid=1f783074-f2f8-4bea-b8a4-1b17d1555df1"},"vehicle_type_id":"4","last_reported":1721480920,"current_range_meters":23600,"station_id":"ce4bhqp2rcd13ifvqhog","pricing_plan_id":"cebpf4jnsgd1na2vs0mg"},{"bike_id":"137fd123-4b28-4282-ae16-cb498667c31f","system_id":"levelo_inurba_marseille","lat":43.29602,"lon":5.381084,"is_reserved":false,"is_disabled":false,"rental_uris":{"android":"levelo://app?vid=137fd123-4b28-4282-ae16-cb498667c31f","ios":"levelo://app?vid=137fd123-4b28-4282-ae16-cb498667c31f"},"vehicle_type_id":"4","last_reported":1721480920,"current_range_meters":10000,"station_id":"ce4bgl12rcd13ifvqbo0","pricing_plan_id":"cebpf4jnsgd1na2vs0mg"},{"bike_id":"768383ec-6538-46ed-9371-c9d5771e66e7","system_id":"levelo_inurba_marseille","lat":43.29602,"lon":5.381084,"is_reserved":false,"is_disabled":false,"rental_uris":{"android":"levelo://app?vid=768383ec-6538-46ed-9371-c9d5771e66e7","ios":"levelo://app?vid=768383ec-6538-46ed-9371-c9d5771e66e7"},"vehicle_type_id":"4","last_reported":1721480920,"current_range_meters":5200,"station_id":"ce4bgl12rcd13ifvqbo0","pricing_plan_id":"cebpf4jnsgd1na2vs0mg"},{"bike_id":"89d4a4e5-2e91-4756-b909-2a725426f938","system_id":"levelo_inurba_marseille","lat":43.29602,"lon":5.381084,"is_reserved":false,"is_disabled":false,"rental_uris":{"android":"levelo://app?vid=89d4a4e5-2e91-4756-b909-2a725426f938","ios":"levelo://app?vid=89d4a4e5-2e91-4756-b909-2a725426f938"},"vehicle_type_id":"4","last_reported":1721480920,"current_range_meters":12000,"station_id":"ce4bgl12rcd13ifvqbo0","pricing_plan_id":"cebpf4jnsgd1na2vs0mg"},{"bike_id":"c140149d-f274-4741-8df0-f1f339d954d8","system_id":"levelo_inurba_marseille","lat":43.293259,"lon":5.371586,"is_reserved":false,"is_disabled":false,"rental_uris":{"android":"levelo://app?vid=c140149d-f274-4741-8df0-f1f339d954d8","ios":"levelo://app?vid=c140149d-f274-4741-8df0-f1f339d954d8"},"vehicle_type_id":"4","last_reported":1721480920,"current_range_meters":19200,"station_id":"ce4bgh92rcd13ifvqb40","pricing_plan_id":"cebpf4jnsgd1na2vs0mg"},{"bike_id":"a220229b-0e7d-4427-88cf-11a96248d59c","system_id":"levelo_inurba_marseille","lat":43.292749,"lon":5.368402,"is_reserved":false,"is_disabled":false,"rental_uris":{"android":"levelo://app?vid=a220229b-0e7d-4427-88cf-11a96248d59c","ios":"levelo://app?vid=a220229b-0e7d-4427-88cf-11a96248d59c"},"vehicle_type_id":"4","last_reported":1721480920,"current_range_meters":30800,"station_id":"ce4bhbp2rcd13ifvqesg","pricing_plan_id":"cebpf4jnsgd1na2vs0mg"},{"bike_id":"2bb6f90a-bf1e-486b-8751-7df49e5f89de","system_id":"levelo_inurba_marseille","lat":43.332885,"lon":5.362738,"is_reserved":false,"is_disabled":false,"rental_uris":{"android":"levelo://app?vid=2bb6f90a-bf1e-486b-8751-7df49e5f89de","ios":"levelo://app?vid=2bb6f90a-bf1e-486b-8751-7df49e5f89de"},"vehicle_type_id":"4","last_reported":1721480920,"current_range_meters":8400,"station_id":"","pricing_plan_id":"cebpf4jnsgd1na2vs0mg"},{"bike_id":"6db1204f-332e-431c-9a28-3b013e1de22d","system_id":"levelo_inurba_marseille","lat":43.30601,"lon":5.39355,"is_reserved":false,"is_disabled":false,"rental_uris":{"android":"levelo://app?vid=6db1204f-332e-431c-9a28-3b013e1de22d","ios":"levelo://app?vid=6db1204f-332e-431c-9a28-3b013e1de22d"},"vehicle_type_id":"4","last_reported":1721480920,"current_range_meters":24000,"station_id":"ce4bh0p2rcd13ifvqd80","pricing_plan_id":"cebpf4jnsgd1na2vs0mg"},{"bike_id":"f5053959-7404-4f63-ae88-f315dd89a893","system_id":"levelo_inurba_marseille","lat":43.2936,"lon":5.37835,"is_reserved":false,"is_disabled":false,"rental_uris":{"android":"levelo://app?vid=f5053959-7404-4f63-ae88-f315dd89a893","ios":"levelo://app?vid=f5053959-7404-4f63-ae88-f315dd89a893"},"vehicle_type_id":"4","last_reported":1721480920,"current_range_meters":10400,"station_id":"ce4bgjh2rcd13ifvqbf0","pricing_plan_id":"cebpf4jnsgd1na2vs0mg"},{"bike_id":"f854829f-119e-4e05-94f6-0bbf22928979","system_id":"levelo_inurba_marseille","lat":43.292311,"lon":5.360731,"is_reserved":false,"is_disabled":false,"rental_uris":{"android":"levelo://app?vid=f854829f-119e-4e05-94f6-0bbf22928979","ios":"levelo://app?vid=f854829f-119e-4e05-94f6-0bbf22928979"},"vehicle_type_id":"4","last_reported":1721480920,"current_range_meters":31200,"station_id":"ce4bhbh2rcd13ifvqeqg","pricing_plan_id":"cebpf4jnsgd1na2vs0mg"},{"bike_id":"85904bbd-5c45-4bf8-b522-004f40acda93","system_id":"levelo_inurba_marseille","lat":43.292311,"lon":5.360731,"is_reserved":false,"is_disabled":false,"rental_uris":{"android":"levelo://app?vid=85904bbd-5c45-4bf8-b522-004f40acda93","ios":"levelo://app?vid=85904bbd-5c45-4bf8-b522-004f40acda93"},"vehicle_type_id":"4","last_reported":1721480920,"current_range_meters":10400,"station_id":"ce4bhbh2rcd13ifvqeqg","pricing_plan_id":"cebpf4jnsgd1na2vs0mg"},{"bike_id":"2442f040-e1ca-40f7-9c87-54028d3f42cb","system_id":"levelo_inurba_marseille","lat":43.291751,"lon":5.371948,"is_reserved":false,"is_disabled":false,"rental_uris":{"android":"levelo://app?vid=2442f040-e1ca-40f7-9c87-54028d3f42cb","ios":"levelo://app?vid=2442f040-e1ca-40f7-9c87-54028d3f42cb"},"vehicle_type_id":"4","last_reported":1721480920,"current_range_meters":12400,"station_id":"ce4bha92rcd13ifvqeh0","pricing_plan_id":"cebpf4jnsgd1na2vs0mg"},{"bike_id":"7db62f9c-cc2f-4d40-8457-c2bff796d440","system_id":"levelo_inurba_marseille","lat":43.291671,"lon":5.371575,"is_reserved":false,"is_disabled":false,"rental_uris":{"android":"levelo://app?vid=7db62f9c-cc2f-4d40-8457-c2bff796d440","ios":"levelo://app?vid=7db62f9c-cc2f-4d40-8457-c2bff796d440"},"vehicle_type_id":"4","last_reported":1721480920,"current_range_meters":14000,"station_id":"ce4bha92rcd13ifvqeh0","pricing_plan_id":"cebpf4jnsgd1na2vs0mg"},{"bike_id":"fc4c97bb-e305-4800-9768-dbf2766c2ae5","system_id":"levelo_inurba_marseille","lat":43.291994,"lon":5.357886,"is_reserved":false,"is_disabled":false,"rental_uris":{"android":"levelo://app?vid=fc4c97bb-e305-4800-9768-dbf2766c2ae5","ios":"levelo://app?vid=fc4c97bb-e305-4800-9768-dbf2766c2ae5"},"vehicle_type_id":"4","last_reported":1721480920,"current_range_meters":0,"station_id":"ce4bhb12rcd13ifvqel0","pricing_plan_id":"cebpf4jnsgd1na2vs0mg"},{"bike_id":"3a0e2871-ac9e-4e72-9895-49fbcf44f8dc","system_id":"levelo_inurba_marseille","lat":43.309038,"lon":5.396546,"is_reserved":false,"is_disabled":false,"rental_uris":{"android":"levelo://app?vid=3a0e2871-ac9e-4e72-9895-49fbcf44f8dc","ios":"levelo://app?vid=3a0e2871-ac9e-4e72-9895-49fbcf44f8dc"},"vehicle_type_id":"4","last_reported":1721480920,"current_range_meters":3200,"station_id":"ce4bh012rcd13ifvqcv0","pricing_plan_id":"cebpf4jnsgd1na2vs0mg"},{"bike_id":"217424cb-084e-41ff-a57f-194585931cbf","system_id":"levelo_inurba_marseille","lat":43.309047,"lon":5.396551,"is_reserved":false,"is_disabled":false,"rental_uris":{"android":"levelo://app?vid=217424cb-084e-41ff-a57f-194585931cbf","ios":"levelo://app?vid=217424cb-084e-41ff-a57f-194585931cbf"},"vehicle_type_id":"4","last_reported":1721480920,"current_range_meters":4400,"station_id":"ce4bh012rcd13ifvqcv0","pricing_plan_id":"cebpf4jnsgd1na2vs0mg"},{"bike_id":"2dc4a9b0-8864-4b18-8ee9-0490c6247e1b","system_id":"levelo_inurba_marseille","lat":43.29969,"lon":5.3913,"is_reserved":false,"is_disabled":false,"rental_uris":{"android":"levelo://app?vid=2dc4a9b0-8864-4b18-8ee9-0490c6247e1b","ios":"levelo://app?vid=2dc4a9b0-8864-4b18-8ee9-0490c6247e1b"},"vehicle_type_id":"4","last_reported":1721480920,"current_range_meters":18000,"station_id":"","pricing_plan_id":"cebpf4jnsgd1na2vs0mg"},{"bike_id":"dbce3027-f1b1-46a4-a3d3-fd7e93c1d4ba","system_id":"levelo_inurba_marseille","lat":43.332502,"lon":5.380468,"is_reserved":false,"is_disabled":false,"rental_uris":{"android":"levelo://app?vid=dbce3027-f1b1-46a4-a3d3-fd7e93c1d4ba","ios":"levelo://app?vid=dbce3027-f1b1-46a4-a3d3-fd7e93c1d4ba"},"vehicle_type_id":"4","last_reported":1721480920,"current_range_meters":0,"station_id":"","pricing_plan_id":"cebpf4jnsgd1na2vs0mg"},{"bike_id":"3527c12e-9ef6-4463-a903-372f572076c1","system_id":"levelo_inurba_marseille","lat":43.290779,"lon":5.371482,"is_reserved":false,"is_disabled":false,"rental_uris":{"android":"levelo://app?vid=3527c12e-9ef6-4463-a903-372f572076c1","ios":"levelo://app?vid=3527c12e-9ef6-4463-a903-372f572076c1"},"vehicle_type_id":"4","last_reported":1721480920,"current_range_meters":23600,"station_id":"ce4bh5p2rcd13ifvqe4g","pricing_plan_id":"cebpf4jnsgd1na2vs0mg"},{"bike_id":"2aed4293-d4c7-472c-92ae-12b71306264c","system_id":"levelo_inurba_marseille","lat":43.29209,"lon":5.38032,"is_reserved":false,"is_disabled":false,"rental_uris":{"android":"levelo://app?vid=2aed4293-d4c7-472c-92ae-12b71306264c","ios":"levelo://app?vid=2aed4293-d4c7-472c-92ae-12b71306264c"},"vehicle_type_id":"4","last_reported":1721480920,"current_range_meters":5600,"station_id":"","pricing_plan_id":"cebpf4jnsgd1na2vs0mg"},{"bike_id":"fa9f06a6-beac-4c8e-9503-49ee7ce4ea03","system_id":"levelo_inurba_marseille","lat":43.290631,"lon":5.359244,"is_reserved":false,"is_disabled":false,"rental_uris":{"android":"levelo://app?vid=fa9f06a6-beac-4c8e-9503-49ee7ce4ea03","ios":"levelo://app?vid=fa9f06a6-beac-4c8e-9503-49ee7ce4ea03"},"vehicle_type_id":"4","last_reported":1721480920,"current_range_meters":17200,"station_id":"ce4bha92rcd13ifvqeg0","pricing_plan_id":"cebpf4jnsgd1na2vs0mg"},{"bike_id":"f504a6cc-9b09-4e61-ba66-3c34654ba04d","system_id":"levelo_inurba_marseille","lat":43.29529,"lon":5.385581,"is_reserved":false,"is_disabled":false,"rental_uris":{"android":"levelo://app?vid=f504a6cc-9b09-4e61-ba66-3c34654ba04d","ios":"levelo://app?vid=f504a6cc-9b09-4e61-ba66-3c34654ba04d"},"vehicle_type_id":"4","last_reported":1721480920,"current_range_meters":23200,"station_id":"ce4bgih2rcd13ifvqba0","pricing_plan_id":"cebpf4jnsgd1na2vs0mg"},{"bike_id":"3d0df332-97a3-46a2-84fe-725387b50e02","system_id":"levelo_inurba_marseille","lat":43.290104,"lon":5.356111,"is_reserved":false,"is_disabled":false,"rental_uris":{"android":"levelo://app?vid=3d0df332-97a3-46a2-84fe-725387b50e02","ios":"levelo://app?vid=3d0df332-97a3-46a2-84fe-725387b50e02"},"vehicle_type_id":"4","last_reported":1721480920,"current_range_meters":0,"station_id":"ce4bhb92rcd13ifvqen0","pricing_plan_id":"cebpf4jnsgd1na2vs0mg"},{"bike_id":"f39005fc-d498-4683-9152-bd08a0f7466d","system_id":"levelo_inurba_marseille","lat":43.290104,"lon":5.356111,"is_reserved":false,"is_disabled":false,"rental_uris":{"android":"levelo://app?vid=f39005fc-d498-4683-9152-bd08a0f7466d","ios":"levelo://app?vid=f39005fc-d498-4683-9152-bd08a0f7466d"},"vehicle_type_id":"4","last_reported":1721480920,"current_range_meters":18800,"station_id":"ce4bhb92rcd13ifvqen0","pricing_plan_id":"cebpf4jnsgd1na2vs0mg"},{"bike_id":"2ea6b582-1312-4945-b971-ebe22f8347dd","system_id":"levelo_inurba_marseille","lat":43.29008,"lon":5.35619,"is_reserved":false,"is_disabled":false,"rental_uris":{"android":"levelo://app?vid=2ea6b582-1312-4945-b971-ebe22f8347dd","ios":"levelo://app?vid=2ea6b582-1312-4945-b971-ebe22f8347dd"},"vehicle_type_id":"4","last_reported":1721480920,"current_range_meters":26800,"station_id":"ce4bhb92rcd13ifvqen0","pricing_plan_id":"cebpf4jnsgd1na2vs0mg"},{"bike_id":"5a681d84-ed62-4903-95e6-164de1dbcb70","system_id":"levelo_inurba_marseille","lat":43.290104,"lon":5.356111,"is_reserved":false,"is_disabled":false,"rental_uris":{"android":"levelo://app?vid=5a681d84-ed62-4903-95e6-164de1dbcb70","ios":"levelo://app?vid=5a681d84-ed62-4903-95e6-164de1dbcb70"},"vehicle_type_id":"4","last_reported":1721480920,"current_range_meters":1200,"station_id":"ce4bhb92rcd13ifvqen0","pricing_plan_id":"cebpf4jnsgd1na2vs0mg"},{"bike_id":"762f1879-96e2-4586-8318-2fb6470cda40","system_id":"levelo_inurba_marseille","lat":43.29006,"lon":5.35617,"is_reserved":false,"is_disabled":false,"rental_uris":{"android":"levelo://app?vid=762f1879-96e2-4586-8318-2fb6470cda40","ios":"levelo://app?vid=762f1879-96e2-4586-8318-2fb6470cda40"},"vehicle_type_id":"4","last_reported":1721480920,"current_range_meters":0,"station_id":"ce4bhb92rcd13ifvqen0","pricing_plan_id":"cebpf4jnsgd1na2vs0mg"},{"bike_id":"8b8987c1-8a3f-4c55-8d9b-7530f89ec1a8","system_id":"levelo_inurba_marseille","lat":43.29006,"lon":5.3561,"is_reserved":false,"is_disabled":false,"rental_uris":{"android":"levelo://app?vid=8b8987c1-8a3f-4c55-8d9b-7530f89ec1a8","ios":"levelo://app?vid=8b8987c1-8a3f-4c55-8d9b-7530f89ec1a8"},"vehicle_type_id":"4","last_reported":1721480920,"current_range_meters":9200,"station_id":"ce4bhb92rcd13ifvqen0","pricing_plan_id":"cebpf4jnsgd1na2vs0mg"},{"bike_id":"61c813b0-5598-477a-87b7-ec9e892c6f48","system_id":"levelo_inurba_marseille","lat":43.290995,"lon":5.381361,"is_reserved":false,"is_disabled":false,"rental_uris":{"android":"levelo://app?vid=61c813b0-5598-477a-87b7-ec9e892c6f48","ios":"levelo://app?vid=61c813b0-5598-477a-87b7-ec9e892c6f48"},"vehicle_type_id":"4","last_reported":1721480920,"current_range_meters":7200,"station_id":"ce4bh512rcd13ifvqe2g","pricing_plan_id":"cebpf4jnsgd1na2vs0mg"},{"bike_id":"d9ba6b96-a236-41b5-8094-1042c1abe19c","system_id":"levelo_inurba_marseille","lat":43.330442,"lon":5.389148,"is_reserved":false,"is_disabled":false,"rental_uris":{"android":"levelo://app?vid=d9ba6b96-a236-41b5-8094-1042c1abe19c","ios":"levelo://app?vid=d9ba6b96-a236-41b5-8094-1042c1abe19c"},"vehicle_type_id":"4","last_reported":1721480920,"current_range_meters":11200,"station_id":"ce4bhr92rcd13ifvqhrg","pricing_plan_id":"cebpf4jnsgd1na2vs0mg"},{"bike_id":"f0316b9c-de76-480f-b1fc-3d336b372d74","system_id":"levelo_inurba_marseille","lat":43.289741,"lon":5.378306,"is_reserved":false,"is_disabled":false,"rental_uris":{"android":"levelo://app?vid=f0316b9c-de76-480f-b1fc-3d336b372d74","ios":"levelo://app?vid=f0316b9c-de76-480f-b1fc-3d336b372d74"},"vehicle_type_id":"4","last_reported":1721480920,"current_range_meters":3600,"station_id":"ce4bh9p2rcd13ifvqed0","pricing_plan_id":"cebpf4jnsgd1na2vs0mg"},{"bike_id":"bd8992ac-7348-4aa6-b577-2dcdefe279f7","system_id":"levelo_inurba_marseille","lat":43.2479,"lon":5.374457,"is_reserved":false,"is_disabled":false,"rental_uris":{"android":"levelo://app?vid=bd8992ac-7348-4aa6-b577-2dcdefe279f7","ios":"levelo://app?vid=bd8992ac-7348-4aa6-b577-2dcdefe279f7"},"vehicle_type_id":"4","last_reported":1721480920,"current_range_meters":23200,"station_id":"ce4bhgh2rcd13ifvqfb0","pricing_plan_id":"cebpf4jnsgd1na2vs0mg"},{"bike_id":"9a5204b0-6d85-47bd-acaf-daf585d5affc","system_id":"levelo_inurba_marseille","lat":43.2901,"lon":5.381269,"is_reserved":false,"is_disabled":false,"rental_uris":{"android":"levelo://app?vid=9a5204b0-6d85-47bd-acaf-daf585d5affc","ios":"levelo://app?vid=9a5204b0-6d85-47bd-acaf-daf585d5affc"},"vehicle_type_id":"4","last_reported":1721480920,"current_range_meters":30400,"station_id":"ce4bh4p2rcd13ifvqe1g","pricing_plan_id":"cebpf4jnsgd1na2vs0mg"},{"bike_id":"0266f39e-850b-4dfb-9e47-ad4b71d37053","system_id":"levelo_inurba_marseille","lat":43.2901,"lon":5.381269,"is_reserved":false,"is_disabled":false,"rental_uris":{"android":"levelo://app?vid=0266f39e-850b-4dfb-9e47-ad4b71d37053","ios":"levelo://app?vid=0266f39e-850b-4dfb-9e47-ad4b71d37053"},"vehicle_type_id":"4","last_reported":1721480920,"current_range_meters":27200,"station_id":"ce4bh4p2rcd13ifvqe1g","pricing_plan_id":"cebpf4jnsgd1na2vs0mg"},{"bike_id":"b1691749-9a68-4919-9777-bec6b41e2dac","system_id":"levelo_inurba_marseille","lat":43.28856,"lon":5.358371,"is_reserved":false,"is_disabled":false,"rental_uris":{"android":"levelo://app?vid=b1691749-9a68-4919-9777-bec6b41e2dac","ios":"levelo://app?vid=b1691749-9a68-4919-9777-bec6b41e2dac"},"vehicle_type_id":"4","last_reported":1721480920,"current_range_meters":22400,"station_id":"ce4bhb12rcd13ifvqem0","pricing_plan_id":"cebpf4jnsgd1na2vs0mg"},{"bike_id":"c1af56de-be73-4e36-97b2-97d715f9f6e1","system_id":"levelo_inurba_marseille","lat":43.28727,"lon":5.36078,"is_reserved":false,"is_disabled":false,"rental_uris":{"android":"levelo://app?vid=c1af56de-be73-4e36-97b2-97d715f9f6e1","ios":"levelo://app?vid=c1af56de-be73-4e36-97b2-97d715f9f6e1"},"vehicle_type_id":"4","last_reported":1721480920,"current_range_meters":0,"station_id":"cki0cbj6b192h4jlfktg","pricing_plan_id":"cebpf4jnsgd1na2vs0mg"},{"bike_id":"b644a1d1-5a8c-47b2-9eeb-e1052f642a69","system_id":"levelo_inurba_marseille","lat":43.28856,"lon":5.358371,"is_reserved":false,"is_disabled":false,"rental_uris":{"android":"levelo://app?vid=b644a1d1-5a8c-47b2-9eeb-e1052f642a69","ios":"levelo://app?vid=b644a1d1-5a8c-47b2-9eeb-e1052f642a69"},"vehicle_type_id":"4","last_reported":1721480920,"current_range_meters":22000,"station_id":"ce4bhb12rcd13ifvqem0","pricing_plan_id":"cebpf4jnsgd1na2vs0mg"},{"bike_id":"ad159893-1814-44c4-abfa-c245bb4614dc","system_id":"levelo_inurba_marseille","lat":43.28843,"lon":5.35864,"is_reserved":false,"is_disabled":false,"rental_uris":{"android":"levelo://app?vid=ad159893-1814-44c4-abfa-c245bb4614dc","ios":"levelo://app?vid=ad159893-1814-44c4-abfa-c245bb4614dc"},"vehicle_type_id":"4","last_reported":1721480920,"current_range_meters":14400,"station_id":"ce4bhb12rcd13ifvqem0","pricing_plan_id":"cebpf4jnsgd1na2vs0mg"},{"bike_id":"b7c44802-8e7b-4372-8f24-663d976d6578","system_id":"levelo_inurba_marseille","lat":43.28856,"lon":5.358371,"is_reserved":false,"is_disabled":false,"rental_uris":{"android":"levelo://app?vid=b7c44802-8e7b-4372-8f24-663d976d6578","ios":"levelo://app?vid=b7c44802-8e7b-4372-8f24-663d976d6578"},"vehicle_type_id":"4","last_reported":1721480920,"current_range_meters":12400,"station_id":"ce4bhb12rcd13ifvqem0","pricing_plan_id":"cebpf4jnsgd1na2vs0mg"},{"bike_id":"2eef8a86-38f5-4a5c-aca8-c17cc05e37ca","system_id":"levelo_inurba_marseille","lat":43.337264,"lon":5.374752,"is_reserved":false,"is_disabled":false,"rental_uris":{"android":"levelo://app?vid=2eef8a86-38f5-4a5c-aca8-c17cc05e37ca","ios":"levelo://app?vid=2eef8a86-38f5-4a5c-aca8-c17cc05e37ca"},"vehicle_type_id":"4","last_reported":1721480920,"current_range_meters":26000,"station_id":"","pricing_plan_id":"cebpf4jnsgd1na2vs0mg"},{"bike_id":"c75a183a-c55b-4c2e-b036-7c333011dd13","system_id":"levelo_inurba_marseille","lat":43.33741,"lon":5.37463,"is_reserved":false,"is_disabled":false,"rental_uris":{"android":"levelo://app?vid=c75a183a-c55b-4c2e-b036-7c333011dd13","ios":"levelo://app?vid=c75a183a-c55b-4c2e-b036-7c333011dd13"},"vehicle_type_id":"4","last_reported":1721480920,"current_range_meters":25600,"station_id":"","pricing_plan_id":"cebpf4jnsgd1na2vs0mg"},{"bike_id":"1bd2edfa-3105-45b7-9b57-e83caf22087e","system_id":"levelo_inurba_marseille","lat":43.3375,"lon":5.3744,"is_reserved":false,"is_disabled":false,"rental_uris":{"android":"levelo://app?vid=1bd2edfa-3105-45b7-9b57-e83caf22087e","ios":"levelo://app?vid=1bd2edfa-3105-45b7-9b57-e83caf22087e"},"vehicle_type_id":"4","last_reported":1721480920,"current_range_meters":16000,"station_id":"","pricing_plan_id":"cebpf4jnsgd1na2vs0mg"},{"bike_id":"e5047b17-8522-4689-a8c1-156e86e68011","system_id":"levelo_inurba_marseille","lat":43.309371,"lon":5.401449,"is_reserved":false,"is_disabled":false,"rental_uris":{"android":"levelo://app?vid=e5047b17-8522-4689-a8c1-156e86e68011","ios":"levelo://app?vid=e5047b17-8522-4689-a8c1-156e86e68011"},"vehicle_type_id":"4","last_reported":1721480920,"current_range_meters":0,"station_id":"ce4bgvp2rcd13ifvqct0","pricing_plan_id":"cebpf4jnsgd1na2vs0mg"},{"bike_id":"da1ef795-4411-4787-a704-e9710fe27f7e","system_id":"levelo_inurba_marseille","lat":43.337472,"lon":5.374599,"is_reserved":false,"is_disabled":false,"rental_uris":{"android":"levelo://app?vid=da1ef795-4411-4787-a704-e9710fe27f7e","ios":"levelo://app?vid=da1ef795-4411-4787-a704-e9710fe27f7e"},"vehicle_type_id":"4","last_reported":1721480920,"current_range_meters":22800,"station_id":"","pricing_plan_id":"cebpf4jnsgd1na2vs0mg"},{"bike_id":"4e05b3eb-e034-4c93-86fb-ef66d74f6656","system_id":"levelo_inurba_marseille","lat":43.33749,"lon":5.37457,"is_reserved":false,"is_disabled":false,"rental_uris":{"android":"levelo://app?vid=4e05b3eb-e034-4c93-86fb-ef66d74f6656","ios":"levelo://app?vid=4e05b3eb-e034-4c93-86fb-ef66d74f6656"},"vehicle_type_id":"4","last_reported":1721480920,"current_range_meters":22800,"station_id":"","pricing_plan_id":"cebpf4jnsgd1na2vs0mg"},{"bike_id":"0ad3db73-21e8-41b5-aad3-7f410c37748d","system_id":"levelo_inurba_marseille","lat":43.33754,"lon":5.37454,"is_reserved":false,"is_disabled":false,"rental_uris":{"android":"levelo://app?vid=0ad3db73-21e8-41b5-aad3-7f410c37748d","ios":"levelo://app?vid=0ad3db73-21e8-41b5-aad3-7f410c37748d"},"vehicle_type_id":"4","last_reported":1721480920,"current_range_meters":14400,"station_id":"","pricing_plan_id":"cebpf4jnsgd1na2vs0mg"},{"bike_id":"2d33db2a-d2ef-42af-b929-3720156d09ad","system_id":"levelo_inurba_marseille","lat":43.337557,"lon":5.374463,"is_reserved":false,"is_disabled":false,"rental_uris":{"android":"levelo://app?vid=2d33db2a-d2ef-42af-b929-3720156d09ad","ios":"levelo://app?vid=2d33db2a-d2ef-42af-b929-3720156d09ad"},"vehicle_type_id":"4","last_reported":1721480920,"current_range_meters":23200,"station_id":"","pricing_plan_id":"cebpf4jnsgd1na2vs0mg"},{"bike_id":"9fd23b8b-c7c3-4b5a-b11d-8284b8e4dfa2","system_id":"levelo_inurba_marseille","lat":43.337578,"lon":5.374428,"is_reserved":false,"is_disabled":false,"rental_uris":{"android":"levelo://app?vid=9fd23b8b-c7c3-4b5a-b11d-8284b8e4dfa2","ios":"levelo://app?vid=9fd23b8b-c7c3-4b5a-b11d-8284b8e4dfa2"},"vehicle_type_id":"4","last_reported":1721480920,"current_range_meters":26400,"station_id":"","pricing_plan_id":"cebpf4jnsgd1na2vs0mg"},{"bike_id":"5cb6a697-9c4d-40ef-89b5-3ac012e961fa","system_id":"levelo_inurba_marseille","lat":43.337563,"lon":5.374561,"is_reserved":false,"is_disabled":false,"rental_uris":{"android":"levelo://app?vid=5cb6a697-9c4d-40ef-89b5-3ac012e961fa","ios":"levelo://app?vid=5cb6a697-9c4d-40ef-89b5-3ac012e961fa"},"vehicle_type_id":"4","last_reported":1721480920,"current_range_meters":17600,"station_id":"","pricing_plan_id":"cebpf4jnsgd1na2vs0mg"},{"bike_id":"6f20e223-4c2f-4bd3-b8c1-fa34ed231357","system_id":"levelo_inurba_marseille","lat":43.310785,"lon":5.424305,"is_reserved":false,"is_disabled":false,"rental_uris":{"android":"levelo://app?vid=6f20e223-4c2f-4bd3-b8c1-fa34ed231357","ios":"levelo://app?vid=6f20e223-4c2f-4bd3-b8c1-fa34ed231357"},"vehicle_type_id":"4","last_reported":1721480920,"current_range_meters":17200,"station_id":"ce4bhp92rcd13ifvqhag","pricing_plan_id":"cebpf4jnsgd1na2vs0mg"},{"bike_id":"8fa63a9c-bcc8-44b2-8412-e22b8e6f7069","system_id":"levelo_inurba_marseille","lat":43.337585,"lon":5.374544,"is_reserved":false,"is_disabled":false,"rental_uris":{"android":"levelo://app?vid=8fa63a9c-bcc8-44b2-8412-e22b8e6f7069","ios":"levelo://app?vid=8fa63a9c-bcc8-44b2-8412-e22b8e6f7069"},"vehicle_type_id":"4","last_reported":1721480920,"current_range_meters":19200,"station_id":"","pricing_plan_id":"cebpf4jnsgd1na2vs0mg"},{"bike_id":"9458a255-a47a-41f1-849e-755dc4612ffe","system_id":"levelo_inurba_marseille","lat":43.33762,"lon":5.37451,"is_reserved":false,"is_disabled":false,"rental_uris":{"android":"levelo://app?vid=9458a255-a47a-41f1-849e-755dc4612ffe","ios":"levelo://app?vid=9458a255-a47a-41f1-849e-755dc4612ffe"},"vehicle_type_id":"4","last_reported":1721480920,"current_range_meters":14800,"station_id":"","pricing_plan_id":"cebpf4jnsgd1na2vs0mg"},{"bike_id":"ac377a63-6a02-42fa-8a70-d5bb9b7546c9","system_id":"levelo_inurba_marseille","lat":43.337662,"lon":5.374271,"is_reserved":false,"is_disabled":false,"rental_uris":{"android":"levelo://app?vid=ac377a63-6a02-42fa-8a70-d5bb9b7546c9","ios":"levelo://app?vid=ac377a63-6a02-42fa-8a70-d5bb9b7546c9"},"vehicle_type_id":"4","last_reported":1721480920,"current_range_meters":20800,"station_id":"","pricing_plan_id":"cebpf4jnsgd1na2vs0mg"},{"bike_id":"b4b24872-b47d-455d-b874-30be54945800","system_id":"levelo_inurba_marseille","lat":43.33756,"lon":5.37491,"is_reserved":false,"is_disabled":false,"rental_uris":{"android":"levelo://app?vid=b4b24872-b47d-455d-b874-30be54945800","ios":"levelo://app?vid=b4b24872-b47d-455d-b874-30be54945800"},"vehicle_type_id":"4","last_reported":1721480920,"current_range_meters":1600,"station_id":"","pricing_plan_id":"cebpf4jnsgd1na2vs0mg"},{"bike_id":"d0723523-f35a-472e-b198-a5153fc33bb6","system_id":"levelo_inurba_marseille","lat":43.3376,"lon":5.37479,"is_reserved":false,"is_disabled":false,"rental_uris":{"android":"levelo://app?vid=d0723523-f35a-472e-b198-a5153fc33bb6","ios":"levelo://app?vid=d0723523-f35a-472e-b198-a5153fc33bb6"},"vehicle_type_id":"4","last_reported":1721480920,"current_range_meters":22000,"station_id":"","pricing_plan_id":"cebpf4jnsgd1na2vs0mg"},{"bike_id":"8fe2fead-4c4d-4ead-80ad-f65a963c1b9e","system_id":"levelo_inurba_marseille","lat":43.30647,"lon":5.401,"is_reserved":false,"is_disabled":false,"rental_uris":{"android":"levelo://app?vid=8fe2fead-4c4d-4ead-80ad-f65a963c1b9e","ios":"levelo://app?vid=8fe2fead-4c4d-4ead-80ad-f65a963c1b9e"},"vehicle_type_id":"4","last_reported":1721480920,"current_range_meters":18000,"station_id":"ce4bh112rcd13ifvqda0","pricing_plan_id":"cebpf4jnsgd1na2vs0mg"},{"bike_id":"c8408d01-8722-435f-9f70-d6e9a4effbd6","system_id":"levelo_inurba_marseille","lat":43.301117,"lon":5.398795,"is_reserved":false,"is_disabled":false,"rental_uris":{"android":"levelo://app?vid=c8408d01-8722-435f-9f70-d6e9a4effbd6","ios":"levelo://app?vid=c8408d01-8722-435f-9f70-d6e9a4effbd6"},"vehicle_type_id":"4","last_reported":1721480920,"current_range_meters":2800,"station_id":"ce4bh0h2rcd13ifvqd40","pricing_plan_id":"cebpf4jnsgd1na2vs0mg"},{"bike_id":"f95bfb28-3665-4377-a09f-e75a1425b683","system_id":"levelo_inurba_marseille","lat":43.33797,"lon":5.37435,"is_reserved":false,"is_disabled":false,"rental_uris":{"android":"levelo://app?vid=f95bfb28-3665-4377-a09f-e75a1425b683","ios":"levelo://app?vid=f95bfb28-3665-4377-a09f-e75a1425b683"},"vehicle_type_id":"4","last_reported":1721480920,"current_range_meters":25200,"station_id":"","pricing_plan_id":"cebpf4jnsgd1na2vs0mg"},{"bike_id":"ae77d3ff-249e-4bfc-8412-a6d91caa4ea9","system_id":"levelo_inurba_marseille","lat":43.28727,"lon":5.36078,"is_reserved":false,"is_disabled":false,"rental_uris":{"android":"levelo://app?vid=ae77d3ff-249e-4bfc-8412-a6d91caa4ea9","ios":"levelo://app?vid=ae77d3ff-249e-4bfc-8412-a6d91caa4ea9"},"vehicle_type_id":"4","last_reported":1721480920,"current_range_meters":27200,"station_id":"cki0cbj6b192h4jlfktg","pricing_plan_id":"cebpf4jnsgd1na2vs0mg"},{"bike_id":"7e144e6e-395f-4cd2-9c08-3af5f586b1fe","system_id":"levelo_inurba_marseille","lat":43.28727,"lon":5.36078,"is_reserved":false,"is_disabled":false,"rental_uris":{"android":"levelo://app?vid=7e144e6e-395f-4cd2-9c08-3af5f586b1fe","ios":"levelo://app?vid=7e144e6e-395f-4cd2-9c08-3af5f586b1fe"},"vehicle_type_id":"4","last_reported":1721480920,"current_range_meters":12400,"station_id":"cki0cbj6b192h4jlfktg","pricing_plan_id":"cebpf4jnsgd1na2vs0mg"},{"bike_id":"5928e79c-7cce-4e73-9f64-cd04eaf6faa9","system_id":"levelo_inurba_marseille","lat":43.28718,"lon":5.36074,"is_reserved":false,"is_disabled":false,"rental_uris":{"android":"levelo://app?vid=5928e79c-7cce-4e73-9f64-cd04eaf6faa9","ios":"levelo://app?vid=5928e79c-7cce-4e73-9f64-cd04eaf6faa9"},"vehicle_type_id":"4","last_reported":1721480920,"current_range_meters":30000,"station_id":"cki0cbj6b192h4jlfktg","pricing_plan_id":"cebpf4jnsgd1na2vs0mg"},{"bike_id":"a4724bc5-fe45-4e88-abd3-71199e47b250","system_id":"levelo_inurba_marseille","lat":43.286591,"lon":5.363346,"is_reserved":false,"is_disabled":false,"rental_uris":{"android":"levelo://app?vid=a4724bc5-fe45-4e88-abd3-71199e47b250","ios":"levelo://app?vid=a4724bc5-fe45-4e88-abd3-71199e47b250"},"vehicle_type_id":"4","last_reported":1721480920,"current_range_meters":28800,"station_id":"ce4bhah2rcd13ifvqej0","pricing_plan_id":"cebpf4jnsgd1na2vs0mg"},{"bike_id":"d0116cdf-2702-4895-a5b8-1d8d86843984","system_id":"levelo_inurba_marseille","lat":43.286591,"lon":5.363346,"is_reserved":false,"is_disabled":false,"rental_uris":{"android":"levelo://app?vid=d0116cdf-2702-4895-a5b8-1d8d86843984","ios":"levelo://app?vid=d0116cdf-2702-4895-a5b8-1d8d86843984"},"vehicle_type_id":"4","last_reported":1721480920,"current_range_meters":13600,"station_id":"ce4bhah2rcd13ifvqej0","pricing_plan_id":"cebpf4jnsgd1na2vs0mg"},{"bike_id":"832ab963-616b-48db-b570-e82526df18ef","system_id":"levelo_inurba_marseille","lat":43.286593,"lon":5.363346,"is_reserved":false,"is_disabled":false,"rental_uris":{"android":"levelo://app?vid=832ab963-616b-48db-b570-e82526df18ef","ios":"levelo://app?vid=832ab963-616b-48db-b570-e82526df18ef"},"vehicle_type_id":"4","last_reported":1721480920,"current_range_meters":14000,"station_id":"ce4bhah2rcd13ifvqej0","pricing_plan_id":"cebpf4jnsgd1na2vs0mg"},{"bike_id":"37aa2379-b83c-4bf8-b7ed-a4ddc3931691","system_id":"levelo_inurba_marseille","lat":43.286593,"lon":5.363346,"is_reserved":false,"is_disabled":false,"rental_uris":{"android":"levelo://app?vid=37aa2379-b83c-4bf8-b7ed-a4ddc3931691","ios":"levelo://app?vid=37aa2379-b83c-4bf8-b7ed-a4ddc3931691"},"vehicle_type_id":"4","last_reported":1721480920,"current_range_meters":31200,"station_id":"ce4bhah2rcd13ifvqej0","pricing_plan_id":"cebpf4jnsgd1na2vs0mg"},{"bike_id":"a4b349b8-714a-41c2-85d6-b928e5ff4947","system_id":"levelo_inurba_marseille","lat":43.286593,"lon":5.363346,"is_reserved":false,"is_disabled":false,"rental_uris":{"android":"levelo://app?vid=a4b349b8-714a-41c2-85d6-b928e5ff4947","ios":"levelo://app?vid=a4b349b8-714a-41c2-85d6-b928e5ff4947"},"vehicle_type_id":"4","last_reported":1721480920,"current_range_meters":30000,"station_id":"ce4bhah2rcd13ifvqej0","pricing_plan_id":"cebpf4jnsgd1na2vs0mg"},{"bike_id":"29c623cf-5eea-4233-849e-d5f38d81086b","system_id":"levelo_inurba_marseille","lat":43.28668,"lon":5.36107,"is_reserved":false,"is_disabled":false,"rental_uris":{"android":"levelo://app?vid=29c623cf-5eea-4233-849e-d5f38d81086b","ios":"levelo://app?vid=29c623cf-5eea-4233-849e-d5f38d81086b"},"vehicle_type_id":"4","last_reported":1721480920,"current_range_meters":2400,"station_id":"ce4bhbp2rcd13ifvqerg","pricing_plan_id":"cebpf4jnsgd1na2vs0mg"},{"bike_id":"a8cb3bc8-804e-4f72-8d96-3c83c46cb078","system_id":"levelo_inurba_marseille","lat":43.326145,"lon":5.398485,"is_reserved":false,"is_disabled":false,"rental_uris":{"android":"levelo://app?vid=a8cb3bc8-804e-4f72-8d96-3c83c46cb078","ios":"levelo://app?vid=a8cb3bc8-804e-4f72-8d96-3c83c46cb078"},"vehicle_type_id":"4","last_reported":1721480920,"current_range_meters":30000,"station_id":"","pricing_plan_id":"cebpf4jnsgd1na2vs0mg"},{"bike_id":"2400e6ae-7dd4-408d-93d0-faccac5c8570","system_id":"levelo_inurba_marseille","lat":43.290336,"lon":5.386425,"is_reserved":false,"is_disabled":false,"rental_uris":{"android":"levelo://app?vid=2400e6ae-7dd4-408d-93d0-faccac5c8570","ios":"levelo://app?vid=2400e6ae-7dd4-408d-93d0-faccac5c8570"},"vehicle_type_id":"4","last_reported":1721480920,"current_range_meters":18000,"station_id":"ce4bh4p2rcd13ifvqe0g","pricing_plan_id":"cebpf4jnsgd1na2vs0mg"},{"bike_id":"7772d012-3fca-4b0d-8a67-6d6b09f1d205","system_id":"levelo_inurba_marseille","lat":43.290336,"lon":5.386425,"is_reserved":false,"is_disabled":false,"rental_uris":{"android":"levelo://app?vid=7772d012-3fca-4b0d-8a67-6d6b09f1d205","ios":"levelo://app?vid=7772d012-3fca-4b0d-8a67-6d6b09f1d205"},"vehicle_type_id":"4","last_reported":1721480920,"current_range_meters":0,"station_id":"ce4bh4p2rcd13ifvqe0g","pricing_plan_id":"cebpf4jnsgd1na2vs0mg"},{"bike_id":"2f76fdaa-3af8-4f35-a269-b4f5a59ca326","system_id":"levelo_inurba_marseille","lat":43.31434,"lon":5.40418,"is_reserved":false,"is_disabled":false,"rental_uris":{"android":"levelo://app?vid=2f76fdaa-3af8-4f35-a269-b4f5a59ca326","ios":"levelo://app?vid=2f76fdaa-3af8-4f35-a269-b4f5a59ca326"},"vehicle_type_id":"4","last_reported":1721480920,"current_range_meters":31200,"station_id":"","pricing_plan_id":"cebpf4jnsgd1na2vs0mg"},{"bike_id":"61e98530-f041-47b8-9b1d-0c2cbe04aa31","system_id":"levelo_inurba_marseille","lat":43.287184,"lon":5.37937,"is_reserved":false,"is_disabled":false,"rental_uris":{"android":"levelo://app?vid=61e98530-f041-47b8-9b1d-0c2cbe04aa31","ios":"levelo://app?vid=61e98530-f041-47b8-9b1d-0c2cbe04aa31"},"vehicle_type_id":"4","last_reported":1721480920,"current_range_meters":15200,"station_id":"ce4bh9p2rcd13ifvqec0","pricing_plan_id":"cebpf4jnsgd1na2vs0mg"},{"bike_id":"6e062614-eeb7-42ed-bd9a-c7dd115c4ffa","system_id":"levelo_inurba_marseille","lat":43.28474,"lon":5.35887,"is_reserved":false,"is_disabled":false,"rental_uris":{"android":"levelo://app?vid=6e062614-eeb7-42ed-bd9a-c7dd115c4ffa","ios":"levelo://app?vid=6e062614-eeb7-42ed-bd9a-c7dd115c4ffa"},"vehicle_type_id":"4","last_reported":1721480920,"current_range_meters":9600,"station_id":"","pricing_plan_id":"cebpf4jnsgd1na2vs0mg"},{"bike_id":"9879ae9d-6c92-4d92-a5fc-b265eab76d92","system_id":"levelo_inurba_marseille","lat":43.28472,"lon":5.35891,"is_reserved":false,"is_disabled":false,"rental_uris":{"android":"levelo://app?vid=9879ae9d-6c92-4d92-a5fc-b265eab76d92","ios":"levelo://app?vid=9879ae9d-6c92-4d92-a5fc-b265eab76d92"},"vehicle_type_id":"4","last_reported":1721480920,"current_range_meters":20400,"station_id":"","pricing_plan_id":"cebpf4jnsgd1na2vs0mg"},{"bike_id":"f602f8e7-d0ab-4b1a-9b2e-428a83dbaad8","system_id":"levelo_inurba_marseille","lat":43.28472,"lon":5.35888,"is_reserved":false,"is_disabled":false,"rental_uris":{"android":"levelo://app?vid=f602f8e7-d0ab-4b1a-9b2e-428a83dbaad8","ios":"levelo://app?vid=f602f8e7-d0ab-4b1a-9b2e-428a83dbaad8"},"vehicle_type_id":"4","last_reported":1721480920,"current_range_meters":4800,"station_id":"","pricing_plan_id":"cebpf4jnsgd1na2vs0mg"},{"bike_id":"576c5232-2050-4944-af46-2991a08c2b02","system_id":"levelo_inurba_marseille","lat":43.28466,"lon":5.35884,"is_reserved":false,"is_disabled":false,"rental_uris":{"android":"levelo://app?vid=576c5232-2050-4944-af46-2991a08c2b02","ios":"levelo://app?vid=576c5232-2050-4944-af46-2991a08c2b02"},"vehicle_type_id":"4","last_reported":1721480920,"current_range_meters":24800,"station_id":"","pricing_plan_id":"cebpf4jnsgd1na2vs0mg"},{"bike_id":"679fc5e3-03bc-4e4c-9e30-8449cb74d65c","system_id":"levelo_inurba_marseille","lat":43.28459,"lon":5.35899,"is_reserved":false,"is_disabled":false,"rental_uris":{"android":"levelo://app?vid=679fc5e3-03bc-4e4c-9e30-8449cb74d65c","ios":"levelo://app?vid=679fc5e3-03bc-4e4c-9e30-8449cb74d65c"},"vehicle_type_id":"4","last_reported":1721480920,"current_range_meters":17200,"station_id":"","pricing_plan_id":"cebpf4jnsgd1na2vs0mg"},{"bike_id":"8f701522-aa8d-4364-a3a7-7eb2b38fa760","system_id":"levelo_inurba_marseille","lat":43.284538,"lon":5.358657,"is_reserved":false,"is_disabled":false,"rental_uris":{"android":"levelo://app?vid=8f701522-aa8d-4364-a3a7-7eb2b38fa760","ios":"levelo://app?vid=8f701522-aa8d-4364-a3a7-7eb2b38fa760"},"vehicle_type_id":"4","last_reported":1721480920,"current_range_meters":18800,"station_id":"ce4bhah2rcd13ifvqei0","pricing_plan_id":"cebpf4jnsgd1na2vs0mg"},{"bike_id":"127ac410-7aa5-4e7c-8de4-f9af8cbeabe4","system_id":"levelo_inurba_marseille","lat":43.286333,"lon":5.351276,"is_reserved":false,"is_disabled":false,"rental_uris":{"android":"levelo://app?vid=127ac410-7aa5-4e7c-8de4-f9af8cbeabe4","ios":"levelo://app?vid=127ac410-7aa5-4e7c-8de4-f9af8cbeabe4"},"vehicle_type_id":"4","last_reported":1721480920,"current_range_meters":20400,"station_id":"","pricing_plan_id":"cebpf4jnsgd1na2vs0mg"},{"bike_id":"4a28ee43-802e-4ef3-8d73-349e199ddc91","system_id":"levelo_inurba_marseille","lat":43.284538,"lon":5.358657,"is_reserved":false,"is_disabled":false,"rental_uris":{"android":"levelo://app?vid=4a28ee43-802e-4ef3-8d73-349e199ddc91","ios":"levelo://app?vid=4a28ee43-802e-4ef3-8d73-349e199ddc91"},"vehicle_type_id":"4","last_reported":1721480920,"current_range_meters":16800,"station_id":"ce4bhah2rcd13ifvqei0","pricing_plan_id":"cebpf4jnsgd1na2vs0mg"},{"bike_id":"81affaa0-54e0-4077-be1a-b1d4238bc8bf","system_id":"levelo_inurba_marseille","lat":43.28465,"lon":5.35816,"is_reserved":false,"is_disabled":false,"rental_uris":{"android":"levelo://app?vid=81affaa0-54e0-4077-be1a-b1d4238bc8bf","ios":"levelo://app?vid=81affaa0-54e0-4077-be1a-b1d4238bc8bf"},"vehicle_type_id":"4","last_reported":1721480920,"current_range_meters":10400,"station_id":"","pricing_plan_id":"cebpf4jnsgd1na2vs0mg"},{"bike_id":"a767f090-767a-450d-b2f0-bfcbc6c6923e","system_id":"levelo_inurba_marseille","lat":43.28623,"lon":5.35104,"is_reserved":false,"is_disabled":false,"rental_uris":{"android":"levelo://app?vid=a767f090-767a-450d-b2f0-bfcbc6c6923e","ios":"levelo://app?vid=a767f090-767a-450d-b2f0-bfcbc6c6923e"},"vehicle_type_id":"4","last_reported":1721480920,"current_range_meters":25200,"station_id":"ce4bhch2rcd13ifvqeug","pricing_plan_id":"cebpf4jnsgd1na2vs0mg"},{"bike_id":"694ca4b5-5503-4dd2-9ff1-a57966e9032e","system_id":"levelo_inurba_marseille","lat":43.28622,"lon":5.35098,"is_reserved":false,"is_disabled":false,"rental_uris":{"android":"levelo://app?vid=694ca4b5-5503-4dd2-9ff1-a57966e9032e","ios":"levelo://app?vid=694ca4b5-5503-4dd2-9ff1-a57966e9032e"},"vehicle_type_id":"4","last_reported":1721480920,"current_range_meters":18800,"station_id":"ce4bhch2rcd13ifvqeug","pricing_plan_id":"cebpf4jnsgd1na2vs0mg"},{"bike_id":"977bf084-e4df-4b56-b148-d8dcef7750b7","system_id":"levelo_inurba_marseille","lat":43.286185,"lon":5.351081,"is_reserved":false,"is_disabled":false,"rental_uris":{"android":"levelo://app?vid=977bf084-e4df-4b56-b148-d8dcef7750b7","ios":"levelo://app?vid=977bf084-e4df-4b56-b148-d8dcef7750b7"},"vehicle_type_id":"4","last_reported":1721480920,"current_range_meters":20000,"station_id":"","pricing_plan_id":"cebpf4jnsgd1na2vs0mg"},{"bike_id":"57fcdad1-0ae9-4a6b-8a3d-2f2763cf1adf","system_id":"levelo_inurba_marseille","lat":43.28621,"lon":5.351,"is_reserved":false,"is_disabled":false,"rental_uris":{"android":"levelo://app?vid=57fcdad1-0ae9-4a6b-8a3d-2f2763cf1adf","ios":"levelo://app?vid=57fcdad1-0ae9-4a6b-8a3d-2f2763cf1adf"},"vehicle_type_id":"4","last_reported":1721480920,"current_range_meters":13200,"station_id":"ce4bhch2rcd13ifvqeug","pricing_plan_id":"cebpf4jnsgd1na2vs0mg"},{"bike_id":"51dab51d-79c7-462f-b3e7-4cbee6a70f97","system_id":"levelo_inurba_marseille","lat":43.28618,"lon":5.35109,"is_reserved":false,"is_disabled":false,"rental_uris":{"android":"levelo://app?vid=51dab51d-79c7-462f-b3e7-4cbee6a70f97","ios":"levelo://app?vid=51dab51d-79c7-462f-b3e7-4cbee6a70f97"},"vehicle_type_id":"4","last_reported":1721480920,"current_range_meters":3600,"station_id":"ce4bhch2rcd13ifvqeug","pricing_plan_id":"cebpf4jnsgd1na2vs0mg"},{"bike_id":"ca5d2495-ec45-47b8-ac81-3baf290b32c6","system_id":"levelo_inurba_marseille","lat":43.2862,"lon":5.35101,"is_reserved":false,"is_disabled":false,"rental_uris":{"android":"levelo://app?vid=ca5d2495-ec45-47b8-ac81-3baf290b32c6","ios":"levelo://app?vid=ca5d2495-ec45-47b8-ac81-3baf290b32c6"},"vehicle_type_id":"4","last_reported":1721480920,"current_range_meters":13600,"station_id":"ce4bhch2rcd13ifvqeug","pricing_plan_id":"cebpf4jnsgd1na2vs0mg"},{"bike_id":"5eb347e7-881d-419b-9a7e-18d2c37bd015","system_id":"levelo_inurba_marseille","lat":43.28617,"lon":5.35107,"is_reserved":false,"is_disabled":false,"rental_uris":{"android":"levelo://app?vid=5eb347e7-881d-419b-9a7e-18d2c37bd015","ios":"levelo://app?vid=5eb347e7-881d-419b-9a7e-18d2c37bd015"},"vehicle_type_id":"4","last_reported":1721480920,"current_range_meters":20400,"station_id":"ce4bhch2rcd13ifvqeug","pricing_plan_id":"cebpf4jnsgd1na2vs0mg"},{"bike_id":"61f66c76-2269-4f4b-ae3c-e6569bb48c8d","system_id":"levelo_inurba_marseille","lat":43.28618,"lon":5.35103,"is_reserved":false,"is_disabled":false,"rental_uris":{"android":"levelo://app?vid=61f66c76-2269-4f4b-ae3c-e6569bb48c8d","ios":"levelo://app?vid=61f66c76-2269-4f4b-ae3c-e6569bb48c8d"},"vehicle_type_id":"4","last_reported":1721480920,"current_range_meters":12400,"station_id":"ce4bhch2rcd13ifvqeug","pricing_plan_id":"cebpf4jnsgd1na2vs0mg"},{"bike_id":"d74c72da-2a83-4945-ba97-74978238d48e","system_id":"levelo_inurba_marseille","lat":43.285856,"lon":5.350771,"is_reserved":false,"is_disabled":false,"rental_uris":{"android":"levelo://app?vid=d74c72da-2a83-4945-ba97-74978238d48e","ios":"levelo://app?vid=d74c72da-2a83-4945-ba97-74978238d48e"},"vehicle_type_id":"4","last_reported":1721480920,"current_range_meters":30800,"station_id":"ce4bhch2rcd13ifvqeug","pricing_plan_id":"cebpf4jnsgd1na2vs0mg"},{"bike_id":"a58cc8d9-b2fc-40e9-82fb-888d3a8bc5ed","system_id":"levelo_inurba_marseille","lat":43.28617,"lon":5.35105,"is_reserved":false,"is_disabled":false,"rental_uris":{"android":"levelo://app?vid=a58cc8d9-b2fc-40e9-82fb-888d3a8bc5ed","ios":"levelo://app?vid=a58cc8d9-b2fc-40e9-82fb-888d3a8bc5ed"},"vehicle_type_id":"4","last_reported":1721480920,"current_range_meters":15600,"station_id":"ce4bhch2rcd13ifvqeug","pricing_plan_id":"cebpf4jnsgd1na2vs0mg"},{"bike_id":"dcb7f7d4-5cc4-45e3-81cf-4fc49d5c2adb","system_id":"levelo_inurba_marseille","lat":43.28615,"lon":5.35111,"is_reserved":false,"is_disabled":false,"rental_uris":{"android":"levelo://app?vid=dcb7f7d4-5cc4-45e3-81cf-4fc49d5c2adb","ios":"levelo://app?vid=dcb7f7d4-5cc4-45e3-81cf-4fc49d5c2adb"},"vehicle_type_id":"4","last_reported":1721480920,"current_range_meters":17600,"station_id":"ce4bhch2rcd13ifvqeug","pricing_plan_id":"cebpf4jnsgd1na2vs0mg"},{"bike_id":"3b2ddde2-5ab2-4611-8d08-b3d5e186e8cc","system_id":"levelo_inurba_marseille","lat":43.28617,"lon":5.35103,"is_reserved":false,"is_disabled":false,"rental_uris":{"android":"levelo://app?vid=3b2ddde2-5ab2-4611-8d08-b3d5e186e8cc","ios":"levelo://app?vid=3b2ddde2-5ab2-4611-8d08-b3d5e186e8cc"},"vehicle_type_id":"4","last_reported":1721480920,"current_range_meters":23200,"station_id":"ce4bhch2rcd13ifvqeug","pricing_plan_id":"cebpf4jnsgd1na2vs0mg"},{"bike_id":"2981b2a7-c810-4464-81f8-2603b70c0a49","system_id":"levelo_inurba_marseille","lat":43.28616,"lon":5.35106,"is_reserved":false,"is_disabled":false,"rental_uris":{"android":"levelo://app?vid=2981b2a7-c810-4464-81f8-2603b70c0a49","ios":"levelo://app?vid=2981b2a7-c810-4464-81f8-2603b70c0a49"},"vehicle_type_id":"4","last_reported":1721480920,"current_range_meters":21600,"station_id":"ce4bhch2rcd13ifvqeug","pricing_plan_id":"cebpf4jnsgd1na2vs0mg"},{"bike_id":"d9caee1c-b639-4a44-8c90-51ac94553506","system_id":"levelo_inurba_marseille","lat":43.28616,"lon":5.35105,"is_reserved":false,"is_disabled":false,"rental_uris":{"android":"levelo://app?vid=d9caee1c-b639-4a44-8c90-51ac94553506","ios":"levelo://app?vid=d9caee1c-b639-4a44-8c90-51ac94553506"},"vehicle_type_id":"4","last_reported":1721480920,"current_range_meters":3600,"station_id":"ce4bhch2rcd13ifvqeug","pricing_plan_id":"cebpf4jnsgd1na2vs0mg"},{"bike_id":"d5d5f126-9fe5-4518-9ffb-c637ebcdd4ce","system_id":"levelo_inurba_marseille","lat":43.286164,"lon":5.351031,"is_reserved":false,"is_disabled":false,"rental_uris":{"android":"levelo://app?vid=d5d5f126-9fe5-4518-9ffb-c637ebcdd4ce","ios":"levelo://app?vid=d5d5f126-9fe5-4518-9ffb-c637ebcdd4ce"},"vehicle_type_id":"4","last_reported":1721480920,"current_range_meters":22800,"station_id":"ce4bgkh2rcd13ifvqbk0","pricing_plan_id":"cebpf4jnsgd1na2vs0mg"},{"bike_id":"18f265c1-fb41-4d18-9883-33d301c1b12e","system_id":"levelo_inurba_marseille","lat":43.28616,"lon":5.35103,"is_reserved":false,"is_disabled":false,"rental_uris":{"android":"levelo://app?vid=18f265c1-fb41-4d18-9883-33d301c1b12e","ios":"levelo://app?vid=18f265c1-fb41-4d18-9883-33d301c1b12e"},"vehicle_type_id":"4","last_reported":1721480920,"current_range_meters":29600,"station_id":"ce4bhch2rcd13ifvqeug","pricing_plan_id":"cebpf4jnsgd1na2vs0mg"},{"bike_id":"5721266b-a1b6-4d49-ba2c-1cc3cccb5569","system_id":"levelo_inurba_marseille","lat":43.28615,"lon":5.35106,"is_reserved":false,"is_disabled":false,"rental_uris":{"android":"levelo://app?vid=5721266b-a1b6-4d49-ba2c-1cc3cccb5569","ios":"levelo://app?vid=5721266b-a1b6-4d49-ba2c-1cc3cccb5569"},"vehicle_type_id":"4","last_reported":1721480920,"current_range_meters":24800,"station_id":"ce4bhch2rcd13ifvqeug","pricing_plan_id":"cebpf4jnsgd1na2vs0mg"},{"bike_id":"8fd87a87-6918-447d-9d47-0d636a11f0a2","system_id":"levelo_inurba_marseille","lat":43.28614,"lon":5.35109,"is_reserved":false,"is_disabled":false,"rental_uris":{"android":"levelo://app?vid=8fd87a87-6918-447d-9d47-0d636a11f0a2","ios":"levelo://app?vid=8fd87a87-6918-447d-9d47-0d636a11f0a2"},"vehicle_type_id":"4","last_reported":1721480920,"current_range_meters":18000,"station_id":"ce4bhch2rcd13ifvqeug","pricing_plan_id":"cebpf4jnsgd1na2vs0mg"},{"bike_id":"dcab201a-3654-4d7e-89d9-db72ceeb0eae","system_id":"levelo_inurba_marseille","lat":43.28615,"lon":5.35105,"is_reserved":false,"is_disabled":false,"rental_uris":{"android":"levelo://app?vid=dcab201a-3654-4d7e-89d9-db72ceeb0eae","ios":"levelo://app?vid=dcab201a-3654-4d7e-89d9-db72ceeb0eae"},"vehicle_type_id":"4","last_reported":1721480920,"current_range_meters":14400,"station_id":"ce4bhch2rcd13ifvqeug","pricing_plan_id":"cebpf4jnsgd1na2vs0mg"},{"bike_id":"1bc4a4d2-0edf-4cd7-bb8d-60d638cd8210","system_id":"levelo_inurba_marseille","lat":43.286144,"lon":5.351067,"is_reserved":false,"is_disabled":false,"rental_uris":{"android":"levelo://app?vid=1bc4a4d2-0edf-4cd7-bb8d-60d638cd8210","ios":"levelo://app?vid=1bc4a4d2-0edf-4cd7-bb8d-60d638cd8210"},"vehicle_type_id":"4","last_reported":1721480920,"current_range_meters":2800,"station_id":"ce4bhch2rcd13ifvqeug","pricing_plan_id":"cebpf4jnsgd1na2vs0mg"},{"bike_id":"2bc0265d-dc52-46d5-b4c0-1bd2e5330dd0","system_id":"levelo_inurba_marseille","lat":43.28616,"lon":5.35101,"is_reserved":false,"is_disabled":false,"rental_uris":{"android":"levelo://app?vid=2bc0265d-dc52-46d5-b4c0-1bd2e5330dd0","ios":"levelo://app?vid=2bc0265d-dc52-46d5-b4c0-1bd2e5330dd0"},"vehicle_type_id":"4","last_reported":1721480920,"current_range_meters":26400,"station_id":"ce4bhch2rcd13ifvqeug","pricing_plan_id":"cebpf4jnsgd1na2vs0mg"},{"bike_id":"b3421722-99ef-489f-9c6f-5d5124ff893c","system_id":"levelo_inurba_marseille","lat":43.28616,"lon":5.35101,"is_reserved":false,"is_disabled":false,"rental_uris":{"android":"levelo://app?vid=b3421722-99ef-489f-9c6f-5d5124ff893c","ios":"levelo://app?vid=b3421722-99ef-489f-9c6f-5d5124ff893c"},"vehicle_type_id":"4","last_reported":1721480920,"current_range_meters":8800,"station_id":"ce4bhch2rcd13ifvqeug","pricing_plan_id":"cebpf4jnsgd1na2vs0mg"},{"bike_id":"bb48425a-57df-4073-96af-943f09d176ed","system_id":"levelo_inurba_marseille","lat":43.28615,"lon":5.35104,"is_reserved":false,"is_disabled":false,"rental_uris":{"android":"levelo://app?vid=bb48425a-57df-4073-96af-943f09d176ed","ios":"levelo://app?vid=bb48425a-57df-4073-96af-943f09d176ed"},"vehicle_type_id":"4","last_reported":1721480920,"current_range_meters":26000,"station_id":"ce4bhch2rcd13ifvqeug","pricing_plan_id":"cebpf4jnsgd1na2vs0mg"},{"bike_id":"f38fded2-f19c-4bce-8977-b2eaafb700be","system_id":"levelo_inurba_marseille","lat":43.28616,"lon":5.351,"is_reserved":false,"is_disabled":false,"rental_uris":{"android":"levelo://app?vid=f38fded2-f19c-4bce-8977-b2eaafb700be","ios":"levelo://app?vid=f38fded2-f19c-4bce-8977-b2eaafb700be"},"vehicle_type_id":"4","last_reported":1721480920,"current_range_meters":14000,"station_id":"ce4bhch2rcd13ifvqeug","pricing_plan_id":"cebpf4jnsgd1na2vs0mg"},{"bike_id":"9dcbb243-d33d-42a6-be6a-b56f2cb69e85","system_id":"levelo_inurba_marseille","lat":43.286124,"lon":5.351097,"is_reserved":false,"is_disabled":false,"rental_uris":{"android":"levelo://app?vid=9dcbb243-d33d-42a6-be6a-b56f2cb69e85","ios":"levelo://app?vid=9dcbb243-d33d-42a6-be6a-b56f2cb69e85"},"vehicle_type_id":"4","last_reported":1721480920,"current_range_meters":10800,"station_id":"","pricing_plan_id":"cebpf4jnsgd1na2vs0mg"},{"bike_id":"b4c62eaf-def6-402e-9f8a-86923720787b","system_id":"levelo_inurba_marseille","lat":43.28615,"lon":5.35101,"is_reserved":false,"is_disabled":false,"rental_uris":{"android":"levelo://app?vid=b4c62eaf-def6-402e-9f8a-86923720787b","ios":"levelo://app?vid=b4c62eaf-def6-402e-9f8a-86923720787b"},"vehicle_type_id":"4","last_reported":1721480920,"current_range_meters":27600,"station_id":"ce4bhch2rcd13ifvqeug","pricing_plan_id":"cebpf4jnsgd1na2vs0mg"},{"bike_id":"bedffdec-dbda-4739-b92d-19aa1d9b8812","system_id":"levelo_inurba_marseille","lat":43.28616,"lon":5.35096,"is_reserved":false,"is_disabled":false,"rental_uris":{"android":"levelo://app?vid=bedffdec-dbda-4739-b92d-19aa1d9b8812","ios":"levelo://app?vid=bedffdec-dbda-4739-b92d-19aa1d9b8812"},"vehicle_type_id":"4","last_reported":1721480920,"current_range_meters":29200,"station_id":"ce4bhch2rcd13ifvqeug","pricing_plan_id":"cebpf4jnsgd1na2vs0mg"},{"bike_id":"d20223e7-ecab-439a-af56-0220759ab9b4","system_id":"levelo_inurba_marseille","lat":43.28614,"lon":5.35101,"is_reserved":false,"is_disabled":false,"rental_uris":{"android":"levelo://app?vid=d20223e7-ecab-439a-af56-0220759ab9b4","ios":"levelo://app?vid=d20223e7-ecab-439a-af56-0220759ab9b4"},"vehicle_type_id":"4","last_reported":1721480920,"current_range_meters":16800,"station_id":"ce4bhch2rcd13ifvqeug","pricing_plan_id":"cebpf4jnsgd1na2vs0mg"},{"bike_id":"9ed5498a-9d0d-4d41-bddc-9b5163d4a917","system_id":"levelo_inurba_marseille","lat":43.28613,"lon":5.35102,"is_reserved":false,"is_disabled":false,"rental_uris":{"android":"levelo://app?vid=9ed5498a-9d0d-4d41-bddc-9b5163d4a917","ios":"levelo://app?vid=9ed5498a-9d0d-4d41-bddc-9b5163d4a917"},"vehicle_type_id":"4","last_reported":1721480920,"current_range_meters":21200,"station_id":"ce4bhch2rcd13ifvqeug","pricing_plan_id":"cebpf4jnsgd1na2vs0mg"},{"bike_id":"32a04c03-d4be-4e78-a393-945e526659bf","system_id":"levelo_inurba_marseille","lat":43.28612,"lon":5.35103,"is_reserved":false,"is_disabled":false,"rental_uris":{"android":"levelo://app?vid=32a04c03-d4be-4e78-a393-945e526659bf","ios":"levelo://app?vid=32a04c03-d4be-4e78-a393-945e526659bf"},"vehicle_type_id":"4","last_reported":1721480920,"current_range_meters":23600,"station_id":"ce4bhch2rcd13ifvqeug","pricing_plan_id":"cebpf4jnsgd1na2vs0mg"},{"bike_id":"3f58dbc9-73c4-4f59-b52b-a63398ec244e","system_id":"levelo_inurba_marseille","lat":43.28613,"lon":5.35099,"is_reserved":false,"is_disabled":false,"rental_uris":{"android":"levelo://app?vid=3f58dbc9-73c4-4f59-b52b-a63398ec244e","ios":"levelo://app?vid=3f58dbc9-73c4-4f59-b52b-a63398ec244e"},"vehicle_type_id":"4","last_reported":1721480920,"current_range_meters":12400,"station_id":"ce4bhch2rcd13ifvqeug","pricing_plan_id":"cebpf4jnsgd1na2vs0mg"},{"bike_id":"7898cf88-af53-4bf1-a9d9-3f259e5f11c5","system_id":"levelo_inurba_marseille","lat":43.28611,"lon":5.35102,"is_reserved":false,"is_disabled":false,"rental_uris":{"android":"levelo://app?vid=7898cf88-af53-4bf1-a9d9-3f259e5f11c5","ios":"levelo://app?vid=7898cf88-af53-4bf1-a9d9-3f259e5f11c5"},"vehicle_type_id":"4","last_reported":1721480920,"current_range_meters":22000,"station_id":"ce4bhch2rcd13ifvqeug","pricing_plan_id":"cebpf4jnsgd1na2vs0mg"},{"bike_id":"df285eb2-5213-4d15-8b95-779fd1e56cf2","system_id":"levelo_inurba_marseille","lat":43.2861,"lon":5.35105,"is_reserved":false,"is_disabled":false,"rental_uris":{"android":"levelo://app?vid=df285eb2-5213-4d15-8b95-779fd1e56cf2","ios":"levelo://app?vid=df285eb2-5213-4d15-8b95-779fd1e56cf2"},"vehicle_type_id":"4","last_reported":1721480920,"current_range_meters":28000,"station_id":"ce4bhch2rcd13ifvqeug","pricing_plan_id":"cebpf4jnsgd1na2vs0mg"},{"bike_id":"52d3a6ba-f231-4c85-b8d9-77876399d7a7","system_id":"levelo_inurba_marseille","lat":43.28612,"lon":5.35095,"is_reserved":false,"is_disabled":false,"rental_uris":{"android":"levelo://app?vid=52d3a6ba-f231-4c85-b8d9-77876399d7a7","ios":"levelo://app?vid=52d3a6ba-f231-4c85-b8d9-77876399d7a7"},"vehicle_type_id":"4","last_reported":1721480920,"current_range_meters":28800,"station_id":"ce4bhch2rcd13ifvqeug","pricing_plan_id":"cebpf4jnsgd1na2vs0mg"},{"bike_id":"9cf94f1d-5c8f-488d-86f2-19277e6f8fe0","system_id":"levelo_inurba_marseille","lat":43.2861,"lon":5.35099,"is_reserved":false,"is_disabled":false,"rental_uris":{"android":"levelo://app?vid=9cf94f1d-5c8f-488d-86f2-19277e6f8fe0","ios":"levelo://app?vid=9cf94f1d-5c8f-488d-86f2-19277e6f8fe0"},"vehicle_type_id":"4","last_reported":1721480920,"current_range_meters":13600,"station_id":"ce4bhch2rcd13ifvqeug","pricing_plan_id":"cebpf4jnsgd1na2vs0mg"},{"bike_id":"c12e89fd-00d6-46ab-a031-0a4aee9e92a9","system_id":"levelo_inurba_marseille","lat":43.28611,"lon":5.35095,"is_reserved":false,"is_disabled":false,"rental_uris":{"android":"levelo://app?vid=c12e89fd-00d6-46ab-a031-0a4aee9e92a9","ios":"levelo://app?vid=c12e89fd-00d6-46ab-a031-0a4aee9e92a9"},"vehicle_type_id":"4","last_reported":1721480920,"current_range_meters":22800,"station_id":"ce4bhch2rcd13ifvqeug","pricing_plan_id":"cebpf4jnsgd1na2vs0mg"},{"bike_id":"3c7a2b11-b2c8-40f4-afaa-8963fba4e5f9","system_id":"levelo_inurba_marseille","lat":43.283998,"lon":5.375062,"is_reserved":false,"is_disabled":false,"rental_uris":{"android":"levelo://app?vid=3c7a2b11-b2c8-40f4-afaa-8963fba4e5f9","ios":"levelo://app?vid=3c7a2b11-b2c8-40f4-afaa-8963fba4e5f9"},"vehicle_type_id":"4","last_reported":1721480920,"current_range_meters":0,"station_id":"ce4bh412rcd13ifvqds0","pricing_plan_id":"cebpf4jnsgd1na2vs0mg"},{"bike_id":"9bdabb6b-a278-435c-9a6d-a6b09b111f82","system_id":"levelo_inurba_marseille","lat":43.28384,"lon":5.35651,"is_reserved":false,"is_disabled":false,"rental_uris":{"android":"levelo://app?vid=9bdabb6b-a278-435c-9a6d-a6b09b111f82","ios":"levelo://app?vid=9bdabb6b-a278-435c-9a6d-a6b09b111f82"},"vehicle_type_id":"4","last_reported":1721480920,"current_range_meters":25600,"station_id":"","pricing_plan_id":"cebpf4jnsgd1na2vs0mg"},{"bike_id":"d15a52da-e9e8-47df-97d3-459a5e683fc1","system_id":"levelo_inurba_marseille","lat":43.319179,"lon":5.407725,"is_reserved":false,"is_disabled":false,"rental_uris":{"android":"levelo://app?vid=d15a52da-e9e8-47df-97d3-459a5e683fc1","ios":"levelo://app?vid=d15a52da-e9e8-47df-97d3-459a5e683fc1"},"vehicle_type_id":"4","last_reported":1721480920,"current_range_meters":28000,"station_id":"ce4bhq12rcd13ifvqhig","pricing_plan_id":"cebpf4jnsgd1na2vs0mg"},{"bike_id":"7014960a-dfa2-4181-a3f5-518fb78984f0","system_id":"levelo_inurba_marseille","lat":43.33717,"lon":5.391857,"is_reserved":false,"is_disabled":false,"rental_uris":{"android":"levelo://app?vid=7014960a-dfa2-4181-a3f5-518fb78984f0","ios":"levelo://app?vid=7014960a-dfa2-4181-a3f5-518fb78984f0"},"vehicle_type_id":"4","last_reported":1721480920,"current_range_meters":2400,"station_id":"ce4bhr92rcd13ifvqhsg","pricing_plan_id":"cebpf4jnsgd1na2vs0mg"},{"bike_id":"ea590ead-6208-4390-8c20-e419096c0020","system_id":"levelo_inurba_marseille","lat":43.33717,"lon":5.391857,"is_reserved":false,"is_disabled":false,"rental_uris":{"android":"levelo://app?vid=ea590ead-6208-4390-8c20-e419096c0020","ios":"levelo://app?vid=ea590ead-6208-4390-8c20-e419096c0020"},"vehicle_type_id":"4","last_reported":1721480920,"current_range_meters":21600,"station_id":"ce4bhr92rcd13ifvqhsg","pricing_plan_id":"cebpf4jnsgd1na2vs0mg"},{"bike_id":"7885d1e8-9128-47c8-8def-3d134df375b0","system_id":"levelo_inurba_marseille","lat":43.33717,"lon":5.391857,"is_reserved":false,"is_disabled":false,"rental_uris":{"android":"levelo://app?vid=7885d1e8-9128-47c8-8def-3d134df375b0","ios":"levelo://app?vid=7885d1e8-9128-47c8-8def-3d134df375b0"},"vehicle_type_id":"4","last_reported":1721480920,"current_range_meters":7200,"station_id":"ce4bhr92rcd13ifvqhsg","pricing_plan_id":"cebpf4jnsgd1na2vs0mg"},{"bike_id":"f14f6a4c-9d8a-4069-abab-e395b8c27141","system_id":"levelo_inurba_marseille","lat":43.28384,"lon":5.35349,"is_reserved":false,"is_disabled":false,"rental_uris":{"android":"levelo://app?vid=f14f6a4c-9d8a-4069-abab-e395b8c27141","ios":"levelo://app?vid=f14f6a4c-9d8a-4069-abab-e395b8c27141"},"vehicle_type_id":"4","last_reported":1721480920,"current_range_meters":25200,"station_id":"","pricing_plan_id":"cebpf4jnsgd1na2vs0mg"},{"bike_id":"288fc274-fa53-443a-a760-a18caec019c7","system_id":"levelo_inurba_marseille","lat":43.283494,"lon":5.380945,"is_reserved":false,"is_disabled":false,"rental_uris":{"android":"levelo://app?vid=288fc274-fa53-443a-a760-a18caec019c7","ios":"levelo://app?vid=288fc274-fa53-443a-a760-a18caec019c7"},"vehicle_type_id":"4","last_reported":1721480920,"current_range_meters":0,"station_id":"ce4bh412rcd13ifvqdr0","pricing_plan_id":"cebpf4jnsgd1na2vs0mg"},{"bike_id":"eea02b86-5944-4e52-a044-7e8e30df861e","system_id":"levelo_inurba_marseille","lat":43.284787,"lon":5.384116,"is_reserved":false,"is_disabled":false,"rental_uris":{"android":"levelo://app?vid=eea02b86-5944-4e52-a044-7e8e30df861e","ios":"levelo://app?vid=eea02b86-5944-4e52-a044-7e8e30df861e"},"vehicle_type_id":"4","last_reported":1721480920,"current_range_meters":20800,"station_id":"ce4bh512rcd13ifvqe3g","pricing_plan_id":"cebpf4jnsgd1na2vs0mg"},{"bike_id":"fb050ce1-b556-4e23-a932-0dd1012df0a3","system_id":"levelo_inurba_marseille","lat":43.288497,"lon":5.393089,"is_reserved":false,"is_disabled":false,"rental_uris":{"android":"levelo://app?vid=fb050ce1-b556-4e23-a932-0dd1012df0a3","ios":"levelo://app?vid=fb050ce1-b556-4e23-a932-0dd1012df0a3"},"vehicle_type_id":"4","last_reported":1721480920,"current_range_meters":15600,"station_id":"ce4bh2p2rcd13ifvqdi0","pricing_plan_id":"cebpf4jnsgd1na2vs0mg"},{"bike_id":"37641561-a84e-4866-9479-4f9f855190fc","system_id":"levelo_inurba_marseille","lat":43.284217,"lon":5.349697,"is_reserved":false,"is_disabled":false,"rental_uris":{"android":"levelo://app?vid=37641561-a84e-4866-9479-4f9f855190fc","ios":"levelo://app?vid=37641561-a84e-4866-9479-4f9f855190fc"},"vehicle_type_id":"4","last_reported":1721480920,"current_range_meters":7600,"station_id":"ce4bhbh2rcd13ifvqepg","pricing_plan_id":"cebpf4jnsgd1na2vs0mg"},{"bike_id":"71086ea9-c016-4ae1-88af-cda758842a85","system_id":"levelo_inurba_marseille","lat":43.28426,"lon":5.34987,"is_reserved":false,"is_disabled":false,"rental_uris":{"android":"levelo://app?vid=71086ea9-c016-4ae1-88af-cda758842a85","ios":"levelo://app?vid=71086ea9-c016-4ae1-88af-cda758842a85"},"vehicle_type_id":"4","last_reported":1721480920,"current_range_meters":19200,"station_id":"ce4bhbh2rcd13ifvqepg","pricing_plan_id":"cebpf4jnsgd1na2vs0mg"},{"bike_id":"d6a286de-a7c3-4960-abd7-4524eeba0f15","system_id":"levelo_inurba_marseille","lat":43.28422,"lon":5.34995,"is_reserved":false,"is_disabled":false,"rental_uris":{"android":"levelo://app?vid=d6a286de-a7c3-4960-abd7-4524eeba0f15","ios":"levelo://app?vid=d6a286de-a7c3-4960-abd7-4524eeba0f15"},"vehicle_type_id":"4","last_reported":1721480920,"current_range_meters":800,"station_id":"ce4bhbh2rcd13ifvqepg","pricing_plan_id":"cebpf4jnsgd1na2vs0mg"},{"bike_id":"f809560b-fb65-4015-9e10-8591b87b95b2","system_id":"levelo_inurba_marseille","lat":43.284254,"lon":5.349828,"is_reserved":false,"is_disabled":false,"rental_uris":{"android":"levelo://app?vid=f809560b-fb65-4015-9e10-8591b87b95b2","ios":"levelo://app?vid=f809560b-fb65-4015-9e10-8591b87b95b2"},"vehicle_type_id":"4","last_reported":1721480920,"current_range_meters":27600,"station_id":"ce4bhbh2rcd13ifvqepg","pricing_plan_id":"cebpf4jnsgd1na2vs0mg"},{"bike_id":"ff647385-617f-43a1-a97a-e8a08c6a4b8c","system_id":"levelo_inurba_marseille","lat":43.284247,"lon":5.349802,"is_reserved":false,"is_disabled":false,"rental_uris":{"android":"levelo://app?vid=ff647385-617f-43a1-a97a-e8a08c6a4b8c","ios":"levelo://app?vid=ff647385-617f-43a1-a97a-e8a08c6a4b8c"},"vehicle_type_id":"4","last_reported":1721480920,"current_range_meters":0,"station_id":"","pricing_plan_id":"cebpf4jnsgd1na2vs0mg"},{"bike_id":"88be8769-29ed-4d63-9b1f-49c87e59743c","system_id":"levelo_inurba_marseille","lat":43.284213,"lon":5.349896,"is_reserved":false,"is_disabled":false,"rental_uris":{"android":"levelo://app?vid=88be8769-29ed-4d63-9b1f-49c87e59743c","ios":"levelo://app?vid=88be8769-29ed-4d63-9b1f-49c87e59743c"},"vehicle_type_id":"4","last_reported":1721480920,"current_range_meters":7200,"station_id":"","pricing_plan_id":"cebpf4jnsgd1na2vs0mg"},{"bike_id":"7180da75-24c9-4e67-9c30-1f5f9f9aa6b2","system_id":"levelo_inurba_marseille","lat":43.28423,"lon":5.34984,"is_reserved":false,"is_disabled":false,"rental_uris":{"android":"levelo://app?vid=7180da75-24c9-4e67-9c30-1f5f9f9aa6b2","ios":"levelo://app?vid=7180da75-24c9-4e67-9c30-1f5f9f9aa6b2"},"vehicle_type_id":"4","last_reported":1721480920,"current_range_meters":15200,"station_id":"ce4bhbh2rcd13ifvqepg","pricing_plan_id":"cebpf4jnsgd1na2vs0mg"},{"bike_id":"2703c03b-f8eb-40ad-b3f1-f643fdd4ec67","system_id":"levelo_inurba_marseille","lat":43.284218,"lon":5.349862,"is_reserved":false,"is_disabled":false,"rental_uris":{"android":"levelo://app?vid=2703c03b-f8eb-40ad-b3f1-f643fdd4ec67","ios":"levelo://app?vid=2703c03b-f8eb-40ad-b3f1-f643fdd4ec67"},"vehicle_type_id":"4","last_reported":1721480920,"current_range_meters":31200,"station_id":"ce4bhbh2rcd13ifvqepg","pricing_plan_id":"cebpf4jnsgd1na2vs0mg"},{"bike_id":"c23cc35c-6b8f-4081-9516-123e55d83826","system_id":"levelo_inurba_marseille","lat":43.284219,"lon":5.3497,"is_reserved":false,"is_disabled":false,"rental_uris":{"android":"levelo://app?vid=c23cc35c-6b8f-4081-9516-123e55d83826","ios":"levelo://app?vid=c23cc35c-6b8f-4081-9516-123e55d83826"},"vehicle_type_id":"4","last_reported":1721480920,"current_range_meters":29600,"station_id":"ce4bhbh2rcd13ifvqepg","pricing_plan_id":"cebpf4jnsgd1na2vs0mg"},{"bike_id":"6f2e1312-dc44-42cc-a8cd-e3b8281589e4","system_id":"levelo_inurba_marseille","lat":43.28425,"lon":5.34975,"is_reserved":false,"is_disabled":false,"rental_uris":{"android":"levelo://app?vid=6f2e1312-dc44-42cc-a8cd-e3b8281589e4","ios":"levelo://app?vid=6f2e1312-dc44-42cc-a8cd-e3b8281589e4"},"vehicle_type_id":"4","last_reported":1721480920,"current_range_meters":22800,"station_id":"ce4bhbh2rcd13ifvqepg","pricing_plan_id":"cebpf4jnsgd1na2vs0mg"},{"bike_id":"148ea8df-d6cd-4f3f-b508-161eee04e0af","system_id":"levelo_inurba_marseille","lat":43.28422,"lon":5.34984,"is_reserved":false,"is_disabled":false,"rental_uris":{"android":"levelo://app?vid=148ea8df-d6cd-4f3f-b508-161eee04e0af","ios":"levelo://app?vid=148ea8df-d6cd-4f3f-b508-161eee04e0af"},"vehicle_type_id":"4","last_reported":1721480920,"current_range_meters":8800,"station_id":"ce4bhbh2rcd13ifvqepg","pricing_plan_id":"cebpf4jnsgd1na2vs0mg"},{"bike_id":"30022924-d539-46bc-9007-e6c2d21e813a","system_id":"levelo_inurba_marseille","lat":43.284214,"lon":5.349847,"is_reserved":false,"is_disabled":false,"rental_uris":{"android":"levelo://app?vid=30022924-d539-46bc-9007-e6c2d21e813a","ios":"levelo://app?vid=30022924-d539-46bc-9007-e6c2d21e813a"},"vehicle_type_id":"4","last_reported":1721480920,"current_range_meters":19600,"station_id":"","pricing_plan_id":"cebpf4jnsgd1na2vs0mg"},{"bike_id":"71ebfac9-3027-41c2-98fb-1a513de8d09d","system_id":"levelo_inurba_marseille","lat":43.284217,"lon":5.349697,"is_reserved":false,"is_disabled":false,"rental_uris":{"android":"levelo://app?vid=71ebfac9-3027-41c2-98fb-1a513de8d09d","ios":"levelo://app?vid=71ebfac9-3027-41c2-98fb-1a513de8d09d"},"vehicle_type_id":"4","last_reported":1721480920,"current_range_meters":31200,"station_id":"ce4bhbh2rcd13ifvqepg","pricing_plan_id":"cebpf4jnsgd1na2vs0mg"},{"bike_id":"2376b671-913f-458c-b95a-66205e2ccad3","system_id":"levelo_inurba_marseille","lat":43.284219,"lon":5.3497,"is_reserved":false,"is_disabled":false,"rental_uris":{"android":"levelo://app?vid=2376b671-913f-458c-b95a-66205e2ccad3","ios":"levelo://app?vid=2376b671-913f-458c-b95a-66205e2ccad3"},"vehicle_type_id":"4","last_reported":1721480920,"current_range_meters":27600,"station_id":"ce4bhbh2rcd13ifvqepg","pricing_plan_id":"cebpf4jnsgd1na2vs0mg"},{"bike_id":"4e59a4a2-597a-4c22-aa05-dac544bee0f5","system_id":"levelo_inurba_marseille","lat":43.28419,"lon":5.34989,"is_reserved":false,"is_disabled":false,"rental_uris":{"android":"levelo://app?vid=4e59a4a2-597a-4c22-aa05-dac544bee0f5","ios":"levelo://app?vid=4e59a4a2-597a-4c22-aa05-dac544bee0f5"},"vehicle_type_id":"4","last_reported":1721480920,"current_range_meters":30800,"station_id":"ce4bhbh2rcd13ifvqepg","pricing_plan_id":"cebpf4jnsgd1na2vs0mg"},{"bike_id":"9dc9c6f5-7fec-45a0-a783-b7f117fde958","system_id":"levelo_inurba_marseille","lat":43.28422,"lon":5.349789,"is_reserved":false,"is_disabled":false,"rental_uris":{"android":"levelo://app?vid=9dc9c6f5-7fec-45a0-a783-b7f117fde958","ios":"levelo://app?vid=9dc9c6f5-7fec-45a0-a783-b7f117fde958"},"vehicle_type_id":"4","last_reported":1721480920,"current_range_meters":23200,"station_id":"ce4bhbh2rcd13ifvqepg","pricing_plan_id":"cebpf4jnsgd1na2vs0mg"},{"bike_id":"1c5f6d69-995b-4f5e-8226-a000b82dbf5b","system_id":"levelo_inurba_marseille","lat":43.284212,"lon":5.349802,"is_reserved":false,"is_disabled":false,"rental_uris":{"android":"levelo://app?vid=1c5f6d69-995b-4f5e-8226-a000b82dbf5b","ios":"levelo://app?vid=1c5f6d69-995b-4f5e-8226-a000b82dbf5b"},"vehicle_type_id":"4","last_reported":1721480920,"current_range_meters":31200,"station_id":"ce4bhbh2rcd13ifvqepg","pricing_plan_id":"cebpf4jnsgd1na2vs0mg"},{"bike_id":"5e2a1a32-be3d-4886-8e52-7ffe1048ad9d","system_id":"levelo_inurba_marseille","lat":43.284194,"lon":5.349839,"is_reserved":false,"is_disabled":false,"rental_uris":{"android":"levelo://app?vid=5e2a1a32-be3d-4886-8e52-7ffe1048ad9d","ios":"levelo://app?vid=5e2a1a32-be3d-4886-8e52-7ffe1048ad9d"},"vehicle_type_id":"4","last_reported":1721480920,"current_range_meters":22000,"station_id":"ce4bhbh2rcd13ifvqepg","pricing_plan_id":"cebpf4jnsgd1na2vs0mg"},{"bike_id":"f28d2d68-a380-44c4-a92c-272e4ea74e56","system_id":"levelo_inurba_marseille","lat":43.284214,"lon":5.349706,"is_reserved":false,"is_disabled":false,"rental_uris":{"android":"levelo://app?vid=f28d2d68-a380-44c4-a92c-272e4ea74e56","ios":"levelo://app?vid=f28d2d68-a380-44c4-a92c-272e4ea74e56"},"vehicle_type_id":"4","last_reported":1721480920,"current_range_meters":21600,"station_id":"ce4bhbh2rcd13ifvqepg","pricing_plan_id":"cebpf4jnsgd1na2vs0mg"},