{"last_updated":1738868847,"ttl":60,"version":"2.2","data":{"bikes":[{"bike_id":"37505204-c116-4162-9fa1-09922c60f1d9","system_id":"levelo_inurba_marseille","lat":43.31129,"lon":5.37774,"is_reserved":false,"is_disabled":false,"rental_uris":{"android":"levelo://app?vid=37505204-c116-4162-9fa1-09922c60f1d9","ios":"levelo://app?vid=37505204-c116-4162-9fa1-09922c60f1d9"},"vehicle_type_id":"4","last_reported":1738868847,"current_range_meters":39200,"station_id":"ce4bgt92rcd13ifvqcg0","pricing_plan_id":"cebpf4jnsgd1na2vs0mg"},{"bike_id":"b7afcc04-cb11-440a-a531-4c808c1c4618","system_id":"levelo_inurba_marseille","lat":43.22897,"lon":5.35448,"is_reserved":false,"is_disabled":false,"rental_uris":{"android":"levelo://app?vid=b7afcc04-cb11-440a-a531-4c808c1c4618","ios":"levelo://app?vid=b7afcc04-cb11-440a-a531-4c808c1c4618"},"vehicle_type_id":"4","last_reported":1738868847,"current_range_meters":22800,"station_id":"","pricing_plan_id":"cebpf4jnsgd1na2vs0mg"},{"bike_id":"c5f5a10d-c4ee-4670-855c-f90b9203bdb7","system_id":"levelo_inurba_marseille","lat":43.29523,"lon":5.39052,"is_reserved":false,"is_disabled":false,"rental_uris":{"android":"levelo://app?vid=c5f5a10d-c4ee-4670-855c-f90b9203bdb7","ios":"levelo://app?vid=c5f5a10d-c4ee-4670-855c-f90b9203bdb7"},"vehicle_type_id":"4","last_reported":1738868847,"current_range_meters":38400,"station_id":"ce4bh3p2rcd13ifvqdp0","pricing_plan_id":"cebpf4jnsgd1na2vs0mg"},{"bike_id":"0467a076-a2ad-41b7-a012-e38470b2d7f6","system_id":"levelo_inurba_marseille","lat":43.24996,"lon":5.38928,"is_reserved":false,"is_disabled":false,"rental_uris":{"android":"levelo://app?vid=0467a076-a2ad-41b7-a012-e38470b2d7f6","ios":"levelo://app?vid=0467a076-a2ad-41b7-a012-e38470b2d7f6"},"vehicle_type_id":"4","last_reported":1738868847,"current_range_meters":9600,"station_id":"ce4bhgp2rcd13ifvqfd0","pricing_plan_id":"cebpf4jnsgd1na2vs0mg"},{"bike_id":"15346f74-9f16-4568-a433-2284288ce709","system_id":"levelo_inurba_marseille","lat":43.28851,"lon":5.39324,"is_reserved":false,"is_disabled":false,"rental_uris":{"android":"levelo://app?vid=15346f74-9f16-4568-a433-2284288ce709","ios":"levelo://app?vid=15346f74-9f16-4568-a433-2284288ce709"},"vehicle_type_id":"4","last_reported":1738868847,"current_range_meters":7200,"station_id":"ce4bh2p2rcd13ifvqdi0","pricing_plan_id":"cebpf4jnsgd1na2vs0mg"},{"bike_id":"6f1b8212-3f5a-4978-864e-5e174cc6fd25","system_id":"levelo_inurba_marseille","lat":43.2957,"lon":5.42269,"is_reserved":false,"is_disabled":false,"rental_uris":{"android":"levelo://app?vid=6f1b8212-3f5a-4978-864e-5e174cc6fd25","ios":"levelo://app?vid=6f1b8212-3f5a-4978-864e-5e174cc6fd25"},"vehicle_type_id":"4","last_reported":1738868847,"current_range_meters":38800,"station_id":"ce4bhph2rcd13ifvqhdg","pricing_plan_id":"cebpf4jnsgd1na2vs0mg"},{"bike_id":"0b370460-2bdc-4346-a1f4-7aeb9dd2a707","system_id":"levelo_inurba_marseille","lat":43.28632,"lon":5.39138,"is_reserved":false,"is_disabled":true,"rental_uris":{"android":"levelo://app?vid=0b370460-2bdc-4346-a1f4-7aeb9dd2a707","ios":"levelo://app?vid=0b370460-2bdc-4346-a1f4-7aeb9dd2a707"},"vehicle_type_id":"4","last_reported":1738868847,"current_range_meters":18000,"station_id":"","pricing_plan_id":"cebpf4jnsgd1na2vs0mg"},{"bike_id":"7fd47275-2594-47ff-96d0-51746e5bc128","system_id":"levelo_inurba_marseille","lat":43.30632,"lon":5.40087,"is_reserved":false,"is_disabled":true,"rental_uris":{"android":"levelo://app?vid=7fd47275-2594-47ff-96d0-51746e5bc128","ios":"levelo://app?vid=7fd47275-2594-47ff-96d0-51746e5bc128"},"vehicle_type_id":"4","last_reported":1738868847,"current_range_meters":0,"station_id":"ce4bh112rcd13ifvqda0","pricing_plan_id":"cebpf4jnsgd1na2vs0mg"},{"bike_id":"9094078c-7c29-411d-8877-ca6848fb2f24","system_id":"levelo_inurba_marseille","lat":43.27894,"lon":5.38005,"is_reserved":false,"is_disabled":false,"rental_uris":{"android":"levelo://app?vid=9094078c-7c29-411d-8877-ca6848fb2f24","ios":"levelo://app?vid=9094078c-7c29-411d-8877-ca6848fb2f24"},"vehicle_type_id":"4","last_reported":1738868847,"current_range_meters":14000,"station_id":"ce4bhf92rcd13ifvqf50","pricing_plan_id":"cebpf4jnsgd1na2vs0mg"},{"bike_id":"34935e53-26cb-4f99-8f91-a3b2a75e140f","system_id":"levelo_inurba_marseille","lat":43.26202,"lon":5.37928,"is_reserved":false,"is_disabled":false,"rental_uris":{"android":"levelo://app?vid=34935e53-26cb-4f99-8f91-a3b2a75e140f","ios":"levelo://app?vid=34935e53-26cb-4f99-8f91-a3b2a75e140f"},"vehicle_type_id":"4","last_reported":1738868847,"current_range_meters":17200,"station_id":"ce4bhjp2rcd13ifvqg90","pricing_plan_id":"cebpf4jnsgd1na2vs0mg"},{"bike_id":"41748c4d-fb7e-4f03-a7ef-71bbf6c5209c","system_id":"levelo_inurba_marseille","lat":43.248077,"lon":5.374573,"is_reserved":false,"is_disabled":false,"rental_uris":{"android":"levelo://app?vid=41748c4d-fb7e-4f03-a7ef-71bbf6c5209c","ios":"levelo://app?vid=41748c4d-fb7e-4f03-a7ef-71bbf6c5209c"},"vehicle_type_id":"4","last_reported":1738868847,"current_range_meters":38000,"station_id":"ce4bhgh2rcd13ifvqfb0","pricing_plan_id":"cebpf4jnsgd1na2vs0mg"},{"bike_id":"bf38fded-d17e-400e-baca-e907c7d258ed","system_id":"levelo_inurba_marseille","lat":43.31631,"lon":5.40391,"is_reserved":false,"is_disabled":false,"rental_uris":{"android":"levelo://app?vid=bf38fded-d17e-400e-baca-e907c7d258ed","ios":"levelo://app?vid=bf38fded-d17e-400e-baca-e907c7d258ed"},"vehicle_type_id":"4","last_reported":1738868847,"current_range_meters":17200,"station_id":"ce4bh012rcd13ifvqd00","pricing_plan_id":"cebpf4jnsgd1na2vs0mg"},{"bike_id":"b5511404-8696-4f8e-9c98-ad64c6d4525f","system_id":"levelo_inurba_marseille","lat":43.26688,"lon":5.38253,"is_reserved":false,"is_disabled":false,"rental_uris":{"android":"levelo://app?vid=b5511404-8696-4f8e-9c98-ad64c6d4525f","ios":"levelo://app?vid=b5511404-8696-4f8e-9c98-ad64c6d4525f"},"vehicle_type_id":"4","last_reported":1738868847,"current_range_meters":14800,"station_id":"ce4bhg92rcd13ifvqf90","pricing_plan_id":"cebpf4jnsgd1na2vs0mg"},{"bike_id":"0f8e9dff-9174-4729-992b-495657e0a2f0","system_id":"levelo_inurba_marseille","lat":43.31271,"lon":5.4018,"is_reserved":false,"is_disabled":true,"rental_uris":{"android":"levelo://app?vid=0f8e9dff-9174-4729-992b-495657e0a2f0","ios":"levelo://app?vid=0f8e9dff-9174-4729-992b-495657e0a2f0"},"vehicle_type_id":"4","last_reported":1738868847,"current_range_meters":1200,"station_id":"ce4bh092rcd13ifvqd30","pricing_plan_id":"cebpf4jnsgd1na2vs0mg"},{"bike_id":"17866228-76b2-4a0d-8b48-08963ba9a3b1","system_id":"levelo_inurba_marseille","lat":43.29029,"lon":5.38646,"is_reserved":false,"is_disabled":false,"rental_uris":{"android":"levelo://app?vid=17866228-76b2-4a0d-8b48-08963ba9a3b1","ios":"levelo://app?vid=17866228-76b2-4a0d-8b48-08963ba9a3b1"},"vehicle_type_id":"4","last_reported":1738868847,"current_range_meters":28000,"station_id":"ce4bh4p2rcd13ifvqe0g","pricing_plan_id":"cebpf4jnsgd1na2vs0mg"},{"bike_id":"b299b2f0-24f1-4e27-b760-1dab1ff9f84c","system_id":"levelo_inurba_marseille","lat":43.26092,"lon":5.39309,"is_reserved":false,"is_disabled":false,"rental_uris":{"android":"levelo://app?vid=b299b2f0-24f1-4e27-b760-1dab1ff9f84c","ios":"levelo://app?vid=b299b2f0-24f1-4e27-b760-1dab1ff9f84c"},"vehicle_type_id":"4","last_reported":1738868847,"current_range_meters":30400,"station_id":"ce4bhh92rcd13ifvqfj0","pricing_plan_id":"cebpf4jnsgd1na2vs0mg"},{"bike_id":"af5cc240-0e1d-4647-9b71-eb1c24f51a5e","system_id":"levelo_inurba_marseille","lat":43.31753,"lon":5.39009,"is_reserved":false,"is_disabled":false,"rental_uris":{"android":"levelo://app?vid=af5cc240-0e1d-4647-9b71-eb1c24f51a5e","ios":"levelo://app?vid=af5cc240-0e1d-4647-9b71-eb1c24f51a5e"},"vehicle_type_id":"4","last_reported":1738868847,"current_range_meters":29600,"station_id":"ce4bhqp2rcd13ifvqhng","pricing_plan_id":"cebpf4jnsgd1na2vs0mg"},{"bike_id":"ce12f6c6-26c3-41fe-a30a-3264422bd997","system_id":"levelo_inurba_marseille","lat":43.26208,"lon":5.37444,"is_reserved":false,"is_disabled":false,"rental_uris":{"android":"levelo://app?vid=ce12f6c6-26c3-41fe-a30a-3264422bd997","ios":"levelo://app?vid=ce12f6c6-26c3-41fe-a30a-3264422bd997"},"vehicle_type_id":"4","last_reported":1738868847,"current_range_meters":38800,"station_id":"ce4bhgp2rcd13ifvqfc0","pricing_plan_id":"cebpf4jnsgd1na2vs0mg"},{"bike_id":"aa874f21-4899-4c94-ac56-d6c355723cbb","system_id":"levelo_inurba_marseille","lat":43.23194,"lon":5.39978,"is_reserved":false,"is_disabled":false,"rental_uris":{"android":"levelo://app?vid=aa874f21-4899-4c94-ac56-d6c355723cbb","ios":"levelo://app?vid=aa874f21-4899-4c94-ac56-d6c355723cbb"},"vehicle_type_id":"4","last_reported":1738868847,"current_range_meters":36800,"station_id":"ce4bhn12rcd13ifvqgqg","pricing_plan_id":"cebpf4jnsgd1na2vs0mg"},{"bike_id":"19b11498-b7da-498a-a065-c091cc335a9f","system_id":"levelo_inurba_marseille","lat":43.231943,"lon":5.39979,"is_reserved":false,"is_disabled":false,"rental_uris":{"android":"levelo://app?vid=19b11498-b7da-498a-a065-c091cc335a9f","ios":"levelo://app?vid=19b11498-b7da-498a-a065-c091cc335a9f"},"vehicle_type_id":"4","last_reported":1738868847,"current_range_meters":35600,"station_id":"ce4bhn12rcd13ifvqgqg","pricing_plan_id":"cebpf4jnsgd1na2vs0mg"},{"bike_id":"fa7fdf41-c0fd-4902-a741-6e8c18b2f813","system_id":"levelo_inurba_marseille","lat":43.24808,"lon":5.37457,"is_reserved":false,"is_disabled":false,"rental_uris":{"android":"levelo://app?vid=fa7fdf41-c0fd-4902-a741-6e8c18b2f813","ios":"levelo://app?vid=fa7fdf41-c0fd-4902-a741-6e8c18b2f813"},"vehicle_type_id":"4","last_reported":1738868847,"current_range_meters":14800,"station_id":"ce4bhgh2rcd13ifvqfb0","pricing_plan_id":"cebpf4jnsgd1na2vs0mg"},{"bike_id":"7ea740fc-5e21-4382-8e5c-0302a16a92d3","system_id":"levelo_inurba_marseille","lat":43.30341,"lon":5.41878,"is_reserved":false,"is_disabled":false,"rental_uris":{"android":"levelo://app?vid=7ea740fc-5e21-4382-8e5c-0302a16a92d3","ios":"levelo://app?vid=7ea740fc-5e21-4382-8e5c-0302a16a92d3"},"vehicle_type_id":"4","last_reported":1738868847,"current_range_meters":10800,"station_id":"ce4bhop2rcd13ifvqh7g","pricing_plan_id":"cebpf4jnsgd1na2vs0mg"},{"bike_id":"d0912284-7d68-4397-a466-0da512ff614b","system_id":"levelo_inurba_marseille","lat":43.29278,"lon":5.37191,"is_reserved":false,"is_disabled":false,"rental_uris":{"android":"levelo://app?vid=d0912284-7d68-4397-a466-0da512ff614b","ios":"levelo://app?vid=d0912284-7d68-4397-a466-0da512ff614b"},"vehicle_type_id":"4","last_reported":1738868847,"current_range_meters":32000,"station_id":"ce4bgh92rcd13ifvqb40","pricing_plan_id":"cebpf4jnsgd1na2vs0mg"},{"bike_id":"422d1ae9-3f23-4c23-952d-112dc4aaa449","system_id":"levelo_inurba_marseille","lat":43.29771,"lon":5.38033,"is_reserved":false,"is_disabled":false,"rental_uris":{"android":"levelo://app?vid=422d1ae9-3f23-4c23-952d-112dc4aaa449","ios":"levelo://app?vid=422d1ae9-3f23-4c23-952d-112dc4aaa449"},"vehicle_type_id":"4","last_reported":1738868847,"current_range_meters":12400,"station_id":"","pricing_plan_id":"cebpf4jnsgd1na2vs0mg"},{"bike_id":"d327d221-a4ae-4ce7-8941-3960805fc399","system_id":"levelo_inurba_marseille","lat":43.3376,"lon":5.37472,"is_reserved":false,"is_disabled":true,"rental_uris":{"android":"levelo://app?vid=d327d221-a4ae-4ce7-8941-3960805fc399","ios":"levelo://app?vid=d327d221-a4ae-4ce7-8941-3960805fc399"},"vehicle_type_id":"4","last_reported":1738868847,"current_range_meters":33200,"station_id":"","pricing_plan_id":"cebpf4jnsgd1na2vs0mg"},{"bike_id":"b0f3a0f7-e2de-4f03-875f-8604e476a306","system_id":"levelo_inurba_marseille","lat":43.29162,"lon":5.37155,"is_reserved":false,"is_disabled":false,"rental_uris":{"android":"levelo://app?vid=b0f3a0f7-e2de-4f03-875f-8604e476a306","ios":"levelo://app?vid=b0f3a0f7-e2de-4f03-875f-8604e476a306"},"vehicle_type_id":"4","last_reported":1738868847,"current_range_meters":14800,"station_id":"ce4bha92rcd13ifvqeh0","pricing_plan_id":"cebpf4jnsgd1na2vs0mg"},{"bike_id":"098d220b-e449-43ea-8d6d-9fc78e0abad9","system_id":"levelo_inurba_marseille","lat":43.22929,"lon":5.3538,"is_reserved":false,"is_disabled":false,"rental_uris":{"android":"levelo://app?vid=098d220b-e449-43ea-8d6d-9fc78e0abad9","ios":"levelo://app?vid=098d220b-e449-43ea-8d6d-9fc78e0abad9"},"vehicle_type_id":"4","last_reported":1738868847,"current_range_meters":38800,"station_id":"cpo3532slgdg3j2ikp40","pricing_plan_id":"cebpf4jnsgd1na2vs0mg"},{"bike_id":"3de2a62f-ee8b-4633-8581-80f610f7d857","system_id":"levelo_inurba_marseille","lat":43.24538,"lon":5.39527,"is_reserved":false,"is_disabled":true,"rental_uris":{"android":"levelo://app?vid=3de2a62f-ee8b-4633-8581-80f610f7d857","ios":"levelo://app?vid=3de2a62f-ee8b-4633-8581-80f610f7d857"},"vehicle_type_id":"4","last_reported":1738868847,"current_range_meters":400,"station_id":"ce4bhlp2rcd13ifvqgjg","pricing_plan_id":"cebpf4jnsgd1na2vs0mg"},{"bike_id":"289d8e33-43b4-468e-acd1-1af0d007e8ce","system_id":"levelo_inurba_marseille","lat":43.341387,"lon":5.409067,"is_reserved":false,"is_disabled":false,"rental_uris":{"android":"levelo://app?vid=289d8e33-43b4-468e-acd1-1af0d007e8ce","ios":"levelo://app?vid=289d8e33-43b4-468e-acd1-1af0d007e8ce"},"vehicle_type_id":"4","last_reported":1738868847,"current_range_meters":29600,"station_id":"ce4bhqh2rcd13ifvqhlg","pricing_plan_id":"cebpf4jnsgd1na2vs0mg"},{"bike_id":"e72514e9-9fb0-4cf4-9627-2bdb46835a05","system_id":"levelo_inurba_marseille","lat":43.28727,"lon":5.36093,"is_reserved":false,"is_disabled":false,"rental_uris":{"android":"levelo://app?vid=e72514e9-9fb0-4cf4-9627-2bdb46835a05","ios":"levelo://app?vid=e72514e9-9fb0-4cf4-9627-2bdb46835a05"},"vehicle_type_id":"4","last_reported":1738868847,"current_range_meters":36400,"station_id":"cki0cbj6b192h4jlfktg","pricing_plan_id":"cebpf4jnsgd1na2vs0mg"},{"bike_id":"b99b6123-dd83-4325-bf60-81fb15f0f429","system_id":"levelo_inurba_marseille","lat":43.30884,"lon":5.39655,"is_reserved":false,"is_disabled":false,"rental_uris":{"android":"levelo://app?vid=b99b6123-dd83-4325-bf60-81fb15f0f429","ios":"levelo://app?vid=b99b6123-dd83-4325-bf60-81fb15f0f429"},"vehicle_type_id":"4","last_reported":1738868847,"current_range_meters":12800,"station_id":"ce4bh012rcd13ifvqcv0","pricing_plan_id":"cebpf4jnsgd1na2vs0mg"},{"bike_id":"8134c42b-15c7-43df-91b1-9cea8c89299b","system_id":"levelo_inurba_marseille","lat":43.25868,"lon":5.39895,"is_reserved":false,"is_disabled":true,"rental_uris":{"android":"levelo://app?vid=8134c42b-15c7-43df-91b1-9cea8c89299b","ios":"levelo://app?vid=8134c42b-15c7-43df-91b1-9cea8c89299b"},"vehicle_type_id":"4","last_reported":1738868847,"current_range_meters":32400,"station_id":"ce4bhl92rcd13ifvqghg","pricing_plan_id":"cebpf4jnsgd1na2vs0mg"},{"bike_id":"edaf17a3-9fb8-4281-8efa-d1063bb06377","system_id":"levelo_inurba_marseille","lat":43.27914,"lon":5.3958,"is_reserved":false,"is_disabled":false,"rental_uris":{"android":"levelo://app?vid=edaf17a3-9fb8-4281-8efa-d1063bb06377","ios":"levelo://app?vid=edaf17a3-9fb8-4281-8efa-d1063bb06377"},"vehicle_type_id":"4","last_reported":1738868847,"current_range_meters":3600,"station_id":"ce4bhf92rcd13ifvqf40","pricing_plan_id":"cebpf4jnsgd1na2vs0mg"},{"bike_id":"d7ead273-bf60-49f8-8869-552a00114485","system_id":"levelo_inurba_marseille","lat":43.30809,"lon":5.39206,"is_reserved":false,"is_disabled":true,"rental_uris":{"android":"levelo://app?vid=d7ead273-bf60-49f8-8869-552a00114485","ios":"levelo://app?vid=d7ead273-bf60-49f8-8869-552a00114485"},"vehicle_type_id":"4","last_reported":1738868847,"current_range_meters":0,"station_id":"","pricing_plan_id":"cebpf4jnsgd1na2vs0mg"},{"bike_id":"0002452e-e709-42bb-b579-a6a62a828b87","system_id":"levelo_inurba_marseille","lat":43.29749,"lon":5.37275,"is_reserved":false,"is_disabled":false,"rental_uris":{"android":"levelo://app?vid=0002452e-e709-42bb-b579-a6a62a828b87","ios":"levelo://app?vid=0002452e-e709-42bb-b579-a6a62a828b87"},"vehicle_type_id":"4","last_reported":1738868847,"current_range_meters":24400,"station_id":"","pricing_plan_id":"cebpf4jnsgd1na2vs0mg"},{"bike_id":"d1a6678d-a3d2-4757-8150-b671f6e9633d","system_id":"levelo_inurba_marseille","lat":43.28453,"lon":5.3589,"is_reserved":false,"is_disabled":false,"rental_uris":{"android":"levelo://app?vid=d1a6678d-a3d2-4757-8150-b671f6e9633d","ios":"levelo://app?vid=d1a6678d-a3d2-4757-8150-b671f6e9633d"},"vehicle_type_id":"4","last_reported":1738868847,"current_range_meters":14000,"station_id":"ce4bhah2rcd13ifvqei0","pricing_plan_id":"cebpf4jnsgd1na2vs0mg"},{"bike_id":"4dadc554-6411-4704-8abf-1aab94e0e42e","system_id":"levelo_inurba_marseille","lat":43.28462,"lon":5.35886,"is_reserved":false,"is_disabled":true,"rental_uris":{"android":"levelo://app?vid=4dadc554-6411-4704-8abf-1aab94e0e42e","ios":"levelo://app?vid=4dadc554-6411-4704-8abf-1aab94e0e42e"},"vehicle_type_id":"4","last_reported":1738868847,"current_range_meters":800,"station_id":"ce4bhah2rcd13ifvqei0","pricing_plan_id":"cebpf4jnsgd1na2vs0mg"},{"bike_id":"4ed068d3-7355-4fe3-983e-d958d680cef4","system_id":"levelo_inurba_marseille","lat":43.30804,"lon":5.43522,"is_reserved":false,"is_disabled":false,"rental_uris":{"android":"levelo://app?vid=4ed068d3-7355-4fe3-983e-d958d680cef4","ios":"levelo://app?vid=4ed068d3-7355-4fe3-983e-d958d680cef4"},"vehicle_type_id":"4","last_reported":1738868847,"current_range_meters":38800,"station_id":"ce4bhph2rcd13ifvqheg","pricing_plan_id":"cebpf4jnsgd1na2vs0mg"},{"bike_id":"a6d88b09-1a8b-4fb2-b6e4-00f67860faad","system_id":"levelo_inurba_marseille","lat":43.28711,"lon":5.39988,"is_reserved":false,"is_disabled":false,"rental_uris":{"android":"levelo://app?vid=a6d88b09-1a8b-4fb2-b6e4-00f67860faad","ios":"levelo://app?vid=a6d88b09-1a8b-4fb2-b6e4-00f67860faad"},"vehicle_type_id":"4","last_reported":1738868847,"current_range_meters":36800,"station_id":"ce4bho92rcd13ifvqh3g","pricing_plan_id":"cebpf4jnsgd1na2vs0mg"},{"bike_id":"3078e8ce-5d59-4082-8b1a-8d753b4f6935","system_id":"levelo_inurba_marseille","lat":43.23188,"lon":5.39971,"is_reserved":false,"is_disabled":false,"rental_uris":{"android":"levelo://app?vid=3078e8ce-5d59-4082-8b1a-8d753b4f6935","ios":"levelo://app?vid=3078e8ce-5d59-4082-8b1a-8d753b4f6935"},"vehicle_type_id":"4","last_reported":1738868847,"current_range_meters":38800,"station_id":"ce4bhn12rcd13ifvqgqg","pricing_plan_id":"cebpf4jnsgd1na2vs0mg"},{"bike_id":"b1e15155-8511-43e5-bd75-fed6364538ed","system_id":"levelo_inurba_marseille","lat":43.33018,"lon":5.39031,"is_reserved":false,"is_disabled":false,"rental_uris":{"android":"levelo://app?vid=b1e15155-8511-43e5-bd75-fed6364538ed","ios":"levelo://app?vid=b1e15155-8511-43e5-bd75-fed6364538ed"},"vehicle_type_id":"4","last_reported":1738868847,"current_range_meters":32400,"station_id":"ce4bhr92rcd13ifvqhrg","pricing_plan_id":"cebpf4jnsgd1na2vs0mg"},{"bike_id":"1ba82e92-25d9-4c3a-a37b-7009e2459c95","system_id":"levelo_inurba_marseille","lat":43.3136,"lon":5.38488,"is_reserved":false,"is_disabled":false,"rental_uris":{"android":"levelo://app?vid=1ba82e92-25d9-4c3a-a37b-7009e2459c95","ios":"levelo://app?vid=1ba82e92-25d9-4c3a-a37b-7009e2459c95"},"vehicle_type_id":"4","last_reported":1738868847,"current_range_meters":3200,"station_id":"ce4bgt92rcd13ifvqcf0","pricing_plan_id":"cebpf4jnsgd1na2vs0mg"},{"bike_id":"a8e76632-6d27-4a5d-bcf5-de064ffe9c8a","system_id":"levelo_inurba_marseille","lat":43.33801,"lon":5.37403,"is_reserved":false,"is_disabled":false,"rental_uris":{"android":"levelo://app?vid=a8e76632-6d27-4a5d-bcf5-de064ffe9c8a","ios":"levelo://app?vid=a8e76632-6d27-4a5d-bcf5-de064ffe9c8a"},"vehicle_type_id":"4","last_reported":1738868847,"current_range_meters":13600,"station_id":"","pricing_plan_id":"cebpf4jnsgd1na2vs0mg"},{"bike_id":"8000d174-79d4-4c90-a6b8-45b3d2a5a2d5","system_id":"levelo_inurba_marseille","lat":43.31361,"lon":5.3849,"is_reserved":false,"is_disabled":false,"rental_uris":{"android":"levelo://app?vid=8000d174-79d4-4c90-a6b8-45b3d2a5a2d5","ios":"levelo://app?vid=8000d174-79d4-4c90-a6b8-45b3d2a5a2d5"},"vehicle_type_id":"4","last_reported":1738868847,"current_range_meters":35600,"station_id":"ce4bgt92rcd13ifvqcf0","pricing_plan_id":"cebpf4jnsgd1na2vs0mg"},{"bike_id":"b7170db3-19dc-4a85-8569-b67a5fe155b0","system_id":"levelo_inurba_marseille","lat":43.28717,"lon":5.37936,"is_reserved":false,"is_disabled":false,"rental_uris":{"android":"levelo://app?vid=b7170db3-19dc-4a85-8569-b67a5fe155b0","ios":"levelo://app?vid=b7170db3-19dc-4a85-8569-b67a5fe155b0"},"vehicle_type_id":"4","last_reported":1738868847,"current_range_meters":39200,"station_id":"ce4bh9p2rcd13ifvqec0","pricing_plan_id":"cebpf4jnsgd1na2vs0mg"},{"bike_id":"e1b99d5d-6d75-49ef-9fc3-6b042ac84dd7","system_id":"levelo_inurba_marseille","lat":43.293,"lon":5.37168,"is_reserved":false,"is_disabled":false,"rental_uris":{"android":"levelo://app?vid=e1b99d5d-6d75-49ef-9fc3-6b042ac84dd7","ios":"levelo://app?vid=e1b99d5d-6d75-49ef-9fc3-6b042ac84dd7"},"vehicle_type_id":"4","last_reported":1738868847,"current_range_meters":33600,"station_id":"ce4bgh92rcd13ifvqb40","pricing_plan_id":"cebpf4jnsgd1na2vs0mg"},{"bike_id":"15d13832-3ae5-42e6-82d9-4929333906d9","system_id":"levelo_inurba_marseille","lat":43.33018,"lon":5.39035,"is_reserved":false,"is_disabled":false,"rental_uris":{"android":"levelo://app?vid=15d13832-3ae5-42e6-82d9-4929333906d9","ios":"levelo://app?vid=15d13832-3ae5-42e6-82d9-4929333906d9"},"vehicle_type_id":"4","last_reported":1738868847,"current_range_meters":26800,"station_id":"ce4bhr92rcd13ifvqhrg","pricing_plan_id":"cebpf4jnsgd1na2vs0mg"},{"bike_id":"f9bc7b10-8440-46aa-8f5e-477165c9a8f6","system_id":"levelo_inurba_marseille","lat":43.27996,"lon":5.40014,"is_reserved":false,"is_disabled":false,"rental_uris":{"android":"levelo://app?vid=f9bc7b10-8440-46aa-8f5e-477165c9a8f6","ios":"levelo://app?vid=f9bc7b10-8440-46aa-8f5e-477165c9a8f6"},"vehicle_type_id":"4","last_reported":1738868847,"current_range_meters":10800,"station_id":"ce4bho92rcd13ifvqh4g","pricing_plan_id":"cebpf4jnsgd1na2vs0mg"},{"bike_id":"18d3bd0a-bc73-45ff-a7b9-72f3471820cb","system_id":"levelo_inurba_marseille","lat":43.29285,"lon":5.38447,"is_reserved":false,"is_disabled":false,"rental_uris":{"android":"levelo://app?vid=18d3bd0a-bc73-45ff-a7b9-72f3471820cb","ios":"levelo://app?vid=18d3bd0a-bc73-45ff-a7b9-72f3471820cb"},"vehicle_type_id":"4","last_reported":1738868847,"current_range_meters":38800,"station_id":"ce4bh692rcd13ifvqea0","pricing_plan_id":"cebpf4jnsgd1na2vs0mg"},{"bike_id":"5c57bbac-bf63-47c0-8ef7-e92217416071","system_id":"levelo_inurba_marseille","lat":43.26496,"lon":5.39546,"is_reserved":false,"is_disabled":true,"rental_uris":{"android":"levelo://app?vid=5c57bbac-bf63-47c0-8ef7-e92217416071","ios":"levelo://app?vid=5c57bbac-bf63-47c0-8ef7-e92217416071"},"vehicle_type_id":"4","last_reported":1738868847,"current_range_meters":400,"station_id":"ce4bhi12rcd13ifvqfq0","pricing_plan_id":"cebpf4jnsgd1na2vs0mg"},{"bike_id":"7bdeb68f-ca49-4c4a-81ec-b8367491732a","system_id":"levelo_inurba_marseille","lat":43.29161,"lon":5.37146,"is_reserved":false,"is_disabled":false,"rental_uris":{"android":"levelo://app?vid=7bdeb68f-ca49-4c4a-81ec-b8367491732a","ios":"levelo://app?vid=7bdeb68f-ca49-4c4a-81ec-b8367491732a"},"vehicle_type_id":"4","last_reported":1738868847,"current_range_meters":8000,"station_id":"ce4bha92rcd13ifvqeh0","pricing_plan_id":"cebpf4jnsgd1na2vs0mg"},{"bike_id":"8b1e3ddc-e60b-449b-a071-b52065cec0be","system_id":"levelo_inurba_marseille","lat":43.32287,"lon":5.38261,"is_reserved":false,"is_disabled":false,"rental_uris":{"android":"levelo://app?vid=8b1e3ddc-e60b-449b-a071-b52065cec0be","ios":"levelo://app?vid=8b1e3ddc-e60b-449b-a071-b52065cec0be"},"vehicle_type_id":"4","last_reported":1738868847,"current_range_meters":32400,"station_id":"ce4bhr12rcd13ifvqhqg","pricing_plan_id":"cebpf4jnsgd1na2vs0mg"},{"bike_id":"017f7a5f-6539-4756-bfda-c3ebbd932e2a","system_id":"levelo_inurba_marseille","lat":43.28706,"lon":5.3999,"is_reserved":false,"is_disabled":false,"rental_uris":{"android":"levelo://app?vid=017f7a5f-6539-4756-bfda-c3ebbd932e2a","ios":"levelo://app?vid=017f7a5f-6539-4756-bfda-c3ebbd932e2a"},"vehicle_type_id":"4","last_reported":1738868847,"current_range_meters":31200,"station_id":"ce4bho92rcd13ifvqh3g","pricing_plan_id":"cebpf4jnsgd1na2vs0mg"},{"bike_id":"b91ecbae-2ee3-4ea4-8be8-ba8a9028d8ad","system_id":"levelo_inurba_marseille","lat":43.28446,"lon":5.359,"is_reserved":false,"is_disabled":false,"rental_uris":{"android":"levelo://app?vid=b91ecbae-2ee3-4ea4-8be8-ba8a9028d8ad","ios":"levelo://app?vid=b91ecbae-2ee3-4ea4-8be8-ba8a9028d8ad"},"vehicle_type_id":"4","last_reported":1738868847,"current_range_meters":8000,"station_id":"ce4bhah2rcd13ifvqei0","pricing_plan_id":"cebpf4jnsgd1na2vs0mg"},{"bike_id":"b73937ba-05e4-41c7-8959-6f24613e2797","system_id":"levelo_inurba_marseille","lat":43.2293,"lon":5.3536,"is_reserved":false,"is_disabled":false,"rental_uris":{"android":"levelo://app?vid=b73937ba-05e4-41c7-8959-6f24613e2797","ios":"levelo://app?vid=b73937ba-05e4-41c7-8959-6f24613e2797"},"vehicle_type_id":"4","last_reported":1738868847,"current_range_meters":36800,"station_id":"cpo3532slgdg3j2ikp40","pricing_plan_id":"cebpf4jnsgd1na2vs0mg"},{"bike_id":"d36266f0-f59e-4a49-9f27-9e147cb106c4","system_id":"levelo_inurba_marseille","lat":43.29534,"lon":5.3855,"is_reserved":false,"is_disabled":false,"rental_uris":{"android":"levelo://app?vid=d36266f0-f59e-4a49-9f27-9e147cb106c4","ios":"levelo://app?vid=d36266f0-f59e-4a49-9f27-9e147cb106c4"},"vehicle_type_id":"4","last_reported":1738868847,"current_range_meters":36000,"station_id":"ce4bgih2rcd13ifvqba0","pricing_plan_id":"cebpf4jnsgd1na2vs0mg"},{"bike_id":"9dbc66af-ff64-41a8-a57c-5ef86f5cb77a","system_id":"levelo_inurba_marseille","lat":43.26845,"lon":5.402,"is_reserved":false,"is_disabled":true,"rental_uris":{"android":"levelo://app?vid=9dbc66af-ff64-41a8-a57c-5ef86f5cb77a","ios":"levelo://app?vid=9dbc66af-ff64-41a8-a57c-5ef86f5cb77a"},"vehicle_type_id":"4","last_reported":1738868847,"current_range_meters":0,"station_id":"ce501612rcd8frsf0b60","pricing_plan_id":"cebpf4jnsgd1na2vs0mg"},{"bike_id":"ab54e2d0-4c2c-486a-84c7-811ed9008ddc","system_id":"levelo_inurba_marseille","lat":43.2786,"lon":5.4254,"is_reserved":false,"is_disabled":false,"rental_uris":{"android":"levelo://app?vid=ab54e2d0-4c2c-486a-84c7-811ed9008ddc","ios":"levelo://app?vid=ab54e2d0-4c2c-486a-84c7-811ed9008ddc"},"vehicle_type_id":"4","last_reported":1738868847,"current_range_meters":3200,"station_id":"","pricing_plan_id":"cebpf4jnsgd1na2vs0mg"},{"bike_id":"f1e9399a-c62d-4210-bc5f-f431eced8b39","system_id":"levelo_inurba_marseille","lat":43.32355,"lon":5.36751,"is_reserved":false,"is_disabled":false,"rental_uris":{"android":"levelo://app?vid=f1e9399a-c62d-4210-bc5f-f431eced8b39","ios":"levelo://app?vid=f1e9399a-c62d-4210-bc5f-f431eced8b39"},"vehicle_type_id":"4","last_reported":1738868847,"current_range_meters":13600,"station_id":"ce4bhsh2rcd13ifvqi2g","pricing_plan_id":"cebpf4jnsgd1na2vs0mg"},{"bike_id":"fae5ed03-2be2-4e2f-ae1a-9dae265ccade","system_id":"levelo_inurba_marseille","lat":43.32368,"lon":5.38889,"is_reserved":false,"is_disabled":false,"rental_uris":{"android":"levelo://app?vid=fae5ed03-2be2-4e2f-ae1a-9dae265ccade","ios":"levelo://app?vid=fae5ed03-2be2-4e2f-ae1a-9dae265ccade"},"vehicle_type_id":"4","last_reported":1738868847,"current_range_meters":21600,"station_id":"ce4bhqp2rcd13ifvqhog","pricing_plan_id":"cebpf4jnsgd1na2vs0mg"},{"bike_id":"b5eaa1de-764d-4d6d-9742-17950badbb3f","system_id":"levelo_inurba_marseille","lat":43.29448,"lon":5.38629,"is_reserved":false,"is_disabled":false,"rental_uris":{"android":"levelo://app?vid=b5eaa1de-764d-4d6d-9742-17950badbb3f","ios":"levelo://app?vid=b5eaa1de-764d-4d6d-9742-17950badbb3f"},"vehicle_type_id":"4","last_reported":1738868847,"current_range_meters":19600,"station_id":"ce4bh2h2rcd13ifvqdh0","pricing_plan_id":"cebpf4jnsgd1na2vs0mg"},{"bike_id":"29334589-05e8-4ce2-89a8-776fc9c722f1","system_id":"levelo_inurba_marseille","lat":43.29264,"lon":5.38441,"is_reserved":false,"is_disabled":false,"rental_uris":{"android":"levelo://app?vid=29334589-05e8-4ce2-89a8-776fc9c722f1","ios":"levelo://app?vid=29334589-05e8-4ce2-89a8-776fc9c722f1"},"vehicle_type_id":"4","last_reported":1738868847,"current_range_meters":17600,"station_id":"ce4bh692rcd13ifvqea0","pricing_plan_id":"cebpf4jnsgd1na2vs0mg"},{"bike_id":"c5641105-e769-4317-9782-97f110315a03","system_id":"levelo_inurba_marseille","lat":43.28289,"lon":5.40926,"is_reserved":false,"is_disabled":false,"rental_uris":{"android":"levelo://app?vid=c5641105-e769-4317-9782-97f110315a03","ios":"levelo://app?vid=c5641105-e769-4317-9782-97f110315a03"},"vehicle_type_id":"4","last_reported":1738868847,"current_range_meters":36000,"station_id":"","pricing_plan_id":"cebpf4jnsgd1na2vs0mg"},{"bike_id":"58913607-3d23-4376-841b-881c1361d437","system_id":"levelo_inurba_marseille","lat":43.3133,"lon":5.39708,"is_reserved":false,"is_disabled":false,"rental_uris":{"android":"levelo://app?vid=58913607-3d23-4376-841b-881c1361d437","ios":"levelo://app?vid=58913607-3d23-4376-841b-881c1361d437"},"vehicle_type_id":"4","last_reported":1738868847,"current_range_meters":20000,"station_id":"ce4bgvp2rcd13ifvqcu0","pricing_plan_id":"cebpf4jnsgd1na2vs0mg"},{"bike_id":"363f89dc-7a31-4716-bf7c-5e8b960f961f","system_id":"levelo_inurba_marseille","lat":43.31083,"lon":5.4243,"is_reserved":false,"is_disabled":false,"rental_uris":{"android":"levelo://app?vid=363f89dc-7a31-4716-bf7c-5e8b960f961f","ios":"levelo://app?vid=363f89dc-7a31-4716-bf7c-5e8b960f961f"},"vehicle_type_id":"4","last_reported":1738868847,"current_range_meters":30400,"station_id":"ce4bhp92rcd13ifvqhag","pricing_plan_id":"cebpf4jnsgd1na2vs0mg"},{"bike_id":"830d7107-636e-4156-9051-ab563c81092e","system_id":"levelo_inurba_marseille","lat":43.27069,"lon":5.42277,"is_reserved":false,"is_disabled":false,"rental_uris":{"android":"levelo://app?vid=830d7107-636e-4156-9051-ab563c81092e","ios":"levelo://app?vid=830d7107-636e-4156-9051-ab563c81092e"},"vehicle_type_id":"4","last_reported":1738868847,"current_range_meters":39200,"station_id":"ce4bhk92rcd13ifvqgb0","pricing_plan_id":"cebpf4jnsgd1na2vs0mg"},{"bike_id":"a186c8f2-f08f-4a8e-8e6e-4267ca5fa7c0","system_id":"levelo_inurba_marseille","lat":43.28417,"lon":5.37516,"is_reserved":false,"is_disabled":false,"rental_uris":{"android":"levelo://app?vid=a186c8f2-f08f-4a8e-8e6e-4267ca5fa7c0","ios":"levelo://app?vid=a186c8f2-f08f-4a8e-8e6e-4267ca5fa7c0"},"vehicle_type_id":"4","last_reported":1738868847,"current_range_meters":28400,"station_id":"ce4bh412rcd13ifvqds0","pricing_plan_id":"cebpf4jnsgd1na2vs0mg"},{"bike_id":"b8829ab2-1487-4b8c-ae59-08c14afad745","system_id":"levelo_inurba_marseille","lat":43.32369,"lon":5.38885,"is_reserved":false,"is_disabled":false,"rental_uris":{"android":"levelo://app?vid=b8829ab2-1487-4b8c-ae59-08c14afad745","ios":"levelo://app?vid=b8829ab2-1487-4b8c-ae59-08c14afad745"},"vehicle_type_id":"4","last_reported":1738868847,"current_range_meters":24000,"station_id":"ce4bhqp2rcd13ifvqhog","pricing_plan_id":"cebpf4jnsgd1na2vs0mg"},{"bike_id":"3c7729c4-abf8-4ecd-bc31-934339cade80","system_id":"levelo_inurba_marseille","lat":43.2991,"lon":5.37473,"is_reserved":false,"is_disabled":false,"rental_uris":{"android":"levelo://app?vid=3c7729c4-abf8-4ecd-bc31-934339cade80","ios":"levelo://app?vid=3c7729c4-abf8-4ecd-bc31-934339cade80"},"vehicle_type_id":"4","last_reported":1738868847,"current_range_meters":8800,"station_id":"ce4bgjh2rcd13ifvqbg0","pricing_plan_id":"cebpf4jnsgd1na2vs0mg"},{"bike_id":"1aafd4aa-ba2a-4c94-bc8a-0a2b42d0be90","system_id":"levelo_inurba_marseille","lat":43.278086,"lon":5.40718,"is_reserved":false,"is_disabled":false,"rental_uris":{"android":"levelo://app?vid=1aafd4aa-ba2a-4c94-bc8a-0a2b42d0be90","ios":"levelo://app?vid=1aafd4aa-ba2a-4c94-bc8a-0a2b42d0be90"},"vehicle_type_id":"4","last_reported":1738868847,"current_range_meters":8400,"station_id":"ce4bhnh2rcd13ifvqgtg","pricing_plan_id":"cebpf4jnsgd1na2vs0mg"},{"bike_id":"85e410da-b851-4cee-944d-ce4b8ef872b7","system_id":"levelo_inurba_marseille","lat":43.24667,"lon":5.3816,"is_reserved":false,"is_disabled":false,"rental_uris":{"android":"levelo://app?vid=85e410da-b851-4cee-944d-ce4b8ef872b7","ios":"levelo://app?vid=85e410da-b851-4cee-944d-ce4b8ef872b7"},"vehicle_type_id":"4","last_reported":1738868847,"current_range_meters":10000,"station_id":"ce4bhih2rcd13ifvqfr0","pricing_plan_id":"cebpf4jnsgd1na2vs0mg"},{"bike_id":"c177e5ae-988b-457d-916b-169ad0276669","system_id":"levelo_inurba_marseille","lat":43.32285,"lon":5.38272,"is_reserved":false,"is_disabled":false,"rental_uris":{"android":"levelo://app?vid=c177e5ae-988b-457d-916b-169ad0276669","ios":"levelo://app?vid=c177e5ae-988b-457d-916b-169ad0276669"},"vehicle_type_id":"4","last_reported":1738868847,"current_range_meters":38800,"station_id":"ce4bhr12rcd13ifvqhqg","pricing_plan_id":"cebpf4jnsgd1na2vs0mg"},{"bike_id":"89ef4b0e-9935-40a8-b11a-d7c8da41f1e5","system_id":"levelo_inurba_marseille","lat":43.28749,"lon":5.3608,"is_reserved":false,"is_disabled":false,"rental_uris":{"android":"levelo://app?vid=89ef4b0e-9935-40a8-b11a-d7c8da41f1e5","ios":"levelo://app?vid=89ef4b0e-9935-40a8-b11a-d7c8da41f1e5"},"vehicle_type_id":"4","last_reported":1738868847,"current_range_meters":38800,"station_id":"cki0cbj6b192h4jlfktg","pricing_plan_id":"cebpf4jnsgd1na2vs0mg"},{"bike_id":"b2c2b162-04fc-4225-8f1d-716091606810","system_id":"levelo_inurba_marseille","lat":43.30301,"lon":5.39211,"is_reserved":false,"is_disabled":false,"rental_uris":{"android":"levelo://app?vid=b2c2b162-04fc-4225-8f1d-716091606810","ios":"levelo://app?vid=b2c2b162-04fc-4225-8f1d-716091606810"},"vehicle_type_id":"4","last_reported":1738868847,"current_range_meters":38800,"station_id":"ce4bgkh2rcd13ifvqbk0","pricing_plan_id":"cebpf4jnsgd1na2vs0mg"},{"bike_id":"c8a281e7-c250-4f8b-bda1-8687d2d13ab3","system_id":"levelo_inurba_marseille","lat":43.2668,"lon":5.38273,"is_reserved":false,"is_disabled":false,"rental_uris":{"android":"levelo://app?vid=c8a281e7-c250-4f8b-bda1-8687d2d13ab3","ios":"levelo://app?vid=c8a281e7-c250-4f8b-bda1-8687d2d13ab3"},"vehicle_type_id":"4","last_reported":1738868847,"current_range_meters":12800,"station_id":"ce4bhg92rcd13ifvqf90","pricing_plan_id":"cebpf4jnsgd1na2vs0mg"},{"bike_id":"68e45cc3-deac-4afe-a874-7b1238fafe0e","system_id":"levelo_inurba_marseille","lat":43.29297,"lon":5.37451,"is_reserved":false,"is_disabled":false,"rental_uris":{"android":"levelo://app?vid=68e45cc3-deac-4afe-a874-7b1238fafe0e","ios":"levelo://app?vid=68e45cc3-deac-4afe-a874-7b1238fafe0e"},"vehicle_type_id":"4","last_reported":1738868847,"current_range_meters":20000,"station_id":"ce4bgi12rcd13ifvqb70","pricing_plan_id":"cebpf4jnsgd1na2vs0mg"},{"bike_id":"c346e4c9-1ee3-4421-9c09-d77a597ffa19","system_id":"levelo_inurba_marseille","lat":43.26806,"lon":5.40274,"is_reserved":false,"is_disabled":false,"rental_uris":{"android":"levelo://app?vid=c346e4c9-1ee3-4421-9c09-d77a597ffa19","ios":"levelo://app?vid=c346e4c9-1ee3-4421-9c09-d77a597ffa19"},"vehicle_type_id":"4","last_reported":1738868847,"current_range_meters":3600,"station_id":"ce501612rcd8frsf0b60","pricing_plan_id":"cebpf4jnsgd1na2vs0mg"},{"bike_id":"30c11024-b96a-4c0a-8a3e-8b171049fe3d","system_id":"levelo_inurba_marseille","lat":43.27185,"lon":5.40985,"is_reserved":false,"is_disabled":false,"rental_uris":{"android":"levelo://app?vid=30c11024-b96a-4c0a-8a3e-8b171049fe3d","ios":"levelo://app?vid=30c11024-b96a-4c0a-8a3e-8b171049fe3d"},"vehicle_type_id":"4","last_reported":1738868847,"current_range_meters":38800,"station_id":"ce4bhl12rcd13ifvqgf0","pricing_plan_id":"cebpf4jnsgd1na2vs0mg"},{"bike_id":"f70b4a70-e531-42af-963c-3bb170e1f963","system_id":"levelo_inurba_marseille","lat":43.25858,"lon":5.39897,"is_reserved":false,"is_disabled":false,"rental_uris":{"android":"levelo://app?vid=f70b4a70-e531-42af-963c-3bb170e1f963","ios":"levelo://app?vid=f70b4a70-e531-42af-963c-3bb170e1f963"},"vehicle_type_id":"4","last_reported":1738868847,"current_range_meters":22800,"station_id":"ce4bhl92rcd13ifvqghg","pricing_plan_id":"cebpf4jnsgd1na2vs0mg"},{"bike_id":"cfa7c440-9f74-4d65-a5f9-506f101dbf18","system_id":"levelo_inurba_marseille","lat":43.26806,"lon":5.40273,"is_reserved":false,"is_disabled":false,"rental_uris":{"android":"levelo://app?vid=cfa7c440-9f74-4d65-a5f9-506f101dbf18","ios":"levelo://app?vid=cfa7c440-9f74-4d65-a5f9-506f101dbf18"},"vehicle_type_id":"4","last_reported":1738868847,"current_range_meters":14400,"station_id":"ce501612rcd8frsf0b60","pricing_plan_id":"cebpf4jnsgd1na2vs0mg"},{"bike_id":"57419a1d-ef03-4373-b59f-5ae5ee6be643","system_id":"levelo_inurba_marseille","lat":43.27943,"lon":5.41048,"is_reserved":false,"is_disabled":false,"rental_uris":{"android":"levelo://app?vid=57419a1d-ef03-4373-b59f-5ae5ee6be643","ios":"levelo://app?vid=57419a1d-ef03-4373-b59f-5ae5ee6be643"},"vehicle_type_id":"4","last_reported":1738868847,"current_range_meters":38800,"station_id":"ce4bhnp2rcd13ifvqh0g","pricing_plan_id":"cebpf4jnsgd1na2vs0mg"},{"bike_id":"ccc0d99a-4f06-4847-88ea-bfbf26a9a708","system_id":"levelo_inurba_marseille","lat":43.27367,"lon":5.3627,"is_reserved":false,"is_disabled":false,"rental_uris":{"android":"levelo://app?vid=ccc0d99a-4f06-4847-88ea-bfbf26a9a708","ios":"levelo://app?vid=ccc0d99a-4f06-4847-88ea-bfbf26a9a708"},"vehicle_type_id":"4","last_reported":1738868847,"current_range_meters":38800,"station_id":"ce4bhbh2rcd13ifvqeo0","pricing_plan_id":"cebpf4jnsgd1na2vs0mg"},{"bike_id":"5d78b03a-d3db-499c-8dd1-e39cd8e6847c","system_id":"levelo_inurba_marseille","lat":43.27999,"lon":5.40018,"is_reserved":false,"is_disabled":false,"rental_uris":{"android":"levelo://app?vid=5d78b03a-d3db-499c-8dd1-e39cd8e6847c","ios":"levelo://app?vid=5d78b03a-d3db-499c-8dd1-e39cd8e6847c"},"vehicle_type_id":"4","last_reported":1738868847,"current_range_meters":24400,"station_id":"ce4bho92rcd13ifvqh4g","pricing_plan_id":"cebpf4jnsgd1na2vs0mg"},{"bike_id":"d90800d2-0b28-4666-b04d-68e5f6c3e9ab","system_id":"levelo_inurba_marseille","lat":43.23187,"lon":5.39989,"is_reserved":false,"is_disabled":false,"rental_uris":{"android":"levelo://app?vid=d90800d2-0b28-4666-b04d-68e5f6c3e9ab","ios":"levelo://app?vid=d90800d2-0b28-4666-b04d-68e5f6c3e9ab"},"vehicle_type_id":"4","last_reported":1738868847,"current_range_meters":38800,"station_id":"ce4bhn12rcd13ifvqgqg","pricing_plan_id":"cebpf4jnsgd1na2vs0mg"},{"bike_id":"996770b7-a951-4b97-aabb-7bb3f395b5ef","system_id":"levelo_inurba_marseille","lat":43.29178,"lon":5.37151,"is_reserved":false,"is_disabled":false,"rental_uris":{"android":"levelo://app?vid=996770b7-a951-4b97-aabb-7bb3f395b5ef","ios":"levelo://app?vid=996770b7-a951-4b97-aabb-7bb3f395b5ef"},"vehicle_type_id":"4","last_reported":1738868847,"current_range_meters":19200,"station_id":"ce4bha92rcd13ifvqeh0","pricing_plan_id":"cebpf4jnsgd1na2vs0mg"},{"bike_id":"a3e0252d-5d39-4c5a-a09e-9e40b77fd995","system_id":"levelo_inurba_marseille","lat":43.3137,"lon":5.3848,"is_reserved":false,"is_disabled":false,"rental_uris":{"android":"levelo://app?vid=a3e0252d-5d39-4c5a-a09e-9e40b77fd995","ios":"levelo://app?vid=a3e0252d-5d39-4c5a-a09e-9e40b77fd995"},"vehicle_type_id":"4","last_reported":1738868847,"current_range_meters":25600,"station_id":"ce4bgt92rcd13ifvqcf0","pricing_plan_id":"cebpf4jnsgd1na2vs0mg"},{"bike_id":"12631975-c979-434b-8d5d-9f0dea7c43c4","system_id":"levelo_inurba_marseille","lat":43.25109,"lon":5.40319,"is_reserved":false,"is_disabled":false,"rental_uris":{"android":"levelo://app?vid=12631975-c979-434b-8d5d-9f0dea7c43c4","ios":"levelo://app?vid=12631975-c979-434b-8d5d-9f0dea7c43c4"},"vehicle_type_id":"4","last_reported":1738868847,"current_range_meters":23200,"station_id":"ce4bhlh2rcd13ifvqgig","pricing_plan_id":"cebpf4jnsgd1na2vs0mg"},{"bike_id":"55c531ba-cb99-413a-81f9-84f3b3d5979e","system_id":"levelo_inurba_marseille","lat":43.22937,"lon":5.35384,"is_reserved":false,"is_disabled":false,"rental_uris":{"android":"levelo://app?vid=55c531ba-cb99-413a-81f9-84f3b3d5979e","ios":"levelo://app?vid=55c531ba-cb99-413a-81f9-84f3b3d5979e"},"vehicle_type_id":"4","last_reported":1738868847,"current_range_meters":28000,"station_id":"cpo3532slgdg3j2ikp40","pricing_plan_id":"cebpf4jnsgd1na2vs0mg"},{"bike_id":"8b17b11a-ca6f-4ac5-8583-bad804fcf1ce","system_id":"levelo_inurba_marseille","lat":43.29568,"lon":5.42268,"is_reserved":false,"is_disabled":false,"rental_uris":{"android":"levelo://app?vid=8b17b11a-ca6f-4ac5-8583-bad804fcf1ce","ios":"levelo://app?vid=8b17b11a-ca6f-4ac5-8583-bad804fcf1ce"},"vehicle_type_id":"4","last_reported":1738868847,"current_range_meters":38400,"station_id":"ce4bhph2rcd13ifvqhdg","pricing_plan_id":"cebpf4jnsgd1na2vs0mg"},{"bike_id":"4d6c931f-72da-462d-8d3e-100511fce5c7","system_id":"levelo_inurba_marseille","lat":43.31407,"lon":5.37231,"is_reserved":false,"is_disabled":false,"rental_uris":{"android":"levelo://app?vid=4d6c931f-72da-462d-8d3e-100511fce5c7","ios":"levelo://app?vid=4d6c931f-72da-462d-8d3e-100511fce5c7"},"vehicle_type_id":"4","last_reported":1738868847,"current_range_meters":8800,"station_id":"","pricing_plan_id":"cebpf4jnsgd1na2vs0mg"},{"bike_id":"25584dfc-d5ff-4811-85c5-933f3dfbdae8","system_id":"levelo_inurba_marseille","lat":43.23964,"lon":5.36611,"is_reserved":false,"is_disabled":false,"rental_uris":{"android":"levelo://app?vid=25584dfc-d5ff-4811-85c5-933f3dfbdae8","ios":"levelo://app?vid=25584dfc-d5ff-4811-85c5-933f3dfbdae8"},"vehicle_type_id":"4","last_reported":1738868847,"current_range_meters":37600,"station_id":"ce4bhi12rcd13ifvqfp0","pricing_plan_id":"cebpf4jnsgd1na2vs0mg"},{"bike_id":"3b6fc1a1-1e64-4698-a113-588a2563418f","system_id":"levelo_inurba_marseille","lat":43.28032,"lon":5.36932,"is_reserved":false,"is_disabled":true,"rental_uris":{"android":"levelo://app?vid=3b6fc1a1-1e64-4698-a113-588a2563418f","ios":"levelo://app?vid=3b6fc1a1-1e64-4698-a113-588a2563418f"},"vehicle_type_id":"4","last_reported":1738868847,"current_range_meters":0,"station_id":"ce4bha12rcd13ifvqef0","pricing_plan_id":"cebpf4jnsgd1na2vs0mg"},{"bike_id":"f6731578-74f1-4442-93ad-5b0b2036a3e9","system_id":"levelo_inurba_marseille","lat":43.26212,"lon":5.3744,"is_reserved":false,"is_disabled":false,"rental_uris":{"android":"levelo://app?vid=f6731578-74f1-4442-93ad-5b0b2036a3e9","ios":"levelo://app?vid=f6731578-74f1-4442-93ad-5b0b2036a3e9"},"vehicle_type_id":"4","last_reported":1738868847,"current_range_meters":37600,"station_id":"ce4bhgp2rcd13ifvqfc0","pricing_plan_id":"cebpf4jnsgd1na2vs0mg"},{"bike_id":"7abe1a61-87b0-4131-94db-b94f677927a9","system_id":"levelo_inurba_marseille","lat":43.274199,"lon":5.394171,"is_reserved":false,"is_disabled":false,"rental_uris":{"android":"levelo://app?vid=7abe1a61-87b0-4131-94db-b94f677927a9","ios":"levelo://app?vid=7abe1a61-87b0-4131-94db-b94f677927a9"},"vehicle_type_id":"4","last_reported":1738868847,"current_range_meters":33200,"station_id":"ce4bhdp2rcd13ifvqf20","pricing_plan_id":"cebpf4jnsgd1na2vs0mg"},{"bike_id":"51330da2-8079-4b23-96d5-c24de9b6b5d9","system_id":"levelo_inurba_marseille","lat":43.27903,"lon":5.38014,"is_reserved":false,"is_disabled":false,"rental_uris":{"android":"levelo://app?vid=51330da2-8079-4b23-96d5-c24de9b6b5d9","ios":"levelo://app?vid=51330da2-8079-4b23-96d5-c24de9b6b5d9"},"vehicle_type_id":"4","last_reported":1738868847,"current_range_meters":38000,"station_id":"ce4bhf92rcd13ifvqf50","pricing_plan_id":"cebpf4jnsgd1na2vs0mg"},{"bike_id":"c130fff7-2faf-4f2e-82f9-62c219cfeda5","system_id":"levelo_inurba_marseille","lat":43.2818,"lon":5.426,"is_reserved":false,"is_disabled":false,"rental_uris":{"android":"levelo://app?vid=c130fff7-2faf-4f2e-82f9-62c219cfeda5","ios":"levelo://app?vid=c130fff7-2faf-4f2e-82f9-62c219cfeda5"},"vehicle_type_id":"4","last_reported":1738868847,"current_range_meters":27600,"station_id":"ce4bhnh2rcd13ifvqgug","pricing_plan_id":"cebpf4jnsgd1na2vs0mg"},{"bike_id":"e736a465-ac59-4406-9b1e-a1360cd498b5","system_id":"levelo_inurba_marseille","lat":43.26026,"lon":5.37549,"is_reserved":false,"is_disabled":false,"rental_uris":{"android":"levelo://app?vid=e736a465-ac59-4406-9b1e-a1360cd498b5","ios":"levelo://app?vid=e736a465-ac59-4406-9b1e-a1360cd498b5"},"vehicle_type_id":"4","last_reported":1738868847,"current_range_meters":38800,"station_id":"ce4bhgh2rcd13ifvqfa0","pricing_plan_id":"cebpf4jnsgd1na2vs0mg"},{"bike_id":"bfddda29-c6a5-427f-9426-0af31d6793a1","system_id":"levelo_inurba_marseille","lat":43.2651,"lon":5.39562,"is_reserved":false,"is_disabled":true,"rental_uris":{"android":"levelo://app?vid=bfddda29-c6a5-427f-9426-0af31d6793a1","ios":"levelo://app?vid=bfddda29-c6a5-427f-9426-0af31d6793a1"},"vehicle_type_id":"4","last_reported":1738868847,"current_range_meters":1200,"station_id":"ce4bhi12rcd13ifvqfq0","pricing_plan_id":"cebpf4jnsgd1na2vs0mg"},{"bike_id":"a36a308c-9075-4f72-b2c9-e05163d80524","system_id":"levelo_inurba_marseille","lat":43.24448,"lon":5.36876,"is_reserved":false,"is_disabled":true,"rental_uris":{"android":"levelo://app?vid=a36a308c-9075-4f72-b2c9-e05163d80524","ios":"levelo://app?vid=a36a308c-9075-4f72-b2c9-e05163d80524"},"vehicle_type_id":"4","last_reported":1738868847,"current_range_meters":1200,"station_id":"ce4bhhh2rcd13ifvqfk0","pricing_plan_id":"cebpf4jnsgd1na2vs0mg"},{"bike_id":"5eb997aa-ba06-470a-b7fd-cd40e9642b35","system_id":"levelo_inurba_marseille","lat":43.23167,"lon":5.39982,"is_reserved":false,"is_disabled":false,"rental_uris":{"android":"levelo://app?vid=5eb997aa-ba06-470a-b7fd-cd40e9642b35","ios":"levelo://app?vid=5eb997aa-ba06-470a-b7fd-cd40e9642b35"},"vehicle_type_id":"4","last_reported":1738868847,"current_range_meters":38800,"station_id":"ce4bhn12rcd13ifvqgqg","pricing_plan_id":"cebpf4jnsgd1na2vs0mg"},{"bike_id":"1da8b17b-ad28-4780-a711-431647c244ed","system_id":"levelo_inurba_marseille","lat":43.23954,"lon":5.366274,"is_reserved":false,"is_disabled":false,"rental_uris":{"android":"levelo://app?vid=1da8b17b-ad28-4780-a711-431647c244ed","ios":"levelo://app?vid=1da8b17b-ad28-4780-a711-431647c244ed"},"vehicle_type_id":"4","last_reported":1738868847,"current_range_meters":30800,"station_id":"ce4bhi12rcd13ifvqfp0","pricing_plan_id":"cebpf4jnsgd1na2vs0mg"},{"bike_id":"3ce88452-ed3b-4028-bde2-7c69c92cf3f6","system_id":"levelo_inurba_marseille","lat":43.29528,"lon":5.38546,"is_reserved":false,"is_disabled":false,"rental_uris":{"android":"levelo://app?vid=3ce88452-ed3b-4028-bde2-7c69c92cf3f6","ios":"levelo://app?vid=3ce88452-ed3b-4028-bde2-7c69c92cf3f6"},"vehicle_type_id":"4","last_reported":1738868847,"current_range_meters":24000,"station_id":"ce4bgih2rcd13ifvqba0","pricing_plan_id":"cebpf4jnsgd1na2vs0mg"},{"bike_id":"a2273def-01c8-4ea0-8135-cc77a96cc8e9","system_id":"levelo_inurba_marseille","lat":43.275591,"lon":5.384326,"is_reserved":false,"is_disabled":false,"rental_uris":{"android":"levelo://app?vid=a2273def-01c8-4ea0-8135-cc77a96cc8e9","ios":"levelo://app?vid=a2273def-01c8-4ea0-8135-cc77a96cc8e9"},"vehicle_type_id":"4","last_reported":1738868847,"current_range_meters":35600,"station_id":"ce4bhh92rcd13ifvqfi0","pricing_plan_id":"cebpf4jnsgd1na2vs0mg"},{"bike_id":"fc6fe7b9-4407-479a-943a-7b6c72c878d7","system_id":"levelo_inurba_marseille","lat":43.28426,"lon":5.39197,"is_reserved":false,"is_disabled":false,"rental_uris":{"android":"levelo://app?vid=fc6fe7b9-4407-479a-943a-7b6c72c878d7","ios":"levelo://app?vid=fc6fe7b9-4407-479a-943a-7b6c72c878d7"},"vehicle_type_id":"4","last_reported":1738868847,"current_range_meters":27600,"station_id":"ce4bhoh2rcd13ifvqh5g","pricing_plan_id":"cebpf4jnsgd1na2vs0mg"},{"bike_id":"e2bfb848-3122-40ef-ac4d-793bd6065cc1","system_id":"levelo_inurba_marseille","lat":43.24999,"lon":5.38919,"is_reserved":false,"is_disabled":false,"rental_uris":{"android":"levelo://app?vid=e2bfb848-3122-40ef-ac4d-793bd6065cc1","ios":"levelo://app?vid=e2bfb848-3122-40ef-ac4d-793bd6065cc1"},"vehicle_type_id":"4","last_reported":1738868847,"current_range_meters":36000,"station_id":"ce4bhgp2rcd13ifvqfd0","pricing_plan_id":"cebpf4jnsgd1na2vs0mg"},{"bike_id":"2e06af6b-9bab-4854-ae93-e6352ffb9f96","system_id":"levelo_inurba_marseille","lat":43.28084,"lon":5.39637,"is_reserved":false,"is_disabled":false,"rental_uris":{"android":"levelo://app?vid=2e06af6b-9bab-4854-ae93-e6352ffb9f96","ios":"levelo://app?vid=2e06af6b-9bab-4854-ae93-e6352ffb9f96"},"vehicle_type_id":"4","last_reported":1738868847,"current_range_meters":16800,"station_id":"ce4bho12rcd13ifvqh2g","pricing_plan_id":"cebpf4jnsgd1na2vs0mg"},{"bike_id":"376d9b9d-e8be-47ed-a43b-384cccf63498","system_id":"levelo_inurba_marseille","lat":43.30406,"lon":5.41285,"is_reserved":false,"is_disabled":false,"rental_uris":{"android":"levelo://app?vid=376d9b9d-e8be-47ed-a43b-384cccf63498","ios":"levelo://app?vid=376d9b9d-e8be-47ed-a43b-384cccf63498"},"vehicle_type_id":"4","last_reported":1738868847,"current_range_meters":34000,"station_id":"ce4bhop2rcd13ifvqh8g","pricing_plan_id":"cebpf4jnsgd1na2vs0mg"},{"bike_id":"f007c4c1-db59-4a07-8d7b-95ba9982ee49","system_id":"levelo_inurba_marseille","lat":43.32977,"lon":5.39036,"is_reserved":false,"is_disabled":false,"rental_uris":{"android":"levelo://app?vid=f007c4c1-db59-4a07-8d7b-95ba9982ee49","ios":"levelo://app?vid=f007c4c1-db59-4a07-8d7b-95ba9982ee49"},"vehicle_type_id":"4","last_reported":1738868847,"current_range_meters":38800,"station_id":"ce4bhr92rcd13ifvqhrg","pricing_plan_id":"cebpf4jnsgd1na2vs0mg"},{"bike_id":"49965350-17ce-4528-a1ec-2a1fd7ea83da","system_id":"levelo_inurba_marseille","lat":43.29936,"lon":5.36517,"is_reserved":false,"is_disabled":false,"rental_uris":{"android":"levelo://app?vid=49965350-17ce-4528-a1ec-2a1fd7ea83da","ios":"levelo://app?vid=49965350-17ce-4528-a1ec-2a1fd7ea83da"},"vehicle_type_id":"4","last_reported":1738868847,"current_range_meters":36800,"station_id":"ce4bgm92rcd13ifvqbr0","pricing_plan_id":"cebpf4jnsgd1na2vs0mg"},{"bike_id":"48b06d0b-7a79-4c4a-9bef-3bde40720b51","system_id":"levelo_inurba_marseille","lat":43.32992,"lon":5.39023,"is_reserved":false,"is_disabled":false,"rental_uris":{"android":"levelo://app?vid=48b06d0b-7a79-4c4a-9bef-3bde40720b51","ios":"levelo://app?vid=48b06d0b-7a79-4c4a-9bef-3bde40720b51"},"vehicle_type_id":"4","last_reported":1738868847,"current_range_meters":38400,"station_id":"ce4bhr92rcd13ifvqhrg","pricing_plan_id":"cebpf4jnsgd1na2vs0mg"},{"bike_id":"38c47b95-ad7d-4d74-ab3c-fbd6a0ae4207","system_id":"levelo_inurba_marseille","lat":43.28412,"lon":5.37522,"is_reserved":false,"is_disabled":false,"rental_uris":{"android":"levelo://app?vid=38c47b95-ad7d-4d74-ab3c-fbd6a0ae4207","ios":"levelo://app?vid=38c47b95-ad7d-4d74-ab3c-fbd6a0ae4207"},"vehicle_type_id":"4","last_reported":1738868847,"current_range_meters":38800,"station_id":"ce4bh412rcd13ifvqds0","pricing_plan_id":"cebpf4jnsgd1na2vs0mg"},{"bike_id":"252b0da2-dfde-465b-b465-ae4361c3faa5","system_id":"levelo_inurba_marseille","lat":43.29419,"lon":5.38623,"is_reserved":false,"is_disabled":false,"rental_uris":{"android":"levelo://app?vid=252b0da2-dfde-465b-b465-ae4361c3faa5","ios":"levelo://app?vid=252b0da2-dfde-465b-b465-ae4361c3faa5"},"vehicle_type_id":"4","last_reported":1738868847,"current_range_meters":39200,"station_id":"ce4bh2h2rcd13ifvqdh0","pricing_plan_id":"cebpf4jnsgd1na2vs0mg"},{"bike_id":"da10d3b6-6e7d-4a1f-958a-0b25eceb1fc4","system_id":"levelo_inurba_marseille","lat":43.33022,"lon":5.39032,"is_reserved":false,"is_disabled":false,"rental_uris":{"android":"levelo://app?vid=da10d3b6-6e7d-4a1f-958a-0b25eceb1fc4","ios":"levelo://app?vid=da10d3b6-6e7d-4a1f-958a-0b25eceb1fc4"},"vehicle_type_id":"4","last_reported":1738868847,"current_range_meters":35200,"station_id":"ce4bhr92rcd13ifvqhrg","pricing_plan_id":"cebpf4jnsgd1na2vs0mg"},{"bike_id":"1ed19d8d-749b-455f-8421-555ffcf4a7e0","system_id":"levelo_inurba_marseille","lat":43.2885,"lon":5.39314,"is_reserved":false,"is_disabled":false,"rental_uris":{"android":"levelo://app?vid=1ed19d8d-749b-455f-8421-555ffcf4a7e0","ios":"levelo://app?vid=1ed19d8d-749b-455f-8421-555ffcf4a7e0"},"vehicle_type_id":"4","last_reported":1738868847,"current_range_meters":38800,"station_id":"ce4bh2p2rcd13ifvqdi0","pricing_plan_id":"cebpf4jnsgd1na2vs0mg"},{"bike_id":"6982759c-8a71-4c3d-bb7e-64cba9e2d65e","system_id":"levelo_inurba_marseille","lat":43.30641,"lon":5.40095,"is_reserved":false,"is_disabled":false,"rental_uris":{"android":"levelo://app?vid=6982759c-8a71-4c3d-bb7e-64cba9e2d65e","ios":"levelo://app?vid=6982759c-8a71-4c3d-bb7e-64cba9e2d65e"},"vehicle_type_id":"4","last_reported":1738868847,"current_range_meters":20400,"station_id":"ce4bh112rcd13ifvqda0","pricing_plan_id":"cebpf4jnsgd1na2vs0mg"},{"bike_id":"bf809a3e-936e-4705-a152-3ea3cc4a5a81","system_id":"levelo_inurba_marseille","lat":43.25861,"lon":5.39901,"is_reserved":false,"is_disabled":false,"rental_uris":{"android":"levelo://app?vid=bf809a3e-936e-4705-a152-3ea3cc4a5a81","ios":"levelo://app?vid=bf809a3e-936e-4705-a152-3ea3cc4a5a81"},"vehicle_type_id":"4","last_reported":1738868847,"current_range_meters":19200,"station_id":"ce4bhl92rcd13ifvqghg","pricing_plan_id":"cebpf4jnsgd1na2vs0mg"},{"bike_id":"087f0b3a-4aea-43b2-8ccc-2a9ed614bb2e","system_id":"levelo_inurba_marseille","lat":43.31727,"lon":5.42411,"is_reserved":false,"is_disabled":false,"rental_uris":{"android":"levelo://app?vid=087f0b3a-4aea-43b2-8ccc-2a9ed614bb2e","ios":"levelo://app?vid=087f0b3a-4aea-43b2-8ccc-2a9ed614bb2e"},"vehicle_type_id":"4","last_reported":1738868847,"current_range_meters":38800,"station_id":"ce4bhp92rcd13ifvqhbg","pricing_plan_id":"cebpf4jnsgd1na2vs0mg"},{"bike_id":"e3869990-fdc1-4ef6-af32-85dbad05e21f","system_id":"levelo_inurba_marseille","lat":43.29423,"lon":5.38616,"is_reserved":false,"is_disabled":false,"rental_uris":{"android":"levelo://app?vid=e3869990-fdc1-4ef6-af32-85dbad05e21f","ios":"levelo://app?vid=e3869990-fdc1-4ef6-af32-85dbad05e21f"},"vehicle_type_id":"4","last_reported":1738868847,"current_range_meters":11600,"station_id":"ce4bh2h2rcd13ifvqdh0","pricing_plan_id":"cebpf4jnsgd1na2vs0mg"},{"bike_id":"9c0ce03a-5b91-4a8b-a474-9dd4d17d8d50","system_id":"levelo_inurba_marseille","lat":43.26552,"lon":5.39031,"is_reserved":false,"is_disabled":true,"rental_uris":{"android":"levelo://app?vid=9c0ce03a-5b91-4a8b-a474-9dd4d17d8d50","ios":"levelo://app?vid=9c0ce03a-5b91-4a8b-a474-9dd4d17d8d50"},"vehicle_type_id":"4","last_reported":1738868847,"current_range_meters":20400,"station_id":"ce4bhe12rcd13ifvqf30","pricing_plan_id":"cebpf4jnsgd1na2vs0mg"},{"bike_id":"3e19c6b8-1614-4fff-b193-5b245fdf9bb9","system_id":"levelo_inurba_marseille","lat":43.29263,"lon":5.38429,"is_reserved":false,"is_disabled":false,"rental_uris":{"android":"levelo://app?vid=3e19c6b8-1614-4fff-b193-5b245fdf9bb9","ios":"levelo://app?vid=3e19c6b8-1614-4fff-b193-5b245fdf9bb9"},"vehicle_type_id":"4","last_reported":1738868847,"current_range_meters":18000,"station_id":"ce4bh692rcd13ifvqea0","pricing_plan_id":"cebpf4jnsgd1na2vs0mg"},{"bike_id":"d24de62b-f43d-4ee9-8636-eae3f9e1d596","system_id":"levelo_inurba_marseille","lat":43.27177,"lon":5.40997,"is_reserved":false,"is_disabled":false,"rental_uris":{"android":"levelo://app?vid=d24de62b-f43d-4ee9-8636-eae3f9e1d596","ios":"levelo://app?vid=d24de62b-f43d-4ee9-8636-eae3f9e1d596"},"vehicle_type_id":"4","last_reported":1738868847,"current_range_meters":36000,"station_id":"ce4bhl12rcd13ifvqgf0","pricing_plan_id":"cebpf4jnsgd1na2vs0mg"},{"bike_id":"11c65c3a-3ad6-430f-acbd-cc72bfca7b6c","system_id":"levelo_inurba_marseille","lat":43.32361,"lon":5.38867,"is_reserved":false,"is_disabled":false,"rental_uris":{"android":"levelo://app?vid=11c65c3a-3ad6-430f-acbd-cc72bfca7b6c","ios":"levelo://app?vid=11c65c3a-3ad6-430f-acbd-cc72bfca7b6c"},"vehicle_type_id":"4","last_reported":1738868847,"current_range_meters":12000,"station_id":"ce4bhqp2rcd13ifvqhog","pricing_plan_id":"cebpf4jnsgd1na2vs0mg"},{"bike_id":"f8c953a3-46f4-472a-bffe-adcb630df084","system_id":"levelo_inurba_marseille","lat":43.27669,"lon":5.38879,"is_reserved":false,"is_disabled":true,"rental_uris":{"android":"levelo://app?vid=f8c953a3-46f4-472a-bffe-adcb630df084","ios":"levelo://app?vid=f8c953a3-46f4-472a-bffe-adcb630df084"},"vehicle_type_id":"4","last_reported":1738868847,"current_range_meters":1600,"station_id":"ce4bhi12rcd13ifvqfo0","pricing_plan_id":"cebpf4jnsgd1na2vs0mg"},{"bike_id":"62b1aae6-4b2e-4612-a171-41b60d2f13e1","system_id":"levelo_inurba_marseille","lat":43.31377,"lon":5.38499,"is_reserved":false,"is_disabled":false,"rental_uris":{"android":"levelo://app?vid=62b1aae6-4b2e-4612-a171-41b60d2f13e1","ios":"levelo://app?vid=62b1aae6-4b2e-4612-a171-41b60d2f13e1"},"vehicle_type_id":"4","last_reported":1738868847,"current_range_meters":31200,"station_id":"ce4bgt92rcd13ifvqcf0","pricing_plan_id":"cebpf4jnsgd1na2vs0mg"},{"bike_id":"775e7c57-7e2a-41a4-bb53-8e81069898dc","system_id":"levelo_inurba_marseille","lat":43.25578,"lon":5.38229,"is_reserved":false,"is_disabled":false,"rental_uris":{"android":"levelo://app?vid=775e7c57-7e2a-41a4-bb53-8e81069898dc","ios":"levelo://app?vid=775e7c57-7e2a-41a4-bb53-8e81069898dc"},"vehicle_type_id":"4","last_reported":1738868847,"current_range_meters":7200,"station_id":"ce4bhih2rcd13ifvqfs0","pricing_plan_id":"cebpf4jnsgd1na2vs0mg"},{"bike_id":"f022c48a-d1bd-4de2-9de6-3ead2a263d5d","system_id":"levelo_inurba_marseille","lat":43.29278,"lon":5.36848,"is_reserved":false,"is_disabled":false,"rental_uris":{"android":"levelo://app?vid=f022c48a-d1bd-4de2-9de6-3ead2a263d5d","ios":"levelo://app?vid=f022c48a-d1bd-4de2-9de6-3ead2a263d5d"},"vehicle_type_id":"4","last_reported":1738868847,"current_range_meters":36000,"station_id":"ce4bhbp2rcd13ifvqesg","pricing_plan_id":"cebpf4jnsgd1na2vs0mg"},{"bike_id":"733fbcf4-4a2d-442d-b4b9-e0a4131c260e","system_id":"levelo_inurba_marseille","lat":43.2668,"lon":5.38266,"is_reserved":false,"is_disabled":false,"rental_uris":{"android":"levelo://app?vid=733fbcf4-4a2d-442d-b4b9-e0a4131c260e","ios":"levelo://app?vid=733fbcf4-4a2d-442d-b4b9-e0a4131c260e"},"vehicle_type_id":"4","last_reported":1738868847,"current_range_meters":8800,"station_id":"ce4bhg92rcd13ifvqf90","pricing_plan_id":"cebpf4jnsgd1na2vs0mg"},{"bike_id":"074964d7-21d1-4dfd-93fb-4af3eeb010fd","system_id":"levelo_inurba_marseille","lat":43.29055,"lon":5.37153,"is_reserved":false,"is_disabled":false,"rental_uris":{"android":"levelo://app?vid=074964d7-21d1-4dfd-93fb-4af3eeb010fd","ios":"levelo://app?vid=074964d7-21d1-4dfd-93fb-4af3eeb010fd"},"vehicle_type_id":"4","last_reported":1738868847,"current_range_meters":34000,"station_id":"ce4bh5p2rcd13ifvqe4g","pricing_plan_id":"cebpf4jnsgd1na2vs0mg"},{"bike_id":"e8b4197c-e9a5-4308-9527-aafdf009000b","system_id":"levelo_inurba_marseille","lat":43.26926,"lon":5.40263,"is_reserved":false,"is_disabled":false,"rental_uris":{"android":"levelo://app?vid=e8b4197c-e9a5-4308-9527-aafdf009000b","ios":"levelo://app?vid=e8b4197c-e9a5-4308-9527-aafdf009000b"},"vehicle_type_id":"4","last_reported":1738868847,"current_range_meters":38800,"station_id":"cjm6bp8fraef2m0cb0m0","pricing_plan_id":"cebpf4jnsgd1na2vs0mg"},{"bike_id":"70680240-c0ce-4c00-ba26-bfa78895a67c","system_id":"levelo_inurba_marseille","lat":43.2861,"lon":5.37055,"is_reserved":false,"is_disabled":true,"rental_uris":{"android":"levelo://app?vid=70680240-c0ce-4c00-ba26-bfa78895a67c","ios":"levelo://app?vid=70680240-c0ce-4c00-ba26-bfa78895a67c"},"vehicle_type_id":"4","last_reported":1738868847,"current_range_meters":33200,"station_id":"ce4bht12rcd13ifvqi60","pricing_plan_id":"cebpf4jnsgd1na2vs0mg"},{"bike_id":"ef9913a2-6d43-4639-8377-8b1baeaf5fce","system_id":"levelo_inurba_marseille","lat":43.29156,"lon":5.37155,"is_reserved":false,"is_disabled":false,"rental_uris":{"android":"levelo://app?vid=ef9913a2-6d43-4639-8377-8b1baeaf5fce","ios":"levelo://app?vid=ef9913a2-6d43-4639-8377-8b1baeaf5fce"},"vehicle_type_id":"4","last_reported":1738868847,"current_range_meters":12400,"station_id":"ce4bha92rcd13ifvqeh0","pricing_plan_id":"cebpf4jnsgd1na2vs0mg"},{"bike_id":"ef9b62b4-8d02-4e23-970e-3e7fcb88040b","system_id":"levelo_inurba_marseille","lat":43.26229,"lon":5.38825,"is_reserved":false,"is_disabled":false,"rental_uris":{"android":"levelo://app?vid=ef9b62b4-8d02-4e23-970e-3e7fcb88040b","ios":"levelo://app?vid=ef9b62b4-8d02-4e23-970e-3e7fcb88040b"},"vehicle_type_id":"4","last_reported":1738868847,"current_range_meters":15200,"station_id":"","pricing_plan_id":"cebpf4jnsgd1na2vs0mg"},{"bike_id":"16963543-5b35-4fd9-9f46-b28b114d110e","system_id":"levelo_inurba_marseille","lat":43.28658,"lon":5.38665,"is_reserved":false,"is_disabled":true,"rental_uris":{"android":"levelo://app?vid=16963543-5b35-4fd9-9f46-b28b114d110e","ios":"levelo://app?vid=16963543-5b35-4fd9-9f46-b28b114d110e"},"vehicle_type_id":"4","last_reported":1738868847,"current_range_meters":0,"station_id":"ce4bh492rcd13ifvqdug","pricing_plan_id":"cebpf4jnsgd1na2vs0mg"},{"bike_id":"79a11ae0-6cda-4176-9dd3-b71924088580","system_id":"levelo_inurba_marseille","lat":43.27853,"lon":5.40748,"is_reserved":false,"is_disabled":false,"rental_uris":{"android":"levelo://app?vid=79a11ae0-6cda-4176-9dd3-b71924088580","ios":"levelo://app?vid=79a11ae0-6cda-4176-9dd3-b71924088580"},"vehicle_type_id":"4","last_reported":1738868847,"current_range_meters":38800,"station_id":"ce4bhnh2rcd13ifvqgtg","pricing_plan_id":"cebpf4jnsgd1na2vs0mg"},{"bike_id":"8dc0b4e5-9b7e-494d-a544-2c50f0f2f820","system_id":"levelo_inurba_marseille","lat":43.31933,"lon":5.40626,"is_reserved":false,"is_disabled":false,"rental_uris":{"android":"levelo://app?vid=8dc0b4e5-9b7e-494d-a544-2c50f0f2f820","ios":"levelo://app?vid=8dc0b4e5-9b7e-494d-a544-2c50f0f2f820"},"vehicle_type_id":"4","last_reported":1738868847,"current_range_meters":39200,"station_id":"ce4bhq12rcd13ifvqhig","pricing_plan_id":"cebpf4jnsgd1na2vs0mg"},{"bike_id":"de9756ba-40de-44ce-9d08-0202e8b24ad2","system_id":"levelo_inurba_marseille","lat":43.29273,"lon":5.36845,"is_reserved":false,"is_disabled":false,"rental_uris":{"android":"levelo://app?vid=de9756ba-40de-44ce-9d08-0202e8b24ad2","ios":"levelo://app?vid=de9756ba-40de-44ce-9d08-0202e8b24ad2"},"vehicle_type_id":"4","last_reported":1738868847,"current_range_meters":38800,"station_id":"ce4bhbp2rcd13ifvqesg","pricing_plan_id":"cebpf4jnsgd1na2vs0mg"},{"bike_id":"b2bc1c7d-34cd-45e5-a4fc-265020245483","system_id":"levelo_inurba_marseille","lat":43.29259,"lon":5.40898,"is_reserved":false,"is_disabled":false,"rental_uris":{"android":"levelo://app?vid=b2bc1c7d-34cd-45e5-a4fc-265020245483","ios":"levelo://app?vid=b2bc1c7d-34cd-45e5-a4fc-265020245483"},"vehicle_type_id":"4","last_reported":1738868847,"current_range_meters":25200,"station_id":"ce4bh192rcd13ifvqdc0","pricing_plan_id":"cebpf4jnsgd1na2vs0mg"},{"bike_id":"550d392b-7589-420f-bc4e-bf34dd38b83a","system_id":"levelo_inurba_marseille","lat":43.27949,"lon":5.41046,"is_reserved":false,"is_disabled":false,"rental_uris":{"android":"levelo://app?vid=550d392b-7589-420f-bc4e-bf34dd38b83a","ios":"levelo://app?vid=550d392b-7589-420f-bc4e-bf34dd38b83a"},"vehicle_type_id":"4","last_reported":1738868847,"current_range_meters":6800,"station_id":"ce4bhnp2rcd13ifvqh0g","pricing_plan_id":"cebpf4jnsgd1na2vs0mg"},{"bike_id":"61fa4b26-20c8-466a-9fd1-66899d5ff713","system_id":"levelo_inurba_marseille","lat":43.32347,"lon":5.40617,"is_reserved":false,"is_disabled":false,"rental_uris":{"android":"levelo://app?vid=61fa4b26-20c8-466a-9fd1-66899d5ff713","ios":"levelo://app?vid=61fa4b26-20c8-466a-9fd1-66899d5ff713"},"vehicle_type_id":"4","last_reported":1738868847,"current_range_meters":26800,"station_id":"ce4bhq92rcd13ifvqhjg","pricing_plan_id":"cebpf4jnsgd1na2vs0mg"},{"bike_id":"7bc2d4b6-7844-46be-a947-040b3c3e100d","system_id":"levelo_inurba_marseille","lat":43.27933,"lon":5.396,"is_reserved":false,"is_disabled":false,"rental_uris":{"android":"levelo://app?vid=7bc2d4b6-7844-46be-a947-040b3c3e100d","ios":"levelo://app?vid=7bc2d4b6-7844-46be-a947-040b3c3e100d"},"vehicle_type_id":"4","last_reported":1738868847,"current_range_meters":38400,"station_id":"ce4bhf92rcd13ifvqf40","pricing_plan_id":"cebpf4jnsgd1na2vs0mg"},{"bike_id":"254048ed-538f-43db-8dbf-2f9d8ee68a52","system_id":"levelo_inurba_marseille","lat":43.27187,"lon":5.40995,"is_reserved":false,"is_disabled":false,"rental_uris":{"android":"levelo://app?vid=254048ed-538f-43db-8dbf-2f9d8ee68a52","ios":"levelo://app?vid=254048ed-538f-43db-8dbf-2f9d8ee68a52"},"vehicle_type_id":"4","last_reported":1738868847,"current_range_meters":36000,"station_id":"ce4bhl12rcd13ifvqgf0","pricing_plan_id":"cebpf4jnsgd1na2vs0mg"},{"bike_id":"1e6bd623-b9e9-4650-9f6f-8b4d5252096e","system_id":"levelo_inurba_marseille","lat":43.30815,"lon":5.43519,"is_reserved":false,"is_disabled":false,"rental_uris":{"android":"levelo://app?vid=1e6bd623-b9e9-4650-9f6f-8b4d5252096e","ios":"levelo://app?vid=1e6bd623-b9e9-4650-9f6f-8b4d5252096e"},"vehicle_type_id":"4","last_reported":1738868847,"current_range_meters":38800,"station_id":"ce4bhph2rcd13ifvqheg","pricing_plan_id":"cebpf4jnsgd1na2vs0mg"},{"bike_id":"7a65236e-e55b-4305-a6c7-456e00675e76","system_id":"levelo_inurba_marseille","lat":43.27829,"lon":5.39211,"is_reserved":false,"is_disabled":true,"rental_uris":{"android":"levelo://app?vid=7a65236e-e55b-4305-a6c7-456e00675e76","ios":"levelo://app?vid=7a65236e-e55b-4305-a6c7-456e00675e76"},"vehicle_type_id":"4","last_reported":1738868847,"current_range_meters":1600,"station_id":"ce4bhjp2rcd13ifvqga0","pricing_plan_id":"cebpf4jnsgd1na2vs0mg"},{"bike_id":"a6e126ec-b329-4df2-8fd7-6d43a61e945e","system_id":"levelo_inurba_marseille","lat":43.29275,"lon":5.36837,"is_reserved":false,"is_disabled":false,"rental_uris":{"android":"levelo://app?vid=a6e126ec-b329-4df2-8fd7-6d43a61e945e","ios":"levelo://app?vid=a6e126ec-b329-4df2-8fd7-6d43a61e945e"},"vehicle_type_id":"4","last_reported":1738868847,"current_range_meters":28000,"station_id":"ce4bhbp2rcd13ifvqesg","pricing_plan_id":"cebpf4jnsgd1na2vs0mg"},{"bike_id":"0d2768c4-ffd3-49e6-ae50-223632ef44ad","system_id":"levelo_inurba_marseille","lat":43.29713,"lon":5.37294,"is_reserved":false,"is_disabled":true,"rental_uris":{"android":"levelo://app?vid=0d2768c4-ffd3-49e6-ae50-223632ef44ad","ios":"levelo://app?vid=0d2768c4-ffd3-49e6-ae50-223632ef44ad"},"vehicle_type_id":"4","last_reported":1738868847,"current_range_meters":12000,"station_id":"ce4bho92rcd13ifvqh3g","pricing_plan_id":"cebpf4jnsgd1na2vs0mg"},{"bike_id":"adea3fe0-0d5f-493f-bc7a-8db19cd779cc","system_id":"levelo_inurba_marseille","lat":43.26188,"lon":5.37921,"is_reserved":false,"is_disabled":false,"rental_uris":{"android":"levelo://app?vid=adea3fe0-0d5f-493f-bc7a-8db19cd779cc","ios":"levelo://app?vid=adea3fe0-0d5f-493f-bc7a-8db19cd779cc"},"vehicle_type_id":"4","last_reported":1738868847,"current_range_meters":38400,"station_id":"ce4bhjp2rcd13ifvqg90","pricing_plan_id":"cebpf4jnsgd1na2vs0mg"},{"bike_id":"1e7a2219-8a62-4d64-ae7c-c3d6f0f90ba9","system_id":"levelo_inurba_marseille","lat":43.28427,"lon":5.39174,"is_reserved":false,"is_disabled":false,"rental_uris":{"android":"levelo://app?vid=1e7a2219-8a62-4d64-ae7c-c3d6f0f90ba9","ios":"levelo://app?vid=1e7a2219-8a62-4d64-ae7c-c3d6f0f90ba9"},"vehicle_type_id":"4","last_reported":1738868847,"current_range_meters":30000,"station_id":"ce4bhoh2rcd13ifvqh5g","pricing_plan_id":"cebpf4jnsgd1na2vs0mg"},{"bike_id":"cd8428e3-6db6-44eb-9bb3-8b705f8a339d","system_id":"levelo_inurba_marseille","lat":43.3059,"lon":5.39333,"is_reserved":false,"is_disabled":false,"rental_uris":{"android":"levelo://app?vid=cd8428e3-6db6-44eb-9bb3-8b705f8a339d","ios":"levelo://app?vid=cd8428e3-6db6-44eb-9bb3-8b705f8a339d"},"vehicle_type_id":"4","last_reported":1738868847,"current_range_meters":38800,"station_id":"ce4bh0p2rcd13ifvqd80","pricing_plan_id":"cebpf4jnsgd1na2vs0mg"},{"bike_id":"ddabfc2f-5038-4225-9c45-0f70b1e37cba","system_id":"levelo_inurba_marseille","lat":43.31718,"lon":5.43695,"is_reserved":false,"is_disabled":false,"rental_uris":{"android":"levelo://app?vid=ddabfc2f-5038-4225-9c45-0f70b1e37cba","ios":"levelo://app?vid=ddabfc2f-5038-4225-9c45-0f70b1e37cba"},"vehicle_type_id":"4","last_reported":1738868847,"current_range_meters":31200,"station_id":"ce4bhp92rcd13ifvqhcg","pricing_plan_id":"cebpf4jnsgd1na2vs0mg"},{"bike_id":"7cf1f61c-b313-49b8-b3a8-1e15128022cd","system_id":"levelo_inurba_marseille","lat":43.29293,"lon":5.37172,"is_reserved":false,"is_disabled":false,"rental_uris":{"android":"levelo://app?vid=7cf1f61c-b313-49b8-b3a8-1e15128022cd","ios":"levelo://app?vid=7cf1f61c-b313-49b8-b3a8-1e15128022cd"},"vehicle_type_id":"4","last_reported":1738868847,"current_range_meters":20400,"station_id":"ce4bgh92rcd13ifvqb40","pricing_plan_id":"cebpf4jnsgd1na2vs0mg"},{"bike_id":"bd00495f-1bca-4d45-a94a-b4de266b3ba2","system_id":"levelo_inurba_marseille","lat":43.28473,"lon":5.39204,"is_reserved":false,"is_disabled":false,"rental_uris":{"android":"levelo://app?vid=bd00495f-1bca-4d45-a94a-b4de266b3ba2","ios":"levelo://app?vid=bd00495f-1bca-4d45-a94a-b4de266b3ba2"},"vehicle_type_id":"4","last_reported":1738868847,"current_range_meters":19200,"station_id":"ce4bhoh2rcd13ifvqh5g","pricing_plan_id":"cebpf4jnsgd1na2vs0mg"},{"bike_id":"ea145edb-13e1-40d1-8b79-86b73f5b601c","system_id":"levelo_inurba_marseille","lat":43.26226,"lon":5.37443,"is_reserved":false,"is_disabled":false,"rental_uris":{"android":"levelo://app?vid=ea145edb-13e1-40d1-8b79-86b73f5b601c","ios":"levelo://app?vid=ea145edb-13e1-40d1-8b79-86b73f5b601c"},"vehicle_type_id":"4","last_reported":1738868847,"current_range_meters":20800,"station_id":"ce4bhgp2rcd13ifvqfc0","pricing_plan_id":"cebpf4jnsgd1na2vs0mg"},{"bike_id":"8e791de0-6e91-4611-94c1-59007be40fa1","system_id":"levelo_inurba_marseille","lat":43.27555,"lon":5.38427,"is_reserved":false,"is_disabled":false,"rental_uris":{"android":"levelo://app?vid=8e791de0-6e91-4611-94c1-59007be40fa1","ios":"levelo://app?vid=8e791de0-6e91-4611-94c1-59007be40fa1"},"vehicle_type_id":"4","last_reported":1738868847,"current_range_meters":27600,"station_id":"ce4bhh92rcd13ifvqfi0","pricing_plan_id":"cebpf4jnsgd1na2vs0mg"},{"bike_id":"f38fc671-1bae-4836-a2e7-5dc6c3b36ad7","system_id":"levelo_inurba_marseille","lat":43.29261,"lon":5.38453,"is_reserved":false,"is_disabled":false,"rental_uris":{"android":"levelo://app?vid=f38fc671-1bae-4836-a2e7-5dc6c3b36ad7","ios":"levelo://app?vid=f38fc671-1bae-4836-a2e7-5dc6c3b36ad7"},"vehicle_type_id":"4","last_reported":1738868847,"current_range_meters":38800,"station_id":"ce4bh692rcd13ifvqea0","pricing_plan_id":"cebpf4jnsgd1na2vs0mg"},{"bike_id":"ca957970-bc7c-429b-80fd-e451c27e2ad9","system_id":"levelo_inurba_marseille","lat":43.33022,"lon":5.39037,"is_reserved":false,"is_disabled":false,"rental_uris":{"android":"levelo://app?vid=ca957970-bc7c-429b-80fd-e451c27e2ad9","ios":"levelo://app?vid=ca957970-bc7c-429b-80fd-e451c27e2ad9"},"vehicle_type_id":"4","last_reported":1738868847,"current_range_meters":39200,"station_id":"ce4bhr92rcd13ifvqhrg","pricing_plan_id":"cebpf4jnsgd1na2vs0mg"},{"bike_id":"59db9156-837c-4bef-bdf0-6cb05d00fb23","system_id":"levelo_inurba_marseille","lat":43.24167,"lon":5.36379,"is_reserved":false,"is_disabled":false,"rental_uris":{"android":"levelo://app?vid=59db9156-837c-4bef-bdf0-6cb05d00fb23","ios":"levelo://app?vid=59db9156-837c-4bef-bdf0-6cb05d00fb23"},"vehicle_type_id":"4","last_reported":1738868847,"current_range_meters":35200,"station_id":"cpo36qri1sfpv3e86is0","pricing_plan_id":"cebpf4jnsgd1na2vs0mg"},{"bike_id":"6d6cec68-aae2-41c1-bff2-e8eefe287efa","system_id":"levelo_inurba_marseille","lat":43.26208,"lon":5.37441,"is_reserved":false,"is_disabled":false,"rental_uris":{"android":"levelo://app?vid=6d6cec68-aae2-41c1-bff2-e8eefe287efa","ios":"levelo://app?vid=6d6cec68-aae2-41c1-bff2-e8eefe287efa"},"vehicle_type_id":"4","last_reported":1738868847,"current_range_meters":19600,"station_id":"ce4bhgp2rcd13ifvqfc0","pricing_plan_id":"cebpf4jnsgd1na2vs0mg"},{"bike_id":"791993ac-1065-45d3-99de-46f3e26cebf2","system_id":"levelo_inurba_marseille","lat":43.30882,"lon":5.39654,"is_reserved":false,"is_disabled":false,"rental_uris":{"android":"levelo://app?vid=791993ac-1065-45d3-99de-46f3e26cebf2","ios":"levelo://app?vid=791993ac-1065-45d3-99de-46f3e26cebf2"},"vehicle_type_id":"4","last_reported":1738868847,"current_range_meters":16400,"station_id":"ce4bh012rcd13ifvqcv0","pricing_plan_id":"cebpf4jnsgd1na2vs0mg"},{"bike_id":"19c91191-64ee-4803-94d7-14a4a66340df","system_id":"levelo_inurba_marseille","lat":43.31708,"lon":5.42405,"is_reserved":false,"is_disabled":true,"rental_uris":{"android":"levelo://app?vid=19c91191-64ee-4803-94d7-14a4a66340df","ios":"levelo://app?vid=19c91191-64ee-4803-94d7-14a4a66340df"},"vehicle_type_id":"4","last_reported":1738868847,"current_range_meters":0,"station_id":"ce4bhp92rcd13ifvqhbg","pricing_plan_id":"cebpf4jnsgd1na2vs0mg"},{"bike_id":"0a6a90a0-b9a1-4553-942b-9cc8f0c94f66","system_id":"levelo_inurba_marseille","lat":43.29242,"lon":5.40909,"is_reserved":false,"is_disabled":true,"rental_uris":{"android":"levelo://app?vid=0a6a90a0-b9a1-4553-942b-9cc8f0c94f66","ios":"levelo://app?vid=0a6a90a0-b9a1-4553-942b-9cc8f0c94f66"},"vehicle_type_id":"4","last_reported":1738868847,"current_range_meters":18000,"station_id":"ce4bh192rcd13ifvqdc0","pricing_plan_id":"cebpf4jnsgd1na2vs0mg"},{"bike_id":"3f677350-09c3-4e66-b95f-836aa0a3f7e5","system_id":"levelo_inurba_marseille","lat":43.29419,"lon":5.38616,"is_reserved":false,"is_disabled":false,"rental_uris":{"android":"levelo://app?vid=3f677350-09c3-4e66-b95f-836aa0a3f7e5","ios":"levelo://app?vid=3f677350-09c3-4e66-b95f-836aa0a3f7e5"},"vehicle_type_id":"4","last_reported":1738868847,"current_range_meters":34800,"station_id":"ce4bh2h2rcd13ifvqdh0","pricing_plan_id":"cebpf4jnsgd1na2vs0mg"},{"bike_id":"fef1bd1d-2ad2-48f6-a1bb-d87aafe8c512","system_id":"levelo_inurba_marseille","lat":43.289298,"lon":5.364026,"is_reserved":false,"is_disabled":true,"rental_uris":{"android":"levelo://app?vid=fef1bd1d-2ad2-48f6-a1bb-d87aafe8c512","ios":"levelo://app?vid=fef1bd1d-2ad2-48f6-a1bb-d87aafe8c512"},"vehicle_type_id":"4","last_reported":1738868847,"current_range_meters":0,"station_id":"ce4bhc92rcd13ifvqetg","pricing_plan_id":"cebpf4jnsgd1na2vs0mg"},{"bike_id":"0cd493da-16fa-43d2-8b0d-c16cf19bf856","system_id":"levelo_inurba_marseille","lat":43.30296,"lon":5.39207,"is_reserved":false,"is_disabled":false,"rental_uris":{"android":"levelo://app?vid=0cd493da-16fa-43d2-8b0d-c16cf19bf856","ios":"levelo://app?vid=0cd493da-16fa-43d2-8b0d-c16cf19bf856"},"vehicle_type_id":"4","last_reported":1738868847,"current_range_meters":38800,"station_id":"ce4bgkh2rcd13ifvqbk0","pricing_plan_id":"cebpf4jnsgd1na2vs0mg"},{"bike_id":"b6306b21-43ab-4439-b67f-29d0b5cdce20","system_id":"levelo_inurba_marseille","lat":43.29796,"lon":5.39343,"is_reserved":false,"is_disabled":false,"rental_uris":{"android":"levelo://app?vid=b6306b21-43ab-4439-b67f-29d0b5cdce20","ios":"levelo://app?vid=b6306b21-43ab-4439-b67f-29d0b5cdce20"},"vehicle_type_id":"4","last_reported":1738868847,"current_range_meters":38800,"station_id":"chh1huq6cuj3fo74tm60","pricing_plan_id":"cebpf4jnsgd1na2vs0mg"},{"bike_id":"63502e7d-71b3-44d6-b82d-6352b6e3809f","system_id":"levelo_inurba_marseille","lat":43.25837,"lon":5.39423,"is_reserved":false,"is_disabled":true,"rental_uris":{"android":"levelo://app?vid=63502e7d-71b3-44d6-b82d-6352b6e3809f","ios":"levelo://app?vid=63502e7d-71b3-44d6-b82d-6352b6e3809f"},"vehicle_type_id":"4","last_reported":1738868847,"current_range_meters":2000,"station_id":"ce4bhip2rcd13ifvqft0","pricing_plan_id":"cebpf4jnsgd1na2vs0mg"},{"bike_id":"aa20ddd3-fab3-4250-b35b-41c0ae9e33eb","system_id":"levelo_inurba_marseille","lat":43.24527,"lon":5.37307,"is_reserved":false,"is_disabled":false,"rental_uris":{"android":"levelo://app?vid=aa20ddd3-fab3-4250-b35b-41c0ae9e33eb","ios":"levelo://app?vid=aa20ddd3-fab3-4250-b35b-41c0ae9e33eb"},"vehicle_type_id":"4","last_reported":1738868847,"current_range_meters":16000,"station_id":"","pricing_plan_id":"cebpf4jnsgd1na2vs0mg"},{"bike_id":"e3011aea-52c2-42db-b123-d3dd5e3ee46e","system_id":"levelo_inurba_marseille","lat":43.27835,"lon":5.39201,"is_reserved":false,"is_disabled":false,"rental_uris":{"android":"levelo://app?vid=e3011aea-52c2-42db-b123-d3dd5e3ee46e","ios":"levelo://app?vid=e3011aea-52c2-42db-b123-d3dd5e3ee46e"},"vehicle_type_id":"4","last_reported":1738868847,"current_range_meters":36000,"station_id":"ce4bhjp2rcd13ifvqga0","pricing_plan_id":"cebpf4jnsgd1na2vs0mg"},{"bike_id":"0e497770-cf09-4b8a-96bf-de7f715f6fe7","system_id":"levelo_inurba_marseille","lat":43.29501,"lon":5.39033,"is_reserved":false,"is_disabled":false,"rental_uris":{"android":"levelo://app?vid=0e497770-cf09-4b8a-96bf-de7f715f6fe7","ios":"levelo://app?vid=0e497770-cf09-4b8a-96bf-de7f715f6fe7"},"vehicle_type_id":"4","last_reported":1738868847,"current_range_meters":38800,"station_id":"ce4bh3p2rcd13ifvqdp0","pricing_plan_id":"cebpf4jnsgd1na2vs0mg"},{"bike_id":"744f4122-a65c-499d-80ba-7729a1ce92fe","system_id":"levelo_inurba_marseille","lat":43.2844,"lon":5.39216,"is_reserved":false,"is_disabled":true,"rental_uris":{"android":"levelo://app?vid=744f4122-a65c-499d-80ba-7729a1ce92fe","ios":"levelo://app?vid=744f4122-a65c-499d-80ba-7729a1ce92fe"},"vehicle_type_id":"4","last_reported":1738868847,"current_range_meters":38000,"station_id":"ce4bhoh2rcd13ifvqh5g","pricing_plan_id":"cebpf4jnsgd1na2vs0mg"},{"bike_id":"5d1dacf3-3fa1-40ba-8373-ce163dd2d283","system_id":"levelo_inurba_marseille","lat":43.26206,"lon":5.37921,"is_reserved":false,"is_disabled":false,"rental_uris":{"android":"levelo://app?vid=5d1dacf3-3fa1-40ba-8373-ce163dd2d283","ios":"levelo://app?vid=5d1dacf3-3fa1-40ba-8373-ce163dd2d283"},"vehicle_type_id":"4","last_reported":1738868847,"current_range_meters":38800,"station_id":"ce4bhjp2rcd13ifvqg90","pricing_plan_id":"cebpf4jnsgd1na2vs0mg"},{"bike_id":"902b9799-7f47-4fdb-9c20-1bc32b87a56f","system_id":"levelo_inurba_marseille","lat":43.29909,"lon":5.37471,"is_reserved":false,"is_disabled":false,"rental_uris":{"android":"levelo://app?vid=902b9799-7f47-4fdb-9c20-1bc32b87a56f","ios":"levelo://app?vid=902b9799-7f47-4fdb-9c20-1bc32b87a56f"},"vehicle_type_id":"4","last_reported":1738868847,"current_range_meters":16000,"station_id":"ce4bgjh2rcd13ifvqbg0","pricing_plan_id":"cebpf4jnsgd1na2vs0mg"},{"bike_id":"90aa1c42-4535-4a28-b2b4-27f65c7ee94b","system_id":"levelo_inurba_marseille","lat":43.29534,"lon":5.38551,"is_reserved":false,"is_disabled":false,"rental_uris":{"android":"levelo://app?vid=90aa1c42-4535-4a28-b2b4-27f65c7ee94b","ios":"levelo://app?vid=90aa1c42-4535-4a28-b2b4-27f65c7ee94b"},"vehicle_type_id":"4","last_reported":1738868847,"current_range_meters":22000,"station_id":"ce4bgih2rcd13ifvqba0","pricing_plan_id":"cebpf4jnsgd1na2vs0mg"},{"bike_id":"eb192197-0219-4cdf-905a-c64bd68ab8be","system_id":"levelo_inurba_marseille","lat":43.284555,"lon":5.358895,"is_reserved":false,"is_disabled":false,"rental_uris":{"android":"levelo://app?vid=eb192197-0219-4cdf-905a-c64bd68ab8be","ios":"levelo://app?vid=eb192197-0219-4cdf-905a-c64bd68ab8be"},"vehicle_type_id":"4","last_reported":1738868847,"current_range_meters":38800,"station_id":"ce4bhah2rcd13ifvqei0","pricing_plan_id":"cebpf4jnsgd1na2vs0mg"},{"bike_id":"8b2375cd-7bac-4044-8d34-541a6bd9df3d","system_id":"levelo_inurba_marseille","lat":43.2866,"lon":5.36357,"is_reserved":false,"is_disabled":false,"rental_uris":{"android":"levelo://app?vid=8b2375cd-7bac-4044-8d34-541a6bd9df3d","ios":"levelo://app?vid=8b2375cd-7bac-4044-8d34-541a6bd9df3d"},"vehicle_type_id":"4","last_reported":1738868847,"current_range_meters":32400,"station_id":"ce4bhah2rcd13ifvqej0","pricing_plan_id":"cebpf4jnsgd1na2vs0mg"},{"bike_id":"26226eb4-bffe-4870-bfd9-66722275b374","system_id":"levelo_inurba_marseille","lat":43.28467,"lon":5.35883,"is_reserved":false,"is_disabled":false,"rental_uris":{"android":"levelo://app?vid=26226eb4-bffe-4870-bfd9-66722275b374","ios":"levelo://app?vid=26226eb4-bffe-4870-bfd9-66722275b374"},"vehicle_type_id":"4","last_reported":1738868847,"current_range_meters":6800,"station_id":"ce4bhah2rcd13ifvqei0","pricing_plan_id":"cebpf4jnsgd1na2vs0mg"},{"bike_id":"a197a97c-83d3-4bde-8cc4-626e4420d3af","system_id":"levelo_inurba_marseille","lat":43.29783,"lon":5.3934,"is_reserved":false,"is_disabled":false,"rental_uris":{"android":"levelo://app?vid=a197a97c-83d3-4bde-8cc4-626e4420d3af","ios":"levelo://app?vid=a197a97c-83d3-4bde-8cc4-626e4420d3af"},"vehicle_type_id":"4","last_reported":1738868847,"current_range_meters":39200,"station_id":"chh1huq6cuj3fo74tm60","pricing_plan_id":"cebpf4jnsgd1na2vs0mg"},{"bike_id":"bd32dc0c-00fd-47e6-845e-d336459d0cc2","system_id":"levelo_inurba_marseille","lat":43.24183,"lon":5.3972,"is_reserved":false,"is_disabled":false,"rental_uris":{"android":"levelo://app?vid=bd32dc0c-00fd-47e6-845e-d336459d0cc2","ios":"levelo://app?vid=bd32dc0c-00fd-47e6-845e-d336459d0cc2"},"vehicle_type_id":"4","last_reported":1738868847,"current_range_meters":9200,"station_id":"ce4bhn12rcd13ifvqgpg","pricing_plan_id":"cebpf4jnsgd1na2vs0mg"},{"bike_id":"a84f4ed9-9752-4707-9517-860f878319ee","system_id":"levelo_inurba_marseille","lat":43.23963,"lon":5.36633,"is_reserved":false,"is_disabled":false,"rental_uris":{"android":"levelo://app?vid=a84f4ed9-9752-4707-9517-860f878319ee","ios":"levelo://app?vid=a84f4ed9-9752-4707-9517-860f878319ee"},"vehicle_type_id":"4","last_reported":1738868847,"current_range_meters":23200,"station_id":"ce4bhi12rcd13ifvqfp0","pricing_plan_id":"cebpf4jnsgd1na2vs0mg"},{"bike_id":"d9d46ce6-4774-42c1-9654-aadcbb4cdfbf","system_id":"levelo_inurba_marseille","lat":43.26549,"lon":5.37291,"is_reserved":false,"is_disabled":false,"rental_uris":{"android":"levelo://app?vid=d9d46ce6-4774-42c1-9654-aadcbb4cdfbf","ios":"levelo://app?vid=d9d46ce6-4774-42c1-9654-aadcbb4cdfbf"},"vehicle_type_id":"4","last_reported":1738868847,"current_range_meters":38800,"station_id":"ce4bhg12rcd13ifvqf70","pricing_plan_id":"cebpf4jnsgd1na2vs0mg"},{"bike_id":"c98dac74-8ef2-440f-bb69-0af2b3220a11","system_id":"levelo_inurba_marseille","lat":43.29848,"lon":5.3628,"is_reserved":false,"is_disabled":true,"rental_uris":{"android":"levelo://app?vid=c98dac74-8ef2-440f-bb69-0af2b3220a11","ios":"levelo://app?vid=c98dac74-8ef2-440f-bb69-0af2b3220a11"},"vehicle_type_id":"4","last_reported":1738868847,"current_range_meters":37600,"station_id":"ce4bgpp2rcd13ifvqc3g","pricing_plan_id":"cebpf4jnsgd1na2vs0mg"},{"bike_id":"e5174efd-1a7c-4fdb-b4af-6221476f31e1","system_id":"levelo_inurba_marseille","lat":43.28737,"lon":5.36082,"is_reserved":false,"is_disabled":false,"rental_uris":{"android":"levelo://app?vid=e5174efd-1a7c-4fdb-b4af-6221476f31e1","ios":"levelo://app?vid=e5174efd-1a7c-4fdb-b4af-6221476f31e1"},"vehicle_type_id":"4","last_reported":1738868847,"current_range_meters":27600,"station_id":"cki0cbj6b192h4jlfktg","pricing_plan_id":"cebpf4jnsgd1na2vs0mg"},{"bike_id":"0d54eca9-c749-4ae0-b48d-ed961e8821ca","system_id":"levelo_inurba_marseille","lat":43.29036,"lon":5.39963,"is_reserved":false,"is_disabled":false,"rental_uris":{"android":"levelo://app?vid=0d54eca9-c749-4ae0-b48d-ed961e8821ca","ios":"levelo://app?vid=0d54eca9-c749-4ae0-b48d-ed961e8821ca"},"vehicle_type_id":"4","last_reported":1738868847,"current_range_meters":38400,"station_id":"ce4bh392rcd13ifvqdm0","pricing_plan_id":"cebpf4jnsgd1na2vs0mg"},{"bike_id":"a9fe8d5b-19fa-4d85-a071-0334e847aa21","system_id":"levelo_inurba_marseille","lat":43.31762,"lon":5.39019,"is_reserved":false,"is_disabled":false,"rental_uris":{"android":"levelo://app?vid=a9fe8d5b-19fa-4d85-a071-0334e847aa21","ios":"levelo://app?vid=a9fe8d5b-19fa-4d85-a071-0334e847aa21"},"vehicle_type_id":"4","last_reported":1738868847,"current_range_meters":36800,"station_id":"ce4bhqp2rcd13ifvqhng","pricing_plan_id":"cebpf4jnsgd1na2vs0mg"},{"bike_id":"23ed3a8c-40f5-4a1d-a72c-21e8e973d5c1","system_id":"levelo_inurba_marseille","lat":43.26213,"lon":5.37441,"is_reserved":false,"is_disabled":false,"rental_uris":{"android":"levelo://app?vid=23ed3a8c-40f5-4a1d-a72c-21e8e973d5c1","ios":"levelo://app?vid=23ed3a8c-40f5-4a1d-a72c-21e8e973d5c1"},"vehicle_type_id":"4","last_reported":1738868847,"current_range_meters":17200,"station_id":"ce4bhgp2rcd13ifvqfc0","pricing_plan_id":"cebpf4jnsgd1na2vs0mg"},{"bike_id":"fe146960-7d51-43a8-8d5f-97dd150b0e2d","system_id":"levelo_inurba_marseille","lat":43.26049,"lon":5.3939,"is_reserved":false,"is_disabled":false,"rental_uris":{"android":"levelo://app?vid=fe146960-7d51-43a8-8d5f-97dd150b0e2d","ios":"levelo://app?vid=fe146960-7d51-43a8-8d5f-97dd150b0e2d"},"vehicle_type_id":"4","last_reported":1738868847,"current_range_meters":38800,"station_id":"ce4bhh92rcd13ifvqfj0","pricing_plan_id":"cebpf4jnsgd1na2vs0mg"},{"bike_id":"8af372c0-a018-4ceb-b2e7-8858a72a1a67","system_id":"levelo_inurba_marseille","lat":43.29533,"lon":5.38542,"is_reserved":false,"is_disabled":false,"rental_uris":{"android":"levelo://app?vid=8af372c0-a018-4ceb-b2e7-8858a72a1a67","ios":"levelo://app?vid=8af372c0-a018-4ceb-b2e7-8858a72a1a67"},"vehicle_type_id":"4","last_reported":1738868847,"current_range_meters":30000,"station_id":"ce4bgih2rcd13ifvqba0","pricing_plan_id":"cebpf4jnsgd1na2vs0mg"},{"bike_id":"79eab85b-411d-47b7-ba8c-c70679ea549f","system_id":"levelo_inurba_marseille","lat":43.2319,"lon":5.39978,"is_reserved":false,"is_disabled":false,"rental_uris":{"android":"levelo://app?vid=79eab85b-411d-47b7-ba8c-c70679ea549f","ios":"levelo://app?vid=79eab85b-411d-47b7-ba8c-c70679ea549f"},"vehicle_type_id":"4","last_reported":1738868847,"current_range_meters":18000,"station_id":"ce4bhn12rcd13ifvqgqg","pricing_plan_id":"cebpf4jnsgd1na2vs0mg"},{"bike_id":"ab994f77-4cb8-4e69-ba2f-b6058d7bbc4a","system_id":"levelo_inurba_marseille","lat":43.29262,"lon":5.409,"is_reserved":false,"is_disabled":false,"rental_uris":{"android":"levelo://app?vid=ab994f77-4cb8-4e69-ba2f-b6058d7bbc4a","ios":"levelo://app?vid=ab994f77-4cb8-4e69-ba2f-b6058d7bbc4a"},"vehicle_type_id":"4","last_reported":1738868847,"current_range_meters":12800,"station_id":"ce4bh192rcd13ifvqdc0","pricing_plan_id":"cebpf4jnsgd1na2vs0mg"},{"bike_id":"341067f4-d7ed-4f99-954f-691c64a92e97","system_id":"levelo_inurba_marseille","lat":43.23186,"lon":5.39981,"is_reserved":false,"is_disabled":false,"rental_uris":{"android":"levelo://app?vid=341067f4-d7ed-4f99-954f-691c64a92e97","ios":"levelo://app?vid=341067f4-d7ed-4f99-954f-691c64a92e97"},"vehicle_type_id":"4","last_reported":1738868847,"current_range_meters":17200,"station_id":"ce4bhn12rcd13ifvqgqg","pricing_plan_id":"cebpf4jnsgd1na2vs0mg"},{"bike_id":"997261c2-3b19-4e05-94f0-b8c67ee981d2","system_id":"levelo_inurba_marseille","lat":43.28467,"lon":5.35874,"is_reserved":false,"is_disabled":false,"rental_uris":{"android":"levelo://app?vid=997261c2-3b19-4e05-94f0-b8c67ee981d2","ios":"levelo://app?vid=997261c2-3b19-4e05-94f0-b8c67ee981d2"},"vehicle_type_id":"4","last_reported":1738868847,"current_range_meters":36400,"station_id":"ce4bhah2rcd13ifvqei0","pricing_plan_id":"cebpf4jnsgd1na2vs0mg"},{"bike_id":"d736c68e-daa4-4112-8bd2-0159c2ffd242","system_id":"levelo_inurba_marseille","lat":43.29296,"lon":5.37465,"is_reserved":false,"is_disabled":false,"rental_uris":{"android":"levelo://app?vid=d736c68e-daa4-4112-8bd2-0159c2ffd242","ios":"levelo://app?vid=d736c68e-daa4-4112-8bd2-0159c2ffd242"},"vehicle_type_id":"4","last_reported":1738868847,"current_range_meters":11600,"station_id":"ce4bgi12rcd13ifvqb70","pricing_plan_id":"cebpf4jnsgd1na2vs0mg"},{"bike_id":"a5d49cd3-6b2a-47b4-ad10-03a42579a604","system_id":"levelo_inurba_marseille","lat":43.29036,"lon":5.37567,"is_reserved":false,"is_disabled":false,"rental_uris":{"android":"levelo://app?vid=a5d49cd3-6b2a-47b4-ad10-03a42579a604","ios":"levelo://app?vid=a5d49cd3-6b2a-47b4-ad10-03a42579a604"},"vehicle_type_id":"4","last_reported":1738868847,"current_range_meters":16800,"station_id":"ce4bh692rcd13ifvqe90","pricing_plan_id":"cebpf4jnsgd1na2vs0mg"},{"bike_id":"a49429c3-5f1a-484d-888a-356e7dbeb3c3","system_id":"levelo_inurba_marseille","lat":43.29527,"lon":5.39032,"is_reserved":false,"is_disabled":false,"rental_uris":{"android":"levelo://app?vid=a49429c3-5f1a-484d-888a-356e7dbeb3c3","ios":"levelo://app?vid=a49429c3-5f1a-484d-888a-356e7dbeb3c3"},"vehicle_type_id":"4","last_reported":1738868847,"current_range_meters":27600,"station_id":"ce4bh3p2rcd13ifvqdp0","pricing_plan_id":"cebpf4jnsgd1na2vs0mg"},{"bike_id":"2bf02905-c507-44ac-a858-ce1fed073fd1","system_id":"levelo_inurba_marseille","lat":43.31889,"lon":5.4074,"is_reserved":false,"is_disabled":false,"rental_uris":{"android":"levelo://app?vid=2bf02905-c507-44ac-a858-ce1fed073fd1","ios":"levelo://app?vid=2bf02905-c507-44ac-a858-ce1fed073fd1"},"vehicle_type_id":"4","last_reported":1738868847,"current_range_meters":30000,"station_id":"ce4bhq12rcd13ifvqhig","pricing_plan_id":"cebpf4jnsgd1na2vs0mg"},{"bike_id":"6598a511-2288-435f-b0cf-a47dea92c964","system_id":"levelo_inurba_marseille","lat":43.28105,"lon":5.37854,"is_reserved":false,"is_disabled":false,"rental_uris":{"android":"levelo://app?vid=6598a511-2288-435f-b0cf-a47dea92c964","ios":"levelo://app?vid=6598a511-2288-435f-b0cf-a47dea92c964"},"vehicle_type_id":"4","last_reported":1738868847,"current_range_meters":31200,"station_id":"ce4bha12rcd13ifvqee0","pricing_plan_id":"cebpf4jnsgd1na2vs0mg"},{"bike_id":"dcfce4a1-db68-4a9f-adb1-77b98e0b2a5c","system_id":"levelo_inurba_marseille","lat":43.28688,"lon":5.38653,"is_reserved":false,"is_disabled":false,"rental_uris":{"android":"levelo://app?vid=dcfce4a1-db68-4a9f-adb1-77b98e0b2a5c","ios":"levelo://app?vid=dcfce4a1-db68-4a9f-adb1-77b98e0b2a5c"},"vehicle_type_id":"4","last_reported":1738868847,"current_range_meters":19200,"station_id":"ce4bh492rcd13ifvqdug","pricing_plan_id":"cebpf4jnsgd1na2vs0mg"},{"bike_id":"25bf09da-0604-4633-a1a7-719e8ce227e8","system_id":"levelo_inurba_marseille","lat":43.29037,"lon":5.39966,"is_reserved":false,"is_disabled":false,"rental_uris":{"android":"levelo://app?vid=25bf09da-0604-4633-a1a7-719e8ce227e8","ios":"levelo://app?vid=25bf09da-0604-4633-a1a7-719e8ce227e8"},"vehicle_type_id":"4","last_reported":1738868847,"current_range_meters":9600,"station_id":"ce4bh392rcd13ifvqdm0","pricing_plan_id":"cebpf4jnsgd1na2vs0mg"},{"bike_id":"d9e1746e-fb35-4488-8bed-3a26bd5c5605","system_id":"levelo_inurba_marseille","lat":43.3029,"lon":5.39791,"is_reserved":false,"is_disabled":true,"rental_uris":{"android":"levelo://app?vid=d9e1746e-fb35-4488-8bed-3a26bd5c5605","ios":"levelo://app?vid=d9e1746e-fb35-4488-8bed-3a26bd5c5605"},"vehicle_type_id":"4","last_reported":1738868847,"current_range_meters":0,"station_id":"","pricing_plan_id":"cebpf4jnsgd1na2vs0mg"},{"bike_id":"7ffc0f4b-2320-4cbd-b643-523dab446d45","system_id":"levelo_inurba_marseille","lat":43.24998,"lon":5.38926,"is_reserved":false,"is_disabled":false,"rental_uris":{"android":"levelo://app?vid=7ffc0f4b-2320-4cbd-b643-523dab446d45","ios":"levelo://app?vid=7ffc0f4b-2320-4cbd-b643-523dab446d45"},"vehicle_type_id":"4","last_reported":1738868847,"current_range_meters":38800,"station_id":"ce4bhgp2rcd13ifvqfd0","pricing_plan_id":"cebpf4jnsgd1na2vs0mg"},{"bike_id":"94242101-cc8b-4e30-bb06-1ede46bad2b8","system_id":"levelo_inurba_marseille","lat":43.30887,"lon":5.39652,"is_reserved":false,"is_disabled":false,"rental_uris":{"android":"levelo://app?vid=94242101-cc8b-4e30-bb06-1ede46bad2b8","ios":"levelo://app?vid=94242101-cc8b-4e30-bb06-1ede46bad2b8"},"vehicle_type_id":"4","last_reported":1738868847,"current_range_meters":22000,"station_id":"ce4bh012rcd13ifvqcv0","pricing_plan_id":"cebpf4jnsgd1na2vs0mg"},{"bike_id":"793d203f-d2f1-4487-b88c-47005c5776f8","system_id":"levelo_inurba_marseille","lat":43.31076,"lon":5.38348,"is_reserved":false,"is_disabled":true,"rental_uris":{"android":"levelo://app?vid=793d203f-d2f1-4487-b88c-47005c5776f8","ios":"levelo://app?vid=793d203f-d2f1-4487-b88c-47005c5776f8"},"vehicle_type_id":"4","last_reported":1738868847,"current_range_meters":1200,"station_id":"ce4bgv92rcd13ifvqcr0","pricing_plan_id":"cebpf4jnsgd1na2vs0mg"},{"bike_id":"f24ec0b4-4c06-4731-af33-fd9aeca8f29c","system_id":"levelo_inurba_marseille","lat":43.28667,"lon":5.36351,"is_reserved":false,"is_disabled":false,"rental_uris":{"android":"levelo://app?vid=f24ec0b4-4c06-4731-af33-fd9aeca8f29c","ios":"levelo://app?vid=f24ec0b4-4c06-4731-af33-fd9aeca8f29c"},"vehicle_type_id":"4","last_reported":1738868847,"current_range_meters":17200,"station_id":"ce4bhah2rcd13ifvqej0","pricing_plan_id":"cebpf4jnsgd1na2vs0mg"},{"bike_id":"1445e6b0-563f-4e07-a4c3-737a74ded9e8","system_id":"levelo_inurba_marseille","lat":43.29584,"lon":5.39984,"is_reserved":false,"is_disabled":true,"rental_uris":{"android":"levelo://app?vid=1445e6b0-563f-4e07-a4c3-737a74ded9e8","ios":"levelo://app?vid=1445e6b0-563f-4e07-a4c3-737a74ded9e8"},"vehicle_type_id":"4","last_reported":1738868847,"current_range_meters":1200,"station_id":"ce4bh312rcd13ifvqdj0","pricing_plan_id":"cebpf4jnsgd1na2vs0mg"},{"bike_id":"0ae7beaa-00f4-40f6-bfa7-6b4d92723ad7","system_id":"levelo_inurba_marseille","lat":43.29531,"lon":5.42248,"is_reserved":false,"is_disabled":false,"rental_uris":{"android":"levelo://app?vid=0ae7beaa-00f4-40f6-bfa7-6b4d92723ad7","ios":"levelo://app?vid=0ae7beaa-00f4-40f6-bfa7-6b4d92723ad7"},"vehicle_type_id":"4","last_reported":1738868847,"current_range_meters":38800,"station_id":"ce4bhph2rcd13ifvqhdg","pricing_plan_id":"cebpf4jnsgd1na2vs0mg"},{"bike_id":"6468b549-bff2-4d84-b6fb-6f98b7c55796","system_id":"levelo_inurba_marseille","lat":43.30867,"lon":5.39622,"is_reserved":false,"is_disabled":false,"rental_uris":{"android":"levelo://app?vid=6468b549-bff2-4d84-b6fb-6f98b7c55796","ios":"levelo://app?vid=6468b549-bff2-4d84-b6fb-6f98b7c55796"},"vehicle_type_id":"4","last_reported":1738868847,"current_range_meters":36800,"station_id":"ce4bh012rcd13ifvqcv0","pricing_plan_id":"cebpf4jnsgd1na2vs0mg"},{"bike_id":"63c8956c-b2b5-4faa-8b7d-f821c05dd8c4","system_id":"levelo_inurba_marseille","lat":43.260275,"lon":5.37551,"is_reserved":false,"is_disabled":true,"rental_uris":{"android":"levelo://app?vid=63c8956c-b2b5-4faa-8b7d-f821c05dd8c4","ios":"levelo://app?vid=63c8956c-b2b5-4faa-8b7d-f821c05dd8c4"},"vehicle_type_id":"4","last_reported":1738868847,"current_range_meters":8000,"station_id":"","pricing_plan_id":"cebpf4jnsgd1na2vs0mg"},{"bike_id":"f1ebed8b-eba5-4dab-93d5-8c1a70cba92f","system_id":"levelo_inurba_marseille","lat":43.25829,"lon":5.3944,"is_reserved":false,"is_disabled":false,"rental_uris":{"android":"levelo://app?vid=f1ebed8b-eba5-4dab-93d5-8c1a70cba92f","ios":"levelo://app?vid=f1ebed8b-eba5-4dab-93d5-8c1a70cba92f"},"vehicle_type_id":"4","last_reported":1738868847,"current_range_meters":35600,"station_id":"ce4bhip2rcd13ifvqft0","pricing_plan_id":"cebpf4jnsgd1na2vs0mg"},{"bike_id":"436841b0-3661-4dbb-88c4-f6eb9c813f5b","system_id":"levelo_inurba_marseille","lat":43.29297,"lon":5.37459,"is_reserved":false,"is_disabled":false,"rental_uris":{"android":"levelo://app?vid=436841b0-3661-4dbb-88c4-f6eb9c813f5b","ios":"levelo://app?vid=436841b0-3661-4dbb-88c4-f6eb9c813f5b"},"vehicle_type_id":"4","last_reported":1738868847,"current_range_meters":38800,"station_id":"ce4bgi12rcd13ifvqb70","pricing_plan_id":"cebpf4jnsgd1na2vs0mg"},{"bike_id":"3f7ff96d-9623-4aad-b4cc-175dc1dfc2c0","system_id":"levelo_inurba_marseille","lat":43.28422,"lon":5.39193,"is_reserved":false,"is_disabled":false,"rental_uris":{"android":"levelo://app?vid=3f7ff96d-9623-4aad-b4cc-175dc1dfc2c0","ios":"levelo://app?vid=3f7ff96d-9623-4aad-b4cc-175dc1dfc2c0"},"vehicle_type_id":"4","last_reported":1738868847,"current_range_meters":30800,"station_id":"ce4bhoh2rcd13ifvqh5g","pricing_plan_id":"cebpf4jnsgd1na2vs0mg"},{"bike_id":"a7b647d9-1a4b-4ec5-8bea-7b331389070f","system_id":"levelo_inurba_marseille","lat":43.32448,"lon":5.45542,"is_reserved":false,"is_disabled":true,"rental_uris":{"android":"levelo://app?vid=a7b647d9-1a4b-4ec5-8bea-7b331389070f","ios":"levelo://app?vid=a7b647d9-1a4b-4ec5-8bea-7b331389070f"},"vehicle_type_id":"4","last_reported":1738868847,"current_range_meters":14400,"station_id":"","pricing_plan_id":"cebpf4jnsgd1na2vs0mg"},{"bike_id":"1a756986-a670-4019-8587-1ba1d8b20fae","system_id":"levelo_inurba_marseille","lat":43.28949,"lon":5.36413,"is_reserved":false,"is_disabled":false,"rental_uris":{"android":"levelo://app?vid=1a756986-a670-4019-8587-1ba1d8b20fae","ios":"levelo://app?vid=1a756986-a670-4019-8587-1ba1d8b20fae"},"vehicle_type_id":"4","last_reported":1738868847,"current_range_meters":34800,"station_id":"ce4bhc92rcd13ifvqetg","pricing_plan_id":"cebpf4jnsgd1na2vs0mg"},{"bike_id":"75ad5004-e249-4ac5-9d7d-6b22e4d246bb","system_id":"levelo_inurba_marseille","lat":43.29195,"lon":5.39309,"is_reserved":false,"is_disabled":false,"rental_uris":{"android":"levelo://app?vid=75ad5004-e249-4ac5-9d7d-6b22e4d246bb","ios":"levelo://app?vid=75ad5004-e249-4ac5-9d7d-6b22e4d246bb"},"vehicle_type_id":"4","last_reported":1738868847,"current_range_meters":30000,"station_id":"ce4bh192rcd13ifvqdd0","pricing_plan_id":"cebpf4jnsgd1na2vs0mg"},{"bike_id":"b7cc454e-c293-4c4b-b50a-af840f2a15e0","system_id":"levelo_inurba_marseille","lat":43.30416,"lon":5.41284,"is_reserved":false,"is_disabled":false,"rental_uris":{"android":"levelo://app?vid=b7cc454e-c293-4c4b-b50a-af840f2a15e0","ios":"levelo://app?vid=b7cc454e-c293-4c4b-b50a-af840f2a15e0"},"vehicle_type_id":"4","last_reported":1738868847,"current_range_meters":10000,"station_id":"ce4bhop2rcd13ifvqh8g","pricing_plan_id":"cebpf4jnsgd1na2vs0mg"},{"bike_id":"23bf8687-1d9b-4777-bd57-32fb23de0a84","system_id":"levelo_inurba_marseille","lat":43.29518,"lon":5.39399,"is_reserved":false,"is_disabled":false,"rental_uris":{"android":"levelo://app?vid=23bf8687-1d9b-4777-bd57-32fb23de0a84","ios":"levelo://app?vid=23bf8687-1d9b-4777-bd57-32fb23de0a84"},"vehicle_type_id":"4","last_reported":1738868847,"current_range_meters":22400,"station_id":"ce4bh292rcd13ifvqdf0","pricing_plan_id":"cebpf4jnsgd1na2vs0mg"},{"bike_id":"446a5d83-a63f-4141-b34e-cb000224c05d","system_id":"levelo_inurba_marseille","lat":43.26211,"lon":5.37439,"is_reserved":false,"is_disabled":false,"rental_uris":{"android":"levelo://app?vid=446a5d83-a63f-4141-b34e-cb000224c05d","ios":"levelo://app?vid=446a5d83-a63f-4141-b34e-cb000224c05d"},"vehicle_type_id":"4","last_reported":1738868847,"current_range_meters":9200,"station_id":"ce4bhgp2rcd13ifvqfc0","pricing_plan_id":"cebpf4jnsgd1na2vs0mg"},{"bike_id":"d09a5ec9-24a8-47dc-93a8-fe1773af2ba3","system_id":"levelo_inurba_marseille","lat":43.298,"lon":5.39352,"is_reserved":false,"is_disabled":false,"rental_uris":{"android":"levelo://app?vid=d09a5ec9-24a8-47dc-93a8-fe1773af2ba3","ios":"levelo://app?vid=d09a5ec9-24a8-47dc-93a8-fe1773af2ba3"},"vehicle_type_id":"4","last_reported":1738868847,"current_range_meters":37600,"station_id":"chh1huq6cuj3fo74tm60","pricing_plan_id":"cebpf4jnsgd1na2vs0mg"},{"bike_id":"969feaef-4bde-4003-b492-3c860b94d6b9","system_id":"levelo_inurba_marseille","lat":43.24169,"lon":5.36397,"is_reserved":false,"is_disabled":false,"rental_uris":{"android":"levelo://app?vid=969feaef-4bde-4003-b492-3c860b94d6b9","ios":"levelo://app?vid=969feaef-4bde-4003-b492-3c860b94d6b9"},"vehicle_type_id":"4","last_reported":1738868847,"current_range_meters":25600,"station_id":"cpo36qri1sfpv3e86is0","pricing_plan_id":"cebpf4jnsgd1na2vs0mg"},{"bike_id":"f9bd0caf-c30d-4c81-9c12-649b1869bbc4","system_id":"levelo_inurba_marseille","lat":43.31761,"lon":5.39016,"is_reserved":false,"is_disabled":false,"rental_uris":{"android":"levelo://app?vid=f9bd0caf-c30d-4c81-9c12-649b1869bbc4","ios":"levelo://app?vid=f9bd0caf-c30d-4c81-9c12-649b1869bbc4"},"vehicle_type_id":"4","last_reported":1738868847,"current_range_meters":24000,"station_id":"ce4bhqp2rcd13ifvqhng","pricing_plan_id":"cebpf4jnsgd1na2vs0mg"},{"bike_id":"99c1809b-d2c9-4bbb-8e75-87d758ab24ad","system_id":"levelo_inurba_marseille","lat":43.23057,"lon":5.35484,"is_reserved":false,"is_disabled":false,"rental_uris":{"android":"levelo://app?vid=99c1809b-d2c9-4bbb-8e75-87d758ab24ad","ios":"levelo://app?vid=99c1809b-d2c9-4bbb-8e75-87d758ab24ad"},"vehicle_type_id":"4","last_reported":1738868847,"current_range_meters":16800,"station_id":"cpo3342slgdg3j2ifvpg","pricing_plan_id":"cebpf4jnsgd1na2vs0mg"},