{"last_updated":1690916706,"ttl":30,"version":"2.2","data":{"bikes":[{"bike_id":"1ea736f7-928b-4e72-a3b8-25fbd47a4e12","system_id":"levelo_inurba_marseille","lat":43.31341,"lon":5.36808,"is_reserved":false,"is_disabled":false,"rental_uris":{"android":"levelo://app?vid=1ea736f7-928b-4e72-a3b8-25fbd47a4e12","ios":"levelo://app?vid=1ea736f7-928b-4e72-a3b8-25fbd47a4e12"},"vehicle_type_id":"4","last_reported":1690916706,"current_range_meters":30000,"station_id":"","pricing_plan_id":"free"},{"bike_id":"e526d4e2-849c-44ae-a0d7-5572a62df909","system_id":"levelo_inurba_marseille","lat":43.31218,"lon":5.36847,"is_reserved":false,"is_disabled":false,"rental_uris":{"android":"levelo://app?vid=e526d4e2-849c-44ae-a0d7-5572a62df909","ios":"levelo://app?vid=e526d4e2-849c-44ae-a0d7-5572a62df909"},"vehicle_type_id":"4","last_reported":1690916706,"current_range_meters":11600,"station_id":"ce4bgl92rcd13ifvqbq0","pricing_plan_id":"free"},{"bike_id":"ba077179-53d2-4b69-9be0-d1d8106f99fe","system_id":"levelo_inurba_marseille","lat":43.31227,"lon":5.36863,"is_reserved":false,"is_disabled":false,"rental_uris":{"android":"levelo://app?vid=ba077179-53d2-4b69-9be0-d1d8106f99fe","ios":"levelo://app?vid=ba077179-53d2-4b69-9be0-d1d8106f99fe"},"vehicle_type_id":"4","last_reported":1690916706,"current_range_meters":0,"station_id":"ce4bgl92rcd13ifvqbq0","pricing_plan_id":"free"},{"bike_id":"3b083a1b-e2ba-4fdb-b141-1d9ffc04db66","system_id":"levelo_inurba_marseille","lat":43.31435,"lon":5.37334,"is_reserved":false,"is_disabled":false,"rental_uris":{"android":"levelo://app?vid=3b083a1b-e2ba-4fdb-b141-1d9ffc04db66","ios":"levelo://app?vid=3b083a1b-e2ba-4fdb-b141-1d9ffc04db66"},"vehicle_type_id":"4","last_reported":1690916706,"current_range_meters":22400,"station_id":"","pricing_plan_id":"free"},{"bike_id":"74a399d3-7112-4ad6-a078-276aa9b2c20a","system_id":"levelo_inurba_marseille","lat":43.314811,"lon":5.373103,"is_reserved":false,"is_disabled":false,"rental_uris":{"android":"levelo://app?vid=74a399d3-7112-4ad6-a078-276aa9b2c20a","ios":"levelo://app?vid=74a399d3-7112-4ad6-a078-276aa9b2c20a"},"vehicle_type_id":"4","last_reported":1690916706,"current_range_meters":10800,"station_id":"ce4bgt12rcd13ifvqcd0","pricing_plan_id":"free"},{"bike_id":"8c6c1f6c-fb7e-469a-8745-1bc3ca63b681","system_id":"levelo_inurba_marseille","lat":43.314811,"lon":5.373103,"is_reserved":false,"is_disabled":false,"rental_uris":{"android":"levelo://app?vid=8c6c1f6c-fb7e-469a-8745-1bc3ca63b681","ios":"levelo://app?vid=8c6c1f6c-fb7e-469a-8745-1bc3ca63b681"},"vehicle_type_id":"4","last_reported":1690916706,"current_range_meters":5200,"station_id":"ce4bgt12rcd13ifvqcd0","pricing_plan_id":"free"},{"bike_id":"fb37a53f-5b2e-4b39-82ac-5110db62de18","system_id":"levelo_inurba_marseille","lat":43.314811,"lon":5.373104,"is_reserved":false,"is_disabled":false,"rental_uris":{"android":"levelo://app?vid=fb37a53f-5b2e-4b39-82ac-5110db62de18","ios":"levelo://app?vid=fb37a53f-5b2e-4b39-82ac-5110db62de18"},"vehicle_type_id":"4","last_reported":1690916706,"current_range_meters":28400,"station_id":"ce4bgt12rcd13ifvqcd0","pricing_plan_id":"free"},{"bike_id":"b10ddd95-214e-4e69-a424-ea784f2ccae4","system_id":"levelo_inurba_marseille","lat":43.3088,"lon":5.37183,"is_reserved":false,"is_disabled":false,"rental_uris":{"android":"levelo://app?vid=b10ddd95-214e-4e69-a424-ea784f2ccae4","ios":"levelo://app?vid=b10ddd95-214e-4e69-a424-ea784f2ccae4"},"vehicle_type_id":"4","last_reported":1690916706,"current_range_meters":400,"station_id":"ce4bguh2rcd13ifvqckg","pricing_plan_id":"free"},{"bike_id":"bb33c6d6-376a-44b3-a749-fdbade4a39fb","system_id":"levelo_inurba_marseille","lat":43.30877,"lon":5.37193,"is_reserved":false,"is_disabled":false,"rental_uris":{"android":"levelo://app?vid=bb33c6d6-376a-44b3-a749-fdbade4a39fb","ios":"levelo://app?vid=bb33c6d6-376a-44b3-a749-fdbade4a39fb"},"vehicle_type_id":"4","last_reported":1690916706,"current_range_meters":0,"station_id":"ce4bguh2rcd13ifvqckg","pricing_plan_id":"free"},{"bike_id":"5798a288-faf5-42cc-b96c-e2fd0b7b3169","system_id":"levelo_inurba_marseille","lat":43.305706,"lon":5.365654,"is_reserved":false,"is_disabled":false,"rental_uris":{"android":"levelo://app?vid=5798a288-faf5-42cc-b96c-e2fd0b7b3169","ios":"levelo://app?vid=5798a288-faf5-42cc-b96c-e2fd0b7b3169"},"vehicle_type_id":"4","last_reported":1690916706,"current_range_meters":4000,"station_id":"ce4bgs12rcd13ifvqcag","pricing_plan_id":"free"},{"bike_id":"f20ea888-8740-440b-bfeb-8eb2a7c1f652","system_id":"levelo_inurba_marseille","lat":43.305989,"lon":5.37225,"is_reserved":false,"is_disabled":false,"rental_uris":{"android":"levelo://app?vid=f20ea888-8740-440b-bfeb-8eb2a7c1f652","ios":"levelo://app?vid=f20ea888-8740-440b-bfeb-8eb2a7c1f652"},"vehicle_type_id":"4","last_reported":1690916706,"current_range_meters":31200,"station_id":"ce4bgqh2rcd13ifvqc4g","pricing_plan_id":"free"},{"bike_id":"89345a95-3b60-4f84-a259-04447d6f31ab","system_id":"levelo_inurba_marseille","lat":43.305989,"lon":5.37225,"is_reserved":false,"is_disabled":false,"rental_uris":{"android":"levelo://app?vid=89345a95-3b60-4f84-a259-04447d6f31ab","ios":"levelo://app?vid=89345a95-3b60-4f84-a259-04447d6f31ab"},"vehicle_type_id":"4","last_reported":1690916706,"current_range_meters":10800,"station_id":"ce4bgqh2rcd13ifvqc4g","pricing_plan_id":"free"},{"bike_id":"0844ecbf-3239-4009-b248-b304a306ede9","system_id":"levelo_inurba_marseille","lat":43.31118,"lon":5.37758,"is_reserved":false,"is_disabled":false,"rental_uris":{"android":"levelo://app?vid=0844ecbf-3239-4009-b248-b304a306ede9","ios":"levelo://app?vid=0844ecbf-3239-4009-b248-b304a306ede9"},"vehicle_type_id":"4","last_reported":1690916706,"current_range_meters":800,"station_id":"ce4bgt92rcd13ifvqcg0","pricing_plan_id":"free"},{"bike_id":"85240c98-2efd-47fc-9b70-d0ba60b2524c","system_id":"levelo_inurba_marseille","lat":43.311131,"lon":5.377651,"is_reserved":false,"is_disabled":false,"rental_uris":{"android":"levelo://app?vid=85240c98-2efd-47fc-9b70-d0ba60b2524c","ios":"levelo://app?vid=85240c98-2efd-47fc-9b70-d0ba60b2524c"},"vehicle_type_id":"4","last_reported":1690916706,"current_range_meters":5200,"station_id":"ce4bgt92rcd13ifvqcg0","pricing_plan_id":"free"},{"bike_id":"82726441-8e2c-4ccf-bf11-bfd6c8d2b5df","system_id":"levelo_inurba_marseille","lat":43.311125,"lon":5.377624,"is_reserved":false,"is_disabled":false,"rental_uris":{"android":"levelo://app?vid=82726441-8e2c-4ccf-bf11-bfd6c8d2b5df","ios":"levelo://app?vid=82726441-8e2c-4ccf-bf11-bfd6c8d2b5df"},"vehicle_type_id":"4","last_reported":1690916706,"current_range_meters":14400,"station_id":"ce4bgt92rcd13ifvqcg0","pricing_plan_id":"free"},{"bike_id":"e0807ad0-5688-4c6f-92cf-28ee01ca8b11","system_id":"levelo_inurba_marseille","lat":43.311131,"lon":5.377651,"is_reserved":false,"is_disabled":false,"rental_uris":{"android":"levelo://app?vid=e0807ad0-5688-4c6f-92cf-28ee01ca8b11","ios":"levelo://app?vid=e0807ad0-5688-4c6f-92cf-28ee01ca8b11"},"vehicle_type_id":"4","last_reported":1690916706,"current_range_meters":7600,"station_id":"ce4bgt92rcd13ifvqcg0","pricing_plan_id":"free"},{"bike_id":"07e24ee2-41bf-4fcc-a15e-84c520aa0ef4","system_id":"levelo_inurba_marseille","lat":43.311125,"lon":5.377624,"is_reserved":false,"is_disabled":false,"rental_uris":{"android":"levelo://app?vid=07e24ee2-41bf-4fcc-a15e-84c520aa0ef4","ios":"levelo://app?vid=07e24ee2-41bf-4fcc-a15e-84c520aa0ef4"},"vehicle_type_id":"4","last_reported":1690916706,"current_range_meters":22800,"station_id":"ce4bgt92rcd13ifvqcg0","pricing_plan_id":"free"},{"bike_id":"bf9d5991-12a1-43d7-a115-b3d49fc71335","system_id":"levelo_inurba_marseille","lat":43.31712,"lon":5.37721,"is_reserved":false,"is_disabled":false,"rental_uris":{"android":"levelo://app?vid=bf9d5991-12a1-43d7-a115-b3d49fc71335","ios":"levelo://app?vid=bf9d5991-12a1-43d7-a115-b3d49fc71335"},"vehicle_type_id":"4","last_reported":1690916706,"current_range_meters":2000,"station_id":"ce4bgth2rcd13ifvqch0","pricing_plan_id":"free"},{"bike_id":"ae3cefdf-e770-4116-a3f2-32ffe7cca31f","system_id":"levelo_inurba_marseille","lat":43.31702,"lon":5.37736,"is_reserved":false,"is_disabled":false,"rental_uris":{"android":"levelo://app?vid=ae3cefdf-e770-4116-a3f2-32ffe7cca31f","ios":"levelo://app?vid=ae3cefdf-e770-4116-a3f2-32ffe7cca31f"},"vehicle_type_id":"4","last_reported":1690916706,"current_range_meters":15200,"station_id":"ce4bgth2rcd13ifvqch0","pricing_plan_id":"free"},{"bike_id":"74d14feb-a892-478d-b86f-291c876731cb","system_id":"levelo_inurba_marseille","lat":43.31705,"lon":5.37743,"is_reserved":false,"is_disabled":false,"rental_uris":{"android":"levelo://app?vid=74d14feb-a892-478d-b86f-291c876731cb","ios":"levelo://app?vid=74d14feb-a892-478d-b86f-291c876731cb"},"vehicle_type_id":"4","last_reported":1690916706,"current_range_meters":14000,"station_id":"ce4bgth2rcd13ifvqch0","pricing_plan_id":"free"},{"bike_id":"03f77a9f-fc95-4502-9e56-5fec50f711ca","system_id":"levelo_inurba_marseille","lat":43.317075,"lon":5.377367,"is_reserved":false,"is_disabled":false,"rental_uris":{"android":"levelo://app?vid=03f77a9f-fc95-4502-9e56-5fec50f711ca","ios":"levelo://app?vid=03f77a9f-fc95-4502-9e56-5fec50f711ca"},"vehicle_type_id":"4","last_reported":1690916706,"current_range_meters":30000,"station_id":"ce4bgth2rcd13ifvqch0","pricing_plan_id":"free"},{"bike_id":"9ab13842-71f7-4df8-af88-054e1f2ac646","system_id":"levelo_inurba_marseille","lat":43.317075,"lon":5.377367,"is_reserved":false,"is_disabled":false,"rental_uris":{"android":"levelo://app?vid=9ab13842-71f7-4df8-af88-054e1f2ac646","ios":"levelo://app?vid=9ab13842-71f7-4df8-af88-054e1f2ac646"},"vehicle_type_id":"4","last_reported":1690916706,"current_range_meters":26800,"station_id":"ce4bgth2rcd13ifvqch0","pricing_plan_id":"free"},{"bike_id":"204b5530-ae9a-4930-9197-bc4d8da66940","system_id":"levelo_inurba_marseille","lat":43.317075,"lon":5.377367,"is_reserved":false,"is_disabled":false,"rental_uris":{"android":"levelo://app?vid=204b5530-ae9a-4930-9197-bc4d8da66940","ios":"levelo://app?vid=204b5530-ae9a-4930-9197-bc4d8da66940"},"vehicle_type_id":"4","last_reported":1690916706,"current_range_meters":27200,"station_id":"ce4bgth2rcd13ifvqch0","pricing_plan_id":"free"},{"bike_id":"c34e1ef6-a97f-458f-b056-a89a41b6300d","system_id":"levelo_inurba_marseille","lat":43.30304,"lon":5.368987,"is_reserved":false,"is_disabled":false,"rental_uris":{"android":"levelo://app?vid=c34e1ef6-a97f-458f-b056-a89a41b6300d","ios":"levelo://app?vid=c34e1ef6-a97f-458f-b056-a89a41b6300d"},"vehicle_type_id":"4","last_reported":1690916706,"current_range_meters":3200,"station_id":"ce4bgqh2rcd13ifvqc5g","pricing_plan_id":"free"},{"bike_id":"655026a7-f54a-4d28-8a91-92f70efe6ebc","system_id":"levelo_inurba_marseille","lat":43.30304,"lon":5.368987,"is_reserved":false,"is_disabled":false,"rental_uris":{"android":"levelo://app?vid=655026a7-f54a-4d28-8a91-92f70efe6ebc","ios":"levelo://app?vid=655026a7-f54a-4d28-8a91-92f70efe6ebc"},"vehicle_type_id":"4","last_reported":1690916706,"current_range_meters":14400,"station_id":"ce4bgqh2rcd13ifvqc5g","pricing_plan_id":"free"},{"bike_id":"9776cdcd-09f7-4ea5-97a4-4f19d3f424d8","system_id":"levelo_inurba_marseille","lat":43.315289,"lon":5.380349,"is_reserved":false,"is_disabled":false,"rental_uris":{"android":"levelo://app?vid=9776cdcd-09f7-4ea5-97a4-4f19d3f424d8","ios":"levelo://app?vid=9776cdcd-09f7-4ea5-97a4-4f19d3f424d8"},"vehicle_type_id":"4","last_reported":1690916706,"current_range_meters":7200,"station_id":"ce4bhsp2rcd13ifvqi50","pricing_plan_id":"free"},{"bike_id":"6fd85cef-cdff-4e28-9f6c-9a36b00b01df","system_id":"levelo_inurba_marseille","lat":43.31538,"lon":5.38023,"is_reserved":false,"is_disabled":false,"rental_uris":{"android":"levelo://app?vid=6fd85cef-cdff-4e28-9f6c-9a36b00b01df","ios":"levelo://app?vid=6fd85cef-cdff-4e28-9f6c-9a36b00b01df"},"vehicle_type_id":"4","last_reported":1690916706,"current_range_meters":15600,"station_id":"ce4bhsp2rcd13ifvqi50","pricing_plan_id":"free"},{"bike_id":"bbcd1c48-a768-4da8-be72-180024ac346d","system_id":"levelo_inurba_marseille","lat":43.31536,"lon":5.3803,"is_reserved":false,"is_disabled":false,"rental_uris":{"android":"levelo://app?vid=bbcd1c48-a768-4da8-be72-180024ac346d","ios":"levelo://app?vid=bbcd1c48-a768-4da8-be72-180024ac346d"},"vehicle_type_id":"4","last_reported":1690916706,"current_range_meters":0,"station_id":"ce4bhsp2rcd13ifvqi50","pricing_plan_id":"free"},{"bike_id":"10f9047b-6ee4-4aef-8797-fb4141a0a0e4","system_id":"levelo_inurba_marseille","lat":43.302784,"lon":5.377158,"is_reserved":false,"is_disabled":false,"rental_uris":{"android":"levelo://app?vid=10f9047b-6ee4-4aef-8797-fb4141a0a0e4","ios":"levelo://app?vid=10f9047b-6ee4-4aef-8797-fb4141a0a0e4"},"vehicle_type_id":"4","last_reported":1690916706,"current_range_meters":10400,"station_id":"ce4bguh2rcd13ifvqcj0","pricing_plan_id":"free"},{"bike_id":"6bc3892a-c385-48d5-99b4-4590a726c706","system_id":"levelo_inurba_marseille","lat":43.3199,"lon":5.38146,"is_reserved":false,"is_disabled":false,"rental_uris":{"android":"levelo://app?vid=6bc3892a-c385-48d5-99b4-4590a726c706","ios":"levelo://app?vid=6bc3892a-c385-48d5-99b4-4590a726c706"},"vehicle_type_id":"4","last_reported":1690916706,"current_range_meters":14000,"station_id":"ce4bhr12rcd13ifvqhpg","pricing_plan_id":"free"},{"bike_id":"dd7f339f-bac7-4fc1-93cd-78c661cadcf2","system_id":"levelo_inurba_marseille","lat":43.31997,"lon":5.38152,"is_reserved":false,"is_disabled":false,"rental_uris":{"android":"levelo://app?vid=dd7f339f-bac7-4fc1-93cd-78c661cadcf2","ios":"levelo://app?vid=dd7f339f-bac7-4fc1-93cd-78c661cadcf2"},"vehicle_type_id":"4","last_reported":1690916706,"current_range_meters":4400,"station_id":"ce4bhr12rcd13ifvqhpg","pricing_plan_id":"free"},{"bike_id":"200f98e5-cb71-4f1f-90a9-d80b1fb9897b","system_id":"levelo_inurba_marseille","lat":43.3199,"lon":5.38159,"is_reserved":false,"is_disabled":false,"rental_uris":{"android":"levelo://app?vid=200f98e5-cb71-4f1f-90a9-d80b1fb9897b","ios":"levelo://app?vid=200f98e5-cb71-4f1f-90a9-d80b1fb9897b"},"vehicle_type_id":"4","last_reported":1690916706,"current_range_meters":27600,"station_id":"ce4bhr12rcd13ifvqhpg","pricing_plan_id":"free"},{"bike_id":"5219d72c-f0fe-4cb6-a4a0-21fea358834d","system_id":"levelo_inurba_marseille","lat":43.31998,"lon":5.38156,"is_reserved":false,"is_disabled":false,"rental_uris":{"android":"levelo://app?vid=5219d72c-f0fe-4cb6-a4a0-21fea358834d","ios":"levelo://app?vid=5219d72c-f0fe-4cb6-a4a0-21fea358834d"},"vehicle_type_id":"4","last_reported":1690916706,"current_range_meters":23600,"station_id":"ce4bhr12rcd13ifvqhpg","pricing_plan_id":"free"},{"bike_id":"38df3d61-a59e-4499-95e6-94b2a9d33314","system_id":"levelo_inurba_marseille","lat":43.32001,"lon":5.38155,"is_reserved":false,"is_disabled":false,"rental_uris":{"android":"levelo://app?vid=38df3d61-a59e-4499-95e6-94b2a9d33314","ios":"levelo://app?vid=38df3d61-a59e-4499-95e6-94b2a9d33314"},"vehicle_type_id":"4","last_reported":1690916706,"current_range_meters":26000,"station_id":"ce4bhr12rcd13ifvqhpg","pricing_plan_id":"free"},{"bike_id":"fbd726e1-c4b2-44d0-bd64-b62d45dc2799","system_id":"levelo_inurba_marseille","lat":43.313571,"lon":5.384829,"is_reserved":false,"is_disabled":false,"rental_uris":{"android":"levelo://app?vid=fbd726e1-c4b2-44d0-bd64-b62d45dc2799","ios":"levelo://app?vid=fbd726e1-c4b2-44d0-bd64-b62d45dc2799"},"vehicle_type_id":"4","last_reported":1690916706,"current_range_meters":14800,"station_id":"ce4bgt92rcd13ifvqcf0","pricing_plan_id":"free"},{"bike_id":"30537d43-af02-4a10-b928-7b9b8cf633d2","system_id":"levelo_inurba_marseille","lat":43.305364,"lon":5.384119,"is_reserved":false,"is_disabled":false,"rental_uris":{"android":"levelo://app?vid=30537d43-af02-4a10-b928-7b9b8cf633d2","ios":"levelo://app?vid=30537d43-af02-4a10-b928-7b9b8cf633d2"},"vehicle_type_id":"4","last_reported":1690916706,"current_range_meters":28800,"station_id":"ce4bgg92rcd13ifvqb30","pricing_plan_id":"free"},{"bike_id":"ee11359d-b3d9-460c-895a-0f3b4c34ca00","system_id":"levelo_inurba_marseille","lat":43.298433,"lon":5.362774,"is_reserved":false,"is_disabled":false,"rental_uris":{"android":"levelo://app?vid=ee11359d-b3d9-460c-895a-0f3b4c34ca00","ios":"levelo://app?vid=ee11359d-b3d9-460c-895a-0f3b4c34ca00"},"vehicle_type_id":"4","last_reported":1690916706,"current_range_meters":3600,"station_id":"ce4bgpp2rcd13ifvqc3g","pricing_plan_id":"free"},{"bike_id":"88d8b12c-b7d6-4bb3-a466-6458d987e8eb","system_id":"levelo_inurba_marseille","lat":43.311722,"lon":5.387247,"is_reserved":false,"is_disabled":false,"rental_uris":{"android":"levelo://app?vid=88d8b12c-b7d6-4bb3-a466-6458d987e8eb","ios":"levelo://app?vid=88d8b12c-b7d6-4bb3-a466-6458d987e8eb"},"vehicle_type_id":"4","last_reported":1690916706,"current_range_meters":13200,"station_id":"ce4bgv12rcd13ifvqcp0","pricing_plan_id":"free"},{"bike_id":"6d07731a-6922-4080-8b7e-2b0804ba7800","system_id":"levelo_inurba_marseille","lat":43.31174,"lon":5.3871,"is_reserved":false,"is_disabled":false,"rental_uris":{"android":"levelo://app?vid=6d07731a-6922-4080-8b7e-2b0804ba7800","ios":"levelo://app?vid=6d07731a-6922-4080-8b7e-2b0804ba7800"},"vehicle_type_id":"4","last_reported":1690916706,"current_range_meters":20800,"station_id":"ce4bgv12rcd13ifvqcp0","pricing_plan_id":"free"},{"bike_id":"2d6853ea-fb55-4a70-9171-f7f6d88d151d","system_id":"levelo_inurba_marseille","lat":43.311722,"lon":5.387247,"is_reserved":false,"is_disabled":false,"rental_uris":{"android":"levelo://app?vid=2d6853ea-fb55-4a70-9171-f7f6d88d151d","ios":"levelo://app?vid=2d6853ea-fb55-4a70-9171-f7f6d88d151d"},"vehicle_type_id":"4","last_reported":1690916706,"current_range_meters":14800,"station_id":"ce4bgv12rcd13ifvqcp0","pricing_plan_id":"free"},{"bike_id":"8777fe0c-f205-4ed0-a80a-284321f53b02","system_id":"levelo_inurba_marseille","lat":43.311722,"lon":5.387247,"is_reserved":false,"is_disabled":false,"rental_uris":{"android":"levelo://app?vid=8777fe0c-f205-4ed0-a80a-284321f53b02","ios":"levelo://app?vid=8777fe0c-f205-4ed0-a80a-284321f53b02"},"vehicle_type_id":"4","last_reported":1690916706,"current_range_meters":30000,"station_id":"ce4bgv12rcd13ifvqcp0","pricing_plan_id":"free"},{"bike_id":"80a7a89f-d603-4223-9a0d-3f27f406b8c4","system_id":"levelo_inurba_marseille","lat":43.311722,"lon":5.387247,"is_reserved":false,"is_disabled":false,"rental_uris":{"android":"levelo://app?vid=80a7a89f-d603-4223-9a0d-3f27f406b8c4","ios":"levelo://app?vid=80a7a89f-d603-4223-9a0d-3f27f406b8c4"},"vehicle_type_id":"4","last_reported":1690916706,"current_range_meters":31600,"station_id":"ce4bgv12rcd13ifvqcp0","pricing_plan_id":"free"},{"bike_id":"34772a3e-d37f-4a0f-8c64-8cd5f67902fb","system_id":"levelo_inurba_marseille","lat":43.31168,"lon":5.38713,"is_reserved":false,"is_disabled":false,"rental_uris":{"android":"levelo://app?vid=34772a3e-d37f-4a0f-8c64-8cd5f67902fb","ios":"levelo://app?vid=34772a3e-d37f-4a0f-8c64-8cd5f67902fb"},"vehicle_type_id":"4","last_reported":1690916706,"current_range_meters":10400,"station_id":"ce4bgv12rcd13ifvqcp0","pricing_plan_id":"free"},{"bike_id":"4e9ea7be-a4af-4abc-8731-27828d793347","system_id":"levelo_inurba_marseille","lat":43.29911,"lon":5.37465,"is_reserved":false,"is_disabled":false,"rental_uris":{"android":"levelo://app?vid=4e9ea7be-a4af-4abc-8731-27828d793347","ios":"levelo://app?vid=4e9ea7be-a4af-4abc-8731-27828d793347"},"vehicle_type_id":"4","last_reported":1690916706,"current_range_meters":25200,"station_id":"ce4bgjh2rcd13ifvqbg0","pricing_plan_id":"free"},{"bike_id":"829c0385-b3ae-478a-b4d9-0d852e2cc20f","system_id":"levelo_inurba_marseille","lat":43.297774,"lon":5.370875,"is_reserved":false,"is_disabled":false,"rental_uris":{"android":"levelo://app?vid=829c0385-b3ae-478a-b4d9-0d852e2cc20f","ios":"levelo://app?vid=829c0385-b3ae-478a-b4d9-0d852e2cc20f"},"vehicle_type_id":"4","last_reported":1690916706,"current_range_meters":4800,"station_id":"ce4bgop2rcd13ifvqc1g","pricing_plan_id":"free"},{"bike_id":"acd9e63f-95a0-4d50-a283-c1cabecbf86f","system_id":"levelo_inurba_marseille","lat":43.297794,"lon":5.370888,"is_reserved":false,"is_disabled":false,"rental_uris":{"android":"levelo://app?vid=acd9e63f-95a0-4d50-a283-c1cabecbf86f","ios":"levelo://app?vid=acd9e63f-95a0-4d50-a283-c1cabecbf86f"},"vehicle_type_id":"4","last_reported":1690916706,"current_range_meters":13600,"station_id":"ce4bgop2rcd13ifvqc1g","pricing_plan_id":"free"},{"bike_id":"f0b53249-11da-4f52-b78b-16804c4560ce","system_id":"levelo_inurba_marseille","lat":43.32288,"lon":5.3826,"is_reserved":false,"is_disabled":false,"rental_uris":{"android":"levelo://app?vid=f0b53249-11da-4f52-b78b-16804c4560ce","ios":"levelo://app?vid=f0b53249-11da-4f52-b78b-16804c4560ce"},"vehicle_type_id":"4","last_reported":1690916706,"current_range_meters":22800,"station_id":"ce4bhr12rcd13ifvqhqg","pricing_plan_id":"free"},{"bike_id":"fed7c930-a5dc-41e7-b146-30815d6c2775","system_id":"levelo_inurba_marseille","lat":43.3229,"lon":5.38259,"is_reserved":false,"is_disabled":false,"rental_uris":{"android":"levelo://app?vid=fed7c930-a5dc-41e7-b146-30815d6c2775","ios":"levelo://app?vid=fed7c930-a5dc-41e7-b146-30815d6c2775"},"vehicle_type_id":"4","last_reported":1690916706,"current_range_meters":26400,"station_id":"ce4bhr12rcd13ifvqhqg","pricing_plan_id":"free"},{"bike_id":"9415d978-2564-41e1-bf0c-bf78154b02ce","system_id":"levelo_inurba_marseille","lat":43.322872,"lon":5.382756,"is_reserved":false,"is_disabled":false,"rental_uris":{"android":"levelo://app?vid=9415d978-2564-41e1-bf0c-bf78154b02ce","ios":"levelo://app?vid=9415d978-2564-41e1-bf0c-bf78154b02ce"},"vehicle_type_id":"4","last_reported":1690916706,"current_range_meters":12800,"station_id":"ce4bhr12rcd13ifvqhqg","pricing_plan_id":"free"},{"bike_id":"5fe8ef05-4db2-4f5d-8a1e-ad8026b19768","system_id":"levelo_inurba_marseille","lat":43.32294,"lon":5.3826,"is_reserved":false,"is_disabled":false,"rental_uris":{"android":"levelo://app?vid=5fe8ef05-4db2-4f5d-8a1e-ad8026b19768","ios":"levelo://app?vid=5fe8ef05-4db2-4f5d-8a1e-ad8026b19768"},"vehicle_type_id":"4","last_reported":1690916706,"current_range_meters":8400,"station_id":"ce4bhr12rcd13ifvqhqg","pricing_plan_id":"free"},{"bike_id":"1f24ca09-a0b6-4b06-9efb-c500dff16ef9","system_id":"levelo_inurba_marseille","lat":43.32296,"lon":5.38262,"is_reserved":false,"is_disabled":false,"rental_uris":{"android":"levelo://app?vid=1f24ca09-a0b6-4b06-9efb-c500dff16ef9","ios":"levelo://app?vid=1f24ca09-a0b6-4b06-9efb-c500dff16ef9"},"vehicle_type_id":"4","last_reported":1690916706,"current_range_meters":4800,"station_id":"ce4bhr12rcd13ifvqhqg","pricing_plan_id":"free"},{"bike_id":"79bf6da4-5f08-488b-96b1-6e23f74ec5ec","system_id":"levelo_inurba_marseille","lat":43.322872,"lon":5.382756,"is_reserved":false,"is_disabled":false,"rental_uris":{"android":"levelo://app?vid=79bf6da4-5f08-488b-96b1-6e23f74ec5ec","ios":"levelo://app?vid=79bf6da4-5f08-488b-96b1-6e23f74ec5ec"},"vehicle_type_id":"4","last_reported":1690916706,"current_range_meters":23600,"station_id":"ce4bhr12rcd13ifvqhqg","pricing_plan_id":"free"},{"bike_id":"647bbb61-5e4f-4c06-9100-c0c890c9a2a0","system_id":"levelo_inurba_marseille","lat":43.3229,"lon":5.38279,"is_reserved":false,"is_disabled":false,"rental_uris":{"android":"levelo://app?vid=647bbb61-5e4f-4c06-9100-c0c890c9a2a0","ios":"levelo://app?vid=647bbb61-5e4f-4c06-9100-c0c890c9a2a0"},"vehicle_type_id":"4","last_reported":1690916706,"current_range_meters":22000,"station_id":"ce4bhr12rcd13ifvqhqg","pricing_plan_id":"free"},{"bike_id":"82f1e03d-e4c3-4aac-b6f0-c9fc3950fe62","system_id":"levelo_inurba_marseille","lat":43.322906,"lon":5.382839,"is_reserved":false,"is_disabled":false,"rental_uris":{"android":"levelo://app?vid=82f1e03d-e4c3-4aac-b6f0-c9fc3950fe62","ios":"levelo://app?vid=82f1e03d-e4c3-4aac-b6f0-c9fc3950fe62"},"vehicle_type_id":"4","last_reported":1690916706,"current_range_meters":11600,"station_id":"","pricing_plan_id":"free"},{"bike_id":"6a4e57e1-8367-4770-8671-47c40147db39","system_id":"levelo_inurba_marseille","lat":43.328371,"lon":5.366909,"is_reserved":false,"is_disabled":false,"rental_uris":{"android":"levelo://app?vid=6a4e57e1-8367-4770-8671-47c40147db39","ios":"levelo://app?vid=6a4e57e1-8367-4770-8671-47c40147db39"},"vehicle_type_id":"4","last_reported":1690916706,"current_range_meters":16000,"station_id":"ce4bhs92rcd13ifvqi0g","pricing_plan_id":"free"},{"bike_id":"057731cb-0381-4dae-81e1-ba114b6fd71b","system_id":"levelo_inurba_marseille","lat":43.297163,"lon":5.365866,"is_reserved":false,"is_disabled":false,"rental_uris":{"android":"levelo://app?vid=057731cb-0381-4dae-81e1-ba114b6fd71b","ios":"levelo://app?vid=057731cb-0381-4dae-81e1-ba114b6fd71b"},"vehicle_type_id":"4","last_reported":1690916706,"current_range_meters":28000,"station_id":"ce4bgn12rcd13ifvqbt0","pricing_plan_id":"free"},{"bike_id":"dd789220-e7b5-42c1-b9dc-dc4243148021","system_id":"levelo_inurba_marseille","lat":43.297163,"lon":5.365866,"is_reserved":false,"is_disabled":false,"rental_uris":{"android":"levelo://app?vid=dd789220-e7b5-42c1-b9dc-dc4243148021","ios":"levelo://app?vid=dd789220-e7b5-42c1-b9dc-dc4243148021"},"vehicle_type_id":"4","last_reported":1690916706,"current_range_meters":31200,"station_id":"ce4bgn12rcd13ifvqbt0","pricing_plan_id":"free"},{"bike_id":"c458aef7-fe36-4096-9411-cdf2113abc76","system_id":"levelo_inurba_marseille","lat":43.297163,"lon":5.365866,"is_reserved":false,"is_disabled":false,"rental_uris":{"android":"levelo://app?vid=c458aef7-fe36-4096-9411-cdf2113abc76","ios":"levelo://app?vid=c458aef7-fe36-4096-9411-cdf2113abc76"},"vehicle_type_id":"4","last_reported":1690916706,"current_range_meters":13200,"station_id":"ce4bgn12rcd13ifvqbt0","pricing_plan_id":"free"},{"bike_id":"2f2b3ec2-bd58-47da-9a45-164d6960afef","system_id":"levelo_inurba_marseille","lat":43.2968,"lon":5.37291,"is_reserved":false,"is_disabled":false,"rental_uris":{"android":"levelo://app?vid=2f2b3ec2-bd58-47da-9a45-164d6960afef","ios":"levelo://app?vid=2f2b3ec2-bd58-47da-9a45-164d6960afef"},"vehicle_type_id":"4","last_reported":1690916706,"current_range_meters":18800,"station_id":"ce4bgk12rcd13ifvqbj0","pricing_plan_id":"free"},{"bike_id":"05ac90ee-b6ec-4c86-b9b9-89516fdb17be","system_id":"levelo_inurba_marseille","lat":43.296131,"lon":5.370773,"is_reserved":false,"is_disabled":false,"rental_uris":{"android":"levelo://app?vid=05ac90ee-b6ec-4c86-b9b9-89516fdb17be","ios":"levelo://app?vid=05ac90ee-b6ec-4c86-b9b9-89516fdb17be"},"vehicle_type_id":"4","last_reported":1690916706,"current_range_meters":1200,"station_id":"ce4bgnh2rcd13ifvqc0g","pricing_plan_id":"free"},{"bike_id":"e1d39c00-0e62-43fa-bf0b-1099ec53440b","system_id":"levelo_inurba_marseille","lat":43.296131,"lon":5.370791,"is_reserved":false,"is_disabled":false,"rental_uris":{"android":"levelo://app?vid=e1d39c00-0e62-43fa-bf0b-1099ec53440b","ios":"levelo://app?vid=e1d39c00-0e62-43fa-bf0b-1099ec53440b"},"vehicle_type_id":"4","last_reported":1690916706,"current_range_meters":2400,"station_id":"ce4bgnh2rcd13ifvqc0g","pricing_plan_id":"free"},{"bike_id":"55b1d7cc-860f-4813-83bb-994871503392","system_id":"levelo_inurba_marseille","lat":43.296131,"lon":5.370791,"is_reserved":false,"is_disabled":false,"rental_uris":{"android":"levelo://app?vid=55b1d7cc-860f-4813-83bb-994871503392","ios":"levelo://app?vid=55b1d7cc-860f-4813-83bb-994871503392"},"vehicle_type_id":"4","last_reported":1690916706,"current_range_meters":14000,"station_id":"ce4bgnh2rcd13ifvqc0g","pricing_plan_id":"free"},{"bike_id":"8d5eaff9-f147-4ac3-a33e-c827f81f00b0","system_id":"levelo_inurba_marseille","lat":43.29573,"lon":5.367355,"is_reserved":false,"is_disabled":false,"rental_uris":{"android":"levelo://app?vid=8d5eaff9-f147-4ac3-a33e-c827f81f00b0","ios":"levelo://app?vid=8d5eaff9-f147-4ac3-a33e-c827f81f00b0"},"vehicle_type_id":"4","last_reported":1690916706,"current_range_meters":1600,"station_id":"ce4bgph2rcd13ifvqc2g","pricing_plan_id":"free"},{"bike_id":"c778c496-1aa2-48ee-8c52-257659030c09","system_id":"levelo_inurba_marseille","lat":43.29578,"lon":5.36749,"is_reserved":false,"is_disabled":false,"rental_uris":{"android":"levelo://app?vid=c778c496-1aa2-48ee-8c52-257659030c09","ios":"levelo://app?vid=c778c496-1aa2-48ee-8c52-257659030c09"},"vehicle_type_id":"4","last_reported":1690916706,"current_range_meters":11600,"station_id":"ce4bgph2rcd13ifvqc2g","pricing_plan_id":"free"},{"bike_id":"97e033f4-55c3-4ce2-9593-4a3d8691dba8","system_id":"levelo_inurba_marseille","lat":43.29573,"lon":5.367355,"is_reserved":false,"is_disabled":false,"rental_uris":{"android":"levelo://app?vid=97e033f4-55c3-4ce2-9593-4a3d8691dba8","ios":"levelo://app?vid=97e033f4-55c3-4ce2-9593-4a3d8691dba8"},"vehicle_type_id":"4","last_reported":1690916706,"current_range_meters":0,"station_id":"ce4bgph2rcd13ifvqc2g","pricing_plan_id":"free"},{"bike_id":"88b42d7c-c05f-4765-b2cb-7f31d867d811","system_id":"levelo_inurba_marseille","lat":43.296921,"lon":5.376579,"is_reserved":false,"is_disabled":false,"rental_uris":{"android":"levelo://app?vid=88b42d7c-c05f-4765-b2cb-7f31d867d811","ios":"levelo://app?vid=88b42d7c-c05f-4765-b2cb-7f31d867d811"},"vehicle_type_id":"4","last_reported":1690916706,"current_range_meters":5200,"station_id":"ce4bgkh2rcd13ifvqbl0","pricing_plan_id":"free"},{"bike_id":"05634e48-6c10-4ab6-bc4b-b2b28a4519d8","system_id":"levelo_inurba_marseille","lat":43.299028,"lon":5.381509,"is_reserved":false,"is_disabled":false,"rental_uris":{"android":"levelo://app?vid=05634e48-6c10-4ab6-bc4b-b2b28a4519d8","ios":"levelo://app?vid=05634e48-6c10-4ab6-bc4b-b2b28a4519d8"},"vehicle_type_id":"4","last_reported":1690916706,"current_range_meters":16400,"station_id":"ce4bgj12rcd13ifvqbc0","pricing_plan_id":"free"},{"bike_id":"f0b1921d-8fc5-42f6-8214-26455e772ce5","system_id":"levelo_inurba_marseille","lat":43.309589,"lon":5.390258,"is_reserved":false,"is_disabled":false,"rental_uris":{"android":"levelo://app?vid=f0b1921d-8fc5-42f6-8214-26455e772ce5","ios":"levelo://app?vid=f0b1921d-8fc5-42f6-8214-26455e772ce5"},"vehicle_type_id":"4","last_reported":1690916706,"current_range_meters":19600,"station_id":"ce4bgup2rcd13ifvqco0","pricing_plan_id":"free"},{"bike_id":"e3d6afb3-8e3c-4245-8ed9-43ff560a3b3a","system_id":"levelo_inurba_marseille","lat":43.299028,"lon":5.381509,"is_reserved":false,"is_disabled":false,"rental_uris":{"android":"levelo://app?vid=e3d6afb3-8e3c-4245-8ed9-43ff560a3b3a","ios":"levelo://app?vid=e3d6afb3-8e3c-4245-8ed9-43ff560a3b3a"},"vehicle_type_id":"4","last_reported":1690916706,"current_range_meters":23200,"station_id":"ce4bgj12rcd13ifvqbc0","pricing_plan_id":"free"},{"bike_id":"6908db96-d47c-4367-b975-e7b4f88c5e10","system_id":"levelo_inurba_marseille","lat":43.317557,"lon":5.390173,"is_reserved":false,"is_disabled":false,"rental_uris":{"android":"levelo://app?vid=6908db96-d47c-4367-b975-e7b4f88c5e10","ios":"levelo://app?vid=6908db96-d47c-4367-b975-e7b4f88c5e10"},"vehicle_type_id":"4","last_reported":1690916706,"current_range_meters":28800,"station_id":"ce4bhqp2rcd13ifvqhng","pricing_plan_id":"free"},{"bike_id":"8a1d9292-2678-4e25-a7e0-8edbd858f8e5","system_id":"levelo_inurba_marseille","lat":43.317557,"lon":5.390173,"is_reserved":false,"is_disabled":false,"rental_uris":{"android":"levelo://app?vid=8a1d9292-2678-4e25-a7e0-8edbd858f8e5","ios":"levelo://app?vid=8a1d9292-2678-4e25-a7e0-8edbd858f8e5"},"vehicle_type_id":"4","last_reported":1690916706,"current_range_meters":14000,"station_id":"ce4bhqp2rcd13ifvqhng","pricing_plan_id":"free"},{"bike_id":"f33d016e-d152-470a-ac0f-8aa5769db82d","system_id":"levelo_inurba_marseille","lat":43.317557,"lon":5.390173,"is_reserved":false,"is_disabled":false,"rental_uris":{"android":"levelo://app?vid=f33d016e-d152-470a-ac0f-8aa5769db82d","ios":"levelo://app?vid=f33d016e-d152-470a-ac0f-8aa5769db82d"},"vehicle_type_id":"4","last_reported":1690916706,"current_range_meters":28400,"station_id":"ce4bhqp2rcd13ifvqhng","pricing_plan_id":"free"},{"bike_id":"226b5ed5-be8f-40f6-b685-21fd8a4330f6","system_id":"levelo_inurba_marseille","lat":43.317557,"lon":5.390173,"is_reserved":false,"is_disabled":false,"rental_uris":{"android":"levelo://app?vid=226b5ed5-be8f-40f6-b685-21fd8a4330f6","ios":"levelo://app?vid=226b5ed5-be8f-40f6-b685-21fd8a4330f6"},"vehicle_type_id":"4","last_reported":1690916706,"current_range_meters":25600,"station_id":"ce4bhqp2rcd13ifvqhng","pricing_plan_id":"free"},{"bike_id":"e5f8f28f-1230-416b-b412-14a4fceba22c","system_id":"levelo_inurba_marseille","lat":43.295748,"lon":5.37522,"is_reserved":false,"is_disabled":false,"rental_uris":{"android":"levelo://app?vid=e5f8f28f-1230-416b-b412-14a4fceba22c","ios":"levelo://app?vid=e5f8f28f-1230-416b-b412-14a4fceba22c"},"vehicle_type_id":"4","last_reported":1690916706,"current_range_meters":0,"station_id":"ce4bgh92rcd13ifvqb50","pricing_plan_id":"free"},{"bike_id":"32c0ae3b-cec1-41d4-9ced-4f5979566f8d","system_id":"levelo_inurba_marseille","lat":43.296263,"lon":5.377094,"is_reserved":false,"is_disabled":false,"rental_uris":{"android":"levelo://app?vid=32c0ae3b-cec1-41d4-9ced-4f5979566f8d","ios":"levelo://app?vid=32c0ae3b-cec1-41d4-9ced-4f5979566f8d"},"vehicle_type_id":"4","last_reported":1690916706,"current_range_meters":15200,"station_id":"ce4bgi92rcd13ifvqb90","pricing_plan_id":"free"},{"bike_id":"4657bd1f-2c8d-4b15-8982-7a8ba608c31c","system_id":"levelo_inurba_marseille","lat":43.296263,"lon":5.377094,"is_reserved":false,"is_disabled":false,"rental_uris":{"android":"levelo://app?vid=4657bd1f-2c8d-4b15-8982-7a8ba608c31c","ios":"levelo://app?vid=4657bd1f-2c8d-4b15-8982-7a8ba608c31c"},"vehicle_type_id":"4","last_reported":1690916706,"current_range_meters":4400,"station_id":"ce4bgi92rcd13ifvqb90","pricing_plan_id":"free"},{"bike_id":"0c28a7e5-a724-4c6c-b491-8c9fe314aaa8","system_id":"levelo_inurba_marseille","lat":43.296263,"lon":5.377094,"is_reserved":false,"is_disabled":false,"rental_uris":{"android":"levelo://app?vid=0c28a7e5-a724-4c6c-b491-8c9fe314aaa8","ios":"levelo://app?vid=0c28a7e5-a724-4c6c-b491-8c9fe314aaa8"},"vehicle_type_id":"4","last_reported":1690916706,"current_range_meters":8000,"station_id":"ce4bgi92rcd13ifvqb90","pricing_plan_id":"free"},{"bike_id":"3529b70c-6eff-4678-92a6-954e4f5a8c2e","system_id":"levelo_inurba_marseille","lat":43.295748,"lon":5.37522,"is_reserved":false,"is_disabled":false,"rental_uris":{"android":"levelo://app?vid=3529b70c-6eff-4678-92a6-954e4f5a8c2e","ios":"levelo://app?vid=3529b70c-6eff-4678-92a6-954e4f5a8c2e"},"vehicle_type_id":"4","last_reported":1690916706,"current_range_meters":7200,"station_id":"ce4bgh92rcd13ifvqb50","pricing_plan_id":"free"},{"bike_id":"ee7951cc-952b-45fb-b960-747aedfb7fec","system_id":"levelo_inurba_marseille","lat":43.299707,"lon":5.384859,"is_reserved":false,"is_disabled":false,"rental_uris":{"android":"levelo://app?vid=ee7951cc-952b-45fb-b960-747aedfb7fec","ios":"levelo://app?vid=ee7951cc-952b-45fb-b960-747aedfb7fec"},"vehicle_type_id":"4","last_reported":1690916706,"current_range_meters":2800,"station_id":"ce4bgj92rcd13ifvqbd0","pricing_plan_id":"free"},{"bike_id":"60a68d41-6325-472f-8ee8-c2f2c0ea9b43","system_id":"levelo_inurba_marseille","lat":43.299707,"lon":5.384859,"is_reserved":false,"is_disabled":false,"rental_uris":{"android":"levelo://app?vid=60a68d41-6325-472f-8ee8-c2f2c0ea9b43","ios":"levelo://app?vid=60a68d41-6325-472f-8ee8-c2f2c0ea9b43"},"vehicle_type_id":"4","last_reported":1690916706,"current_range_meters":31200,"station_id":"ce4bgj92rcd13ifvqbd0","pricing_plan_id":"free"},{"bike_id":"17a5edcd-e8a7-4d85-a1b8-40a1130295cb","system_id":"levelo_inurba_marseille","lat":43.299724,"lon":5.384848,"is_reserved":false,"is_disabled":false,"rental_uris":{"android":"levelo://app?vid=17a5edcd-e8a7-4d85-a1b8-40a1130295cb","ios":"levelo://app?vid=17a5edcd-e8a7-4d85-a1b8-40a1130295cb"},"vehicle_type_id":"4","last_reported":1690916706,"current_range_meters":0,"station_id":"ce4bgj92rcd13ifvqbd0","pricing_plan_id":"free"},{"bike_id":"419713fa-7cc1-4cfe-93fa-32add7c4fc42","system_id":"levelo_inurba_marseille","lat":43.32367,"lon":5.38877,"is_reserved":false,"is_disabled":false,"rental_uris":{"android":"levelo://app?vid=419713fa-7cc1-4cfe-93fa-32add7c4fc42","ios":"levelo://app?vid=419713fa-7cc1-4cfe-93fa-32add7c4fc42"},"vehicle_type_id":"4","last_reported":1690916706,"current_range_meters":19200,"station_id":"ce4bhqp2rcd13ifvqhog","pricing_plan_id":"free"},{"bike_id":"48043a1d-4fe7-466d-96fd-b0352977ef75","system_id":"levelo_inurba_marseille","lat":43.32372,"lon":5.38875,"is_reserved":false,"is_disabled":false,"rental_uris":{"android":"levelo://app?vid=48043a1d-4fe7-466d-96fd-b0352977ef75","ios":"levelo://app?vid=48043a1d-4fe7-466d-96fd-b0352977ef75"},"vehicle_type_id":"4","last_reported":1690916706,"current_range_meters":7600,"station_id":"ce4bhqp2rcd13ifvqhog","pricing_plan_id":"free"},{"bike_id":"e863b566-22b4-4757-a391-5f1c12ef6558","system_id":"levelo_inurba_marseille","lat":43.32367,"lon":5.388836,"is_reserved":false,"is_disabled":false,"rental_uris":{"android":"levelo://app?vid=e863b566-22b4-4757-a391-5f1c12ef6558","ios":"levelo://app?vid=e863b566-22b4-4757-a391-5f1c12ef6558"},"vehicle_type_id":"4","last_reported":1690916706,"current_range_meters":16000,"station_id":"ce4bhqp2rcd13ifvqhog","pricing_plan_id":"free"},{"bike_id":"5759cff4-3ff2-4260-bc36-bc9b93e57519","system_id":"levelo_inurba_marseille","lat":43.32367,"lon":5.388836,"is_reserved":false,"is_disabled":false,"rental_uris":{"android":"levelo://app?vid=5759cff4-3ff2-4260-bc36-bc9b93e57519","ios":"levelo://app?vid=5759cff4-3ff2-4260-bc36-bc9b93e57519"},"vehicle_type_id":"4","last_reported":1690916706,"current_range_meters":24800,"station_id":"ce4bhqp2rcd13ifvqhog","pricing_plan_id":"free"},{"bike_id":"ef5d1edc-be2e-4323-93de-ada6a8e2aac3","system_id":"levelo_inurba_marseille","lat":43.3237,"lon":5.38888,"is_reserved":false,"is_disabled":false,"rental_uris":{"android":"levelo://app?vid=ef5d1edc-be2e-4323-93de-ada6a8e2aac3","ios":"levelo://app?vid=ef5d1edc-be2e-4323-93de-ada6a8e2aac3"},"vehicle_type_id":"4","last_reported":1690916706,"current_range_meters":30400,"station_id":"ce4bhqp2rcd13ifvqhog","pricing_plan_id":"free"},{"bike_id":"7407868d-af16-44de-b3fd-1ee17b32e1f8","system_id":"levelo_inurba_marseille","lat":43.29304,"lon":5.37164,"is_reserved":false,"is_disabled":false,"rental_uris":{"android":"levelo://app?vid=7407868d-af16-44de-b3fd-1ee17b32e1f8","ios":"levelo://app?vid=7407868d-af16-44de-b3fd-1ee17b32e1f8"},"vehicle_type_id":"4","last_reported":1690916706,"current_range_meters":18800,"station_id":"ce4bgh92rcd13ifvqb40","pricing_plan_id":"free"},{"bike_id":"a84cbf4d-da61-4fa7-9eaf-3eadcce97dbd","system_id":"levelo_inurba_marseille","lat":43.29302,"lon":5.37175,"is_reserved":false,"is_disabled":false,"rental_uris":{"android":"levelo://app?vid=a84cbf4d-da61-4fa7-9eaf-3eadcce97dbd","ios":"levelo://app?vid=a84cbf4d-da61-4fa7-9eaf-3eadcce97dbd"},"vehicle_type_id":"4","last_reported":1690916706,"current_range_meters":16400,"station_id":"ce4bgh92rcd13ifvqb40","pricing_plan_id":"free"},{"bike_id":"c3e51413-cb15-4992-955e-620f6ef09048","system_id":"levelo_inurba_marseille","lat":43.29273,"lon":5.36835,"is_reserved":false,"is_disabled":false,"rental_uris":{"android":"levelo://app?vid=c3e51413-cb15-4992-955e-620f6ef09048","ios":"levelo://app?vid=c3e51413-cb15-4992-955e-620f6ef09048"},"vehicle_type_id":"4","last_reported":1690916706,"current_range_meters":5200,"station_id":"ce4bhbp2rcd13ifvqesg","pricing_plan_id":"free"},{"bike_id":"067b34f2-b21c-4161-9cef-63b5589de8c5","system_id":"levelo_inurba_marseille","lat":43.2927,"lon":5.36844,"is_reserved":false,"is_disabled":false,"rental_uris":{"android":"levelo://app?vid=067b34f2-b21c-4161-9cef-63b5589de8c5","ios":"levelo://app?vid=067b34f2-b21c-4161-9cef-63b5589de8c5"},"vehicle_type_id":"4","last_reported":1690916706,"current_range_meters":19600,"station_id":"ce4bhbp2rcd13ifvqesg","pricing_plan_id":"free"},{"bike_id":"415bd432-b34b-4a9e-b8c6-93610364990d","system_id":"levelo_inurba_marseille","lat":43.30307,"lon":5.39211,"is_reserved":false,"is_disabled":false,"rental_uris":{"android":"levelo://app?vid=415bd432-b34b-4a9e-b8c6-93610364990d","ios":"levelo://app?vid=415bd432-b34b-4a9e-b8c6-93610364990d"},"vehicle_type_id":"4","last_reported":1690916706,"current_range_meters":12800,"station_id":"ce4bgkh2rcd13ifvqbk0","pricing_plan_id":"free"},{"bike_id":"993f2728-090c-4ec3-b61e-8b24177a42f9","system_id":"levelo_inurba_marseille","lat":43.292286,"lon":5.360636,"is_reserved":false,"is_disabled":false,"rental_uris":{"android":"levelo://app?vid=993f2728-090c-4ec3-b61e-8b24177a42f9","ios":"levelo://app?vid=993f2728-090c-4ec3-b61e-8b24177a42f9"},"vehicle_type_id":"4","last_reported":1690916706,"current_range_meters":13600,"station_id":"ce4bhbh2rcd13ifvqeqg","pricing_plan_id":"free"},{"bike_id":"bc6138b1-cf6e-429d-b0b8-70d0e3eb79c9","system_id":"levelo_inurba_marseille","lat":43.30085,"lon":5.390856,"is_reserved":false,"is_disabled":false,"rental_uris":{"android":"levelo://app?vid=bc6138b1-cf6e-429d-b0b8-70d0e3eb79c9","ios":"levelo://app?vid=bc6138b1-cf6e-429d-b0b8-70d0e3eb79c9"},"vehicle_type_id":"4","last_reported":1690916706,"current_range_meters":4400,"station_id":"ce4bh192rcd13ifvqdb0","pricing_plan_id":"free"},{"bike_id":"2897bfdd-0333-491e-9fb6-2727eaad4d4a","system_id":"levelo_inurba_marseille","lat":43.292311,"lon":5.360731,"is_reserved":false,"is_disabled":false,"rental_uris":{"android":"levelo://app?vid=2897bfdd-0333-491e-9fb6-2727eaad4d4a","ios":"levelo://app?vid=2897bfdd-0333-491e-9fb6-2727eaad4d4a"},"vehicle_type_id":"4","last_reported":1690916706,"current_range_meters":10000,"station_id":"ce4bhbh2rcd13ifvqeqg","pricing_plan_id":"free"},{"bike_id":"58f98d0a-5414-47e6-a0ac-6eee6481ea52","system_id":"levelo_inurba_marseille","lat":43.2922,"lon":5.36074,"is_reserved":false,"is_disabled":false,"rental_uris":{"android":"levelo://app?vid=58f98d0a-5414-47e6-a0ac-6eee6481ea52","ios":"levelo://app?vid=58f98d0a-5414-47e6-a0ac-6eee6481ea52"},"vehicle_type_id":"4","last_reported":1690916706,"current_range_meters":5600,"station_id":"ce4bhbh2rcd13ifvqeqg","pricing_plan_id":"free"},{"bike_id":"9420abd7-96b7-40f3-adc4-41314a736548","system_id":"levelo_inurba_marseille","lat":43.29219,"lon":5.3607,"is_reserved":false,"is_disabled":false,"rental_uris":{"android":"levelo://app?vid=9420abd7-96b7-40f3-adc4-41314a736548","ios":"levelo://app?vid=9420abd7-96b7-40f3-adc4-41314a736548"},"vehicle_type_id":"4","last_reported":1690916706,"current_range_meters":9600,"station_id":"ce4bhbh2rcd13ifvqeqg","pricing_plan_id":"free"},{"bike_id":"5ea593a0-862f-4ea2-ae1d-a7c911bbfce8","system_id":"levelo_inurba_marseille","lat":43.292311,"lon":5.360731,"is_reserved":false,"is_disabled":false,"rental_uris":{"android":"levelo://app?vid=5ea593a0-862f-4ea2-ae1d-a7c911bbfce8","ios":"levelo://app?vid=5ea593a0-862f-4ea2-ae1d-a7c911bbfce8"},"vehicle_type_id":"4","last_reported":1690916706,"current_range_meters":8000,"station_id":"ce4bhbh2rcd13ifvqeqg","pricing_plan_id":"free"},{"bike_id":"c1eddbe7-380d-4bee-b84d-de6b8e061eba","system_id":"levelo_inurba_marseille","lat":43.29888,"lon":5.38894,"is_reserved":false,"is_disabled":false,"rental_uris":{"android":"levelo://app?vid=c1eddbe7-380d-4bee-b84d-de6b8e061eba","ios":"levelo://app?vid=c1eddbe7-380d-4bee-b84d-de6b8e061eba"},"vehicle_type_id":"4","last_reported":1690916706,"current_range_meters":18000,"station_id":"ce4bh392rcd13ifvqdl0","pricing_plan_id":"free"},{"bike_id":"cc89414f-c30a-4c03-928d-d7e27fa09984","system_id":"levelo_inurba_marseille","lat":43.29888,"lon":5.38897,"is_reserved":false,"is_disabled":false,"rental_uris":{"android":"levelo://app?vid=cc89414f-c30a-4c03-928d-d7e27fa09984","ios":"levelo://app?vid=cc89414f-c30a-4c03-928d-d7e27fa09984"},"vehicle_type_id":"4","last_reported":1690916706,"current_range_meters":12400,"station_id":"ce4bh392rcd13ifvqdl0","pricing_plan_id":"free"},{"bike_id":"a1c21be5-0de5-482c-9192-b254a65f108e","system_id":"levelo_inurba_marseille","lat":43.291671,"lon":5.371575,"is_reserved":false,"is_disabled":false,"rental_uris":{"android":"levelo://app?vid=a1c21be5-0de5-482c-9192-b254a65f108e","ios":"levelo://app?vid=a1c21be5-0de5-482c-9192-b254a65f108e"},"vehicle_type_id":"4","last_reported":1690916706,"current_range_meters":7200,"station_id":"ce4bha92rcd13ifvqeh0","pricing_plan_id":"free"},{"bike_id":"6bda5459-ddee-40ba-8ef2-da6684386a3f","system_id":"levelo_inurba_marseille","lat":43.29889,"lon":5.38905,"is_reserved":false,"is_disabled":false,"rental_uris":{"android":"levelo://app?vid=6bda5459-ddee-40ba-8ef2-da6684386a3f","ios":"levelo://app?vid=6bda5459-ddee-40ba-8ef2-da6684386a3f"},"vehicle_type_id":"4","last_reported":1690916706,"current_range_meters":20400,"station_id":"ce4bh392rcd13ifvqdl0","pricing_plan_id":"free"},{"bike_id":"1e81c875-bed2-4780-829a-aa8d7e3b6221","system_id":"levelo_inurba_marseille","lat":43.291675,"lon":5.371583,"is_reserved":false,"is_disabled":false,"rental_uris":{"android":"levelo://app?vid=1e81c875-bed2-4780-829a-aa8d7e3b6221","ios":"levelo://app?vid=1e81c875-bed2-4780-829a-aa8d7e3b6221"},"vehicle_type_id":"4","last_reported":1690916706,"current_range_meters":800,"station_id":"ce4bha92rcd13ifvqeh0","pricing_plan_id":"free"},{"bike_id":"25a9ea83-6149-4799-bf0b-a398f9b5f5b1","system_id":"levelo_inurba_marseille","lat":43.29878,"lon":5.38907,"is_reserved":false,"is_disabled":false,"rental_uris":{"android":"levelo://app?vid=25a9ea83-6149-4799-bf0b-a398f9b5f5b1","ios":"levelo://app?vid=25a9ea83-6149-4799-bf0b-a398f9b5f5b1"},"vehicle_type_id":"4","last_reported":1690916706,"current_range_meters":22400,"station_id":"ce4bh392rcd13ifvqdl0","pricing_plan_id":"free"},{"bike_id":"9d1e43a0-1d95-4663-851c-2d3a1f1c7c77","system_id":"levelo_inurba_marseille","lat":43.309038,"lon":5.396546,"is_reserved":false,"is_disabled":false,"rental_uris":{"android":"levelo://app?vid=9d1e43a0-1d95-4663-851c-2d3a1f1c7c77","ios":"levelo://app?vid=9d1e43a0-1d95-4663-851c-2d3a1f1c7c77"},"vehicle_type_id":"4","last_reported":1690916706,"current_range_meters":6400,"station_id":"ce4bh012rcd13ifvqcv0","pricing_plan_id":"free"},{"bike_id":"abc5278c-bd67-43a3-b229-ad80b136c1c1","system_id":"levelo_inurba_marseille","lat":43.30887,"lon":5.39635,"is_reserved":false,"is_disabled":false,"rental_uris":{"android":"levelo://app?vid=abc5278c-bd67-43a3-b229-ad80b136c1c1","ios":"levelo://app?vid=abc5278c-bd67-43a3-b229-ad80b136c1c1"},"vehicle_type_id":"4","last_reported":1690916706,"current_range_meters":8400,"station_id":"ce4bh012rcd13ifvqcv0","pricing_plan_id":"free"},{"bike_id":"6669d566-0a3e-4a15-86ed-1e99ac0d6152","system_id":"levelo_inurba_marseille","lat":43.309038,"lon":5.396546,"is_reserved":false,"is_disabled":false,"rental_uris":{"android":"levelo://app?vid=6669d566-0a3e-4a15-86ed-1e99ac0d6152","ios":"levelo://app?vid=6669d566-0a3e-4a15-86ed-1e99ac0d6152"},"vehicle_type_id":"4","last_reported":1690916706,"current_range_meters":23200,"station_id":"ce4bh012rcd13ifvqcv0","pricing_plan_id":"free"},{"bike_id":"75f9d8a7-ee43-4432-abc6-ea9ef7609f13","system_id":"levelo_inurba_marseille","lat":43.292642,"lon":5.384254,"is_reserved":false,"is_disabled":false,"rental_uris":{"android":"levelo://app?vid=75f9d8a7-ee43-4432-abc6-ea9ef7609f13","ios":"levelo://app?vid=75f9d8a7-ee43-4432-abc6-ea9ef7609f13"},"vehicle_type_id":"4","last_reported":1690916706,"current_range_meters":15600,"station_id":"ce4bh692rcd13ifvqea0","pricing_plan_id":"free"},{"bike_id":"4af7ba83-0ff5-47be-a927-84157214ae26","system_id":"levelo_inurba_marseille","lat":43.30886,"lon":5.39641,"is_reserved":false,"is_disabled":false,"rental_uris":{"android":"levelo://app?vid=4af7ba83-0ff5-47be-a927-84157214ae26","ios":"levelo://app?vid=4af7ba83-0ff5-47be-a927-84157214ae26"},"vehicle_type_id":"4","last_reported":1690916706,"current_range_meters":12800,"station_id":"ce4bh012rcd13ifvqcv0","pricing_plan_id":"free"},{"bike_id":"bc1b2f68-7c13-46bd-a7b5-5ed815dffd3b","system_id":"levelo_inurba_marseille","lat":43.309038,"lon":5.396546,"is_reserved":false,"is_disabled":false,"rental_uris":{"android":"levelo://app?vid=bc1b2f68-7c13-46bd-a7b5-5ed815dffd3b","ios":"levelo://app?vid=bc1b2f68-7c13-46bd-a7b5-5ed815dffd3b"},"vehicle_type_id":"4","last_reported":1690916706,"current_range_meters":14400,"station_id":"ce4bh012rcd13ifvqcv0","pricing_plan_id":"free"},{"bike_id":"93420fc7-aca8-4607-a059-e8ba817a4fed","system_id":"levelo_inurba_marseille","lat":43.308799,"lon":5.396532,"is_reserved":false,"is_disabled":false,"rental_uris":{"android":"levelo://app?vid=93420fc7-aca8-4607-a059-e8ba817a4fed","ios":"levelo://app?vid=93420fc7-aca8-4607-a059-e8ba817a4fed"},"vehicle_type_id":"4","last_reported":1690916706,"current_range_meters":16400,"station_id":"ce4bh012rcd13ifvqcv0","pricing_plan_id":"free"},{"bike_id":"88008a5a-4953-4445-9345-afcc4fcdaed3","system_id":"levelo_inurba_marseille","lat":43.29536,"lon":5.38534,"is_reserved":false,"is_disabled":false,"rental_uris":{"android":"levelo://app?vid=88008a5a-4953-4445-9345-afcc4fcdaed3","ios":"levelo://app?vid=88008a5a-4953-4445-9345-afcc4fcdaed3"},"vehicle_type_id":"4","last_reported":1690916706,"current_range_meters":26800,"station_id":"ce4bgih2rcd13ifvqba0","pricing_plan_id":"free"},{"bike_id":"fcb233d6-d883-4d95-ac37-76ba873f6d4e","system_id":"levelo_inurba_marseille","lat":43.29529,"lon":5.385581,"is_reserved":false,"is_disabled":false,"rental_uris":{"android":"levelo://app?vid=fcb233d6-d883-4d95-ac37-76ba873f6d4e","ios":"levelo://app?vid=fcb233d6-d883-4d95-ac37-76ba873f6d4e"},"vehicle_type_id":"4","last_reported":1690916706,"current_range_meters":24400,"station_id":"ce4bgih2rcd13ifvqba0","pricing_plan_id":"free"},{"bike_id":"ecb20602-e968-46cc-abff-92bd6ea74d18","system_id":"levelo_inurba_marseille","lat":43.29539,"lon":5.38543,"is_reserved":false,"is_disabled":false,"rental_uris":{"android":"levelo://app?vid=ecb20602-e968-46cc-abff-92bd6ea74d18","ios":"levelo://app?vid=ecb20602-e968-46cc-abff-92bd6ea74d18"},"vehicle_type_id":"4","last_reported":1690916706,"current_range_meters":2800,"station_id":"ce4bgih2rcd13ifvqba0","pricing_plan_id":"free"},{"bike_id":"47ae14fc-d846-4d9e-aa8c-3c2f75971745","system_id":"levelo_inurba_marseille","lat":43.29529,"lon":5.385581,"is_reserved":false,"is_disabled":false,"rental_uris":{"android":"levelo://app?vid=47ae14fc-d846-4d9e-aa8c-3c2f75971745","ios":"levelo://app?vid=47ae14fc-d846-4d9e-aa8c-3c2f75971745"},"vehicle_type_id":"4","last_reported":1690916706,"current_range_meters":19200,"station_id":"ce4bgih2rcd13ifvqba0","pricing_plan_id":"free"},{"bike_id":"e5af4a24-607b-40cb-83d5-c0c5356a9407","system_id":"levelo_inurba_marseille","lat":43.290779,"lon":5.371482,"is_reserved":false,"is_disabled":false,"rental_uris":{"android":"levelo://app?vid=e5af4a24-607b-40cb-83d5-c0c5356a9407","ios":"levelo://app?vid=e5af4a24-607b-40cb-83d5-c0c5356a9407"},"vehicle_type_id":"4","last_reported":1690916706,"current_range_meters":23600,"station_id":"ce4bh5p2rcd13ifvqe4g","pricing_plan_id":"free"},{"bike_id":"fa59c6db-a247-4615-bb9e-8a0ab4e126e5","system_id":"levelo_inurba_marseille","lat":43.30906,"lon":5.39748,"is_reserved":false,"is_disabled":false,"rental_uris":{"android":"levelo://app?vid=fa59c6db-a247-4615-bb9e-8a0ab4e126e5","ios":"levelo://app?vid=fa59c6db-a247-4615-bb9e-8a0ab4e126e5"},"vehicle_type_id":"4","last_reported":1690916706,"current_range_meters":19200,"station_id":"","pricing_plan_id":"free"},{"bike_id":"3fb4c476-1aa9-4911-88a0-78387401a44c","system_id":"levelo_inurba_marseille","lat":43.302149,"lon":5.394574,"is_reserved":false,"is_disabled":false,"rental_uris":{"android":"levelo://app?vid=3fb4c476-1aa9-4911-88a0-78387401a44c","ios":"levelo://app?vid=3fb4c476-1aa9-4911-88a0-78387401a44c"},"vehicle_type_id":"4","last_reported":1690916706,"current_range_meters":11600,"station_id":"ce4bh0p2rcd13ifvqd70","pricing_plan_id":"free"},{"bike_id":"24e12b4f-7f02-4e97-ade6-04fec0d40e30","system_id":"levelo_inurba_marseille","lat":43.302008,"lon":5.394694,"is_reserved":false,"is_disabled":false,"rental_uris":{"android":"levelo://app?vid=24e12b4f-7f02-4e97-ade6-04fec0d40e30","ios":"levelo://app?vid=24e12b4f-7f02-4e97-ade6-04fec0d40e30"},"vehicle_type_id":"4","last_reported":1690916706,"current_range_meters":5200,"station_id":"ce4bh0p2rcd13ifvqd70","pricing_plan_id":"free"},{"bike_id":"224e967b-41d7-4a47-9287-2eadffa8c1a0","system_id":"levelo_inurba_marseille","lat":43.302008,"lon":5.394694,"is_reserved":false,"is_disabled":false,"rental_uris":{"android":"levelo://app?vid=224e967b-41d7-4a47-9287-2eadffa8c1a0","ios":"levelo://app?vid=224e967b-41d7-4a47-9287-2eadffa8c1a0"},"vehicle_type_id":"4","last_reported":1690916706,"current_range_meters":29200,"station_id":"ce4bh0p2rcd13ifvqd70","pricing_plan_id":"free"},{"bike_id":"c5a9e6f6-14c7-4d72-a25a-9133758599d9","system_id":"levelo_inurba_marseille","lat":43.302212,"lon":5.394775,"is_reserved":false,"is_disabled":false,"rental_uris":{"android":"levelo://app?vid=c5a9e6f6-14c7-4d72-a25a-9133758599d9","ios":"levelo://app?vid=c5a9e6f6-14c7-4d72-a25a-9133758599d9"},"vehicle_type_id":"4","last_reported":1690916706,"current_range_meters":10800,"station_id":"ce4bh0p2rcd13ifvqd70","pricing_plan_id":"free"},{"bike_id":"ef0524b8-f229-4d53-939f-2d8fe8e302be","system_id":"levelo_inurba_marseille","lat":43.290624,"lon":5.359245,"is_reserved":false,"is_disabled":false,"rental_uris":{"android":"levelo://app?vid=ef0524b8-f229-4d53-939f-2d8fe8e302be","ios":"levelo://app?vid=ef0524b8-f229-4d53-939f-2d8fe8e302be"},"vehicle_type_id":"4","last_reported":1690916706,"current_range_meters":2800,"station_id":"ce4bha92rcd13ifvqeg0","pricing_plan_id":"free"},{"bike_id":"6a615bf9-f449-49a5-823b-1d01b50ea4e3","system_id":"levelo_inurba_marseille","lat":43.291231,"lon":5.355737,"is_reserved":false,"is_disabled":false,"rental_uris":{"android":"levelo://app?vid=6a615bf9-f449-49a5-823b-1d01b50ea4e3","ios":"levelo://app?vid=6a615bf9-f449-49a5-823b-1d01b50ea4e3"},"vehicle_type_id":"4","last_reported":1690916706,"current_range_meters":27600,"station_id":"","pricing_plan_id":"free"},{"bike_id":"7d3ce727-7690-4314-83bf-c9a404dd4b33","system_id":"levelo_inurba_marseille","lat":43.290631,"lon":5.359244,"is_reserved":false,"is_disabled":false,"rental_uris":{"android":"levelo://app?vid=7d3ce727-7690-4314-83bf-c9a404dd4b33","ios":"levelo://app?vid=7d3ce727-7690-4314-83bf-c9a404dd4b33"},"vehicle_type_id":"4","last_reported":1690916706,"current_range_meters":6000,"station_id":"ce4bha92rcd13ifvqeg0","pricing_plan_id":"free"},{"bike_id":"7c4e30fe-628d-4e46-8fd1-9c97694638da","system_id":"levelo_inurba_marseille","lat":43.294153,"lon":5.386305,"is_reserved":false,"is_disabled":false,"rental_uris":{"android":"levelo://app?vid=7c4e30fe-628d-4e46-8fd1-9c97694638da","ios":"levelo://app?vid=7c4e30fe-628d-4e46-8fd1-9c97694638da"},"vehicle_type_id":"4","last_reported":1690916706,"current_range_meters":18800,"station_id":"ce4bh2h2rcd13ifvqdh0","pricing_plan_id":"free"},{"bike_id":"d4ec115d-485f-4575-a2b0-2bee76de7611","system_id":"levelo_inurba_marseille","lat":43.29419,"lon":5.38616,"is_reserved":false,"is_disabled":false,"rental_uris":{"android":"levelo://app?vid=d4ec115d-485f-4575-a2b0-2bee76de7611","ios":"levelo://app?vid=d4ec115d-485f-4575-a2b0-2bee76de7611"},"vehicle_type_id":"4","last_reported":1690916706,"current_range_meters":22800,"station_id":"ce4bh2h2rcd13ifvqdh0","pricing_plan_id":"free"},{"bike_id":"e26abc01-bc9f-4c06-9ca9-60865475b551","system_id":"levelo_inurba_marseille","lat":43.29424,"lon":5.38627,"is_reserved":false,"is_disabled":false,"rental_uris":{"android":"levelo://app?vid=e26abc01-bc9f-4c06-9ca9-60865475b551","ios":"levelo://app?vid=e26abc01-bc9f-4c06-9ca9-60865475b551"},"vehicle_type_id":"4","last_reported":1690916706,"current_range_meters":18000,"station_id":"ce4bh2h2rcd13ifvqdh0","pricing_plan_id":"free"},{"bike_id":"1fbf32d2-0fed-4abe-846d-9d3c9ab57351","system_id":"levelo_inurba_marseille","lat":43.29421,"lon":5.38622,"is_reserved":false,"is_disabled":false,"rental_uris":{"android":"levelo://app?vid=1fbf32d2-0fed-4abe-846d-9d3c9ab57351","ios":"levelo://app?vid=1fbf32d2-0fed-4abe-846d-9d3c9ab57351"},"vehicle_type_id":"4","last_reported":1690916706,"current_range_meters":20800,"station_id":"ce4bh2h2rcd13ifvqdh0","pricing_plan_id":"free"},{"bike_id":"4e4a9421-d8f0-4e10-9759-cf106b78d8f9","system_id":"levelo_inurba_marseille","lat":43.29421,"lon":5.38622,"is_reserved":false,"is_disabled":false,"rental_uris":{"android":"levelo://app?vid=4e4a9421-d8f0-4e10-9759-cf106b78d8f9","ios":"levelo://app?vid=4e4a9421-d8f0-4e10-9759-cf106b78d8f9"},"vehicle_type_id":"4","last_reported":1690916706,"current_range_meters":1600,"station_id":"ce4bh2h2rcd13ifvqdh0","pricing_plan_id":"free"},{"bike_id":"998a8af3-740e-4b84-acbf-a4d94680e517","system_id":"levelo_inurba_marseille","lat":43.29421,"lon":5.38624,"is_reserved":false,"is_disabled":false,"rental_uris":{"android":"levelo://app?vid=998a8af3-740e-4b84-acbf-a4d94680e517","ios":"levelo://app?vid=998a8af3-740e-4b84-acbf-a4d94680e517"},"vehicle_type_id":"4","last_reported":1690916706,"current_range_meters":30000,"station_id":"ce4bh2h2rcd13ifvqdh0","pricing_plan_id":"free"},{"bike_id":"524202ad-5fa2-4b18-838d-270c44ab0b9e","system_id":"levelo_inurba_marseille","lat":43.29421,"lon":5.38625,"is_reserved":false,"is_disabled":false,"rental_uris":{"android":"levelo://app?vid=524202ad-5fa2-4b18-838d-270c44ab0b9e","ios":"levelo://app?vid=524202ad-5fa2-4b18-838d-270c44ab0b9e"},"vehicle_type_id":"4","last_reported":1690916706,"current_range_meters":8800,"station_id":"ce4bh2h2rcd13ifvqdh0","pricing_plan_id":"free"},{"bike_id":"2b42d6a8-2a18-473c-a16e-a509608f4d5a","system_id":"levelo_inurba_marseille","lat":43.29417,"lon":5.38618,"is_reserved":false,"is_disabled":false,"rental_uris":{"android":"levelo://app?vid=2b42d6a8-2a18-473c-a16e-a509608f4d5a","ios":"levelo://app?vid=2b42d6a8-2a18-473c-a16e-a509608f4d5a"},"vehicle_type_id":"4","last_reported":1690916706,"current_range_meters":0,"station_id":"ce4bh2h2rcd13ifvqdh0","pricing_plan_id":"free"},{"bike_id":"f49aeecf-c7af-499d-9a55-29d8533ece19","system_id":"levelo_inurba_marseille","lat":43.29422,"lon":5.38628,"is_reserved":false,"is_disabled":false,"rental_uris":{"android":"levelo://app?vid=f49aeecf-c7af-499d-9a55-29d8533ece19","ios":"levelo://app?vid=f49aeecf-c7af-499d-9a55-29d8533ece19"},"vehicle_type_id":"4","last_reported":1690916706,"current_range_meters":11200,"station_id":"ce4bh2h2rcd13ifvqdh0","pricing_plan_id":"free"},{"bike_id":"4ccf93eb-6d86-40b7-a980-174b255eff22","system_id":"levelo_inurba_marseille","lat":43.29417,"lon":5.38621,"is_reserved":false,"is_disabled":false,"rental_uris":{"android":"levelo://app?vid=4ccf93eb-6d86-40b7-a980-174b255eff22","ios":"levelo://app?vid=4ccf93eb-6d86-40b7-a980-174b255eff22"},"vehicle_type_id":"4","last_reported":1690916706,"current_range_meters":31200,"station_id":"ce4bh2h2rcd13ifvqdh0","pricing_plan_id":"free"},{"bike_id":"0d09d1b9-df17-4aba-9d82-76c7c5d43d4f","system_id":"levelo_inurba_marseille","lat":43.29417,"lon":5.38624,"is_reserved":false,"is_disabled":false,"rental_uris":{"android":"levelo://app?vid=0d09d1b9-df17-4aba-9d82-76c7c5d43d4f","ios":"levelo://app?vid=0d09d1b9-df17-4aba-9d82-76c7c5d43d4f"},"vehicle_type_id":"4","last_reported":1690916706,"current_range_meters":24400,"station_id":"ce4bh2h2rcd13ifvqdh0","pricing_plan_id":"free"},{"bike_id":"84002421-20d1-4772-bd14-966b466586af","system_id":"levelo_inurba_marseille","lat":43.294162,"lon":5.386292,"is_reserved":false,"is_disabled":false,"rental_uris":{"android":"levelo://app?vid=84002421-20d1-4772-bd14-966b466586af","ios":"levelo://app?vid=84002421-20d1-4772-bd14-966b466586af"},"vehicle_type_id":"4","last_reported":1690916706,"current_range_meters":16000,"station_id":"ce4bh2h2rcd13ifvqdh0","pricing_plan_id":"free"},{"bike_id":"1f6d3bd8-0bdd-4b90-8874-53ac06f48f2a","system_id":"levelo_inurba_marseille","lat":43.294162,"lon":5.386292,"is_reserved":false,"is_disabled":false,"rental_uris":{"android":"levelo://app?vid=1f6d3bd8-0bdd-4b90-8874-53ac06f48f2a","ios":"levelo://app?vid=1f6d3bd8-0bdd-4b90-8874-53ac06f48f2a"},"vehicle_type_id":"4","last_reported":1690916706,"current_range_meters":30800,"station_id":"ce4bh2h2rcd13ifvqdh0","pricing_plan_id":"free"},{"bike_id":"34295da5-a16c-435c-bf9e-ff8ec588d40d","system_id":"levelo_inurba_marseille","lat":43.29415,"lon":5.38624,"is_reserved":false,"is_disabled":false,"rental_uris":{"android":"levelo://app?vid=34295da5-a16c-435c-bf9e-ff8ec588d40d","ios":"levelo://app?vid=34295da5-a16c-435c-bf9e-ff8ec588d40d"},"vehicle_type_id":"4","last_reported":1690916706,"current_range_meters":22800,"station_id":"ce4bh2h2rcd13ifvqdh0","pricing_plan_id":"free"},{"bike_id":"337f6dcf-0669-4d30-a29c-8d416e357b7a","system_id":"levelo_inurba_marseille","lat":43.29416,"lon":5.3863,"is_reserved":false,"is_disabled":false,"rental_uris":{"android":"levelo://app?vid=337f6dcf-0669-4d30-a29c-8d416e357b7a","ios":"levelo://app?vid=337f6dcf-0669-4d30-a29c-8d416e357b7a"},"vehicle_type_id":"4","last_reported":1690916706,"current_range_meters":20000,"station_id":"ce4bh2h2rcd13ifvqdh0","pricing_plan_id":"free"},{"bike_id":"1107c123-899a-448e-b8b8-f9b94fac5cba","system_id":"levelo_inurba_marseille","lat":43.294162,"lon":5.386292,"is_reserved":false,"is_disabled":false,"rental_uris":{"android":"levelo://app?vid=1107c123-899a-448e-b8b8-f9b94fac5cba","ios":"levelo://app?vid=1107c123-899a-448e-b8b8-f9b94fac5cba"},"vehicle_type_id":"4","last_reported":1690916706,"current_range_meters":18400,"station_id":"ce4bh2h2rcd13ifvqdh0","pricing_plan_id":"free"},{"bike_id":"2dab78d4-988c-4486-867c-19625e9237b9","system_id":"levelo_inurba_marseille","lat":43.29413,"lon":5.38626,"is_reserved":false,"is_disabled":false,"rental_uris":{"android":"levelo://app?vid=2dab78d4-988c-4486-867c-19625e9237b9","ios":"levelo://app?vid=2dab78d4-988c-4486-867c-19625e9237b9"},"vehicle_type_id":"4","last_reported":1690916706,"current_range_meters":13600,"station_id":"ce4bh2h2rcd13ifvqdh0","pricing_plan_id":"free"},{"bike_id":"f7d06db4-72ed-4955-9f39-f2f383d93410","system_id":"levelo_inurba_marseille","lat":43.289468,"lon":5.363719,"is_reserved":false,"is_disabled":false,"rental_uris":{"android":"levelo://app?vid=f7d06db4-72ed-4955-9f39-f2f383d93410","ios":"levelo://app?vid=f7d06db4-72ed-4955-9f39-f2f383d93410"},"vehicle_type_id":"4","last_reported":1690916706,"current_range_meters":22800,"station_id":"ce4bhc92rcd13ifvqetg","pricing_plan_id":"free"},{"bike_id":"d48c5269-2a38-483c-aa76-eecde15cb367","system_id":"levelo_inurba_marseille","lat":43.289184,"lon":5.366408,"is_reserved":false,"is_disabled":false,"rental_uris":{"android":"levelo://app?vid=d48c5269-2a38-483c-aa76-eecde15cb367","ios":"levelo://app?vid=d48c5269-2a38-483c-aa76-eecde15cb367"},"vehicle_type_id":"4","last_reported":1690916706,"current_range_meters":0,"station_id":"ce4bhap2rcd13ifvqek0","pricing_plan_id":"free"},{"bike_id":"f28ca593-7cd3-43c1-9e36-0c9e82b54a8e","system_id":"levelo_inurba_marseille","lat":43.289184,"lon":5.366408,"is_reserved":false,"is_disabled":false,"rental_uris":{"android":"levelo://app?vid=f28ca593-7cd3-43c1-9e36-0c9e82b54a8e","ios":"levelo://app?vid=f28ca593-7cd3-43c1-9e36-0c9e82b54a8e"},"vehicle_type_id":"4","last_reported":1690916706,"current_range_meters":16400,"station_id":"ce4bhap2rcd13ifvqek0","pricing_plan_id":"free"},{"bike_id":"268fcaf2-348c-45bd-8b8e-9395a67854b8","system_id":"levelo_inurba_marseille","lat":43.289184,"lon":5.366408,"is_reserved":false,"is_disabled":false,"rental_uris":{"android":"levelo://app?vid=268fcaf2-348c-45bd-8b8e-9395a67854b8","ios":"levelo://app?vid=268fcaf2-348c-45bd-8b8e-9395a67854b8"},"vehicle_type_id":"4","last_reported":1690916706,"current_range_meters":31200,"station_id":"ce4bhap2rcd13ifvqek0","pricing_plan_id":"free"},{"bike_id":"3b6e65d7-39bd-4405-a77f-6bded3febac6","system_id":"levelo_inurba_marseille","lat":43.29413,"lon":5.38632,"is_reserved":false,"is_disabled":false,"rental_uris":{"android":"levelo://app?vid=3b6e65d7-39bd-4405-a77f-6bded3febac6","ios":"levelo://app?vid=3b6e65d7-39bd-4405-a77f-6bded3febac6"},"vehicle_type_id":"4","last_reported":1690916706,"current_range_meters":0,"station_id":"ce4bh2h2rcd13ifvqdh0","pricing_plan_id":"free"},{"bike_id":"113b6d47-4397-4d71-bb44-bc77b9e45588","system_id":"levelo_inurba_marseille","lat":43.29411,"lon":5.38631,"is_reserved":false,"is_disabled":false,"rental_uris":{"android":"levelo://app?vid=113b6d47-4397-4d71-bb44-bc77b9e45588","ios":"levelo://app?vid=113b6d47-4397-4d71-bb44-bc77b9e45588"},"vehicle_type_id":"4","last_reported":1690916706,"current_range_meters":28400,"station_id":"ce4bh2h2rcd13ifvqdh0","pricing_plan_id":"free"},{"bike_id":"2ec63b35-941f-41d8-b260-773d6d16d16a","system_id":"levelo_inurba_marseille","lat":43.289184,"lon":5.366408,"is_reserved":false,"is_disabled":false,"rental_uris":{"android":"levelo://app?vid=2ec63b35-941f-41d8-b260-773d6d16d16a","ios":"levelo://app?vid=2ec63b35-941f-41d8-b260-773d6d16d16a"},"vehicle_type_id":"4","last_reported":1690916706,"current_range_meters":31200,"station_id":"ce4bhap2rcd13ifvqek0","pricing_plan_id":"free"},{"bike_id":"84ce0475-82c4-4ba0-a360-a9ed719cb837","system_id":"levelo_inurba_marseille","lat":43.289468,"lon":5.363719,"is_reserved":false,"is_disabled":false,"rental_uris":{"android":"levelo://app?vid=84ce0475-82c4-4ba0-a360-a9ed719cb837","ios":"levelo://app?vid=84ce0475-82c4-4ba0-a360-a9ed719cb837"},"vehicle_type_id":"4","last_reported":1690916706,"current_range_meters":31200,"station_id":"ce4bhc92rcd13ifvqetg","pricing_plan_id":"free"},{"bike_id":"fe894aad-dc96-491b-b3a7-9101e68dde52","system_id":"levelo_inurba_marseille","lat":43.289184,"lon":5.366408,"is_reserved":false,"is_disabled":false,"rental_uris":{"android":"levelo://app?vid=fe894aad-dc96-491b-b3a7-9101e68dde52","ios":"levelo://app?vid=fe894aad-dc96-491b-b3a7-9101e68dde52"},"vehicle_type_id":"4","last_reported":1690916706,"current_range_meters":0,"station_id":"ce4bhap2rcd13ifvqek0","pricing_plan_id":"free"},{"bike_id":"a1af963e-463c-43c3-91c1-4720d13cb467","system_id":"levelo_inurba_marseille","lat":43.29271,"lon":5.38437,"is_reserved":false,"is_disabled":false,"rental_uris":{"android":"levelo://app?vid=a1af963e-463c-43c3-91c1-4720d13cb467","ios":"levelo://app?vid=a1af963e-463c-43c3-91c1-4720d13cb467"},"vehicle_type_id":"4","last_reported":1690916706,"current_range_meters":30400,"station_id":"ce4bh692rcd13ifvqea0","pricing_plan_id":"free"},{"bike_id":"205eb239-5519-4af0-b277-bb0d3ef61f9f","system_id":"levelo_inurba_marseille","lat":43.292642,"lon":5.384254,"is_reserved":false,"is_disabled":false,"rental_uris":{"android":"levelo://app?vid=205eb239-5519-4af0-b277-bb0d3ef61f9f","ios":"levelo://app?vid=205eb239-5519-4af0-b277-bb0d3ef61f9f"},"vehicle_type_id":"4","last_reported":1690916706,"current_range_meters":400,"station_id":"ce4bh692rcd13ifvqea0","pricing_plan_id":"free"},{"bike_id":"c4478e6c-1702-40cf-a7fd-11c56d304f30","system_id":"levelo_inurba_marseille","lat":43.29272,"lon":5.3844,"is_reserved":false,"is_disabled":false,"rental_uris":{"android":"levelo://app?vid=c4478e6c-1702-40cf-a7fd-11c56d304f30","ios":"levelo://app?vid=c4478e6c-1702-40cf-a7fd-11c56d304f30"},"vehicle_type_id":"4","last_reported":1690916706,"current_range_meters":20400,"station_id":"ce4bh692rcd13ifvqea0","pricing_plan_id":"free"},{"bike_id":"648172e6-e073-4774-9747-0a70037b1761","system_id":"levelo_inurba_marseille","lat":43.292642,"lon":5.384254,"is_reserved":false,"is_disabled":false,"rental_uris":{"android":"levelo://app?vid=648172e6-e073-4774-9747-0a70037b1761","ios":"levelo://app?vid=648172e6-e073-4774-9747-0a70037b1761"},"vehicle_type_id":"4","last_reported":1690916706,"current_range_meters":21600,"station_id":"ce4bh692rcd13ifvqea0","pricing_plan_id":"free"},{"bike_id":"f19cc2b4-4464-46a1-8f14-730b651a3bac","system_id":"levelo_inurba_marseille","lat":43.292642,"lon":5.384254,"is_reserved":false,"is_disabled":false,"rental_uris":{"android":"levelo://app?vid=f19cc2b4-4464-46a1-8f14-730b651a3bac","ios":"levelo://app?vid=f19cc2b4-4464-46a1-8f14-730b651a3bac"},"vehicle_type_id":"4","last_reported":1690916706,"current_range_meters":3600,"station_id":"ce4bh692rcd13ifvqea0","pricing_plan_id":"free"},{"bike_id":"1edfec4e-3c4e-4857-aa8d-d2dc8e83162c","system_id":"levelo_inurba_marseille","lat":43.29263,"lon":5.38434,"is_reserved":false,"is_disabled":false,"rental_uris":{"android":"levelo://app?vid=1edfec4e-3c4e-4857-aa8d-d2dc8e83162c","ios":"levelo://app?vid=1edfec4e-3c4e-4857-aa8d-d2dc8e83162c"},"vehicle_type_id":"4","last_reported":1690916706,"current_range_meters":20000,"station_id":"ce4bh692rcd13ifvqea0","pricing_plan_id":"free"},{"bike_id":"c5e95b8f-f2ed-4552-a648-febdef757925","system_id":"levelo_inurba_marseille","lat":43.30344,"lon":5.39699,"is_reserved":false,"is_disabled":false,"rental_uris":{"android":"levelo://app?vid=c5e95b8f-f2ed-4552-a648-febdef757925","ios":"levelo://app?vid=c5e95b8f-f2ed-4552-a648-febdef757925"},"vehicle_type_id":"4","last_reported":1690916706,"current_range_meters":25600,"station_id":"ce4bh092rcd13ifvqd20","pricing_plan_id":"free"},{"bike_id":"41ae80e4-a268-4e5f-9b13-bb0ba58a670f","system_id":"levelo_inurba_marseille","lat":43.292642,"lon":5.384254,"is_reserved":false,"is_disabled":false,"rental_uris":{"android":"levelo://app?vid=41ae80e4-a268-4e5f-9b13-bb0ba58a670f","ios":"levelo://app?vid=41ae80e4-a268-4e5f-9b13-bb0ba58a670f"},"vehicle_type_id":"4","last_reported":1690916706,"current_range_meters":4400,"station_id":"ce4bh692rcd13ifvqea0","pricing_plan_id":"free"},{"bike_id":"2a4b864a-81d5-4e2a-8b95-43bf89043c69","system_id":"levelo_inurba_marseille","lat":43.2926,"lon":5.38439,"is_reserved":false,"is_disabled":false,"rental_uris":{"android":"levelo://app?vid=2a4b864a-81d5-4e2a-8b95-43bf89043c69","ios":"levelo://app?vid=2a4b864a-81d5-4e2a-8b95-43bf89043c69"},"vehicle_type_id":"4","last_reported":1690916706,"current_range_meters":14800,"station_id":"ce4bh692rcd13ifvqea0","pricing_plan_id":"free"},{"bike_id":"6d9fd1a5-d076-47e6-ace4-9509716808fb","system_id":"levelo_inurba_marseille","lat":43.29259,"lon":5.38437,"is_reserved":false,"is_disabled":false,"rental_uris":{"android":"levelo://app?vid=6d9fd1a5-d076-47e6-ace4-9509716808fb","ios":"levelo://app?vid=6d9fd1a5-d076-47e6-ace4-9509716808fb"},"vehicle_type_id":"4","last_reported":1690916706,"current_range_meters":22400,"station_id":"ce4bh692rcd13ifvqea0","pricing_plan_id":"free"},{"bike_id":"4ed21d42-c3c8-45a9-a0aa-b11b5ab273b0","system_id":"levelo_inurba_marseille","lat":43.292642,"lon":5.384254,"is_reserved":false,"is_disabled":false,"rental_uris":{"android":"levelo://app?vid=4ed21d42-c3c8-45a9-a0aa-b11b5ab273b0","ios":"levelo://app?vid=4ed21d42-c3c8-45a9-a0aa-b11b5ab273b0"},"vehicle_type_id":"4","last_reported":1690916706,"current_range_meters":31200,"station_id":"ce4bh692rcd13ifvqea0","pricing_plan_id":"free"},{"bike_id":"87dd6e7e-f270-459f-83fe-61a4dfa4ffb1","system_id":"levelo_inurba_marseille","lat":43.33043,"lon":5.38914,"is_reserved":false,"is_disabled":false,"rental_uris":{"android":"levelo://app?vid=87dd6e7e-f270-459f-83fe-61a4dfa4ffb1","ios":"levelo://app?vid=87dd6e7e-f270-459f-83fe-61a4dfa4ffb1"},"vehicle_type_id":"4","last_reported":1690916706,"current_range_meters":1600,"station_id":"ce4bhr92rcd13ifvqhrg","pricing_plan_id":"free"},{"bike_id":"ca9e7b33-bc95-4cf2-b4dc-ceba9c273184","system_id":"levelo_inurba_marseille","lat":43.33045,"lon":5.38913,"is_reserved":false,"is_disabled":false,"rental_uris":{"android":"levelo://app?vid=ca9e7b33-bc95-4cf2-b4dc-ceba9c273184","ios":"levelo://app?vid=ca9e7b33-bc95-4cf2-b4dc-ceba9c273184"},"vehicle_type_id":"4","last_reported":1690916706,"current_range_meters":24400,"station_id":"ce4bhr92rcd13ifvqhrg","pricing_plan_id":"free"},{"bike_id":"97dd64f7-40b9-4a77-b0da-89a36339db02","system_id":"levelo_inurba_marseille","lat":43.33045,"lon":5.38914,"is_reserved":false,"is_disabled":false,"rental_uris":{"android":"levelo://app?vid=97dd64f7-40b9-4a77-b0da-89a36339db02","ios":"levelo://app?vid=97dd64f7-40b9-4a77-b0da-89a36339db02"},"vehicle_type_id":"4","last_reported":1690916706,"current_range_meters":4800,"station_id":"ce4bhr92rcd13ifvqhrg","pricing_plan_id":"free"},{"bike_id":"f67edc25-bcc7-41fb-8431-1add679b0933","system_id":"levelo_inurba_marseille","lat":43.33045,"lon":5.38915,"is_reserved":false,"is_disabled":false,"rental_uris":{"android":"levelo://app?vid=f67edc25-bcc7-41fb-8431-1add679b0933","ios":"levelo://app?vid=f67edc25-bcc7-41fb-8431-1add679b0933"},"vehicle_type_id":"4","last_reported":1690916706,"current_range_meters":9600,"station_id":"ce4bhr92rcd13ifvqhrg","pricing_plan_id":"free"},{"bike_id":"8795e432-c7a3-4d95-9fa9-9f904bfbcb4a","system_id":"levelo_inurba_marseille","lat":43.33047,"lon":5.38914,"is_reserved":false,"is_disabled":false,"rental_uris":{"android":"levelo://app?vid=8795e432-c7a3-4d95-9fa9-9f904bfbcb4a","ios":"levelo://app?vid=8795e432-c7a3-4d95-9fa9-9f904bfbcb4a"},"vehicle_type_id":"4","last_reported":1690916706,"current_range_meters":26800,"station_id":"ce4bhr92rcd13ifvqhrg","pricing_plan_id":"free"},{"bike_id":"5c57840b-0172-46be-be69-48431de247db","system_id":"levelo_inurba_marseille","lat":43.290104,"lon":5.356111,"is_reserved":false,"is_disabled":false,"rental_uris":{"android":"levelo://app?vid=5c57840b-0172-46be-be69-48431de247db","ios":"levelo://app?vid=5c57840b-0172-46be-be69-48431de247db"},"vehicle_type_id":"4","last_reported":1690916706,"current_range_meters":4000,"station_id":"ce4bhb92rcd13ifvqen0","pricing_plan_id":"free"},{"bike_id":"91fbbc97-c37c-4919-957c-8a2a18686193","system_id":"levelo_inurba_marseille","lat":43.290103,"lon":5.356114,"is_reserved":false,"is_disabled":false,"rental_uris":{"android":"levelo://app?vid=91fbbc97-c37c-4919-957c-8a2a18686193","ios":"levelo://app?vid=91fbbc97-c37c-4919-957c-8a2a18686193"},"vehicle_type_id":"4","last_reported":1690916706,"current_range_meters":4000,"station_id":"ce4bhb92rcd13ifvqen0","pricing_plan_id":"free"},{"bike_id":"fe3f28fd-a931-49d9-ac15-494bd887bbc3","system_id":"levelo_inurba_marseille","lat":43.33048,"lon":5.38915,"is_reserved":false,"is_disabled":false,"rental_uris":{"android":"levelo://app?vid=fe3f28fd-a931-49d9-ac15-494bd887bbc3","ios":"levelo://app?vid=fe3f28fd-a931-49d9-ac15-494bd887bbc3"},"vehicle_type_id":"4","last_reported":1690916706,"current_range_meters":21200,"station_id":"ce4bhr92rcd13ifvqhrg","pricing_plan_id":"free"},{"bike_id":"04548617-1873-4c7d-8961-ffbb06c7a8b8","system_id":"levelo_inurba_marseille","lat":43.290104,"lon":5.356111,"is_reserved":false,"is_disabled":false,"rental_uris":{"android":"levelo://app?vid=04548617-1873-4c7d-8961-ffbb06c7a8b8","ios":"levelo://app?vid=04548617-1873-4c7d-8961-ffbb06c7a8b8"},"vehicle_type_id":"4","last_reported":1690916706,"current_range_meters":29600,"station_id":"ce4bhb92rcd13ifvqen0","pricing_plan_id":"free"},{"bike_id":"b3268740-327a-495c-8780-ce71f9253b23","system_id":"levelo_inurba_marseille","lat":43.290104,"lon":5.356111,"is_reserved":false,"is_disabled":false,"rental_uris":{"android":"levelo://app?vid=b3268740-327a-495c-8780-ce71f9253b23","ios":"levelo://app?vid=b3268740-327a-495c-8780-ce71f9253b23"},"vehicle_type_id":"4","last_reported":1690916706,"current_range_meters":11200,"station_id":"ce4bhb92rcd13ifvqen0","pricing_plan_id":"free"},{"bike_id":"558d0f48-be3a-43e8-960f-d2e952bd5366","system_id":"levelo_inurba_marseille","lat":43.290103,"lon":5.356114,"is_reserved":false,"is_disabled":false,"rental_uris":{"android":"levelo://app?vid=558d0f48-be3a-43e8-960f-d2e952bd5366","ios":"levelo://app?vid=558d0f48-be3a-43e8-960f-d2e952bd5366"},"vehicle_type_id":"4","last_reported":1690916706,"current_range_meters":3200,"station_id":"ce4bhb92rcd13ifvqen0","pricing_plan_id":"free"},{"bike_id":"c1d5513a-0359-491a-a969-390e8c0ce97a","system_id":"levelo_inurba_marseille","lat":43.290103,"lon":5.356114,"is_reserved":false,"is_disabled":false,"rental_uris":{"android":"levelo://app?vid=c1d5513a-0359-491a-a969-390e8c0ce97a","ios":"levelo://app?vid=c1d5513a-0359-491a-a969-390e8c0ce97a"},"vehicle_type_id":"4","last_reported":1690916706,"current_range_meters":27600,"station_id":"ce4bhb92rcd13ifvqen0","pricing_plan_id":"free"},{"bike_id":"134ef223-0af9-48f2-bbd1-4d84dd8cb35c","system_id":"levelo_inurba_marseille","lat":43.29002,"lon":5.35608,"is_reserved":false,"is_disabled":false,"rental_uris":{"android":"levelo://app?vid=134ef223-0af9-48f2-bbd1-4d84dd8cb35c","ios":"levelo://app?vid=134ef223-0af9-48f2-bbd1-4d84dd8cb35c"},"vehicle_type_id":"4","last_reported":1690916706,"current_range_meters":31200,"station_id":"ce4bhb92rcd13ifvqen0","pricing_plan_id":"free"},{"bike_id":"11e191a0-f76d-4577-a496-7d7211f5afce","system_id":"levelo_inurba_marseille","lat":43.29095,"lon":5.38116,"is_reserved":false,"is_disabled":false,"rental_uris":{"android":"levelo://app?vid=11e191a0-f76d-4577-a496-7d7211f5afce","ios":"levelo://app?vid=11e191a0-f76d-4577-a496-7d7211f5afce"},"vehicle_type_id":"4","last_reported":1690916706,"current_range_meters":20800,"station_id":"","pricing_plan_id":"free"},{"bike_id":"05bf2cc0-c80b-4d3b-9303-5cea93148e89","system_id":"levelo_inurba_marseille","lat":43.290995,"lon":5.381361,"is_reserved":false,"is_disabled":false,"rental_uris":{"android":"levelo://app?vid=05bf2cc0-c80b-4d3b-9303-5cea93148e89","ios":"levelo://app?vid=05bf2cc0-c80b-4d3b-9303-5cea93148e89"},"vehicle_type_id":"4","last_reported":1690916706,"current_range_meters":31200,"station_id":"ce4bh512rcd13ifvqe2g","pricing_plan_id":"free"},{"bike_id":"e0c00b2b-78f9-4bfa-a2ac-19e8adaa536b","system_id":"levelo_inurba_marseille","lat":43.295169,"lon":5.390426,"is_reserved":false,"is_disabled":false,"rental_uris":{"android":"levelo://app?vid=e0c00b2b-78f9-4bfa-a2ac-19e8adaa536b","ios":"levelo://app?vid=e0c00b2b-78f9-4bfa-a2ac-19e8adaa536b"},"vehicle_type_id":"4","last_reported":1690916706,"current_range_meters":24800,"station_id":"ce4bh3p2rcd13ifvqdp0","pricing_plan_id":"free"},{"bike_id":"7cb4e9b0-8d30-496c-8108-8c554877209c","system_id":"levelo_inurba_marseille","lat":43.295169,"lon":5.390426,"is_reserved":false,"is_disabled":false,"rental_uris":{"android":"levelo://app?vid=7cb4e9b0-8d30-496c-8108-8c554877209c","ios":"levelo://app?vid=7cb4e9b0-8d30-496c-8108-8c554877209c"},"vehicle_type_id":"4","last_reported":1690916706,"current_range_meters":5600,"station_id":"ce4bh3p2rcd13ifvqdp0","pricing_plan_id":"free"},{"bike_id":"11ac5435-f440-47de-96e7-51a1b245b6e5","system_id":"levelo_inurba_marseille","lat":43.295169,"lon":5.390426,"is_reserved":false,"is_disabled":false,"rental_uris":{"android":"levelo://app?vid=11ac5435-f440-47de-96e7-51a1b245b6e5","ios":"levelo://app?vid=11ac5435-f440-47de-96e7-51a1b245b6e5"},"vehicle_type_id":"4","last_reported":1690916706,"current_range_meters":8400,"station_id":"ce4bh3p2rcd13ifvqdp0","pricing_plan_id":"free"},{"bike_id":"199d1305-96e0-48a6-b444-08caf414d1c3","system_id":"levelo_inurba_marseille","lat":43.295169,"lon":5.390426,"is_reserved":false,"is_disabled":false,"rental_uris":{"android":"levelo://app?vid=199d1305-96e0-48a6-b444-08caf414d1c3","ios":"levelo://app?vid=199d1305-96e0-48a6-b444-08caf414d1c3"},"vehicle_type_id":"4","last_reported":1690916706,"current_range_meters":26800,"station_id":"ce4bh3p2rcd13ifvqdp0","pricing_plan_id":"free"},{"bike_id":"8deacbbf-9fa0-4849-babf-253767a452b5","system_id":"levelo_inurba_marseille","lat":43.295169,"lon":5.390426,"is_reserved":false,"is_disabled":false,"rental_uris":{"android":"levelo://app?vid=8deacbbf-9fa0-4849-babf-253767a452b5","ios":"levelo://app?vid=8deacbbf-9fa0-4849-babf-253767a452b5"},"vehicle_type_id":"4","last_reported":1690916706,"current_range_meters":14800,"station_id":"ce4bh3p2rcd13ifvqdp0","pricing_plan_id":"free"},{"bike_id":"36bc9255-d6f5-43e8-9261-bedbae7c8c21","system_id":"levelo_inurba_marseille","lat":43.33063,"lon":5.39019,"is_reserved":false,"is_disabled":false,"rental_uris":{"android":"levelo://app?vid=36bc9255-d6f5-43e8-9261-bedbae7c8c21","ios":"levelo://app?vid=36bc9255-d6f5-43e8-9261-bedbae7c8c21"},"vehicle_type_id":"4","last_reported":1690916706,"current_range_meters":31200,"station_id":"","pricing_plan_id":"free"},{"bike_id":"42d943e4-50e1-4969-9b78-f1a1585b71c1","system_id":"levelo_inurba_marseille","lat":43.28856,"lon":5.358371,"is_reserved":false,"is_disabled":false,"rental_uris":{"android":"levelo://app?vid=42d943e4-50e1-4969-9b78-f1a1585b71c1","ios":"levelo://app?vid=42d943e4-50e1-4969-9b78-f1a1585b71c1"},"vehicle_type_id":"4","last_reported":1690916706,"current_range_meters":31200,"station_id":"ce4bhb12rcd13ifvqem0","pricing_plan_id":"free"},{"bike_id":"8a42159e-fa9f-44d8-a245-1762079b14d5","system_id":"levelo_inurba_marseille","lat":43.28856,"lon":5.358371,"is_reserved":false,"is_disabled":false,"rental_uris":{"android":"levelo://app?vid=8a42159e-fa9f-44d8-a245-1762079b14d5","ios":"levelo://app?vid=8a42159e-fa9f-44d8-a245-1762079b14d5"},"vehicle_type_id":"4","last_reported":1690916706,"current_range_meters":27200,"station_id":"ce4bhb12rcd13ifvqem0","pricing_plan_id":"free"},{"bike_id":"e2282c5d-e5f4-4dbc-a8f0-d48cd06338d8","system_id":"levelo_inurba_marseille","lat":43.28856,"lon":5.358371,"is_reserved":false,"is_disabled":false,"rental_uris":{"android":"levelo://app?vid=e2282c5d-e5f4-4dbc-a8f0-d48cd06338d8","ios":"levelo://app?vid=e2282c5d-e5f4-4dbc-a8f0-d48cd06338d8"},"vehicle_type_id":"4","last_reported":1690916706,"current_range_meters":2800,"station_id":"ce4bhb12rcd13ifvqem0","pricing_plan_id":"free"},{"bike_id":"e6d65ca6-6588-4bc4-8f7d-7909b86ec574","system_id":"levelo_inurba_marseille","lat":43.28856,"lon":5.358371,"is_reserved":false,"is_disabled":false,"rental_uris":{"android":"levelo://app?vid=e6d65ca6-6588-4bc4-8f7d-7909b86ec574","ios":"levelo://app?vid=e6d65ca6-6588-4bc4-8f7d-7909b86ec574"},"vehicle_type_id":"4","last_reported":1690916706,"current_range_meters":1600,"station_id":"ce4bhb12rcd13ifvqem0","pricing_plan_id":"free"},{"bike_id":"a9aa8a9d-2231-4be8-9853-7d3ebf137c74","system_id":"levelo_inurba_marseille","lat":43.28856,"lon":5.358371,"is_reserved":false,"is_disabled":false,"rental_uris":{"android":"levelo://app?vid=a9aa8a9d-2231-4be8-9853-7d3ebf137c74","ios":"levelo://app?vid=a9aa8a9d-2231-4be8-9853-7d3ebf137c74"},"vehicle_type_id":"4","last_reported":1690916706,"current_range_meters":31200,"station_id":"ce4bhb12rcd13ifvqem0","pricing_plan_id":"free"},{"bike_id":"523ed2af-6065-437e-987d-3f765e5839a4","system_id":"levelo_inurba_marseille","lat":43.28856,"lon":5.358371,"is_reserved":false,"is_disabled":false,"rental_uris":{"android":"levelo://app?vid=523ed2af-6065-437e-987d-3f765e5839a4","ios":"levelo://app?vid=523ed2af-6065-437e-987d-3f765e5839a4"},"vehicle_type_id":"4","last_reported":1690916706,"current_range_meters":7600,"station_id":"ce4bhb12rcd13ifvqem0","pricing_plan_id":"free"},{"bike_id":"9dd89734-0a55-4a20-aa2b-85b7d52c3613","system_id":"levelo_inurba_marseille","lat":43.28856,"lon":5.358371,"is_reserved":false,"is_disabled":false,"rental_uris":{"android":"levelo://app?vid=9dd89734-0a55-4a20-aa2b-85b7d52c3613","ios":"levelo://app?vid=9dd89734-0a55-4a20-aa2b-85b7d52c3613"},"vehicle_type_id":"4","last_reported":1690916706,"current_range_meters":22000,"station_id":"ce4bhb12rcd13ifvqem0","pricing_plan_id":"free"},{"bike_id":"e5675c98-94a6-4218-b935-956473b920da","system_id":"levelo_inurba_marseille","lat":43.3127,"lon":5.40164,"is_reserved":false,"is_disabled":false,"rental_uris":{"android":"levelo://app?vid=e5675c98-94a6-4218-b935-956473b920da","ios":"levelo://app?vid=e5675c98-94a6-4218-b935-956473b920da"},"vehicle_type_id":"4","last_reported":1690916706,"current_range_meters":11600,"station_id":"ce4bh092rcd13ifvqd30","pricing_plan_id":"free"},{"bike_id":"9f2db113-bee8-4f6a-abc2-542883ff6f55","system_id":"levelo_inurba_marseille","lat":43.30932,"lon":5.4014,"is_reserved":false,"is_disabled":false,"rental_uris":{"android":"levelo://app?vid=9f2db113-bee8-4f6a-abc2-542883ff6f55","ios":"levelo://app?vid=9f2db113-bee8-4f6a-abc2-542883ff6f55"},"vehicle_type_id":"4","last_reported":1690916706,"current_range_meters":4800,"station_id":"ce4bgvp2rcd13ifvqct0","pricing_plan_id":"free"},{"bike_id":"2b270562-b1c4-4da2-a970-248854c250e4","system_id":"levelo_inurba_marseille","lat":43.30935,"lon":5.40144,"is_reserved":false,"is_disabled":false,"rental_uris":{"android":"levelo://app?vid=2b270562-b1c4-4da2-a970-248854c250e4","ios":"levelo://app?vid=2b270562-b1c4-4da2-a970-248854c250e4"},"vehicle_type_id":"4","last_reported":1690916706,"current_range_meters":0,"station_id":"ce4bgvp2rcd13ifvqct0","pricing_plan_id":"free"},{"bike_id":"b32c6926-97c8-46aa-8bc1-8f13244e8bf6","system_id":"levelo_inurba_marseille","lat":43.30933,"lon":5.40145,"is_reserved":false,"is_disabled":false,"rental_uris":{"android":"levelo://app?vid=b32c6926-97c8-46aa-8bc1-8f13244e8bf6","ios":"levelo://app?vid=b32c6926-97c8-46aa-8bc1-8f13244e8bf6"},"vehicle_type_id":"4","last_reported":1690916706,"current_range_meters":20400,"station_id":"ce4bgvp2rcd13ifvqct0","pricing_plan_id":"free"},{"bike_id":"891cd5c7-f25f-49ac-aa52-ca30aa1cd69a","system_id":"levelo_inurba_marseille","lat":43.309371,"lon":5.401449,"is_reserved":false,"is_disabled":false,"rental_uris":{"android":"levelo://app?vid=891cd5c7-f25f-49ac-aa52-ca30aa1cd69a","ios":"levelo://app?vid=891cd5c7-f25f-49ac-aa52-ca30aa1cd69a"},"vehicle_type_id":"4","last_reported":1690916706,"current_range_meters":8000,"station_id":"ce4bgvp2rcd13ifvqct0","pricing_plan_id":"free"},{"bike_id":"3346e0d1-bb41-49be-a285-3b0753e65ce1","system_id":"levelo_inurba_marseille","lat":43.286593,"lon":5.363346,"is_reserved":false,"is_disabled":false,"rental_uris":{"android":"levelo://app?vid=3346e0d1-bb41-49be-a285-3b0753e65ce1","ios":"levelo://app?vid=3346e0d1-bb41-49be-a285-3b0753e65ce1"},"vehicle_type_id":"4","last_reported":1690916706,"current_range_meters":26400,"station_id":"ce4bhah2rcd13ifvqej0","pricing_plan_id":"free"},{"bike_id":"92e22658-0002-4c52-8303-288b18781c05","system_id":"levelo_inurba_marseille","lat":43.30642,"lon":5.401031,"is_reserved":false,"is_disabled":false,"rental_uris":{"android":"levelo://app?vid=92e22658-0002-4c52-8303-288b18781c05","ios":"levelo://app?vid=92e22658-0002-4c52-8303-288b18781c05"},"vehicle_type_id":"4","last_reported":1690916706,"current_range_meters":28400,"station_id":"ce4bh112rcd13ifvqda0","pricing_plan_id":"free"},{"bike_id":"9505b15c-3c63-482c-82ea-d8cefbf7e8e3","system_id":"levelo_inurba_marseille","lat":43.301117,"lon":5.398795,"is_reserved":false,"is_disabled":false,"rental_uris":{"android":"levelo://app?vid=9505b15c-3c63-482c-82ea-d8cefbf7e8e3","ios":"levelo://app?vid=9505b15c-3c63-482c-82ea-d8cefbf7e8e3"},"vehicle_type_id":"4","last_reported":1690916706,"current_range_meters":0,"station_id":"ce4bh0h2rcd13ifvqd40","pricing_plan_id":"free"},{"bike_id":"9952ebf4-f9d0-4f3c-904c-96f48f835a6b","system_id":"levelo_inurba_marseille","lat":43.301117,"lon":5.398795,"is_reserved":false,"is_disabled":false,"rental_uris":{"android":"levelo://app?vid=9952ebf4-f9d0-4f3c-904c-96f48f835a6b","ios":"levelo://app?vid=9952ebf4-f9d0-4f3c-904c-96f48f835a6b"},"vehicle_type_id":"4","last_reported":1690916706,"current_range_meters":0,"station_id":"ce4bh0h2rcd13ifvqd40","pricing_plan_id":"free"},{"bike_id":"8fe2f7d1-4e4a-4f90-8872-c161c5d06247","system_id":"levelo_inurba_marseille","lat":43.30133,"lon":5.39862,"is_reserved":false,"is_disabled":false,"rental_uris":{"android":"levelo://app?vid=8fe2f7d1-4e4a-4f90-8872-c161c5d06247","ios":"levelo://app?vid=8fe2f7d1-4e4a-4f90-8872-c161c5d06247"},"vehicle_type_id":"4","last_reported":1690916706,"current_range_meters":26800,"station_id":"","pricing_plan_id":"free"},{"bike_id":"f8ad9c42-677b-4b37-a856-ddd157cf97c5","system_id":"levelo_inurba_marseille","lat":43.28674,"lon":5.36354,"is_reserved":false,"is_disabled":false,"rental_uris":{"android":"levelo://app?vid=f8ad9c42-677b-4b37-a856-ddd157cf97c5","ios":"levelo://app?vid=f8ad9c42-677b-4b37-a856-ddd157cf97c5"},"vehicle_type_id":"4","last_reported":1690916706,"current_range_meters":28000,"station_id":"ce4bhah2rcd13ifvqej0","pricing_plan_id":"free"},{"bike_id":"05e077c5-1539-4905-8f7b-2e76048c951d","system_id":"levelo_inurba_marseille","lat":43.298681,"lon":5.397225,"is_reserved":false,"is_disabled":false,"rental_uris":{"android":"levelo://app?vid=05e077c5-1539-4905-8f7b-2e76048c951d","ios":"levelo://app?vid=05e077c5-1539-4905-8f7b-2e76048c951d"},"vehicle_type_id":"4","last_reported":1690916706,"current_range_meters":4400,"station_id":"ce4bh0h2rcd13ifvqd50","pricing_plan_id":"free"},{"bike_id":"55806de1-00d6-484c-9674-da31ba767322","system_id":"levelo_inurba_marseille","lat":43.298681,"lon":5.397225,"is_reserved":false,"is_disabled":false,"rental_uris":{"android":"levelo://app?vid=55806de1-00d6-484c-9674-da31ba767322","ios":"levelo://app?vid=55806de1-00d6-484c-9674-da31ba767322"},"vehicle_type_id":"4","last_reported":1690916706,"current_range_meters":5600,"station_id":"ce4bh0h2rcd13ifvqd50","pricing_plan_id":"free"},{"bike_id":"1f0b0db1-9676-4c9a-913a-ce772e7b9299","system_id":"levelo_inurba_marseille","lat":43.286961,"lon":5.373785,"is_reserved":false,"is_disabled":false,"rental_uris":{"android":"levelo://app?vid=1f0b0db1-9676-4c9a-913a-ce772e7b9299","ios":"levelo://app?vid=1f0b0db1-9676-4c9a-913a-ce772e7b9299"},"vehicle_type_id":"4","last_reported":1690916706,"current_range_meters":800,"station_id":"ce4bh3p2rcd13ifvqdq0","pricing_plan_id":"free"},{"bike_id":"75199276-b705-4ad7-b6a9-49aeaa84628a","system_id":"levelo_inurba_marseille","lat":43.286593,"lon":5.363346,"is_reserved":false,"is_disabled":false,"rental_uris":{"android":"levelo://app?vid=75199276-b705-4ad7-b6a9-49aeaa84628a","ios":"levelo://app?vid=75199276-b705-4ad7-b6a9-49aeaa84628a"},"vehicle_type_id":"4","last_reported":1690916706,"current_range_meters":31200,"station_id":"ce4bhah2rcd13ifvqej0","pricing_plan_id":"free"},{"bike_id":"2d41a518-8968-45e0-85fb-ea6309c5f40a","system_id":"levelo_inurba_marseille","lat":43.298681,"lon":5.397225,"is_reserved":false,"is_disabled":false,"rental_uris":{"android":"levelo://app?vid=2d41a518-8968-45e0-85fb-ea6309c5f40a","ios":"levelo://app?vid=2d41a518-8968-45e0-85fb-ea6309c5f40a"},"vehicle_type_id":"4","last_reported":1690916706,"current_range_meters":14800,"station_id":"ce4bh0h2rcd13ifvqd50","pricing_plan_id":"free"},{"bike_id":"92278350-6189-4203-84eb-d12d41f3383d","system_id":"levelo_inurba_marseille","lat":43.29875,"lon":5.39731,"is_reserved":false,"is_disabled":false,"rental_uris":{"android":"levelo://app?vid=92278350-6189-4203-84eb-d12d41f3383d","ios":"levelo://app?vid=92278350-6189-4203-84eb-d12d41f3383d"},"vehicle_type_id":"4","last_reported":1690916706,"current_range_meters":14800,"station_id":"ce4bh0h2rcd13ifvqd50","pricing_plan_id":"free"},{"bike_id":"7137bd97-c7aa-480b-8370-1a9633577be1","system_id":"levelo_inurba_marseille","lat":43.286591,"lon":5.363346,"is_reserved":false,"is_disabled":false,"rental_uris":{"android":"levelo://app?vid=7137bd97-c7aa-480b-8370-1a9633577be1","ios":"levelo://app?vid=7137bd97-c7aa-480b-8370-1a9633577be1"},"vehicle_type_id":"4","last_reported":1690916706,"current_range_meters":5600,"station_id":"ce4bhah2rcd13ifvqej0","pricing_plan_id":"free"},{"bike_id":"c873512e-fb04-4741-995d-231d89d2e0ed","system_id":"levelo_inurba_marseille","lat":43.298681,"lon":5.397225,"is_reserved":false,"is_disabled":false,"rental_uris":{"android":"levelo://app?vid=c873512e-fb04-4741-995d-231d89d2e0ed","ios":"levelo://app?vid=c873512e-fb04-4741-995d-231d89d2e0ed"},"vehicle_type_id":"4","last_reported":1690916706,"current_range_meters":4800,"station_id":"ce4bh0h2rcd13ifvqd50","pricing_plan_id":"free"},{"bike_id":"91d5c5cf-bf1b-4b50-ab2e-9ba6abeda511","system_id":"levelo_inurba_marseille","lat":43.29873,"lon":5.39735,"is_reserved":false,"is_disabled":false,"rental_uris":{"android":"levelo://app?vid=91d5c5cf-bf1b-4b50-ab2e-9ba6abeda511","ios":"levelo://app?vid=91d5c5cf-bf1b-4b50-ab2e-9ba6abeda511"},"vehicle_type_id":"4","last_reported":1690916706,"current_range_meters":15200,"station_id":"ce4bh0h2rcd13ifvqd50","pricing_plan_id":"free"},{"bike_id":"b33694ff-2fc1-42db-b454-403f84989408","system_id":"levelo_inurba_marseille","lat":43.29867,"lon":5.39731,"is_reserved":false,"is_disabled":false,"rental_uris":{"android":"levelo://app?vid=b33694ff-2fc1-42db-b454-403f84989408","ios":"levelo://app?vid=b33694ff-2fc1-42db-b454-403f84989408"},"vehicle_type_id":"4","last_reported":1690916706,"current_range_meters":10000,"station_id":"ce4bh0h2rcd13ifvqd50","pricing_plan_id":"free"},{"bike_id":"11fb0241-ec66-4ee2-aed3-cc4095753c29","system_id":"levelo_inurba_marseille","lat":43.286961,"lon":5.373785,"is_reserved":false,"is_disabled":false,"rental_uris":{"android":"levelo://app?vid=11fb0241-ec66-4ee2-aed3-cc4095753c29","ios":"levelo://app?vid=11fb0241-ec66-4ee2-aed3-cc4095753c29"},"vehicle_type_id":"4","last_reported":1690916706,"current_range_meters":19600,"station_id":"ce4bh3p2rcd13ifvqdq0","pricing_plan_id":"free"},{"bike_id":"de7577a4-c996-4d98-8ec0-5b14909b71f7","system_id":"levelo_inurba_marseille","lat":43.28664,"lon":5.36352,"is_reserved":false,"is_disabled":false,"rental_uris":{"android":"levelo://app?vid=de7577a4-c996-4d98-8ec0-5b14909b71f7","ios":"levelo://app?vid=de7577a4-c996-4d98-8ec0-5b14909b71f7"},"vehicle_type_id":"4","last_reported":1690916706,"current_range_meters":4800,"station_id":"ce4bhah2rcd13ifvqej0","pricing_plan_id":"free"},{"bike_id":"c3908571-6e6b-4722-a28f-8ba8426562bc","system_id":"levelo_inurba_marseille","lat":43.298681,"lon":5.397225,"is_reserved":false,"is_disabled":false,"rental_uris":{"android":"levelo://app?vid=c3908571-6e6b-4722-a28f-8ba8426562bc","ios":"levelo://app?vid=c3908571-6e6b-4722-a28f-8ba8426562bc"},"vehicle_type_id":"4","last_reported":1690916706,"current_range_meters":20800,"station_id":"ce4bh0h2rcd13ifvqd50","pricing_plan_id":"free"},{"bike_id":"07552622-e2ae-4e19-9233-b1d31af69a37","system_id":"levelo_inurba_marseille","lat":43.29527,"lon":5.39385,"is_reserved":false,"is_disabled":false,"rental_uris":{"android":"levelo://app?vid=07552622-e2ae-4e19-9233-b1d31af69a37","ios":"levelo://app?vid=07552622-e2ae-4e19-9233-b1d31af69a37"},"vehicle_type_id":"4","last_reported":1690916706,"current_range_meters":2400,"station_id":"ce4bh292rcd13ifvqdf0","pricing_plan_id":"free"},{"bike_id":"6bb06b73-7948-4b5d-8f3c-b1b9da0d8684","system_id":"levelo_inurba_marseille","lat":43.295196,"lon":5.39397,"is_reserved":false,"is_disabled":false,"rental_uris":{"android":"levelo://app?vid=6bb06b73-7948-4b5d-8f3c-b1b9da0d8684","ios":"levelo://app?vid=6bb06b73-7948-4b5d-8f3c-b1b9da0d8684"},"vehicle_type_id":"4","last_reported":1690916706,"current_range_meters":12400,"station_id":"ce4bh292rcd13ifvqdf0","pricing_plan_id":"free"},{"bike_id":"14737212-8d99-484e-9f14-59f22a3be48a","system_id":"levelo_inurba_marseille","lat":43.295196,"lon":5.39397,"is_reserved":false,"is_disabled":false,"rental_uris":{"android":"levelo://app?vid=14737212-8d99-484e-9f14-59f22a3be48a","ios":"levelo://app?vid=14737212-8d99-484e-9f14-59f22a3be48a"},"vehicle_type_id":"4","last_reported":1690916706,"current_range_meters":32000,"station_id":"ce4bh292rcd13ifvqdf0","pricing_plan_id":"free"},{"bike_id":"4dd60052-0b8b-44ef-ac59-8260a4e1634e","system_id":"levelo_inurba_marseille","lat":43.295196,"lon":5.39397,"is_reserved":false,"is_disabled":false,"rental_uris":{"android":"levelo://app?vid=4dd60052-0b8b-44ef-ac59-8260a4e1634e","ios":"levelo://app?vid=4dd60052-0b8b-44ef-ac59-8260a4e1634e"},"vehicle_type_id":"4","last_reported":1690916706,"current_range_meters":28400,"station_id":"ce4bh292rcd13ifvqdf0","pricing_plan_id":"free"},{"bike_id":"009df3dd-af03-4fbe-a7af-cdad37587ac5","system_id":"levelo_inurba_marseille","lat":43.295196,"lon":5.39397,"is_reserved":false,"is_disabled":false,"rental_uris":{"android":"levelo://app?vid=009df3dd-af03-4fbe-a7af-cdad37587ac5","ios":"levelo://app?vid=009df3dd-af03-4fbe-a7af-cdad37587ac5"},"vehicle_type_id":"4","last_reported":1690916706,"current_range_meters":25200,"station_id":"ce4bh292rcd13ifvqdf0","pricing_plan_id":"free"},{"bike_id":"8f3baf4a-3b08-44de-9767-93db2e9e252a","system_id":"levelo_inurba_marseille","lat":43.295196,"lon":5.39397,"is_reserved":false,"is_disabled":false,"rental_uris":{"android":"levelo://app?vid=8f3baf4a-3b08-44de-9767-93db2e9e252a","ios":"levelo://app?vid=8f3baf4a-3b08-44de-9767-93db2e9e252a"},"vehicle_type_id":"4","last_reported":1690916706,"current_range_meters":0,"station_id":"ce4bh292rcd13ifvqdf0","pricing_plan_id":"free"},{"bike_id":"a14bc6e5-5374-47c6-9cbd-ed21c00ed08d","system_id":"levelo_inurba_marseille","lat":43.295196,"lon":5.39397,"is_reserved":false,"is_disabled":false,"rental_uris":{"android":"levelo://app?vid=a14bc6e5-5374-47c6-9cbd-ed21c00ed08d","ios":"levelo://app?vid=a14bc6e5-5374-47c6-9cbd-ed21c00ed08d"},"vehicle_type_id":"4","last_reported":1690916706,"current_range_meters":31600,"station_id":"ce4bh292rcd13ifvqdf0","pricing_plan_id":"free"},{"bike_id":"44872186-79ce-47da-860a-382b6cd2ed95","system_id":"levelo_inurba_marseille","lat":43.29523,"lon":5.39407,"is_reserved":false,"is_disabled":false,"rental_uris":{"android":"levelo://app?vid=44872186-79ce-47da-860a-382b6cd2ed95","ios":"levelo://app?vid=44872186-79ce-47da-860a-382b6cd2ed95"},"vehicle_type_id":"4","last_reported":1690916706,"current_range_meters":6400,"station_id":"ce4bh292rcd13ifvqdf0","pricing_plan_id":"free"},{"bike_id":"6ef6dfa0-81e0-44f6-a067-1fed3651b2ed","system_id":"levelo_inurba_marseille","lat":43.290345,"lon":5.38646,"is_reserved":false,"is_disabled":false,"rental_uris":{"android":"levelo://app?vid=6ef6dfa0-81e0-44f6-a067-1fed3651b2ed","ios":"levelo://app?vid=6ef6dfa0-81e0-44f6-a067-1fed3651b2ed"},"vehicle_type_id":"4","last_reported":1690916706,"current_range_meters":8000,"station_id":"ce4bh4p2rcd13ifvqe0g","pricing_plan_id":"free"},{"bike_id":"b2bfc144-7b0a-427e-8847-2cbef7e9f9a1","system_id":"levelo_inurba_marseille","lat":43.302759,"lon":5.400793,"is_reserved":false,"is_disabled":false,"rental_uris":{"android":"levelo://app?vid=b2bfc144-7b0a-427e-8847-2cbef7e9f9a1","ios":"levelo://app?vid=b2bfc144-7b0a-427e-8847-2cbef7e9f9a1"},"vehicle_type_id":"4","last_reported":1690916706,"current_range_meters":29200,"station_id":"ce4bgvh2rcd13ifvqcs0","pricing_plan_id":"free"},{"bike_id":"4fa85018-e02b-43b5-bece-09ae22b272fa","system_id":"levelo_inurba_marseille","lat":43.302759,"lon":5.400793,"is_reserved":false,"is_disabled":false,"rental_uris":{"android":"levelo://app?vid=4fa85018-e02b-43b5-bece-09ae22b272fa","ios":"levelo://app?vid=4fa85018-e02b-43b5-bece-09ae22b272fa"},"vehicle_type_id":"4","last_reported":1690916706,"current_range_meters":11200,"station_id":"ce4bgvh2rcd13ifvqcs0","pricing_plan_id":"free"},{"bike_id":"8a7ab968-8b22-4ea4-b015-55d812fecafd","system_id":"levelo_inurba_marseille","lat":43.286039,"lon":5.370679,"is_reserved":false,"is_disabled":false,"rental_uris":{"android":"levelo://app?vid=8a7ab968-8b22-4ea4-b015-55d812fecafd","ios":"levelo://app?vid=8a7ab968-8b22-4ea4-b015-55d812fecafd"},"vehicle_type_id":"4","last_reported":1690916706,"current_range_meters":31200,"station_id":"ce4bht12rcd13ifvqi60","pricing_plan_id":"free"},{"bike_id":"571723d1-5323-4958-b5ec-9ac3555e0cd6","system_id":"levelo_inurba_marseille","lat":43.286039,"lon":5.370679,"is_reserved":false,"is_disabled":false,"rental_uris":{"android":"levelo://app?vid=571723d1-5323-4958-b5ec-9ac3555e0cd6","ios":"levelo://app?vid=571723d1-5323-4958-b5ec-9ac3555e0cd6"},"vehicle_type_id":"4","last_reported":1690916706,"current_range_meters":17600,"station_id":"ce4bht12rcd13ifvqi60","pricing_plan_id":"free"},{"bike_id":"a24908eb-c1b0-4b80-b43f-efe797698e35","system_id":"levelo_inurba_marseille","lat":43.287184,"lon":5.37937,"is_reserved":false,"is_disabled":false,"rental_uris":{"android":"levelo://app?vid=a24908eb-c1b0-4b80-b43f-efe797698e35","ios":"levelo://app?vid=a24908eb-c1b0-4b80-b43f-efe797698e35"},"vehicle_type_id":"4","last_reported":1690916706,"current_range_meters":0,"station_id":"ce4bh9p2rcd13ifvqec0","pricing_plan_id":"free"},{"bike_id":"a424fe54-3a06-41b7-b60c-a2e679ef6c51","system_id":"levelo_inurba_marseille","lat":43.287185,"lon":5.379373,"is_reserved":false,"is_disabled":false,"rental_uris":{"android":"levelo://app?vid=a424fe54-3a06-41b7-b60c-a2e679ef6c51","ios":"levelo://app?vid=a424fe54-3a06-41b7-b60c-a2e679ef6c51"},