{"last_updated":1767345303,"ttl":60,"version":"2.2","data":{"bikes":[{"bike_id":"09d0d057-6c41-4c64-b181-cc640227b444","system_id":"levelo_inurba_marseille","lat":43.32003,"lon":5.38153,"is_reserved":false,"is_disabled":false,"rental_uris":{"android":"levelo://app?vid=09d0d057-6c41-4c64-b181-cc640227b444","ios":"levelo://app?vid=09d0d057-6c41-4c64-b181-cc640227b444"},"vehicle_type_id":"4","last_reported":1767345304,"current_range_meters":2800,"station_id":"ce4bhr12rcd13ifvqhpg","pricing_plan_id":"cebpf4jnsgd1na2vs0mg"},{"bike_id":"b77c0047-9964-464c-998b-476fe05f1f50","system_id":"levelo_inurba_marseille","lat":43.284856,"lon":5.384153,"is_reserved":false,"is_disabled":false,"rental_uris":{"android":"levelo://app?vid=b77c0047-9964-464c-998b-476fe05f1f50","ios":"levelo://app?vid=b77c0047-9964-464c-998b-476fe05f1f50"},"vehicle_type_id":"4","last_reported":1767345304,"current_range_meters":2800,"station_id":"ce4bh512rcd13ifvqe3g","pricing_plan_id":"cebpf4jnsgd1na2vs0mg"},{"bike_id":"a02fb672-5bdf-46c8-9fc1-e8fcbc8dc4d2","system_id":"levelo_inurba_marseille","lat":43.30296,"lon":5.38641,"is_reserved":false,"is_disabled":false,"rental_uris":{"android":"levelo://app?vid=a02fb672-5bdf-46c8-9fc1-e8fcbc8dc4d2","ios":"levelo://app?vid=a02fb672-5bdf-46c8-9fc1-e8fcbc8dc4d2"},"vehicle_type_id":"4","last_reported":1767345304,"current_range_meters":2800,"station_id":"","pricing_plan_id":"cebpf4jnsgd1na2vs0mg"},{"bike_id":"a3c4293b-86ee-4818-8897-fd2a17481700","system_id":"levelo_inurba_marseille","lat":43.23656,"lon":5.36758,"is_reserved":false,"is_disabled":false,"rental_uris":{"android":"levelo://app?vid=a3c4293b-86ee-4818-8897-fd2a17481700","ios":"levelo://app?vid=a3c4293b-86ee-4818-8897-fd2a17481700"},"vehicle_type_id":"4","last_reported":1767345304,"current_range_meters":2800,"station_id":"","pricing_plan_id":"cebpf4jnsgd1na2vs0mg"},{"bike_id":"9b31c737-9919-4753-902d-88d0177986b8","system_id":"levelo_inurba_marseille","lat":43.28866,"lon":5.42513,"is_reserved":false,"is_disabled":false,"rental_uris":{"android":"levelo://app?vid=9b31c737-9919-4753-902d-88d0177986b8","ios":"levelo://app?vid=9b31c737-9919-4753-902d-88d0177986b8"},"vehicle_type_id":"4","last_reported":1767345304,"current_range_meters":2800,"station_id":"st_d3b462108ojc7389ooeg","pricing_plan_id":"cebpf4jnsgd1na2vs0mg"},{"bike_id":"be8ffce0-92be-4864-a534-c85c9ae0632c","system_id":"levelo_inurba_marseille","lat":43.26211,"lon":5.37464,"is_reserved":false,"is_disabled":false,"rental_uris":{"android":"levelo://app?vid=be8ffce0-92be-4864-a534-c85c9ae0632c","ios":"levelo://app?vid=be8ffce0-92be-4864-a534-c85c9ae0632c"},"vehicle_type_id":"4","last_reported":1767345304,"current_range_meters":2800,"station_id":"ce4bhgp2rcd13ifvqfc0","pricing_plan_id":"cebpf4jnsgd1na2vs0mg"},{"bike_id":"3e3f7bbb-d8be-4283-a158-c83a5251eb44","system_id":"levelo_inurba_marseille","lat":43.24397,"lon":5.37075,"is_reserved":false,"is_disabled":false,"rental_uris":{"android":"levelo://app?vid=3e3f7bbb-d8be-4283-a158-c83a5251eb44","ios":"levelo://app?vid=3e3f7bbb-d8be-4283-a158-c83a5251eb44"},"vehicle_type_id":"4","last_reported":1767345304,"current_range_meters":2800,"station_id":"ce4bhhh2rcd13ifvqfk0","pricing_plan_id":"cebpf4jnsgd1na2vs0mg"},{"bike_id":"6c5a0f93-b4f0-4709-9bde-46b446fc69f4","system_id":"levelo_inurba_marseille","lat":43.22562,"lon":5.41656,"is_reserved":false,"is_disabled":false,"rental_uris":{"android":"levelo://app?vid=6c5a0f93-b4f0-4709-9bde-46b446fc69f4","ios":"levelo://app?vid=6c5a0f93-b4f0-4709-9bde-46b446fc69f4"},"vehicle_type_id":"4","last_reported":1767345304,"current_range_meters":3200,"station_id":"st_d2o4gvlbi1j2169b742g","pricing_plan_id":"cebpf4jnsgd1na2vs0mg"},{"bike_id":"0c66d9fd-6c34-4a2b-97b7-03d2a909c171","system_id":"levelo_inurba_marseille","lat":43.29492,"lon":5.37407,"is_reserved":false,"is_disabled":false,"rental_uris":{"android":"levelo://app?vid=0c66d9fd-6c34-4a2b-97b7-03d2a909c171","ios":"levelo://app?vid=0c66d9fd-6c34-4a2b-97b7-03d2a909c171"},"vehicle_type_id":"4","last_reported":1767345304,"current_range_meters":3200,"station_id":"","pricing_plan_id":"cebpf4jnsgd1na2vs0mg"},{"bike_id":"9e1c64d3-e7b9-49f4-8f17-a4e4b7f40d5a","system_id":"levelo_inurba_marseille","lat":43.24649,"lon":5.38888,"is_reserved":false,"is_disabled":false,"rental_uris":{"android":"levelo://app?vid=9e1c64d3-e7b9-49f4-8f17-a4e4b7f40d5a","ios":"levelo://app?vid=9e1c64d3-e7b9-49f4-8f17-a4e4b7f40d5a"},"vehicle_type_id":"4","last_reported":1767345304,"current_range_meters":3200,"station_id":"ce4bhg12rcd13ifvqf60","pricing_plan_id":"cebpf4jnsgd1na2vs0mg"},{"bike_id":"1e979309-d823-4aaf-b851-f1be8461cefe","system_id":"levelo_inurba_marseille","lat":43.28474,"lon":5.48415,"is_reserved":false,"is_disabled":false,"rental_uris":{"android":"levelo://app?vid=1e979309-d823-4aaf-b851-f1be8461cefe","ios":"levelo://app?vid=1e979309-d823-4aaf-b851-f1be8461cefe"},"vehicle_type_id":"4","last_reported":1767345304,"current_range_meters":3200,"station_id":"","pricing_plan_id":"cebpf4jnsgd1na2vs0mg"},{"bike_id":"43464ac5-5123-4584-a572-085a071fa175","system_id":"levelo_inurba_marseille","lat":43.32397,"lon":5.40426,"is_reserved":false,"is_disabled":false,"rental_uris":{"android":"levelo://app?vid=43464ac5-5123-4584-a572-085a071fa175","ios":"levelo://app?vid=43464ac5-5123-4584-a572-085a071fa175"},"vehicle_type_id":"4","last_reported":1767345304,"current_range_meters":3200,"station_id":"","pricing_plan_id":"cebpf4jnsgd1na2vs0mg"},{"bike_id":"ae16ff2f-039d-4cdf-a936-aa3dd9f21d44","system_id":"levelo_inurba_marseille","lat":43.270546,"lon":5.383006,"is_reserved":false,"is_disabled":false,"rental_uris":{"android":"levelo://app?vid=ae16ff2f-039d-4cdf-a936-aa3dd9f21d44","ios":"levelo://app?vid=ae16ff2f-039d-4cdf-a936-aa3dd9f21d44"},"vehicle_type_id":"4","last_reported":1767345304,"current_range_meters":3600,"station_id":"st_d3n2fo6cfp8s73cte1j0","pricing_plan_id":"cebpf4jnsgd1na2vs0mg"},{"bike_id":"409af472-b6df-44d0-867f-ae2c60de00e4","system_id":"levelo_inurba_marseille","lat":43.2871,"lon":5.38692,"is_reserved":false,"is_disabled":false,"rental_uris":{"android":"levelo://app?vid=409af472-b6df-44d0-867f-ae2c60de00e4","ios":"levelo://app?vid=409af472-b6df-44d0-867f-ae2c60de00e4"},"vehicle_type_id":"4","last_reported":1767345304,"current_range_meters":3600,"station_id":"","pricing_plan_id":"cebpf4jnsgd1na2vs0mg"},{"bike_id":"09994b4f-3e67-40bb-adb2-42adf4242b84","system_id":"levelo_inurba_marseille","lat":43.26201,"lon":5.37449,"is_reserved":false,"is_disabled":false,"rental_uris":{"android":"levelo://app?vid=09994b4f-3e67-40bb-adb2-42adf4242b84","ios":"levelo://app?vid=09994b4f-3e67-40bb-adb2-42adf4242b84"},"vehicle_type_id":"4","last_reported":1767345304,"current_range_meters":3600,"station_id":"ce4bhgp2rcd13ifvqfc0","pricing_plan_id":"cebpf4jnsgd1na2vs0mg"},{"bike_id":"25f3b82f-06ca-4f8f-a005-18bf90572843","system_id":"levelo_inurba_marseille","lat":43.301872,"lon":5.366166,"is_reserved":false,"is_disabled":false,"rental_uris":{"android":"levelo://app?vid=25f3b82f-06ca-4f8f-a005-18bf90572843","ios":"levelo://app?vid=25f3b82f-06ca-4f8f-a005-18bf90572843"},"vehicle_type_id":"4","last_reported":1767345304,"current_range_meters":3600,"station_id":"ce4bgrh2rcd13ifvqc8g","pricing_plan_id":"cebpf4jnsgd1na2vs0mg"},{"bike_id":"4372a42a-b334-4e8f-9141-9b6d15dd3e03","system_id":"levelo_inurba_marseille","lat":43.28482,"lon":5.483867,"is_reserved":false,"is_disabled":false,"rental_uris":{"android":"levelo://app?vid=4372a42a-b334-4e8f-9141-9b6d15dd3e03","ios":"levelo://app?vid=4372a42a-b334-4e8f-9141-9b6d15dd3e03"},"vehicle_type_id":"4","last_reported":1767345304,"current_range_meters":3600,"station_id":"st_d3svhcjqgbts73a3dn0g","pricing_plan_id":"cebpf4jnsgd1na2vs0mg"},{"bike_id":"2e432000-19e4-474b-acb8-4742408d8ecf","system_id":"levelo_inurba_marseille","lat":43.29625,"lon":5.37981,"is_reserved":false,"is_disabled":false,"rental_uris":{"android":"levelo://app?vid=2e432000-19e4-474b-acb8-4742408d8ecf","ios":"levelo://app?vid=2e432000-19e4-474b-acb8-4742408d8ecf"},"vehicle_type_id":"4","last_reported":1767345304,"current_range_meters":3600,"station_id":"","pricing_plan_id":"cebpf4jnsgd1na2vs0mg"},{"bike_id":"83a5ad5a-fe84-4c67-bbe0-e18050e1f9a3","system_id":"levelo_inurba_marseille","lat":43.27671,"lon":5.38939,"is_reserved":false,"is_disabled":false,"rental_uris":{"android":"levelo://app?vid=83a5ad5a-fe84-4c67-bbe0-e18050e1f9a3","ios":"levelo://app?vid=83a5ad5a-fe84-4c67-bbe0-e18050e1f9a3"},"vehicle_type_id":"4","last_reported":1767345304,"current_range_meters":3600,"station_id":"ce4bhi12rcd13ifvqfo0","pricing_plan_id":"cebpf4jnsgd1na2vs0mg"},{"bike_id":"cee46e39-3687-4fee-9a5f-ffb17c75dbd2","system_id":"levelo_inurba_marseille","lat":43.266826,"lon":5.382743,"is_reserved":false,"is_disabled":false,"rental_uris":{"android":"levelo://app?vid=cee46e39-3687-4fee-9a5f-ffb17c75dbd2","ios":"levelo://app?vid=cee46e39-3687-4fee-9a5f-ffb17c75dbd2"},"vehicle_type_id":"4","last_reported":1767345304,"current_range_meters":3600,"station_id":"ce4bhg92rcd13ifvqf90","pricing_plan_id":"cebpf4jnsgd1na2vs0mg"},{"bike_id":"96d51d79-4ce2-4999-bfed-c948fb07d14c","system_id":"levelo_inurba_marseille","lat":43.258281,"lon":5.394464,"is_reserved":false,"is_disabled":false,"rental_uris":{"android":"levelo://app?vid=96d51d79-4ce2-4999-bfed-c948fb07d14c","ios":"levelo://app?vid=96d51d79-4ce2-4999-bfed-c948fb07d14c"},"vehicle_type_id":"4","last_reported":1767345304,"current_range_meters":3600,"station_id":"ce4bhip2rcd13ifvqft0","pricing_plan_id":"cebpf4jnsgd1na2vs0mg"},{"bike_id":"f297e1d0-d6d1-470d-832a-7cfd1d704b5f","system_id":"levelo_inurba_marseille","lat":43.269475,"lon":5.392991,"is_reserved":false,"is_disabled":false,"rental_uris":{"android":"levelo://app?vid=f297e1d0-d6d1-470d-832a-7cfd1d704b5f","ios":"levelo://app?vid=f297e1d0-d6d1-470d-832a-7cfd1d704b5f"},"vehicle_type_id":"4","last_reported":1767345304,"current_range_meters":3600,"station_id":"","pricing_plan_id":"cebpf4jnsgd1na2vs0mg"},{"bike_id":"49a01a11-8673-492e-9b5e-b92964e4e9ba","system_id":"levelo_inurba_marseille","lat":43.28164,"lon":5.42656,"is_reserved":false,"is_disabled":false,"rental_uris":{"android":"levelo://app?vid=49a01a11-8673-492e-9b5e-b92964e4e9ba","ios":"levelo://app?vid=49a01a11-8673-492e-9b5e-b92964e4e9ba"},"vehicle_type_id":"4","last_reported":1767345304,"current_range_meters":3600,"station_id":"ce4bhnh2rcd13ifvqgug","pricing_plan_id":"cebpf4jnsgd1na2vs0mg"},{"bike_id":"38dd17e8-5d80-4ad5-aa01-1fd6c367a77e","system_id":"levelo_inurba_marseille","lat":43.28348,"lon":5.38109,"is_reserved":false,"is_disabled":false,"rental_uris":{"android":"levelo://app?vid=38dd17e8-5d80-4ad5-aa01-1fd6c367a77e","ios":"levelo://app?vid=38dd17e8-5d80-4ad5-aa01-1fd6c367a77e"},"vehicle_type_id":"4","last_reported":1767345304,"current_range_meters":4000,"station_id":"ce4bh412rcd13ifvqdr0","pricing_plan_id":"cebpf4jnsgd1na2vs0mg"},{"bike_id":"9e5dafc7-f2da-4d0b-b668-e32cc043ceb4","system_id":"levelo_inurba_marseille","lat":43.28047,"lon":5.40073,"is_reserved":false,"is_disabled":false,"rental_uris":{"android":"levelo://app?vid=9e5dafc7-f2da-4d0b-b668-e32cc043ceb4","ios":"levelo://app?vid=9e5dafc7-f2da-4d0b-b668-e32cc043ceb4"},"vehicle_type_id":"4","last_reported":1767345304,"current_range_meters":4000,"station_id":"","pricing_plan_id":"cebpf4jnsgd1na2vs0mg"},{"bike_id":"15694dae-e2a2-45a6-a696-0713eb1eb9ee","system_id":"levelo_inurba_marseille","lat":43.26962,"lon":5.40201,"is_reserved":false,"is_disabled":false,"rental_uris":{"android":"levelo://app?vid=15694dae-e2a2-45a6-a696-0713eb1eb9ee","ios":"levelo://app?vid=15694dae-e2a2-45a6-a696-0713eb1eb9ee"},"vehicle_type_id":"4","last_reported":1767345304,"current_range_meters":4000,"station_id":"cjm6bp8fraef2m0cb0m0","pricing_plan_id":"cebpf4jnsgd1na2vs0mg"},{"bike_id":"73342cd1-bf95-4a1c-9f45-49ae6f0fd972","system_id":"levelo_inurba_marseille","lat":43.28867,"lon":5.42524,"is_reserved":false,"is_disabled":false,"rental_uris":{"android":"levelo://app?vid=73342cd1-bf95-4a1c-9f45-49ae6f0fd972","ios":"levelo://app?vid=73342cd1-bf95-4a1c-9f45-49ae6f0fd972"},"vehicle_type_id":"4","last_reported":1767345304,"current_range_meters":4000,"station_id":"st_d3b462108ojc7389ooeg","pricing_plan_id":"cebpf4jnsgd1na2vs0mg"},{"bike_id":"f9e9fd89-b7c6-4e84-90bb-2a2dc045365a","system_id":"levelo_inurba_marseille","lat":43.25917,"lon":5.40913,"is_reserved":false,"is_disabled":false,"rental_uris":{"android":"levelo://app?vid=f9e9fd89-b7c6-4e84-90bb-2a2dc045365a","ios":"levelo://app?vid=f9e9fd89-b7c6-4e84-90bb-2a2dc045365a"},"vehicle_type_id":"4","last_reported":1767345304,"current_range_meters":4000,"station_id":"ce4bhm92rcd13ifvqglg","pricing_plan_id":"cebpf4jnsgd1na2vs0mg"},{"bike_id":"dc1d1fd3-287c-4df2-89a3-973e9127dcfe","system_id":"levelo_inurba_marseille","lat":43.2463,"lon":5.43146,"is_reserved":false,"is_disabled":false,"rental_uris":{"android":"levelo://app?vid=dc1d1fd3-287c-4df2-89a3-973e9127dcfe","ios":"levelo://app?vid=dc1d1fd3-287c-4df2-89a3-973e9127dcfe"},"vehicle_type_id":"4","last_reported":1767345304,"current_range_meters":4400,"station_id":"st_d2m6c4gdas8pm72e190g","pricing_plan_id":"cebpf4jnsgd1na2vs0mg"},{"bike_id":"3282aea1-9bed-44e6-a833-eea50b551ac8","system_id":"levelo_inurba_marseille","lat":43.26943,"lon":5.38925,"is_reserved":false,"is_disabled":false,"rental_uris":{"android":"levelo://app?vid=3282aea1-9bed-44e6-a833-eea50b551ac8","ios":"levelo://app?vid=3282aea1-9bed-44e6-a833-eea50b551ac8"},"vehicle_type_id":"4","last_reported":1767345304,"current_range_meters":4400,"station_id":"ce4bhhh2rcd13ifvqfl0","pricing_plan_id":"cebpf4jnsgd1na2vs0mg"},{"bike_id":"a8800cd5-9636-49e9-b1fe-ec75f21420d4","system_id":"levelo_inurba_marseille","lat":43.22568,"lon":5.41632,"is_reserved":false,"is_disabled":false,"rental_uris":{"android":"levelo://app?vid=a8800cd5-9636-49e9-b1fe-ec75f21420d4","ios":"levelo://app?vid=a8800cd5-9636-49e9-b1fe-ec75f21420d4"},"vehicle_type_id":"4","last_reported":1767345304,"current_range_meters":4400,"station_id":"st_d2o4gvlbi1j2169b742g","pricing_plan_id":"cebpf4jnsgd1na2vs0mg"},{"bike_id":"0d8b64dc-d3a4-4c37-80be-c48d945a81e3","system_id":"levelo_inurba_marseille","lat":43.28492,"lon":5.38573,"is_reserved":false,"is_disabled":false,"rental_uris":{"android":"levelo://app?vid=0d8b64dc-d3a4-4c37-80be-c48d945a81e3","ios":"levelo://app?vid=0d8b64dc-d3a4-4c37-80be-c48d945a81e3"},"vehicle_type_id":"4","last_reported":1767345304,"current_range_meters":4400,"station_id":"ce4bh8p2rcd13ifvqeb0","pricing_plan_id":"cebpf4jnsgd1na2vs0mg"},{"bike_id":"23dd68b5-83fe-4e9e-b59e-9beb906eba90","system_id":"levelo_inurba_marseille","lat":43.28426,"lon":5.34973,"is_reserved":false,"is_disabled":false,"rental_uris":{"android":"levelo://app?vid=23dd68b5-83fe-4e9e-b59e-9beb906eba90","ios":"levelo://app?vid=23dd68b5-83fe-4e9e-b59e-9beb906eba90"},"vehicle_type_id":"4","last_reported":1767345304,"current_range_meters":4400,"station_id":"ce4bhbh2rcd13ifvqepg","pricing_plan_id":"cebpf4jnsgd1na2vs0mg"},{"bike_id":"e81f6402-b575-44f8-9405-25f53ea6d92c","system_id":"levelo_inurba_marseille","lat":43.295778,"lon":5.3752,"is_reserved":false,"is_disabled":false,"rental_uris":{"android":"levelo://app?vid=e81f6402-b575-44f8-9405-25f53ea6d92c","ios":"levelo://app?vid=e81f6402-b575-44f8-9405-25f53ea6d92c"},"vehicle_type_id":"4","last_reported":1767345304,"current_range_meters":4400,"station_id":"ce4bgh92rcd13ifvqb50","pricing_plan_id":"cebpf4jnsgd1na2vs0mg"},{"bike_id":"edb144c4-7934-4963-a970-3320a0ca02a8","system_id":"levelo_inurba_marseille","lat":43.217595,"lon":5.3459,"is_reserved":false,"is_disabled":false,"rental_uris":{"android":"levelo://app?vid=edb144c4-7934-4963-a970-3320a0ca02a8","ios":"levelo://app?vid=edb144c4-7934-4963-a970-3320a0ca02a8"},"vehicle_type_id":"4","last_reported":1767345304,"current_range_meters":4400,"station_id":"st_cvj6r9ubvosntc0bgbag","pricing_plan_id":"cebpf4jnsgd1na2vs0mg"},{"bike_id":"2367bd92-b99b-465d-86bd-3c80e90ce34f","system_id":"levelo_inurba_marseille","lat":43.286081,"lon":5.398691,"is_reserved":false,"is_disabled":false,"rental_uris":{"android":"levelo://app?vid=2367bd92-b99b-465d-86bd-3c80e90ce34f","ios":"levelo://app?vid=2367bd92-b99b-465d-86bd-3c80e90ce34f"},"vehicle_type_id":"4","last_reported":1767345304,"current_range_meters":4400,"station_id":"st_d4a7ka997mjs738ck50g","pricing_plan_id":"cebpf4jnsgd1na2vs0mg"},{"bike_id":"a9d7370e-c542-4ea5-b026-82659eb4c204","system_id":"levelo_inurba_marseille","lat":43.24699,"lon":5.38187,"is_reserved":false,"is_disabled":false,"rental_uris":{"android":"levelo://app?vid=a9d7370e-c542-4ea5-b026-82659eb4c204","ios":"levelo://app?vid=a9d7370e-c542-4ea5-b026-82659eb4c204"},"vehicle_type_id":"4","last_reported":1767345304,"current_range_meters":4400,"station_id":"ce4bhih2rcd13ifvqfr0","pricing_plan_id":"cebpf4jnsgd1na2vs0mg"},{"bike_id":"ee1959ff-d4ae-4b6f-9140-6704900b9ea6","system_id":"levelo_inurba_marseille","lat":43.25093,"lon":5.39477,"is_reserved":false,"is_disabled":false,"rental_uris":{"android":"levelo://app?vid=ee1959ff-d4ae-4b6f-9140-6704900b9ea6","ios":"levelo://app?vid=ee1959ff-d4ae-4b6f-9140-6704900b9ea6"},"vehicle_type_id":"4","last_reported":1767345304,"current_range_meters":4400,"station_id":"ce4bhm12rcd13ifvqgkg","pricing_plan_id":"cebpf4jnsgd1na2vs0mg"},{"bike_id":"39d219be-1998-48c4-88b3-31a9314c8d26","system_id":"levelo_inurba_marseille","lat":43.26777,"lon":5.39418,"is_reserved":false,"is_disabled":false,"rental_uris":{"android":"levelo://app?vid=39d219be-1998-48c4-88b3-31a9314c8d26","ios":"levelo://app?vid=39d219be-1998-48c4-88b3-31a9314c8d26"},"vehicle_type_id":"4","last_reported":1767345304,"current_range_meters":4800,"station_id":"ce4bhh12rcd13ifvqfg0","pricing_plan_id":"cebpf4jnsgd1na2vs0mg"},{"bike_id":"b7ae8b8f-c800-4cd2-b0a1-e6db5363e1d5","system_id":"levelo_inurba_marseille","lat":43.25499,"lon":5.37665,"is_reserved":false,"is_disabled":false,"rental_uris":{"android":"levelo://app?vid=b7ae8b8f-c800-4cd2-b0a1-e6db5363e1d5","ios":"levelo://app?vid=b7ae8b8f-c800-4cd2-b0a1-e6db5363e1d5"},"vehicle_type_id":"4","last_reported":1767345304,"current_range_meters":4800,"station_id":"ce4bhh12rcd13ifvqff0","pricing_plan_id":"cebpf4jnsgd1na2vs0mg"},{"bike_id":"b5f80a1c-7345-44ae-9c2d-843287ace1f8","system_id":"levelo_inurba_marseille","lat":43.274235,"lon":5.424139,"is_reserved":false,"is_disabled":false,"rental_uris":{"android":"levelo://app?vid=b5f80a1c-7345-44ae-9c2d-843287ace1f8","ios":"levelo://app?vid=b5f80a1c-7345-44ae-9c2d-843287ace1f8"},"vehicle_type_id":"4","last_reported":1767345304,"current_range_meters":4800,"station_id":"","pricing_plan_id":"cebpf4jnsgd1na2vs0mg"},{"bike_id":"1763bda5-9a2f-4323-b228-f44726653fd8","system_id":"levelo_inurba_marseille","lat":43.28404,"lon":5.35009,"is_reserved":false,"is_disabled":false,"rental_uris":{"android":"levelo://app?vid=1763bda5-9a2f-4323-b228-f44726653fd8","ios":"levelo://app?vid=1763bda5-9a2f-4323-b228-f44726653fd8"},"vehicle_type_id":"4","last_reported":1767345304,"current_range_meters":4800,"station_id":"ce4bhbh2rcd13ifvqepg","pricing_plan_id":"cebpf4jnsgd1na2vs0mg"},{"bike_id":"ca3f2db3-b93a-4ad8-90f8-de36e33fe8b4","system_id":"levelo_inurba_marseille","lat":43.225329,"lon":5.348285,"is_reserved":false,"is_disabled":false,"rental_uris":{"android":"levelo://app?vid=ca3f2db3-b93a-4ad8-90f8-de36e33fe8b4","ios":"levelo://app?vid=ca3f2db3-b93a-4ad8-90f8-de36e33fe8b4"},"vehicle_type_id":"4","last_reported":1767345304,"current_range_meters":4800,"station_id":"","pricing_plan_id":"cebpf4jnsgd1na2vs0mg"},{"bike_id":"86312e98-3486-4367-b50a-7a5236f4b8d0","system_id":"levelo_inurba_marseille","lat":43.2767,"lon":5.38942,"is_reserved":false,"is_disabled":false,"rental_uris":{"android":"levelo://app?vid=86312e98-3486-4367-b50a-7a5236f4b8d0","ios":"levelo://app?vid=86312e98-3486-4367-b50a-7a5236f4b8d0"},"vehicle_type_id":"4","last_reported":1767345304,"current_range_meters":4800,"station_id":"ce4bhi12rcd13ifvqfo0","pricing_plan_id":"cebpf4jnsgd1na2vs0mg"},{"bike_id":"fae0d599-6444-438d-9fff-9338d570f467","system_id":"levelo_inurba_marseille","lat":43.30914,"lon":5.40176,"is_reserved":false,"is_disabled":false,"rental_uris":{"android":"levelo://app?vid=fae0d599-6444-438d-9fff-9338d570f467","ios":"levelo://app?vid=fae0d599-6444-438d-9fff-9338d570f467"},"vehicle_type_id":"4","last_reported":1767345304,"current_range_meters":4800,"station_id":"ce4bgvp2rcd13ifvqct0","pricing_plan_id":"cebpf4jnsgd1na2vs0mg"},{"bike_id":"ca2a4141-2d11-4724-ae9a-5df9c6e34715","system_id":"levelo_inurba_marseille","lat":43.24661,"lon":5.38871,"is_reserved":false,"is_disabled":false,"rental_uris":{"android":"levelo://app?vid=ca2a4141-2d11-4724-ae9a-5df9c6e34715","ios":"levelo://app?vid=ca2a4141-2d11-4724-ae9a-5df9c6e34715"},"vehicle_type_id":"4","last_reported":1767345304,"current_range_meters":4800,"station_id":"ce4bhg12rcd13ifvqf60","pricing_plan_id":"cebpf4jnsgd1na2vs0mg"},{"bike_id":"cbca21e9-2e94-4a16-bf5a-9b81b0df977d","system_id":"levelo_inurba_marseille","lat":43.30184,"lon":5.36602,"is_reserved":false,"is_disabled":false,"rental_uris":{"android":"levelo://app?vid=cbca21e9-2e94-4a16-bf5a-9b81b0df977d","ios":"levelo://app?vid=cbca21e9-2e94-4a16-bf5a-9b81b0df977d"},"vehicle_type_id":"4","last_reported":1767345304,"current_range_meters":4800,"station_id":"ce4bgrh2rcd13ifvqc8g","pricing_plan_id":"cebpf4jnsgd1na2vs0mg"},{"bike_id":"e41a6340-43b4-427f-9b65-d9949dfc1ba1","system_id":"levelo_inurba_marseille","lat":43.29621,"lon":5.37193,"is_reserved":false,"is_disabled":false,"rental_uris":{"android":"levelo://app?vid=e41a6340-43b4-427f-9b65-d9949dfc1ba1","ios":"levelo://app?vid=e41a6340-43b4-427f-9b65-d9949dfc1ba1"},"vehicle_type_id":"4","last_reported":1767345304,"current_range_meters":4800,"station_id":"ce4bgnh2rcd13ifvqc0g","pricing_plan_id":"cebpf4jnsgd1na2vs0mg"},{"bike_id":"10082815-dbf9-4a48-b9bb-b7d9a21347fa","system_id":"levelo_inurba_marseille","lat":43.21743,"lon":5.34613,"is_reserved":false,"is_disabled":false,"rental_uris":{"android":"levelo://app?vid=10082815-dbf9-4a48-b9bb-b7d9a21347fa","ios":"levelo://app?vid=10082815-dbf9-4a48-b9bb-b7d9a21347fa"},"vehicle_type_id":"4","last_reported":1767345304,"current_range_meters":4800,"station_id":"st_cvj6r9ubvosntc0bgbag","pricing_plan_id":"cebpf4jnsgd1na2vs0mg"},{"bike_id":"84e86dfc-b61a-42c1-93b8-a112038f791b","system_id":"levelo_inurba_marseille","lat":43.28614,"lon":5.35108,"is_reserved":false,"is_disabled":false,"rental_uris":{"android":"levelo://app?vid=84e86dfc-b61a-42c1-93b8-a112038f791b","ios":"levelo://app?vid=84e86dfc-b61a-42c1-93b8-a112038f791b"},"vehicle_type_id":"4","last_reported":1767345304,"current_range_meters":4800,"station_id":"ce4bhch2rcd13ifvqeug","pricing_plan_id":"cebpf4jnsgd1na2vs0mg"},{"bike_id":"a89fcd65-3d18-45df-add8-bd4009ee6f38","system_id":"levelo_inurba_marseille","lat":43.273676,"lon":5.36257,"is_reserved":false,"is_disabled":false,"rental_uris":{"android":"levelo://app?vid=a89fcd65-3d18-45df-add8-bd4009ee6f38","ios":"levelo://app?vid=a89fcd65-3d18-45df-add8-bd4009ee6f38"},"vehicle_type_id":"4","last_reported":1767345304,"current_range_meters":5600,"station_id":"ce4bhbh2rcd13ifvqeo0","pricing_plan_id":"cebpf4jnsgd1na2vs0mg"},{"bike_id":"ea5031e4-b749-4d48-ba29-71e8d8d5383b","system_id":"levelo_inurba_marseille","lat":43.26402,"lon":5.37394,"is_reserved":false,"is_disabled":false,"rental_uris":{"android":"levelo://app?vid=ea5031e4-b749-4d48-ba29-71e8d8d5383b","ios":"levelo://app?vid=ea5031e4-b749-4d48-ba29-71e8d8d5383b"},"vehicle_type_id":"4","last_reported":1767345304,"current_range_meters":5600,"station_id":"","pricing_plan_id":"cebpf4jnsgd1na2vs0mg"},{"bike_id":"d51b6a44-a05b-4deb-9147-7a5a8c9b7a34","system_id":"levelo_inurba_marseille","lat":43.29598,"lon":5.38097,"is_reserved":false,"is_disabled":false,"rental_uris":{"android":"levelo://app?vid=d51b6a44-a05b-4deb-9147-7a5a8c9b7a34","ios":"levelo://app?vid=d51b6a44-a05b-4deb-9147-7a5a8c9b7a34"},"vehicle_type_id":"4","last_reported":1767345304,"current_range_meters":5600,"station_id":"ce4bgl12rcd13ifvqbo0","pricing_plan_id":"cebpf4jnsgd1na2vs0mg"},{"bike_id":"650cf425-f87e-4c30-9156-354d5fef94cd","system_id":"levelo_inurba_marseille","lat":43.30129,"lon":5.3675,"is_reserved":false,"is_disabled":false,"rental_uris":{"android":"levelo://app?vid=650cf425-f87e-4c30-9156-354d5fef94cd","ios":"levelo://app?vid=650cf425-f87e-4c30-9156-354d5fef94cd"},"vehicle_type_id":"4","last_reported":1767345304,"current_range_meters":5600,"station_id":"","pricing_plan_id":"cebpf4jnsgd1na2vs0mg"},{"bike_id":"71feabac-18bb-4c38-9f1c-553d18ed10d6","system_id":"levelo_inurba_marseille","lat":43.29603,"lon":5.37178,"is_reserved":false,"is_disabled":false,"rental_uris":{"android":"levelo://app?vid=71feabac-18bb-4c38-9f1c-553d18ed10d6","ios":"levelo://app?vid=71feabac-18bb-4c38-9f1c-553d18ed10d6"},"vehicle_type_id":"4","last_reported":1767345304,"current_range_meters":5600,"station_id":"ce4bgnh2rcd13ifvqc0g","pricing_plan_id":"cebpf4jnsgd1na2vs0mg"},{"bike_id":"c616b386-869d-4a81-bbc8-a27ad66fe8e9","system_id":"levelo_inurba_marseille","lat":43.30157,"lon":5.38081,"is_reserved":false,"is_disabled":false,"rental_uris":{"android":"levelo://app?vid=c616b386-869d-4a81-bbc8-a27ad66fe8e9","ios":"levelo://app?vid=c616b386-869d-4a81-bbc8-a27ad66fe8e9"},"vehicle_type_id":"4","last_reported":1767345304,"current_range_meters":5600,"station_id":"ce4bgjp2rcd13ifvqbh0","pricing_plan_id":"cebpf4jnsgd1na2vs0mg"},{"bike_id":"72756d98-e382-4116-8603-def6abbc68e4","system_id":"levelo_inurba_marseille","lat":43.259393,"lon":5.409042,"is_reserved":false,"is_disabled":false,"rental_uris":{"android":"levelo://app?vid=72756d98-e382-4116-8603-def6abbc68e4","ios":"levelo://app?vid=72756d98-e382-4116-8603-def6abbc68e4"},"vehicle_type_id":"4","last_reported":1767345304,"current_range_meters":5600,"station_id":"ce4bhm92rcd13ifvqglg","pricing_plan_id":"cebpf4jnsgd1na2vs0mg"},{"bike_id":"f27745bc-a703-4c7b-b0b1-1028a16be233","system_id":"levelo_inurba_marseille","lat":43.295987,"lon":5.381077,"is_reserved":false,"is_disabled":false,"rental_uris":{"android":"levelo://app?vid=f27745bc-a703-4c7b-b0b1-1028a16be233","ios":"levelo://app?vid=f27745bc-a703-4c7b-b0b1-1028a16be233"},"vehicle_type_id":"4","last_reported":1767345304,"current_range_meters":5600,"station_id":"ce4bgl12rcd13ifvqbo0","pricing_plan_id":"cebpf4jnsgd1na2vs0mg"},{"bike_id":"f86a25f1-ea9e-4c4d-8fca-5f1887ab98fa","system_id":"levelo_inurba_marseille","lat":43.28489,"lon":5.3842,"is_reserved":false,"is_disabled":false,"rental_uris":{"android":"levelo://app?vid=f86a25f1-ea9e-4c4d-8fca-5f1887ab98fa","ios":"levelo://app?vid=f86a25f1-ea9e-4c4d-8fca-5f1887ab98fa"},"vehicle_type_id":"4","last_reported":1767345304,"current_range_meters":6000,"station_id":"ce4bh512rcd13ifvqe3g","pricing_plan_id":"cebpf4jnsgd1na2vs0mg"},{"bike_id":"02382ba1-c53a-4d54-ae09-ac85bbe6d34b","system_id":"levelo_inurba_marseille","lat":43.29303,"lon":5.37455,"is_reserved":false,"is_disabled":false,"rental_uris":{"android":"levelo://app?vid=02382ba1-c53a-4d54-ae09-ac85bbe6d34b","ios":"levelo://app?vid=02382ba1-c53a-4d54-ae09-ac85bbe6d34b"},"vehicle_type_id":"4","last_reported":1767345304,"current_range_meters":6000,"station_id":"ce4bgi12rcd13ifvqb70","pricing_plan_id":"cebpf4jnsgd1na2vs0mg"},{"bike_id":"dc9feb7e-742c-4c15-83bb-7db4fa4848d4","system_id":"levelo_inurba_marseille","lat":43.32053,"lon":5.37181,"is_reserved":false,"is_disabled":false,"rental_uris":{"android":"levelo://app?vid=dc9feb7e-742c-4c15-83bb-7db4fa4848d4","ios":"levelo://app?vid=dc9feb7e-742c-4c15-83bb-7db4fa4848d4"},"vehicle_type_id":"4","last_reported":1767345304,"current_range_meters":6000,"station_id":"","pricing_plan_id":"cebpf4jnsgd1na2vs0mg"},{"bike_id":"7f8bc2f4-3256-4176-a803-fa7e148de4c6","system_id":"levelo_inurba_marseille","lat":43.243708,"lon":5.408494,"is_reserved":false,"is_disabled":false,"rental_uris":{"android":"levelo://app?vid=7f8bc2f4-3256-4176-a803-fa7e148de4c6","ios":"levelo://app?vid=7f8bc2f4-3256-4176-a803-fa7e148de4c6"},"vehicle_type_id":"4","last_reported":1767345304,"current_range_meters":6000,"station_id":"","pricing_plan_id":"cebpf4jnsgd1na2vs0mg"},{"bike_id":"81586eb2-5997-4a7f-910d-f12ada7984c8","system_id":"levelo_inurba_marseille","lat":43.29886,"lon":5.3859,"is_reserved":false,"is_disabled":false,"rental_uris":{"android":"levelo://app?vid=81586eb2-5997-4a7f-910d-f12ada7984c8","ios":"levelo://app?vid=81586eb2-5997-4a7f-910d-f12ada7984c8"},"vehicle_type_id":"4","last_reported":1767345304,"current_range_meters":6000,"station_id":"","pricing_plan_id":"cebpf4jnsgd1na2vs0mg"},{"bike_id":"d49fd2c9-dca5-4864-87e0-359520dd27b8","system_id":"levelo_inurba_marseille","lat":43.26137,"lon":5.39757,"is_reserved":false,"is_disabled":false,"rental_uris":{"android":"levelo://app?vid=d49fd2c9-dca5-4864-87e0-359520dd27b8","ios":"levelo://app?vid=d49fd2c9-dca5-4864-87e0-359520dd27b8"},"vehicle_type_id":"4","last_reported":1767345304,"current_range_meters":6000,"station_id":"","pricing_plan_id":"cebpf4jnsgd1na2vs0mg"},{"bike_id":"9df51a33-d8d1-4b42-9888-b57cc9ef08bc","system_id":"levelo_inurba_marseille","lat":43.29522,"lon":5.38774,"is_reserved":false,"is_disabled":false,"rental_uris":{"android":"levelo://app?vid=9df51a33-d8d1-4b42-9888-b57cc9ef08bc","ios":"levelo://app?vid=9df51a33-d8d1-4b42-9888-b57cc9ef08bc"},"vehicle_type_id":"4","last_reported":1767345304,"current_range_meters":6000,"station_id":"","pricing_plan_id":"cebpf4jnsgd1na2vs0mg"},{"bike_id":"5294767e-dd69-4945-8c8e-03dd74e904a7","system_id":"levelo_inurba_marseille","lat":43.23065,"lon":5.35481,"is_reserved":false,"is_disabled":false,"rental_uris":{"android":"levelo://app?vid=5294767e-dd69-4945-8c8e-03dd74e904a7","ios":"levelo://app?vid=5294767e-dd69-4945-8c8e-03dd74e904a7"},"vehicle_type_id":"4","last_reported":1767345304,"current_range_meters":6400,"station_id":"cpo3342slgdg3j2ifvpg","pricing_plan_id":"cebpf4jnsgd1na2vs0mg"},{"bike_id":"5fb6044e-9e86-4cd7-8369-9dae8661f801","system_id":"levelo_inurba_marseille","lat":43.26549,"lon":5.40337,"is_reserved":false,"is_disabled":false,"rental_uris":{"android":"levelo://app?vid=5fb6044e-9e86-4cd7-8369-9dae8661f801","ios":"levelo://app?vid=5fb6044e-9e86-4cd7-8369-9dae8661f801"},"vehicle_type_id":"4","last_reported":1767345304,"current_range_meters":6400,"station_id":"ce4bhmp2rcd13ifvqgng","pricing_plan_id":"cebpf4jnsgd1na2vs0mg"},{"bike_id":"bab8f5ce-6ea3-45fd-aa21-29b68816a77a","system_id":"levelo_inurba_marseille","lat":43.26509,"lon":5.39548,"is_reserved":false,"is_disabled":false,"rental_uris":{"android":"levelo://app?vid=bab8f5ce-6ea3-45fd-aa21-29b68816a77a","ios":"levelo://app?vid=bab8f5ce-6ea3-45fd-aa21-29b68816a77a"},"vehicle_type_id":"4","last_reported":1767345304,"current_range_meters":6400,"station_id":"ce4bhi12rcd13ifvqfq0","pricing_plan_id":"cebpf4jnsgd1na2vs0mg"},{"bike_id":"73d09a71-9861-4622-886b-c00e40c2668e","system_id":"levelo_inurba_marseille","lat":43.28617,"lon":5.39875,"is_reserved":false,"is_disabled":false,"rental_uris":{"android":"levelo://app?vid=73d09a71-9861-4622-886b-c00e40c2668e","ios":"levelo://app?vid=73d09a71-9861-4622-886b-c00e40c2668e"},"vehicle_type_id":"4","last_reported":1767345304,"current_range_meters":6400,"station_id":"st_d4a7ka997mjs738ck50g","pricing_plan_id":"cebpf4jnsgd1na2vs0mg"},{"bike_id":"a37546a5-5ed0-437a-8b08-467eedf47722","system_id":"levelo_inurba_marseille","lat":43.245408,"lon":5.395235,"is_reserved":false,"is_disabled":false,"rental_uris":{"android":"levelo://app?vid=a37546a5-5ed0-437a-8b08-467eedf47722","ios":"levelo://app?vid=a37546a5-5ed0-437a-8b08-467eedf47722"},"vehicle_type_id":"4","last_reported":1767345304,"current_range_meters":6400,"station_id":"ce4bhlp2rcd13ifvqgjg","pricing_plan_id":"cebpf4jnsgd1na2vs0mg"},{"bike_id":"48cee1df-16aa-460a-ae1f-9b5bc1595f79","system_id":"levelo_inurba_marseille","lat":43.229376,"lon":5.353808,"is_reserved":false,"is_disabled":false,"rental_uris":{"android":"levelo://app?vid=48cee1df-16aa-460a-ae1f-9b5bc1595f79","ios":"levelo://app?vid=48cee1df-16aa-460a-ae1f-9b5bc1595f79"},"vehicle_type_id":"4","last_reported":1767345304,"current_range_meters":6400,"station_id":"cpo3532slgdg3j2ikp40","pricing_plan_id":"cebpf4jnsgd1na2vs0mg"},{"bike_id":"59b9f952-f261-4669-9bf2-ec09f3352df3","system_id":"levelo_inurba_marseille","lat":43.270714,"lon":5.422772,"is_reserved":false,"is_disabled":false,"rental_uris":{"android":"levelo://app?vid=59b9f952-f261-4669-9bf2-ec09f3352df3","ios":"levelo://app?vid=59b9f952-f261-4669-9bf2-ec09f3352df3"},"vehicle_type_id":"4","last_reported":1767345304,"current_range_meters":6400,"station_id":"ce4bhk92rcd13ifvqgb0","pricing_plan_id":"cebpf4jnsgd1na2vs0mg"},{"bike_id":"da51a696-5705-48cd-a174-f63e3c15d9de","system_id":"levelo_inurba_marseille","lat":43.28857,"lon":5.42525,"is_reserved":false,"is_disabled":false,"rental_uris":{"android":"levelo://app?vid=da51a696-5705-48cd-a174-f63e3c15d9de","ios":"levelo://app?vid=da51a696-5705-48cd-a174-f63e3c15d9de"},"vehicle_type_id":"4","last_reported":1767345304,"current_range_meters":6400,"station_id":"st_d3b462108ojc7389ooeg","pricing_plan_id":"cebpf4jnsgd1na2vs0mg"},{"bike_id":"3726ff5a-3e12-42b0-b68f-b0200516c587","system_id":"levelo_inurba_marseille","lat":43.2119,"lon":5.35085,"is_reserved":false,"is_disabled":false,"rental_uris":{"android":"levelo://app?vid=3726ff5a-3e12-42b0-b68f-b0200516c587","ios":"levelo://app?vid=3726ff5a-3e12-42b0-b68f-b0200516c587"},"vehicle_type_id":"4","last_reported":1767345304,"current_range_meters":6400,"station_id":"st_cvj6sg6p6f1abm77japg","pricing_plan_id":"cebpf4jnsgd1na2vs0mg"},{"bike_id":"bd706bad-1cdd-46da-9aa9-c9b2e6f3f4f0","system_id":"levelo_inurba_marseille","lat":43.26489,"lon":5.39542,"is_reserved":false,"is_disabled":false,"rental_uris":{"android":"levelo://app?vid=bd706bad-1cdd-46da-9aa9-c9b2e6f3f4f0","ios":"levelo://app?vid=bd706bad-1cdd-46da-9aa9-c9b2e6f3f4f0"},"vehicle_type_id":"4","last_reported":1767345304,"current_range_meters":6400,"station_id":"ce4bhi12rcd13ifvqfq0","pricing_plan_id":"cebpf4jnsgd1na2vs0mg"},{"bike_id":"62bbb4f8-cd37-4703-914d-4c2cbb4345e1","system_id":"levelo_inurba_marseille","lat":43.28066,"lon":5.39653,"is_reserved":false,"is_disabled":false,"rental_uris":{"android":"levelo://app?vid=62bbb4f8-cd37-4703-914d-4c2cbb4345e1","ios":"levelo://app?vid=62bbb4f8-cd37-4703-914d-4c2cbb4345e1"},"vehicle_type_id":"4","last_reported":1767345304,"current_range_meters":6800,"station_id":"ce4bho12rcd13ifvqh2g","pricing_plan_id":"cebpf4jnsgd1na2vs0mg"},{"bike_id":"92e287f4-e88c-4138-a6d0-40d5e3d3b65d","system_id":"levelo_inurba_marseille","lat":43.29876,"lon":5.389,"is_reserved":false,"is_disabled":false,"rental_uris":{"android":"levelo://app?vid=92e287f4-e88c-4138-a6d0-40d5e3d3b65d","ios":"levelo://app?vid=92e287f4-e88c-4138-a6d0-40d5e3d3b65d"},"vehicle_type_id":"4","last_reported":1767345304,"current_range_meters":6800,"station_id":"ce4bh392rcd13ifvqdl0","pricing_plan_id":"cebpf4jnsgd1na2vs0mg"},{"bike_id":"c75366f7-6d82-40d8-82e8-025dde28a263","system_id":"levelo_inurba_marseille","lat":43.29522,"lon":5.37441,"is_reserved":false,"is_disabled":true,"rental_uris":{"android":"levelo://app?vid=c75366f7-6d82-40d8-82e8-025dde28a263","ios":"levelo://app?vid=c75366f7-6d82-40d8-82e8-025dde28a263"},"vehicle_type_id":"4","last_reported":1767345304,"current_range_meters":6800,"station_id":"","pricing_plan_id":"cebpf4jnsgd1na2vs0mg"},{"bike_id":"b6c2de47-37fa-44c1-ae2a-ab2b9c904820","system_id":"levelo_inurba_marseille","lat":43.28482,"lon":5.38435,"is_reserved":false,"is_disabled":false,"rental_uris":{"android":"levelo://app?vid=b6c2de47-37fa-44c1-ae2a-ab2b9c904820","ios":"levelo://app?vid=b6c2de47-37fa-44c1-ae2a-ab2b9c904820"},"vehicle_type_id":"4","last_reported":1767345304,"current_range_meters":6800,"station_id":"ce4bh512rcd13ifvqe3g","pricing_plan_id":"cebpf4jnsgd1na2vs0mg"},{"bike_id":"d4c6dc95-f402-4619-8161-a90cb01a834e","system_id":"levelo_inurba_marseille","lat":43.28852,"lon":5.42543,"is_reserved":false,"is_disabled":false,"rental_uris":{"android":"levelo://app?vid=d4c6dc95-f402-4619-8161-a90cb01a834e","ios":"levelo://app?vid=d4c6dc95-f402-4619-8161-a90cb01a834e"},"vehicle_type_id":"4","last_reported":1767345304,"current_range_meters":6800,"station_id":"st_d3b462108ojc7389ooeg","pricing_plan_id":"cebpf4jnsgd1na2vs0mg"},{"bike_id":"c033d2f6-a6cb-4fd7-a961-50f17588c0a8","system_id":"levelo_inurba_marseille","lat":43.282025,"lon":5.390608,"is_reserved":false,"is_disabled":false,"rental_uris":{"android":"levelo://app?vid=c033d2f6-a6cb-4fd7-a961-50f17588c0a8","ios":"levelo://app?vid=c033d2f6-a6cb-4fd7-a961-50f17588c0a8"},"vehicle_type_id":"4","last_reported":1767345304,"current_range_meters":6800,"station_id":"ce4bhn92rcd13ifvqgsg","pricing_plan_id":"cebpf4jnsgd1na2vs0mg"},{"bike_id":"303fc977-bc34-40d7-a7b6-1a8c63d2d925","system_id":"levelo_inurba_marseille","lat":43.225326,"lon":5.348292,"is_reserved":false,"is_disabled":false,"rental_uris":{"android":"levelo://app?vid=303fc977-bc34-40d7-a7b6-1a8c63d2d925","ios":"levelo://app?vid=303fc977-bc34-40d7-a7b6-1a8c63d2d925"},"vehicle_type_id":"4","last_reported":1767345304,"current_range_meters":6800,"station_id":"","pricing_plan_id":"cebpf4jnsgd1na2vs0mg"},{"bike_id":"27eab711-3794-4c67-b72c-787e5b4b546b","system_id":"levelo_inurba_marseille","lat":43.25585,"lon":5.38223,"is_reserved":false,"is_disabled":false,"rental_uris":{"android":"levelo://app?vid=27eab711-3794-4c67-b72c-787e5b4b546b","ios":"levelo://app?vid=27eab711-3794-4c67-b72c-787e5b4b546b"},"vehicle_type_id":"4","last_reported":1767345304,"current_range_meters":6800,"station_id":"ce4bhih2rcd13ifvqfs0","pricing_plan_id":"cebpf4jnsgd1na2vs0mg"},{"bike_id":"7111ffcd-e35c-4931-9037-38e9fb585758","system_id":"levelo_inurba_marseille","lat":43.31307,"lon":5.36775,"is_reserved":false,"is_disabled":false,"rental_uris":{"android":"levelo://app?vid=7111ffcd-e35c-4931-9037-38e9fb585758","ios":"levelo://app?vid=7111ffcd-e35c-4931-9037-38e9fb585758"},"vehicle_type_id":"4","last_reported":1767345304,"current_range_meters":6800,"station_id":"ce4bgr92rcd13ifvqc6g","pricing_plan_id":"cebpf4jnsgd1na2vs0mg"},{"bike_id":"2573c545-f2d4-4ad8-9d30-55ccbf225a22","system_id":"levelo_inurba_marseille","lat":43.269157,"lon":5.368153,"is_reserved":false,"is_disabled":false,"rental_uris":{"android":"levelo://app?vid=2573c545-f2d4-4ad8-9d30-55ccbf225a22","ios":"levelo://app?vid=2573c545-f2d4-4ad8-9d30-55ccbf225a22"},"vehicle_type_id":"4","last_reported":1767345304,"current_range_meters":6800,"station_id":"","pricing_plan_id":"cebpf4jnsgd1na2vs0mg"},{"bike_id":"ead7dd8d-77ea-4b67-b1fb-95ddc6c818a5","system_id":"levelo_inurba_marseille","lat":43.31402,"lon":5.38092,"is_reserved":false,"is_disabled":false,"rental_uris":{"android":"levelo://app?vid=ead7dd8d-77ea-4b67-b1fb-95ddc6c818a5","ios":"levelo://app?vid=ead7dd8d-77ea-4b67-b1fb-95ddc6c818a5"},"vehicle_type_id":"4","last_reported":1767345304,"current_range_meters":6800,"station_id":"","pricing_plan_id":"cebpf4jnsgd1na2vs0mg"},{"bike_id":"f15e664a-8cf5-4c10-8eed-a785dd97b6c8","system_id":"levelo_inurba_marseille","lat":43.29877,"lon":5.38925,"is_reserved":false,"is_disabled":false,"rental_uris":{"android":"levelo://app?vid=f15e664a-8cf5-4c10-8eed-a785dd97b6c8","ios":"levelo://app?vid=f15e664a-8cf5-4c10-8eed-a785dd97b6c8"},"vehicle_type_id":"4","last_reported":1767345304,"current_range_meters":6800,"station_id":"ce4bh392rcd13ifvqdl0","pricing_plan_id":"cebpf4jnsgd1na2vs0mg"},{"bike_id":"f3a4c2fd-c27a-4ca6-bbe5-3949d2a88808","system_id":"levelo_inurba_marseille","lat":43.28556,"lon":5.4299,"is_reserved":false,"is_disabled":false,"rental_uris":{"android":"levelo://app?vid=f3a4c2fd-c27a-4ca6-bbe5-3949d2a88808","ios":"levelo://app?vid=f3a4c2fd-c27a-4ca6-bbe5-3949d2a88808"},"vehicle_type_id":"4","last_reported":1767345304,"current_range_meters":6800,"station_id":"","pricing_plan_id":"cebpf4jnsgd1na2vs0mg"},{"bike_id":"c70225d4-a502-4469-93b2-aecf70c63654","system_id":"levelo_inurba_marseille","lat":43.25574,"lon":5.38244,"is_reserved":false,"is_disabled":false,"rental_uris":{"android":"levelo://app?vid=c70225d4-a502-4469-93b2-aecf70c63654","ios":"levelo://app?vid=c70225d4-a502-4469-93b2-aecf70c63654"},"vehicle_type_id":"4","last_reported":1767345304,"current_range_meters":6800,"station_id":"ce4bhih2rcd13ifvqfs0","pricing_plan_id":"cebpf4jnsgd1na2vs0mg"},{"bike_id":"ac2c9016-1962-4bb7-98b8-6b51b62c6fe0","system_id":"levelo_inurba_marseille","lat":43.30079,"lon":5.39144,"is_reserved":false,"is_disabled":false,"rental_uris":{"android":"levelo://app?vid=ac2c9016-1962-4bb7-98b8-6b51b62c6fe0","ios":"levelo://app?vid=ac2c9016-1962-4bb7-98b8-6b51b62c6fe0"},"vehicle_type_id":"4","last_reported":1767345304,"current_range_meters":6800,"station_id":"ce4bh192rcd13ifvqdb0","pricing_plan_id":"cebpf4jnsgd1na2vs0mg"},{"bike_id":"406f64a0-da6e-49db-a7ac-d7a777f3175c","system_id":"levelo_inurba_marseille","lat":43.27331,"lon":5.39079,"is_reserved":false,"is_disabled":false,"rental_uris":{"android":"levelo://app?vid=406f64a0-da6e-49db-a7ac-d7a777f3175c","ios":"levelo://app?vid=406f64a0-da6e-49db-a7ac-d7a777f3175c"},"vehicle_type_id":"4","last_reported":1767345304,"current_range_meters":6800,"station_id":"ce4bhgp2rcd13ifvqfe0","pricing_plan_id":"cebpf4jnsgd1na2vs0mg"},{"bike_id":"152a1365-ee25-421d-85dd-2a6424d5b6f1","system_id":"levelo_inurba_marseille","lat":43.29992,"lon":5.37165,"is_reserved":false,"is_disabled":false,"rental_uris":{"android":"levelo://app?vid=152a1365-ee25-421d-85dd-2a6424d5b6f1","ios":"levelo://app?vid=152a1365-ee25-421d-85dd-2a6424d5b6f1"},"vehicle_type_id":"4","last_reported":1767345304,"current_range_meters":6800,"station_id":"ce4bgr92rcd13ifvqc7g","pricing_plan_id":"cebpf4jnsgd1na2vs0mg"},{"bike_id":"3fd00cb0-0645-4a8c-874a-2e0df62cb4f5","system_id":"levelo_inurba_marseille","lat":43.29725,"lon":5.38001,"is_reserved":false,"is_disabled":false,"rental_uris":{"android":"levelo://app?vid=3fd00cb0-0645-4a8c-874a-2e0df62cb4f5","ios":"levelo://app?vid=3fd00cb0-0645-4a8c-874a-2e0df62cb4f5"},"vehicle_type_id":"4","last_reported":1767345304,"current_range_meters":6800,"station_id":"","pricing_plan_id":"cebpf4jnsgd1na2vs0mg"},{"bike_id":"bebec6bc-9df3-406e-90bc-396ce2b3b0b3","system_id":"levelo_inurba_marseille","lat":43.26358,"lon":5.37418,"is_reserved":false,"is_disabled":false,"rental_uris":{"android":"levelo://app?vid=bebec6bc-9df3-406e-90bc-396ce2b3b0b3","ios":"levelo://app?vid=bebec6bc-9df3-406e-90bc-396ce2b3b0b3"},"vehicle_type_id":"4","last_reported":1767345304,"current_range_meters":6800,"station_id":"","pricing_plan_id":"cebpf4jnsgd1na2vs0mg"},{"bike_id":"53924fd8-5777-4f20-9ea2-dc16a02b5d55","system_id":"levelo_inurba_marseille","lat":43.26614,"lon":5.37328,"is_reserved":false,"is_disabled":false,"rental_uris":{"android":"levelo://app?vid=53924fd8-5777-4f20-9ea2-dc16a02b5d55","ios":"levelo://app?vid=53924fd8-5777-4f20-9ea2-dc16a02b5d55"},"vehicle_type_id":"4","last_reported":1767345304,"current_range_meters":7200,"station_id":"","pricing_plan_id":"cebpf4jnsgd1na2vs0mg"},{"bike_id":"31074345-6b13-45ef-b79c-26566c89aa06","system_id":"levelo_inurba_marseille","lat":43.310579,"lon":5.371691,"is_reserved":false,"is_disabled":false,"rental_uris":{"android":"levelo://app?vid=31074345-6b13-45ef-b79c-26566c89aa06","ios":"levelo://app?vid=31074345-6b13-45ef-b79c-26566c89aa06"},"vehicle_type_id":"4","last_reported":1767345304,"current_range_meters":7200,"station_id":"st_d4kl2rp97mjs73e7tdfg","pricing_plan_id":"cebpf4jnsgd1na2vs0mg"},{"bike_id":"54045760-2072-46e5-a5c4-00c3b9646aa6","system_id":"levelo_inurba_marseille","lat":43.3,"lon":5.37215,"is_reserved":false,"is_disabled":false,"rental_uris":{"android":"levelo://app?vid=54045760-2072-46e5-a5c4-00c3b9646aa6","ios":"levelo://app?vid=54045760-2072-46e5-a5c4-00c3b9646aa6"},"vehicle_type_id":"4","last_reported":1767345304,"current_range_meters":7200,"station_id":"ce4bgr92rcd13ifvqc7g","pricing_plan_id":"cebpf4jnsgd1na2vs0mg"},{"bike_id":"4f437bfb-eb50-4510-9679-8b39b057f8de","system_id":"levelo_inurba_marseille","lat":43.2406,"lon":5.3776,"is_reserved":false,"is_disabled":false,"rental_uris":{"android":"levelo://app?vid=4f437bfb-eb50-4510-9679-8b39b057f8de","ios":"levelo://app?vid=4f437bfb-eb50-4510-9679-8b39b057f8de"},"vehicle_type_id":"4","last_reported":1767345304,"current_range_meters":7200,"station_id":"ce4bhnp2rcd13ifvqgvg","pricing_plan_id":"cebpf4jnsgd1na2vs0mg"},{"bike_id":"f088b2d3-124b-401d-abdd-c84fccfb9eda","system_id":"levelo_inurba_marseille","lat":43.28338,"lon":5.38112,"is_reserved":false,"is_disabled":false,"rental_uris":{"android":"levelo://app?vid=f088b2d3-124b-401d-abdd-c84fccfb9eda","ios":"levelo://app?vid=f088b2d3-124b-401d-abdd-c84fccfb9eda"},"vehicle_type_id":"4","last_reported":1767345304,"current_range_meters":7200,"station_id":"ce4bh412rcd13ifvqdr0","pricing_plan_id":"cebpf4jnsgd1na2vs0mg"},{"bike_id":"7ac98c64-2424-49b0-be1b-1d86a6975c42","system_id":"levelo_inurba_marseille","lat":43.29001,"lon":5.35606,"is_reserved":false,"is_disabled":false,"rental_uris":{"android":"levelo://app?vid=7ac98c64-2424-49b0-be1b-1d86a6975c42","ios":"levelo://app?vid=7ac98c64-2424-49b0-be1b-1d86a6975c42"},"vehicle_type_id":"4","last_reported":1767345304,"current_range_meters":7200,"station_id":"ce4bhb92rcd13ifvqen0","pricing_plan_id":"cebpf4jnsgd1na2vs0mg"},{"bike_id":"5b121814-175d-4dd8-bc6c-330fb3cb4dcd","system_id":"levelo_inurba_marseille","lat":43.30605,"lon":5.37218,"is_reserved":false,"is_disabled":false,"rental_uris":{"android":"levelo://app?vid=5b121814-175d-4dd8-bc6c-330fb3cb4dcd","ios":"levelo://app?vid=5b121814-175d-4dd8-bc6c-330fb3cb4dcd"},"vehicle_type_id":"4","last_reported":1767345304,"current_range_meters":7200,"station_id":"ce4bgqh2rcd13ifvqc4g","pricing_plan_id":"cebpf4jnsgd1na2vs0mg"},{"bike_id":"adee5904-d2f9-48c4-ad58-68d27b5bb40a","system_id":"levelo_inurba_marseille","lat":43.2927,"lon":5.37677,"is_reserved":false,"is_disabled":false,"rental_uris":{"android":"levelo://app?vid=adee5904-d2f9-48c4-ad58-68d27b5bb40a","ios":"levelo://app?vid=adee5904-d2f9-48c4-ad58-68d27b5bb40a"},"vehicle_type_id":"4","last_reported":1767345304,"current_range_meters":7200,"station_id":"ce4bgi12rcd13ifvqb80","pricing_plan_id":"cebpf4jnsgd1na2vs0mg"},{"bike_id":"08793bdf-bae6-4989-a3e8-8fa2dc512947","system_id":"levelo_inurba_marseille","lat":43.21184,"lon":5.35083,"is_reserved":false,"is_disabled":false,"rental_uris":{"android":"levelo://app?vid=08793bdf-bae6-4989-a3e8-8fa2dc512947","ios":"levelo://app?vid=08793bdf-bae6-4989-a3e8-8fa2dc512947"},"vehicle_type_id":"4","last_reported":1767345304,"current_range_meters":7200,"station_id":"st_cvj6sg6p6f1abm77japg","pricing_plan_id":"cebpf4jnsgd1na2vs0mg"},{"bike_id":"1498f079-e300-4265-837b-8da7d97aca06","system_id":"levelo_inurba_marseille","lat":43.24172,"lon":5.36392,"is_reserved":false,"is_disabled":false,"rental_uris":{"android":"levelo://app?vid=1498f079-e300-4265-837b-8da7d97aca06","ios":"levelo://app?vid=1498f079-e300-4265-837b-8da7d97aca06"},"vehicle_type_id":"4","last_reported":1767345304,"current_range_meters":7200,"station_id":"cpo36qri1sfpv3e86is0","pricing_plan_id":"cebpf4jnsgd1na2vs0mg"},{"bike_id":"b33aadfa-7bba-4441-8e8e-edff0fc8d195","system_id":"levelo_inurba_marseille","lat":43.270629,"lon":5.383067,"is_reserved":false,"is_disabled":false,"rental_uris":{"android":"levelo://app?vid=b33aadfa-7bba-4441-8e8e-edff0fc8d195","ios":"levelo://app?vid=b33aadfa-7bba-4441-8e8e-edff0fc8d195"},"vehicle_type_id":"4","last_reported":1767345304,"current_range_meters":7200,"station_id":"st_d3n2fo6cfp8s73cte1j0","pricing_plan_id":"cebpf4jnsgd1na2vs0mg"},{"bike_id":"961a4b80-6a80-41fc-af4e-cb7c655480a6","system_id":"levelo_inurba_marseille","lat":43.28302,"lon":5.39766,"is_reserved":false,"is_disabled":true,"rental_uris":{"android":"levelo://app?vid=961a4b80-6a80-41fc-af4e-cb7c655480a6","ios":"levelo://app?vid=961a4b80-6a80-41fc-af4e-cb7c655480a6"},"vehicle_type_id":"4","last_reported":1767345304,"current_range_meters":7200,"station_id":"","pricing_plan_id":"cebpf4jnsgd1na2vs0mg"},{"bike_id":"c9130f24-ffb5-404d-851b-31b1e51ee848","system_id":"levelo_inurba_marseille","lat":43.29273,"lon":5.38548,"is_reserved":false,"is_disabled":false,"rental_uris":{"android":"levelo://app?vid=c9130f24-ffb5-404d-851b-31b1e51ee848","ios":"levelo://app?vid=c9130f24-ffb5-404d-851b-31b1e51ee848"},"vehicle_type_id":"4","last_reported":1767345304,"current_range_meters":7200,"station_id":"ce4bh692rcd13ifvqea0","pricing_plan_id":"cebpf4jnsgd1na2vs0mg"},{"bike_id":"7ad11f56-6124-475a-8a9c-acbe7a5750ff","system_id":"levelo_inurba_marseille","lat":43.29983,"lon":5.38475,"is_reserved":false,"is_disabled":false,"rental_uris":{"android":"levelo://app?vid=7ad11f56-6124-475a-8a9c-acbe7a5750ff","ios":"levelo://app?vid=7ad11f56-6124-475a-8a9c-acbe7a5750ff"},"vehicle_type_id":"4","last_reported":1767345304,"current_range_meters":7200,"station_id":"ce4bgj92rcd13ifvqbd0","pricing_plan_id":"cebpf4jnsgd1na2vs0mg"},{"bike_id":"1f30b6ee-b668-449a-b407-bdf44b32fbd5","system_id":"levelo_inurba_marseille","lat":43.29044,"lon":5.39972,"is_reserved":false,"is_disabled":false,"rental_uris":{"android":"levelo://app?vid=1f30b6ee-b668-449a-b407-bdf44b32fbd5","ios":"levelo://app?vid=1f30b6ee-b668-449a-b407-bdf44b32fbd5"},"vehicle_type_id":"4","last_reported":1767345304,"current_range_meters":7200,"station_id":"ce4bh392rcd13ifvqdm0","pricing_plan_id":"cebpf4jnsgd1na2vs0mg"},{"bike_id":"9a253175-fef0-4c75-a8d8-bb357322efb0","system_id":"levelo_inurba_marseille","lat":43.21193,"lon":5.35075,"is_reserved":false,"is_disabled":false,"rental_uris":{"android":"levelo://app?vid=9a253175-fef0-4c75-a8d8-bb357322efb0","ios":"levelo://app?vid=9a253175-fef0-4c75-a8d8-bb357322efb0"},"vehicle_type_id":"4","last_reported":1767345304,"current_range_meters":7200,"station_id":"st_cvj6sg6p6f1abm77japg","pricing_plan_id":"cebpf4jnsgd1na2vs0mg"},{"bike_id":"f706dea8-efae-45c7-a0d0-ef3606201ff7","system_id":"levelo_inurba_marseille","lat":43.239553,"lon":5.366322,"is_reserved":false,"is_disabled":false,"rental_uris":{"android":"levelo://app?vid=f706dea8-efae-45c7-a0d0-ef3606201ff7","ios":"levelo://app?vid=f706dea8-efae-45c7-a0d0-ef3606201ff7"},"vehicle_type_id":"4","last_reported":1767345304,"current_range_meters":7200,"station_id":"ce4bhi12rcd13ifvqfp0","pricing_plan_id":"cebpf4jnsgd1na2vs0mg"},{"bike_id":"1e76a634-1236-4429-a6ca-562668962923","system_id":"levelo_inurba_marseille","lat":43.25225,"lon":5.39444,"is_reserved":false,"is_disabled":false,"rental_uris":{"android":"levelo://app?vid=1e76a634-1236-4429-a6ca-562668962923","ios":"levelo://app?vid=1e76a634-1236-4429-a6ca-562668962923"},"vehicle_type_id":"4","last_reported":1767345304,"current_range_meters":8000,"station_id":"","pricing_plan_id":"cebpf4jnsgd1na2vs0mg"},{"bike_id":"efd33062-2cef-445f-af98-648f578e9c2a","system_id":"levelo_inurba_marseille","lat":43.32589,"lon":5.41963,"is_reserved":false,"is_disabled":false,"rental_uris":{"android":"levelo://app?vid=efd33062-2cef-445f-af98-648f578e9c2a","ios":"levelo://app?vid=efd33062-2cef-445f-af98-648f578e9c2a"},"vehicle_type_id":"4","last_reported":1767345304,"current_range_meters":8000,"station_id":"","pricing_plan_id":"cebpf4jnsgd1na2vs0mg"},{"bike_id":"b7c65842-363d-43c4-92b2-529d07ea43d3","system_id":"levelo_inurba_marseille","lat":43.25859,"lon":5.39804,"is_reserved":false,"is_disabled":false,"rental_uris":{"android":"levelo://app?vid=b7c65842-363d-43c4-92b2-529d07ea43d3","ios":"levelo://app?vid=b7c65842-363d-43c4-92b2-529d07ea43d3"},"vehicle_type_id":"4","last_reported":1767345304,"current_range_meters":8000,"station_id":"","pricing_plan_id":"cebpf4jnsgd1na2vs0mg"},{"bike_id":"eae3ff06-d7a5-464a-8297-c6b4b0ceb3a3","system_id":"levelo_inurba_marseille","lat":43.29527,"lon":5.38528,"is_reserved":false,"is_disabled":false,"rental_uris":{"android":"levelo://app?vid=eae3ff06-d7a5-464a-8297-c6b4b0ceb3a3","ios":"levelo://app?vid=eae3ff06-d7a5-464a-8297-c6b4b0ceb3a3"},"vehicle_type_id":"4","last_reported":1767345304,"current_range_meters":8000,"station_id":"ce4bgih2rcd13ifvqba0","pricing_plan_id":"cebpf4jnsgd1na2vs0mg"},{"bike_id":"7f8c1213-60b7-4367-a2bf-21350ef37308","system_id":"levelo_inurba_marseille","lat":43.2738,"lon":5.36237,"is_reserved":false,"is_disabled":false,"rental_uris":{"android":"levelo://app?vid=7f8c1213-60b7-4367-a2bf-21350ef37308","ios":"levelo://app?vid=7f8c1213-60b7-4367-a2bf-21350ef37308"},"vehicle_type_id":"4","last_reported":1767345304,"current_range_meters":8000,"station_id":"ce4bhbh2rcd13ifvqeo0","pricing_plan_id":"cebpf4jnsgd1na2vs0mg"},{"bike_id":"5d64b1d9-59fb-4d57-9b2b-5de60919d0d5","system_id":"levelo_inurba_marseille","lat":43.29217,"lon":5.37031,"is_reserved":false,"is_disabled":false,"rental_uris":{"android":"levelo://app?vid=5d64b1d9-59fb-4d57-9b2b-5de60919d0d5","ios":"levelo://app?vid=5d64b1d9-59fb-4d57-9b2b-5de60919d0d5"},"vehicle_type_id":"4","last_reported":1767345304,"current_range_meters":8000,"station_id":"","pricing_plan_id":"cebpf4jnsgd1na2vs0mg"},{"bike_id":"8b1044c7-9903-454d-8bf7-ca846b48a9e1","system_id":"levelo_inurba_marseille","lat":43.337444,"lon":5.374475,"is_reserved":false,"is_disabled":false,"rental_uris":{"android":"levelo://app?vid=8b1044c7-9903-454d-8bf7-ca846b48a9e1","ios":"levelo://app?vid=8b1044c7-9903-454d-8bf7-ca846b48a9e1"},"vehicle_type_id":"4","last_reported":1767345304,"current_range_meters":8000,"station_id":"","pricing_plan_id":"cebpf4jnsgd1na2vs0mg"},{"bike_id":"50a1ce80-e2ae-4637-b1b3-c5d653d75cd1","system_id":"levelo_inurba_marseille","lat":43.3189,"lon":5.39038,"is_reserved":false,"is_disabled":false,"rental_uris":{"android":"levelo://app?vid=50a1ce80-e2ae-4637-b1b3-c5d653d75cd1","ios":"levelo://app?vid=50a1ce80-e2ae-4637-b1b3-c5d653d75cd1"},"vehicle_type_id":"4","last_reported":1767345304,"current_range_meters":8000,"station_id":"","pricing_plan_id":"cebpf4jnsgd1na2vs0mg"},{"bike_id":"d90ea927-cc8f-4bbb-a6fa-bc6608c1a260","system_id":"levelo_inurba_marseille","lat":43.29606,"lon":5.37713,"is_reserved":false,"is_disabled":true,"rental_uris":{"android":"levelo://app?vid=d90ea927-cc8f-4bbb-a6fa-bc6608c1a260","ios":"levelo://app?vid=d90ea927-cc8f-4bbb-a6fa-bc6608c1a260"},"vehicle_type_id":"4","last_reported":1767345304,"current_range_meters":8000,"station_id":"","pricing_plan_id":"cebpf4jnsgd1na2vs0mg"},{"bike_id":"d8431e58-d3e8-4456-9570-729e3ebbcc73","system_id":"levelo_inurba_marseille","lat":43.301755,"lon":5.372593,"is_reserved":false,"is_disabled":false,"rental_uris":{"android":"levelo://app?vid=d8431e58-d3e8-4456-9570-729e3ebbcc73","ios":"levelo://app?vid=d8431e58-d3e8-4456-9570-729e3ebbcc73"},"vehicle_type_id":"4","last_reported":1767345304,"current_range_meters":8000,"station_id":"","pricing_plan_id":"cebpf4jnsgd1na2vs0mg"},{"bike_id":"ab98afa8-4907-4b9f-b6c6-75e71a064cde","system_id":"levelo_inurba_marseille","lat":43.25723,"lon":5.41149,"is_reserved":false,"is_disabled":false,"rental_uris":{"android":"levelo://app?vid=ab98afa8-4907-4b9f-b6c6-75e71a064cde","ios":"levelo://app?vid=ab98afa8-4907-4b9f-b6c6-75e71a064cde"},"vehicle_type_id":"4","last_reported":1767345304,"current_range_meters":8000,"station_id":"ce4bhkp2rcd13ifvqgd0","pricing_plan_id":"cebpf4jnsgd1na2vs0mg"},{"bike_id":"5a8e23cb-d34e-4455-b0d4-2a97b4a55a8b","system_id":"levelo_inurba_marseille","lat":43.25344,"lon":5.42191,"is_reserved":false,"is_disabled":false,"rental_uris":{"android":"levelo://app?vid=5a8e23cb-d34e-4455-b0d4-2a97b4a55a8b","ios":"levelo://app?vid=5a8e23cb-d34e-4455-b0d4-2a97b4a55a8b"},"vehicle_type_id":"4","last_reported":1767345304,"current_range_meters":8000,"station_id":"st_d2m65c5bi1j21697t3ng","pricing_plan_id":"cebpf4jnsgd1na2vs0mg"},{"bike_id":"25f1743a-a2b2-454e-84ce-5c43f5ea30d3","system_id":"levelo_inurba_marseille","lat":43.298887,"lon":5.43664,"is_reserved":false,"is_disabled":false,"rental_uris":{"android":"levelo://app?vid=25f1743a-a2b2-454e-84ce-5c43f5ea30d3","ios":"levelo://app?vid=25f1743a-a2b2-454e-84ce-5c43f5ea30d3"},"vehicle_type_id":"4","last_reported":1767345304,"current_range_meters":8000,"station_id":"ce4bhpp2rcd13ifvqhfg","pricing_plan_id":"cebpf4jnsgd1na2vs0mg"},{"bike_id":"770adec0-43e5-4e4d-997f-51d8dafd046a","system_id":"levelo_inurba_marseille","lat":43.278325,"lon":5.392096,"is_reserved":false,"is_disabled":false,"rental_uris":{"android":"levelo://app?vid=770adec0-43e5-4e4d-997f-51d8dafd046a","ios":"levelo://app?vid=770adec0-43e5-4e4d-997f-51d8dafd046a"},"vehicle_type_id":"4","last_reported":1767345304,"current_range_meters":8000,"station_id":"ce4bhjp2rcd13ifvqga0","pricing_plan_id":"cebpf4jnsgd1na2vs0mg"},{"bike_id":"051f3fd6-8a3b-4cb8-bc8d-666a69e5cd08","system_id":"levelo_inurba_marseille","lat":43.25112,"lon":5.40319,"is_reserved":false,"is_disabled":false,"rental_uris":{"android":"levelo://app?vid=051f3fd6-8a3b-4cb8-bc8d-666a69e5cd08","ios":"levelo://app?vid=051f3fd6-8a3b-4cb8-bc8d-666a69e5cd08"},"vehicle_type_id":"4","last_reported":1767345304,"current_range_meters":8000,"station_id":"ce4bhlh2rcd13ifvqgig","pricing_plan_id":"cebpf4jnsgd1na2vs0mg"},{"bike_id":"ead1444d-eac1-417f-b268-ce9ed5abb843","system_id":"levelo_inurba_marseille","lat":43.29694,"lon":5.37299,"is_reserved":false,"is_disabled":false,"rental_uris":{"android":"levelo://app?vid=ead1444d-eac1-417f-b268-ce9ed5abb843","ios":"levelo://app?vid=ead1444d-eac1-417f-b268-ce9ed5abb843"},"vehicle_type_id":"4","last_reported":1767345304,"current_range_meters":8000,"station_id":"ce4bgk12rcd13ifvqbj0","pricing_plan_id":"cebpf4jnsgd1na2vs0mg"},{"bike_id":"a6e7076d-d8c4-4656-859d-6c27023029a5","system_id":"levelo_inurba_marseille","lat":43.28355,"lon":5.38626,"is_reserved":false,"is_disabled":false,"rental_uris":{"android":"levelo://app?vid=a6e7076d-d8c4-4656-859d-6c27023029a5","ios":"levelo://app?vid=a6e7076d-d8c4-4656-859d-6c27023029a5"},"vehicle_type_id":"4","last_reported":1767345304,"current_range_meters":8000,"station_id":"ce4bh492rcd13ifvqdvg","pricing_plan_id":"cebpf4jnsgd1na2vs0mg"},{"bike_id":"6d39cb04-ab3b-45c1-90d7-0c7a54998c4a","system_id":"levelo_inurba_marseille","lat":43.27915,"lon":5.37998,"is_reserved":false,"is_disabled":false,"rental_uris":{"android":"levelo://app?vid=6d39cb04-ab3b-45c1-90d7-0c7a54998c4a","ios":"levelo://app?vid=6d39cb04-ab3b-45c1-90d7-0c7a54998c4a"},"vehicle_type_id":"4","last_reported":1767345304,"current_range_meters":8000,"station_id":"ce4bhf92rcd13ifvqf50","pricing_plan_id":"cebpf4jnsgd1na2vs0mg"},{"bike_id":"e0decbbd-66f2-41ff-95bf-ae2a7b2f4e23","system_id":"levelo_inurba_marseille","lat":43.286291,"lon":5.425983,"is_reserved":false,"is_disabled":false,"rental_uris":{"android":"levelo://app?vid=e0decbbd-66f2-41ff-95bf-ae2a7b2f4e23","ios":"levelo://app?vid=e0decbbd-66f2-41ff-95bf-ae2a7b2f4e23"},"vehicle_type_id":"4","last_reported":1767345304,"current_range_meters":8000,"station_id":"","pricing_plan_id":"cebpf4jnsgd1na2vs0mg"},{"bike_id":"ae255f5c-ca45-414c-9bef-0d95c9ceafbf","system_id":"levelo_inurba_marseille","lat":43.28146,"lon":5.42663,"is_reserved":false,"is_disabled":false,"rental_uris":{"android":"levelo://app?vid=ae255f5c-ca45-414c-9bef-0d95c9ceafbf","ios":"levelo://app?vid=ae255f5c-ca45-414c-9bef-0d95c9ceafbf"},"vehicle_type_id":"4","last_reported":1767345304,"current_range_meters":8000,"station_id":"ce4bhnh2rcd13ifvqgug","pricing_plan_id":"cebpf4jnsgd1na2vs0mg"},{"bike_id":"772124ba-5420-4e94-ba55-32ef5db59e17","system_id":"levelo_inurba_marseille","lat":43.280493,"lon":5.353297,"is_reserved":false,"is_disabled":false,"rental_uris":{"android":"levelo://app?vid=772124ba-5420-4e94-ba55-32ef5db59e17","ios":"levelo://app?vid=772124ba-5420-4e94-ba55-32ef5db59e17"},"vehicle_type_id":"4","last_reported":1767345304,"current_range_meters":8000,"station_id":"","pricing_plan_id":"cebpf4jnsgd1na2vs0mg"},{"bike_id":"e11b1421-fb63-4460-8784-0bf6411ea266","system_id":"levelo_inurba_marseille","lat":43.2954,"lon":5.38982,"is_reserved":false,"is_disabled":false,"rental_uris":{"android":"levelo://app?vid=e11b1421-fb63-4460-8784-0bf6411ea266","ios":"levelo://app?vid=e11b1421-fb63-4460-8784-0bf6411ea266"},"vehicle_type_id":"4","last_reported":1767345304,"current_range_meters":8000,"station_id":"","pricing_plan_id":"cebpf4jnsgd1na2vs0mg"},{"bike_id":"3ea63038-6c6b-45f0-b75e-c21acaf1cee5","system_id":"levelo_inurba_marseille","lat":43.27396,"lon":5.39396,"is_reserved":false,"is_disabled":false,"rental_uris":{"android":"levelo://app?vid=3ea63038-6c6b-45f0-b75e-c21acaf1cee5","ios":"levelo://app?vid=3ea63038-6c6b-45f0-b75e-c21acaf1cee5"},"vehicle_type_id":"4","last_reported":1767345304,"current_range_meters":8000,"station_id":"ce4bhdp2rcd13ifvqf20","pricing_plan_id":"cebpf4jnsgd1na2vs0mg"},{"bike_id":"aa4c0c3c-20a8-4dcd-8254-3a59efbed1dc","system_id":"levelo_inurba_marseille","lat":43.28423,"lon":5.38495,"is_reserved":false,"is_disabled":false,"rental_uris":{"android":"levelo://app?vid=aa4c0c3c-20a8-4dcd-8254-3a59efbed1dc","ios":"levelo://app?vid=aa4c0c3c-20a8-4dcd-8254-3a59efbed1dc"},"vehicle_type_id":"4","last_reported":1767345304,"current_range_meters":8400,"station_id":"","pricing_plan_id":"cebpf4jnsgd1na2vs0mg"},{"bike_id":"cd58d28f-2ebc-4e43-abdf-aaaf798746bc","system_id":"levelo_inurba_marseille","lat":43.26549,"lon":5.39056,"is_reserved":false,"is_disabled":false,"rental_uris":{"android":"levelo://app?vid=cd58d28f-2ebc-4e43-abdf-aaaf798746bc","ios":"levelo://app?vid=cd58d28f-2ebc-4e43-abdf-aaaf798746bc"},"vehicle_type_id":"4","last_reported":1767345304,"current_range_meters":8400,"station_id":"ce4bhe12rcd13ifvqf30","pricing_plan_id":"cebpf4jnsgd1na2vs0mg"},{"bike_id":"3b652abb-4144-4a5b-8035-ab28a7ba1f33","system_id":"levelo_inurba_marseille","lat":43.28132,"lon":5.42646,"is_reserved":false,"is_disabled":false,"rental_uris":{"android":"levelo://app?vid=3b652abb-4144-4a5b-8035-ab28a7ba1f33","ios":"levelo://app?vid=3b652abb-4144-4a5b-8035-ab28a7ba1f33"},"vehicle_type_id":"4","last_reported":1767345304,"current_range_meters":8400,"station_id":"ce4bhnh2rcd13ifvqgug","pricing_plan_id":"cebpf4jnsgd1na2vs0mg"},{"bike_id":"f1615576-13f4-4ebf-b52d-cb46c8289f42","system_id":"levelo_inurba_marseille","lat":43.27935,"lon":5.41044,"is_reserved":false,"is_disabled":false,"rental_uris":{"android":"levelo://app?vid=f1615576-13f4-4ebf-b52d-cb46c8289f42","ios":"levelo://app?vid=f1615576-13f4-4ebf-b52d-cb46c8289f42"},"vehicle_type_id":"4","last_reported":1767345304,"current_range_meters":8400,"station_id":"ce4bhnp2rcd13ifvqh0g","pricing_plan_id":"cebpf4jnsgd1na2vs0mg"},{"bike_id":"f82d391f-fa54-4944-99a1-f43326016a14","system_id":"levelo_inurba_marseille","lat":43.31756,"lon":5.38983,"is_reserved":false,"is_disabled":false,"rental_uris":{"android":"levelo://app?vid=f82d391f-fa54-4944-99a1-f43326016a14","ios":"levelo://app?vid=f82d391f-fa54-4944-99a1-f43326016a14"},"vehicle_type_id":"4","last_reported":1767345304,"current_range_meters":8400,"station_id":"ce4bhqp2rcd13ifvqhng","pricing_plan_id":"cebpf4jnsgd1na2vs0mg"},{"bike_id":"85c0d9fd-9ae4-4d14-bbf5-3d50829a1b4d","system_id":"levelo_inurba_marseille","lat":43.299141,"lon":5.365212,"is_reserved":false,"is_disabled":false,"rental_uris":{"android":"levelo://app?vid=85c0d9fd-9ae4-4d14-bbf5-3d50829a1b4d","ios":"levelo://app?vid=85c0d9fd-9ae4-4d14-bbf5-3d50829a1b4d"},"vehicle_type_id":"4","last_reported":1767345304,"current_range_meters":8400,"station_id":"ce4bgm92rcd13ifvqbr0","pricing_plan_id":"cebpf4jnsgd1na2vs0mg"},{"bike_id":"34c978d5-47ad-4b2a-8a2f-906f7fa23f12","system_id":"levelo_inurba_marseille","lat":43.24455,"lon":5.425564,"is_reserved":false,"is_disabled":false,"rental_uris":{"android":"levelo://app?vid=34c978d5-47ad-4b2a-8a2f-906f7fa23f12","ios":"levelo://app?vid=34c978d5-47ad-4b2a-8a2f-906f7fa23f12"},"vehicle_type_id":"4","last_reported":1767345304,"current_range_meters":8400,"station_id":"st_d4a3vfp97mjs738cd8kg","pricing_plan_id":"cebpf4jnsgd1na2vs0mg"},{"bike_id":"650654d1-6b19-458f-97df-c0f29c65087f","system_id":"levelo_inurba_marseille","lat":43.26509,"lon":5.39543,"is_reserved":false,"is_disabled":false,"rental_uris":{"android":"levelo://app?vid=650654d1-6b19-458f-97df-c0f29c65087f","ios":"levelo://app?vid=650654d1-6b19-458f-97df-c0f29c65087f"},"vehicle_type_id":"4","last_reported":1767345304,"current_range_meters":8400,"station_id":"ce4bhi12rcd13ifvqfq0","pricing_plan_id":"cebpf4jnsgd1na2vs0mg"},{"bike_id":"759f8fee-06f2-4bc4-8618-03ba85bfc8da","system_id":"levelo_inurba_marseille","lat":43.29751,"lon":5.42821,"is_reserved":false,"is_disabled":false,"rental_uris":{"android":"levelo://app?vid=759f8fee-06f2-4bc4-8618-03ba85bfc8da","ios":"levelo://app?vid=759f8fee-06f2-4bc4-8618-03ba85bfc8da"},"vehicle_type_id":"4","last_reported":1767345304,"current_range_meters":8400,"station_id":"st_d3md5207bmas73dh9klg","pricing_plan_id":"cebpf4jnsgd1na2vs0mg"},{"bike_id":"b4c9a5d7-4be2-49ec-96c4-187a2a733398","system_id":"levelo_inurba_marseille","lat":43.24163,"lon":5.36391,"is_reserved":false,"is_disabled":false,"rental_uris":{"android":"levelo://app?vid=b4c9a5d7-4be2-49ec-96c4-187a2a733398","ios":"levelo://app?vid=b4c9a5d7-4be2-49ec-96c4-187a2a733398"},"vehicle_type_id":"4","last_reported":1767345304,"current_range_meters":8400,"station_id":"cpo36qri1sfpv3e86is0","pricing_plan_id":"cebpf4jnsgd1na2vs0mg"},{"bike_id":"1f4701d5-d340-4df9-98f7-8c976bc059e9","system_id":"levelo_inurba_marseille","lat":43.28301,"lon":5.35041,"is_reserved":false,"is_disabled":false,"rental_uris":{"android":"levelo://app?vid=1f4701d5-d340-4df9-98f7-8c976bc059e9","ios":"levelo://app?vid=1f4701d5-d340-4df9-98f7-8c976bc059e9"},"vehicle_type_id":"4","last_reported":1767345304,"current_range_meters":8400,"station_id":"ce4bhbp2rcd13ifvqerg","pricing_plan_id":"cebpf4jnsgd1na2vs0mg"},{"bike_id":"3ef07900-2cd6-4a20-903c-95332bacbfa3","system_id":"levelo_inurba_marseille","lat":43.3249,"lon":5.38299,"is_reserved":false,"is_disabled":false,"rental_uris":{"android":"levelo://app?vid=3ef07900-2cd6-4a20-903c-95332bacbfa3","ios":"levelo://app?vid=3ef07900-2cd6-4a20-903c-95332bacbfa3"},"vehicle_type_id":"4","last_reported":1767345304,"current_range_meters":8400,"station_id":"st_d4asgbiv49dc73anf9m0","pricing_plan_id":"cebpf4jnsgd1na2vs0mg"},{"bike_id":"77d38b76-e02c-4eee-819a-cc1efb146feb","system_id":"levelo_inurba_marseille","lat":43.28107,"lon":5.37845,"is_reserved":false,"is_disabled":false,"rental_uris":{"android":"levelo://app?vid=77d38b76-e02c-4eee-819a-cc1efb146feb","ios":"levelo://app?vid=77d38b76-e02c-4eee-819a-cc1efb146feb"},"vehicle_type_id":"4","last_reported":1767345304,"current_range_meters":8400,"station_id":"ce4bha12rcd13ifvqee0","pricing_plan_id":"cebpf4jnsgd1na2vs0mg"},{"bike_id":"61a31656-c660-4275-9928-540ad7d8758e","system_id":"levelo_inurba_marseille","lat":43.2438,"lon":5.37077,"is_reserved":false,"is_disabled":false,"rental_uris":{"android":"levelo://app?vid=61a31656-c660-4275-9928-540ad7d8758e","ios":"levelo://app?vid=61a31656-c660-4275-9928-540ad7d8758e"},"vehicle_type_id":"4","last_reported":1767345304,"current_range_meters":8400,"station_id":"ce4bhhh2rcd13ifvqfk0","pricing_plan_id":"cebpf4jnsgd1na2vs0mg"},{"bike_id":"cadc82e3-3c1e-4b3f-8452-04462e4f5cfd","system_id":"levelo_inurba_marseille","lat":43.23148,"lon":5.43738,"is_reserved":false,"is_disabled":false,"rental_uris":{"android":"levelo://app?vid=cadc82e3-3c1e-4b3f-8452-04462e4f5cfd","ios":"levelo://app?vid=cadc82e3-3c1e-4b3f-8452-04462e4f5cfd"},"vehicle_type_id":"4","last_reported":1767345304,"current_range_meters":8400,"station_id":"ce4bhmp2rcd13ifvqgog","pricing_plan_id":"cebpf4jnsgd1na2vs0mg"},{"bike_id":"898cedca-6978-4ed1-bc63-f7468fc594a3","system_id":"levelo_inurba_marseille","lat":43.31996,"lon":5.38163,"is_reserved":false,"is_disabled":false,"rental_uris":{"android":"levelo://app?vid=898cedca-6978-4ed1-bc63-f7468fc594a3","ios":"levelo://app?vid=898cedca-6978-4ed1-bc63-f7468fc594a3"},"vehicle_type_id":"4","last_reported":1767345304,"current_range_meters":8400,"station_id":"ce4bhr12rcd13ifvqhpg","pricing_plan_id":"cebpf4jnsgd1na2vs0mg"},{"bike_id":"3acbaa1d-2eae-467f-b186-127b7d72fa9a","system_id":"levelo_inurba_marseille","lat":43.25825,"lon":5.39414,"is_reserved":false,"is_disabled":false,"rental_uris":{"android":"levelo://app?vid=3acbaa1d-2eae-467f-b186-127b7d72fa9a","ios":"levelo://app?vid=3acbaa1d-2eae-467f-b186-127b7d72fa9a"},"vehicle_type_id":"4","last_reported":1767345304,"current_range_meters":8800,"station_id":"ce4bhip2rcd13ifvqft0","pricing_plan_id":"cebpf4jnsgd1na2vs0mg"},{"bike_id":"2d42aa17-c3b7-4399-a80f-3190c91cb12e","system_id":"levelo_inurba_marseille","lat":43.298091,"lon":5.440611,"is_reserved":false,"is_disabled":false,"rental_uris":{"android":"levelo://app?vid=2d42aa17-c3b7-4399-a80f-3190c91cb12e","ios":"levelo://app?vid=2d42aa17-c3b7-4399-a80f-3190c91cb12e"},"vehicle_type_id":"4","last_reported":1767345304,"current_range_meters":8800,"station_id":"st_d3jp68qikq2c7381ktn0","pricing_plan_id":"cebpf4jnsgd1na2vs0mg"},{"bike_id":"fae80570-c9d4-4aee-af35-a96795ca01bc","system_id":"levelo_inurba_marseille","lat":43.24573,"lon":5.38155,"is_reserved":false,"is_disabled":false,"rental_uris":{"android":"levelo://app?vid=fae80570-c9d4-4aee-af35-a96795ca01bc","ios":"levelo://app?vid=fae80570-c9d4-4aee-af35-a96795ca01bc"},"vehicle_type_id":"4","last_reported":1767345304,"current_range_meters":8800,"station_id":"ce4bhih2rcd13ifvqfr0","pricing_plan_id":"cebpf4jnsgd1na2vs0mg"},{"bike_id":"60a24bfa-71d1-4394-8423-89ffbc06474e","system_id":"levelo_inurba_marseille","lat":43.302874,"lon":5.376606,"is_reserved":false,"is_disabled":false,"rental_uris":{"android":"levelo://app?vid=60a24bfa-71d1-4394-8423-89ffbc06474e","ios":"levelo://app?vid=60a24bfa-71d1-4394-8423-89ffbc06474e"},"vehicle_type_id":"4","last_reported":1767345304,"current_range_meters":8800,"station_id":"ce4bguh2rcd13ifvqcj0","pricing_plan_id":"cebpf4jnsgd1na2vs0mg"},{"bike_id":"b6b7a146-8a76-4eb7-abd8-58e5d94b3994","system_id":"levelo_inurba_marseille","lat":43.24639,"lon":5.43141,"is_reserved":false,"is_disabled":false,"rental_uris":{"android":"levelo://app?vid=b6b7a146-8a76-4eb7-abd8-58e5d94b3994","ios":"levelo://app?vid=b6b7a146-8a76-4eb7-abd8-58e5d94b3994"},"vehicle_type_id":"4","last_reported":1767345304,"current_range_meters":8800,"station_id":"st_d2m6c4gdas8pm72e190g","pricing_plan_id":"cebpf4jnsgd1na2vs0mg"},{"bike_id":"637f6ca5-94b4-4966-819c-aa817ec06354","system_id":"levelo_inurba_marseille","lat":43.292226,"lon":5.360795,"is_reserved":false,"is_disabled":false,"rental_uris":{"android":"levelo://app?vid=637f6ca5-94b4-4966-819c-aa817ec06354","ios":"levelo://app?vid=637f6ca5-94b4-4966-819c-aa817ec06354"},"vehicle_type_id":"4","last_reported":1767345304,"current_range_meters":8800,"station_id":"ce4bhbh2rcd13ifvqeqg","pricing_plan_id":"cebpf4jnsgd1na2vs0mg"},{"bike_id":"c7520a13-b022-4cba-860a-1d0a7964595c","system_id":"levelo_inurba_marseille","lat":43.23061,"lon":5.35507,"is_reserved":false,"is_disabled":false,"rental_uris":{"android":"levelo://app?vid=c7520a13-b022-4cba-860a-1d0a7964595c","ios":"levelo://app?vid=c7520a13-b022-4cba-860a-1d0a7964595c"},"vehicle_type_id":"4","last_reported":1767345304,"current_range_meters":8800,"station_id":"cpo3342slgdg3j2ifvpg","pricing_plan_id":"cebpf4jnsgd1na2vs0mg"},{"bike_id":"0723e6cb-d68b-492a-9ec9-7dc733838137","system_id":"levelo_inurba_marseille","lat":43.32367,"lon":5.36761,"is_reserved":false,"is_disabled":false,"rental_uris":{"android":"levelo://app?vid=0723e6cb-d68b-492a-9ec9-7dc733838137","ios":"levelo://app?vid=0723e6cb-d68b-492a-9ec9-7dc733838137"},"vehicle_type_id":"4","last_reported":1767345304,"current_range_meters":8800,"station_id":"ce4bhsh2rcd13ifvqi2g","pricing_plan_id":"cebpf4jnsgd1na2vs0mg"},{"bike_id":"99b091c3-ae53-4b3a-9fce-ea51ad246cd0","system_id":"levelo_inurba_marseille","lat":43.28486,"lon":5.38564,"is_reserved":false,"is_disabled":false,"rental_uris":{"android":"levelo://app?vid=99b091c3-ae53-4b3a-9fce-ea51ad246cd0","ios":"levelo://app?vid=99b091c3-ae53-4b3a-9fce-ea51ad246cd0"},"vehicle_type_id":"4","last_reported":1767345304,"current_range_meters":8800,"station_id":"ce4bh8p2rcd13ifvqeb0","pricing_plan_id":"cebpf4jnsgd1na2vs0mg"},{"bike_id":"8b9044ec-34f3-40e4-9e14-9b0e8f8dc3fd","system_id":"levelo_inurba_marseille","lat":43.249984,"lon":5.389236,"is_reserved":false,"is_disabled":false,"rental_uris":{"android":"levelo://app?vid=8b9044ec-34f3-40e4-9e14-9b0e8f8dc3fd","ios":"levelo://app?vid=8b9044ec-34f3-40e4-9e14-9b0e8f8dc3fd"},"vehicle_type_id":"4","last_reported":1767345304,"current_range_meters":8800,"station_id":"ce4bhgp2rcd13ifvqfd0","pricing_plan_id":"cebpf4jnsgd1na2vs0mg"},{"bike_id":"f89a7ab5-4f10-40db-80a7-7c57c53bb059","system_id":"levelo_inurba_marseille","lat":43.2672,"lon":5.40671,"is_reserved":false,"is_disabled":false,"rental_uris":{"android":"levelo://app?vid=f89a7ab5-4f10-40db-80a7-7c57c53bb059","ios":"levelo://app?vid=f89a7ab5-4f10-40db-80a7-7c57c53bb059"},"vehicle_type_id":"4","last_reported":1767345304,"current_range_meters":8800,"station_id":"","pricing_plan_id":"cebpf4jnsgd1na2vs0mg"},{"bike_id":"1f3dd7a1-5535-4fc0-834e-8c50cf78bb81","system_id":"levelo_inurba_marseille","lat":43.29837,"lon":5.37643,"is_reserved":false,"is_disabled":false,"rental_uris":{"android":"levelo://app?vid=1f3dd7a1-5535-4fc0-834e-8c50cf78bb81","ios":"levelo://app?vid=1f3dd7a1-5535-4fc0-834e-8c50cf78bb81"},"vehicle_type_id":"4","last_reported":1767345304,"current_range_meters":8800,"station_id":"","pricing_plan_id":"cebpf4jnsgd1na2vs0mg"},{"bike_id":"5423a3a8-4e89-488f-af9d-d79b727b3b76","system_id":"levelo_inurba_marseille","lat":43.30109,"lon":5.3907,"is_reserved":false,"is_disabled":false,"rental_uris":{"android":"levelo://app?vid=5423a3a8-4e89-488f-af9d-d79b727b3b76","ios":"levelo://app?vid=5423a3a8-4e89-488f-af9d-d79b727b3b76"},"vehicle_type_id":"4","last_reported":1767345304,"current_range_meters":8800,"station_id":"ce4bh192rcd13ifvqdb0","pricing_plan_id":"cebpf4jnsgd1na2vs0mg"},{"bike_id":"96415ff9-cd65-4594-b519-e8462c67afcf","system_id":"levelo_inurba_marseille","lat":43.28528,"lon":5.44109,"is_reserved":false,"is_disabled":false,"rental_uris":{"android":"levelo://app?vid=96415ff9-cd65-4594-b519-e8462c67afcf","ios":"levelo://app?vid=96415ff9-cd65-4594-b519-e8462c67afcf"},"vehicle_type_id":"4","last_reported":1767345304,"current_range_meters":8800,"station_id":"st_d3j3df2ikq2c7380ej80","pricing_plan_id":"cebpf4jnsgd1na2vs0mg"},{"bike_id":"42d77009-fa58-4df2-b896-ba647ada43e5","system_id":"levelo_inurba_marseille","lat":43.27889,"lon":5.40474,"is_reserved":false,"is_disabled":false,"rental_uris":{"android":"levelo://app?vid=42d77009-fa58-4df2-b896-ba647ada43e5","ios":"levelo://app?vid=42d77009-fa58-4df2-b896-ba647ada43e5"},"vehicle_type_id":"4","last_reported":1767345304,"current_range_meters":8800,"station_id":"","pricing_plan_id":"cebpf4jnsgd1na2vs0mg"},{"bike_id":"83e50346-c21e-466e-8922-aea3198152db","system_id":"levelo_inurba_marseille","lat":43.23775,"lon":5.36654,"is_reserved":false,"is_disabled":false,"rental_uris":{"android":"levelo://app?vid=83e50346-c21e-466e-8922-aea3198152db","ios":"levelo://app?vid=83e50346-c21e-466e-8922-aea3198152db"},"vehicle_type_id":"4","last_reported":1767345304,"current_range_meters":8800,"station_id":"st_d3nk18o9ro0c73en2l3g","pricing_plan_id":"cebpf4jnsgd1na2vs0mg"},{"bike_id":"81640354-1fdb-4e0c-8b2a-c31f90862a44","system_id":"levelo_inurba_marseille","lat":43.30504,"lon":5.39421,"is_reserved":false,"is_disabled":false,"rental_uris":{"android":"levelo://app?vid=81640354-1fdb-4e0c-8b2a-c31f90862a44","ios":"levelo://app?vid=81640354-1fdb-4e0c-8b2a-c31f90862a44"},"vehicle_type_id":"4","last_reported":1767345304,"current_range_meters":8800,"station_id":"","pricing_plan_id":"cebpf4jnsgd1na2vs0mg"},{"bike_id":"0eb00ec3-a3c1-45cc-a1c3-262a5df4b369","system_id":"levelo_inurba_marseille","lat":43.29199,"lon":5.39325,"is_reserved":false,"is_disabled":false,"rental_uris":{"android":"levelo://app?vid=0eb00ec3-a3c1-45cc-a1c3-262a5df4b369","ios":"levelo://app?vid=0eb00ec3-a3c1-45cc-a1c3-262a5df4b369"},"vehicle_type_id":"4","last_reported":1767345304,"current_range_meters":9200,"station_id":"ce4bh192rcd13ifvqdd0","pricing_plan_id":"cebpf4jnsgd1na2vs0mg"},{"bike_id":"b62193e6-744b-4181-8bcc-23d13e78d12b","system_id":"levelo_inurba_marseille","lat":43.26558,"lon":5.40318,"is_reserved":false,"is_disabled":false,"rental_uris":{"android":"levelo://app?vid=b62193e6-744b-4181-8bcc-23d13e78d12b","ios":"levelo://app?vid=b62193e6-744b-4181-8bcc-23d13e78d12b"},"vehicle_type_id":"4","last_reported":1767345304,"current_range_meters":9200,"station_id":"ce4bhmp2rcd13ifvqgng","pricing_plan_id":"cebpf4jnsgd1na2vs0mg"},{"bike_id":"6dd8e8b5-7ce2-4a7a-9f76-de8624376801","system_id":"levelo_inurba_marseille","lat":43.24849,"lon":5.37442,"is_reserved":false,"is_disabled":false,"rental_uris":{"android":"levelo://app?vid=6dd8e8b5-7ce2-4a7a-9f76-de8624376801","ios":"levelo://app?vid=6dd8e8b5-7ce2-4a7a-9f76-de8624376801"},"vehicle_type_id":"4","last_reported":1767345304,"current_range_meters":9200,"station_id":"","pricing_plan_id":"cebpf4jnsgd1na2vs0mg"},{"bike_id":"608c7b76-23cf-40f8-94c2-a801dd95e79d","system_id":"levelo_inurba_marseille","lat":43.30874,"lon":5.36811,"is_reserved":false,"is_disabled":false,"rental_uris":{"android":"levelo://app?vid=608c7b76-23cf-40f8-94c2-a801dd95e79d","ios":"levelo://app?vid=608c7b76-23cf-40f8-94c2-a801dd95e79d"},"vehicle_type_id":"4","last_reported":1767345304,"current_range_meters":9200,"station_id":"ce4bgn92rcd13ifvqbvg","pricing_plan_id":"cebpf4jnsgd1na2vs0mg"},{"bike_id":"9feea015-e373-4e65-a8f2-66772efb3348","system_id":"levelo_inurba_marseille","lat":43.24785,"lon":5.37621,"is_reserved":false,"is_disabled":false,"rental_uris":{"android":"levelo://app?vid=9feea015-e373-4e65-a8f2-66772efb3348","ios":"levelo://app?vid=9feea015-e373-4e65-a8f2-66772efb3348"},"vehicle_type_id":"4","last_reported":1767345304,"current_range_meters":9200,"station_id":"","pricing_plan_id":"cebpf4jnsgd1na2vs0mg"},{"bike_id":"b43810b9-4ae6-4016-879d-bb6c42d90375","system_id":"levelo_inurba_marseille","lat":43.25483,"lon":5.37681,"is_reserved":false,"is_disabled":false,"rental_uris":{"android":"levelo://app?vid=b43810b9-4ae6-4016-879d-bb6c42d90375","ios":"levelo://app?vid=b43810b9-4ae6-4016-879d-bb6c42d90375"},"vehicle_type_id":"4","last_reported":1767345304,"current_range_meters":9200,"station_id":"ce4bhh12rcd13ifvqff0","pricing_plan_id":"cebpf4jnsgd1na2vs0mg"},{"bike_id":"04c541f3-b297-498e-a18e-c8c36a4fe14d","system_id":"levelo_inurba_marseille","lat":43.21194,"lon":5.35096,"is_reserved":false,"is_disabled":false,"rental_uris":{"android":"levelo://app?vid=04c541f3-b297-498e-a18e-c8c36a4fe14d","ios":"levelo://app?vid=04c541f3-b297-498e-a18e-c8c36a4fe14d"},"vehicle_type_id":"4","last_reported":1767345304,"current_range_meters":9200,"station_id":"st_cvj6sg6p6f1abm77japg","pricing_plan_id":"cebpf4jnsgd1na2vs0mg"},{"bike_id":"d17e6fe2-7a1e-4970-bf2f-cb8626ca5cf3","system_id":"levelo_inurba_marseille","lat":43.28609,"lon":5.35106,"is_reserved":false,"is_disabled":false,"rental_uris":{"android":"levelo://app?vid=d17e6fe2-7a1e-4970-bf2f-cb8626ca5cf3","ios":"levelo://app?vid=d17e6fe2-7a1e-4970-bf2f-cb8626ca5cf3"},"vehicle_type_id":"4","last_reported":1767345304,"current_range_meters":9200,"station_id":"ce4bhch2rcd13ifvqeug","pricing_plan_id":"cebpf4jnsgd1na2vs0mg"},{"bike_id":"0a40588e-9376-4455-b8a7-640085c0283b","system_id":"levelo_inurba_marseille","lat":43.27697,"lon":5.38901,"is_reserved":false,"is_disabled":false,"rental_uris":{"android":"levelo://app?vid=0a40588e-9376-4455-b8a7-640085c0283b","ios":"levelo://app?vid=0a40588e-9376-4455-b8a7-640085c0283b"},"vehicle_type_id":"4","last_reported":1767345304,"current_range_meters":9200,"station_id":"ce4bhi12rcd13ifvqfo0","pricing_plan_id":"cebpf4jnsgd1na2vs0mg"},{"bike_id":"046f6f6d-1f73-42b5-99cc-1960f79b5648","system_id":"levelo_inurba_marseille","lat":43.296815,"lon":5.372865,"is_reserved":false,"is_disabled":false,"rental_uris":{"android":"levelo://app?vid=046f6f6d-1f73-42b5-99cc-1960f79b5648","ios":"levelo://app?vid=046f6f6d-1f73-42b5-99cc-1960f79b5648"},"vehicle_type_id":"4","last_reported":1767345304,"current_range_meters":9200,"station_id":"ce4bgk12rcd13ifvqbj0","pricing_plan_id":"cebpf4jnsgd1na2vs0mg"},{"bike_id":"19ea3e44-33fe-480a-85de-3a8705428674","system_id":"levelo_inurba_marseille","lat":43.283639,"lon":5.38627,"is_reserved":false,"is_disabled":false,"rental_uris":{"android":"levelo://app?vid=19ea3e44-33fe-480a-85de-3a8705428674","ios":"levelo://app?vid=19ea3e44-33fe-480a-85de-3a8705428674"},"vehicle_type_id":"4","last_reported":1767345304,"current_range_meters":9200,"station_id":"ce4bh492rcd13ifvqdvg","pricing_plan_id":"cebpf4jnsgd1na2vs0mg"},{"bike_id":"c52e4d9b-73c6-4a4e-a517-10da5d2e095e","system_id":"levelo_inurba_marseille","lat":43.307781,"lon":5.376542,"is_reserved":false,"is_disabled":false,"rental_uris":{"android":"levelo://app?vid=c52e4d9b-73c6-4a4e-a517-10da5d2e095e","ios":"levelo://app?vid=c52e4d9b-73c6-4a4e-a517-10da5d2e095e"},"vehicle_type_id":"4","last_reported":1767345304,"current_range_meters":9200,"station_id":"ce4bgv92rcd13ifvqcq0","pricing_plan_id":"cebpf4jnsgd1na2vs0mg"},{"bike_id":"222fb9ec-2875-4ac5-9c40-850f5a12dca5","system_id":"levelo_inurba_marseille","lat":43.26952,"lon":5.38628,"is_reserved":false,"is_disabled":false,"rental_uris":{"android":"levelo://app?vid=222fb9ec-2875-4ac5-9c40-850f5a12dca5","ios":"levelo://app?vid=222fb9ec-2875-4ac5-9c40-850f5a12dca5"},"vehicle_type_id":"4","last_reported":1767345304,"current_range_meters":9200,"station_id":"ce4bhh92rcd13ifvqfh0","pricing_plan_id":"cebpf4jnsgd1na2vs0mg"},{"bike_id":"f3962737-94b9-4206-bf68-00425886742a","system_id":"levelo_inurba_marseille","lat":43.24406,"lon":5.37076,"is_reserved":false,"is_disabled":false,"rental_uris":{"android":"levelo://app?vid=f3962737-94b9-4206-bf68-00425886742a","ios":"levelo://app?vid=f3962737-94b9-4206-bf68-00425886742a"},"vehicle_type_id":"4","last_reported":1767345304,"current_range_meters":9200,"station_id":"ce4bhhh2rcd13ifvqfk0","pricing_plan_id":"cebpf4jnsgd1na2vs0mg"},{"bike_id":"f52a8ab7-621e-450b-8755-db3520da1d81","system_id":"levelo_inurba_marseille","lat":43.29934,"lon":5.36544,"is_reserved":false,"is_disabled":false,"rental_uris":{"android":"levelo://app?vid=f52a8ab7-621e-450b-8755-db3520da1d81","ios":"levelo://app?vid=f52a8ab7-621e-450b-8755-db3520da1d81"},"vehicle_type_id":"4","last_reported":1767345304,"current_range_meters":9200,"station_id":"ce4bgm92rcd13ifvqbr0","pricing_plan_id":"cebpf4jnsgd1na2vs0mg"},{"bike_id":"bc37c0d9-122a-4d74-b3e1-5b0dc8a43908","system_id":"levelo_inurba_marseille","lat":43.284911,"lon":5.428614,"is_reserved":false,"is_disabled":false,"rental_uris":{"android":"levelo://app?vid=bc37c0d9-122a-4d74-b3e1-5b0dc8a43908","ios":"levelo://app?vid=bc37c0d9-122a-4d74-b3e1-5b0dc8a43908"},"vehicle_type_id":"4","last_reported":1767345304,"current_range_meters":9200,"station_id":"","pricing_plan_id":"cebpf4jnsgd1na2vs0mg"},{"bike_id":"91cb2a4e-20f3-491f-aaf3-92b41a5985d9","system_id":"levelo_inurba_marseille","lat":43.28479,"lon":5.38424,"is_reserved":false,"is_disabled":true,"rental_uris":{"android":"levelo://app?vid=91cb2a4e-20f3-491f-aaf3-92b41a5985d9","ios":"levelo://app?vid=91cb2a4e-20f3-491f-aaf3-92b41a5985d9"},"vehicle_type_id":"4","last_reported":1767345304,"current_range_meters":9200,"station_id":"ce4bh512rcd13ifvqe3g","pricing_plan_id":"cebpf4jnsgd1na2vs0mg"},{"bike_id":"a0346e0f-5053-4c68-8ae4-a95cd85e0eb8","system_id":"levelo_inurba_marseille","lat":43.28425,"lon":5.35019,"is_reserved":false,"is_disabled":false,"rental_uris":{"android":"levelo://app?vid=a0346e0f-5053-4c68-8ae4-a95cd85e0eb8","ios":"levelo://app?vid=a0346e0f-5053-4c68-8ae4-a95cd85e0eb8"},"vehicle_type_id":"4","last_reported":1767345304,"current_range_meters":9200,"station_id":"ce4bhbh2rcd13ifvqepg","pricing_plan_id":"cebpf4jnsgd1na2vs0mg"},{"bike_id":"0d6bb5ad-dcd1-405b-b68d-99b30db1c271","system_id":"levelo_inurba_marseille","lat":43.27849,"lon":5.38597,"is_reserved":false,"is_disabled":false,"rental_uris":{"android":"levelo://app?vid=0d6bb5ad-dcd1-405b-b68d-99b30db1c271","ios":"levelo://app?vid=0d6bb5ad-dcd1-405b-b68d-99b30db1c271"},"vehicle_type_id":"4","last_reported":1767345304,"current_range_meters":9200,"station_id":"","pricing_plan_id":"cebpf4jnsgd1na2vs0mg"},{"bike_id":"5b8e0877-74d0-4505-84b4-8c7975a373e7","system_id":"levelo_inurba_marseille","lat":43.29696,"lon":5.38028,"is_reserved":false,"is_disabled":false,"rental_uris":{"android":"levelo://app?vid=5b8e0877-74d0-4505-84b4-8c7975a373e7","ios":"levelo://app?vid=5b8e0877-74d0-4505-84b4-8c7975a373e7"},"vehicle_type_id":"4","last_reported":1767345304,"current_range_meters":9200,"station_id":"","pricing_plan_id":"cebpf4jnsgd1na2vs0mg"},{"bike_id":"2b8bea13-f963-4af9-873f-0adbe68583d4","system_id":"levelo_inurba_marseille","lat":43.28859,"lon":5.42511,"is_reserved":false,"is_disabled":false,"rental_uris":{"android":"levelo://app?vid=2b8bea13-f963-4af9-873f-0adbe68583d4","ios":"levelo://app?vid=2b8bea13-f963-4af9-873f-0adbe68583d4"},"vehicle_type_id":"4","last_reported":1767345304,"current_range_meters":9600,"station_id":"st_d3b462108ojc7389ooeg","pricing_plan_id":"cebpf4jnsgd1na2vs0mg"},{"bike_id":"09a28659-b9f5-45da-a981-615cfbef00e4","system_id":"levelo_inurba_marseille","lat":43.284961,"lon":5.384291,"is_reserved":false,"is_disabled":false,"rental_uris":{"android":"levelo://app?vid=09a28659-b9f5-45da-a981-615cfbef00e4","ios":"levelo://app?vid=09a28659-b9f5-45da-a981-615cfbef00e4"},"vehicle_type_id":"4","last_reported":1767345304,"current_range_meters":9600,"station_id":"ce4bh512rcd13ifvqe3g","pricing_plan_id":"cebpf4jnsgd1na2vs0mg"},{"bike_id":"081e0fab-3d03-4c48-bb94-cc3c47c837cb","system_id":"levelo_inurba_marseille","lat":43.230693,"lon":5.354909,"is_reserved":false,"is_disabled":false,"rental_uris":{"android":"levelo://app?vid=081e0fab-3d03-4c48-bb94-cc3c47c837cb","ios":"levelo://app?vid=081e0fab-3d03-4c48-bb94-cc3c47c837cb"},"vehicle_type_id":"4","last_reported":1767345304,"current_range_meters":9600,"station_id":"cpo3342slgdg3j2ifvpg","pricing_plan_id":"cebpf4jnsgd1na2vs0mg"},{"bike_id":"649b874c-2158-4c53-8651-f5e61cfdd6d4","system_id":"levelo_inurba_marseille","lat":43.22527,"lon":5.34818,"is_reserved":false,"is_disabled":false,"rental_uris":{"android":"levelo://app?vid=649b874c-2158-4c53-8651-f5e61cfdd6d4","ios":"levelo://app?vid=649b874c-2158-4c53-8651-f5e61cfdd6d4"},"vehicle_type_id":"4","last_reported":1767345304,"current_range_meters":9600,"station_id":"","pricing_plan_id":"cebpf4jnsgd1na2vs0mg"},{"bike_id":"306081a2-d539-46c0-aa97-98b5e78347e1","system_id":"levelo_inurba_marseille","lat":43.302896,"lon":5.377029,"is_reserved":false,"is_disabled":false,"rental_uris":{"android":"levelo://app?vid=306081a2-d539-46c0-aa97-98b5e78347e1","ios":"levelo://app?vid=306081a2-d539-46c0-aa97-98b5e78347e1"},"vehicle_type_id":"4","last_reported":1767345304,"current_range_meters":9600,"station_id":"ce4bguh2rcd13ifvqcj0","pricing_plan_id":"cebpf4jnsgd1na2vs0mg"},{"bike_id":"61fae4ff-2397-4842-852a-e1069beef8c4","system_id":"levelo_inurba_marseille","lat":43.28521,"lon":5.44085,"is_reserved":false,"is_disabled":false,"rental_uris":{"android":"levelo://app?vid=61fae4ff-2397-4842-852a-e1069beef8c4","ios":"levelo://app?vid=61fae4ff-2397-4842-852a-e1069beef8c4"},"vehicle_type_id":"4","last_reported":1767345304,"current_range_meters":9600,"station_id":"st_d3j3df2ikq2c7380ej80","pricing_plan_id":"cebpf4jnsgd1na2vs0mg"},{"bike_id":"cacd189b-364d-4b1a-8882-a16ba27a8c11","system_id":"levelo_inurba_marseille","lat":43.23798,"lon":5.36619,"is_reserved":false,"is_disabled":false,"rental_uris":{"android":"levelo://app?vid=cacd189b-364d-4b1a-8882-a16ba27a8c11","ios":"levelo://app?vid=cacd189b-364d-4b1a-8882-a16ba27a8c11"},"vehicle_type_id":"4","last_reported":1767345304,"current_range_meters":9600,"station_id":"st_d3nk18o9ro0c73en2l3g","pricing_plan_id":"cebpf4jnsgd1na2vs0mg"},{"bike_id":"d7047870-e930-4dca-9d1e-e2f73db022e3","system_id":"levelo_inurba_marseille","lat":43.29647,"lon":5.37175,"is_reserved":false,"is_disabled":false,"rental_uris":{"android":"levelo://app?vid=d7047870-e930-4dca-9d1e-e2f73db022e3","ios":"levelo://app?vid=d7047870-e930-4dca-9d1e-e2f73db022e3"},"vehicle_type_id":"4","last_reported":1767345304,"current_range_meters":9600,"station_id":"ce4bgnh2rcd13ifvqc0g","pricing_plan_id":"cebpf4jnsgd1na2vs0mg"},{"bike_id":"1324860b-83ca-4a5c-ac5d-5e8f6006dada","system_id":"levelo_inurba_marseille","lat":43.28485,"lon":5.384113,"is_reserved":false,"is_disabled":false,"rental_uris":{"android":"levelo://app?vid=1324860b-83ca-4a5c-ac5d-5e8f6006dada","ios":"levelo://app?vid=1324860b-83ca-4a5c-ac5d-5e8f6006dada"},"vehicle_type_id":"4","last_reported":1767345304,"current_range_meters":9600,"station_id":"ce4bh512rcd13ifvqe3g","pricing_plan_id":"cebpf4jnsgd1na2vs0mg"},{"bike_id":"0fabb645-2483-460a-bcf7-ceb0c4cffe85","system_id":"levelo_inurba_marseille","lat":43.301363,"lon":5.374274,"is_reserved":false,"is_disabled":false,"rental_uris":{"android":"levelo://app?vid=0fabb645-2483-460a-bcf7-ceb0c4cffe85","ios":"levelo://app?vid=0fabb645-2483-460a-bcf7-ceb0c4cffe85"},"vehicle_type_id":"4","last_reported":1767345304,"current_range_meters":9600,"station_id":"ce4bgs92rcd13ifvqcc0","pricing_plan_id":"cebpf4jnsgd1na2vs0mg"},{"bike_id":"dbd743de-39c8-4832-b024-a5dd690cb2e9","system_id":"levelo_inurba_marseille","lat":43.24095,"lon":5.37747,"is_reserved":false,"is_disabled":false,"rental_uris":{"android":"levelo://app?vid=dbd743de-39c8-4832-b024-a5dd690cb2e9","ios":"levelo://app?vid=dbd743de-39c8-4832-b024-a5dd690cb2e9"},"vehicle_type_id":"4","last_reported":1767345304,"current_range_meters":9600,"station_id":"ce4bhnp2rcd13ifvqgvg","pricing_plan_id":"cebpf4jnsgd1na2vs0mg"},{"bike_id":"a8d7b9c9-9770-4e82-9b2c-b9849dc5f248","system_id":"levelo_inurba_marseille","lat":43.27062,"lon":5.42303,"is_reserved":false,"is_disabled":false,"rental_uris":{"android":"levelo://app?vid=a8d7b9c9-9770-4e82-9b2c-b9849dc5f248","ios":"levelo://app?vid=a8d7b9c9-9770-4e82-9b2c-b9849dc5f248"},"vehicle_type_id":"4","last_reported":1767345304,"current_range_meters":9600,"station_id":"ce4bhk92rcd13ifvqgb0","pricing_plan_id":"cebpf4jnsgd1na2vs0mg"},{"bike_id":"43c1a78b-d396-4314-be34-9c431dabef43","system_id":"levelo_inurba_marseille","lat":43.27064,"lon":5.42283,"is_reserved":false,"is_disabled":false,"rental_uris":{"android":"levelo://app?vid=43c1a78b-d396-4314-be34-9c431dabef43","ios":"levelo://app?vid=43c1a78b-d396-4314-be34-9c431dabef43"},"vehicle_type_id":"4","last_reported":1767345304,"current_range_meters":9600,"station_id":"ce4bhk92rcd13ifvqgb0","pricing_plan_id":"cebpf4jnsgd1na2vs0mg"},{"bike_id":"70863109-1d9f-4cf0-8c43-29a5e3efd5a3","system_id":"levelo_inurba_marseille","lat":43.28,"lon":5.40405,"is_reserved":false,"is_disabled":false,"rental_uris":{"android":"levelo://app?vid=70863109-1d9f-4cf0-8c43-29a5e3efd5a3","ios":"levelo://app?vid=70863109-1d9f-4cf0-8c43-29a5e3efd5a3"},"vehicle_type_id":"4","last_reported":1767345304,"current_range_meters":9600,"station_id":"","pricing_plan_id":"cebpf4jnsgd1na2vs0mg"},{"bike_id":"3685b9d1-5502-4285-85c5-c40c8b8f9d2a","system_id":"levelo_inurba_marseille","lat":43.3323,"lon":5.40614,"is_reserved":false,"is_disabled":false,"rental_uris":{"android":"levelo://app?vid=3685b9d1-5502-4285-85c5-c40c8b8f9d2a","ios":"levelo://app?vid=3685b9d1-5502-4285-85c5-c40c8b8f9d2a"},"vehicle_type_id":"4","last_reported":1767345304,"current_range_meters":9600,"station_id":"","pricing_plan_id":"cebpf4jnsgd1na2vs0mg"},{"bike_id":"dc55e18c-67b4-4279-9e79-6b49129449a5","system_id":"levelo_inurba_marseille","lat":43.288438,"lon":5.454806,"is_reserved":false,"is_disabled":false,"rental_uris":{"android":"levelo://app?vid=dc55e18c-67b4-4279-9e79-6b49129449a5","ios":"levelo://app?vid=dc55e18c-67b4-4279-9e79-6b49129449a5"},"vehicle_type_id":"4","last_reported":1767345304,"current_range_meters":9600,"station_id":"","pricing_plan_id":"cebpf4jnsgd1na2vs0mg"},{"bike_id":"62d141fc-c22a-48b4-9dde-33a36d03caeb","system_id":"levelo_inurba_marseille","lat":43.2901,"lon":5.35616,"is_reserved":false,"is_disabled":false,"rental_uris":{"android":"levelo://app?vid=62d141fc-c22a-48b4-9dde-33a36d03caeb","ios":"levelo://app?vid=62d141fc-c22a-48b4-9dde-33a36d03caeb"},"vehicle_type_id":"4","last_reported":1767345304,"current_range_meters":9600,"station_id":"ce4bhb92rcd13ifvqen0","pricing_plan_id":"cebpf4jnsgd1na2vs0mg"},{"bike_id":"8267fb59-887f-49c9-a554-15992e9b8b34","system_id":"levelo_inurba_marseille","lat":43.29514,"lon":5.37509,"is_reserved":false,"is_disabled":false,"rental_uris":{"android":"levelo://app?vid=8267fb59-887f-49c9-a554-15992e9b8b34","ios":"levelo://app?vid=8267fb59-887f-49c9-a554-15992e9b8b34"},"vehicle_type_id":"4","last_reported":1767345304,"current_range_meters":9600,"station_id":"ce4bgkp2rcd13ifvqbmg","pricing_plan_id":"cebpf4jnsgd1na2vs0mg"},{"bike_id":"817c4cf7-f30b-4874-8a24-b0b0aca47410","system_id":"levelo_inurba_marseille","lat":43.29003,"lon":5.37225,"is_reserved":false,"is_disabled":false,"rental_uris":{"android":"levelo://app?vid=817c4cf7-f30b-4874-8a24-b0b0aca47410","ios":"levelo://app?vid=817c4cf7-f30b-4874-8a24-b0b0aca47410"},"vehicle_type_id":"4","last_reported":1767345304,"current_range_meters":9600,"station_id":"","pricing_plan_id":"cebpf4jnsgd1na2vs0mg"},{"bike_id":"063323ae-2656-461e-a785-69320b9b378e","system_id":"levelo_inurba_marseille","lat":43.286682,"lon":5.363521,"is_reserved":false,"is_disabled":false,"rental_uris":{"android":"levelo://app?vid=063323ae-2656-461e-a785-69320b9b378e","ios":"levelo://app?vid=063323ae-2656-461e-a785-69320b9b378e"},"vehicle_type_id":"4","last_reported":1767345304,"current_range_meters":10000,"station_id":"","pricing_plan_id":"cebpf4jnsgd1na2vs0mg"},{"bike_id":"607f6356-92f4-49b1-8436-7911c576c661","system_id":"levelo_inurba_marseille","lat":43.2928,"lon":5.37395,"is_reserved":false,"is_disabled":false,"rental_uris":{"android":"levelo://app?vid=607f6356-92f4-49b1-8436-7911c576c661","ios":"levelo://app?vid=607f6356-92f4-49b1-8436-7911c576c661"},"vehicle_type_id":"4","last_reported":1767345304,"current_range_meters":10000,"station_id":"","pricing_plan_id":"cebpf4jnsgd1na2vs0mg"},{"bike_id":"3e9b8a52-1c26-4230-9ad9-77fb07c3ca7e","system_id":"levelo_inurba_marseille","lat":43.314971,"lon":5.373154,"is_reserved":false,"is_disabled":false,"rental_uris":{"android":"levelo://app?vid=3e9b8a52-1c26-4230-9ad9-77fb07c3ca7e","ios":"levelo://app?vid=3e9b8a52-1c26-4230-9ad9-77fb07c3ca7e"},"vehicle_type_id":"4","last_reported":1767345304,"current_range_meters":10000,"station_id":"","pricing_plan_id":"cebpf4jnsgd1na2vs0mg"},{"bike_id":"61ce0408-17ed-4676-9b58-e317bf8b9269","system_id":"levelo_inurba_marseille","lat":43.27321,"lon":5.391,"is_reserved":false,"is_disabled":false,"rental_uris":{"android":"levelo://app?vid=61ce0408-17ed-4676-9b58-e317bf8b9269","ios":"levelo://app?vid=61ce0408-17ed-4676-9b58-e317bf8b9269"},"vehicle_type_id":"4","last_reported":1767345304,"current_range_meters":10000,"station_id":"ce4bhgp2rcd13ifvqfe0","pricing_plan_id":"cebpf4jnsgd1na2vs0mg"},{"bike_id":"85e2684f-90a1-433b-a695-bcf01b4dba93","system_id":"levelo_inurba_marseille","lat":43.28932,"lon":5.36618,"is_reserved":false,"is_disabled":false,"rental_uris":{"android":"levelo://app?vid=85e2684f-90a1-433b-a695-bcf01b4dba93","ios":"levelo://app?vid=85e2684f-90a1-433b-a695-bcf01b4dba93"},"vehicle_type_id":"4","last_reported":1767345304,"current_range_meters":10000,"station_id":"ce4bhap2rcd13ifvqek0","pricing_plan_id":"cebpf4jnsgd1na2vs0mg"},{"bike_id":"b069e66b-3d24-44ee-a3b6-26964d74bee5","system_id":"levelo_inurba_marseille","lat":43.28022,"lon":5.40611,"is_reserved":false,"is_disabled":false,"rental_uris":{"android":"levelo://app?vid=b069e66b-3d24-44ee-a3b6-26964d74bee5","ios":"levelo://app?vid=b069e66b-3d24-44ee-a3b6-26964d74bee5"},"vehicle_type_id":"4","last_reported":1767345304,"current_range_meters":10000,"station_id":"","pricing_plan_id":"cebpf4jnsgd1na2vs0mg"},{"bike_id":"a5e341dd-f678-4ec1-a7c6-1c53bd98d5b6","system_id":"levelo_inurba_marseille","lat":43.29735,"lon":5.38077,"is_reserved":false,"is_disabled":false,"rental_uris":{"android":"levelo://app?vid=a5e341dd-f678-4ec1-a7c6-1c53bd98d5b6","ios":"levelo://app?vid=a5e341dd-f678-4ec1-a7c6-1c53bd98d5b6"},"vehicle_type_id":"4","last_reported":1767345304,"current_range_meters":10000,"station_id":"","pricing_plan_id":"cebpf4jnsgd1na2vs0mg"},{"bike_id":"5d9168d6-f5e0-4ee1-84d2-cb5f1e22c876","system_id":"levelo_inurba_marseille","lat":43.24403,"lon":5.37065,"is_reserved":false,"is_disabled":false,"rental_uris":{"android":"levelo://app?vid=5d9168d6-f5e0-4ee1-84d2-cb5f1e22c876","ios":"levelo://app?vid=5d9168d6-f5e0-4ee1-84d2-cb5f1e22c876"},"vehicle_type_id":"4","last_reported":1767345304,"current_range_meters":10000,"station_id":"ce4bhhh2rcd13ifvqfk0","pricing_plan_id":"cebpf4jnsgd1na2vs0mg"},{"bike_id":"be34864a-9081-4de9-80b6-37a3cde517d0","system_id":"levelo_inurba_marseille","lat":43.280861,"lon":5.396635,"is_reserved":false,"is_disabled":false,"rental_uris":{"android":"levelo://app?vid=be34864a-9081-4de9-80b6-37a3cde517d0","ios":"levelo://app?vid=be34864a-9081-4de9-80b6-37a3cde517d0"},"vehicle_type_id":"4","last_reported":1767345304,"current_range_meters":10000,"station_id":"ce4bho12rcd13ifvqh2g","pricing_plan_id":"cebpf4jnsgd1na2vs0mg"},{"bike_id":"2aad5c19-7962-4a02-9f37-3368ef728fe6","system_id":"levelo_inurba_marseille","lat":43.274975,"lon":5.424636,"is_reserved":false,"is_disabled":false,"rental_uris":{"android":"levelo://app?vid=2aad5c19-7962-4a02-9f37-3368ef728fe6","ios":"levelo://app?vid=2aad5c19-7962-4a02-9f37-3368ef728fe6"},"vehicle_type_id":"4","last_reported":1767345304,"current_range_meters":10800,"station_id":"ce4bhn92rcd13ifvqgrg","pricing_plan_id":"cebpf4jnsgd1na2vs0mg"},{"bike_id":"67bf8f90-a5df-42e7-b267-9ae66edff758","system_id":"levelo_inurba_marseille","lat":43.30628,"lon":5.37591,"is_reserved":false,"is_disabled":false,"rental_uris":{"android":"levelo://app?vid=67bf8f90-a5df-42e7-b267-9ae66edff758","ios":"levelo://app?vid=67bf8f90-a5df-42e7-b267-9ae66edff758"},"vehicle_type_id":"4","last_reported":1767345304,"current_range_meters":10800,"station_id":"","pricing_plan_id":"cebpf4jnsgd1na2vs0mg"},{"bike_id":"ae2222b4-a7e3-46e1-b53f-1a2cbe28159f","system_id":"levelo_inurba_marseille","lat":43.2991,"lon":5.37482,"is_reserved":false,"is_disabled":false,"rental_uris":{"android":"levelo://app?vid=ae2222b4-a7e3-46e1-b53f-1a2cbe28159f","ios":"levelo://app?vid=ae2222b4-a7e3-46e1-b53f-1a2cbe28159f"},"vehicle_type_id":"4","last_reported":1767345304,"current_range_meters":10800,"station_id":"ce4bgjh2rcd13ifvqbg0","pricing_plan_id":"cebpf4jnsgd1na2vs0mg"},{"bike_id":"014f5a53-a22e-42ae-99a9-282dfb5cd820","system_id":"levelo_inurba_marseille","lat":43.32346,"lon":5.39414,"is_reserved":false,"is_disabled":false,"rental_uris":{"android":"levelo://app?vid=014f5a53-a22e-42ae-99a9-282dfb5cd820","ios":"levelo://app?vid=014f5a53-a22e-42ae-99a9-282dfb5cd820"},"vehicle_type_id":"4","last_reported":1767345304,"current_range_meters":10800,"station_id":"","pricing_plan_id":"cebpf4jnsgd1na2vs0mg"},{"bike_id":"e0effb5a-e8c9-4234-ae32-e89cc890b254","system_id":"levelo_inurba_marseille","lat":43.28868,"lon":5.4253,"is_reserved":false,"is_disabled":false,"rental_uris":{"android":"levelo://app?vid=e0effb5a-e8c9-4234-ae32-e89cc890b254","ios":"levelo://app?vid=e0effb5a-e8c9-4234-ae32-e89cc890b254"},"vehicle_type_id":"4","last_reported":1767345304,"current_range_meters":10800,"station_id":"st_d3b462108ojc7389ooeg","pricing_plan_id":"cebpf4jnsgd1na2vs0mg"},{"bike_id":"63141a2f-efcf-4cad-8eaa-6a7f7f21c924","system_id":"levelo_inurba_marseille","lat":43.2886,"lon":5.42526,"is_reserved":false,"is_disabled":false,"rental_uris":{"android":"levelo://app?vid=63141a2f-efcf-4cad-8eaa-6a7f7f21c924","ios":"levelo://app?vid=63141a2f-efcf-4cad-8eaa-6a7f7f21c924"},"vehicle_type_id":"4","last_reported":1767345304,"current_range_meters":10800,"station_id":"st_d3b462108ojc7389ooeg","pricing_plan_id":"cebpf4jnsgd1na2vs0mg"},