{"last_updated":1731723287,"ttl":60,"version":"2.2","data":{"bikes":[{"bike_id":"2a4f068a-bf44-4be8-9720-65434032f534","system_id":"levelo_inurba_marseille","lat":43.2903,"lon":5.39389,"is_reserved":false,"is_disabled":false,"rental_uris":{"android":"levelo://app?vid=2a4f068a-bf44-4be8-9720-65434032f534","ios":"levelo://app?vid=2a4f068a-bf44-4be8-9720-65434032f534"},"vehicle_type_id":"4","last_reported":1731723287,"current_range_meters":9600,"station_id":"","pricing_plan_id":"cebpf4jnsgd1na2vs0mg"},{"bike_id":"0ced7113-db48-4671-8b7b-648b43de37ab","system_id":"levelo_inurba_marseille","lat":43.27376,"lon":5.36245,"is_reserved":false,"is_disabled":false,"rental_uris":{"android":"levelo://app?vid=0ced7113-db48-4671-8b7b-648b43de37ab","ios":"levelo://app?vid=0ced7113-db48-4671-8b7b-648b43de37ab"},"vehicle_type_id":"4","last_reported":1731723287,"current_range_meters":38800,"station_id":"ce4bhbh2rcd13ifvqeo0","pricing_plan_id":"cebpf4jnsgd1na2vs0mg"},{"bike_id":"92a89014-03e8-4b50-8361-fe403d26856d","system_id":"levelo_inurba_marseille","lat":43.30774,"lon":5.37657,"is_reserved":false,"is_disabled":false,"rental_uris":{"android":"levelo://app?vid=92a89014-03e8-4b50-8361-fe403d26856d","ios":"levelo://app?vid=92a89014-03e8-4b50-8361-fe403d26856d"},"vehicle_type_id":"4","last_reported":1731723287,"current_range_meters":16800,"station_id":"ce4bgv92rcd13ifvqcq0","pricing_plan_id":"cebpf4jnsgd1na2vs0mg"},{"bike_id":"6449248c-ddbe-49f8-8a86-d7347eab10b2","system_id":"levelo_inurba_marseille","lat":43.30891,"lon":5.39615,"is_reserved":false,"is_disabled":false,"rental_uris":{"android":"levelo://app?vid=6449248c-ddbe-49f8-8a86-d7347eab10b2","ios":"levelo://app?vid=6449248c-ddbe-49f8-8a86-d7347eab10b2"},"vehicle_type_id":"4","last_reported":1731723287,"current_range_meters":27200,"station_id":"ce4bh012rcd13ifvqcv0","pricing_plan_id":"cebpf4jnsgd1na2vs0mg"},{"bike_id":"5856ad94-bc0e-4f57-993d-864d7234767f","system_id":"levelo_inurba_marseille","lat":43.33763,"lon":5.37483,"is_reserved":false,"is_disabled":false,"rental_uris":{"android":"levelo://app?vid=5856ad94-bc0e-4f57-993d-864d7234767f","ios":"levelo://app?vid=5856ad94-bc0e-4f57-993d-864d7234767f"},"vehicle_type_id":"4","last_reported":1731723287,"current_range_meters":35200,"station_id":"","pricing_plan_id":"cebpf4jnsgd1na2vs0mg"},{"bike_id":"a1e48a91-33e6-499b-8713-a0268cd7842f","system_id":"levelo_inurba_marseille","lat":43.28461,"lon":5.35881,"is_reserved":false,"is_disabled":false,"rental_uris":{"android":"levelo://app?vid=a1e48a91-33e6-499b-8713-a0268cd7842f","ios":"levelo://app?vid=a1e48a91-33e6-499b-8713-a0268cd7842f"},"vehicle_type_id":"4","last_reported":1731723287,"current_range_meters":38800,"station_id":"ce4bhah2rcd13ifvqei0","pricing_plan_id":"cebpf4jnsgd1na2vs0mg"},{"bike_id":"31514e32-afb6-42c0-9d4e-52bc7623427d","system_id":"levelo_inurba_marseille","lat":43.31083,"lon":5.42431,"is_reserved":false,"is_disabled":false,"rental_uris":{"android":"levelo://app?vid=31514e32-afb6-42c0-9d4e-52bc7623427d","ios":"levelo://app?vid=31514e32-afb6-42c0-9d4e-52bc7623427d"},"vehicle_type_id":"4","last_reported":1731723287,"current_range_meters":38800,"station_id":"ce4bhp92rcd13ifvqhag","pricing_plan_id":"cebpf4jnsgd1na2vs0mg"},{"bike_id":"4aafe376-b9bc-4522-87a4-83d6ad5af617","system_id":"levelo_inurba_marseille","lat":43.27075,"lon":5.42267,"is_reserved":false,"is_disabled":false,"rental_uris":{"android":"levelo://app?vid=4aafe376-b9bc-4522-87a4-83d6ad5af617","ios":"levelo://app?vid=4aafe376-b9bc-4522-87a4-83d6ad5af617"},"vehicle_type_id":"4","last_reported":1731723287,"current_range_meters":40000,"station_id":"ce4bhk92rcd13ifvqgb0","pricing_plan_id":"cebpf4jnsgd1na2vs0mg"},{"bike_id":"c270d04c-d9fe-4ed7-a62f-2857d817387c","system_id":"levelo_inurba_marseille","lat":43.2846,"lon":5.35886,"is_reserved":false,"is_disabled":false,"rental_uris":{"android":"levelo://app?vid=c270d04c-d9fe-4ed7-a62f-2857d817387c","ios":"levelo://app?vid=c270d04c-d9fe-4ed7-a62f-2857d817387c"},"vehicle_type_id":"4","last_reported":1731723287,"current_range_meters":31200,"station_id":"ce4bhah2rcd13ifvqei0","pricing_plan_id":"cebpf4jnsgd1na2vs0mg"},{"bike_id":"294aeb6e-ce4b-40c3-bed6-066ae67c2e79","system_id":"levelo_inurba_marseille","lat":43.26815,"lon":5.40274,"is_reserved":false,"is_disabled":false,"rental_uris":{"android":"levelo://app?vid=294aeb6e-ce4b-40c3-bed6-066ae67c2e79","ios":"levelo://app?vid=294aeb6e-ce4b-40c3-bed6-066ae67c2e79"},"vehicle_type_id":"4","last_reported":1731723287,"current_range_meters":38800,"station_id":"ce501612rcd8frsf0b60","pricing_plan_id":"cebpf4jnsgd1na2vs0mg"},{"bike_id":"4e7db0ac-7e74-4097-a78b-07da391c2a29","system_id":"levelo_inurba_marseille","lat":43.30321,"lon":5.40442,"is_reserved":false,"is_disabled":false,"rental_uris":{"android":"levelo://app?vid=4e7db0ac-7e74-4097-a78b-07da391c2a29","ios":"levelo://app?vid=4e7db0ac-7e74-4097-a78b-07da391c2a29"},"vehicle_type_id":"4","last_reported":1731723287,"current_range_meters":14800,"station_id":"ce4bh012rcd13ifvqd10","pricing_plan_id":"cebpf4jnsgd1na2vs0mg"},{"bike_id":"cedb5219-2b87-4b0c-a204-1f1af9fed8af","system_id":"levelo_inurba_marseille","lat":43.2873,"lon":5.3607,"is_reserved":false,"is_disabled":false,"rental_uris":{"android":"levelo://app?vid=cedb5219-2b87-4b0c-a204-1f1af9fed8af","ios":"levelo://app?vid=cedb5219-2b87-4b0c-a204-1f1af9fed8af"},"vehicle_type_id":"4","last_reported":1731723287,"current_range_meters":29600,"station_id":"cki0cbj6b192h4jlfktg","pricing_plan_id":"cebpf4jnsgd1na2vs0mg"},{"bike_id":"682b87b3-f03f-42aa-b3b7-325813b49003","system_id":"levelo_inurba_marseille","lat":43.24677,"lon":5.38159,"is_reserved":false,"is_disabled":false,"rental_uris":{"android":"levelo://app?vid=682b87b3-f03f-42aa-b3b7-325813b49003","ios":"levelo://app?vid=682b87b3-f03f-42aa-b3b7-325813b49003"},"vehicle_type_id":"4","last_reported":1731723287,"current_range_meters":16000,"station_id":"ce4bhih2rcd13ifvqfr0","pricing_plan_id":"cebpf4jnsgd1na2vs0mg"},{"bike_id":"7d303ae5-669c-4540-910d-d108bfde0ab9","system_id":"levelo_inurba_marseille","lat":43.27998,"lon":5.40014,"is_reserved":false,"is_disabled":false,"rental_uris":{"android":"levelo://app?vid=7d303ae5-669c-4540-910d-d108bfde0ab9","ios":"levelo://app?vid=7d303ae5-669c-4540-910d-d108bfde0ab9"},"vehicle_type_id":"4","last_reported":1731723287,"current_range_meters":37600,"station_id":"ce4bho92rcd13ifvqh4g","pricing_plan_id":"cebpf4jnsgd1na2vs0mg"},{"bike_id":"f741c254-03e4-4b46-a1b0-9463cca3da34","system_id":"levelo_inurba_marseille","lat":43.29055,"lon":5.35917,"is_reserved":false,"is_disabled":false,"rental_uris":{"android":"levelo://app?vid=f741c254-03e4-4b46-a1b0-9463cca3da34","ios":"levelo://app?vid=f741c254-03e4-4b46-a1b0-9463cca3da34"},"vehicle_type_id":"4","last_reported":1731723287,"current_range_meters":38800,"station_id":"ce4bha92rcd13ifvqeg0","pricing_plan_id":"cebpf4jnsgd1na2vs0mg"},{"bike_id":"2b0a7153-8b33-4b27-835a-298e284f7de3","system_id":"levelo_inurba_marseille","lat":43.28695,"lon":5.37396,"is_reserved":false,"is_disabled":false,"rental_uris":{"android":"levelo://app?vid=2b0a7153-8b33-4b27-835a-298e284f7de3","ios":"levelo://app?vid=2b0a7153-8b33-4b27-835a-298e284f7de3"},"vehicle_type_id":"4","last_reported":1731723287,"current_range_meters":36400,"station_id":"ce4bh3p2rcd13ifvqdq0","pricing_plan_id":"cebpf4jnsgd1na2vs0mg"},{"bike_id":"7588c7d3-f5c9-4342-abf6-5df161530f71","system_id":"levelo_inurba_marseille","lat":43.30888,"lon":5.39623,"is_reserved":false,"is_disabled":false,"rental_uris":{"android":"levelo://app?vid=7588c7d3-f5c9-4342-abf6-5df161530f71","ios":"levelo://app?vid=7588c7d3-f5c9-4342-abf6-5df161530f71"},"vehicle_type_id":"4","last_reported":1731723287,"current_range_meters":38800,"station_id":"ce4bh012rcd13ifvqcv0","pricing_plan_id":"cebpf4jnsgd1na2vs0mg"},{"bike_id":"e6499734-b6a4-4e3c-b00e-07084e350e1a","system_id":"levelo_inurba_marseille","lat":43.27992,"lon":5.41656,"is_reserved":false,"is_disabled":false,"rental_uris":{"android":"levelo://app?vid=e6499734-b6a4-4e3c-b00e-07084e350e1a","ios":"levelo://app?vid=e6499734-b6a4-4e3c-b00e-07084e350e1a"},"vehicle_type_id":"4","last_reported":1731723287,"current_range_meters":35200,"station_id":"ce4bho12rcd13ifvqh1g","pricing_plan_id":"cebpf4jnsgd1na2vs0mg"},{"bike_id":"3bae4e2c-77b1-42c0-babd-f2355b9ae741","system_id":"levelo_inurba_marseille","lat":43.31888,"lon":5.40715,"is_reserved":false,"is_disabled":false,"rental_uris":{"android":"levelo://app?vid=3bae4e2c-77b1-42c0-babd-f2355b9ae741","ios":"levelo://app?vid=3bae4e2c-77b1-42c0-babd-f2355b9ae741"},"vehicle_type_id":"4","last_reported":1731723287,"current_range_meters":26000,"station_id":"ce4bhq12rcd13ifvqhig","pricing_plan_id":"cebpf4jnsgd1na2vs0mg"},{"bike_id":"27473974-a8f9-4698-9a62-0f5501087c82","system_id":"levelo_inurba_marseille","lat":43.28278,"lon":5.35068,"is_reserved":false,"is_disabled":false,"rental_uris":{"android":"levelo://app?vid=27473974-a8f9-4698-9a62-0f5501087c82","ios":"levelo://app?vid=27473974-a8f9-4698-9a62-0f5501087c82"},"vehicle_type_id":"4","last_reported":1731723287,"current_range_meters":22800,"station_id":"ce4bhbp2rcd13ifvqerg","pricing_plan_id":"cebpf4jnsgd1na2vs0mg"},{"bike_id":"0b995606-4707-45f4-85a4-3e178ef5e44c","system_id":"levelo_inurba_marseille","lat":43.28105,"lon":5.37834,"is_reserved":false,"is_disabled":false,"rental_uris":{"android":"levelo://app?vid=0b995606-4707-45f4-85a4-3e178ef5e44c","ios":"levelo://app?vid=0b995606-4707-45f4-85a4-3e178ef5e44c"},"vehicle_type_id":"4","last_reported":1731723287,"current_range_meters":24400,"station_id":"ce4bha12rcd13ifvqee0","pricing_plan_id":"cebpf4jnsgd1na2vs0mg"},{"bike_id":"56f1156f-10e4-4ce2-958d-81f6571929b7","system_id":"levelo_inurba_marseille","lat":43.28674,"lon":5.36353,"is_reserved":false,"is_disabled":false,"rental_uris":{"android":"levelo://app?vid=56f1156f-10e4-4ce2-958d-81f6571929b7","ios":"levelo://app?vid=56f1156f-10e4-4ce2-958d-81f6571929b7"},"vehicle_type_id":"4","last_reported":1731723287,"current_range_meters":18000,"station_id":"ce4bhah2rcd13ifvqej0","pricing_plan_id":"cebpf4jnsgd1na2vs0mg"},{"bike_id":"970aca8c-d5e6-4afc-9c71-23c4b24a4898","system_id":"levelo_inurba_marseille","lat":43.28635,"lon":5.3511,"is_reserved":false,"is_disabled":false,"rental_uris":{"android":"levelo://app?vid=970aca8c-d5e6-4afc-9c71-23c4b24a4898","ios":"levelo://app?vid=970aca8c-d5e6-4afc-9c71-23c4b24a4898"},"vehicle_type_id":"4","last_reported":1731723287,"current_range_meters":38000,"station_id":"ce4bhch2rcd13ifvqeug","pricing_plan_id":"cebpf4jnsgd1na2vs0mg"},{"bike_id":"906347f7-b857-4677-b3f3-7720e8dfadfc","system_id":"levelo_inurba_marseille","lat":43.26925,"lon":5.40276,"is_reserved":false,"is_disabled":false,"rental_uris":{"android":"levelo://app?vid=906347f7-b857-4677-b3f3-7720e8dfadfc","ios":"levelo://app?vid=906347f7-b857-4677-b3f3-7720e8dfadfc"},"vehicle_type_id":"4","last_reported":1731723287,"current_range_meters":39200,"station_id":"cjm6bp8fraef2m0cb0m0","pricing_plan_id":"cebpf4jnsgd1na2vs0mg"},{"bike_id":"35edde4f-0b19-46dc-947a-9f674d3f56de","system_id":"levelo_inurba_marseille","lat":43.28082,"lon":5.39644,"is_reserved":false,"is_disabled":false,"rental_uris":{"android":"levelo://app?vid=35edde4f-0b19-46dc-947a-9f674d3f56de","ios":"levelo://app?vid=35edde4f-0b19-46dc-947a-9f674d3f56de"},"vehicle_type_id":"4","last_reported":1731723287,"current_range_meters":35600,"station_id":"ce4bho12rcd13ifvqh2g","pricing_plan_id":"cebpf4jnsgd1na2vs0mg"},{"bike_id":"6b0ea79e-cb12-4a50-9845-e4686b3cacc8","system_id":"levelo_inurba_marseille","lat":43.295751,"lon":5.399791,"is_reserved":false,"is_disabled":false,"rental_uris":{"android":"levelo://app?vid=6b0ea79e-cb12-4a50-9845-e4686b3cacc8","ios":"levelo://app?vid=6b0ea79e-cb12-4a50-9845-e4686b3cacc8"},"vehicle_type_id":"4","last_reported":1731723287,"current_range_meters":16400,"station_id":"","pricing_plan_id":"cebpf4jnsgd1na2vs0mg"},{"bike_id":"d1658b93-d7f7-40d5-8254-375e20319a01","system_id":"levelo_inurba_marseille","lat":43.28935,"lon":5.36397,"is_reserved":false,"is_disabled":false,"rental_uris":{"android":"levelo://app?vid=d1658b93-d7f7-40d5-8254-375e20319a01","ios":"levelo://app?vid=d1658b93-d7f7-40d5-8254-375e20319a01"},"vehicle_type_id":"4","last_reported":1731723287,"current_range_meters":37600,"station_id":"ce4bhc92rcd13ifvqetg","pricing_plan_id":"cebpf4jnsgd1na2vs0mg"},{"bike_id":"50dabd59-7f8b-4a90-9fc7-a0f41c60164c","system_id":"levelo_inurba_marseille","lat":43.290591,"lon":5.375956,"is_reserved":false,"is_disabled":false,"rental_uris":{"android":"levelo://app?vid=50dabd59-7f8b-4a90-9fc7-a0f41c60164c","ios":"levelo://app?vid=50dabd59-7f8b-4a90-9fc7-a0f41c60164c"},"vehicle_type_id":"4","last_reported":1731723287,"current_range_meters":37600,"station_id":"ce4bh692rcd13ifvqe90","pricing_plan_id":"cebpf4jnsgd1na2vs0mg"},{"bike_id":"91f5d4da-bdc3-4062-a2de-d025c7b0accb","system_id":"levelo_inurba_marseille","lat":43.30372,"lon":5.41851,"is_reserved":false,"is_disabled":false,"rental_uris":{"android":"levelo://app?vid=91f5d4da-bdc3-4062-a2de-d025c7b0accb","ios":"levelo://app?vid=91f5d4da-bdc3-4062-a2de-d025c7b0accb"},"vehicle_type_id":"4","last_reported":1731723287,"current_range_meters":38000,"station_id":"ce4bhop2rcd13ifvqh7g","pricing_plan_id":"cebpf4jnsgd1na2vs0mg"},{"bike_id":"4a74f469-1d99-48ee-a8ca-9199898c00a4","system_id":"levelo_inurba_marseille","lat":43.23197,"lon":5.35533,"is_reserved":false,"is_disabled":false,"rental_uris":{"android":"levelo://app?vid=4a74f469-1d99-48ee-a8ca-9199898c00a4","ios":"levelo://app?vid=4a74f469-1d99-48ee-a8ca-9199898c00a4"},"vehicle_type_id":"4","last_reported":1731723287,"current_range_meters":10800,"station_id":"ce4bhu92rcd13ifvqi70","pricing_plan_id":"cebpf4jnsgd1na2vs0mg"},{"bike_id":"1f43be81-f60b-4996-89e7-99986d734131","system_id":"levelo_inurba_marseille","lat":43.31182,"lon":5.38709,"is_reserved":false,"is_disabled":false,"rental_uris":{"android":"levelo://app?vid=1f43be81-f60b-4996-89e7-99986d734131","ios":"levelo://app?vid=1f43be81-f60b-4996-89e7-99986d734131"},"vehicle_type_id":"4","last_reported":1731723287,"current_range_meters":38800,"station_id":"ce4bgv12rcd13ifvqcp0","pricing_plan_id":"cebpf4jnsgd1na2vs0mg"},{"bike_id":"c478ff06-0baa-4687-ac70-3188bd2aae0c","system_id":"levelo_inurba_marseille","lat":43.27627,"lon":5.36108,"is_reserved":false,"is_disabled":false,"rental_uris":{"android":"levelo://app?vid=c478ff06-0baa-4687-ac70-3188bd2aae0c","ios":"levelo://app?vid=c478ff06-0baa-4687-ac70-3188bd2aae0c"},"vehicle_type_id":"4","last_reported":1731723287,"current_range_meters":10000,"station_id":"ce4bgj92rcd13ifvqbe0","pricing_plan_id":"cebpf4jnsgd1na2vs0mg"},{"bike_id":"7b917398-baae-4151-8646-ee54ea27ce24","system_id":"levelo_inurba_marseille","lat":43.2828,"lon":5.35059,"is_reserved":false,"is_disabled":false,"rental_uris":{"android":"levelo://app?vid=7b917398-baae-4151-8646-ee54ea27ce24","ios":"levelo://app?vid=7b917398-baae-4151-8646-ee54ea27ce24"},"vehicle_type_id":"4","last_reported":1731723287,"current_range_meters":38000,"station_id":"ce4bhbp2rcd13ifvqerg","pricing_plan_id":"cebpf4jnsgd1na2vs0mg"},{"bike_id":"e4bacf1b-dac0-429e-8969-b352e374e880","system_id":"levelo_inurba_marseille","lat":43.28673,"lon":5.36362,"is_reserved":false,"is_disabled":false,"rental_uris":{"android":"levelo://app?vid=e4bacf1b-dac0-429e-8969-b352e374e880","ios":"levelo://app?vid=e4bacf1b-dac0-429e-8969-b352e374e880"},"vehicle_type_id":"4","last_reported":1731723287,"current_range_meters":16400,"station_id":"ce4bhah2rcd13ifvqej0","pricing_plan_id":"cebpf4jnsgd1na2vs0mg"},{"bike_id":"03cf4d88-24e5-4341-ad2f-27bf4c5cf444","system_id":"levelo_inurba_marseille","lat":43.3019,"lon":5.36623,"is_reserved":false,"is_disabled":false,"rental_uris":{"android":"levelo://app?vid=03cf4d88-24e5-4341-ad2f-27bf4c5cf444","ios":"levelo://app?vid=03cf4d88-24e5-4341-ad2f-27bf4c5cf444"},"vehicle_type_id":"4","last_reported":1731723287,"current_range_meters":38400,"station_id":"ce4bgrh2rcd13ifvqc8g","pricing_plan_id":"cebpf4jnsgd1na2vs0mg"},{"bike_id":"8eceee52-9d67-454d-8d2e-9d550fa1a62b","system_id":"levelo_inurba_marseille","lat":43.30803,"lon":5.38143,"is_reserved":false,"is_disabled":false,"rental_uris":{"android":"levelo://app?vid=8eceee52-9d67-454d-8d2e-9d550fa1a62b","ios":"levelo://app?vid=8eceee52-9d67-454d-8d2e-9d550fa1a62b"},"vehicle_type_id":"4","last_reported":1731723287,"current_range_meters":31200,"station_id":"ce4bgt12rcd13ifvqce0","pricing_plan_id":"cebpf4jnsgd1na2vs0mg"},{"bike_id":"c7561470-7fef-4dfb-99c4-5d7e8f8fabb2","system_id":"levelo_inurba_marseille","lat":43.31083,"lon":5.42434,"is_reserved":false,"is_disabled":false,"rental_uris":{"android":"levelo://app?vid=c7561470-7fef-4dfb-99c4-5d7e8f8fabb2","ios":"levelo://app?vid=c7561470-7fef-4dfb-99c4-5d7e8f8fabb2"},"vehicle_type_id":"4","last_reported":1731723287,"current_range_meters":18000,"station_id":"ce4bhp92rcd13ifvqhag","pricing_plan_id":"cebpf4jnsgd1na2vs0mg"},{"bike_id":"cf1c978c-a894-4364-b5d8-4723d3e24aec","system_id":"levelo_inurba_marseille","lat":43.30559,"lon":5.38453,"is_reserved":false,"is_disabled":false,"rental_uris":{"android":"levelo://app?vid=cf1c978c-a894-4364-b5d8-4723d3e24aec","ios":"levelo://app?vid=cf1c978c-a894-4364-b5d8-4723d3e24aec"},"vehicle_type_id":"4","last_reported":1731723287,"current_range_meters":29600,"station_id":"ce4bgg92rcd13ifvqb30","pricing_plan_id":"cebpf4jnsgd1na2vs0mg"},{"bike_id":"7fb58476-db09-4ebd-acf4-ddc730975619","system_id":"levelo_inurba_marseille","lat":43.31068,"lon":5.38362,"is_reserved":false,"is_disabled":false,"rental_uris":{"android":"levelo://app?vid=7fb58476-db09-4ebd-acf4-ddc730975619","ios":"levelo://app?vid=7fb58476-db09-4ebd-acf4-ddc730975619"},"vehicle_type_id":"4","last_reported":1731723287,"current_range_meters":6000,"station_id":"ce4bgv92rcd13ifvqcr0","pricing_plan_id":"cebpf4jnsgd1na2vs0mg"},{"bike_id":"c8316d23-fe67-48dd-bc26-207386238203","system_id":"levelo_inurba_marseille","lat":43.27058,"lon":5.40254,"is_reserved":false,"is_disabled":false,"rental_uris":{"android":"levelo://app?vid=c8316d23-fe67-48dd-bc26-207386238203","ios":"levelo://app?vid=c8316d23-fe67-48dd-bc26-207386238203"},"vehicle_type_id":"4","last_reported":1731723287,"current_range_meters":38800,"station_id":"ce4bhk92rcd13ifvqgc0","pricing_plan_id":"cebpf4jnsgd1na2vs0mg"},{"bike_id":"61dc5a72-902e-4195-9647-849b2eaa5d03","system_id":"levelo_inurba_marseille","lat":43.24671,"lon":5.38165,"is_reserved":false,"is_disabled":false,"rental_uris":{"android":"levelo://app?vid=61dc5a72-902e-4195-9647-849b2eaa5d03","ios":"levelo://app?vid=61dc5a72-902e-4195-9647-849b2eaa5d03"},"vehicle_type_id":"4","last_reported":1731723287,"current_range_meters":38800,"station_id":"ce4bhih2rcd13ifvqfr0","pricing_plan_id":"cebpf4jnsgd1na2vs0mg"},{"bike_id":"a699f9ef-4268-497d-8e2b-28dc07b696d4","system_id":"levelo_inurba_marseille","lat":43.28658,"lon":5.36347,"is_reserved":false,"is_disabled":false,"rental_uris":{"android":"levelo://app?vid=a699f9ef-4268-497d-8e2b-28dc07b696d4","ios":"levelo://app?vid=a699f9ef-4268-497d-8e2b-28dc07b696d4"},"vehicle_type_id":"4","last_reported":1731723287,"current_range_meters":4400,"station_id":"ce4bhah2rcd13ifvqej0","pricing_plan_id":"cebpf4jnsgd1na2vs0mg"},{"bike_id":"75fa4f2b-b147-40fd-a78a-0263ad21e532","system_id":"levelo_inurba_marseille","lat":43.28467,"lon":5.35882,"is_reserved":false,"is_disabled":false,"rental_uris":{"android":"levelo://app?vid=75fa4f2b-b147-40fd-a78a-0263ad21e532","ios":"levelo://app?vid=75fa4f2b-b147-40fd-a78a-0263ad21e532"},"vehicle_type_id":"4","last_reported":1731723287,"current_range_meters":30000,"station_id":"ce4bhah2rcd13ifvqei0","pricing_plan_id":"cebpf4jnsgd1na2vs0mg"},{"bike_id":"6c34e6b2-3fe2-4ece-b2fd-026447e5f26c","system_id":"levelo_inurba_marseille","lat":43.289273,"lon":5.396286,"is_reserved":false,"is_disabled":false,"rental_uris":{"android":"levelo://app?vid=6c34e6b2-3fe2-4ece-b2fd-026447e5f26c","ios":"levelo://app?vid=6c34e6b2-3fe2-4ece-b2fd-026447e5f26c"},"vehicle_type_id":"4","last_reported":1731723287,"current_range_meters":24800,"station_id":"ce4bh3h2rcd13ifvqdn0","pricing_plan_id":"cebpf4jnsgd1na2vs0mg"},{"bike_id":"3470a1b4-5f48-4fe4-96ec-8a40508727af","system_id":"levelo_inurba_marseille","lat":43.30249,"lon":5.40062,"is_reserved":false,"is_disabled":false,"rental_uris":{"android":"levelo://app?vid=3470a1b4-5f48-4fe4-96ec-8a40508727af","ios":"levelo://app?vid=3470a1b4-5f48-4fe4-96ec-8a40508727af"},"vehicle_type_id":"4","last_reported":1731723287,"current_range_meters":38800,"station_id":"ce4bgvh2rcd13ifvqcs0","pricing_plan_id":"cebpf4jnsgd1na2vs0mg"},{"bike_id":"6875c373-3a3e-464e-8826-15cf173d3295","system_id":"levelo_inurba_marseille","lat":43.24173,"lon":5.36401,"is_reserved":false,"is_disabled":false,"rental_uris":{"android":"levelo://app?vid=6875c373-3a3e-464e-8826-15cf173d3295","ios":"levelo://app?vid=6875c373-3a3e-464e-8826-15cf173d3295"},"vehicle_type_id":"4","last_reported":1731723287,"current_range_meters":38800,"station_id":"cpo36qri1sfpv3e86is0","pricing_plan_id":"cebpf4jnsgd1na2vs0mg"},{"bike_id":"954ca4c0-1914-4e41-bf15-1340b884a97a","system_id":"levelo_inurba_marseille","lat":43.30934,"lon":5.40136,"is_reserved":false,"is_disabled":false,"rental_uris":{"android":"levelo://app?vid=954ca4c0-1914-4e41-bf15-1340b884a97a","ios":"levelo://app?vid=954ca4c0-1914-4e41-bf15-1340b884a97a"},"vehicle_type_id":"4","last_reported":1731723287,"current_range_meters":17200,"station_id":"ce4bgvp2rcd13ifvqct0","pricing_plan_id":"cebpf4jnsgd1na2vs0mg"},{"bike_id":"5f1fae91-63dc-4abc-ab00-98c793d99553","system_id":"levelo_inurba_marseille","lat":43.31269,"lon":5.40178,"is_reserved":false,"is_disabled":false,"rental_uris":{"android":"levelo://app?vid=5f1fae91-63dc-4abc-ab00-98c793d99553","ios":"levelo://app?vid=5f1fae91-63dc-4abc-ab00-98c793d99553"},"vehicle_type_id":"4","last_reported":1731723287,"current_range_meters":35600,"station_id":"ce4bh092rcd13ifvqd30","pricing_plan_id":"cebpf4jnsgd1na2vs0mg"},{"bike_id":"7ec3ae4a-f8d4-4074-8c33-b587984e86db","system_id":"levelo_inurba_marseille","lat":43.28383,"lon":5.38641,"is_reserved":false,"is_disabled":false,"rental_uris":{"android":"levelo://app?vid=7ec3ae4a-f8d4-4074-8c33-b587984e86db","ios":"levelo://app?vid=7ec3ae4a-f8d4-4074-8c33-b587984e86db"},"vehicle_type_id":"4","last_reported":1731723287,"current_range_meters":6800,"station_id":"ce4bh492rcd13ifvqdvg","pricing_plan_id":"cebpf4jnsgd1na2vs0mg"},{"bike_id":"f1be1b21-bb29-4fee-996b-7e208af1ea1c","system_id":"levelo_inurba_marseille","lat":43.32336,"lon":5.40616,"is_reserved":false,"is_disabled":false,"rental_uris":{"android":"levelo://app?vid=f1be1b21-bb29-4fee-996b-7e208af1ea1c","ios":"levelo://app?vid=f1be1b21-bb29-4fee-996b-7e208af1ea1c"},"vehicle_type_id":"4","last_reported":1731723287,"current_range_meters":8400,"station_id":"ce4bhq92rcd13ifvqhjg","pricing_plan_id":"cebpf4jnsgd1na2vs0mg"},{"bike_id":"792ba918-f0aa-452f-8f68-1a7a13f87316","system_id":"levelo_inurba_marseille","lat":43.24669,"lon":5.38164,"is_reserved":false,"is_disabled":false,"rental_uris":{"android":"levelo://app?vid=792ba918-f0aa-452f-8f68-1a7a13f87316","ios":"levelo://app?vid=792ba918-f0aa-452f-8f68-1a7a13f87316"},"vehicle_type_id":"4","last_reported":1731723287,"current_range_meters":23200,"station_id":"ce4bhih2rcd13ifvqfr0","pricing_plan_id":"cebpf4jnsgd1na2vs0mg"},{"bike_id":"775acaae-48b0-408e-ac81-419b45fed9ef","system_id":"levelo_inurba_marseille","lat":43.30319,"lon":5.36901,"is_reserved":false,"is_disabled":false,"rental_uris":{"android":"levelo://app?vid=775acaae-48b0-408e-ac81-419b45fed9ef","ios":"levelo://app?vid=775acaae-48b0-408e-ac81-419b45fed9ef"},"vehicle_type_id":"4","last_reported":1731723287,"current_range_meters":37600,"station_id":"ce4bgqh2rcd13ifvqc5g","pricing_plan_id":"cebpf4jnsgd1na2vs0mg"},{"bike_id":"132e3872-3ace-4761-9eb5-bd18a028c15b","system_id":"levelo_inurba_marseille","lat":43.31496,"lon":5.37295,"is_reserved":false,"is_disabled":false,"rental_uris":{"android":"levelo://app?vid=132e3872-3ace-4761-9eb5-bd18a028c15b","ios":"levelo://app?vid=132e3872-3ace-4761-9eb5-bd18a028c15b"},"vehicle_type_id":"4","last_reported":1731723287,"current_range_meters":33600,"station_id":"ce4bgt12rcd13ifvqcd0","pricing_plan_id":"cebpf4jnsgd1na2vs0mg"},{"bike_id":"f271f6e7-a7ba-4b0d-942d-cc1907bed849","system_id":"levelo_inurba_marseille","lat":43.28112,"lon":5.3782,"is_reserved":false,"is_disabled":false,"rental_uris":{"android":"levelo://app?vid=f271f6e7-a7ba-4b0d-942d-cc1907bed849","ios":"levelo://app?vid=f271f6e7-a7ba-4b0d-942d-cc1907bed849"},"vehicle_type_id":"4","last_reported":1731723287,"current_range_meters":13600,"station_id":"ce4bha12rcd13ifvqee0","pricing_plan_id":"cebpf4jnsgd1na2vs0mg"},{"bike_id":"142700ad-0b34-462f-bef9-1e589c46f28d","system_id":"levelo_inurba_marseille","lat":43.28694,"lon":5.39975,"is_reserved":false,"is_disabled":false,"rental_uris":{"android":"levelo://app?vid=142700ad-0b34-462f-bef9-1e589c46f28d","ios":"levelo://app?vid=142700ad-0b34-462f-bef9-1e589c46f28d"},"vehicle_type_id":"4","last_reported":1731723287,"current_range_meters":26800,"station_id":"ce4bho92rcd13ifvqh3g","pricing_plan_id":"cebpf4jnsgd1na2vs0mg"},{"bike_id":"ae0491f3-5d70-441c-acf0-3d1e976bcd0a","system_id":"levelo_inurba_marseille","lat":43.31614,"lon":5.37849,"is_reserved":false,"is_disabled":false,"rental_uris":{"android":"levelo://app?vid=ae0491f3-5d70-441c-acf0-3d1e976bcd0a","ios":"levelo://app?vid=ae0491f3-5d70-441c-acf0-3d1e976bcd0a"},"vehicle_type_id":"4","last_reported":1731723287,"current_range_meters":8800,"station_id":"","pricing_plan_id":"cebpf4jnsgd1na2vs0mg"},{"bike_id":"35887b0d-6d57-4ac0-9658-a6a576d434c3","system_id":"levelo_inurba_marseille","lat":43.27074,"lon":5.40256,"is_reserved":false,"is_disabled":false,"rental_uris":{"android":"levelo://app?vid=35887b0d-6d57-4ac0-9658-a6a576d434c3","ios":"levelo://app?vid=35887b0d-6d57-4ac0-9658-a6a576d434c3"},"vehicle_type_id":"4","last_reported":1731723287,"current_range_meters":12400,"station_id":"ce4bhk92rcd13ifvqgc0","pricing_plan_id":"cebpf4jnsgd1na2vs0mg"},{"bike_id":"292ec6b9-529d-4ec1-b4f8-d3df413f2923","system_id":"levelo_inurba_marseille","lat":43.31707,"lon":5.43702,"is_reserved":false,"is_disabled":false,"rental_uris":{"android":"levelo://app?vid=292ec6b9-529d-4ec1-b4f8-d3df413f2923","ios":"levelo://app?vid=292ec6b9-529d-4ec1-b4f8-d3df413f2923"},"vehicle_type_id":"4","last_reported":1731723287,"current_range_meters":38800,"station_id":"ce4bhp92rcd13ifvqhcg","pricing_plan_id":"cebpf4jnsgd1na2vs0mg"},{"bike_id":"4cbd7226-43bc-4a1c-b31a-f299d9bf5ede","system_id":"levelo_inurba_marseille","lat":43.25502,"lon":5.37654,"is_reserved":false,"is_disabled":false,"rental_uris":{"android":"levelo://app?vid=4cbd7226-43bc-4a1c-b31a-f299d9bf5ede","ios":"levelo://app?vid=4cbd7226-43bc-4a1c-b31a-f299d9bf5ede"},"vehicle_type_id":"4","last_reported":1731723287,"current_range_meters":38800,"station_id":"ce4bhh12rcd13ifvqff0","pricing_plan_id":"cebpf4jnsgd1na2vs0mg"},{"bike_id":"76ada99b-13e5-4bb8-a67a-8c73c57f3f01","system_id":"levelo_inurba_marseille","lat":43.3205,"lon":5.41531,"is_reserved":false,"is_disabled":false,"rental_uris":{"android":"levelo://app?vid=76ada99b-13e5-4bb8-a67a-8c73c57f3f01","ios":"levelo://app?vid=76ada99b-13e5-4bb8-a67a-8c73c57f3f01"},"vehicle_type_id":"4","last_reported":1731723287,"current_range_meters":38800,"station_id":"ce4bhq92rcd13ifvqhkg","pricing_plan_id":"cebpf4jnsgd1na2vs0mg"},{"bike_id":"638ee7c2-fe87-45ad-9d30-192c05a964ea","system_id":"levelo_inurba_marseille","lat":43.26939,"lon":5.40238,"is_reserved":false,"is_disabled":false,"rental_uris":{"android":"levelo://app?vid=638ee7c2-fe87-45ad-9d30-192c05a964ea","ios":"levelo://app?vid=638ee7c2-fe87-45ad-9d30-192c05a964ea"},"vehicle_type_id":"4","last_reported":1731723287,"current_range_meters":32000,"station_id":"cjm6bp8fraef2m0cb0m0","pricing_plan_id":"cebpf4jnsgd1na2vs0mg"},{"bike_id":"34291358-695d-4bd4-af48-7d2df2a70518","system_id":"levelo_inurba_marseille","lat":43.28937,"lon":5.36399,"is_reserved":false,"is_disabled":false,"rental_uris":{"android":"levelo://app?vid=34291358-695d-4bd4-af48-7d2df2a70518","ios":"levelo://app?vid=34291358-695d-4bd4-af48-7d2df2a70518"},"vehicle_type_id":"4","last_reported":1731723287,"current_range_meters":38800,"station_id":"ce4bhc92rcd13ifvqetg","pricing_plan_id":"cebpf4jnsgd1na2vs0mg"},{"bike_id":"55ce4b58-a687-4463-92d0-374b1e955cfb","system_id":"levelo_inurba_marseille","lat":43.28858,"lon":5.39324,"is_reserved":false,"is_disabled":false,"rental_uris":{"android":"levelo://app?vid=55ce4b58-a687-4463-92d0-374b1e955cfb","ios":"levelo://app?vid=55ce4b58-a687-4463-92d0-374b1e955cfb"},"vehicle_type_id":"4","last_reported":1731723287,"current_range_meters":34000,"station_id":"ce4bh2p2rcd13ifvqdi0","pricing_plan_id":"cebpf4jnsgd1na2vs0mg"},{"bike_id":"c96e0bac-568d-4add-a62d-2848a5aab29f","system_id":"levelo_inurba_marseille","lat":43.28617,"lon":5.35097,"is_reserved":false,"is_disabled":false,"rental_uris":{"android":"levelo://app?vid=c96e0bac-568d-4add-a62d-2848a5aab29f","ios":"levelo://app?vid=c96e0bac-568d-4add-a62d-2848a5aab29f"},"vehicle_type_id":"4","last_reported":1731723287,"current_range_meters":20000,"station_id":"ce4bhch2rcd13ifvqeug","pricing_plan_id":"cebpf4jnsgd1na2vs0mg"},{"bike_id":"3b5c9006-44a4-4694-ae54-b9a41ba25d3f","system_id":"levelo_inurba_marseille","lat":43.30897,"lon":5.36873,"is_reserved":false,"is_disabled":false,"rental_uris":{"android":"levelo://app?vid=3b5c9006-44a4-4694-ae54-b9a41ba25d3f","ios":"levelo://app?vid=3b5c9006-44a4-4694-ae54-b9a41ba25d3f"},"vehicle_type_id":"4","last_reported":1731723287,"current_range_meters":37600,"station_id":"ce4bgn92rcd13ifvqbvg","pricing_plan_id":"cebpf4jnsgd1na2vs0mg"},{"bike_id":"82588854-e185-482e-a51c-801099d30d24","system_id":"levelo_inurba_marseille","lat":43.2469,"lon":5.38161,"is_reserved":false,"is_disabled":false,"rental_uris":{"android":"levelo://app?vid=82588854-e185-482e-a51c-801099d30d24","ios":"levelo://app?vid=82588854-e185-482e-a51c-801099d30d24"},"vehicle_type_id":"4","last_reported":1731723287,"current_range_meters":12000,"station_id":"ce4bhih2rcd13ifvqfr0","pricing_plan_id":"cebpf4jnsgd1na2vs0mg"},{"bike_id":"627befbe-ef81-4909-afe2-48970fe8987d","system_id":"levelo_inurba_marseille","lat":43.32346,"lon":5.40622,"is_reserved":false,"is_disabled":false,"rental_uris":{"android":"levelo://app?vid=627befbe-ef81-4909-afe2-48970fe8987d","ios":"levelo://app?vid=627befbe-ef81-4909-afe2-48970fe8987d"},"vehicle_type_id":"4","last_reported":1731723287,"current_range_meters":4800,"station_id":"ce4bhq92rcd13ifvqhjg","pricing_plan_id":"cebpf4jnsgd1na2vs0mg"},{"bike_id":"6b8eba9e-251e-401f-9b82-4a96d08ef40f","system_id":"levelo_inurba_marseille","lat":43.33019,"lon":5.39033,"is_reserved":false,"is_disabled":false,"rental_uris":{"android":"levelo://app?vid=6b8eba9e-251e-401f-9b82-4a96d08ef40f","ios":"levelo://app?vid=6b8eba9e-251e-401f-9b82-4a96d08ef40f"},"vehicle_type_id":"4","last_reported":1731723287,"current_range_meters":19600,"station_id":"ce4bhr92rcd13ifvqhrg","pricing_plan_id":"cebpf4jnsgd1na2vs0mg"},{"bike_id":"90911b25-e963-4eb6-94d7-5f6e3c4092c6","system_id":"levelo_inurba_marseille","lat":43.3154,"lon":5.38044,"is_reserved":false,"is_disabled":false,"rental_uris":{"android":"levelo://app?vid=90911b25-e963-4eb6-94d7-5f6e3c4092c6","ios":"levelo://app?vid=90911b25-e963-4eb6-94d7-5f6e3c4092c6"},"vehicle_type_id":"4","last_reported":1731723287,"current_range_meters":24800,"station_id":"ce4bhsp2rcd13ifvqi50","pricing_plan_id":"cebpf4jnsgd1na2vs0mg"},{"bike_id":"ebe07550-37ca-48d8-83ce-105ce1b1621c","system_id":"levelo_inurba_marseille","lat":43.30139,"lon":5.3987,"is_reserved":false,"is_disabled":false,"rental_uris":{"android":"levelo://app?vid=ebe07550-37ca-48d8-83ce-105ce1b1621c","ios":"levelo://app?vid=ebe07550-37ca-48d8-83ce-105ce1b1621c"},"vehicle_type_id":"4","last_reported":1731723287,"current_range_meters":38400,"station_id":"ce4bh0h2rcd13ifvqd40","pricing_plan_id":"cebpf4jnsgd1na2vs0mg"},{"bike_id":"8d26c847-962f-4daf-a76f-8f7efb8d12f6","system_id":"levelo_inurba_marseille","lat":43.28461,"lon":5.35885,"is_reserved":false,"is_disabled":false,"rental_uris":{"android":"levelo://app?vid=8d26c847-962f-4daf-a76f-8f7efb8d12f6","ios":"levelo://app?vid=8d26c847-962f-4daf-a76f-8f7efb8d12f6"},"vehicle_type_id":"4","last_reported":1731723287,"current_range_meters":30000,"station_id":"ce4bhah2rcd13ifvqei0","pricing_plan_id":"cebpf4jnsgd1na2vs0mg"},{"bike_id":"b41140b6-552a-4fac-81c3-2122c2ec4fd5","system_id":"levelo_inurba_marseille","lat":43.24557,"lon":5.39496,"is_reserved":false,"is_disabled":false,"rental_uris":{"android":"levelo://app?vid=b41140b6-552a-4fac-81c3-2122c2ec4fd5","ios":"levelo://app?vid=b41140b6-552a-4fac-81c3-2122c2ec4fd5"},"vehicle_type_id":"4","last_reported":1731723287,"current_range_meters":22400,"station_id":"ce4bhlp2rcd13ifvqgjg","pricing_plan_id":"cebpf4jnsgd1na2vs0mg"},{"bike_id":"c974cc8b-299b-4d52-81c8-4e50a91b9225","system_id":"levelo_inurba_marseille","lat":43.33745,"lon":5.37487,"is_reserved":false,"is_disabled":false,"rental_uris":{"android":"levelo://app?vid=c974cc8b-299b-4d52-81c8-4e50a91b9225","ios":"levelo://app?vid=c974cc8b-299b-4d52-81c8-4e50a91b9225"},"vehicle_type_id":"4","last_reported":1731723287,"current_range_meters":36400,"station_id":"","pricing_plan_id":"cebpf4jnsgd1na2vs0mg"},{"bike_id":"f86a601e-26e3-440e-a7e5-894f75bad9f4","system_id":"levelo_inurba_marseille","lat":43.337444,"lon":5.374475,"is_reserved":false,"is_disabled":false,"rental_uris":{"android":"levelo://app?vid=f86a601e-26e3-440e-a7e5-894f75bad9f4","ios":"levelo://app?vid=f86a601e-26e3-440e-a7e5-894f75bad9f4"},"vehicle_type_id":"4","last_reported":1731723287,"current_range_meters":20800,"station_id":"","pricing_plan_id":"cebpf4jnsgd1na2vs0mg"},{"bike_id":"b02cad58-3de4-410a-a29d-78e174a9d94a","system_id":"levelo_inurba_marseille","lat":43.23196,"lon":5.35552,"is_reserved":false,"is_disabled":false,"rental_uris":{"android":"levelo://app?vid=b02cad58-3de4-410a-a29d-78e174a9d94a","ios":"levelo://app?vid=b02cad58-3de4-410a-a29d-78e174a9d94a"},"vehicle_type_id":"4","last_reported":1731723287,"current_range_meters":38800,"station_id":"ce4bhu92rcd13ifvqi70","pricing_plan_id":"cebpf4jnsgd1na2vs0mg"},{"bike_id":"d4f5d7f6-c36f-4da5-a815-8cd4abb5002f","system_id":"levelo_inurba_marseille","lat":43.3031,"lon":5.39212,"is_reserved":false,"is_disabled":false,"rental_uris":{"android":"levelo://app?vid=d4f5d7f6-c36f-4da5-a815-8cd4abb5002f","ios":"levelo://app?vid=d4f5d7f6-c36f-4da5-a815-8cd4abb5002f"},"vehicle_type_id":"4","last_reported":1731723287,"current_range_meters":38400,"station_id":"ce4bgkh2rcd13ifvqbk0","pricing_plan_id":"cebpf4jnsgd1na2vs0mg"},{"bike_id":"980c2b64-5ae6-4e8e-ac4f-88eb697394b6","system_id":"levelo_inurba_marseille","lat":43.25929,"lon":5.40916,"is_reserved":false,"is_disabled":false,"rental_uris":{"android":"levelo://app?vid=980c2b64-5ae6-4e8e-ac4f-88eb697394b6","ios":"levelo://app?vid=980c2b64-5ae6-4e8e-ac4f-88eb697394b6"},"vehicle_type_id":"4","last_reported":1731723287,"current_range_meters":4000,"station_id":"ce4bhm92rcd13ifvqglg","pricing_plan_id":"cebpf4jnsgd1na2vs0mg"},{"bike_id":"00beb359-3cf2-4e01-938f-2c11b6efaf51","system_id":"levelo_inurba_marseille","lat":43.25106,"lon":5.40332,"is_reserved":false,"is_disabled":false,"rental_uris":{"android":"levelo://app?vid=00beb359-3cf2-4e01-938f-2c11b6efaf51","ios":"levelo://app?vid=00beb359-3cf2-4e01-938f-2c11b6efaf51"},"vehicle_type_id":"4","last_reported":1731723287,"current_range_meters":38400,"station_id":"ce4bhlh2rcd13ifvqgig","pricing_plan_id":"cebpf4jnsgd1na2vs0mg"},{"bike_id":"1ce2c5d9-be17-44dd-9fe0-5d621f415f9d","system_id":"levelo_inurba_marseille","lat":43.29051,"lon":5.359,"is_reserved":false,"is_disabled":false,"rental_uris":{"android":"levelo://app?vid=1ce2c5d9-be17-44dd-9fe0-5d621f415f9d","ios":"levelo://app?vid=1ce2c5d9-be17-44dd-9fe0-5d621f415f9d"},"vehicle_type_id":"4","last_reported":1731723287,"current_range_meters":31200,"station_id":"ce4bha92rcd13ifvqeg0","pricing_plan_id":"cebpf4jnsgd1na2vs0mg"},{"bike_id":"9eb2e0df-1bf4-4afc-9daf-e311e5648c03","system_id":"levelo_inurba_marseille","lat":43.255,"lon":5.37654,"is_reserved":false,"is_disabled":false,"rental_uris":{"android":"levelo://app?vid=9eb2e0df-1bf4-4afc-9daf-e311e5648c03","ios":"levelo://app?vid=9eb2e0df-1bf4-4afc-9daf-e311e5648c03"},"vehicle_type_id":"4","last_reported":1731723287,"current_range_meters":12000,"station_id":"ce4bhh12rcd13ifvqff0","pricing_plan_id":"cebpf4jnsgd1na2vs0mg"},{"bike_id":"094882c7-de43-4c5f-9830-cc5e35522806","system_id":"levelo_inurba_marseille","lat":43.30914,"lon":5.36843,"is_reserved":false,"is_disabled":false,"rental_uris":{"android":"levelo://app?vid=094882c7-de43-4c5f-9830-cc5e35522806","ios":"levelo://app?vid=094882c7-de43-4c5f-9830-cc5e35522806"},"vehicle_type_id":"4","last_reported":1731723287,"current_range_meters":19200,"station_id":"ce4bgn92rcd13ifvqbvg","pricing_plan_id":"cebpf4jnsgd1na2vs0mg"},{"bike_id":"a0ef8922-244f-4057-b694-c3a9f15d0826","system_id":"levelo_inurba_marseille","lat":43.29068,"lon":5.35891,"is_reserved":false,"is_disabled":false,"rental_uris":{"android":"levelo://app?vid=a0ef8922-244f-4057-b694-c3a9f15d0826","ios":"levelo://app?vid=a0ef8922-244f-4057-b694-c3a9f15d0826"},"vehicle_type_id":"4","last_reported":1731723287,"current_range_meters":17200,"station_id":"ce4bha92rcd13ifvqeg0","pricing_plan_id":"cebpf4jnsgd1na2vs0mg"},{"bike_id":"d94748f8-40ee-4468-9ec9-f30930775c57","system_id":"levelo_inurba_marseille","lat":43.27182,"lon":5.4098,"is_reserved":false,"is_disabled":false,"rental_uris":{"android":"levelo://app?vid=d94748f8-40ee-4468-9ec9-f30930775c57","ios":"levelo://app?vid=d94748f8-40ee-4468-9ec9-f30930775c57"},"vehicle_type_id":"4","last_reported":1731723287,"current_range_meters":38000,"station_id":"ce4bhl12rcd13ifvqgf0","pricing_plan_id":"cebpf4jnsgd1na2vs0mg"},{"bike_id":"baf948ad-adf3-41b6-8605-0b0f6b24354d","system_id":"levelo_inurba_marseille","lat":43.27885,"lon":5.36903,"is_reserved":false,"is_disabled":false,"rental_uris":{"android":"levelo://app?vid=baf948ad-adf3-41b6-8605-0b0f6b24354d","ios":"levelo://app?vid=baf948ad-adf3-41b6-8605-0b0f6b24354d"},"vehicle_type_id":"4","last_reported":1731723287,"current_range_meters":2800,"station_id":"","pricing_plan_id":"cebpf4jnsgd1na2vs0mg"},{"bike_id":"64121eb1-1cd1-4b91-ae8d-ec5240440754","system_id":"levelo_inurba_marseille","lat":43.27826,"lon":5.40693,"is_reserved":false,"is_disabled":false,"rental_uris":{"android":"levelo://app?vid=64121eb1-1cd1-4b91-ae8d-ec5240440754","ios":"levelo://app?vid=64121eb1-1cd1-4b91-ae8d-ec5240440754"},"vehicle_type_id":"4","last_reported":1731723287,"current_range_meters":11200,"station_id":"ce4bhnh2rcd13ifvqgtg","pricing_plan_id":"cebpf4jnsgd1na2vs0mg"},{"bike_id":"c7ad3112-6fa1-480b-b6f6-f0b1dce495ed","system_id":"levelo_inurba_marseille","lat":43.27381,"lon":5.3625,"is_reserved":false,"is_disabled":false,"rental_uris":{"android":"levelo://app?vid=c7ad3112-6fa1-480b-b6f6-f0b1dce495ed","ios":"levelo://app?vid=c7ad3112-6fa1-480b-b6f6-f0b1dce495ed"},"vehicle_type_id":"4","last_reported":1731723287,"current_range_meters":38000,"station_id":"ce4bhbh2rcd13ifvqeo0","pricing_plan_id":"cebpf4jnsgd1na2vs0mg"},{"bike_id":"02b2e806-f54e-47af-9af3-817f9e684f62","system_id":"levelo_inurba_marseille","lat":43.33031,"lon":5.39028,"is_reserved":false,"is_disabled":false,"rental_uris":{"android":"levelo://app?vid=02b2e806-f54e-47af-9af3-817f9e684f62","ios":"levelo://app?vid=02b2e806-f54e-47af-9af3-817f9e684f62"},"vehicle_type_id":"4","last_reported":1731723287,"current_range_meters":24000,"station_id":"ce4bhr92rcd13ifvqhrg","pricing_plan_id":"cebpf4jnsgd1na2vs0mg"},{"bike_id":"d7c640cb-2a84-4400-9766-128530948093","system_id":"levelo_inurba_marseille","lat":43.31539,"lon":5.38035,"is_reserved":false,"is_disabled":false,"rental_uris":{"android":"levelo://app?vid=d7c640cb-2a84-4400-9766-128530948093","ios":"levelo://app?vid=d7c640cb-2a84-4400-9766-128530948093"},"vehicle_type_id":"4","last_reported":1731723287,"current_range_meters":38000,"station_id":"ce4bhsp2rcd13ifvqi50","pricing_plan_id":"cebpf4jnsgd1na2vs0mg"},{"bike_id":"5c28af49-1311-42ec-956b-05a6cb87cb8d","system_id":"levelo_inurba_marseille","lat":43.27945,"lon":5.41042,"is_reserved":false,"is_disabled":false,"rental_uris":{"android":"levelo://app?vid=5c28af49-1311-42ec-956b-05a6cb87cb8d","ios":"levelo://app?vid=5c28af49-1311-42ec-956b-05a6cb87cb8d"},"vehicle_type_id":"4","last_reported":1731723287,"current_range_meters":38800,"station_id":"ce4bhnp2rcd13ifvqh0g","pricing_plan_id":"cebpf4jnsgd1na2vs0mg"},{"bike_id":"bc0d10e0-28a9-494f-accd-c09bd01bda0d","system_id":"levelo_inurba_marseille","lat":43.30317,"lon":5.4043,"is_reserved":false,"is_disabled":false,"rental_uris":{"android":"levelo://app?vid=bc0d10e0-28a9-494f-accd-c09bd01bda0d","ios":"levelo://app?vid=bc0d10e0-28a9-494f-accd-c09bd01bda0d"},"vehicle_type_id":"4","last_reported":1731723287,"current_range_meters":17600,"station_id":"ce4bh012rcd13ifvqd10","pricing_plan_id":"cebpf4jnsgd1na2vs0mg"},{"bike_id":"231f4378-294e-4117-8fb0-630e80be8890","system_id":"levelo_inurba_marseille","lat":43.25729,"lon":5.41125,"is_reserved":false,"is_disabled":false,"rental_uris":{"android":"levelo://app?vid=231f4378-294e-4117-8fb0-630e80be8890","ios":"levelo://app?vid=231f4378-294e-4117-8fb0-630e80be8890"},"vehicle_type_id":"4","last_reported":1731723287,"current_range_meters":36400,"station_id":"ce4bhkp2rcd13ifvqgd0","pricing_plan_id":"cebpf4jnsgd1na2vs0mg"},{"bike_id":"46632805-d598-46ca-8978-4f5e71b702c6","system_id":"levelo_inurba_marseille","lat":43.28145,"lon":5.42636,"is_reserved":false,"is_disabled":false,"rental_uris":{"android":"levelo://app?vid=46632805-d598-46ca-8978-4f5e71b702c6","ios":"levelo://app?vid=46632805-d598-46ca-8978-4f5e71b702c6"},"vehicle_type_id":"4","last_reported":1731723287,"current_range_meters":38800,"station_id":"ce4bhnh2rcd13ifvqgug","pricing_plan_id":"cebpf4jnsgd1na2vs0mg"},{"bike_id":"332d5444-f3a4-4221-98d6-7e8df5e52a27","system_id":"levelo_inurba_marseille","lat":43.32089,"lon":5.36791,"is_reserved":false,"is_disabled":false,"rental_uris":{"android":"levelo://app?vid=332d5444-f3a4-4221-98d6-7e8df5e52a27","ios":"levelo://app?vid=332d5444-f3a4-4221-98d6-7e8df5e52a27"},"vehicle_type_id":"4","last_reported":1731723287,"current_range_meters":22800,"station_id":"ce4bhrh2rcd13ifvqhug","pricing_plan_id":"cebpf4jnsgd1na2vs0mg"},{"bike_id":"bff2b802-22fb-4440-9ddd-c6e48a3f3504","system_id":"levelo_inurba_marseille","lat":43.32337,"lon":5.4062,"is_reserved":false,"is_disabled":false,"rental_uris":{"android":"levelo://app?vid=bff2b802-22fb-4440-9ddd-c6e48a3f3504","ios":"levelo://app?vid=bff2b802-22fb-4440-9ddd-c6e48a3f3504"},"vehicle_type_id":"4","last_reported":1731723287,"current_range_meters":27200,"station_id":"ce4bhq92rcd13ifvqhjg","pricing_plan_id":"cebpf4jnsgd1na2vs0mg"},{"bike_id":"d01dca5e-5b16-48ef-9899-62a24cb1091b","system_id":"levelo_inurba_marseille","lat":43.306,"lon":5.37251,"is_reserved":false,"is_disabled":false,"rental_uris":{"android":"levelo://app?vid=d01dca5e-5b16-48ef-9899-62a24cb1091b","ios":"levelo://app?vid=d01dca5e-5b16-48ef-9899-62a24cb1091b"},"vehicle_type_id":"4","last_reported":1731723287,"current_range_meters":33200,"station_id":"ce4bgqh2rcd13ifvqc4g","pricing_plan_id":"cebpf4jnsgd1na2vs0mg"},{"bike_id":"3b205733-6d34-4221-9f1b-fb84b42fce0c","system_id":"levelo_inurba_marseille","lat":43.30878,"lon":5.40334,"is_reserved":false,"is_disabled":false,"rental_uris":{"android":"levelo://app?vid=3b205733-6d34-4221-9f1b-fb84b42fce0c","ios":"levelo://app?vid=3b205733-6d34-4221-9f1b-fb84b42fce0c"},"vehicle_type_id":"4","last_reported":1731723287,"current_range_meters":24400,"station_id":"ce4bgvp2rcd13ifvqct0","pricing_plan_id":"cebpf4jnsgd1na2vs0mg"},{"bike_id":"a7759f52-43d8-4392-a4d7-50c3610b64f4","system_id":"levelo_inurba_marseille","lat":43.32472,"lon":5.36569,"is_reserved":false,"is_disabled":false,"rental_uris":{"android":"levelo://app?vid=a7759f52-43d8-4392-a4d7-50c3610b64f4","ios":"levelo://app?vid=a7759f52-43d8-4392-a4d7-50c3610b64f4"},"vehicle_type_id":"4","last_reported":1731723287,"current_range_meters":38800,"station_id":"ce4bhs12rcd13ifvqhvg","pricing_plan_id":"cebpf4jnsgd1na2vs0mg"},{"bike_id":"2c7da520-bf3f-4579-bbaf-d8bed38515fb","system_id":"levelo_inurba_marseille","lat":43.24656,"lon":5.38892,"is_reserved":false,"is_disabled":false,"rental_uris":{"android":"levelo://app?vid=2c7da520-bf3f-4579-bbaf-d8bed38515fb","ios":"levelo://app?vid=2c7da520-bf3f-4579-bbaf-d8bed38515fb"},"vehicle_type_id":"4","last_reported":1731723287,"current_range_meters":38800,"station_id":"ce4bhg12rcd13ifvqf60","pricing_plan_id":"cebpf4jnsgd1na2vs0mg"},{"bike_id":"f977c5f6-0664-4a1f-98cb-06e11ab740ff","system_id":"levelo_inurba_marseille","lat":43.27492,"lon":5.42453,"is_reserved":false,"is_disabled":false,"rental_uris":{"android":"levelo://app?vid=f977c5f6-0664-4a1f-98cb-06e11ab740ff","ios":"levelo://app?vid=f977c5f6-0664-4a1f-98cb-06e11ab740ff"},"vehicle_type_id":"4","last_reported":1731723287,"current_range_meters":38000,"station_id":"ce4bhn92rcd13ifvqgrg","pricing_plan_id":"cebpf4jnsgd1na2vs0mg"},{"bike_id":"0bd78abd-6114-4a5a-98c8-703e1795d3d9","system_id":"levelo_inurba_marseille","lat":43.25103,"lon":5.40325,"is_reserved":false,"is_disabled":false,"rental_uris":{"android":"levelo://app?vid=0bd78abd-6114-4a5a-98c8-703e1795d3d9","ios":"levelo://app?vid=0bd78abd-6114-4a5a-98c8-703e1795d3d9"},"vehicle_type_id":"4","last_reported":1731723287,"current_range_meters":22000,"station_id":"ce4bhlh2rcd13ifvqgig","pricing_plan_id":"cebpf4jnsgd1na2vs0mg"},{"bike_id":"d450545d-116d-4b19-a52c-b8eb7dcdcab9","system_id":"levelo_inurba_marseille","lat":43.25578,"lon":5.38243,"is_reserved":false,"is_disabled":false,"rental_uris":{"android":"levelo://app?vid=d450545d-116d-4b19-a52c-b8eb7dcdcab9","ios":"levelo://app?vid=d450545d-116d-4b19-a52c-b8eb7dcdcab9"},"vehicle_type_id":"4","last_reported":1731723287,"current_range_meters":20000,"station_id":"ce4bhih2rcd13ifvqfs0","pricing_plan_id":"cebpf4jnsgd1na2vs0mg"},{"bike_id":"60346686-846e-43e0-b1f0-095f872d71c2","system_id":"levelo_inurba_marseille","lat":43.337444,"lon":5.374475,"is_reserved":false,"is_disabled":false,"rental_uris":{"android":"levelo://app?vid=60346686-846e-43e0-b1f0-095f872d71c2","ios":"levelo://app?vid=60346686-846e-43e0-b1f0-095f872d71c2"},"vehicle_type_id":"4","last_reported":1731723287,"current_range_meters":36400,"station_id":"","pricing_plan_id":"cebpf4jnsgd1na2vs0mg"},{"bike_id":"d48d82d5-aecb-4fcc-9d67-53e0a2b37e92","system_id":"levelo_inurba_marseille","lat":43.31707,"lon":5.37771,"is_reserved":false,"is_disabled":false,"rental_uris":{"android":"levelo://app?vid=d48d82d5-aecb-4fcc-9d67-53e0a2b37e92","ios":"levelo://app?vid=d48d82d5-aecb-4fcc-9d67-53e0a2b37e92"},"vehicle_type_id":"4","last_reported":1731723287,"current_range_meters":38800,"station_id":"ce4bgth2rcd13ifvqch0","pricing_plan_id":"cebpf4jnsgd1na2vs0mg"},{"bike_id":"e678ad1e-89ab-4a11-9c18-0097221df074","system_id":"levelo_inurba_marseille","lat":43.31067,"lon":5.38359,"is_reserved":false,"is_disabled":false,"rental_uris":{"android":"levelo://app?vid=e678ad1e-89ab-4a11-9c18-0097221df074","ios":"levelo://app?vid=e678ad1e-89ab-4a11-9c18-0097221df074"},"vehicle_type_id":"4","last_reported":1731723287,"current_range_meters":7200,"station_id":"ce4bgv92rcd13ifvqcr0","pricing_plan_id":"cebpf4jnsgd1na2vs0mg"},{"bike_id":"a65a2419-69e6-4d19-b1e3-3abe61fd327b","system_id":"levelo_inurba_marseille","lat":43.24822,"lon":5.37461,"is_reserved":false,"is_disabled":false,"rental_uris":{"android":"levelo://app?vid=a65a2419-69e6-4d19-b1e3-3abe61fd327b","ios":"levelo://app?vid=a65a2419-69e6-4d19-b1e3-3abe61fd327b"},"vehicle_type_id":"4","last_reported":1731723287,"current_range_meters":36800,"station_id":"ce4bhgh2rcd13ifvqfb0","pricing_plan_id":"cebpf4jnsgd1na2vs0mg"},{"bike_id":"d206d41a-8ea1-48b7-8dea-76f005b54e28","system_id":"levelo_inurba_marseille","lat":43.337444,"lon":5.374475,"is_reserved":false,"is_disabled":false,"rental_uris":{"android":"levelo://app?vid=d206d41a-8ea1-48b7-8dea-76f005b54e28","ios":"levelo://app?vid=d206d41a-8ea1-48b7-8dea-76f005b54e28"},"vehicle_type_id":"4","last_reported":1731723287,"current_range_meters":25200,"station_id":"","pricing_plan_id":"cebpf4jnsgd1na2vs0mg"},{"bike_id":"7386319e-0d6c-493a-904a-1c5207db3d50","system_id":"levelo_inurba_marseille","lat":43.23191,"lon":5.39966,"is_reserved":false,"is_disabled":false,"rental_uris":{"android":"levelo://app?vid=7386319e-0d6c-493a-904a-1c5207db3d50","ios":"levelo://app?vid=7386319e-0d6c-493a-904a-1c5207db3d50"},"vehicle_type_id":"4","last_reported":1731723287,"current_range_meters":20000,"station_id":"ce4bhn12rcd13ifvqgqg","pricing_plan_id":"cebpf4jnsgd1na2vs0mg"},{"bike_id":"833e03e1-4c2a-4d48-b02a-e51996b7b259","system_id":"levelo_inurba_marseille","lat":43.26491,"lon":5.39569,"is_reserved":false,"is_disabled":false,"rental_uris":{"android":"levelo://app?vid=833e03e1-4c2a-4d48-b02a-e51996b7b259","ios":"levelo://app?vid=833e03e1-4c2a-4d48-b02a-e51996b7b259"},"vehicle_type_id":"4","last_reported":1731723287,"current_range_meters":4800,"station_id":"ce4bhi12rcd13ifvqfq0","pricing_plan_id":"cebpf4jnsgd1na2vs0mg"},{"bike_id":"ade60102-ea9d-4679-8d9d-2d7399f3cbd8","system_id":"levelo_inurba_marseille","lat":43.30329,"lon":5.40437,"is_reserved":false,"is_disabled":false,"rental_uris":{"android":"levelo://app?vid=ade60102-ea9d-4679-8d9d-2d7399f3cbd8","ios":"levelo://app?vid=ade60102-ea9d-4679-8d9d-2d7399f3cbd8"},"vehicle_type_id":"4","last_reported":1731723287,"current_range_meters":36800,"station_id":"ce4bh012rcd13ifvqd10","pricing_plan_id":"cebpf4jnsgd1na2vs0mg"},{"bike_id":"d6e8feec-e749-45a0-b3ee-8291aaa4304c","system_id":"levelo_inurba_marseille","lat":43.30782,"lon":5.37648,"is_reserved":false,"is_disabled":false,"rental_uris":{"android":"levelo://app?vid=d6e8feec-e749-45a0-b3ee-8291aaa4304c","ios":"levelo://app?vid=d6e8feec-e749-45a0-b3ee-8291aaa4304c"},"vehicle_type_id":"4","last_reported":1731723287,"current_range_meters":13600,"station_id":"ce4bgv92rcd13ifvqcq0","pricing_plan_id":"cebpf4jnsgd1na2vs0mg"},{"bike_id":"ca739972-eb1d-4616-979d-f007f11b8a19","system_id":"levelo_inurba_marseille","lat":43.28921,"lon":5.36388,"is_reserved":false,"is_disabled":false,"rental_uris":{"android":"levelo://app?vid=ca739972-eb1d-4616-979d-f007f11b8a19","ios":"levelo://app?vid=ca739972-eb1d-4616-979d-f007f11b8a19"},"vehicle_type_id":"4","last_reported":1731723287,"current_range_meters":32400,"station_id":"ce4bhc92rcd13ifvqetg","pricing_plan_id":"cebpf4jnsgd1na2vs0mg"},{"bike_id":"e47cfbc6-295d-4997-9bc6-0a75990e2b15","system_id":"levelo_inurba_marseille","lat":43.30935,"lon":5.40133,"is_reserved":false,"is_disabled":false,"rental_uris":{"android":"levelo://app?vid=e47cfbc6-295d-4997-9bc6-0a75990e2b15","ios":"levelo://app?vid=e47cfbc6-295d-4997-9bc6-0a75990e2b15"},"vehicle_type_id":"4","last_reported":1731723287,"current_range_meters":21600,"station_id":"ce4bgvp2rcd13ifvqct0","pricing_plan_id":"cebpf4jnsgd1na2vs0mg"},{"bike_id":"5eb7c0cd-d341-486b-8c51-e37bb89e35a3","system_id":"levelo_inurba_marseille","lat":43.28474,"lon":5.35889,"is_reserved":false,"is_disabled":false,"rental_uris":{"android":"levelo://app?vid=5eb7c0cd-d341-486b-8c51-e37bb89e35a3","ios":"levelo://app?vid=5eb7c0cd-d341-486b-8c51-e37bb89e35a3"},"vehicle_type_id":"4","last_reported":1731723287,"current_range_meters":28000,"station_id":"ce4bhah2rcd13ifvqei0","pricing_plan_id":"cebpf4jnsgd1na2vs0mg"},{"bike_id":"e840643b-28e8-43a9-959b-9ea5dd84bc43","system_id":"levelo_inurba_marseille","lat":43.28036,"lon":5.36949,"is_reserved":false,"is_disabled":false,"rental_uris":{"android":"levelo://app?vid=e840643b-28e8-43a9-959b-9ea5dd84bc43","ios":"levelo://app?vid=e840643b-28e8-43a9-959b-9ea5dd84bc43"},"vehicle_type_id":"4","last_reported":1731723287,"current_range_meters":30000,"station_id":"ce4bha12rcd13ifvqef0","pricing_plan_id":"cebpf4jnsgd1na2vs0mg"},{"bike_id":"74a565d5-8e48-40f7-859a-4d7e07a82f28","system_id":"levelo_inurba_marseille","lat":43.24072,"lon":5.37749,"is_reserved":false,"is_disabled":false,"rental_uris":{"android":"levelo://app?vid=74a565d5-8e48-40f7-859a-4d7e07a82f28","ios":"levelo://app?vid=74a565d5-8e48-40f7-859a-4d7e07a82f28"},"vehicle_type_id":"4","last_reported":1731723287,"current_range_meters":39200,"station_id":"ce4bhnp2rcd13ifvqgvg","pricing_plan_id":"cebpf4jnsgd1na2vs0mg"},{"bike_id":"5be6fbd6-1c4d-4988-b841-0013852e3d76","system_id":"levelo_inurba_marseille","lat":43.28113,"lon":5.37843,"is_reserved":false,"is_disabled":false,"rental_uris":{"android":"levelo://app?vid=5be6fbd6-1c4d-4988-b841-0013852e3d76","ios":"levelo://app?vid=5be6fbd6-1c4d-4988-b841-0013852e3d76"},"vehicle_type_id":"4","last_reported":1731723287,"current_range_meters":32800,"station_id":"ce4bha12rcd13ifvqee0","pricing_plan_id":"cebpf4jnsgd1na2vs0mg"},{"bike_id":"4dfbdc15-4058-4dbd-b40b-fe0e42040f50","system_id":"levelo_inurba_marseille","lat":43.2512,"lon":5.40325,"is_reserved":false,"is_disabled":false,"rental_uris":{"android":"levelo://app?vid=4dfbdc15-4058-4dbd-b40b-fe0e42040f50","ios":"levelo://app?vid=4dfbdc15-4058-4dbd-b40b-fe0e42040f50"},"vehicle_type_id":"4","last_reported":1731723287,"current_range_meters":38400,"station_id":"ce4bhlh2rcd13ifvqgig","pricing_plan_id":"cebpf4jnsgd1na2vs0mg"},{"bike_id":"8cdbea35-8fef-495d-8852-e267a38a3329","system_id":"levelo_inurba_marseille","lat":43.28462,"lon":5.35896,"is_reserved":false,"is_disabled":false,"rental_uris":{"android":"levelo://app?vid=8cdbea35-8fef-495d-8852-e267a38a3329","ios":"levelo://app?vid=8cdbea35-8fef-495d-8852-e267a38a3329"},"vehicle_type_id":"4","last_reported":1731723287,"current_range_meters":38800,"station_id":"ce4bhah2rcd13ifvqei0","pricing_plan_id":"cebpf4jnsgd1na2vs0mg"},{"bike_id":"9611612d-bf7b-4d8f-aeb0-7f5e1582d652","system_id":"levelo_inurba_marseille","lat":43.30807,"lon":5.43524,"is_reserved":false,"is_disabled":false,"rental_uris":{"android":"levelo://app?vid=9611612d-bf7b-4d8f-aeb0-7f5e1582d652","ios":"levelo://app?vid=9611612d-bf7b-4d8f-aeb0-7f5e1582d652"},"vehicle_type_id":"4","last_reported":1731723287,"current_range_meters":39200,"station_id":"ce4bhph2rcd13ifvqheg","pricing_plan_id":"cebpf4jnsgd1na2vs0mg"},{"bike_id":"afcb96cc-da56-41f7-8d2b-2ed6c81711b1","system_id":"levelo_inurba_marseille","lat":43.28037,"lon":5.36954,"is_reserved":false,"is_disabled":false,"rental_uris":{"android":"levelo://app?vid=afcb96cc-da56-41f7-8d2b-2ed6c81711b1","ios":"levelo://app?vid=afcb96cc-da56-41f7-8d2b-2ed6c81711b1"},"vehicle_type_id":"4","last_reported":1731723287,"current_range_meters":9600,"station_id":"ce4bha12rcd13ifvqef0","pricing_plan_id":"cebpf4jnsgd1na2vs0mg"},{"bike_id":"e017d363-fb9a-4824-8abf-234d831a57c1","system_id":"levelo_inurba_marseille","lat":43.28456,"lon":5.35888,"is_reserved":false,"is_disabled":false,"rental_uris":{"android":"levelo://app?vid=e017d363-fb9a-4824-8abf-234d831a57c1","ios":"levelo://app?vid=e017d363-fb9a-4824-8abf-234d831a57c1"},"vehicle_type_id":"4","last_reported":1731723287,"current_range_meters":36400,"station_id":"ce4bhah2rcd13ifvqei0","pricing_plan_id":"cebpf4jnsgd1na2vs0mg"},{"bike_id":"d6673d36-70c3-4468-b77c-d199ec090891","system_id":"levelo_inurba_marseille","lat":43.32291,"lon":5.38267,"is_reserved":false,"is_disabled":false,"rental_uris":{"android":"levelo://app?vid=d6673d36-70c3-4468-b77c-d199ec090891","ios":"levelo://app?vid=d6673d36-70c3-4468-b77c-d199ec090891"},"vehicle_type_id":"4","last_reported":1731723287,"current_range_meters":38800,"station_id":"ce4bhr12rcd13ifvqhqg","pricing_plan_id":"cebpf4jnsgd1na2vs0mg"},{"bike_id":"87156f78-2e09-4e66-89df-0a85c184e89b","system_id":"levelo_inurba_marseille","lat":43.27946,"lon":5.41056,"is_reserved":false,"is_disabled":false,"rental_uris":{"android":"levelo://app?vid=87156f78-2e09-4e66-89df-0a85c184e89b","ios":"levelo://app?vid=87156f78-2e09-4e66-89df-0a85c184e89b"},"vehicle_type_id":"4","last_reported":1731723287,"current_range_meters":28000,"station_id":"ce4bhnp2rcd13ifvqh0g","pricing_plan_id":"cebpf4jnsgd1na2vs0mg"},{"bike_id":"7be9199b-afb6-4033-aaf6-16840ab51d79","system_id":"levelo_inurba_marseille","lat":43.30884,"lon":5.39636,"is_reserved":false,"is_disabled":false,"rental_uris":{"android":"levelo://app?vid=7be9199b-afb6-4033-aaf6-16840ab51d79","ios":"levelo://app?vid=7be9199b-afb6-4033-aaf6-16840ab51d79"},"vehicle_type_id":"4","last_reported":1731723287,"current_range_meters":30000,"station_id":"ce4bh012rcd13ifvqcv0","pricing_plan_id":"cebpf4jnsgd1na2vs0mg"},{"bike_id":"c816e6ae-a771-4af2-b278-a64d00c2c224","system_id":"levelo_inurba_marseille","lat":43.27836,"lon":5.392,"is_reserved":false,"is_disabled":false,"rental_uris":{"android":"levelo://app?vid=c816e6ae-a771-4af2-b278-a64d00c2c224","ios":"levelo://app?vid=c816e6ae-a771-4af2-b278-a64d00c2c224"},"vehicle_type_id":"4","last_reported":1731723287,"current_range_meters":12000,"station_id":"ce4bhjp2rcd13ifvqga0","pricing_plan_id":"cebpf4jnsgd1na2vs0mg"},{"bike_id":"778baa8d-28ef-47db-a2be-5c1cf7384e47","system_id":"levelo_inurba_marseille","lat":43.3095,"lon":5.3903,"is_reserved":false,"is_disabled":false,"rental_uris":{"android":"levelo://app?vid=778baa8d-28ef-47db-a2be-5c1cf7384e47","ios":"levelo://app?vid=778baa8d-28ef-47db-a2be-5c1cf7384e47"},"vehicle_type_id":"4","last_reported":1731723287,"current_range_meters":4000,"station_id":"ce4bgup2rcd13ifvqco0","pricing_plan_id":"cebpf4jnsgd1na2vs0mg"},{"bike_id":"04246129-5461-4657-8b0a-917c23e4a028","system_id":"levelo_inurba_marseille","lat":43.27164,"lon":5.40997,"is_reserved":false,"is_disabled":false,"rental_uris":{"android":"levelo://app?vid=04246129-5461-4657-8b0a-917c23e4a028","ios":"levelo://app?vid=04246129-5461-4657-8b0a-917c23e4a028"},"vehicle_type_id":"4","last_reported":1731723287,"current_range_meters":38800,"station_id":"ce4bhl12rcd13ifvqgf0","pricing_plan_id":"cebpf4jnsgd1na2vs0mg"},{"bike_id":"f27ac5a2-a8d3-4d0e-965a-c7dc32a05a7b","system_id":"levelo_inurba_marseille","lat":43.28841,"lon":5.35834,"is_reserved":false,"is_disabled":false,"rental_uris":{"android":"levelo://app?vid=f27ac5a2-a8d3-4d0e-965a-c7dc32a05a7b","ios":"levelo://app?vid=f27ac5a2-a8d3-4d0e-965a-c7dc32a05a7b"},"vehicle_type_id":"4","last_reported":1731723287,"current_range_meters":14400,"station_id":"ce4bhb12rcd13ifvqem0","pricing_plan_id":"cebpf4jnsgd1na2vs0mg"},{"bike_id":"d07e259f-8230-4615-90e3-d23e0913390d","system_id":"levelo_inurba_marseille","lat":43.28723,"lon":5.37945,"is_reserved":false,"is_disabled":false,"rental_uris":{"android":"levelo://app?vid=d07e259f-8230-4615-90e3-d23e0913390d","ios":"levelo://app?vid=d07e259f-8230-4615-90e3-d23e0913390d"},"vehicle_type_id":"4","last_reported":1731723287,"current_range_meters":32000,"station_id":"ce4bh9p2rcd13ifvqec0","pricing_plan_id":"cebpf4jnsgd1na2vs0mg"},{"bike_id":"749840b8-df1f-420c-ab32-1e5f0f9a805a","system_id":"levelo_inurba_marseille","lat":43.2767,"lon":5.38879,"is_reserved":false,"is_disabled":false,"rental_uris":{"android":"levelo://app?vid=749840b8-df1f-420c-ab32-1e5f0f9a805a","ios":"levelo://app?vid=749840b8-df1f-420c-ab32-1e5f0f9a805a"},"vehicle_type_id":"4","last_reported":1731723287,"current_range_meters":38000,"station_id":"ce4bhi12rcd13ifvqfo0","pricing_plan_id":"cebpf4jnsgd1na2vs0mg"},{"bike_id":"8df63250-87c6-46c3-9eab-e7b6ded22fb2","system_id":"levelo_inurba_marseille","lat":43.30893,"lon":5.39624,"is_reserved":false,"is_disabled":false,"rental_uris":{"android":"levelo://app?vid=8df63250-87c6-46c3-9eab-e7b6ded22fb2","ios":"levelo://app?vid=8df63250-87c6-46c3-9eab-e7b6ded22fb2"},"vehicle_type_id":"4","last_reported":1731723287,"current_range_meters":10000,"station_id":"ce4bh012rcd13ifvqcv0","pricing_plan_id":"cebpf4jnsgd1na2vs0mg"},{"bike_id":"d7cad7ba-a3cf-4113-8f4d-63bd503bb522","system_id":"levelo_inurba_marseille","lat":43.27607,"lon":5.36113,"is_reserved":false,"is_disabled":false,"rental_uris":{"android":"levelo://app?vid=d7cad7ba-a3cf-4113-8f4d-63bd503bb522","ios":"levelo://app?vid=d7cad7ba-a3cf-4113-8f4d-63bd503bb522"},"vehicle_type_id":"4","last_reported":1731723287,"current_range_meters":22000,"station_id":"ce4bgj92rcd13ifvqbe0","pricing_plan_id":"cebpf4jnsgd1na2vs0mg"},{"bike_id":"b17d06d2-c9d4-430e-8c4e-4c13081ec160","system_id":"levelo_inurba_marseille","lat":43.2465,"lon":5.38897,"is_reserved":false,"is_disabled":false,"rental_uris":{"android":"levelo://app?vid=b17d06d2-c9d4-430e-8c4e-4c13081ec160","ios":"levelo://app?vid=b17d06d2-c9d4-430e-8c4e-4c13081ec160"},"vehicle_type_id":"4","last_reported":1731723287,"current_range_meters":39200,"station_id":"ce4bhg12rcd13ifvqf60","pricing_plan_id":"cebpf4jnsgd1na2vs0mg"},{"bike_id":"8e6584b7-c45e-4f53-b8c2-7e526fbe4b72","system_id":"levelo_inurba_marseille","lat":43.30477,"lon":5.37902,"is_reserved":false,"is_disabled":false,"rental_uris":{"android":"levelo://app?vid=8e6584b7-c45e-4f53-b8c2-7e526fbe4b72","ios":"levelo://app?vid=8e6584b7-c45e-4f53-b8c2-7e526fbe4b72"},"vehicle_type_id":"4","last_reported":1731723287,"current_range_meters":30800,"station_id":"ce4bgup2rcd13ifvqcn0","pricing_plan_id":"cebpf4jnsgd1na2vs0mg"},{"bike_id":"e0a50b92-2a41-45ff-bfbc-c6ffc781939f","system_id":"levelo_inurba_marseille","lat":43.32359,"lon":5.3888,"is_reserved":false,"is_disabled":false,"rental_uris":{"android":"levelo://app?vid=e0a50b92-2a41-45ff-bfbc-c6ffc781939f","ios":"levelo://app?vid=e0a50b92-2a41-45ff-bfbc-c6ffc781939f"},"vehicle_type_id":"4","last_reported":1731723287,"current_range_meters":39200,"station_id":"ce4bhqp2rcd13ifvqhog","pricing_plan_id":"cebpf4jnsgd1na2vs0mg"},{"bike_id":"e40acb1f-7c3b-464f-a385-d83d7c01e615","system_id":"levelo_inurba_marseille","lat":43.322891,"lon":5.382591,"is_reserved":false,"is_disabled":false,"rental_uris":{"android":"levelo://app?vid=e40acb1f-7c3b-464f-a385-d83d7c01e615","ios":"levelo://app?vid=e40acb1f-7c3b-464f-a385-d83d7c01e615"},"vehicle_type_id":"4","last_reported":1731723287,"current_range_meters":17600,"station_id":"ce4bhr12rcd13ifvqhqg","pricing_plan_id":"cebpf4jnsgd1na2vs0mg"},{"bike_id":"625f149d-bcb9-41ea-9d06-ad3250f0fcef","system_id":"levelo_inurba_marseille","lat":43.29017,"lon":5.35614,"is_reserved":false,"is_disabled":false,"rental_uris":{"android":"levelo://app?vid=625f149d-bcb9-41ea-9d06-ad3250f0fcef","ios":"levelo://app?vid=625f149d-bcb9-41ea-9d06-ad3250f0fcef"},"vehicle_type_id":"4","last_reported":1731723287,"current_range_meters":32800,"station_id":"ce4bhb92rcd13ifvqen0","pricing_plan_id":"cebpf4jnsgd1na2vs0mg"},{"bike_id":"7a6b1b6d-37d8-4528-9a12-135fc599c5d0","system_id":"levelo_inurba_marseille","lat":43.30608,"lon":5.39358,"is_reserved":false,"is_disabled":false,"rental_uris":{"android":"levelo://app?vid=7a6b1b6d-37d8-4528-9a12-135fc599c5d0","ios":"levelo://app?vid=7a6b1b6d-37d8-4528-9a12-135fc599c5d0"},"vehicle_type_id":"4","last_reported":1731723287,"current_range_meters":9200,"station_id":"ce4bh0p2rcd13ifvqd80","pricing_plan_id":"cebpf4jnsgd1na2vs0mg"},{"bike_id":"5ce2d086-af0a-41a9-a5f6-a8dcf6dd55a5","system_id":"levelo_inurba_marseille","lat":43.33025,"lon":5.39037,"is_reserved":false,"is_disabled":false,"rental_uris":{"android":"levelo://app?vid=5ce2d086-af0a-41a9-a5f6-a8dcf6dd55a5","ios":"levelo://app?vid=5ce2d086-af0a-41a9-a5f6-a8dcf6dd55a5"},"vehicle_type_id":"4","last_reported":1731723287,"current_range_meters":38000,"station_id":"ce4bhr92rcd13ifvqhrg","pricing_plan_id":"cebpf4jnsgd1na2vs0mg"},{"bike_id":"1d3a9771-f642-4313-9956-10f87cf0a23a","system_id":"levelo_inurba_marseille","lat":43.30798,"lon":5.43519,"is_reserved":false,"is_disabled":false,"rental_uris":{"android":"levelo://app?vid=1d3a9771-f642-4313-9956-10f87cf0a23a","ios":"levelo://app?vid=1d3a9771-f642-4313-9956-10f87cf0a23a"},"vehicle_type_id":"4","last_reported":1731723287,"current_range_meters":27600,"station_id":"ce4bhph2rcd13ifvqheg","pricing_plan_id":"cebpf4jnsgd1na2vs0mg"},{"bike_id":"11f347bd-93ad-4d0b-9f37-361653834329","system_id":"levelo_inurba_marseille","lat":43.29007,"lon":5.35601,"is_reserved":false,"is_disabled":false,"rental_uris":{"android":"levelo://app?vid=11f347bd-93ad-4d0b-9f37-361653834329","ios":"levelo://app?vid=11f347bd-93ad-4d0b-9f37-361653834329"},"vehicle_type_id":"4","last_reported":1731723287,"current_range_meters":24400,"station_id":"ce4bhb92rcd13ifvqen0","pricing_plan_id":"cebpf4jnsgd1na2vs0mg"},{"bike_id":"d6029a07-4312-42af-9590-5c6b5c606e61","system_id":"levelo_inurba_marseille","lat":43.25576,"lon":5.38255,"is_reserved":false,"is_disabled":false,"rental_uris":{"android":"levelo://app?vid=d6029a07-4312-42af-9590-5c6b5c606e61","ios":"levelo://app?vid=d6029a07-4312-42af-9590-5c6b5c606e61"},"vehicle_type_id":"4","last_reported":1731723287,"current_range_meters":38800,"station_id":"ce4bhih2rcd13ifvqfs0","pricing_plan_id":"cebpf4jnsgd1na2vs0mg"},{"bike_id":"e494c748-bb2f-4513-a185-a11df9e77efd","system_id":"levelo_inurba_marseille","lat":43.28445,"lon":5.37468,"is_reserved":false,"is_disabled":false,"rental_uris":{"android":"levelo://app?vid=e494c748-bb2f-4513-a185-a11df9e77efd","ios":"levelo://app?vid=e494c748-bb2f-4513-a185-a11df9e77efd"},"vehicle_type_id":"4","last_reported":1731723287,"current_range_meters":14400,"station_id":"","pricing_plan_id":"cebpf4jnsgd1na2vs0mg"},{"bike_id":"707035cb-ef5a-48d1-8528-ca9207f827d8","system_id":"levelo_inurba_marseille","lat":43.31328,"lon":5.3969,"is_reserved":false,"is_disabled":false,"rental_uris":{"android":"levelo://app?vid=707035cb-ef5a-48d1-8528-ca9207f827d8","ios":"levelo://app?vid=707035cb-ef5a-48d1-8528-ca9207f827d8"},"vehicle_type_id":"4","last_reported":1731723287,"current_range_meters":25200,"station_id":"ce4bgvp2rcd13ifvqcu0","pricing_plan_id":"cebpf4jnsgd1na2vs0mg"},{"bike_id":"82a7fa7a-156a-46a6-800c-aa67acf5ce4f","system_id":"levelo_inurba_marseille","lat":43.28461,"lon":5.35879,"is_reserved":false,"is_disabled":false,"rental_uris":{"android":"levelo://app?vid=82a7fa7a-156a-46a6-800c-aa67acf5ce4f","ios":"levelo://app?vid=82a7fa7a-156a-46a6-800c-aa67acf5ce4f"},"vehicle_type_id":"4","last_reported":1731723287,"current_range_meters":38800,"station_id":"ce4bhah2rcd13ifvqei0","pricing_plan_id":"cebpf4jnsgd1na2vs0mg"},{"bike_id":"65f92f31-0e5e-44c8-952d-df9c30660f65","system_id":"levelo_inurba_marseille","lat":43.29563,"lon":5.42285,"is_reserved":false,"is_disabled":false,"rental_uris":{"android":"levelo://app?vid=65f92f31-0e5e-44c8-952d-df9c30660f65","ios":"levelo://app?vid=65f92f31-0e5e-44c8-952d-df9c30660f65"},"vehicle_type_id":"4","last_reported":1731723287,"current_range_meters":26000,"station_id":"ce4bhph2rcd13ifvqhdg","pricing_plan_id":"cebpf4jnsgd1na2vs0mg"},{"bike_id":"9741a95a-5fa9-4932-a7cf-3ed52a13a515","system_id":"levelo_inurba_marseille","lat":43.33619,"lon":5.41032,"is_reserved":false,"is_disabled":false,"rental_uris":{"android":"levelo://app?vid=9741a95a-5fa9-4932-a7cf-3ed52a13a515","ios":"levelo://app?vid=9741a95a-5fa9-4932-a7cf-3ed52a13a515"},"vehicle_type_id":"4","last_reported":1731723287,"current_range_meters":31200,"station_id":"ce4bhqh2rcd13ifvqhmg","pricing_plan_id":"cebpf4jnsgd1na2vs0mg"},{"bike_id":"0cda1e34-323e-47be-8705-fa6025d89c84","system_id":"levelo_inurba_marseille","lat":43.30632,"lon":5.40081,"is_reserved":false,"is_disabled":false,"rental_uris":{"android":"levelo://app?vid=0cda1e34-323e-47be-8705-fa6025d89c84","ios":"levelo://app?vid=0cda1e34-323e-47be-8705-fa6025d89c84"},"vehicle_type_id":"4","last_reported":1731723287,"current_range_meters":38000,"station_id":"ce4bh112rcd13ifvqda0","pricing_plan_id":"cebpf4jnsgd1na2vs0mg"},{"bike_id":"a84ad1c9-4993-451a-997a-14c24990ec21","system_id":"levelo_inurba_marseille","lat":43.29046,"lon":5.37591,"is_reserved":false,"is_disabled":false,"rental_uris":{"android":"levelo://app?vid=a84ad1c9-4993-451a-997a-14c24990ec21","ios":"levelo://app?vid=a84ad1c9-4993-451a-997a-14c24990ec21"},"vehicle_type_id":"4","last_reported":1731723287,"current_range_meters":38800,"station_id":"ce4bh692rcd13ifvqe90","pricing_plan_id":"cebpf4jnsgd1na2vs0mg"},{"bike_id":"76fda271-4bcd-4529-8397-8074a1eff7fe","system_id":"levelo_inurba_marseille","lat":43.337444,"lon":5.374475,"is_reserved":false,"is_disabled":false,"rental_uris":{"android":"levelo://app?vid=76fda271-4bcd-4529-8397-8074a1eff7fe","ios":"levelo://app?vid=76fda271-4bcd-4529-8397-8074a1eff7fe"},"vehicle_type_id":"4","last_reported":1731723287,"current_range_meters":35600,"station_id":"","pricing_plan_id":"cebpf4jnsgd1na2vs0mg"},{"bike_id":"e94e2494-31ac-4df5-88f3-382967a7ad6b","system_id":"levelo_inurba_marseille","lat":43.28008,"lon":5.40007,"is_reserved":false,"is_disabled":false,"rental_uris":{"android":"levelo://app?vid=e94e2494-31ac-4df5-88f3-382967a7ad6b","ios":"levelo://app?vid=e94e2494-31ac-4df5-88f3-382967a7ad6b"},"vehicle_type_id":"4","last_reported":1731723287,"current_range_meters":28800,"station_id":"ce4bho92rcd13ifvqh4g","pricing_plan_id":"cebpf4jnsgd1na2vs0mg"},{"bike_id":"7125cda5-6cac-4f0d-b24c-2d801b2955b5","system_id":"levelo_inurba_marseille","lat":43.23191,"lon":5.39975,"is_reserved":false,"is_disabled":false,"rental_uris":{"android":"levelo://app?vid=7125cda5-6cac-4f0d-b24c-2d801b2955b5","ios":"levelo://app?vid=7125cda5-6cac-4f0d-b24c-2d801b2955b5"},"vehicle_type_id":"4","last_reported":1731723287,"current_range_meters":39200,"station_id":"ce4bhn12rcd13ifvqgqg","pricing_plan_id":"cebpf4jnsgd1na2vs0mg"},{"bike_id":"86215429-cbbf-4219-9878-648fd0a498c9","system_id":"levelo_inurba_marseille","lat":43.28006,"lon":5.40021,"is_reserved":false,"is_disabled":false,"rental_uris":{"android":"levelo://app?vid=86215429-cbbf-4219-9878-648fd0a498c9","ios":"levelo://app?vid=86215429-cbbf-4219-9878-648fd0a498c9"},"vehicle_type_id":"4","last_reported":1731723287,"current_range_meters":38800,"station_id":"ce4bho92rcd13ifvqh4g","pricing_plan_id":"cebpf4jnsgd1na2vs0mg"},{"bike_id":"45bad36a-0da0-4159-b9cf-c48d4d987fa3","system_id":"levelo_inurba_marseille","lat":43.28712,"lon":5.39985,"is_reserved":false,"is_disabled":false,"rental_uris":{"android":"levelo://app?vid=45bad36a-0da0-4159-b9cf-c48d4d987fa3","ios":"levelo://app?vid=45bad36a-0da0-4159-b9cf-c48d4d987fa3"},"vehicle_type_id":"4","last_reported":1731723287,"current_range_meters":29600,"station_id":"ce4bho92rcd13ifvqh3g","pricing_plan_id":"cebpf4jnsgd1na2vs0mg"},{"bike_id":"4ee0d54c-132f-4d8b-b0da-69607d66ccc6","system_id":"levelo_inurba_marseille","lat":43.23193,"lon":5.39981,"is_reserved":false,"is_disabled":false,"rental_uris":{"android":"levelo://app?vid=4ee0d54c-132f-4d8b-b0da-69607d66ccc6","ios":"levelo://app?vid=4ee0d54c-132f-4d8b-b0da-69607d66ccc6"},"vehicle_type_id":"4","last_reported":1731723287,"current_range_meters":25600,"station_id":"ce4bhn12rcd13ifvqgqg","pricing_plan_id":"cebpf4jnsgd1na2vs0mg"},{"bike_id":"0798270e-42c9-4323-819e-b75eb6dce35a","system_id":"levelo_inurba_marseille","lat":43.27831,"lon":5.40729,"is_reserved":false,"is_disabled":false,"rental_uris":{"android":"levelo://app?vid=0798270e-42c9-4323-819e-b75eb6dce35a","ios":"levelo://app?vid=0798270e-42c9-4323-819e-b75eb6dce35a"},"vehicle_type_id":"4","last_reported":1731723287,"current_range_meters":38800,"station_id":"ce4bhnh2rcd13ifvqgtg","pricing_plan_id":"cebpf4jnsgd1na2vs0mg"},{"bike_id":"6ee308ee-bb3b-4a77-b5c4-770a6a35d4dc","system_id":"levelo_inurba_marseille","lat":43.30274,"lon":5.37676,"is_reserved":false,"is_disabled":false,"rental_uris":{"android":"levelo://app?vid=6ee308ee-bb3b-4a77-b5c4-770a6a35d4dc","ios":"levelo://app?vid=6ee308ee-bb3b-4a77-b5c4-770a6a35d4dc"},"vehicle_type_id":"4","last_reported":1731723287,"current_range_meters":38000,"station_id":"ce4bguh2rcd13ifvqcj0","pricing_plan_id":"cebpf4jnsgd1na2vs0mg"},{"bike_id":"491e5eb8-c23e-4e53-9ba3-d428ee8ab793","system_id":"levelo_inurba_marseille","lat":43.31335,"lon":5.39676,"is_reserved":false,"is_disabled":false,"rental_uris":{"android":"levelo://app?vid=491e5eb8-c23e-4e53-9ba3-d428ee8ab793","ios":"levelo://app?vid=491e5eb8-c23e-4e53-9ba3-d428ee8ab793"},"vehicle_type_id":"4","last_reported":1731723287,"current_range_meters":37600,"station_id":"ce4bgvp2rcd13ifvqcu0","pricing_plan_id":"cebpf4jnsgd1na2vs0mg"},{"bike_id":"cba8a093-fa5c-4446-8004-f497b2465c63","system_id":"levelo_inurba_marseille","lat":43.28727,"lon":5.36104,"is_reserved":false,"is_disabled":false,"rental_uris":{"android":"levelo://app?vid=cba8a093-fa5c-4446-8004-f497b2465c63","ios":"levelo://app?vid=cba8a093-fa5c-4446-8004-f497b2465c63"},"vehicle_type_id":"4","last_reported":1731723287,"current_range_meters":39200,"station_id":"cki0cbj6b192h4jlfktg","pricing_plan_id":"cebpf4jnsgd1na2vs0mg"},{"bike_id":"6d757fef-4f26-43f9-ac2c-ffab39bf7dae","system_id":"levelo_inurba_marseille","lat":43.32249,"lon":5.36901,"is_reserved":false,"is_disabled":false,"rental_uris":{"android":"levelo://app?vid=6d757fef-4f26-43f9-ac2c-ffab39bf7dae","ios":"levelo://app?vid=6d757fef-4f26-43f9-ac2c-ffab39bf7dae"},"vehicle_type_id":"4","last_reported":1731723287,"current_range_meters":22000,"station_id":"","pricing_plan_id":"cebpf4jnsgd1na2vs0mg"},{"bike_id":"bf5fc513-5b16-49ac-b46e-8d1576a8b635","system_id":"levelo_inurba_marseille","lat":43.29542,"lon":5.42289,"is_reserved":false,"is_disabled":false,"rental_uris":{"android":"levelo://app?vid=bf5fc513-5b16-49ac-b46e-8d1576a8b635","ios":"levelo://app?vid=bf5fc513-5b16-49ac-b46e-8d1576a8b635"},"vehicle_type_id":"4","last_reported":1731723287,"current_range_meters":37600,"station_id":"ce4bhph2rcd13ifvqhdg","pricing_plan_id":"cebpf4jnsgd1na2vs0mg"},{"bike_id":"22d914cd-75e1-4c7a-a820-0125f5f2d2e0","system_id":"levelo_inurba_marseille","lat":43.2407,"lon":5.3775,"is_reserved":false,"is_disabled":false,"rental_uris":{"android":"levelo://app?vid=22d914cd-75e1-4c7a-a820-0125f5f2d2e0","ios":"levelo://app?vid=22d914cd-75e1-4c7a-a820-0125f5f2d2e0"},"vehicle_type_id":"4","last_reported":1731723287,"current_range_meters":39200,"station_id":"ce4bhnp2rcd13ifvqgvg","pricing_plan_id":"cebpf4jnsgd1na2vs0mg"},{"bike_id":"faf9197f-b386-46ac-bfcf-4c45185179ef","system_id":"levelo_inurba_marseille","lat":43.30602,"lon":5.37227,"is_reserved":false,"is_disabled":false,"rental_uris":{"android":"levelo://app?vid=faf9197f-b386-46ac-bfcf-4c45185179ef","ios":"levelo://app?vid=faf9197f-b386-46ac-bfcf-4c45185179ef"},"vehicle_type_id":"4","last_reported":1731723287,"current_range_meters":26000,"station_id":"ce4bgqh2rcd13ifvqc4g","pricing_plan_id":"cebpf4jnsgd1na2vs0mg"},{"bike_id":"3364e4ae-effc-41d7-8a4d-ac60b100ea12","system_id":"levelo_inurba_marseille","lat":43.30877,"lon":5.39605,"is_reserved":false,"is_disabled":false,"rental_uris":{"android":"levelo://app?vid=3364e4ae-effc-41d7-8a4d-ac60b100ea12","ios":"levelo://app?vid=3364e4ae-effc-41d7-8a4d-ac60b100ea12"},"vehicle_type_id":"4","last_reported":1731723287,"current_range_meters":22800,"station_id":"","pricing_plan_id":"cebpf4jnsgd1na2vs0mg"},{"bike_id":"0a9751da-8684-43f9-b53f-6389ddca1500","system_id":"levelo_inurba_marseille","lat":43.31892,"lon":5.40724,"is_reserved":false,"is_disabled":false,"rental_uris":{"android":"levelo://app?vid=0a9751da-8684-43f9-b53f-6389ddca1500","ios":"levelo://app?vid=0a9751da-8684-43f9-b53f-6389ddca1500"},"vehicle_type_id":"4","last_reported":1731723287,"current_range_meters":24800,"station_id":"ce4bhq12rcd13ifvqhig","pricing_plan_id":"cebpf4jnsgd1na2vs0mg"},{"bike_id":"f615be4b-256f-4c11-a66d-3ebb7e880763","system_id":"levelo_inurba_marseille","lat":43.28431,"lon":5.39181,"is_reserved":false,"is_disabled":false,"rental_uris":{"android":"levelo://app?vid=f615be4b-256f-4c11-a66d-3ebb7e880763","ios":"levelo://app?vid=f615be4b-256f-4c11-a66d-3ebb7e880763"},"vehicle_type_id":"4","last_reported":1731723287,"current_range_meters":24800,"station_id":"ce4bhoh2rcd13ifvqh5g","pricing_plan_id":"cebpf4jnsgd1na2vs0mg"},{"bike_id":"3def47d5-da07-4acb-a4a9-5e939a90a81a","system_id":"levelo_inurba_marseille","lat":43.32662,"lon":5.40981,"is_reserved":false,"is_disabled":false,"rental_uris":{"android":"levelo://app?vid=3def47d5-da07-4acb-a4a9-5e939a90a81a","ios":"levelo://app?vid=3def47d5-da07-4acb-a4a9-5e939a90a81a"},"vehicle_type_id":"4","last_reported":1731723287,"current_range_meters":37600,"station_id":"ce4bhpp2rcd13ifvqhgg","pricing_plan_id":"cebpf4jnsgd1na2vs0mg"},{"bike_id":"01abbd6c-f381-41f7-8eb8-f26e28bbd898","system_id":"levelo_inurba_marseille","lat":43.3088,"lon":5.37185,"is_reserved":false,"is_disabled":false,"rental_uris":{"android":"levelo://app?vid=01abbd6c-f381-41f7-8eb8-f26e28bbd898","ios":"levelo://app?vid=01abbd6c-f381-41f7-8eb8-f26e28bbd898"},"vehicle_type_id":"4","last_reported":1731723287,"current_range_meters":30400,"station_id":"ce4bguh2rcd13ifvqckg","pricing_plan_id":"cebpf4jnsgd1na2vs0mg"},{"bike_id":"d27a3475-2e52-4b6c-9dea-c67313b855a8","system_id":"levelo_inurba_marseille","lat":43.31895,"lon":5.40732,"is_reserved":false,"is_disabled":false,"rental_uris":{"android":"levelo://app?vid=d27a3475-2e52-4b6c-9dea-c67313b855a8","ios":"levelo://app?vid=d27a3475-2e52-4b6c-9dea-c67313b855a8"},"vehicle_type_id":"4","last_reported":1731723287,"current_range_meters":30800,"station_id":"ce4bhq12rcd13ifvqhig","pricing_plan_id":"cebpf4jnsgd1na2vs0mg"},{"bike_id":"97a1eb00-7012-435b-9273-b93a8ba5fbf7","system_id":"levelo_inurba_marseille","lat":43.27905,"lon":5.38015,"is_reserved":false,"is_disabled":false,"rental_uris":{"android":"levelo://app?vid=97a1eb00-7012-435b-9273-b93a8ba5fbf7","ios":"levelo://app?vid=97a1eb00-7012-435b-9273-b93a8ba5fbf7"},"vehicle_type_id":"4","last_reported":1731723287,"current_range_meters":37600,"station_id":"ce4bhf92rcd13ifvqf50","pricing_plan_id":"cebpf4jnsgd1na2vs0mg"},{"bike_id":"2f70c9d6-b647-4dc7-9d50-b16561ca2282","system_id":"levelo_inurba_marseille","lat":43.24075,"lon":5.37754,"is_reserved":false,"is_disabled":false,"rental_uris":{"android":"levelo://app?vid=2f70c9d6-b647-4dc7-9d50-b16561ca2282","ios":"levelo://app?vid=2f70c9d6-b647-4dc7-9d50-b16561ca2282"},"vehicle_type_id":"4","last_reported":1731723287,"current_range_meters":28800,"station_id":"ce4bhnp2rcd13ifvqgvg","pricing_plan_id":"cebpf4jnsgd1na2vs0mg"},{"bike_id":"cc6dab0b-8834-4ae3-9cdd-a2d3b1edd735","system_id":"levelo_inurba_marseille","lat":43.32288,"lon":5.38266,"is_reserved":false,"is_disabled":false,"rental_uris":{"android":"levelo://app?vid=cc6dab0b-8834-4ae3-9cdd-a2d3b1edd735","ios":"levelo://app?vid=cc6dab0b-8834-4ae3-9cdd-a2d3b1edd735"},"vehicle_type_id":"4","last_reported":1731723287,"current_range_meters":38800,"station_id":"ce4bhr12rcd13ifvqhqg","pricing_plan_id":"cebpf4jnsgd1na2vs0mg"},{"bike_id":"bc25ca28-ada7-4bcd-8350-292399c65910","system_id":"levelo_inurba_marseille","lat":43.28719,"lon":5.39988,"is_reserved":false,"is_disabled":false,"rental_uris":{"android":"levelo://app?vid=bc25ca28-ada7-4bcd-8350-292399c65910","ios":"levelo://app?vid=bc25ca28-ada7-4bcd-8350-292399c65910"},"vehicle_type_id":"4","last_reported":1731723287,"current_range_meters":20000,"station_id":"ce4bho92rcd13ifvqh3g","pricing_plan_id":"cebpf4jnsgd1na2vs0mg"},{"bike_id":"af0da716-0c4e-4cb4-bf26-18a61445643c","system_id":"levelo_inurba_marseille","lat":43.27812,"lon":5.40701,"is_reserved":false,"is_disabled":false,"rental_uris":{"android":"levelo://app?vid=af0da716-0c4e-4cb4-bf26-18a61445643c","ios":"levelo://app?vid=af0da716-0c4e-4cb4-bf26-18a61445643c"},"vehicle_type_id":"4","last_reported":1731723287,"current_range_meters":38800,"station_id":"ce4bhnh2rcd13ifvqgtg","pricing_plan_id":"cebpf4jnsgd1na2vs0mg"},{"bike_id":"7ecae778-9e07-4317-bfd1-2d3f009d143f","system_id":"levelo_inurba_marseille","lat":43.25931,"lon":5.40913,"is_reserved":false,"is_disabled":false,"rental_uris":{"android":"levelo://app?vid=7ecae778-9e07-4317-bfd1-2d3f009d143f","ios":"levelo://app?vid=7ecae778-9e07-4317-bfd1-2d3f009d143f"},"vehicle_type_id":"4","last_reported":1731723287,"current_range_meters":20000,"station_id":"ce4bhm92rcd13ifvqglg","pricing_plan_id":"cebpf4jnsgd1na2vs0mg"},{"bike_id":"e23be5a8-468a-4f57-a1e4-c8e398c6266d","system_id":"levelo_inurba_marseille","lat":43.26503,"lon":5.39563,"is_reserved":false,"is_disabled":false,"rental_uris":{"android":"levelo://app?vid=e23be5a8-468a-4f57-a1e4-c8e398c6266d","ios":"levelo://app?vid=e23be5a8-468a-4f57-a1e4-c8e398c6266d"},"vehicle_type_id":"4","last_reported":1731723287,"current_range_meters":36800,"station_id":"ce4bhi12rcd13ifvqfq0","pricing_plan_id":"cebpf4jnsgd1na2vs0mg"},{"bike_id":"eac42671-e86f-40bb-b29c-203242eabb6b","system_id":"levelo_inurba_marseille","lat":43.30425,"lon":5.39749,"is_reserved":false,"is_disabled":false,"rental_uris":{"android":"levelo://app?vid=eac42671-e86f-40bb-b29c-203242eabb6b","ios":"levelo://app?vid=eac42671-e86f-40bb-b29c-203242eabb6b"},"vehicle_type_id":"4","last_reported":1731723287,"current_range_meters":12400,"station_id":"ce4bh092rcd13ifvqd20","pricing_plan_id":"cebpf4jnsgd1na2vs0mg"},{"bike_id":"b6e29239-107b-4bf3-9a6d-4106d6b8d40f","system_id":"levelo_inurba_marseille","lat":43.30251,"lon":5.40066,"is_reserved":false,"is_disabled":false,"rental_uris":{"android":"levelo://app?vid=b6e29239-107b-4bf3-9a6d-4106d6b8d40f","ios":"levelo://app?vid=b6e29239-107b-4bf3-9a6d-4106d6b8d40f"},"vehicle_type_id":"4","last_reported":1731723287,"current_range_meters":16000,"station_id":"ce4bgvh2rcd13ifvqcs0","pricing_plan_id":"cebpf4jnsgd1na2vs0mg"},{"bike_id":"85c6faf1-caca-4be7-8bdf-3f18846bd5df","system_id":"levelo_inurba_marseille","lat":43.26806,"lon":5.40259,"is_reserved":false,"is_disabled":false,"rental_uris":{"android":"levelo://app?vid=85c6faf1-caca-4be7-8bdf-3f18846bd5df","ios":"levelo://app?vid=85c6faf1-caca-4be7-8bdf-3f18846bd5df"},"vehicle_type_id":"4","last_reported":1731723287,"current_range_meters":25200,"station_id":"ce501612rcd8frsf0b60","pricing_plan_id":"cebpf4jnsgd1na2vs0mg"},{"bike_id":"80fc1024-c161-4d87-83c9-9624020e7c4e","system_id":"levelo_inurba_marseille","lat":43.27827,"lon":5.39201,"is_reserved":false,"is_disabled":false,"rental_uris":{"android":"levelo://app?vid=80fc1024-c161-4d87-83c9-9624020e7c4e","ios":"levelo://app?vid=80fc1024-c161-4d87-83c9-9624020e7c4e"},"vehicle_type_id":"4","last_reported":1731723287,"current_range_meters":4800,"station_id":"ce4bhjp2rcd13ifvqga0","pricing_plan_id":"cebpf4jnsgd1na2vs0mg"},{"bike_id":"e30351b9-985d-49a0-9535-7fbaad12a1f9","system_id":"levelo_inurba_marseille","lat":43.28673,"lon":5.36352,"is_reserved":false,"is_disabled":false,"rental_uris":{"android":"levelo://app?vid=e30351b9-985d-49a0-9535-7fbaad12a1f9","ios":"levelo://app?vid=e30351b9-985d-49a0-9535-7fbaad12a1f9"},"vehicle_type_id":"4","last_reported":1731723287,"current_range_meters":29600,"station_id":"ce4bhah2rcd13ifvqej0","pricing_plan_id":"cebpf4jnsgd1na2vs0mg"},{"bike_id":"00224059-6161-44d6-9467-27ec20366cfd","system_id":"levelo_inurba_marseille","lat":43.305359,"lon":5.38429,"is_reserved":false,"is_disabled":false,"rental_uris":{"android":"levelo://app?vid=00224059-6161-44d6-9467-27ec20366cfd","ios":"levelo://app?vid=00224059-6161-44d6-9467-27ec20366cfd"},"vehicle_type_id":"4","last_reported":1731723287,"current_range_meters":8400,"station_id":"ce4bgg92rcd13ifvqb30","pricing_plan_id":"cebpf4jnsgd1na2vs0mg"},{"bike_id":"83bf5cc6-5b39-4dcf-9691-a61137a67537","system_id":"levelo_inurba_marseille","lat":43.28953,"lon":5.36379,"is_reserved":false,"is_disabled":false,"rental_uris":{"android":"levelo://app?vid=83bf5cc6-5b39-4dcf-9691-a61137a67537","ios":"levelo://app?vid=83bf5cc6-5b39-4dcf-9691-a61137a67537"},"vehicle_type_id":"4","last_reported":1731723287,"current_range_meters":30000,"station_id":"ce4bhc92rcd13ifvqetg","pricing_plan_id":"cebpf4jnsgd1na2vs0mg"},{"bike_id":"eca4ea85-fb0e-40e0-b097-ab8b7e8f7f15","system_id":"levelo_inurba_marseille","lat":43.31694,"lon":5.40463,"is_reserved":false,"is_disabled":false,"rental_uris":{"android":"levelo://app?vid=eca4ea85-fb0e-40e0-b097-ab8b7e8f7f15","ios":"levelo://app?vid=eca4ea85-fb0e-40e0-b097-ab8b7e8f7f15"},"vehicle_type_id":"4","last_reported":1731723287,"current_range_meters":27600,"station_id":"ce4bh012rcd13ifvqd00","pricing_plan_id":"cebpf4jnsgd1na2vs0mg"},{"bike_id":"08f2da3e-9a4f-4bf2-9ab5-de990ce33744","system_id":"levelo_inurba_marseille","lat":43.30656,"lon":5.36835,"is_reserved":false,"is_disabled":false,"rental_uris":{"android":"levelo://app?vid=08f2da3e-9a4f-4bf2-9ab5-de990ce33744","ios":"levelo://app?vid=08f2da3e-9a4f-4bf2-9ab5-de990ce33744"},"vehicle_type_id":"4","last_reported":1731723287,"current_range_meters":36000,"station_id":"","pricing_plan_id":"cebpf4jnsgd1na2vs0mg"},{"bike_id":"f60c889e-9678-4e71-b37f-5fd1cb1e5ab3","system_id":"levelo_inurba_marseille","lat":43.28701,"lon":5.37386,"is_reserved":false,"is_disabled":false,"rental_uris":{"android":"levelo://app?vid=f60c889e-9678-4e71-b37f-5fd1cb1e5ab3","ios":"levelo://app?vid=f60c889e-9678-4e71-b37f-5fd1cb1e5ab3"},"vehicle_type_id":"4","last_reported":1731723287,"current_range_meters":27600,"station_id":"ce4bh3p2rcd13ifvqdq0","pricing_plan_id":"cebpf4jnsgd1na2vs0mg"},{"bike_id":"3c453c2b-3bdc-4f17-a524-fb086a261a4d","system_id":"levelo_inurba_marseille","lat":43.24557,"lon":5.39526,"is_reserved":false,"is_disabled":false,"rental_uris":{"android":"levelo://app?vid=3c453c2b-3bdc-4f17-a524-fb086a261a4d","ios":"levelo://app?vid=3c453c2b-3bdc-4f17-a524-fb086a261a4d"},"vehicle_type_id":"4","last_reported":1731723287,"current_range_meters":10800,"station_id":"ce4bhlp2rcd13ifvqgjg","pricing_plan_id":"cebpf4jnsgd1na2vs0mg"},{"bike_id":"d7f79274-e640-43c4-b7dd-f4e3dad6011c","system_id":"levelo_inurba_marseille","lat":43.27976,"lon":5.41661,"is_reserved":false,"is_disabled":false,"rental_uris":{"android":"levelo://app?vid=d7f79274-e640-43c4-b7dd-f4e3dad6011c","ios":"levelo://app?vid=d7f79274-e640-43c4-b7dd-f4e3dad6011c"},"vehicle_type_id":"4","last_reported":1731723287,"current_range_meters":39200,"station_id":"ce4bho12rcd13ifvqh1g","pricing_plan_id":"cebpf4jnsgd1na2vs0mg"},{"bike_id":"f1e0f3dd-a15a-4f0c-a853-07b7313ac16b","system_id":"levelo_inurba_marseille","lat":43.31896,"lon":5.40718,"is_reserved":false,"is_disabled":false,"rental_uris":{"android":"levelo://app?vid=f1e0f3dd-a15a-4f0c-a853-07b7313ac16b","ios":"levelo://app?vid=f1e0f3dd-a15a-4f0c-a853-07b7313ac16b"},"vehicle_type_id":"4","last_reported":1731723287,"current_range_meters":36000,"station_id":"ce4bhq12rcd13ifvqhig","pricing_plan_id":"cebpf4jnsgd1na2vs0mg"},{"bike_id":"f095f873-3c25-4d64-9c8a-9d3a77d97165","system_id":"levelo_inurba_marseille","lat":43.2407,"lon":5.37735,"is_reserved":false,"is_disabled":false,"rental_uris":{"android":"levelo://app?vid=f095f873-3c25-4d64-9c8a-9d3a77d97165","ios":"levelo://app?vid=f095f873-3c25-4d64-9c8a-9d3a77d97165"},"vehicle_type_id":"4","last_reported":1731723287,"current_range_meters":27200,"station_id":"ce4bhnp2rcd13ifvqgvg","pricing_plan_id":"cebpf4jnsgd1na2vs0mg"},{"bike_id":"e42ac294-c057-4943-a785-44f64042d429","system_id":"levelo_inurba_marseille","lat":43.32111,"lon":5.36792,"is_reserved":false,"is_disabled":false,"rental_uris":{"android":"levelo://app?vid=e42ac294-c057-4943-a785-44f64042d429","ios":"levelo://app?vid=e42ac294-c057-4943-a785-44f64042d429"},"vehicle_type_id":"4","last_reported":1731723287,"current_range_meters":9600,"station_id":"ce4bhrh2rcd13ifvqhug","pricing_plan_id":"cebpf4jnsgd1na2vs0mg"},{"bike_id":"b54f4471-f146-477a-ade3-58e1dea1b85e","system_id":"levelo_inurba_marseille","lat":43.337444,"lon":5.374475,"is_reserved":false,"is_disabled":false,"rental_uris":{"android":"levelo://app?vid=b54f4471-f146-477a-ade3-58e1dea1b85e","ios":"levelo://app?vid=b54f4471-f146-477a-ade3-58e1dea1b85e"},"vehicle_type_id":"4","last_reported":1731723287,"current_range_meters":35200,"station_id":"","pricing_plan_id":"cebpf4jnsgd1na2vs0mg"},{"bike_id":"ecc7fb54-d5dd-441b-b324-af1d207ef66a","system_id":"levelo_inurba_marseille","lat":43.28719,"lon":5.39983,"is_reserved":false,"is_disabled":false,"rental_uris":{"android":"levelo://app?vid=ecc7fb54-d5dd-441b-b324-af1d207ef66a","ios":"levelo://app?vid=ecc7fb54-d5dd-441b-b324-af1d207ef66a"},"vehicle_type_id":"4","last_reported":1731723287,"current_range_meters":39200,"station_id":"ce4bho92rcd13ifvqh3g","pricing_plan_id":"cebpf4jnsgd1na2vs0mg"},{"bike_id":"f4170d4c-57a0-450f-ac55-caf01cf35dd9","system_id":"levelo_inurba_marseille","lat":43.30886,"lon":5.39642,"is_reserved":false,"is_disabled":false,"rental_uris":{"android":"levelo://app?vid=f4170d4c-57a0-450f-ac55-caf01cf35dd9","ios":"levelo://app?vid=f4170d4c-57a0-450f-ac55-caf01cf35dd9"},"vehicle_type_id":"4","last_reported":1731723287,"current_range_meters":18800,"station_id":"ce4bh012rcd13ifvqcv0","pricing_plan_id":"cebpf4jnsgd1na2vs0mg"},{"bike_id":"733b8fbc-d1e7-4659-8527-d71807ce14b7","system_id":"levelo_inurba_marseille","lat":43.26947,"lon":5.40244,"is_reserved":false,"is_disabled":false,"rental_uris":{"android":"levelo://app?vid=733b8fbc-d1e7-4659-8527-d71807ce14b7","ios":"levelo://app?vid=733b8fbc-d1e7-4659-8527-d71807ce14b7"},"vehicle_type_id":"4","last_reported":1731723287,"current_range_meters":35600,"station_id":"cjm6bp8fraef2m0cb0m0","pricing_plan_id":"cebpf4jnsgd1na2vs0mg"},{"bike_id":"492c6ee8-4920-4b44-bda9-9e5d03dff0e9","system_id":"levelo_inurba_marseille","lat":43.28093,"lon":5.39636,"is_reserved":false,"is_disabled":false,"rental_uris":{"android":"levelo://app?vid=492c6ee8-4920-4b44-bda9-9e5d03dff0e9","ios":"levelo://app?vid=492c6ee8-4920-4b44-bda9-9e5d03dff0e9"},"vehicle_type_id":"4","last_reported":1731723287,"current_range_meters":38400,"station_id":"ce4bho12rcd13ifvqh2g","pricing_plan_id":"cebpf4jnsgd1na2vs0mg"},{"bike_id":"059f2be1-c31c-467b-bc0c-d2a13b4220ea","system_id":"levelo_inurba_marseille","lat":43.29202,"lon":5.35789,"is_reserved":false,"is_disabled":false,"rental_uris":{"android":"levelo://app?vid=059f2be1-c31c-467b-bc0c-d2a13b4220ea","ios":"levelo://app?vid=059f2be1-c31c-467b-bc0c-d2a13b4220ea"},"vehicle_type_id":"4","last_reported":1731723287,"current_range_meters":33600,"station_id":"ce4bhb12rcd13ifvqel0","pricing_plan_id":"cebpf4jnsgd1na2vs0mg"},{"bike_id":"805cfe6b-be44-4949-bab5-57b1ce8478a4","system_id":"levelo_inurba_marseille","lat":43.33752,"lon":5.37459,"is_reserved":false,"is_disabled":false,"rental_uris":{"android":"levelo://app?vid=805cfe6b-be44-4949-bab5-57b1ce8478a4","ios":"levelo://app?vid=805cfe6b-be44-4949-bab5-57b1ce8478a4"},"vehicle_type_id":"4","last_reported":1731723287,"current_range_meters":31200,"station_id":"","pricing_plan_id":"cebpf4jnsgd1na2vs0mg"},{"bike_id":"a57fb143-973c-47ab-ad9f-272f194992ef","system_id":"levelo_inurba_marseille","lat":43.23153,"lon":5.43706,"is_reserved":false,"is_disabled":false,"rental_uris":{"android":"levelo://app?vid=a57fb143-973c-47ab-ad9f-272f194992ef","ios":"levelo://app?vid=a57fb143-973c-47ab-ad9f-272f194992ef"},"vehicle_type_id":"4","last_reported":1731723287,"current_range_meters":26000,"station_id":"ce4bhmp2rcd13ifvqgog","pricing_plan_id":"cebpf4jnsgd1na2vs0mg"},{"bike_id":"84a66f27-709c-422d-838d-12381554d522","system_id":"levelo_inurba_marseille","lat":43.31328,"lon":5.39703,"is_reserved":false,"is_disabled":false,"rental_uris":{"android":"levelo://app?vid=84a66f27-709c-422d-838d-12381554d522","ios":"levelo://app?vid=84a66f27-709c-422d-838d-12381554d522"},"vehicle_type_id":"4","last_reported":1731723287,"current_range_meters":35200,"station_id":"ce4bgvp2rcd13ifvqcu0","pricing_plan_id":"cebpf4jnsgd1na2vs0mg"},{"bike_id":"3cd2663d-ddea-4c47-bfe3-6f60b341aaa3","system_id":"levelo_inurba_marseille","lat":43.27829,"lon":5.40723,"is_reserved":false,"is_disabled":false,"rental_uris":{"android":"levelo://app?vid=3cd2663d-ddea-4c47-bfe3-6f60b341aaa3","ios":"levelo://app?vid=3cd2663d-ddea-4c47-bfe3-6f60b341aaa3"},"vehicle_type_id":"4","last_reported":1731723287,"current_range_meters":8800,"station_id":"ce4bhnh2rcd13ifvqgtg","pricing_plan_id":"cebpf4jnsgd1na2vs0mg"},{"bike_id":"67b74999-7562-40a9-80d6-0bf76d158375","system_id":"levelo_inurba_marseille","lat":43.25585,"lon":5.38223,"is_reserved":false,"is_disabled":false,"rental_uris":{"android":"levelo://app?vid=67b74999-7562-40a9-80d6-0bf76d158375","ios":"levelo://app?vid=67b74999-7562-40a9-80d6-0bf76d158375"},"vehicle_type_id":"4","last_reported":1731723287,"current_range_meters":30800,"station_id":"ce4bhih2rcd13ifvqfs0","pricing_plan_id":"cebpf4jnsgd1na2vs0mg"},{"bike_id":"de48df69-12f5-4474-946c-fbb505acb3ef","system_id":"levelo_inurba_marseille","lat":43.287,"lon":5.39998,"is_reserved":false,"is_disabled":false,"rental_uris":{"android":"levelo://app?vid=de48df69-12f5-4474-946c-fbb505acb3ef","ios":"levelo://app?vid=de48df69-12f5-4474-946c-fbb505acb3ef"},"vehicle_type_id":"4","last_reported":1731723287,"current_range_meters":29600,"station_id":"ce4bho92rcd13ifvqh3g","pricing_plan_id":"cebpf4jnsgd1na2vs0mg"},{"bike_id":"4d290e24-f8ef-46cc-8e85-56690ccf4aff","system_id":"levelo_inurba_marseille","lat":43.30895,"lon":5.39612,"is_reserved":false,"is_disabled":false,"rental_uris":{"android":"levelo://app?vid=4d290e24-f8ef-46cc-8e85-56690ccf4aff","ios":"levelo://app?vid=4d290e24-f8ef-46cc-8e85-56690ccf4aff"},"vehicle_type_id":"4","last_reported":1731723287,"current_range_meters":37600,"station_id":"ce4bh012rcd13ifvqcv0","pricing_plan_id":"cebpf4jnsgd1na2vs0mg"},{"bike_id":"7bb6d33c-37b0-43be-9e80-bf2e7af571f9","system_id":"levelo_inurba_marseille","lat":43.28699,"lon":5.39979,"is_reserved":false,"is_disabled":false,"rental_uris":{"android":"levelo://app?vid=7bb6d33c-37b0-43be-9e80-bf2e7af571f9","ios":"levelo://app?vid=7bb6d33c-37b0-43be-9e80-bf2e7af571f9"},"vehicle_type_id":"4","last_reported":1731723287,"current_range_meters":33600,"station_id":"ce4bho92rcd13ifvqh3g","pricing_plan_id":"cebpf4jnsgd1na2vs0mg"},{"bike_id":"1cd7d493-1889-446e-ad0e-f38634beb973","system_id":"levelo_inurba_marseille","lat":43.3235,"lon":5.38887,"is_reserved":false,"is_disabled":false,"rental_uris":{"android":"levelo://app?vid=1cd7d493-1889-446e-ad0e-f38634beb973","ios":"levelo://app?vid=1cd7d493-1889-446e-ad0e-f38634beb973"},"vehicle_type_id":"4","last_reported":1731723287,"current_range_meters":38400,"station_id":"ce4bhqp2rcd13ifvqhog","pricing_plan_id":"cebpf4jnsgd1na2vs0mg"},{"bike_id":"de284d5d-1134-4324-89cd-f6160e7c5f8a","system_id":"levelo_inurba_marseille","lat":43.33035,"lon":5.39047,"is_reserved":false,"is_disabled":false,"rental_uris":{"android":"levelo://app?vid=de284d5d-1134-4324-89cd-f6160e7c5f8a","ios":"levelo://app?vid=de284d5d-1134-4324-89cd-f6160e7c5f8a"},"vehicle_type_id":"4","last_reported":1731723287,"current_range_meters":9200,"station_id":"ce4bhr92rcd13ifvqhrg","pricing_plan_id":"cebpf4jnsgd1na2vs0mg"},{"bike_id":"ca655f3b-8380-4045-b3f8-8acaa0e83ede","system_id":"levelo_inurba_marseille","lat":43.33733,"lon":5.37456,"is_reserved":false,"is_disabled":false,"rental_uris":{"android":"levelo://app?vid=ca655f3b-8380-4045-b3f8-8acaa0e83ede","ios":"levelo://app?vid=ca655f3b-8380-4045-b3f8-8acaa0e83ede"},"vehicle_type_id":"4","last_reported":1731723287,"current_range_meters":34800,"station_id":"","pricing_plan_id":"cebpf4jnsgd1na2vs0mg"},{"bike_id":"7ee6d84f-9575-47d6-bdd3-b727f002e7c5","system_id":"levelo_inurba_marseille","lat":43.26515,"lon":5.39506,"is_reserved":false,"is_disabled":false,"rental_uris":{"android":"levelo://app?vid=7ee6d84f-9575-47d6-bdd3-b727f002e7c5","ios":"levelo://app?vid=7ee6d84f-9575-47d6-bdd3-b727f002e7c5"},"vehicle_type_id":"4","last_reported":1731723287,"current_range_meters":36000,"station_id":"ce4bhi12rcd13ifvqfq0","pricing_plan_id":"cebpf4jnsgd1na2vs0mg"},{"bike_id":"fc675dd3-ce3b-42ac-b73f-2cfc19b55384","system_id":"levelo_inurba_marseille","lat":43.32488,"lon":5.36576,"is_reserved":false,"is_disabled":false,"rental_uris":{"android":"levelo://app?vid=fc675dd3-ce3b-42ac-b73f-2cfc19b55384","ios":"levelo://app?vid=fc675dd3-ce3b-42ac-b73f-2cfc19b55384"},"vehicle_type_id":"4","last_reported":1731723287,"current_range_meters":38800,"station_id":"ce4bhs12rcd13ifvqhvg","pricing_plan_id":"cebpf4jnsgd1na2vs0mg"},{"bike_id":"a6b8c285-acc9-4039-9531-1aae39136a33","system_id":"levelo_inurba_marseille","lat":43.312042,"lon":5.367348,"is_reserved":false,"is_disabled":false,"rental_uris":{"android":"levelo://app?vid=a6b8c285-acc9-4039-9531-1aae39136a33","ios":"levelo://app?vid=a6b8c285-acc9-4039-9531-1aae39136a33"},"vehicle_type_id":"4","last_reported":1731723287,"current_range_meters":16800,"station_id":"","pricing_plan_id":"cebpf4jnsgd1na2vs0mg"},{"bike_id":"2a58f762-a5e9-446c-954e-087a046419b7","system_id":"levelo_inurba_marseille","lat":43.2939,"lon":5.37864,"is_reserved":false,"is_disabled":false,"rental_uris":{"android":"levelo://app?vid=2a58f762-a5e9-446c-954e-087a046419b7","ios":"levelo://app?vid=2a58f762-a5e9-446c-954e-087a046419b7"},"vehicle_type_id":"4","last_reported":1731723287,"current_range_meters":36000,"station_id":"ce4bgjh2rcd13ifvqbf0","pricing_plan_id":"cebpf4jnsgd1na2vs0mg"},{"bike_id":"7533f0c2-14f7-425a-b3ed-0abe750ceb15","system_id":"levelo_inurba_marseille","lat":43.25576,"lon":5.38232,"is_reserved":false,"is_disabled":false,"rental_uris":{"android":"levelo://app?vid=7533f0c2-14f7-425a-b3ed-0abe750ceb15","ios":"levelo://app?vid=7533f0c2-14f7-425a-b3ed-0abe750ceb15"},"vehicle_type_id":"4","last_reported":1731723287,"current_range_meters":38800,"station_id":"ce4bhih2rcd13ifvqfs0","pricing_plan_id":"cebpf4jnsgd1na2vs0mg"},{"bike_id":"5c254126-8805-4ed8-9520-9f63561143b3","system_id":"levelo_inurba_marseille","lat":43.24169,"lon":5.36403,"is_reserved":false,"is_disabled":false,"rental_uris":{"android":"levelo://app?vid=5c254126-8805-4ed8-9520-9f63561143b3","ios":"levelo://app?vid=5c254126-8805-4ed8-9520-9f63561143b3"},"vehicle_type_id":"4","last_reported":1731723287,"current_range_meters":24000,"station_id":"cpo36qri1sfpv3e86is0","pricing_plan_id":"cebpf4jnsgd1na2vs0mg"},{"bike_id":"0d973ca9-3cfa-4e68-b2ca-a91d842d8aa1","system_id":"levelo_inurba_marseille","lat":43.27579,"lon":5.38443,"is_reserved":false,"is_disabled":false,"rental_uris":{"android":"levelo://app?vid=0d973ca9-3cfa-4e68-b2ca-a91d842d8aa1","ios":"levelo://app?vid=0d973ca9-3cfa-4e68-b2ca-a91d842d8aa1"},"vehicle_type_id":"4","last_reported":1731723287,"current_range_meters":20400,"station_id":"ce4bhh92rcd13ifvqfi0","pricing_plan_id":"cebpf4jnsgd1na2vs0mg"},{"bike_id":"95189523-b163-438d-9cb1-f7dc4435500d","system_id":"levelo_inurba_marseille","lat":43.32346,"lon":5.40617,"is_reserved":false,"is_disabled":false,"rental_uris":{"android":"levelo://app?vid=95189523-b163-438d-9cb1-f7dc4435500d","ios":"levelo://app?vid=95189523-b163-438d-9cb1-f7dc4435500d"},"vehicle_type_id":"4","last_reported":1731723287,"current_range_meters":38800,"station_id":"ce4bhq92rcd13ifvqhjg","pricing_plan_id":"cebpf4jnsgd1na2vs0mg"},{"bike_id":"80f2a2e7-6d3c-45fb-897f-87f293eca3e8","system_id":"levelo_inurba_marseille","lat":43.27057,"lon":5.40266,"is_reserved":false,"is_disabled":false,"rental_uris":{"android":"levelo://app?vid=80f2a2e7-6d3c-45fb-897f-87f293eca3e8","ios":"levelo://app?vid=80f2a2e7-6d3c-45fb-897f-87f293eca3e8"},"vehicle_type_id":"4","last_reported":1731723287,"current_range_meters":28400,"station_id":"ce4bhk92rcd13ifvqgc0","pricing_plan_id":"cebpf4jnsgd1na2vs0mg"},{"bike_id":"50ae3ec0-9f46-43fd-819a-4c7a80c3cf46","system_id":"levelo_inurba_marseille","lat":43.28848,"lon":5.35854,"is_reserved":false,"is_disabled":false,"rental_uris":{"android":"levelo://app?vid=50ae3ec0-9f46-43fd-819a-4c7a80c3cf46","ios":"levelo://app?vid=50ae3ec0-9f46-43fd-819a-4c7a80c3cf46"},"vehicle_type_id":"4","last_reported":1731723287,"current_range_meters":37600,"station_id":"ce4bhb12rcd13ifvqem0","pricing_plan_id":"cebpf4jnsgd1na2vs0mg"},{"bike_id":"675124fc-0d9d-4abf-9c00-05af413db41b","system_id":"levelo_inurba_marseille","lat":43.28038,"lon":5.36934,"is_reserved":false,"is_disabled":false,"rental_uris":{"android":"levelo://app?vid=675124fc-0d9d-4abf-9c00-05af413db41b","ios":"levelo://app?vid=675124fc-0d9d-4abf-9c00-05af413db41b"},"vehicle_type_id":"4","last_reported":1731723287,"current_range_meters":34000,"station_id":"ce4bha12rcd13ifvqef0","pricing_plan_id":"cebpf4jnsgd1na2vs0mg"},