{"last_updated":1774142170,"ttl":60,"version":"2.2","data":{"bikes":[{"bike_id":"77f8a8b1-2bdb-42b0-adbe-1a8ec0f6e7dc","system_id":"levelo_inurba_marseille","lat":43.29824,"lon":5.44056,"is_reserved":false,"is_disabled":false,"rental_uris":{"android":"levelo://app?vid=77f8a8b1-2bdb-42b0-adbe-1a8ec0f6e7dc","ios":"levelo://app?vid=77f8a8b1-2bdb-42b0-adbe-1a8ec0f6e7dc"},"vehicle_type_id":"4","last_reported":1774142171,"current_range_meters":2800,"station_id":"st_d3jp68qikq2c7381ktn0","pricing_plan_id":"cebpf4jnsgd1na2vs0mg"},{"bike_id":"53f48266-4564-420b-96ab-d243233055dc","system_id":"levelo_inurba_marseille","lat":43.28477,"lon":5.48401,"is_reserved":false,"is_disabled":false,"rental_uris":{"android":"levelo://app?vid=53f48266-4564-420b-96ab-d243233055dc","ios":"levelo://app?vid=53f48266-4564-420b-96ab-d243233055dc"},"vehicle_type_id":"4","last_reported":1774142171,"current_range_meters":2800,"station_id":"","pricing_plan_id":"cebpf4jnsgd1na2vs0mg"},{"bike_id":"f15bd2d3-5b76-4516-83cf-607c5d5c7457","system_id":"levelo_inurba_marseille","lat":43.30769,"lon":5.38096,"is_reserved":false,"is_disabled":false,"rental_uris":{"android":"levelo://app?vid=f15bd2d3-5b76-4516-83cf-607c5d5c7457","ios":"levelo://app?vid=f15bd2d3-5b76-4516-83cf-607c5d5c7457"},"vehicle_type_id":"4","last_reported":1774142171,"current_range_meters":2800,"station_id":"","pricing_plan_id":"cebpf4jnsgd1na2vs0mg"},{"bike_id":"0f699794-8202-4161-a052-1d39a341c5fa","system_id":"levelo_inurba_marseille","lat":43.31188,"lon":5.38717,"is_reserved":false,"is_disabled":true,"rental_uris":{"android":"levelo://app?vid=0f699794-8202-4161-a052-1d39a341c5fa","ios":"levelo://app?vid=0f699794-8202-4161-a052-1d39a341c5fa"},"vehicle_type_id":"4","last_reported":1774142171,"current_range_meters":2800,"station_id":"ce4bgv12rcd13ifvqcp0","pricing_plan_id":"cebpf4jnsgd1na2vs0mg"},{"bike_id":"c300e010-5eb9-4d7b-9e14-3cedf980c2f1","system_id":"levelo_inurba_marseille","lat":43.26222,"lon":5.37444,"is_reserved":false,"is_disabled":false,"rental_uris":{"android":"levelo://app?vid=c300e010-5eb9-4d7b-9e14-3cedf980c2f1","ios":"levelo://app?vid=c300e010-5eb9-4d7b-9e14-3cedf980c2f1"},"vehicle_type_id":"4","last_reported":1774142171,"current_range_meters":2800,"station_id":"ce4bhgp2rcd13ifvqfc0","pricing_plan_id":"cebpf4jnsgd1na2vs0mg"},{"bike_id":"16fe25c4-6472-47d6-882b-5ff94101fa7d","system_id":"levelo_inurba_marseille","lat":43.21188,"lon":5.35074,"is_reserved":false,"is_disabled":false,"rental_uris":{"android":"levelo://app?vid=16fe25c4-6472-47d6-882b-5ff94101fa7d","ios":"levelo://app?vid=16fe25c4-6472-47d6-882b-5ff94101fa7d"},"vehicle_type_id":"4","last_reported":1774142171,"current_range_meters":2800,"station_id":"st_cvj6sg6p6f1abm77japg","pricing_plan_id":"cebpf4jnsgd1na2vs0mg"},{"bike_id":"ac345689-00a9-45fe-ac80-c1f55e85afbc","system_id":"levelo_inurba_marseille","lat":43.28626,"lon":5.35109,"is_reserved":false,"is_disabled":false,"rental_uris":{"android":"levelo://app?vid=ac345689-00a9-45fe-ac80-c1f55e85afbc","ios":"levelo://app?vid=ac345689-00a9-45fe-ac80-c1f55e85afbc"},"vehicle_type_id":"4","last_reported":1774142171,"current_range_meters":2800,"station_id":"ce4bhch2rcd13ifvqeug","pricing_plan_id":"cebpf4jnsgd1na2vs0mg"},{"bike_id":"9a1a5a24-410d-49a7-ae18-d8cee0216d75","system_id":"levelo_inurba_marseille","lat":43.306,"lon":5.37212,"is_reserved":false,"is_disabled":false,"rental_uris":{"android":"levelo://app?vid=9a1a5a24-410d-49a7-ae18-d8cee0216d75","ios":"levelo://app?vid=9a1a5a24-410d-49a7-ae18-d8cee0216d75"},"vehicle_type_id":"4","last_reported":1774142171,"current_range_meters":2800,"station_id":"ce4bgqh2rcd13ifvqc4g","pricing_plan_id":"cebpf4jnsgd1na2vs0mg"},{"bike_id":"7ba80008-60b8-4bf7-9180-542631266876","system_id":"levelo_inurba_marseille","lat":43.33543,"lon":5.37473,"is_reserved":false,"is_disabled":false,"rental_uris":{"android":"levelo://app?vid=7ba80008-60b8-4bf7-9180-542631266876","ios":"levelo://app?vid=7ba80008-60b8-4bf7-9180-542631266876"},"vehicle_type_id":"4","last_reported":1774142171,"current_range_meters":2800,"station_id":"st_d46tts09ee8s73dlu43g","pricing_plan_id":"cebpf4jnsgd1na2vs0mg"},{"bike_id":"4e2b0533-9150-4401-b50f-bfcab123d849","system_id":"levelo_inurba_marseille","lat":43.2977,"lon":5.38099,"is_reserved":false,"is_disabled":false,"rental_uris":{"android":"levelo://app?vid=4e2b0533-9150-4401-b50f-bfcab123d849","ios":"levelo://app?vid=4e2b0533-9150-4401-b50f-bfcab123d849"},"vehicle_type_id":"4","last_reported":1774142171,"current_range_meters":2800,"station_id":"ce4bgip2rcd13ifvqbb0","pricing_plan_id":"cebpf4jnsgd1na2vs0mg"},{"bike_id":"31d87e22-be76-4242-b137-f4b0f571c0d4","system_id":"levelo_inurba_marseille","lat":43.28426,"lon":5.35916,"is_reserved":false,"is_disabled":false,"rental_uris":{"android":"levelo://app?vid=31d87e22-be76-4242-b137-f4b0f571c0d4","ios":"levelo://app?vid=31d87e22-be76-4242-b137-f4b0f571c0d4"},"vehicle_type_id":"4","last_reported":1774142171,"current_range_meters":2800,"station_id":"","pricing_plan_id":"cebpf4jnsgd1na2vs0mg"},{"bike_id":"73acc58e-de29-4065-bf11-0d3fc517e9c7","system_id":"levelo_inurba_marseille","lat":43.3095,"lon":5.39049,"is_reserved":false,"is_disabled":false,"rental_uris":{"android":"levelo://app?vid=73acc58e-de29-4065-bf11-0d3fc517e9c7","ios":"levelo://app?vid=73acc58e-de29-4065-bf11-0d3fc517e9c7"},"vehicle_type_id":"4","last_reported":1774142171,"current_range_meters":2800,"station_id":"ce4bgup2rcd13ifvqco0","pricing_plan_id":"cebpf4jnsgd1na2vs0mg"},{"bike_id":"283e4253-1a86-4e18-9e39-161f77934a90","system_id":"levelo_inurba_marseille","lat":43.30418,"lon":5.41275,"is_reserved":false,"is_disabled":false,"rental_uris":{"android":"levelo://app?vid=283e4253-1a86-4e18-9e39-161f77934a90","ios":"levelo://app?vid=283e4253-1a86-4e18-9e39-161f77934a90"},"vehicle_type_id":"4","last_reported":1774142171,"current_range_meters":2800,"station_id":"ce4bhop2rcd13ifvqh8g","pricing_plan_id":"cebpf4jnsgd1na2vs0mg"},{"bike_id":"76e3a855-6bf4-460f-ac74-ec562db94e69","system_id":"levelo_inurba_marseille","lat":43.30793,"lon":5.40008,"is_reserved":false,"is_disabled":false,"rental_uris":{"android":"levelo://app?vid=76e3a855-6bf4-460f-ac74-ec562db94e69","ios":"levelo://app?vid=76e3a855-6bf4-460f-ac74-ec562db94e69"},"vehicle_type_id":"4","last_reported":1774142171,"current_range_meters":2800,"station_id":"","pricing_plan_id":"cebpf4jnsgd1na2vs0mg"},{"bike_id":"ca7b6cae-b20a-4670-a46e-19b70e7ad624","system_id":"levelo_inurba_marseille","lat":43.290228,"lon":5.381302,"is_reserved":false,"is_disabled":false,"rental_uris":{"android":"levelo://app?vid=ca7b6cae-b20a-4670-a46e-19b70e7ad624","ios":"levelo://app?vid=ca7b6cae-b20a-4670-a46e-19b70e7ad624"},"vehicle_type_id":"4","last_reported":1774142171,"current_range_meters":3200,"station_id":"ce4bh4p2rcd13ifvqe1g","pricing_plan_id":"cebpf4jnsgd1na2vs0mg"},{"bike_id":"e2420c11-4646-4145-aa2e-baedb91a43dc","system_id":"levelo_inurba_marseille","lat":43.32348,"lon":5.36751,"is_reserved":false,"is_disabled":false,"rental_uris":{"android":"levelo://app?vid=e2420c11-4646-4145-aa2e-baedb91a43dc","ios":"levelo://app?vid=e2420c11-4646-4145-aa2e-baedb91a43dc"},"vehicle_type_id":"4","last_reported":1774142171,"current_range_meters":3200,"station_id":"ce4bhsh2rcd13ifvqi2g","pricing_plan_id":"cebpf4jnsgd1na2vs0mg"},{"bike_id":"ad4475db-7cec-417d-abcd-a8e5c79e20c4","system_id":"levelo_inurba_marseille","lat":43.30751,"lon":5.3811,"is_reserved":false,"is_disabled":false,"rental_uris":{"android":"levelo://app?vid=ad4475db-7cec-417d-abcd-a8e5c79e20c4","ios":"levelo://app?vid=ad4475db-7cec-417d-abcd-a8e5c79e20c4"},"vehicle_type_id":"4","last_reported":1774142171,"current_range_meters":3200,"station_id":"","pricing_plan_id":"cebpf4jnsgd1na2vs0mg"},{"bike_id":"8aeb1ffc-b432-4235-8304-c0a4c58e7fe3","system_id":"levelo_inurba_marseille","lat":43.29757,"lon":5.38362,"is_reserved":false,"is_disabled":false,"rental_uris":{"android":"levelo://app?vid=8aeb1ffc-b432-4235-8304-c0a4c58e7fe3","ios":"levelo://app?vid=8aeb1ffc-b432-4235-8304-c0a4c58e7fe3"},"vehicle_type_id":"4","last_reported":1774142171,"current_range_meters":3200,"station_id":"","pricing_plan_id":"cebpf4jnsgd1na2vs0mg"},{"bike_id":"a35b38af-9978-4959-b06c-51cebe2fd083","system_id":"levelo_inurba_marseille","lat":43.29587,"lon":5.38738,"is_reserved":false,"is_disabled":false,"rental_uris":{"android":"levelo://app?vid=a35b38af-9978-4959-b06c-51cebe2fd083","ios":"levelo://app?vid=a35b38af-9978-4959-b06c-51cebe2fd083"},"vehicle_type_id":"4","last_reported":1774142171,"current_range_meters":3200,"station_id":"","pricing_plan_id":"cebpf4jnsgd1na2vs0mg"},{"bike_id":"f8a3b231-4dcf-4051-ae11-76620efbb058","system_id":"levelo_inurba_marseille","lat":43.29217,"lon":5.39336,"is_reserved":false,"is_disabled":false,"rental_uris":{"android":"levelo://app?vid=f8a3b231-4dcf-4051-ae11-76620efbb058","ios":"levelo://app?vid=f8a3b231-4dcf-4051-ae11-76620efbb058"},"vehicle_type_id":"4","last_reported":1774142171,"current_range_meters":3200,"station_id":"ce4bh192rcd13ifvqdd0","pricing_plan_id":"cebpf4jnsgd1na2vs0mg"},{"bike_id":"ecc641f1-72e5-4eec-8cc2-a5f8c7c8bdfc","system_id":"levelo_inurba_marseille","lat":43.30196,"lon":5.39432,"is_reserved":false,"is_disabled":false,"rental_uris":{"android":"levelo://app?vid=ecc641f1-72e5-4eec-8cc2-a5f8c7c8bdfc","ios":"levelo://app?vid=ecc641f1-72e5-4eec-8cc2-a5f8c7c8bdfc"},"vehicle_type_id":"4","last_reported":1774142171,"current_range_meters":3200,"station_id":"ce4bh0p2rcd13ifvqd70","pricing_plan_id":"cebpf4jnsgd1na2vs0mg"},{"bike_id":"26af117b-68ad-45c2-b9f7-cc1f4fda573d","system_id":"levelo_inurba_marseille","lat":43.28857,"lon":5.39281,"is_reserved":false,"is_disabled":false,"rental_uris":{"android":"levelo://app?vid=26af117b-68ad-45c2-b9f7-cc1f4fda573d","ios":"levelo://app?vid=26af117b-68ad-45c2-b9f7-cc1f4fda573d"},"vehicle_type_id":"4","last_reported":1774142171,"current_range_meters":3200,"station_id":"ce4bh2p2rcd13ifvqdi0","pricing_plan_id":"cebpf4jnsgd1na2vs0mg"},{"bike_id":"dcb7fa85-9576-461b-9db4-bfb93259aa75","system_id":"levelo_inurba_marseille","lat":43.25529,"lon":5.37665,"is_reserved":false,"is_disabled":true,"rental_uris":{"android":"levelo://app?vid=dcb7fa85-9576-461b-9db4-bfb93259aa75","ios":"levelo://app?vid=dcb7fa85-9576-461b-9db4-bfb93259aa75"},"vehicle_type_id":"4","last_reported":1774142171,"current_range_meters":3200,"station_id":"ce4bhh12rcd13ifvqff0","pricing_plan_id":"cebpf4jnsgd1na2vs0mg"},{"bike_id":"468a5932-e47d-4ce1-8687-fa5662a3dd04","system_id":"levelo_inurba_marseille","lat":43.28434,"lon":5.39183,"is_reserved":false,"is_disabled":false,"rental_uris":{"android":"levelo://app?vid=468a5932-e47d-4ce1-8687-fa5662a3dd04","ios":"levelo://app?vid=468a5932-e47d-4ce1-8687-fa5662a3dd04"},"vehicle_type_id":"4","last_reported":1774142171,"current_range_meters":3200,"station_id":"ce4bhoh2rcd13ifvqh5g","pricing_plan_id":"cebpf4jnsgd1na2vs0mg"},{"bike_id":"5f4a0c1e-8ff2-4e52-b6bd-9f74bf338abf","system_id":"levelo_inurba_marseille","lat":43.31126,"lon":5.37767,"is_reserved":false,"is_disabled":false,"rental_uris":{"android":"levelo://app?vid=5f4a0c1e-8ff2-4e52-b6bd-9f74bf338abf","ios":"levelo://app?vid=5f4a0c1e-8ff2-4e52-b6bd-9f74bf338abf"},"vehicle_type_id":"4","last_reported":1774142171,"current_range_meters":3200,"station_id":"ce4bgt92rcd13ifvqcg0","pricing_plan_id":"cebpf4jnsgd1na2vs0mg"},{"bike_id":"b309780c-f18f-4fe1-a296-4db0116af156","system_id":"levelo_inurba_marseille","lat":43.28642,"lon":5.35127,"is_reserved":false,"is_disabled":false,"rental_uris":{"android":"levelo://app?vid=b309780c-f18f-4fe1-a296-4db0116af156","ios":"levelo://app?vid=b309780c-f18f-4fe1-a296-4db0116af156"},"vehicle_type_id":"4","last_reported":1774142171,"current_range_meters":3200,"station_id":"ce4bhch2rcd13ifvqeug","pricing_plan_id":"cebpf4jnsgd1na2vs0mg"},{"bike_id":"ecc814a7-5f2b-4533-a1f1-3608de14b714","system_id":"levelo_inurba_marseille","lat":43.24949,"lon":5.40498,"is_reserved":false,"is_disabled":false,"rental_uris":{"android":"levelo://app?vid=ecc814a7-5f2b-4533-a1f1-3608de14b714","ios":"levelo://app?vid=ecc814a7-5f2b-4533-a1f1-3608de14b714"},"vehicle_type_id":"4","last_reported":1774142171,"current_range_meters":3200,"station_id":"st_d2ngiaodas8pm72gd1h0","pricing_plan_id":"cebpf4jnsgd1na2vs0mg"},{"bike_id":"5887fa80-e29b-4d51-b5ac-9b9cb10de9fc","system_id":"levelo_inurba_marseille","lat":43.31169,"lon":5.3869,"is_reserved":false,"is_disabled":false,"rental_uris":{"android":"levelo://app?vid=5887fa80-e29b-4d51-b5ac-9b9cb10de9fc","ios":"levelo://app?vid=5887fa80-e29b-4d51-b5ac-9b9cb10de9fc"},"vehicle_type_id":"4","last_reported":1774142171,"current_range_meters":3200,"station_id":"ce4bgv12rcd13ifvqcp0","pricing_plan_id":"cebpf4jnsgd1na2vs0mg"},{"bike_id":"be78ca0c-c7b6-4a78-bd34-4dfd5d353808","system_id":"levelo_inurba_marseille","lat":43.29792,"lon":5.39347,"is_reserved":false,"is_disabled":true,"rental_uris":{"android":"levelo://app?vid=be78ca0c-c7b6-4a78-bd34-4dfd5d353808","ios":"levelo://app?vid=be78ca0c-c7b6-4a78-bd34-4dfd5d353808"},"vehicle_type_id":"4","last_reported":1774142171,"current_range_meters":3200,"station_id":"chh1huq6cuj3fo74tm60","pricing_plan_id":"cebpf4jnsgd1na2vs0mg"},{"bike_id":"9bedb971-6887-4d43-88c8-1762430f453d","system_id":"levelo_inurba_marseille","lat":43.24676,"lon":5.38163,"is_reserved":false,"is_disabled":true,"rental_uris":{"android":"levelo://app?vid=9bedb971-6887-4d43-88c8-1762430f453d","ios":"levelo://app?vid=9bedb971-6887-4d43-88c8-1762430f453d"},"vehicle_type_id":"4","last_reported":1774142171,"current_range_meters":3200,"station_id":"ce4bhih2rcd13ifvqfr0","pricing_plan_id":"cebpf4jnsgd1na2vs0mg"},{"bike_id":"ad0918dd-198c-4cbb-ab94-e0fdeab67f2b","system_id":"levelo_inurba_marseille","lat":43.23201,"lon":5.35537,"is_reserved":false,"is_disabled":false,"rental_uris":{"android":"levelo://app?vid=ad0918dd-198c-4cbb-ab94-e0fdeab67f2b","ios":"levelo://app?vid=ad0918dd-198c-4cbb-ab94-e0fdeab67f2b"},"vehicle_type_id":"4","last_reported":1774142171,"current_range_meters":3200,"station_id":"ce4bhu92rcd13ifvqi70","pricing_plan_id":"cebpf4jnsgd1na2vs0mg"},{"bike_id":"dfa608d8-9ea3-493c-9119-e51f33dbd3dd","system_id":"levelo_inurba_marseille","lat":43.31158,"lon":5.38716,"is_reserved":false,"is_disabled":false,"rental_uris":{"android":"levelo://app?vid=dfa608d8-9ea3-493c-9119-e51f33dbd3dd","ios":"levelo://app?vid=dfa608d8-9ea3-493c-9119-e51f33dbd3dd"},"vehicle_type_id":"4","last_reported":1774142171,"current_range_meters":3200,"station_id":"ce4bgv12rcd13ifvqcp0","pricing_plan_id":"cebpf4jnsgd1na2vs0mg"},{"bike_id":"830ca503-2e55-4f08-b92a-95e2f29ab94d","system_id":"levelo_inurba_marseille","lat":43.31352,"lon":5.3674,"is_reserved":false,"is_disabled":false,"rental_uris":{"android":"levelo://app?vid=830ca503-2e55-4f08-b92a-95e2f29ab94d","ios":"levelo://app?vid=830ca503-2e55-4f08-b92a-95e2f29ab94d"},"vehicle_type_id":"4","last_reported":1774142171,"current_range_meters":3200,"station_id":"ce4bgr92rcd13ifvqc6g","pricing_plan_id":"cebpf4jnsgd1na2vs0mg"},{"bike_id":"7fa64d84-cd92-4f02-a79d-c348b129b15f","system_id":"levelo_inurba_marseille","lat":43.2417,"lon":5.36388,"is_reserved":false,"is_disabled":false,"rental_uris":{"android":"levelo://app?vid=7fa64d84-cd92-4f02-a79d-c348b129b15f","ios":"levelo://app?vid=7fa64d84-cd92-4f02-a79d-c348b129b15f"},"vehicle_type_id":"4","last_reported":1774142171,"current_range_meters":3200,"station_id":"cpo36qri1sfpv3e86is0","pricing_plan_id":"cebpf4jnsgd1na2vs0mg"},{"bike_id":"aeb89f8e-f76a-4ce6-a0f7-d392434914f5","system_id":"levelo_inurba_marseille","lat":43.28216,"lon":5.39027,"is_reserved":false,"is_disabled":false,"rental_uris":{"android":"levelo://app?vid=aeb89f8e-f76a-4ce6-a0f7-d392434914f5","ios":"levelo://app?vid=aeb89f8e-f76a-4ce6-a0f7-d392434914f5"},"vehicle_type_id":"4","last_reported":1774142171,"current_range_meters":3200,"station_id":"ce4bhn92rcd13ifvqgsg","pricing_plan_id":"cebpf4jnsgd1na2vs0mg"},{"bike_id":"c9cfc67c-4e42-4833-b4ab-11ad690d27f6","system_id":"levelo_inurba_marseille","lat":43.33025,"lon":5.39319,"is_reserved":false,"is_disabled":false,"rental_uris":{"android":"levelo://app?vid=c9cfc67c-4e42-4833-b4ab-11ad690d27f6","ios":"levelo://app?vid=c9cfc67c-4e42-4833-b4ab-11ad690d27f6"},"vehicle_type_id":"4","last_reported":1774142171,"current_range_meters":3200,"station_id":"","pricing_plan_id":"cebpf4jnsgd1na2vs0mg"},{"bike_id":"ef4abc93-8501-4b16-a25e-ce88784f1326","system_id":"levelo_inurba_marseille","lat":43.30874,"lon":5.39696,"is_reserved":false,"is_disabled":false,"rental_uris":{"android":"levelo://app?vid=ef4abc93-8501-4b16-a25e-ce88784f1326","ios":"levelo://app?vid=ef4abc93-8501-4b16-a25e-ce88784f1326"},"vehicle_type_id":"4","last_reported":1774142171,"current_range_meters":3600,"station_id":"ce4bh012rcd13ifvqcv0","pricing_plan_id":"cebpf4jnsgd1na2vs0mg"},{"bike_id":"5672f140-f178-4766-bb60-5301b26a0e4e","system_id":"levelo_inurba_marseille","lat":43.28481,"lon":5.48384,"is_reserved":false,"is_disabled":false,"rental_uris":{"android":"levelo://app?vid=5672f140-f178-4766-bb60-5301b26a0e4e","ios":"levelo://app?vid=5672f140-f178-4766-bb60-5301b26a0e4e"},"vehicle_type_id":"4","last_reported":1774142171,"current_range_meters":3600,"station_id":"","pricing_plan_id":"cebpf4jnsgd1na2vs0mg"},{"bike_id":"98247e24-3bc2-4a40-85bf-746c8cabf834","system_id":"levelo_inurba_marseille","lat":43.26213,"lon":5.37439,"is_reserved":false,"is_disabled":false,"rental_uris":{"android":"levelo://app?vid=98247e24-3bc2-4a40-85bf-746c8cabf834","ios":"levelo://app?vid=98247e24-3bc2-4a40-85bf-746c8cabf834"},"vehicle_type_id":"4","last_reported":1774142171,"current_range_meters":3600,"station_id":"ce4bhgp2rcd13ifvqfc0","pricing_plan_id":"cebpf4jnsgd1na2vs0mg"},{"bike_id":"5c2aeccc-baa6-4b75-8ec1-e382dd8ba246","system_id":"levelo_inurba_marseille","lat":43.29755,"lon":5.42773,"is_reserved":false,"is_disabled":true,"rental_uris":{"android":"levelo://app?vid=5c2aeccc-baa6-4b75-8ec1-e382dd8ba246","ios":"levelo://app?vid=5c2aeccc-baa6-4b75-8ec1-e382dd8ba246"},"vehicle_type_id":"4","last_reported":1774142171,"current_range_meters":3600,"station_id":"st_d3md5207bmas73dh9klg","pricing_plan_id":"cebpf4jnsgd1na2vs0mg"},{"bike_id":"286fba00-1c70-49c5-9491-0b3044de24cb","system_id":"levelo_inurba_marseille","lat":43.26251,"lon":5.404,"is_reserved":false,"is_disabled":true,"rental_uris":{"android":"levelo://app?vid=286fba00-1c70-49c5-9491-0b3044de24cb","ios":"levelo://app?vid=286fba00-1c70-49c5-9491-0b3044de24cb"},"vehicle_type_id":"4","last_reported":1774142171,"current_range_meters":3600,"station_id":"","pricing_plan_id":"cebpf4jnsgd1na2vs0mg"},{"bike_id":"f3414e99-2d7c-4b03-96db-df8c1c6d3f2b","system_id":"levelo_inurba_marseille","lat":43.28494,"lon":5.48403,"is_reserved":false,"is_disabled":false,"rental_uris":{"android":"levelo://app?vid=f3414e99-2d7c-4b03-96db-df8c1c6d3f2b","ios":"levelo://app?vid=f3414e99-2d7c-4b03-96db-df8c1c6d3f2b"},"vehicle_type_id":"4","last_reported":1774142171,"current_range_meters":3600,"station_id":"","pricing_plan_id":"cebpf4jnsgd1na2vs0mg"},{"bike_id":"a8c8307b-e1e9-4950-a785-578e1a82f805","system_id":"levelo_inurba_marseille","lat":43.31269,"lon":5.37825,"is_reserved":false,"is_disabled":false,"rental_uris":{"android":"levelo://app?vid=a8c8307b-e1e9-4950-a785-578e1a82f805","ios":"levelo://app?vid=a8c8307b-e1e9-4950-a785-578e1a82f805"},"vehicle_type_id":"4","last_reported":1774142171,"current_range_meters":3600,"station_id":"","pricing_plan_id":"cebpf4jnsgd1na2vs0mg"},{"bike_id":"962e3e51-db50-4f61-a079-9b1c6a103eb5","system_id":"levelo_inurba_marseille","lat":43.30963,"lon":5.36814,"is_reserved":false,"is_disabled":false,"rental_uris":{"android":"levelo://app?vid=962e3e51-db50-4f61-a079-9b1c6a103eb5","ios":"levelo://app?vid=962e3e51-db50-4f61-a079-9b1c6a103eb5"},"vehicle_type_id":"4","last_reported":1774142171,"current_range_meters":3600,"station_id":"","pricing_plan_id":"cebpf4jnsgd1na2vs0mg"},{"bike_id":"73206cd7-297d-41e6-ad5c-9899f25346cd","system_id":"levelo_inurba_marseille","lat":43.27817,"lon":5.40707,"is_reserved":false,"is_disabled":false,"rental_uris":{"android":"levelo://app?vid=73206cd7-297d-41e6-ad5c-9899f25346cd","ios":"levelo://app?vid=73206cd7-297d-41e6-ad5c-9899f25346cd"},"vehicle_type_id":"4","last_reported":1774142171,"current_range_meters":3600,"station_id":"ce4bhnh2rcd13ifvqgtg","pricing_plan_id":"cebpf4jnsgd1na2vs0mg"},{"bike_id":"b318198a-c881-4588-be58-b90b922e4b36","system_id":"levelo_inurba_marseille","lat":43.26557,"lon":5.39018,"is_reserved":false,"is_disabled":false,"rental_uris":{"android":"levelo://app?vid=b318198a-c881-4588-be58-b90b922e4b36","ios":"levelo://app?vid=b318198a-c881-4588-be58-b90b922e4b36"},"vehicle_type_id":"4","last_reported":1774142171,"current_range_meters":3600,"station_id":"ce4bhe12rcd13ifvqf30","pricing_plan_id":"cebpf4jnsgd1na2vs0mg"},{"bike_id":"9b91f71d-6123-4003-9c0b-5c859ade40e3","system_id":"levelo_inurba_marseille","lat":43.27993,"lon":5.40021,"is_reserved":false,"is_disabled":false,"rental_uris":{"android":"levelo://app?vid=9b91f71d-6123-4003-9c0b-5c859ade40e3","ios":"levelo://app?vid=9b91f71d-6123-4003-9c0b-5c859ade40e3"},"vehicle_type_id":"4","last_reported":1774142171,"current_range_meters":3600,"station_id":"ce4bho92rcd13ifvqh4g","pricing_plan_id":"cebpf4jnsgd1na2vs0mg"},{"bike_id":"5223f186-acc3-4ed8-bd6b-47211c28bbd6","system_id":"levelo_inurba_marseille","lat":43.28498,"lon":5.38411,"is_reserved":false,"is_disabled":false,"rental_uris":{"android":"levelo://app?vid=5223f186-acc3-4ed8-bd6b-47211c28bbd6","ios":"levelo://app?vid=5223f186-acc3-4ed8-bd6b-47211c28bbd6"},"vehicle_type_id":"4","last_reported":1774142171,"current_range_meters":3600,"station_id":"ce4bh512rcd13ifvqe3g","pricing_plan_id":"cebpf4jnsgd1na2vs0mg"},{"bike_id":"8aae69ee-1386-423b-94ef-ac35e377a153","system_id":"levelo_inurba_marseille","lat":43.31234,"lon":5.37238,"is_reserved":false,"is_disabled":false,"rental_uris":{"android":"levelo://app?vid=8aae69ee-1386-423b-94ef-ac35e377a153","ios":"levelo://app?vid=8aae69ee-1386-423b-94ef-ac35e377a153"},"vehicle_type_id":"4","last_reported":1774142171,"current_range_meters":3600,"station_id":"","pricing_plan_id":"cebpf4jnsgd1na2vs0mg"},{"bike_id":"aacc341c-b4db-4502-9f9f-ac71e423ab3b","system_id":"levelo_inurba_marseille","lat":43.31492,"lon":5.37292,"is_reserved":false,"is_disabled":false,"rental_uris":{"android":"levelo://app?vid=aacc341c-b4db-4502-9f9f-ac71e423ab3b","ios":"levelo://app?vid=aacc341c-b4db-4502-9f9f-ac71e423ab3b"},"vehicle_type_id":"4","last_reported":1774142171,"current_range_meters":3600,"station_id":"ce4bgt12rcd13ifvqcd0","pricing_plan_id":"cebpf4jnsgd1na2vs0mg"},{"bike_id":"adc5ac07-5147-43c6-b3e9-46b364b058d3","system_id":"levelo_inurba_marseille","lat":43.21753,"lon":5.34592,"is_reserved":false,"is_disabled":true,"rental_uris":{"android":"levelo://app?vid=adc5ac07-5147-43c6-b3e9-46b364b058d3","ios":"levelo://app?vid=adc5ac07-5147-43c6-b3e9-46b364b058d3"},"vehicle_type_id":"4","last_reported":1774142171,"current_range_meters":3600,"station_id":"st_cvj6r9ubvosntc0bgbag","pricing_plan_id":"cebpf4jnsgd1na2vs0mg"},{"bike_id":"26c4064a-9e58-408b-a63d-ddc74ff75dc1","system_id":"levelo_inurba_marseille","lat":43.28368,"lon":5.38646,"is_reserved":false,"is_disabled":false,"rental_uris":{"android":"levelo://app?vid=26c4064a-9e58-408b-a63d-ddc74ff75dc1","ios":"levelo://app?vid=26c4064a-9e58-408b-a63d-ddc74ff75dc1"},"vehicle_type_id":"4","last_reported":1774142171,"current_range_meters":3600,"station_id":"ce4bh492rcd13ifvqdvg","pricing_plan_id":"cebpf4jnsgd1na2vs0mg"},{"bike_id":"f452a549-4919-4523-8be3-017b2a0a7f9d","system_id":"levelo_inurba_marseille","lat":43.29589,"lon":5.4011,"is_reserved":false,"is_disabled":false,"rental_uris":{"android":"levelo://app?vid=f452a549-4919-4523-8be3-017b2a0a7f9d","ios":"levelo://app?vid=f452a549-4919-4523-8be3-017b2a0a7f9d"},"vehicle_type_id":"4","last_reported":1774142171,"current_range_meters":3600,"station_id":"ce4bh3h2rcd13ifvqdo0","pricing_plan_id":"cebpf4jnsgd1na2vs0mg"},{"bike_id":"92f32112-8a58-4a2d-8380-c50aa46da344","system_id":"levelo_inurba_marseille","lat":43.24075,"lon":5.36381,"is_reserved":false,"is_disabled":false,"rental_uris":{"android":"levelo://app?vid=92f32112-8a58-4a2d-8380-c50aa46da344","ios":"levelo://app?vid=92f32112-8a58-4a2d-8380-c50aa46da344"},"vehicle_type_id":"4","last_reported":1774142171,"current_range_meters":4000,"station_id":"","pricing_plan_id":"cebpf4jnsgd1na2vs0mg"},{"bike_id":"e5889c18-6483-46e2-8e97-7aa7bb200275","system_id":"levelo_inurba_marseille","lat":43.24465,"lon":5.42538,"is_reserved":false,"is_disabled":false,"rental_uris":{"android":"levelo://app?vid=e5889c18-6483-46e2-8e97-7aa7bb200275","ios":"levelo://app?vid=e5889c18-6483-46e2-8e97-7aa7bb200275"},"vehicle_type_id":"4","last_reported":1774142171,"current_range_meters":4000,"station_id":"st_d4a3vfp97mjs738cd8kg","pricing_plan_id":"cebpf4jnsgd1na2vs0mg"},{"bike_id":"8648ff3d-a49d-4491-be6c-bab3f9812603","system_id":"levelo_inurba_marseille","lat":43.28292,"lon":5.43846,"is_reserved":false,"is_disabled":false,"rental_uris":{"android":"levelo://app?vid=8648ff3d-a49d-4491-be6c-bab3f9812603","ios":"levelo://app?vid=8648ff3d-a49d-4491-be6c-bab3f9812603"},"vehicle_type_id":"4","last_reported":1774142171,"current_range_meters":4000,"station_id":"","pricing_plan_id":"cebpf4jnsgd1na2vs0mg"},{"bike_id":"a1400f20-6669-45d1-86f6-34fb7b216f9f","system_id":"levelo_inurba_marseille","lat":43.29909,"lon":5.38147,"is_reserved":false,"is_disabled":false,"rental_uris":{"android":"levelo://app?vid=a1400f20-6669-45d1-86f6-34fb7b216f9f","ios":"levelo://app?vid=a1400f20-6669-45d1-86f6-34fb7b216f9f"},"vehicle_type_id":"4","last_reported":1774142171,"current_range_meters":4000,"station_id":"ce4bgj12rcd13ifvqbc0","pricing_plan_id":"cebpf4jnsgd1na2vs0mg"},{"bike_id":"aca02e18-5940-4457-bade-a83a3729d2e4","system_id":"levelo_inurba_marseille","lat":43.2948,"lon":5.43298,"is_reserved":false,"is_disabled":false,"rental_uris":{"android":"levelo://app?vid=aca02e18-5940-4457-bade-a83a3729d2e4","ios":"levelo://app?vid=aca02e18-5940-4457-bade-a83a3729d2e4"},"vehicle_type_id":"4","last_reported":1774142171,"current_range_meters":4000,"station_id":"st_d3j5ugp08ojc73fj9d10","pricing_plan_id":"cebpf4jnsgd1na2vs0mg"},{"bike_id":"138d1b51-ecf8-4142-8bb4-5ce2285fb5c1","system_id":"levelo_inurba_marseille","lat":43.28637,"lon":5.3509,"is_reserved":false,"is_disabled":false,"rental_uris":{"android":"levelo://app?vid=138d1b51-ecf8-4142-8bb4-5ce2285fb5c1","ios":"levelo://app?vid=138d1b51-ecf8-4142-8bb4-5ce2285fb5c1"},"vehicle_type_id":"4","last_reported":1774142171,"current_range_meters":4000,"station_id":"ce4bhch2rcd13ifvqeug","pricing_plan_id":"cebpf4jnsgd1na2vs0mg"},{"bike_id":"d9c97143-42c6-4a06-98ff-6d527890b4d9","system_id":"levelo_inurba_marseille","lat":43.26565,"lon":5.39006,"is_reserved":false,"is_disabled":false,"rental_uris":{"android":"levelo://app?vid=d9c97143-42c6-4a06-98ff-6d527890b4d9","ios":"levelo://app?vid=d9c97143-42c6-4a06-98ff-6d527890b4d9"},"vehicle_type_id":"4","last_reported":1774142171,"current_range_meters":4000,"station_id":"ce4bhe12rcd13ifvqf30","pricing_plan_id":"cebpf4jnsgd1na2vs0mg"},{"bike_id":"a52ba6dc-1b15-4a85-8d00-b41ad0623a75","system_id":"levelo_inurba_marseille","lat":43.32374,"lon":5.36747,"is_reserved":false,"is_disabled":false,"rental_uris":{"android":"levelo://app?vid=a52ba6dc-1b15-4a85-8d00-b41ad0623a75","ios":"levelo://app?vid=a52ba6dc-1b15-4a85-8d00-b41ad0623a75"},"vehicle_type_id":"4","last_reported":1774142171,"current_range_meters":4000,"station_id":"ce4bhsh2rcd13ifvqi2g","pricing_plan_id":"cebpf4jnsgd1na2vs0mg"},{"bike_id":"c5d9c66c-7969-4a4a-be95-884f8ae8b25f","system_id":"levelo_inurba_marseille","lat":43.28428,"lon":5.39183,"is_reserved":false,"is_disabled":false,"rental_uris":{"android":"levelo://app?vid=c5d9c66c-7969-4a4a-be95-884f8ae8b25f","ios":"levelo://app?vid=c5d9c66c-7969-4a4a-be95-884f8ae8b25f"},"vehicle_type_id":"4","last_reported":1774142171,"current_range_meters":4000,"station_id":"ce4bhoh2rcd13ifvqh5g","pricing_plan_id":"cebpf4jnsgd1na2vs0mg"},{"bike_id":"2d0906ff-aeed-419b-83b6-fd2861496b8f","system_id":"levelo_inurba_marseille","lat":43.26226,"lon":5.40457,"is_reserved":false,"is_disabled":false,"rental_uris":{"android":"levelo://app?vid=2d0906ff-aeed-419b-83b6-fd2861496b8f","ios":"levelo://app?vid=2d0906ff-aeed-419b-83b6-fd2861496b8f"},"vehicle_type_id":"4","last_reported":1774142171,"current_range_meters":4000,"station_id":"ce4bhmh2rcd13ifvqgmg","pricing_plan_id":"cebpf4jnsgd1na2vs0mg"},{"bike_id":"21dcff95-3114-402a-9713-10e340a8f8dd","system_id":"levelo_inurba_marseille","lat":43.29293,"lon":5.37158,"is_reserved":false,"is_disabled":false,"rental_uris":{"android":"levelo://app?vid=21dcff95-3114-402a-9713-10e340a8f8dd","ios":"levelo://app?vid=21dcff95-3114-402a-9713-10e340a8f8dd"},"vehicle_type_id":"4","last_reported":1774142171,"current_range_meters":4000,"station_id":"ce4bgh92rcd13ifvqb40","pricing_plan_id":"cebpf4jnsgd1na2vs0mg"},{"bike_id":"b2b5ab96-a91c-444d-b319-af1797421383","system_id":"levelo_inurba_marseille","lat":43.284403,"lon":5.392008,"is_reserved":false,"is_disabled":false,"rental_uris":{"android":"levelo://app?vid=b2b5ab96-a91c-444d-b319-af1797421383","ios":"levelo://app?vid=b2b5ab96-a91c-444d-b319-af1797421383"},"vehicle_type_id":"4","last_reported":1774142171,"current_range_meters":4000,"station_id":"ce4bhoh2rcd13ifvqh5g","pricing_plan_id":"cebpf4jnsgd1na2vs0mg"},{"bike_id":"0f87e6a0-cc97-4659-a32a-41848c880a21","system_id":"levelo_inurba_marseille","lat":43.28944,"lon":5.38487,"is_reserved":false,"is_disabled":false,"rental_uris":{"android":"levelo://app?vid=0f87e6a0-cc97-4659-a32a-41848c880a21","ios":"levelo://app?vid=0f87e6a0-cc97-4659-a32a-41848c880a21"},"vehicle_type_id":"4","last_reported":1774142171,"current_range_meters":4000,"station_id":"","pricing_plan_id":"cebpf4jnsgd1na2vs0mg"},{"bike_id":"53fe7d20-a0f2-42d5-9475-d517256919e4","system_id":"levelo_inurba_marseille","lat":43.29021,"lon":5.38633,"is_reserved":false,"is_disabled":false,"rental_uris":{"android":"levelo://app?vid=53fe7d20-a0f2-42d5-9475-d517256919e4","ios":"levelo://app?vid=53fe7d20-a0f2-42d5-9475-d517256919e4"},"vehicle_type_id":"4","last_reported":1774142171,"current_range_meters":4000,"station_id":"ce4bh4p2rcd13ifvqe0g","pricing_plan_id":"cebpf4jnsgd1na2vs0mg"},{"bike_id":"b332751f-f7f1-4d9f-ac9b-db18c18c85b5","system_id":"levelo_inurba_marseille","lat":43.28846,"lon":5.35839,"is_reserved":false,"is_disabled":false,"rental_uris":{"android":"levelo://app?vid=b332751f-f7f1-4d9f-ac9b-db18c18c85b5","ios":"levelo://app?vid=b332751f-f7f1-4d9f-ac9b-db18c18c85b5"},"vehicle_type_id":"4","last_reported":1774142171,"current_range_meters":4000,"station_id":"ce4bhb12rcd13ifvqem0","pricing_plan_id":"cebpf4jnsgd1na2vs0mg"},{"bike_id":"71307d0a-2ea8-41e2-b904-3bd322f2e89b","system_id":"levelo_inurba_marseille","lat":43.2655,"lon":5.40315,"is_reserved":false,"is_disabled":false,"rental_uris":{"android":"levelo://app?vid=71307d0a-2ea8-41e2-b904-3bd322f2e89b","ios":"levelo://app?vid=71307d0a-2ea8-41e2-b904-3bd322f2e89b"},"vehicle_type_id":"4","last_reported":1774142171,"current_range_meters":4000,"station_id":"ce4bhmp2rcd13ifvqgng","pricing_plan_id":"cebpf4jnsgd1na2vs0mg"},{"bike_id":"57c6062f-8249-4e22-873a-9e5831c9b605","system_id":"levelo_inurba_marseille","lat":43.31247,"lon":5.38494,"is_reserved":false,"is_disabled":false,"rental_uris":{"android":"levelo://app?vid=57c6062f-8249-4e22-873a-9e5831c9b605","ios":"levelo://app?vid=57c6062f-8249-4e22-873a-9e5831c9b605"},"vehicle_type_id":"4","last_reported":1774142171,"current_range_meters":4000,"station_id":"","pricing_plan_id":"cebpf4jnsgd1na2vs0mg"},{"bike_id":"278f7054-f255-42b7-b87e-903ee568e65a","system_id":"levelo_inurba_marseille","lat":43.2847,"lon":5.38427,"is_reserved":false,"is_disabled":true,"rental_uris":{"android":"levelo://app?vid=278f7054-f255-42b7-b87e-903ee568e65a","ios":"levelo://app?vid=278f7054-f255-42b7-b87e-903ee568e65a"},"vehicle_type_id":"4","last_reported":1774142171,"current_range_meters":4400,"station_id":"ce4bh512rcd13ifvqe3g","pricing_plan_id":"cebpf4jnsgd1na2vs0mg"},{"bike_id":"bfa999de-7a32-454a-b31e-f99ace51a3fc","system_id":"levelo_inurba_marseille","lat":43.28472,"lon":5.484,"is_reserved":false,"is_disabled":false,"rental_uris":{"android":"levelo://app?vid=bfa999de-7a32-454a-b31e-f99ace51a3fc","ios":"levelo://app?vid=bfa999de-7a32-454a-b31e-f99ace51a3fc"},"vehicle_type_id":"4","last_reported":1774142171,"current_range_meters":4400,"station_id":"","pricing_plan_id":"cebpf4jnsgd1na2vs0mg"},{"bike_id":"3727d6e3-4577-49ea-959e-93a5e09450a3","system_id":"levelo_inurba_marseille","lat":43.31435,"lon":5.40069,"is_reserved":false,"is_disabled":false,"rental_uris":{"android":"levelo://app?vid=3727d6e3-4577-49ea-959e-93a5e09450a3","ios":"levelo://app?vid=3727d6e3-4577-49ea-959e-93a5e09450a3"},"vehicle_type_id":"4","last_reported":1774142171,"current_range_meters":4400,"station_id":"","pricing_plan_id":"cebpf4jnsgd1na2vs0mg"},{"bike_id":"7c75b769-e8a9-49a3-b8cd-5824d8280cfd","system_id":"levelo_inurba_marseille","lat":43.31268,"lon":5.38444,"is_reserved":false,"is_disabled":false,"rental_uris":{"android":"levelo://app?vid=7c75b769-e8a9-49a3-b8cd-5824d8280cfd","ios":"levelo://app?vid=7c75b769-e8a9-49a3-b8cd-5824d8280cfd"},"vehicle_type_id":"4","last_reported":1774142171,"current_range_meters":4400,"station_id":"","pricing_plan_id":"cebpf4jnsgd1na2vs0mg"},{"bike_id":"47efb401-c51b-46fd-bc6f-b874c731d32b","system_id":"levelo_inurba_marseille","lat":43.2959,"lon":5.36751,"is_reserved":false,"is_disabled":true,"rental_uris":{"android":"levelo://app?vid=47efb401-c51b-46fd-bc6f-b874c731d32b","ios":"levelo://app?vid=47efb401-c51b-46fd-bc6f-b874c731d32b"},"vehicle_type_id":"4","last_reported":1774142171,"current_range_meters":4400,"station_id":"ce4bgph2rcd13ifvqc2g","pricing_plan_id":"cebpf4jnsgd1na2vs0mg"},{"bike_id":"799e5206-e569-46be-93f3-cb56e5726e56","system_id":"levelo_inurba_marseille","lat":43.26372,"lon":5.4108,"is_reserved":false,"is_disabled":false,"rental_uris":{"android":"levelo://app?vid=799e5206-e569-46be-93f3-cb56e5726e56","ios":"levelo://app?vid=799e5206-e569-46be-93f3-cb56e5726e56"},"vehicle_type_id":"4","last_reported":1774142171,"current_range_meters":4400,"station_id":"st_d4e5ca6na9uc73bfl5fg","pricing_plan_id":"cebpf4jnsgd1na2vs0mg"},{"bike_id":"8134f6aa-938c-4d37-bb98-fe39b6e1811c","system_id":"levelo_inurba_marseille","lat":43.29255,"lon":5.40912,"is_reserved":false,"is_disabled":false,"rental_uris":{"android":"levelo://app?vid=8134f6aa-938c-4d37-bb98-fe39b6e1811c","ios":"levelo://app?vid=8134f6aa-938c-4d37-bb98-fe39b6e1811c"},"vehicle_type_id":"4","last_reported":1774142171,"current_range_meters":4400,"station_id":"ce4bh192rcd13ifvqdc0","pricing_plan_id":"cebpf4jnsgd1na2vs0mg"},{"bike_id":"34e58aa9-898e-4f2a-a0d3-cd7852da2d04","system_id":"levelo_inurba_marseille","lat":43.27812,"lon":5.40712,"is_reserved":false,"is_disabled":false,"rental_uris":{"android":"levelo://app?vid=34e58aa9-898e-4f2a-a0d3-cd7852da2d04","ios":"levelo://app?vid=34e58aa9-898e-4f2a-a0d3-cd7852da2d04"},"vehicle_type_id":"4","last_reported":1774142171,"current_range_meters":4800,"station_id":"ce4bhnh2rcd13ifvqgtg","pricing_plan_id":"cebpf4jnsgd1na2vs0mg"},{"bike_id":"71389fc3-a4c3-46c5-a0f9-4330fcbb165b","system_id":"levelo_inurba_marseille","lat":43.27956,"lon":5.41059,"is_reserved":false,"is_disabled":true,"rental_uris":{"android":"levelo://app?vid=71389fc3-a4c3-46c5-a0f9-4330fcbb165b","ios":"levelo://app?vid=71389fc3-a4c3-46c5-a0f9-4330fcbb165b"},"vehicle_type_id":"4","last_reported":1774142171,"current_range_meters":4800,"station_id":"ce4bhnp2rcd13ifvqh0g","pricing_plan_id":"cebpf4jnsgd1na2vs0mg"},{"bike_id":"64dc53b9-439a-4355-ad28-e5f40e99fa84","system_id":"levelo_inurba_marseille","lat":43.32039,"lon":5.40962,"is_reserved":false,"is_disabled":false,"rental_uris":{"android":"levelo://app?vid=64dc53b9-439a-4355-ad28-e5f40e99fa84","ios":"levelo://app?vid=64dc53b9-439a-4355-ad28-e5f40e99fa84"},"vehicle_type_id":"4","last_reported":1774142171,"current_range_meters":4800,"station_id":"","pricing_plan_id":"cebpf4jnsgd1na2vs0mg"},{"bike_id":"abd6ba07-52c7-4e40-b166-c980d77f4377","system_id":"levelo_inurba_marseille","lat":43.27181,"lon":5.40991,"is_reserved":false,"is_disabled":false,"rental_uris":{"android":"levelo://app?vid=abd6ba07-52c7-4e40-b166-c980d77f4377","ios":"levelo://app?vid=abd6ba07-52c7-4e40-b166-c980d77f4377"},"vehicle_type_id":"4","last_reported":1774142171,"current_range_meters":4800,"station_id":"ce4bhl12rcd13ifvqgf0","pricing_plan_id":"cebpf4jnsgd1na2vs0mg"},{"bike_id":"1a46da28-301a-44b9-970e-12b591c0665f","system_id":"levelo_inurba_marseille","lat":43.27944,"lon":5.41041,"is_reserved":false,"is_disabled":false,"rental_uris":{"android":"levelo://app?vid=1a46da28-301a-44b9-970e-12b591c0665f","ios":"levelo://app?vid=1a46da28-301a-44b9-970e-12b591c0665f"},"vehicle_type_id":"4","last_reported":1774142171,"current_range_meters":4800,"station_id":"ce4bhnp2rcd13ifvqh0g","pricing_plan_id":"cebpf4jnsgd1na2vs0mg"},{"bike_id":"1bf523a3-5926-4a56-bcae-e377f2ed8117","system_id":"levelo_inurba_marseille","lat":43.27944,"lon":5.41046,"is_reserved":false,"is_disabled":false,"rental_uris":{"android":"levelo://app?vid=1bf523a3-5926-4a56-bcae-e377f2ed8117","ios":"levelo://app?vid=1bf523a3-5926-4a56-bcae-e377f2ed8117"},"vehicle_type_id":"4","last_reported":1774142171,"current_range_meters":4800,"station_id":"ce4bhnp2rcd13ifvqh0g","pricing_plan_id":"cebpf4jnsgd1na2vs0mg"},{"bike_id":"cd6326a2-a162-4767-8905-de98ca6f0650","system_id":"levelo_inurba_marseille","lat":43.30797,"lon":5.38152,"is_reserved":false,"is_disabled":false,"rental_uris":{"android":"levelo://app?vid=cd6326a2-a162-4767-8905-de98ca6f0650","ios":"levelo://app?vid=cd6326a2-a162-4767-8905-de98ca6f0650"},"vehicle_type_id":"4","last_reported":1774142171,"current_range_meters":4800,"station_id":"ce4bgt12rcd13ifvqce0","pricing_plan_id":"cebpf4jnsgd1na2vs0mg"},{"bike_id":"437551c6-dd8b-4828-b0db-bba394816ea4","system_id":"levelo_inurba_marseille","lat":43.2572,"lon":5.41113,"is_reserved":false,"is_disabled":false,"rental_uris":{"android":"levelo://app?vid=437551c6-dd8b-4828-b0db-bba394816ea4","ios":"levelo://app?vid=437551c6-dd8b-4828-b0db-bba394816ea4"},"vehicle_type_id":"4","last_reported":1774142171,"current_range_meters":4800,"station_id":"ce4bhkp2rcd13ifvqgd0","pricing_plan_id":"cebpf4jnsgd1na2vs0mg"},{"bike_id":"b255ae22-197c-47af-beb2-6c44a38011a9","system_id":"levelo_inurba_marseille","lat":43.28729,"lon":5.36082,"is_reserved":false,"is_disabled":false,"rental_uris":{"android":"levelo://app?vid=b255ae22-197c-47af-beb2-6c44a38011a9","ios":"levelo://app?vid=b255ae22-197c-47af-beb2-6c44a38011a9"},"vehicle_type_id":"4","last_reported":1774142171,"current_range_meters":4800,"station_id":"cki0cbj6b192h4jlfktg","pricing_plan_id":"cebpf4jnsgd1na2vs0mg"},{"bike_id":"4b11e079-bb00-4636-9cda-72c733e64f87","system_id":"levelo_inurba_marseille","lat":43.30909,"lon":5.36852,"is_reserved":false,"is_disabled":false,"rental_uris":{"android":"levelo://app?vid=4b11e079-bb00-4636-9cda-72c733e64f87","ios":"levelo://app?vid=4b11e079-bb00-4636-9cda-72c733e64f87"},"vehicle_type_id":"4","last_reported":1774142171,"current_range_meters":4800,"station_id":"ce4bgn92rcd13ifvqbvg","pricing_plan_id":"cebpf4jnsgd1na2vs0mg"},{"bike_id":"9562cb1b-3eaf-4a03-a5e3-1337d62db9d4","system_id":"levelo_inurba_marseille","lat":43.28935,"lon":5.3637,"is_reserved":false,"is_disabled":false,"rental_uris":{"android":"levelo://app?vid=9562cb1b-3eaf-4a03-a5e3-1337d62db9d4","ios":"levelo://app?vid=9562cb1b-3eaf-4a03-a5e3-1337d62db9d4"},"vehicle_type_id":"4","last_reported":1774142171,"current_range_meters":5600,"station_id":"ce4bhc92rcd13ifvqetg","pricing_plan_id":"cebpf4jnsgd1na2vs0mg"},{"bike_id":"0112bef2-2ecc-46ce-961c-e922940a9456","system_id":"levelo_inurba_marseille","lat":43.292,"lon":5.39319,"is_reserved":false,"is_disabled":false,"rental_uris":{"android":"levelo://app?vid=0112bef2-2ecc-46ce-961c-e922940a9456","ios":"levelo://app?vid=0112bef2-2ecc-46ce-961c-e922940a9456"},"vehicle_type_id":"4","last_reported":1774142171,"current_range_meters":5600,"station_id":"ce4bh192rcd13ifvqdd0","pricing_plan_id":"cebpf4jnsgd1na2vs0mg"},{"bike_id":"ac656c46-4691-458f-95ae-06026bff305e","system_id":"levelo_inurba_marseille","lat":43.28166,"lon":5.4265,"is_reserved":false,"is_disabled":false,"rental_uris":{"android":"levelo://app?vid=ac656c46-4691-458f-95ae-06026bff305e","ios":"levelo://app?vid=ac656c46-4691-458f-95ae-06026bff305e"},"vehicle_type_id":"4","last_reported":1774142171,"current_range_meters":5600,"station_id":"ce4bhnh2rcd13ifvqgug","pricing_plan_id":"cebpf4jnsgd1na2vs0mg"},{"bike_id":"a54d6773-8410-4eb2-9ebb-7bc82f57f6d1","system_id":"levelo_inurba_marseille","lat":43.29436,"lon":5.39753,"is_reserved":false,"is_disabled":false,"rental_uris":{"android":"levelo://app?vid=a54d6773-8410-4eb2-9ebb-7bc82f57f6d1","ios":"levelo://app?vid=a54d6773-8410-4eb2-9ebb-7bc82f57f6d1"},"vehicle_type_id":"4","last_reported":1774142171,"current_range_meters":5600,"station_id":"ce4bh3h2rcd13ifvqdo0","pricing_plan_id":"cebpf4jnsgd1na2vs0mg"},{"bike_id":"e9f4da87-4ef0-4991-8f59-285ae87cdf27","system_id":"levelo_inurba_marseille","lat":43.26786,"lon":5.39415,"is_reserved":false,"is_disabled":false,"rental_uris":{"android":"levelo://app?vid=e9f4da87-4ef0-4991-8f59-285ae87cdf27","ios":"levelo://app?vid=e9f4da87-4ef0-4991-8f59-285ae87cdf27"},"vehicle_type_id":"4","last_reported":1774142171,"current_range_meters":5600,"station_id":"ce4bhh12rcd13ifvqfg0","pricing_plan_id":"cebpf4jnsgd1na2vs0mg"},{"bike_id":"37752f22-4e24-4242-a38c-e44293abad6b","system_id":"levelo_inurba_marseille","lat":43.27981,"lon":5.38749,"is_reserved":false,"is_disabled":true,"rental_uris":{"android":"levelo://app?vid=37752f22-4e24-4242-a38c-e44293abad6b","ios":"levelo://app?vid=37752f22-4e24-4242-a38c-e44293abad6b"},"vehicle_type_id":"4","last_reported":1774142171,"current_range_meters":5600,"station_id":"ce4bhg12rcd13ifvqf80","pricing_plan_id":"cebpf4jnsgd1na2vs0mg"},{"bike_id":"171b2ff7-d16a-4006-90ee-82afd37785cf","system_id":"levelo_inurba_marseille","lat":43.30541,"lon":5.38433,"is_reserved":false,"is_disabled":false,"rental_uris":{"android":"levelo://app?vid=171b2ff7-d16a-4006-90ee-82afd37785cf","ios":"levelo://app?vid=171b2ff7-d16a-4006-90ee-82afd37785cf"},"vehicle_type_id":"4","last_reported":1774142171,"current_range_meters":5600,"station_id":"ce4bgg92rcd13ifvqb30","pricing_plan_id":"cebpf4jnsgd1na2vs0mg"},{"bike_id":"7735375d-1041-4f99-b2b7-719b8a41cb75","system_id":"levelo_inurba_marseille","lat":43.28154,"lon":5.4263,"is_reserved":false,"is_disabled":true,"rental_uris":{"android":"levelo://app?vid=7735375d-1041-4f99-b2b7-719b8a41cb75","ios":"levelo://app?vid=7735375d-1041-4f99-b2b7-719b8a41cb75"},"vehicle_type_id":"4","last_reported":1774142171,"current_range_meters":5600,"station_id":"ce4bhnh2rcd13ifvqgug","pricing_plan_id":"cebpf4jnsgd1na2vs0mg"},{"bike_id":"f3f832f5-e5ea-423c-9644-5749b9d73d1e","system_id":"levelo_inurba_marseille","lat":43.31345,"lon":5.36702,"is_reserved":false,"is_disabled":false,"rental_uris":{"android":"levelo://app?vid=f3f832f5-e5ea-423c-9644-5749b9d73d1e","ios":"levelo://app?vid=f3f832f5-e5ea-423c-9644-5749b9d73d1e"},"vehicle_type_id":"4","last_reported":1774142171,"current_range_meters":5600,"station_id":"ce4bgr92rcd13ifvqc6g","pricing_plan_id":"cebpf4jnsgd1na2vs0mg"},{"bike_id":"c0b70058-a123-4360-9a42-a44a22962f7a","system_id":"levelo_inurba_marseille","lat":43.28032,"lon":5.36947,"is_reserved":false,"is_disabled":false,"rental_uris":{"android":"levelo://app?vid=c0b70058-a123-4360-9a42-a44a22962f7a","ios":"levelo://app?vid=c0b70058-a123-4360-9a42-a44a22962f7a"},"vehicle_type_id":"4","last_reported":1774142171,"current_range_meters":5600,"station_id":"ce4bha12rcd13ifvqef0","pricing_plan_id":"cebpf4jnsgd1na2vs0mg"},{"bike_id":"1ef365fb-488e-4c1c-85b8-5a9107b69030","system_id":"levelo_inurba_marseille","lat":43.31325,"lon":5.39682,"is_reserved":false,"is_disabled":false,"rental_uris":{"android":"levelo://app?vid=1ef365fb-488e-4c1c-85b8-5a9107b69030","ios":"levelo://app?vid=1ef365fb-488e-4c1c-85b8-5a9107b69030"},"vehicle_type_id":"4","last_reported":1774142171,"current_range_meters":5600,"station_id":"ce4bgvp2rcd13ifvqcu0","pricing_plan_id":"cebpf4jnsgd1na2vs0mg"},{"bike_id":"0ff04b3c-71df-4b5b-b8cf-f7bfc6236bfe","system_id":"levelo_inurba_marseille","lat":43.30071,"lon":5.38679,"is_reserved":false,"is_disabled":false,"rental_uris":{"android":"levelo://app?vid=0ff04b3c-71df-4b5b-b8cf-f7bfc6236bfe","ios":"levelo://app?vid=0ff04b3c-71df-4b5b-b8cf-f7bfc6236bfe"},"vehicle_type_id":"4","last_reported":1774142171,"current_range_meters":5600,"station_id":"","pricing_plan_id":"cebpf4jnsgd1na2vs0mg"},{"bike_id":"cd0c363e-134b-4619-80d6-37fa30ddfa82","system_id":"levelo_inurba_marseille","lat":43.29261,"lon":5.40906,"is_reserved":false,"is_disabled":false,"rental_uris":{"android":"levelo://app?vid=cd0c363e-134b-4619-80d6-37fa30ddfa82","ios":"levelo://app?vid=cd0c363e-134b-4619-80d6-37fa30ddfa82"},"vehicle_type_id":"4","last_reported":1774142171,"current_range_meters":6000,"station_id":"ce4bh192rcd13ifvqdc0","pricing_plan_id":"cebpf4jnsgd1na2vs0mg"},{"bike_id":"39f4beb0-012a-4d3a-98c2-50c05feff499","system_id":"levelo_inurba_marseille","lat":43.28538,"lon":5.44098,"is_reserved":false,"is_disabled":false,"rental_uris":{"android":"levelo://app?vid=39f4beb0-012a-4d3a-98c2-50c05feff499","ios":"levelo://app?vid=39f4beb0-012a-4d3a-98c2-50c05feff499"},"vehicle_type_id":"4","last_reported":1774142171,"current_range_meters":6000,"station_id":"st_d3j3df2ikq2c7380ej80","pricing_plan_id":"cebpf4jnsgd1na2vs0mg"},{"bike_id":"07096b73-6daa-4014-a4a1-36b27abef312","system_id":"levelo_inurba_marseille","lat":43.29031,"lon":5.39971,"is_reserved":false,"is_disabled":false,"rental_uris":{"android":"levelo://app?vid=07096b73-6daa-4014-a4a1-36b27abef312","ios":"levelo://app?vid=07096b73-6daa-4014-a4a1-36b27abef312"},"vehicle_type_id":"4","last_reported":1774142171,"current_range_meters":6000,"station_id":"ce4bh392rcd13ifvqdm0","pricing_plan_id":"cebpf4jnsgd1na2vs0mg"},{"bike_id":"922b18cd-37dd-4d90-8953-8a50f6296f4b","system_id":"levelo_inurba_marseille","lat":43.24458,"lon":5.42539,"is_reserved":false,"is_disabled":false,"rental_uris":{"android":"levelo://app?vid=922b18cd-37dd-4d90-8953-8a50f6296f4b","ios":"levelo://app?vid=922b18cd-37dd-4d90-8953-8a50f6296f4b"},"vehicle_type_id":"4","last_reported":1774142171,"current_range_meters":6000,"station_id":"","pricing_plan_id":"cebpf4jnsgd1na2vs0mg"},{"bike_id":"8e70251c-8f02-4240-8304-f6a3026eaebe","system_id":"levelo_inurba_marseille","lat":43.30914,"lon":5.36849,"is_reserved":false,"is_disabled":false,"rental_uris":{"android":"levelo://app?vid=8e70251c-8f02-4240-8304-f6a3026eaebe","ios":"levelo://app?vid=8e70251c-8f02-4240-8304-f6a3026eaebe"},"vehicle_type_id":"4","last_reported":1774142171,"current_range_meters":6000,"station_id":"ce4bgn92rcd13ifvqbvg","pricing_plan_id":"cebpf4jnsgd1na2vs0mg"},{"bike_id":"9895479c-7522-4c8b-996f-5f3e1c1b4f33","system_id":"levelo_inurba_marseille","lat":43.23798,"lon":5.3662,"is_reserved":false,"is_disabled":false,"rental_uris":{"android":"levelo://app?vid=9895479c-7522-4c8b-996f-5f3e1c1b4f33","ios":"levelo://app?vid=9895479c-7522-4c8b-996f-5f3e1c1b4f33"},"vehicle_type_id":"4","last_reported":1774142171,"current_range_meters":6000,"station_id":"st_d3nk18o9ro0c73en2l3g","pricing_plan_id":"cebpf4jnsgd1na2vs0mg"},{"bike_id":"d59d7057-0dc4-48ec-973e-0a2880dea234","system_id":"levelo_inurba_marseille","lat":43.30981,"lon":5.39116,"is_reserved":false,"is_disabled":false,"rental_uris":{"android":"levelo://app?vid=d59d7057-0dc4-48ec-973e-0a2880dea234","ios":"levelo://app?vid=d59d7057-0dc4-48ec-973e-0a2880dea234"},"vehicle_type_id":"4","last_reported":1774142171,"current_range_meters":6000,"station_id":"","pricing_plan_id":"cebpf4jnsgd1na2vs0mg"},{"bike_id":"5254cafd-4e88-4b4b-bdb4-f9c448291cdb","system_id":"levelo_inurba_marseille","lat":43.3117,"lon":5.38703,"is_reserved":false,"is_disabled":false,"rental_uris":{"android":"levelo://app?vid=5254cafd-4e88-4b4b-bdb4-f9c448291cdb","ios":"levelo://app?vid=5254cafd-4e88-4b4b-bdb4-f9c448291cdb"},"vehicle_type_id":"4","last_reported":1774142171,"current_range_meters":6000,"station_id":"ce4bgv12rcd13ifvqcp0","pricing_plan_id":"cebpf4jnsgd1na2vs0mg"},{"bike_id":"75f93de1-b5a2-46c3-ae36-b751464be6b6","system_id":"levelo_inurba_marseille","lat":43.28334,"lon":5.38609,"is_reserved":false,"is_disabled":false,"rental_uris":{"android":"levelo://app?vid=75f93de1-b5a2-46c3-ae36-b751464be6b6","ios":"levelo://app?vid=75f93de1-b5a2-46c3-ae36-b751464be6b6"},"vehicle_type_id":"4","last_reported":1774142171,"current_range_meters":6000,"station_id":"ce4bh492rcd13ifvqdvg","pricing_plan_id":"cebpf4jnsgd1na2vs0mg"},{"bike_id":"37fd8b91-bebb-483f-9ede-850904204da2","system_id":"levelo_inurba_marseille","lat":43.33413,"lon":5.35678,"is_reserved":false,"is_disabled":false,"rental_uris":{"android":"levelo://app?vid=37fd8b91-bebb-483f-9ede-850904204da2","ios":"levelo://app?vid=37fd8b91-bebb-483f-9ede-850904204da2"},"vehicle_type_id":"4","last_reported":1774142171,"current_range_meters":6000,"station_id":"","pricing_plan_id":"cebpf4jnsgd1na2vs0mg"},{"bike_id":"d9a2340f-4dc0-456b-89f0-454af4d93a65","system_id":"levelo_inurba_marseille","lat":43.28499,"lon":5.35125,"is_reserved":false,"is_disabled":false,"rental_uris":{"android":"levelo://app?vid=d9a2340f-4dc0-456b-89f0-454af4d93a65","ios":"levelo://app?vid=d9a2340f-4dc0-456b-89f0-454af4d93a65"},"vehicle_type_id":"4","last_reported":1774142171,"current_range_meters":6000,"station_id":"","pricing_plan_id":"cebpf4jnsgd1na2vs0mg"},{"bike_id":"b87d7938-28e4-46e7-994e-fdebd5392225","system_id":"levelo_inurba_marseille","lat":43.32109,"lon":5.36764,"is_reserved":false,"is_disabled":false,"rental_uris":{"android":"levelo://app?vid=b87d7938-28e4-46e7-994e-fdebd5392225","ios":"levelo://app?vid=b87d7938-28e4-46e7-994e-fdebd5392225"},"vehicle_type_id":"4","last_reported":1774142171,"current_range_meters":6000,"station_id":"ce4bhrh2rcd13ifvqhug","pricing_plan_id":"cebpf4jnsgd1na2vs0mg"},{"bike_id":"956623a1-cbd2-4ffd-8225-afba9bf11016","system_id":"levelo_inurba_marseille","lat":43.29635,"lon":5.40596,"is_reserved":false,"is_disabled":false,"rental_uris":{"android":"levelo://app?vid=956623a1-cbd2-4ffd-8225-afba9bf11016","ios":"levelo://app?vid=956623a1-cbd2-4ffd-8225-afba9bf11016"},"vehicle_type_id":"4","last_reported":1774142171,"current_range_meters":6400,"station_id":"ce4bh0h2rcd13ifvqd60","pricing_plan_id":"cebpf4jnsgd1na2vs0mg"},{"bike_id":"c1132910-04b4-46e1-a0d5-c4ac5cbe805d","system_id":"levelo_inurba_marseille","lat":43.2697,"lon":5.40314,"is_reserved":false,"is_disabled":false,"rental_uris":{"android":"levelo://app?vid=c1132910-04b4-46e1-a0d5-c4ac5cbe805d","ios":"levelo://app?vid=c1132910-04b4-46e1-a0d5-c4ac5cbe805d"},"vehicle_type_id":"4","last_reported":1774142171,"current_range_meters":6400,"station_id":"cjm6bp8fraef2m0cb0m0","pricing_plan_id":"cebpf4jnsgd1na2vs0mg"},{"bike_id":"f1f374c7-7df8-4ad3-87c0-64cf3efed19a","system_id":"levelo_inurba_marseille","lat":43.30778,"lon":5.37648,"is_reserved":false,"is_disabled":false,"rental_uris":{"android":"levelo://app?vid=f1f374c7-7df8-4ad3-87c0-64cf3efed19a","ios":"levelo://app?vid=f1f374c7-7df8-4ad3-87c0-64cf3efed19a"},"vehicle_type_id":"4","last_reported":1774142171,"current_range_meters":6400,"station_id":"ce4bgv92rcd13ifvqcq0","pricing_plan_id":"cebpf4jnsgd1na2vs0mg"},{"bike_id":"077ba1f4-9955-44ea-8995-8df9c4ed43ac","system_id":"levelo_inurba_marseille","lat":43.31048,"lon":5.37164,"is_reserved":false,"is_disabled":false,"rental_uris":{"android":"levelo://app?vid=077ba1f4-9955-44ea-8995-8df9c4ed43ac","ios":"levelo://app?vid=077ba1f4-9955-44ea-8995-8df9c4ed43ac"},"vehicle_type_id":"4","last_reported":1774142171,"current_range_meters":6400,"station_id":"st_d4kl2rp97mjs73e7tdfg","pricing_plan_id":"cebpf4jnsgd1na2vs0mg"},{"bike_id":"0e1fdb5e-1222-475a-bc36-d4f7c9618892","system_id":"levelo_inurba_marseille","lat":43.29747,"lon":5.37684,"is_reserved":false,"is_disabled":false,"rental_uris":{"android":"levelo://app?vid=0e1fdb5e-1222-475a-bc36-d4f7c9618892","ios":"levelo://app?vid=0e1fdb5e-1222-475a-bc36-d4f7c9618892"},"vehicle_type_id":"4","last_reported":1774142171,"current_range_meters":6400,"station_id":"ce4bgkh2rcd13ifvqbl0","pricing_plan_id":"cebpf4jnsgd1na2vs0mg"},{"bike_id":"7217ab24-ec6e-420d-afc5-ee5b52c85529","system_id":"levelo_inurba_marseille","lat":43.24546,"lon":5.39525,"is_reserved":false,"is_disabled":false,"rental_uris":{"android":"levelo://app?vid=7217ab24-ec6e-420d-afc5-ee5b52c85529","ios":"levelo://app?vid=7217ab24-ec6e-420d-afc5-ee5b52c85529"},"vehicle_type_id":"4","last_reported":1774142171,"current_range_meters":6400,"station_id":"ce4bhlp2rcd13ifvqgjg","pricing_plan_id":"cebpf4jnsgd1na2vs0mg"},{"bike_id":"e80e3045-8283-4d1d-b48f-693d799b5a5c","system_id":"levelo_inurba_marseille","lat":43.29475,"lon":5.43331,"is_reserved":false,"is_disabled":false,"rental_uris":{"android":"levelo://app?vid=e80e3045-8283-4d1d-b48f-693d799b5a5c","ios":"levelo://app?vid=e80e3045-8283-4d1d-b48f-693d799b5a5c"},"vehicle_type_id":"4","last_reported":1774142171,"current_range_meters":6400,"station_id":"st_d3j5ugp08ojc73fj9d10","pricing_plan_id":"cebpf4jnsgd1na2vs0mg"},{"bike_id":"5206b1c0-ea28-4288-9fb7-15de647e09fa","system_id":"levelo_inurba_marseille","lat":43.33558,"lon":5.37497,"is_reserved":false,"is_disabled":false,"rental_uris":{"android":"levelo://app?vid=5206b1c0-ea28-4288-9fb7-15de647e09fa","ios":"levelo://app?vid=5206b1c0-ea28-4288-9fb7-15de647e09fa"},"vehicle_type_id":"4","last_reported":1774142171,"current_range_meters":6400,"station_id":"st_d46tts09ee8s73dlu43g","pricing_plan_id":"cebpf4jnsgd1na2vs0mg"},{"bike_id":"eec1e70a-7a70-4f35-82df-f3727eb58f06","system_id":"levelo_inurba_marseille","lat":43.29648,"lon":5.40195,"is_reserved":false,"is_disabled":false,"rental_uris":{"android":"levelo://app?vid=eec1e70a-7a70-4f35-82df-f3727eb58f06","ios":"levelo://app?vid=eec1e70a-7a70-4f35-82df-f3727eb58f06"},"vehicle_type_id":"4","last_reported":1774142171,"current_range_meters":6400,"station_id":"","pricing_plan_id":"cebpf4jnsgd1na2vs0mg"},{"bike_id":"30488e53-a916-4576-8d60-08964688e945","system_id":"levelo_inurba_marseille","lat":43.30884,"lon":5.3719,"is_reserved":false,"is_disabled":false,"rental_uris":{"android":"levelo://app?vid=30488e53-a916-4576-8d60-08964688e945","ios":"levelo://app?vid=30488e53-a916-4576-8d60-08964688e945"},"vehicle_type_id":"4","last_reported":1774142171,"current_range_meters":6400,"station_id":"ce4bguh2rcd13ifvqckg","pricing_plan_id":"cebpf4jnsgd1na2vs0mg"},{"bike_id":"bb64248e-0e5d-4ee1-9d8f-d48a0dd77d66","system_id":"levelo_inurba_marseille","lat":43.2163,"lon":5.34477,"is_reserved":false,"is_disabled":false,"rental_uris":{"android":"levelo://app?vid=bb64248e-0e5d-4ee1-9d8f-d48a0dd77d66","ios":"levelo://app?vid=bb64248e-0e5d-4ee1-9d8f-d48a0dd77d66"},"vehicle_type_id":"4","last_reported":1774142171,"current_range_meters":6400,"station_id":"","pricing_plan_id":"cebpf4jnsgd1na2vs0mg"},{"bike_id":"7f49cfef-fa82-40c2-9530-fca463b27d0d","system_id":"levelo_inurba_marseille","lat":43.30888,"lon":5.39648,"is_reserved":false,"is_disabled":false,"rental_uris":{"android":"levelo://app?vid=7f49cfef-fa82-40c2-9530-fca463b27d0d","ios":"levelo://app?vid=7f49cfef-fa82-40c2-9530-fca463b27d0d"},"vehicle_type_id":"4","last_reported":1774142171,"current_range_meters":6400,"station_id":"ce4bh012rcd13ifvqcv0","pricing_plan_id":"cebpf4jnsgd1na2vs0mg"},{"bike_id":"703efbe1-feef-417d-a9e3-0fca1a7eab74","system_id":"levelo_inurba_marseille","lat":43.34945,"lon":5.37928,"is_reserved":false,"is_disabled":false,"rental_uris":{"android":"levelo://app?vid=703efbe1-feef-417d-a9e3-0fca1a7eab74","ios":"levelo://app?vid=703efbe1-feef-417d-a9e3-0fca1a7eab74"},"vehicle_type_id":"4","last_reported":1774142171,"current_range_meters":6400,"station_id":"","pricing_plan_id":"cebpf4jnsgd1na2vs0mg"},{"bike_id":"722e053a-dfaa-4885-bcd6-7130a7655c0c","system_id":"levelo_inurba_marseille","lat":43.2849,"lon":5.38571,"is_reserved":false,"is_disabled":false,"rental_uris":{"android":"levelo://app?vid=722e053a-dfaa-4885-bcd6-7130a7655c0c","ios":"levelo://app?vid=722e053a-dfaa-4885-bcd6-7130a7655c0c"},"vehicle_type_id":"4","last_reported":1774142171,"current_range_meters":6400,"station_id":"ce4bh8p2rcd13ifvqeb0","pricing_plan_id":"cebpf4jnsgd1na2vs0mg"},{"bike_id":"0d715b3a-bf00-4b51-86f8-fa10dbeac6fa","system_id":"levelo_inurba_marseille","lat":43.25727,"lon":5.41963,"is_reserved":false,"is_disabled":false,"rental_uris":{"android":"levelo://app?vid=0d715b3a-bf00-4b51-86f8-fa10dbeac6fa","ios":"levelo://app?vid=0d715b3a-bf00-4b51-86f8-fa10dbeac6fa"},"vehicle_type_id":"4","last_reported":1774142171,"current_range_meters":6400,"station_id":"","pricing_plan_id":"cebpf4jnsgd1na2vs0mg"},{"bike_id":"ee8c0786-704b-4515-a31a-2e24ac80a01b","system_id":"levelo_inurba_marseille","lat":43.33565,"lon":5.37465,"is_reserved":false,"is_disabled":false,"rental_uris":{"android":"levelo://app?vid=ee8c0786-704b-4515-a31a-2e24ac80a01b","ios":"levelo://app?vid=ee8c0786-704b-4515-a31a-2e24ac80a01b"},"vehicle_type_id":"4","last_reported":1774142171,"current_range_meters":6800,"station_id":"st_d46tts09ee8s73dlu43g","pricing_plan_id":"cebpf4jnsgd1na2vs0mg"},{"bike_id":"ddc789ee-b314-4ab5-9696-915f4c777452","system_id":"levelo_inurba_marseille","lat":43.30977,"lon":5.39089,"is_reserved":false,"is_disabled":false,"rental_uris":{"android":"levelo://app?vid=ddc789ee-b314-4ab5-9696-915f4c777452","ios":"levelo://app?vid=ddc789ee-b314-4ab5-9696-915f4c777452"},"vehicle_type_id":"4","last_reported":1774142171,"current_range_meters":6800,"station_id":"","pricing_plan_id":"cebpf4jnsgd1na2vs0mg"},{"bike_id":"58930592-65f7-4192-ac2f-be7392b8805a","system_id":"levelo_inurba_marseille","lat":43.26221,"lon":5.40453,"is_reserved":false,"is_disabled":false,"rental_uris":{"android":"levelo://app?vid=58930592-65f7-4192-ac2f-be7392b8805a","ios":"levelo://app?vid=58930592-65f7-4192-ac2f-be7392b8805a"},"vehicle_type_id":"4","last_reported":1774142171,"current_range_meters":6800,"station_id":"ce4bhmh2rcd13ifvqgmg","pricing_plan_id":"cebpf4jnsgd1na2vs0mg"},{"bike_id":"f413c348-a67b-4ddf-af34-de557ab9d007","system_id":"levelo_inurba_marseille","lat":43.30643,"lon":5.40062,"is_reserved":false,"is_disabled":false,"rental_uris":{"android":"levelo://app?vid=f413c348-a67b-4ddf-af34-de557ab9d007","ios":"levelo://app?vid=f413c348-a67b-4ddf-af34-de557ab9d007"},"vehicle_type_id":"4","last_reported":1774142171,"current_range_meters":6800,"station_id":"ce4bh112rcd13ifvqda0","pricing_plan_id":"cebpf4jnsgd1na2vs0mg"},{"bike_id":"53663f10-c972-4dad-83a0-96ec19d2a37e","system_id":"levelo_inurba_marseille","lat":43.25001,"lon":5.38917,"is_reserved":false,"is_disabled":true,"rental_uris":{"android":"levelo://app?vid=53663f10-c972-4dad-83a0-96ec19d2a37e","ios":"levelo://app?vid=53663f10-c972-4dad-83a0-96ec19d2a37e"},"vehicle_type_id":"4","last_reported":1774142171,"current_range_meters":6800,"station_id":"ce4bhgp2rcd13ifvqfd0","pricing_plan_id":"cebpf4jnsgd1na2vs0mg"},{"bike_id":"c7cc5081-8a90-4664-8378-0ac0db8d74fb","system_id":"levelo_inurba_marseille","lat":43.29838,"lon":5.36677,"is_reserved":false,"is_disabled":false,"rental_uris":{"android":"levelo://app?vid=c7cc5081-8a90-4664-8378-0ac0db8d74fb","ios":"levelo://app?vid=c7cc5081-8a90-4664-8378-0ac0db8d74fb"},"vehicle_type_id":"4","last_reported":1774142171,"current_range_meters":6800,"station_id":"","pricing_plan_id":"cebpf4jnsgd1na2vs0mg"},{"bike_id":"d86f8d0d-62d2-4104-ab84-dbb85bf910e4","system_id":"levelo_inurba_marseille","lat":43.29201,"lon":5.39307,"is_reserved":false,"is_disabled":false,"rental_uris":{"android":"levelo://app?vid=d86f8d0d-62d2-4104-ab84-dbb85bf910e4","ios":"levelo://app?vid=d86f8d0d-62d2-4104-ab84-dbb85bf910e4"},"vehicle_type_id":"4","last_reported":1774142171,"current_range_meters":6800,"station_id":"ce4bh192rcd13ifvqdd0","pricing_plan_id":"cebpf4jnsgd1na2vs0mg"},{"bike_id":"a3937008-bd85-4217-8a76-18de4c3db7e7","system_id":"levelo_inurba_marseille","lat":43.31355,"lon":5.385,"is_reserved":false,"is_disabled":false,"rental_uris":{"android":"levelo://app?vid=a3937008-bd85-4217-8a76-18de4c3db7e7","ios":"levelo://app?vid=a3937008-bd85-4217-8a76-18de4c3db7e7"},"vehicle_type_id":"4","last_reported":1774142171,"current_range_meters":6800,"station_id":"ce4bgt92rcd13ifvqcf0","pricing_plan_id":"cebpf4jnsgd1na2vs0mg"},{"bike_id":"13542ed8-b3ab-4457-bed0-fd2a2f796cb6","system_id":"levelo_inurba_marseille","lat":43.30161,"lon":5.38068,"is_reserved":false,"is_disabled":false,"rental_uris":{"android":"levelo://app?vid=13542ed8-b3ab-4457-bed0-fd2a2f796cb6","ios":"levelo://app?vid=13542ed8-b3ab-4457-bed0-fd2a2f796cb6"},"vehicle_type_id":"4","last_reported":1774142171,"current_range_meters":6800,"station_id":"ce4bgjp2rcd13ifvqbh0","pricing_plan_id":"cebpf4jnsgd1na2vs0mg"},{"bike_id":"042634bc-3563-4c6c-b30b-7c88c33b368a","system_id":"levelo_inurba_marseille","lat":43.28506,"lon":5.48396,"is_reserved":false,"is_disabled":false,"rental_uris":{"android":"levelo://app?vid=042634bc-3563-4c6c-b30b-7c88c33b368a","ios":"levelo://app?vid=042634bc-3563-4c6c-b30b-7c88c33b368a"},"vehicle_type_id":"4","last_reported":1774142171,"current_range_meters":6800,"station_id":"","pricing_plan_id":"cebpf4jnsgd1na2vs0mg"},{"bike_id":"df5ad533-8354-43dd-b4db-d4118becde63","system_id":"levelo_inurba_marseille","lat":43.28515,"lon":5.48308,"is_reserved":false,"is_disabled":false,"rental_uris":{"android":"levelo://app?vid=df5ad533-8354-43dd-b4db-d4118becde63","ios":"levelo://app?vid=df5ad533-8354-43dd-b4db-d4118becde63"},"vehicle_type_id":"4","last_reported":1774142171,"current_range_meters":6800,"station_id":"","pricing_plan_id":"cebpf4jnsgd1na2vs0mg"},{"bike_id":"66f56402-7386-48e6-be67-acd970d62d91","system_id":"levelo_inurba_marseille","lat":43.29272,"lon":5.36824,"is_reserved":false,"is_disabled":false,"rental_uris":{"android":"levelo://app?vid=66f56402-7386-48e6-be67-acd970d62d91","ios":"levelo://app?vid=66f56402-7386-48e6-be67-acd970d62d91"},"vehicle_type_id":"4","last_reported":1774142171,"current_range_meters":6800,"station_id":"ce4bhbp2rcd13ifvqesg","pricing_plan_id":"cebpf4jnsgd1na2vs0mg"},{"bike_id":"dbf47932-e26a-4d24-a0bd-d83c06edb5c9","system_id":"levelo_inurba_marseille","lat":43.24543,"lon":5.39521,"is_reserved":false,"is_disabled":false,"rental_uris":{"android":"levelo://app?vid=dbf47932-e26a-4d24-a0bd-d83c06edb5c9","ios":"levelo://app?vid=dbf47932-e26a-4d24-a0bd-d83c06edb5c9"},"vehicle_type_id":"4","last_reported":1774142171,"current_range_meters":6800,"station_id":"ce4bhlp2rcd13ifvqgjg","pricing_plan_id":"cebpf4jnsgd1na2vs0mg"},{"bike_id":"d65bd890-bd76-40b1-a464-add252f480e6","system_id":"levelo_inurba_marseille","lat":43.31736,"lon":5.38999,"is_reserved":false,"is_disabled":false,"rental_uris":{"android":"levelo://app?vid=d65bd890-bd76-40b1-a464-add252f480e6","ios":"levelo://app?vid=d65bd890-bd76-40b1-a464-add252f480e6"},"vehicle_type_id":"4","last_reported":1774142171,"current_range_meters":6800,"station_id":"ce4bhqp2rcd13ifvqhng","pricing_plan_id":"cebpf4jnsgd1na2vs0mg"},{"bike_id":"72b0e430-cb61-4c00-b391-e3f1383dbeb3","system_id":"levelo_inurba_marseille","lat":43.3097,"lon":5.39037,"is_reserved":false,"is_disabled":false,"rental_uris":{"android":"levelo://app?vid=72b0e430-cb61-4c00-b391-e3f1383dbeb3","ios":"levelo://app?vid=72b0e430-cb61-4c00-b391-e3f1383dbeb3"},"vehicle_type_id":"4","last_reported":1774142171,"current_range_meters":6800,"station_id":"ce4bgup2rcd13ifvqco0","pricing_plan_id":"cebpf4jnsgd1na2vs0mg"},{"bike_id":"0e8182cb-e700-4d11-8f0c-f71006c7b2ed","system_id":"levelo_inurba_marseille","lat":43.28572,"lon":5.35983,"is_reserved":false,"is_disabled":false,"rental_uris":{"android":"levelo://app?vid=0e8182cb-e700-4d11-8f0c-f71006c7b2ed","ios":"levelo://app?vid=0e8182cb-e700-4d11-8f0c-f71006c7b2ed"},"vehicle_type_id":"4","last_reported":1774142171,"current_range_meters":6800,"station_id":"","pricing_plan_id":"cebpf4jnsgd1na2vs0mg"},{"bike_id":"aea6d33a-b59a-4510-b75a-6add5d47ec12","system_id":"levelo_inurba_marseille","lat":43.31324,"lon":5.39681,"is_reserved":false,"is_disabled":false,"rental_uris":{"android":"levelo://app?vid=aea6d33a-b59a-4510-b75a-6add5d47ec12","ios":"levelo://app?vid=aea6d33a-b59a-4510-b75a-6add5d47ec12"},"vehicle_type_id":"4","last_reported":1774142171,"current_range_meters":6800,"station_id":"ce4bgvp2rcd13ifvqcu0","pricing_plan_id":"cebpf4jnsgd1na2vs0mg"},{"bike_id":"84dc3d68-1c59-4a3a-a8d1-cca6c5afc7c9","system_id":"levelo_inurba_marseille","lat":43.28025,"lon":5.36942,"is_reserved":false,"is_disabled":false,"rental_uris":{"android":"levelo://app?vid=84dc3d68-1c59-4a3a-a8d1-cca6c5afc7c9","ios":"levelo://app?vid=84dc3d68-1c59-4a3a-a8d1-cca6c5afc7c9"},"vehicle_type_id":"4","last_reported":1774142171,"current_range_meters":6800,"station_id":"ce4bha12rcd13ifvqef0","pricing_plan_id":"cebpf4jnsgd1na2vs0mg"},{"bike_id":"618a8ce1-d8a1-408b-895a-336a9fe0c14b","system_id":"levelo_inurba_marseille","lat":43.31357,"lon":5.38494,"is_reserved":false,"is_disabled":false,"rental_uris":{"android":"levelo://app?vid=618a8ce1-d8a1-408b-895a-336a9fe0c14b","ios":"levelo://app?vid=618a8ce1-d8a1-408b-895a-336a9fe0c14b"},"vehicle_type_id":"4","last_reported":1774142171,"current_range_meters":6800,"station_id":"ce4bgt92rcd13ifvqcf0","pricing_plan_id":"cebpf4jnsgd1na2vs0mg"},{"bike_id":"e6475c08-c2b5-4384-9f5a-f76a9e6ed419","system_id":"levelo_inurba_marseille","lat":43.30136,"lon":5.3988,"is_reserved":false,"is_disabled":true,"rental_uris":{"android":"levelo://app?vid=e6475c08-c2b5-4384-9f5a-f76a9e6ed419","ios":"levelo://app?vid=e6475c08-c2b5-4384-9f5a-f76a9e6ed419"},"vehicle_type_id":"4","last_reported":1774142171,"current_range_meters":6800,"station_id":"ce4bh0h2rcd13ifvqd40","pricing_plan_id":"cebpf4jnsgd1na2vs0mg"},{"bike_id":"5c57b442-e44c-4217-ae47-6fe16361dbee","system_id":"levelo_inurba_marseille","lat":43.29759,"lon":5.42776,"is_reserved":false,"is_disabled":false,"rental_uris":{"android":"levelo://app?vid=5c57b442-e44c-4217-ae47-6fe16361dbee","ios":"levelo://app?vid=5c57b442-e44c-4217-ae47-6fe16361dbee"},"vehicle_type_id":"4","last_reported":1774142171,"current_range_meters":6800,"station_id":"st_d3md5207bmas73dh9klg","pricing_plan_id":"cebpf4jnsgd1na2vs0mg"},{"bike_id":"881552ad-57ca-4484-9a05-f159c58f50d9","system_id":"levelo_inurba_marseille","lat":43.31697,"lon":5.38691,"is_reserved":false,"is_disabled":false,"rental_uris":{"android":"levelo://app?vid=881552ad-57ca-4484-9a05-f159c58f50d9","ios":"levelo://app?vid=881552ad-57ca-4484-9a05-f159c58f50d9"},"vehicle_type_id":"4","last_reported":1774142171,"current_range_meters":6800,"station_id":"","pricing_plan_id":"cebpf4jnsgd1na2vs0mg"},{"bike_id":"91d452bc-c0ed-4c10-967a-1cc97ea4bfef","system_id":"levelo_inurba_marseille","lat":43.29032,"lon":5.37564,"is_reserved":false,"is_disabled":false,"rental_uris":{"android":"levelo://app?vid=91d452bc-c0ed-4c10-967a-1cc97ea4bfef","ios":"levelo://app?vid=91d452bc-c0ed-4c10-967a-1cc97ea4bfef"},"vehicle_type_id":"4","last_reported":1774142171,"current_range_meters":6800,"station_id":"ce4bh692rcd13ifvqe90","pricing_plan_id":"cebpf4jnsgd1na2vs0mg"},{"bike_id":"2cd11bbe-ed2d-4401-ac74-aa88c1ac5db6","system_id":"levelo_inurba_marseille","lat":43.29439,"lon":5.39756,"is_reserved":false,"is_disabled":false,"rental_uris":{"android":"levelo://app?vid=2cd11bbe-ed2d-4401-ac74-aa88c1ac5db6","ios":"levelo://app?vid=2cd11bbe-ed2d-4401-ac74-aa88c1ac5db6"},"vehicle_type_id":"4","last_reported":1774142171,"current_range_meters":6800,"station_id":"ce4bh3h2rcd13ifvqdo0","pricing_plan_id":"cebpf4jnsgd1na2vs0mg"},{"bike_id":"9c19229f-7481-4ad2-b2e4-553f3f471b69","system_id":"levelo_inurba_marseille","lat":43.31168,"lon":5.3871,"is_reserved":false,"is_disabled":false,"rental_uris":{"android":"levelo://app?vid=9c19229f-7481-4ad2-b2e4-553f3f471b69","ios":"levelo://app?vid=9c19229f-7481-4ad2-b2e4-553f3f471b69"},"vehicle_type_id":"4","last_reported":1774142171,"current_range_meters":6800,"station_id":"ce4bgv12rcd13ifvqcp0","pricing_plan_id":"cebpf4jnsgd1na2vs0mg"},{"bike_id":"fdc655d4-8c99-4d97-9c1e-46ec98ef8979","system_id":"levelo_inurba_marseille","lat":43.2862,"lon":5.35097,"is_reserved":false,"is_disabled":true,"rental_uris":{"android":"levelo://app?vid=fdc655d4-8c99-4d97-9c1e-46ec98ef8979","ios":"levelo://app?vid=fdc655d4-8c99-4d97-9c1e-46ec98ef8979"},"vehicle_type_id":"4","last_reported":1774142171,"current_range_meters":7200,"station_id":"ce4bhch2rcd13ifvqeug","pricing_plan_id":"cebpf4jnsgd1na2vs0mg"},{"bike_id":"684715c6-945f-4949-9133-64dec7838b4e","system_id":"levelo_inurba_marseille","lat":43.27208,"lon":5.39194,"is_reserved":false,"is_disabled":true,"rental_uris":{"android":"levelo://app?vid=684715c6-945f-4949-9133-64dec7838b4e","ios":"levelo://app?vid=684715c6-945f-4949-9133-64dec7838b4e"},"vehicle_type_id":"4","last_reported":1774142171,"current_range_meters":7200,"station_id":"ce4bhhp2rcd13ifvqfm0","pricing_plan_id":"cebpf4jnsgd1na2vs0mg"},{"bike_id":"589e256a-566c-48aa-ba2e-bb8bec131139","system_id":"levelo_inurba_marseille","lat":43.2739,"lon":5.36258,"is_reserved":false,"is_disabled":true,"rental_uris":{"android":"levelo://app?vid=589e256a-566c-48aa-ba2e-bb8bec131139","ios":"levelo://app?vid=589e256a-566c-48aa-ba2e-bb8bec131139"},"vehicle_type_id":"4","last_reported":1774142171,"current_range_meters":7200,"station_id":"ce4bhbh2rcd13ifvqeo0","pricing_plan_id":"cebpf4jnsgd1na2vs0mg"},{"bike_id":"b6fffe2f-9423-41b9-a53f-4ddbccd10965","system_id":"levelo_inurba_marseille","lat":43.33535,"lon":5.37451,"is_reserved":false,"is_disabled":false,"rental_uris":{"android":"levelo://app?vid=b6fffe2f-9423-41b9-a53f-4ddbccd10965","ios":"levelo://app?vid=b6fffe2f-9423-41b9-a53f-4ddbccd10965"},"vehicle_type_id":"4","last_reported":1774142171,"current_range_meters":7200,"station_id":"st_d46tts09ee8s73dlu43g","pricing_plan_id":"cebpf4jnsgd1na2vs0mg"},{"bike_id":"a4f838e5-c68f-4237-8d0e-a3cdd8fb2afc","system_id":"levelo_inurba_marseille","lat":43.30122,"lon":5.37422,"is_reserved":false,"is_disabled":false,"rental_uris":{"android":"levelo://app?vid=a4f838e5-c68f-4237-8d0e-a3cdd8fb2afc","ios":"levelo://app?vid=a4f838e5-c68f-4237-8d0e-a3cdd8fb2afc"},"vehicle_type_id":"4","last_reported":1774142171,"current_range_meters":7200,"station_id":"ce4bgs92rcd13ifvqcc0","pricing_plan_id":"cebpf4jnsgd1na2vs0mg"},{"bike_id":"f72d76b5-18e1-454b-afe7-6526fb898042","system_id":"levelo_inurba_marseille","lat":43.28032,"lon":5.36942,"is_reserved":false,"is_disabled":false,"rental_uris":{"android":"levelo://app?vid=f72d76b5-18e1-454b-afe7-6526fb898042","ios":"levelo://app?vid=f72d76b5-18e1-454b-afe7-6526fb898042"},"vehicle_type_id":"4","last_reported":1774142171,"current_range_meters":7200,"station_id":"ce4bha12rcd13ifvqef0","pricing_plan_id":"cebpf4jnsgd1na2vs0mg"},{"bike_id":"04388829-bc2a-4d42-9f8f-519b0b3f9911","system_id":"levelo_inurba_marseille","lat":43.30951,"lon":5.39042,"is_reserved":false,"is_disabled":false,"rental_uris":{"android":"levelo://app?vid=04388829-bc2a-4d42-9f8f-519b0b3f9911","ios":"levelo://app?vid=04388829-bc2a-4d42-9f8f-519b0b3f9911"},"vehicle_type_id":"4","last_reported":1774142171,"current_range_meters":7200,"station_id":"ce4bgup2rcd13ifvqco0","pricing_plan_id":"cebpf4jnsgd1na2vs0mg"},{"bike_id":"14790cac-e721-4919-a5a0-db7e7a6e1d59","system_id":"levelo_inurba_marseille","lat":43.28854,"lon":5.35845,"is_reserved":false,"is_disabled":false,"rental_uris":{"android":"levelo://app?vid=14790cac-e721-4919-a5a0-db7e7a6e1d59","ios":"levelo://app?vid=14790cac-e721-4919-a5a0-db7e7a6e1d59"},"vehicle_type_id":"4","last_reported":1774142171,"current_range_meters":7200,"station_id":"ce4bhb12rcd13ifvqem0","pricing_plan_id":"cebpf4jnsgd1na2vs0mg"},{"bike_id":"853b60f9-9203-48d1-83d9-1955c5adb34b","system_id":"levelo_inurba_marseille","lat":43.31336,"lon":5.39719,"is_reserved":false,"is_disabled":false,"rental_uris":{"android":"levelo://app?vid=853b60f9-9203-48d1-83d9-1955c5adb34b","ios":"levelo://app?vid=853b60f9-9203-48d1-83d9-1955c5adb34b"},"vehicle_type_id":"4","last_reported":1774142171,"current_range_meters":7200,"station_id":"ce4bgvp2rcd13ifvqcu0","pricing_plan_id":"cebpf4jnsgd1na2vs0mg"},{"bike_id":"280578b9-60d3-4d63-bb0d-4693a52f0b6d","system_id":"levelo_inurba_marseille","lat":43.29029,"lon":5.3812,"is_reserved":false,"is_disabled":true,"rental_uris":{"android":"levelo://app?vid=280578b9-60d3-4d63-bb0d-4693a52f0b6d","ios":"levelo://app?vid=280578b9-60d3-4d63-bb0d-4693a52f0b6d"},"vehicle_type_id":"4","last_reported":1774142171,"current_range_meters":7200,"station_id":"ce4bh4p2rcd13ifvqe1g","pricing_plan_id":"cebpf4jnsgd1na2vs0mg"},{"bike_id":"b846518d-9413-4122-88c9-caec257fb279","system_id":"levelo_inurba_marseille","lat":43.30639,"lon":5.401,"is_reserved":false,"is_disabled":false,"rental_uris":{"android":"levelo://app?vid=b846518d-9413-4122-88c9-caec257fb279","ios":"levelo://app?vid=b846518d-9413-4122-88c9-caec257fb279"},"vehicle_type_id":"4","last_reported":1774142171,"current_range_meters":7200,"station_id":"ce4bh112rcd13ifvqda0","pricing_plan_id":"cebpf4jnsgd1na2vs0mg"},{"bike_id":"91835384-6537-4626-9579-23e38e6a4a9b","system_id":"levelo_inurba_marseille","lat":43.28356,"lon":5.38624,"is_reserved":false,"is_disabled":false,"rental_uris":{"android":"levelo://app?vid=91835384-6537-4626-9579-23e38e6a4a9b","ios":"levelo://app?vid=91835384-6537-4626-9579-23e38e6a4a9b"},"vehicle_type_id":"4","last_reported":1774142171,"current_range_meters":7200,"station_id":"ce4bh492rcd13ifvqdvg","pricing_plan_id":"cebpf4jnsgd1na2vs0mg"},{"bike_id":"374e5cc6-9070-44bb-908f-c629ab12d1e4","system_id":"levelo_inurba_marseille","lat":43.30198,"lon":5.36606,"is_reserved":false,"is_disabled":false,"rental_uris":{"android":"levelo://app?vid=374e5cc6-9070-44bb-908f-c629ab12d1e4","ios":"levelo://app?vid=374e5cc6-9070-44bb-908f-c629ab12d1e4"},"vehicle_type_id":"4","last_reported":1774142171,"current_range_meters":7200,"station_id":"ce4bgrh2rcd13ifvqc8g","pricing_plan_id":"cebpf4jnsgd1na2vs0mg"},{"bike_id":"9aab9186-cdfc-419e-b877-691d5aca870a","system_id":"levelo_inurba_marseille","lat":43.28211,"lon":5.39026,"is_reserved":false,"is_disabled":false,"rental_uris":{"android":"levelo://app?vid=9aab9186-cdfc-419e-b877-691d5aca870a","ios":"levelo://app?vid=9aab9186-cdfc-419e-b877-691d5aca870a"},"vehicle_type_id":"4","last_reported":1774142171,"current_range_meters":7200,"station_id":"ce4bhn92rcd13ifvqgsg","pricing_plan_id":"cebpf4jnsgd1na2vs0mg"},{"bike_id":"7391d843-4a97-42eb-a165-04dc1106d10b","system_id":"levelo_inurba_marseille","lat":43.3063,"lon":5.37254,"is_reserved":false,"is_disabled":false,"rental_uris":{"android":"levelo://app?vid=7391d843-4a97-42eb-a165-04dc1106d10b","ios":"levelo://app?vid=7391d843-4a97-42eb-a165-04dc1106d10b"},"vehicle_type_id":"4","last_reported":1774142171,"current_range_meters":7200,"station_id":"ce4bgqh2rcd13ifvqc4g","pricing_plan_id":"cebpf4jnsgd1na2vs0mg"},{"bike_id":"afaf009b-854b-4a4a-9a19-fdc9f27a88ec","system_id":"levelo_inurba_marseille","lat":43.29019,"lon":5.38629,"is_reserved":false,"is_disabled":true,"rental_uris":{"android":"levelo://app?vid=afaf009b-854b-4a4a-9a19-fdc9f27a88ec","ios":"levelo://app?vid=afaf009b-854b-4a4a-9a19-fdc9f27a88ec"},"vehicle_type_id":"4","last_reported":1774142171,"current_range_meters":7200,"station_id":"ce4bh4p2rcd13ifvqe0g","pricing_plan_id":"cebpf4jnsgd1na2vs0mg"},{"bike_id":"5369d941-756a-4a39-ae59-10b7c47d2be3","system_id":"levelo_inurba_marseille","lat":43.31042,"lon":5.37157,"is_reserved":false,"is_disabled":false,"rental_uris":{"android":"levelo://app?vid=5369d941-756a-4a39-ae59-10b7c47d2be3","ios":"levelo://app?vid=5369d941-756a-4a39-ae59-10b7c47d2be3"},"vehicle_type_id":"4","last_reported":1774142171,"current_range_meters":7200,"station_id":"st_d4kl2rp97mjs73e7tdfg","pricing_plan_id":"cebpf4jnsgd1na2vs0mg"},{"bike_id":"5ef4cc37-3d72-42bd-bcdd-df4149f6c269","system_id":"levelo_inurba_marseille","lat":43.30147,"lon":5.37409,"is_reserved":false,"is_disabled":false,"rental_uris":{"android":"levelo://app?vid=5ef4cc37-3d72-42bd-bcdd-df4149f6c269","ios":"levelo://app?vid=5ef4cc37-3d72-42bd-bcdd-df4149f6c269"},"vehicle_type_id":"4","last_reported":1774142171,"current_range_meters":7200,"station_id":"ce4bgs92rcd13ifvqcc0","pricing_plan_id":"cebpf4jnsgd1na2vs0mg"},{"bike_id":"6768fb01-97ee-4f47-89cf-88cf0e1f3240","system_id":"levelo_inurba_marseille","lat":43.2987,"lon":5.39729,"is_reserved":false,"is_disabled":false,"rental_uris":{"android":"levelo://app?vid=6768fb01-97ee-4f47-89cf-88cf0e1f3240","ios":"levelo://app?vid=6768fb01-97ee-4f47-89cf-88cf0e1f3240"},"vehicle_type_id":"4","last_reported":1774142171,"current_range_meters":7200,"station_id":"ce4bh0h2rcd13ifvqd50","pricing_plan_id":"cebpf4jnsgd1na2vs0mg"},{"bike_id":"40262e6a-8dcf-49b7-a1fd-455d263e1d4f","system_id":"levelo_inurba_marseille","lat":43.29977,"lon":5.37145,"is_reserved":false,"is_disabled":false,"rental_uris":{"android":"levelo://app?vid=40262e6a-8dcf-49b7-a1fd-455d263e1d4f","ios":"levelo://app?vid=40262e6a-8dcf-49b7-a1fd-455d263e1d4f"},"vehicle_type_id":"4","last_reported":1774142171,"current_range_meters":7200,"station_id":"ce4bgr92rcd13ifvqc7g","pricing_plan_id":"cebpf4jnsgd1na2vs0mg"},{"bike_id":"24892758-e1c8-4866-9ace-f6379bc81fdc","system_id":"levelo_inurba_marseille","lat":43.26393,"lon":5.41099,"is_reserved":false,"is_disabled":false,"rental_uris":{"android":"levelo://app?vid=24892758-e1c8-4866-9ace-f6379bc81fdc","ios":"levelo://app?vid=24892758-e1c8-4866-9ace-f6379bc81fdc"},"vehicle_type_id":"4","last_reported":1774142171,"current_range_meters":7200,"station_id":"st_d4e5ca6na9uc73bfl5fg","pricing_plan_id":"cebpf4jnsgd1na2vs0mg"},{"bike_id":"70ed81f0-cc7f-4a8f-b6f0-251d42df73b9","system_id":"levelo_inurba_marseille","lat":43.2926,"lon":5.36846,"is_reserved":false,"is_disabled":false,"rental_uris":{"android":"levelo://app?vid=70ed81f0-cc7f-4a8f-b6f0-251d42df73b9","ios":"levelo://app?vid=70ed81f0-cc7f-4a8f-b6f0-251d42df73b9"},"vehicle_type_id":"4","last_reported":1774142171,"current_range_meters":8000,"station_id":"ce4bhbp2rcd13ifvqesg","pricing_plan_id":"cebpf4jnsgd1na2vs0mg"},{"bike_id":"9428c957-f603-4346-9e68-4f9e4a780b24","system_id":"levelo_inurba_marseille","lat":43.2175,"lon":5.34614,"is_reserved":false,"is_disabled":true,"rental_uris":{"android":"levelo://app?vid=9428c957-f603-4346-9e68-4f9e4a780b24","ios":"levelo://app?vid=9428c957-f603-4346-9e68-4f9e4a780b24"},"vehicle_type_id":"4","last_reported":1774142171,"current_range_meters":8000,"station_id":"st_cvj6r9ubvosntc0bgbag","pricing_plan_id":"cebpf4jnsgd1na2vs0mg"},{"bike_id":"62ccf4a8-0426-42c8-92c7-60b92e2221c9","system_id":"levelo_inurba_marseille","lat":43.28484,"lon":5.48383,"is_reserved":false,"is_disabled":false,"rental_uris":{"android":"levelo://app?vid=62ccf4a8-0426-42c8-92c7-60b92e2221c9","ios":"levelo://app?vid=62ccf4a8-0426-42c8-92c7-60b92e2221c9"},"vehicle_type_id":"4","last_reported":1774142171,"current_range_meters":8000,"station_id":"","pricing_plan_id":"cebpf4jnsgd1na2vs0mg"},{"bike_id":"183fd90c-0052-4b2b-a72d-89bd5fb0a1bb","system_id":"levelo_inurba_marseille","lat":43.30966,"lon":5.43879,"is_reserved":false,"is_disabled":false,"rental_uris":{"android":"levelo://app?vid=183fd90c-0052-4b2b-a72d-89bd5fb0a1bb","ios":"levelo://app?vid=183fd90c-0052-4b2b-a72d-89bd5fb0a1bb"},"vehicle_type_id":"4","last_reported":1774142171,"current_range_meters":8000,"station_id":"","pricing_plan_id":"cebpf4jnsgd1na2vs0mg"},{"bike_id":"3f12e940-de87-4cda-8d19-b5ddb45a8f36","system_id":"levelo_inurba_marseille","lat":43.23212,"lon":5.35542,"is_reserved":false,"is_disabled":false,"rental_uris":{"android":"levelo://app?vid=3f12e940-de87-4cda-8d19-b5ddb45a8f36","ios":"levelo://app?vid=3f12e940-de87-4cda-8d19-b5ddb45a8f36"},"vehicle_type_id":"4","last_reported":1774142171,"current_range_meters":8000,"station_id":"ce4bhu92rcd13ifvqi70","pricing_plan_id":"cebpf4jnsgd1na2vs0mg"},{"bike_id":"69f630a6-85ea-4fc6-96f9-826e9f19cc75","system_id":"levelo_inurba_marseille","lat":43.29038,"lon":5.38135,"is_reserved":false,"is_disabled":false,"rental_uris":{"android":"levelo://app?vid=69f630a6-85ea-4fc6-96f9-826e9f19cc75","ios":"levelo://app?vid=69f630a6-85ea-4fc6-96f9-826e9f19cc75"},"vehicle_type_id":"4","last_reported":1774142171,"current_range_meters":8000,"station_id":"ce4bh4p2rcd13ifvqe1g","pricing_plan_id":"cebpf4jnsgd1na2vs0mg"},{"bike_id":"037af263-c94a-46ee-b673-7aa7948320d5","system_id":"levelo_inurba_marseille","lat":43.29254,"lon":5.38442,"is_reserved":false,"is_disabled":true,"rental_uris":{"android":"levelo://app?vid=037af263-c94a-46ee-b673-7aa7948320d5","ios":"levelo://app?vid=037af263-c94a-46ee-b673-7aa7948320d5"},"vehicle_type_id":"4","last_reported":1774142171,"current_range_meters":8000,"station_id":"ce4bh692rcd13ifvqea0","pricing_plan_id":"cebpf4jnsgd1na2vs0mg"},{"bike_id":"138b395e-8cec-40a8-abe1-db339f5d9e09","system_id":"levelo_inurba_marseille","lat":43.24952,"lon":5.40498,"is_reserved":false,"is_disabled":false,"rental_uris":{"android":"levelo://app?vid=138b395e-8cec-40a8-abe1-db339f5d9e09","ios":"levelo://app?vid=138b395e-8cec-40a8-abe1-db339f5d9e09"},"vehicle_type_id":"4","last_reported":1774142171,"current_range_meters":8000,"station_id":"st_d2ngiaodas8pm72gd1h0","pricing_plan_id":"cebpf4jnsgd1na2vs0mg"},{"bike_id":"20207f59-a853-4421-a793-8d92a465f30b","system_id":"levelo_inurba_marseille","lat":43.30953,"lon":5.39041,"is_reserved":false,"is_disabled":false,"rental_uris":{"android":"levelo://app?vid=20207f59-a853-4421-a793-8d92a465f30b","ios":"levelo://app?vid=20207f59-a853-4421-a793-8d92a465f30b"},"vehicle_type_id":"4","last_reported":1774142171,"current_range_meters":8000,"station_id":"ce4bgup2rcd13ifvqco0","pricing_plan_id":"cebpf4jnsgd1na2vs0mg"},{"bike_id":"f84df946-1fe9-4d68-b54f-3a23cc20fde7","system_id":"levelo_inurba_marseille","lat":43.29864,"lon":5.42107,"is_reserved":false,"is_disabled":false,"rental_uris":{"android":"levelo://app?vid=f84df946-1fe9-4d68-b54f-3a23cc20fde7","ios":"levelo://app?vid=f84df946-1fe9-4d68-b54f-3a23cc20fde7"},"vehicle_type_id":"4","last_reported":1774142171,"current_range_meters":8000,"station_id":"st_d6tc004otcvc738tfe70","pricing_plan_id":"cebpf4jnsgd1na2vs0mg"},{"bike_id":"f7eb4427-69b4-4ba2-b725-4c793d1cf289","system_id":"levelo_inurba_marseille","lat":43.30812,"lon":5.38173,"is_reserved":false,"is_disabled":false,"rental_uris":{"android":"levelo://app?vid=f7eb4427-69b4-4ba2-b725-4c793d1cf289","ios":"levelo://app?vid=f7eb4427-69b4-4ba2-b725-4c793d1cf289"},"vehicle_type_id":"4","last_reported":1774142171,"current_range_meters":8000,"station_id":"ce4bgt12rcd13ifvqce0","pricing_plan_id":"cebpf4jnsgd1na2vs0mg"},{"bike_id":"727a7cec-c0a4-42ee-b13e-1092ce84e6ac","system_id":"levelo_inurba_marseille","lat":43.25494,"lon":5.37652,"is_reserved":false,"is_disabled":true,"rental_uris":{"android":"levelo://app?vid=727a7cec-c0a4-42ee-b13e-1092ce84e6ac","ios":"levelo://app?vid=727a7cec-c0a4-42ee-b13e-1092ce84e6ac"},"vehicle_type_id":"4","last_reported":1774142171,"current_range_meters":8000,"station_id":"ce4bhh12rcd13ifvqff0","pricing_plan_id":"cebpf4jnsgd1na2vs0mg"},{"bike_id":"4c3f08d4-34c7-4e1b-9255-baed674c1087","system_id":"levelo_inurba_marseille","lat":43.23978,"lon":5.3664,"is_reserved":false,"is_disabled":false,"rental_uris":{"android":"levelo://app?vid=4c3f08d4-34c7-4e1b-9255-baed674c1087","ios":"levelo://app?vid=4c3f08d4-34c7-4e1b-9255-baed674c1087"},"vehicle_type_id":"4","last_reported":1774142171,"current_range_meters":8000,"station_id":"","pricing_plan_id":"cebpf4jnsgd1na2vs0mg"},{"bike_id":"3c9ec287-5840-43e9-841e-079c32285e84","system_id":"levelo_inurba_marseille","lat":43.33124,"lon":5.37737,"is_reserved":false,"is_disabled":false,"rental_uris":{"android":"levelo://app?vid=3c9ec287-5840-43e9-841e-079c32285e84","ios":"levelo://app?vid=3c9ec287-5840-43e9-841e-079c32285e84"},"vehicle_type_id":"4","last_reported":1774142171,"current_range_meters":8000,"station_id":"st_d46cu089ee8s73dldbu0","pricing_plan_id":"cebpf4jnsgd1na2vs0mg"},{"bike_id":"b19a626a-93cd-41bf-8d4f-8b63d7aeec08","system_id":"levelo_inurba_marseille","lat":43.30135,"lon":5.43893,"is_reserved":false,"is_disabled":false,"rental_uris":{"android":"levelo://app?vid=b19a626a-93cd-41bf-8d4f-8b63d7aeec08","ios":"levelo://app?vid=b19a626a-93cd-41bf-8d4f-8b63d7aeec08"},"vehicle_type_id":"4","last_reported":1774142171,"current_range_meters":8000,"station_id":"","pricing_plan_id":"cebpf4jnsgd1na2vs0mg"},{"bike_id":"e280ef74-0c6f-43c6-9c8a-99f768a1c848","system_id":"levelo_inurba_marseille","lat":43.28706,"lon":5.39983,"is_reserved":false,"is_disabled":false,"rental_uris":{"android":"levelo://app?vid=e280ef74-0c6f-43c6-9c8a-99f768a1c848","ios":"levelo://app?vid=e280ef74-0c6f-43c6-9c8a-99f768a1c848"},"vehicle_type_id":"4","last_reported":1774142171,"current_range_meters":8000,"station_id":"ce4bho92rcd13ifvqh3g","pricing_plan_id":"cebpf4jnsgd1na2vs0mg"},{"bike_id":"dca4a088-ec93-42bb-9cb1-d7d2c0c64fc4","system_id":"levelo_inurba_marseille","lat":43.26201,"lon":5.40426,"is_reserved":false,"is_disabled":false,"rental_uris":{"android":"levelo://app?vid=dca4a088-ec93-42bb-9cb1-d7d2c0c64fc4","ios":"levelo://app?vid=dca4a088-ec93-42bb-9cb1-d7d2c0c64fc4"},"vehicle_type_id":"4","last_reported":1774142171,"current_range_meters":8000,"station_id":"ce4bhmh2rcd13ifvqgmg","pricing_plan_id":"cebpf4jnsgd1na2vs0mg"},{"bike_id":"65afb279-1789-4101-b149-9e7e5c0db062","system_id":"levelo_inurba_marseille","lat":43.30599,"lon":5.37206,"is_reserved":false,"is_disabled":false,"rental_uris":{"android":"levelo://app?vid=65afb279-1789-4101-b149-9e7e5c0db062","ios":"levelo://app?vid=65afb279-1789-4101-b149-9e7e5c0db062"},"vehicle_type_id":"4","last_reported":1774142171,"current_range_meters":8000,"station_id":"ce4bgqh2rcd13ifvqc4g","pricing_plan_id":"cebpf4jnsgd1na2vs0mg"},{"bike_id":"a686f28b-30d1-42e0-8996-5b20112ff85b","system_id":"levelo_inurba_marseille","lat":43.30224,"lon":5.40039,"is_reserved":false,"is_disabled":false,"rental_uris":{"android":"levelo://app?vid=a686f28b-30d1-42e0-8996-5b20112ff85b","ios":"levelo://app?vid=a686f28b-30d1-42e0-8996-5b20112ff85b"},"vehicle_type_id":"4","last_reported":1774142171,"current_range_meters":8000,"station_id":"ce4bgvh2rcd13ifvqcs0","pricing_plan_id":"cebpf4jnsgd1na2vs0mg"},{"bike_id":"6c1ac590-511b-4ef3-b19a-055f363bbc14","system_id":"levelo_inurba_marseille","lat":43.2991,"lon":5.43665,"is_reserved":false,"is_disabled":false,"rental_uris":{"android":"levelo://app?vid=6c1ac590-511b-4ef3-b19a-055f363bbc14","ios":"levelo://app?vid=6c1ac590-511b-4ef3-b19a-055f363bbc14"},"vehicle_type_id":"4","last_reported":1774142171,"current_range_meters":8000,"station_id":"ce4bhpp2rcd13ifvqhfg","pricing_plan_id":"cebpf4jnsgd1na2vs0mg"},{"bike_id":"34c091fc-8184-4773-bd2e-dd88d75d3a2c","system_id":"levelo_inurba_marseille","lat":43.25753,"lon":5.37647,"is_reserved":false,"is_disabled":false,"rental_uris":{"android":"levelo://app?vid=34c091fc-8184-4773-bd2e-dd88d75d3a2c","ios":"levelo://app?vid=34c091fc-8184-4773-bd2e-dd88d75d3a2c"},"vehicle_type_id":"4","last_reported":1774142171,"current_range_meters":8400,"station_id":"","pricing_plan_id":"cebpf4jnsgd1na2vs0mg"},{"bike_id":"c203ab65-1c70-4299-8d5d-e7ccd979dd74","system_id":"levelo_inurba_marseille","lat":43.28709,"lon":5.39968,"is_reserved":false,"is_disabled":false,"rental_uris":{"android":"levelo://app?vid=c203ab65-1c70-4299-8d5d-e7ccd979dd74","ios":"levelo://app?vid=c203ab65-1c70-4299-8d5d-e7ccd979dd74"},"vehicle_type_id":"4","last_reported":1774142171,"current_range_meters":8400,"station_id":"ce4bho92rcd13ifvqh3g","pricing_plan_id":"cebpf4jnsgd1na2vs0mg"},{"bike_id":"f8cc83d7-8cfc-43c5-a95c-950d60be7ca1","system_id":"levelo_inurba_marseille","lat":43.2293,"lon":5.35376,"is_reserved":false,"is_disabled":false,"rental_uris":{"android":"levelo://app?vid=f8cc83d7-8cfc-43c5-a95c-950d60be7ca1","ios":"levelo://app?vid=f8cc83d7-8cfc-43c5-a95c-950d60be7ca1"},"vehicle_type_id":"4","last_reported":1774142171,"current_range_meters":8400,"station_id":"cpo3532slgdg3j2ikp40","pricing_plan_id":"cebpf4jnsgd1na2vs0mg"},{"bike_id":"1251245c-8245-4039-a13b-eaa939230dc3","system_id":"levelo_inurba_marseille","lat":43.25005,"lon":5.38913,"is_reserved":false,"is_disabled":false,"rental_uris":{"android":"levelo://app?vid=1251245c-8245-4039-a13b-eaa939230dc3","ios":"levelo://app?vid=1251245c-8245-4039-a13b-eaa939230dc3"},"vehicle_type_id":"4","last_reported":1774142171,"current_range_meters":8400,"station_id":"ce4bhgp2rcd13ifvqfd0","pricing_plan_id":"cebpf4jnsgd1na2vs0mg"},{"bike_id":"21de157a-5e00-4554-aa09-05d9fd4473d6","system_id":"levelo_inurba_marseille","lat":43.24167,"lon":5.397,"is_reserved":false,"is_disabled":true,"rental_uris":{"android":"levelo://app?vid=21de157a-5e00-4554-aa09-05d9fd4473d6","ios":"levelo://app?vid=21de157a-5e00-4554-aa09-05d9fd4473d6"},"vehicle_type_id":"4","last_reported":1774142171,"current_range_meters":8400,"station_id":"ce4bhn12rcd13ifvqgpg","pricing_plan_id":"cebpf4jnsgd1na2vs0mg"},{"bike_id":"a056b44c-3f74-478b-9324-c2fb58ef1ed2","system_id":"levelo_inurba_marseille","lat":43.30131,"lon":5.37414,"is_reserved":false,"is_disabled":false,"rental_uris":{"android":"levelo://app?vid=a056b44c-3f74-478b-9324-c2fb58ef1ed2","ios":"levelo://app?vid=a056b44c-3f74-478b-9324-c2fb58ef1ed2"},"vehicle_type_id":"4","last_reported":1774142171,"current_range_meters":8400,"station_id":"ce4bgs92rcd13ifvqcc0","pricing_plan_id":"cebpf4jnsgd1na2vs0mg"},{"bike_id":"f0d9f2af-de26-4d1e-be2c-0316566a7e6b","system_id":"levelo_inurba_marseille","lat":43.2902,"lon":5.37559,"is_reserved":false,"is_disabled":false,"rental_uris":{"android":"levelo://app?vid=f0d9f2af-de26-4d1e-be2c-0316566a7e6b","ios":"levelo://app?vid=f0d9f2af-de26-4d1e-be2c-0316566a7e6b"},"vehicle_type_id":"4","last_reported":1774142171,"current_range_meters":8400,"station_id":"ce4bh692rcd13ifvqe90","pricing_plan_id":"cebpf4jnsgd1na2vs0mg"},{"bike_id":"c66abed4-a510-467b-9fe2-a140744c1f13","system_id":"levelo_inurba_marseille","lat":43.31533,"lon":5.38054,"is_reserved":false,"is_disabled":false,"rental_uris":{"android":"levelo://app?vid=c66abed4-a510-467b-9fe2-a140744c1f13","ios":"levelo://app?vid=c66abed4-a510-467b-9fe2-a140744c1f13"},"vehicle_type_id":"4","last_reported":1774142171,"current_range_meters":8400,"station_id":"ce4bhsp2rcd13ifvqi50","pricing_plan_id":"cebpf4jnsgd1na2vs0mg"},{"bike_id":"bb2bb087-057b-42f3-9513-f048d27083cc","system_id":"levelo_inurba_marseille","lat":43.28174,"lon":5.42808,"is_reserved":false,"is_disabled":false,"rental_uris":{"android":"levelo://app?vid=bb2bb087-057b-42f3-9513-f048d27083cc","ios":"levelo://app?vid=bb2bb087-057b-42f3-9513-f048d27083cc"},"vehicle_type_id":"4","last_reported":1774142171,"current_range_meters":8400,"station_id":"","pricing_plan_id":"cebpf4jnsgd1na2vs0mg"},{"bike_id":"419a79b8-9d61-4756-92f3-fd0717618aeb","system_id":"levelo_inurba_marseille","lat":43.30928,"lon":5.40139,"is_reserved":false,"is_disabled":false,"rental_uris":{"android":"levelo://app?vid=419a79b8-9d61-4756-92f3-fd0717618aeb","ios":"levelo://app?vid=419a79b8-9d61-4756-92f3-fd0717618aeb"},"vehicle_type_id":"4","last_reported":1774142171,"current_range_meters":8400,"station_id":"ce4bgvp2rcd13ifvqct0","pricing_plan_id":"cebpf4jnsgd1na2vs0mg"},{"bike_id":"c6b8c288-7f12-44f1-b184-782c8c64e9d9","system_id":"levelo_inurba_marseille","lat":43.30883,"lon":5.36843,"is_reserved":false,"is_disabled":false,"rental_uris":{"android":"levelo://app?vid=c6b8c288-7f12-44f1-b184-782c8c64e9d9","ios":"levelo://app?vid=c6b8c288-7f12-44f1-b184-782c8c64e9d9"},"vehicle_type_id":"4","last_reported":1774142171,"current_range_meters":8400,"station_id":"ce4bgn92rcd13ifvqbvg","pricing_plan_id":"cebpf4jnsgd1na2vs0mg"},{"bike_id":"8827da7c-4553-4e45-8b96-33f6c2699a52","system_id":"levelo_inurba_marseille","lat":43.21741,"lon":5.34611,"is_reserved":false,"is_disabled":true,"rental_uris":{"android":"levelo://app?vid=8827da7c-4553-4e45-8b96-33f6c2699a52","ios":"levelo://app?vid=8827da7c-4553-4e45-8b96-33f6c2699a52"},"vehicle_type_id":"4","last_reported":1774142171,"current_range_meters":8400,"station_id":"st_cvj6r9ubvosntc0bgbag","pricing_plan_id":"cebpf4jnsgd1na2vs0mg"},{"bike_id":"4696be1a-03ad-459b-acfa-2ea1b934be2f","system_id":"levelo_inurba_marseille","lat":43.29252,"lon":5.40898,"is_reserved":false,"is_disabled":false,"rental_uris":{"android":"levelo://app?vid=4696be1a-03ad-459b-acfa-2ea1b934be2f","ios":"levelo://app?vid=4696be1a-03ad-459b-acfa-2ea1b934be2f"},"vehicle_type_id":"4","last_reported":1774142171,"current_range_meters":8400,"station_id":"ce4bh192rcd13ifvqdc0","pricing_plan_id":"cebpf4jnsgd1na2vs0mg"},{"bike_id":"b41ba9fd-1286-49b2-bb79-3ecc772ffeae","system_id":"levelo_inurba_marseille","lat":43.32112,"lon":5.3677,"is_reserved":false,"is_disabled":false,"rental_uris":{"android":"levelo://app?vid=b41ba9fd-1286-49b2-bb79-3ecc772ffeae","ios":"levelo://app?vid=b41ba9fd-1286-49b2-bb79-3ecc772ffeae"},"vehicle_type_id":"4","last_reported":1774142171,"current_range_meters":8400,"station_id":"ce4bhrh2rcd13ifvqhug","pricing_plan_id":"cebpf4jnsgd1na2vs0mg"},{"bike_id":"c740e20c-eca7-406c-92dd-2b448718a645","system_id":"levelo_inurba_marseille","lat":43.28475,"lon":5.48389,"is_reserved":false,"is_disabled":false,"rental_uris":{"android":"levelo://app?vid=c740e20c-eca7-406c-92dd-2b448718a645","ios":"levelo://app?vid=c740e20c-eca7-406c-92dd-2b448718a645"},"vehicle_type_id":"4","last_reported":1774142171,"current_range_meters":8400,"station_id":"st_d3svhcjqgbts73a3dn0g","pricing_plan_id":"cebpf4jnsgd1na2vs0mg"},{"bike_id":"2198dd5a-8a9c-43a1-8743-28b676f91ab1","system_id":"levelo_inurba_marseille","lat":43.29,"lon":5.36633,"is_reserved":false,"is_disabled":false,"rental_uris":{"android":"levelo://app?vid=2198dd5a-8a9c-43a1-8743-28b676f91ab1","ios":"levelo://app?vid=2198dd5a-8a9c-43a1-8743-28b676f91ab1"},"vehicle_type_id":"4","last_reported":1774142171,"current_range_meters":8400,"station_id":"","pricing_plan_id":"cebpf4jnsgd1na2vs0mg"},{"bike_id":"d92fac84-f7c6-4576-83d3-9b7f9122cf30","system_id":"levelo_inurba_marseille","lat":43.24467,"lon":5.42516,"is_reserved":false,"is_disabled":false,"rental_uris":{"android":"levelo://app?vid=d92fac84-f7c6-4576-83d3-9b7f9122cf30","ios":"levelo://app?vid=d92fac84-f7c6-4576-83d3-9b7f9122cf30"},"vehicle_type_id":"4","last_reported":1774142171,"current_range_meters":8400,"station_id":"st_d4a3vfp97mjs738cd8kg","pricing_plan_id":"cebpf4jnsgd1na2vs0mg"},{"bike_id":"35939b35-432f-4730-9a4d-bca4477a51c8","system_id":"levelo_inurba_marseille","lat":43.32098,"lon":5.36764,"is_reserved":false,"is_disabled":false,"rental_uris":{"android":"levelo://app?vid=35939b35-432f-4730-9a4d-bca4477a51c8","ios":"levelo://app?vid=35939b35-432f-4730-9a4d-bca4477a51c8"},"vehicle_type_id":"4","last_reported":1774142171,"current_range_meters":8400,"station_id":"ce4bhrh2rcd13ifvqhug","pricing_plan_id":"cebpf4jnsgd1na2vs0mg"},{"bike_id":"7ef82894-9ab4-479a-9f2e-ececccc24738","system_id":"levelo_inurba_marseille","lat":43.28039,"lon":5.36952,"is_reserved":false,"is_disabled":false,"rental_uris":{"android":"levelo://app?vid=7ef82894-9ab4-479a-9f2e-ececccc24738","ios":"levelo://app?vid=7ef82894-9ab4-479a-9f2e-ececccc24738"},"vehicle_type_id":"4","last_reported":1774142171,"current_range_meters":8400,"station_id":"ce4bha12rcd13ifvqef0","pricing_plan_id":"cebpf4jnsgd1na2vs0mg"},{"bike_id":"d40eaa64-a3b8-4e26-8b08-a6febafe1391","system_id":"levelo_inurba_marseille","lat":43.29761,"lon":5.37076,"is_reserved":false,"is_disabled":false,"rental_uris":{"android":"levelo://app?vid=d40eaa64-a3b8-4e26-8b08-a6febafe1391","ios":"levelo://app?vid=d40eaa64-a3b8-4e26-8b08-a6febafe1391"},"vehicle_type_id":"4","last_reported":1774142171,"current_range_meters":8800,"station_id":"ce4bgop2rcd13ifvqc1g","pricing_plan_id":"cebpf4jnsgd1na2vs0mg"},{"bike_id":"ef8cd562-295e-4308-aa28-51ee95bd4f8d","system_id":"levelo_inurba_marseille","lat":43.28168,"lon":5.42633,"is_reserved":false,"is_disabled":false,"rental_uris":{"android":"levelo://app?vid=ef8cd562-295e-4308-aa28-51ee95bd4f8d","ios":"levelo://app?vid=ef8cd562-295e-4308-aa28-51ee95bd4f8d"},"vehicle_type_id":"4","last_reported":1774142171,"current_range_meters":8800,"station_id":"ce4bhnh2rcd13ifvqgug","pricing_plan_id":"cebpf4jnsgd1na2vs0mg"},{"bike_id":"348b028b-7113-4df9-8c29-432c15b7b280","system_id":"levelo_inurba_marseille","lat":43.23949,"lon":5.36629,"is_reserved":false,"is_disabled":true,"rental_uris":{"android":"levelo://app?vid=348b028b-7113-4df9-8c29-432c15b7b280","ios":"levelo://app?vid=348b028b-7113-4df9-8c29-432c15b7b280"},"vehicle_type_id":"4","last_reported":1774142171,"current_range_meters":8800,"station_id":"ce4bhi12rcd13ifvqfp0","pricing_plan_id":"cebpf4jnsgd1na2vs0mg"},{"bike_id":"69a570d7-fc59-41df-bf82-6ddac3af3802","system_id":"levelo_inurba_marseille","lat":43.31368,"lon":5.38497,"is_reserved":false,"is_disabled":false,"rental_uris":{"android":"levelo://app?vid=69a570d7-fc59-41df-bf82-6ddac3af3802","ios":"levelo://app?vid=69a570d7-fc59-41df-bf82-6ddac3af3802"},"vehicle_type_id":"4","last_reported":1774142171,"current_range_meters":8800,"station_id":"ce4bgt92rcd13ifvqcf0","pricing_plan_id":"cebpf4jnsgd1na2vs0mg"},{"bike_id":"54493c86-a4ae-4109-bfc7-0b88e6e19cc7","system_id":"levelo_inurba_marseille","lat":43.27401,"lon":5.36266,"is_reserved":false,"is_disabled":true,"rental_uris":{"android":"levelo://app?vid=54493c86-a4ae-4109-bfc7-0b88e6e19cc7","ios":"levelo://app?vid=54493c86-a4ae-4109-bfc7-0b88e6e19cc7"},"vehicle_type_id":"4","last_reported":1774142171,"current_range_meters":8800,"station_id":"ce4bhbh2rcd13ifvqeo0","pricing_plan_id":"cebpf4jnsgd1na2vs0mg"},{"bike_id":"1182e6ca-0fa4-4bde-b010-4b71c852ea66","system_id":"levelo_inurba_marseille","lat":43.2417,"lon":5.36391,"is_reserved":false,"is_disabled":false,"rental_uris":{"android":"levelo://app?vid=1182e6ca-0fa4-4bde-b010-4b71c852ea66","ios":"levelo://app?vid=1182e6ca-0fa4-4bde-b010-4b71c852ea66"},"vehicle_type_id":"4","last_reported":1774142171,"current_range_meters":8800,"station_id":"cpo36qri1sfpv3e86is0","pricing_plan_id":"cebpf4jnsgd1na2vs0mg"},{"bike_id":"1b783747-6779-4c4f-a3d7-c9d31ba642ac","system_id":"levelo_inurba_marseille","lat":43.2924,"lon":5.36077,"is_reserved":false,"is_disabled":false,"rental_uris":{"android":"levelo://app?vid=1b783747-6779-4c4f-a3d7-c9d31ba642ac","ios":"levelo://app?vid=1b783747-6779-4c4f-a3d7-c9d31ba642ac"},"vehicle_type_id":"4","last_reported":1774142171,"current_range_meters":8800,"station_id":"ce4bhbh2rcd13ifvqeqg","pricing_plan_id":"cebpf4jnsgd1na2vs0mg"},{"bike_id":"3b1e9e1a-bca9-423b-8a36-5871b1412c7a","system_id":"levelo_inurba_marseille","lat":43.29088,"lon":5.38141,"is_reserved":false,"is_disabled":false,"rental_uris":{"android":"levelo://app?vid=3b1e9e1a-bca9-423b-8a36-5871b1412c7a","ios":"levelo://app?vid=3b1e9e1a-bca9-423b-8a36-5871b1412c7a"},"vehicle_type_id":"4","last_reported":1774142171,"current_range_meters":8800,"station_id":"ce4bh512rcd13ifvqe2g","pricing_plan_id":"cebpf4jnsgd1na2vs0mg"},{"bike_id":"069a31e1-8491-47f6-acb3-52f081dfc8d1","system_id":"levelo_inurba_marseille","lat":43.30302,"lon":5.36914,"is_reserved":false,"is_disabled":false,"rental_uris":{"android":"levelo://app?vid=069a31e1-8491-47f6-acb3-52f081dfc8d1","ios":"levelo://app?vid=069a31e1-8491-47f6-acb3-52f081dfc8d1"},"vehicle_type_id":"4","last_reported":1774142171,"current_range_meters":8800,"station_id":"ce4bgqh2rcd13ifvqc5g","pricing_plan_id":"cebpf4jnsgd1na2vs0mg"},{"bike_id":"cc696a92-d35f-424c-9e4d-00cc096b60f0","system_id":"levelo_inurba_marseille","lat":43.24136,"lon":5.36472,"is_reserved":false,"is_disabled":false,"rental_uris":{"android":"levelo://app?vid=cc696a92-d35f-424c-9e4d-00cc096b60f0","ios":"levelo://app?vid=cc696a92-d35f-424c-9e4d-00cc096b60f0"},"vehicle_type_id":"4","last_reported":1774142171,"current_range_meters":8800,"station_id":"","pricing_plan_id":"cebpf4jnsgd1na2vs0mg"},