{"last_updated":1728317436,"ttl":60,"version":"2.2","data":{"bikes":[{"bike_id":"bac6fa46-9f33-406e-b249-88b4f6de3b07","system_id":"levelo_inurba_marseille","lat":43.25826,"lon":5.39438,"is_reserved":false,"is_disabled":false,"rental_uris":{"android":"levelo://app?vid=bac6fa46-9f33-406e-b249-88b4f6de3b07","ios":"levelo://app?vid=bac6fa46-9f33-406e-b249-88b4f6de3b07"},"vehicle_type_id":"4","last_reported":1728317436,"current_range_meters":39200,"station_id":"ce4bhip2rcd13ifvqft0","pricing_plan_id":"cebpf4jnsgd1na2vs0mg"},{"bike_id":"4a54c7ac-8cbf-487c-a629-2fa393032eb4","system_id":"levelo_inurba_marseille","lat":43.2718,"lon":5.40991,"is_reserved":false,"is_disabled":false,"rental_uris":{"android":"levelo://app?vid=4a54c7ac-8cbf-487c-a629-2fa393032eb4","ios":"levelo://app?vid=4a54c7ac-8cbf-487c-a629-2fa393032eb4"},"vehicle_type_id":"4","last_reported":1728317436,"current_range_meters":20000,"station_id":"ce4bhl12rcd13ifvqgf0","pricing_plan_id":"cebpf4jnsgd1na2vs0mg"},{"bike_id":"1608fa59-4ec1-4063-a5dc-a118c9385d7c","system_id":"levelo_inurba_marseille","lat":43.27179,"lon":5.40997,"is_reserved":false,"is_disabled":false,"rental_uris":{"android":"levelo://app?vid=1608fa59-4ec1-4063-a5dc-a118c9385d7c","ios":"levelo://app?vid=1608fa59-4ec1-4063-a5dc-a118c9385d7c"},"vehicle_type_id":"4","last_reported":1728317436,"current_range_meters":4000,"station_id":"ce4bhl12rcd13ifvqgf0","pricing_plan_id":"cebpf4jnsgd1na2vs0mg"},{"bike_id":"72714313-91fa-4397-8d8e-c36ea505c93d","system_id":"levelo_inurba_marseille","lat":43.28411,"lon":5.37517,"is_reserved":false,"is_disabled":false,"rental_uris":{"android":"levelo://app?vid=72714313-91fa-4397-8d8e-c36ea505c93d","ios":"levelo://app?vid=72714313-91fa-4397-8d8e-c36ea505c93d"},"vehicle_type_id":"4","last_reported":1728317436,"current_range_meters":26800,"station_id":"ce4bh412rcd13ifvqds0","pricing_plan_id":"cebpf4jnsgd1na2vs0mg"},{"bike_id":"3d2203ea-4313-45c3-ac63-4c8468facc23","system_id":"levelo_inurba_marseille","lat":43.27917,"lon":5.39578,"is_reserved":false,"is_disabled":false,"rental_uris":{"android":"levelo://app?vid=3d2203ea-4313-45c3-ac63-4c8468facc23","ios":"levelo://app?vid=3d2203ea-4313-45c3-ac63-4c8468facc23"},"vehicle_type_id":"4","last_reported":1728317436,"current_range_meters":8400,"station_id":"ce4bhf92rcd13ifvqf40","pricing_plan_id":"cebpf4jnsgd1na2vs0mg"},{"bike_id":"3edccbad-c604-40df-acb2-6e9d91b67298","system_id":"levelo_inurba_marseille","lat":43.23058,"lon":5.35504,"is_reserved":false,"is_disabled":false,"rental_uris":{"android":"levelo://app?vid=3edccbad-c604-40df-acb2-6e9d91b67298","ios":"levelo://app?vid=3edccbad-c604-40df-acb2-6e9d91b67298"},"vehicle_type_id":"4","last_reported":1728317436,"current_range_meters":19600,"station_id":"cpo3342slgdg3j2ifvpg","pricing_plan_id":"cebpf4jnsgd1na2vs0mg"},{"bike_id":"03c40ffc-cb80-4b30-9b3d-c88197961c7b","system_id":"levelo_inurba_marseille","lat":43.29041,"lon":5.3592,"is_reserved":false,"is_disabled":false,"rental_uris":{"android":"levelo://app?vid=03c40ffc-cb80-4b30-9b3d-c88197961c7b","ios":"levelo://app?vid=03c40ffc-cb80-4b30-9b3d-c88197961c7b"},"vehicle_type_id":"4","last_reported":1728317436,"current_range_meters":38800,"station_id":"ce4bha92rcd13ifvqeg0","pricing_plan_id":"cebpf4jnsgd1na2vs0mg"},{"bike_id":"5da9d649-b6f4-4d57-b4fc-bffb7858063a","system_id":"levelo_inurba_marseille","lat":43.26214,"lon":5.37454,"is_reserved":false,"is_disabled":false,"rental_uris":{"android":"levelo://app?vid=5da9d649-b6f4-4d57-b4fc-bffb7858063a","ios":"levelo://app?vid=5da9d649-b6f4-4d57-b4fc-bffb7858063a"},"vehicle_type_id":"4","last_reported":1728317436,"current_range_meters":36000,"station_id":"ce4bhgp2rcd13ifvqfc0","pricing_plan_id":"cebpf4jnsgd1na2vs0mg"},{"bike_id":"bfaa17cc-c381-48e8-a588-97e81f358f82","system_id":"levelo_inurba_marseille","lat":43.29623,"lon":5.37723,"is_reserved":false,"is_disabled":false,"rental_uris":{"android":"levelo://app?vid=bfaa17cc-c381-48e8-a588-97e81f358f82","ios":"levelo://app?vid=bfaa17cc-c381-48e8-a588-97e81f358f82"},"vehicle_type_id":"4","last_reported":1728317436,"current_range_meters":18000,"station_id":"ce4bgi92rcd13ifvqb90","pricing_plan_id":"cebpf4jnsgd1na2vs0mg"},{"bike_id":"934c3880-2dcf-4e1e-9c73-63f64faaa5ef","system_id":"levelo_inurba_marseille","lat":43.29702,"lon":5.3659,"is_reserved":false,"is_disabled":false,"rental_uris":{"android":"levelo://app?vid=934c3880-2dcf-4e1e-9c73-63f64faaa5ef","ios":"levelo://app?vid=934c3880-2dcf-4e1e-9c73-63f64faaa5ef"},"vehicle_type_id":"4","last_reported":1728317436,"current_range_meters":3600,"station_id":"ce4bgn12rcd13ifvqbt0","pricing_plan_id":"cebpf4jnsgd1na2vs0mg"},{"bike_id":"81b07a05-4c57-4e76-99d6-5f6e3acbb201","system_id":"levelo_inurba_marseille","lat":43.23066,"lon":5.35498,"is_reserved":false,"is_disabled":false,"rental_uris":{"android":"levelo://app?vid=81b07a05-4c57-4e76-99d6-5f6e3acbb201","ios":"levelo://app?vid=81b07a05-4c57-4e76-99d6-5f6e3acbb201"},"vehicle_type_id":"4","last_reported":1728317436,"current_range_meters":11200,"station_id":"cpo3342slgdg3j2ifvpg","pricing_plan_id":"cebpf4jnsgd1na2vs0mg"},{"bike_id":"2de177f7-8604-4a9a-a458-12822dd27798","system_id":"levelo_inurba_marseille","lat":43.28413,"lon":5.35007,"is_reserved":false,"is_disabled":false,"rental_uris":{"android":"levelo://app?vid=2de177f7-8604-4a9a-a458-12822dd27798","ios":"levelo://app?vid=2de177f7-8604-4a9a-a458-12822dd27798"},"vehicle_type_id":"4","last_reported":1728317436,"current_range_meters":38800,"station_id":"ce4bhbh2rcd13ifvqepg","pricing_plan_id":"cebpf4jnsgd1na2vs0mg"},{"bike_id":"5f093d3e-c5cd-47f6-a8cd-1771de92dd62","system_id":"levelo_inurba_marseille","lat":43.28267,"lon":5.35067,"is_reserved":false,"is_disabled":false,"rental_uris":{"android":"levelo://app?vid=5f093d3e-c5cd-47f6-a8cd-1771de92dd62","ios":"levelo://app?vid=5f093d3e-c5cd-47f6-a8cd-1771de92dd62"},"vehicle_type_id":"4","last_reported":1728317436,"current_range_meters":4400,"station_id":"ce4bhbp2rcd13ifvqerg","pricing_plan_id":"cebpf4jnsgd1na2vs0mg"},{"bike_id":"51c4357d-0f3d-4d6e-a6f8-1885409f798a","system_id":"levelo_inurba_marseille","lat":43.29147,"lon":5.40352,"is_reserved":false,"is_disabled":false,"rental_uris":{"android":"levelo://app?vid=51c4357d-0f3d-4d6e-a6f8-1885409f798a","ios":"levelo://app?vid=51c4357d-0f3d-4d6e-a6f8-1885409f798a"},"vehicle_type_id":"4","last_reported":1728317436,"current_range_meters":34000,"station_id":"","pricing_plan_id":"cebpf4jnsgd1na2vs0mg"},{"bike_id":"663d807d-5236-4795-8907-d41427101515","system_id":"levelo_inurba_marseille","lat":43.33028,"lon":5.39042,"is_reserved":false,"is_disabled":false,"rental_uris":{"android":"levelo://app?vid=663d807d-5236-4795-8907-d41427101515","ios":"levelo://app?vid=663d807d-5236-4795-8907-d41427101515"},"vehicle_type_id":"4","last_reported":1728317436,"current_range_meters":6400,"station_id":"ce4bhr92rcd13ifvqhrg","pricing_plan_id":"cebpf4jnsgd1na2vs0mg"},{"bike_id":"53cd51fe-17ec-44fc-9f6f-7a09f3a24f0d","system_id":"levelo_inurba_marseille","lat":43.289098,"lon":5.366482,"is_reserved":false,"is_disabled":false,"rental_uris":{"android":"levelo://app?vid=53cd51fe-17ec-44fc-9f6f-7a09f3a24f0d","ios":"levelo://app?vid=53cd51fe-17ec-44fc-9f6f-7a09f3a24f0d"},"vehicle_type_id":"4","last_reported":1728317436,"current_range_meters":20000,"station_id":"ce4bhap2rcd13ifvqek0","pricing_plan_id":"cebpf4jnsgd1na2vs0mg"},{"bike_id":"3d0728f4-cedf-45d7-8e99-2abb2792bc99","system_id":"levelo_inurba_marseille","lat":43.29867,"lon":5.39737,"is_reserved":false,"is_disabled":false,"rental_uris":{"android":"levelo://app?vid=3d0728f4-cedf-45d7-8e99-2abb2792bc99","ios":"levelo://app?vid=3d0728f4-cedf-45d7-8e99-2abb2792bc99"},"vehicle_type_id":"4","last_reported":1728317436,"current_range_meters":28800,"station_id":"ce4bh0h2rcd13ifvqd50","pricing_plan_id":"cebpf4jnsgd1na2vs0mg"},{"bike_id":"35db5aab-a536-4286-87d7-90ec43783f24","system_id":"levelo_inurba_marseille","lat":43.23193,"lon":5.35557,"is_reserved":false,"is_disabled":false,"rental_uris":{"android":"levelo://app?vid=35db5aab-a536-4286-87d7-90ec43783f24","ios":"levelo://app?vid=35db5aab-a536-4286-87d7-90ec43783f24"},"vehicle_type_id":"4","last_reported":1728317436,"current_range_meters":35600,"station_id":"ce4bhu92rcd13ifvqi70","pricing_plan_id":"cebpf4jnsgd1na2vs0mg"},{"bike_id":"7b602eb6-8068-4472-be01-acfdcebd3286","system_id":"levelo_inurba_marseille","lat":43.28421,"lon":5.34995,"is_reserved":false,"is_disabled":false,"rental_uris":{"android":"levelo://app?vid=7b602eb6-8068-4472-be01-acfdcebd3286","ios":"levelo://app?vid=7b602eb6-8068-4472-be01-acfdcebd3286"},"vehicle_type_id":"4","last_reported":1728317436,"current_range_meters":16800,"station_id":"ce4bhbh2rcd13ifvqepg","pricing_plan_id":"cebpf4jnsgd1na2vs0mg"},{"bike_id":"62dfd99c-f976-4937-b2d0-5b50f5ae699f","system_id":"levelo_inurba_marseille","lat":43.24175,"lon":5.364,"is_reserved":false,"is_disabled":false,"rental_uris":{"android":"levelo://app?vid=62dfd99c-f976-4937-b2d0-5b50f5ae699f","ios":"levelo://app?vid=62dfd99c-f976-4937-b2d0-5b50f5ae699f"},"vehicle_type_id":"4","last_reported":1728317436,"current_range_meters":9200,"station_id":"cpo36qri1sfpv3e86is0","pricing_plan_id":"cebpf4jnsgd1na2vs0mg"},{"bike_id":"9b16936f-6ada-4f11-a2da-723c89824a76","system_id":"levelo_inurba_marseille","lat":43.3021,"lon":5.3896,"is_reserved":false,"is_disabled":false,"rental_uris":{"android":"levelo://app?vid=9b16936f-6ada-4f11-a2da-723c89824a76","ios":"levelo://app?vid=9b16936f-6ada-4f11-a2da-723c89824a76"},"vehicle_type_id":"4","last_reported":1728317436,"current_range_meters":37600,"station_id":"","pricing_plan_id":"cebpf4jnsgd1na2vs0mg"},{"bike_id":"d003247c-8df0-45d9-912b-871858bff49a","system_id":"levelo_inurba_marseille","lat":43.2971,"lon":5.36611,"is_reserved":false,"is_disabled":false,"rental_uris":{"android":"levelo://app?vid=d003247c-8df0-45d9-912b-871858bff49a","ios":"levelo://app?vid=d003247c-8df0-45d9-912b-871858bff49a"},"vehicle_type_id":"4","last_reported":1728317436,"current_range_meters":38000,"station_id":"ce4bgn12rcd13ifvqbt0","pricing_plan_id":"cebpf4jnsgd1na2vs0mg"},{"bike_id":"e6273d95-1d25-4add-a16f-01335b388b10","system_id":"levelo_inurba_marseille","lat":43.27377,"lon":5.36266,"is_reserved":false,"is_disabled":false,"rental_uris":{"android":"levelo://app?vid=e6273d95-1d25-4add-a16f-01335b388b10","ios":"levelo://app?vid=e6273d95-1d25-4add-a16f-01335b388b10"},"vehicle_type_id":"4","last_reported":1728317436,"current_range_meters":23200,"station_id":"ce4bhbh2rcd13ifvqeo0","pricing_plan_id":"cebpf4jnsgd1na2vs0mg"},{"bike_id":"e2ccd035-e2f6-4b13-8c3b-407f63e2c6d1","system_id":"levelo_inurba_marseille","lat":43.33022,"lon":5.39039,"is_reserved":false,"is_disabled":false,"rental_uris":{"android":"levelo://app?vid=e2ccd035-e2f6-4b13-8c3b-407f63e2c6d1","ios":"levelo://app?vid=e2ccd035-e2f6-4b13-8c3b-407f63e2c6d1"},"vehicle_type_id":"4","last_reported":1728317436,"current_range_meters":6800,"station_id":"ce4bhr92rcd13ifvqhrg","pricing_plan_id":"cebpf4jnsgd1na2vs0mg"},{"bike_id":"a854f9eb-d697-4507-b33a-9376691b2f9b","system_id":"levelo_inurba_marseille","lat":43.28005,"lon":5.4001,"is_reserved":false,"is_disabled":false,"rental_uris":{"android":"levelo://app?vid=a854f9eb-d697-4507-b33a-9376691b2f9b","ios":"levelo://app?vid=a854f9eb-d697-4507-b33a-9376691b2f9b"},"vehicle_type_id":"4","last_reported":1728317436,"current_range_meters":34000,"station_id":"ce4bho92rcd13ifvqh4g","pricing_plan_id":"cebpf4jnsgd1na2vs0mg"},{"bike_id":"97519c5e-fd79-4e69-af3e-dbda834c900c","system_id":"levelo_inurba_marseille","lat":43.29816,"lon":5.4042,"is_reserved":false,"is_disabled":false,"rental_uris":{"android":"levelo://app?vid=97519c5e-fd79-4e69-af3e-dbda834c900c","ios":"levelo://app?vid=97519c5e-fd79-4e69-af3e-dbda834c900c"},"vehicle_type_id":"4","last_reported":1728317436,"current_range_meters":6400,"station_id":"ce4bh112rcd13ifvqd90","pricing_plan_id":"cebpf4jnsgd1na2vs0mg"},{"bike_id":"a93ae603-80b4-432b-ad18-7ee46b3fda26","system_id":"levelo_inurba_marseille","lat":43.29365,"lon":5.37849,"is_reserved":false,"is_disabled":false,"rental_uris":{"android":"levelo://app?vid=a93ae603-80b4-432b-ad18-7ee46b3fda26","ios":"levelo://app?vid=a93ae603-80b4-432b-ad18-7ee46b3fda26"},"vehicle_type_id":"4","last_reported":1728317436,"current_range_meters":12000,"station_id":"ce4bgjh2rcd13ifvqbf0","pricing_plan_id":"cebpf4jnsgd1na2vs0mg"},{"bike_id":"4af55307-045f-4c66-a045-a91d88bb4c16","system_id":"levelo_inurba_marseille","lat":43.22926,"lon":5.35372,"is_reserved":false,"is_disabled":false,"rental_uris":{"android":"levelo://app?vid=4af55307-045f-4c66-a045-a91d88bb4c16","ios":"levelo://app?vid=4af55307-045f-4c66-a045-a91d88bb4c16"},"vehicle_type_id":"4","last_reported":1728317436,"current_range_meters":26000,"station_id":"cpo3532slgdg3j2ikp40","pricing_plan_id":"cebpf4jnsgd1na2vs0mg"},{"bike_id":"aa598db1-3c3a-48c0-acd0-1929a2b13407","system_id":"levelo_inurba_marseille","lat":43.31716,"lon":5.43709,"is_reserved":false,"is_disabled":false,"rental_uris":{"android":"levelo://app?vid=aa598db1-3c3a-48c0-acd0-1929a2b13407","ios":"levelo://app?vid=aa598db1-3c3a-48c0-acd0-1929a2b13407"},"vehicle_type_id":"4","last_reported":1728317436,"current_range_meters":38400,"station_id":"ce4bhp92rcd13ifvqhcg","pricing_plan_id":"cebpf4jnsgd1na2vs0mg"},{"bike_id":"47efe985-66e3-4fb1-a00d-60851f779f19","system_id":"levelo_inurba_marseille","lat":43.32541,"lon":5.41424,"is_reserved":false,"is_disabled":false,"rental_uris":{"android":"levelo://app?vid=47efe985-66e3-4fb1-a00d-60851f779f19","ios":"levelo://app?vid=47efe985-66e3-4fb1-a00d-60851f779f19"},"vehicle_type_id":"4","last_reported":1728317436,"current_range_meters":29600,"station_id":"ce4bhq12rcd13ifvqhhg","pricing_plan_id":"cebpf4jnsgd1na2vs0mg"},{"bike_id":"6482b1fb-67cb-4384-a7c9-6c0a7b56e3b4","system_id":"levelo_inurba_marseille","lat":43.28851,"lon":5.43332,"is_reserved":false,"is_disabled":false,"rental_uris":{"android":"levelo://app?vid=6482b1fb-67cb-4384-a7c9-6c0a7b56e3b4","ios":"levelo://app?vid=6482b1fb-67cb-4384-a7c9-6c0a7b56e3b4"},"vehicle_type_id":"4","last_reported":1728317436,"current_range_meters":4800,"station_id":"","pricing_plan_id":"cebpf4jnsgd1na2vs0mg"},{"bike_id":"fa2fdf3c-a2a3-44fe-b321-9262936e05c7","system_id":"levelo_inurba_marseille","lat":43.25499,"lon":5.37652,"is_reserved":false,"is_disabled":false,"rental_uris":{"android":"levelo://app?vid=fa2fdf3c-a2a3-44fe-b321-9262936e05c7","ios":"levelo://app?vid=fa2fdf3c-a2a3-44fe-b321-9262936e05c7"},"vehicle_type_id":"4","last_reported":1728317436,"current_range_meters":3600,"station_id":"ce4bhh12rcd13ifvqff0","pricing_plan_id":"cebpf4jnsgd1na2vs0mg"},{"bike_id":"1f9efdba-ba44-4002-b04d-5d348312c529","system_id":"levelo_inurba_marseille","lat":43.24549,"lon":5.39529,"is_reserved":false,"is_disabled":false,"rental_uris":{"android":"levelo://app?vid=1f9efdba-ba44-4002-b04d-5d348312c529","ios":"levelo://app?vid=1f9efdba-ba44-4002-b04d-5d348312c529"},"vehicle_type_id":"4","last_reported":1728317436,"current_range_meters":3200,"station_id":"ce4bhlp2rcd13ifvqgjg","pricing_plan_id":"cebpf4jnsgd1na2vs0mg"},{"bike_id":"fcc25784-2ec9-4d49-8762-236e0950b0ed","system_id":"levelo_inurba_marseille","lat":43.27073,"lon":5.42283,"is_reserved":false,"is_disabled":false,"rental_uris":{"android":"levelo://app?vid=fcc25784-2ec9-4d49-8762-236e0950b0ed","ios":"levelo://app?vid=fcc25784-2ec9-4d49-8762-236e0950b0ed"},"vehicle_type_id":"4","last_reported":1728317436,"current_range_meters":8400,"station_id":"ce4bhk92rcd13ifvqgb0","pricing_plan_id":"cebpf4jnsgd1na2vs0mg"},{"bike_id":"c12c46a4-bd86-493d-803e-5d507cd7924b","system_id":"levelo_inurba_marseille","lat":43.23199,"lon":5.35549,"is_reserved":false,"is_disabled":false,"rental_uris":{"android":"levelo://app?vid=c12c46a4-bd86-493d-803e-5d507cd7924b","ios":"levelo://app?vid=c12c46a4-bd86-493d-803e-5d507cd7924b"},"vehicle_type_id":"4","last_reported":1728317436,"current_range_meters":30800,"station_id":"ce4bhu92rcd13ifvqi70","pricing_plan_id":"cebpf4jnsgd1na2vs0mg"},{"bike_id":"e0ef52ca-c7fa-41d7-a3ea-c3e5235a2597","system_id":"levelo_inurba_marseille","lat":43.25086,"lon":5.39532,"is_reserved":false,"is_disabled":false,"rental_uris":{"android":"levelo://app?vid=e0ef52ca-c7fa-41d7-a3ea-c3e5235a2597","ios":"levelo://app?vid=e0ef52ca-c7fa-41d7-a3ea-c3e5235a2597"},"vehicle_type_id":"4","last_reported":1728317436,"current_range_meters":30800,"station_id":"ce4bhm12rcd13ifvqgkg","pricing_plan_id":"cebpf4jnsgd1na2vs0mg"},{"bike_id":"d1f1bcf1-d7cd-44c5-90a9-289820d8c103","system_id":"levelo_inurba_marseille","lat":43.25494,"lon":5.37657,"is_reserved":false,"is_disabled":false,"rental_uris":{"android":"levelo://app?vid=d1f1bcf1-d7cd-44c5-90a9-289820d8c103","ios":"levelo://app?vid=d1f1bcf1-d7cd-44c5-90a9-289820d8c103"},"vehicle_type_id":"4","last_reported":1728317436,"current_range_meters":38400,"station_id":"ce4bhh12rcd13ifvqff0","pricing_plan_id":"cebpf4jnsgd1na2vs0mg"},{"bike_id":"85a8b07e-682b-4725-800e-b0749654fba5","system_id":"levelo_inurba_marseille","lat":43.24168,"lon":5.36393,"is_reserved":false,"is_disabled":false,"rental_uris":{"android":"levelo://app?vid=85a8b07e-682b-4725-800e-b0749654fba5","ios":"levelo://app?vid=85a8b07e-682b-4725-800e-b0749654fba5"},"vehicle_type_id":"4","last_reported":1728317436,"current_range_meters":23200,"station_id":"cpo36qri1sfpv3e86is0","pricing_plan_id":"cebpf4jnsgd1na2vs0mg"},{"bike_id":"6d2b1335-8f2b-43da-970c-a8dc2ae5420e","system_id":"levelo_inurba_marseille","lat":43.34142,"lon":5.40904,"is_reserved":false,"is_disabled":false,"rental_uris":{"android":"levelo://app?vid=6d2b1335-8f2b-43da-970c-a8dc2ae5420e","ios":"levelo://app?vid=6d2b1335-8f2b-43da-970c-a8dc2ae5420e"},"vehicle_type_id":"4","last_reported":1728317436,"current_range_meters":32800,"station_id":"ce4bhqh2rcd13ifvqhlg","pricing_plan_id":"cebpf4jnsgd1na2vs0mg"},{"bike_id":"3636387c-cdb0-4e03-9a42-81bfcae805dc","system_id":"levelo_inurba_marseille","lat":43.29042,"lon":5.35929,"is_reserved":false,"is_disabled":false,"rental_uris":{"android":"levelo://app?vid=3636387c-cdb0-4e03-9a42-81bfcae805dc","ios":"levelo://app?vid=3636387c-cdb0-4e03-9a42-81bfcae805dc"},"vehicle_type_id":"4","last_reported":1728317436,"current_range_meters":38800,"station_id":"ce4bha92rcd13ifvqeg0","pricing_plan_id":"cebpf4jnsgd1na2vs0mg"},{"bike_id":"787f7d29-ba9d-4a96-b318-607318b0a6db","system_id":"levelo_inurba_marseille","lat":43.29093,"lon":5.38148,"is_reserved":false,"is_disabled":false,"rental_uris":{"android":"levelo://app?vid=787f7d29-ba9d-4a96-b318-607318b0a6db","ios":"levelo://app?vid=787f7d29-ba9d-4a96-b318-607318b0a6db"},"vehicle_type_id":"4","last_reported":1728317436,"current_range_meters":22800,"station_id":"ce4bh512rcd13ifvqe2g","pricing_plan_id":"cebpf4jnsgd1na2vs0mg"},{"bike_id":"ee15b3b1-43cb-4ad1-8dba-b645b2d1b829","system_id":"levelo_inurba_marseille","lat":43.29055,"lon":5.35931,"is_reserved":false,"is_disabled":false,"rental_uris":{"android":"levelo://app?vid=ee15b3b1-43cb-4ad1-8dba-b645b2d1b829","ios":"levelo://app?vid=ee15b3b1-43cb-4ad1-8dba-b645b2d1b829"},"vehicle_type_id":"4","last_reported":1728317436,"current_range_meters":36400,"station_id":"ce4bha92rcd13ifvqeg0","pricing_plan_id":"cebpf4jnsgd1na2vs0mg"},{"bike_id":"89af9756-3a66-4a82-a8a1-21604bab62c9","system_id":"levelo_inurba_marseille","lat":43.29878,"lon":5.38911,"is_reserved":false,"is_disabled":false,"rental_uris":{"android":"levelo://app?vid=89af9756-3a66-4a82-a8a1-21604bab62c9","ios":"levelo://app?vid=89af9756-3a66-4a82-a8a1-21604bab62c9"},"vehicle_type_id":"4","last_reported":1728317436,"current_range_meters":25200,"station_id":"ce4bh392rcd13ifvqdl0","pricing_plan_id":"cebpf4jnsgd1na2vs0mg"},{"bike_id":"de5913a8-8cfc-40b1-acdd-5ddc0cc0ea53","system_id":"levelo_inurba_marseille","lat":43.26946,"lon":5.40255,"is_reserved":false,"is_disabled":false,"rental_uris":{"android":"levelo://app?vid=de5913a8-8cfc-40b1-acdd-5ddc0cc0ea53","ios":"levelo://app?vid=de5913a8-8cfc-40b1-acdd-5ddc0cc0ea53"},"vehicle_type_id":"4","last_reported":1728317436,"current_range_meters":7200,"station_id":"cjm6bp8fraef2m0cb0m0","pricing_plan_id":"cebpf4jnsgd1na2vs0mg"},{"bike_id":"d00a3477-782a-4de0-b711-15ed9dd434f4","system_id":"levelo_inurba_marseille","lat":43.23052,"lon":5.35497,"is_reserved":false,"is_disabled":false,"rental_uris":{"android":"levelo://app?vid=d00a3477-782a-4de0-b711-15ed9dd434f4","ios":"levelo://app?vid=d00a3477-782a-4de0-b711-15ed9dd434f4"},"vehicle_type_id":"4","last_reported":1728317436,"current_range_meters":8800,"station_id":"cpo3342slgdg3j2ifvpg","pricing_plan_id":"cebpf4jnsgd1na2vs0mg"},{"bike_id":"65eff307-18b2-4d52-951e-07c433f46e7e","system_id":"levelo_inurba_marseille","lat":43.31363,"lon":5.38496,"is_reserved":false,"is_disabled":false,"rental_uris":{"android":"levelo://app?vid=65eff307-18b2-4d52-951e-07c433f46e7e","ios":"levelo://app?vid=65eff307-18b2-4d52-951e-07c433f46e7e"},"vehicle_type_id":"4","last_reported":1728317436,"current_range_meters":5600,"station_id":"ce4bgt92rcd13ifvqcf0","pricing_plan_id":"cebpf4jnsgd1na2vs0mg"},{"bike_id":"5fd97b48-8eeb-44e8-bc7a-e8fa9d0cf5b6","system_id":"levelo_inurba_marseille","lat":43.30727,"lon":5.39724,"is_reserved":false,"is_disabled":false,"rental_uris":{"android":"levelo://app?vid=5fd97b48-8eeb-44e8-bc7a-e8fa9d0cf5b6","ios":"levelo://app?vid=5fd97b48-8eeb-44e8-bc7a-e8fa9d0cf5b6"},"vehicle_type_id":"4","last_reported":1728317436,"current_range_meters":8800,"station_id":"","pricing_plan_id":"cebpf4jnsgd1na2vs0mg"},{"bike_id":"47d7ea79-51b0-4095-9559-fada758598d0","system_id":"levelo_inurba_marseille","lat":43.275635,"lon":5.38431,"is_reserved":false,"is_disabled":false,"rental_uris":{"android":"levelo://app?vid=47d7ea79-51b0-4095-9559-fada758598d0","ios":"levelo://app?vid=47d7ea79-51b0-4095-9559-fada758598d0"},"vehicle_type_id":"4","last_reported":1728317436,"current_range_meters":24800,"station_id":"ce4bhh92rcd13ifvqfi0","pricing_plan_id":"cebpf4jnsgd1na2vs0mg"},{"bike_id":"e71568e0-6abf-4e1f-ad76-f5f1cc527f1f","system_id":"levelo_inurba_marseille","lat":43.2843,"lon":5.38574,"is_reserved":false,"is_disabled":false,"rental_uris":{"android":"levelo://app?vid=e71568e0-6abf-4e1f-ad76-f5f1cc527f1f","ios":"levelo://app?vid=e71568e0-6abf-4e1f-ad76-f5f1cc527f1f"},"vehicle_type_id":"4","last_reported":1728317436,"current_range_meters":9200,"station_id":"ce4bh492rcd13ifvqdvg","pricing_plan_id":"cebpf4jnsgd1na2vs0mg"},{"bike_id":"383e6238-5106-499a-8e26-d16b81b00a77","system_id":"levelo_inurba_marseille","lat":43.299626,"lon":5.413329,"is_reserved":false,"is_disabled":false,"rental_uris":{"android":"levelo://app?vid=383e6238-5106-499a-8e26-d16b81b00a77","ios":"levelo://app?vid=383e6238-5106-499a-8e26-d16b81b00a77"},"vehicle_type_id":"4","last_reported":1728317436,"current_range_meters":20800,"station_id":"ce4bhp12rcd13ifvqh9g","pricing_plan_id":"cebpf4jnsgd1na2vs0mg"},{"bike_id":"e8f38f77-6572-42be-9296-0cbe6e7cb972","system_id":"levelo_inurba_marseille","lat":43.23054,"lon":5.35492,"is_reserved":false,"is_disabled":false,"rental_uris":{"android":"levelo://app?vid=e8f38f77-6572-42be-9296-0cbe6e7cb972","ios":"levelo://app?vid=e8f38f77-6572-42be-9296-0cbe6e7cb972"},"vehicle_type_id":"4","last_reported":1728317436,"current_range_meters":36400,"station_id":"cpo3342slgdg3j2ifvpg","pricing_plan_id":"cebpf4jnsgd1na2vs0mg"},{"bike_id":"6a82ff07-ed99-4e97-b504-6a69d93b0a5d","system_id":"levelo_inurba_marseille","lat":43.30145,"lon":5.37424,"is_reserved":false,"is_disabled":false,"rental_uris":{"android":"levelo://app?vid=6a82ff07-ed99-4e97-b504-6a69d93b0a5d","ios":"levelo://app?vid=6a82ff07-ed99-4e97-b504-6a69d93b0a5d"},"vehicle_type_id":"4","last_reported":1728317436,"current_range_meters":18000,"station_id":"ce4bgv92rcd13ifvqcq0","pricing_plan_id":"cebpf4jnsgd1na2vs0mg"},{"bike_id":"6383107e-a90b-48e5-ad67-a00f3da06e6b","system_id":"levelo_inurba_marseille","lat":43.28088,"lon":5.39666,"is_reserved":false,"is_disabled":false,"rental_uris":{"android":"levelo://app?vid=6383107e-a90b-48e5-ad67-a00f3da06e6b","ios":"levelo://app?vid=6383107e-a90b-48e5-ad67-a00f3da06e6b"},"vehicle_type_id":"4","last_reported":1728317436,"current_range_meters":17600,"station_id":"ce4bho12rcd13ifvqh2g","pricing_plan_id":"cebpf4jnsgd1na2vs0mg"},{"bike_id":"e0eb77d5-1654-47d1-93cc-99b03faf932d","system_id":"levelo_inurba_marseille","lat":43.27178,"lon":5.40993,"is_reserved":false,"is_disabled":false,"rental_uris":{"android":"levelo://app?vid=e0eb77d5-1654-47d1-93cc-99b03faf932d","ios":"levelo://app?vid=e0eb77d5-1654-47d1-93cc-99b03faf932d"},"vehicle_type_id":"4","last_reported":1728317436,"current_range_meters":26800,"station_id":"ce4bhl12rcd13ifvqgf0","pricing_plan_id":"cebpf4jnsgd1na2vs0mg"},{"bike_id":"f4c41b39-3379-4c07-9438-a097bdc028ad","system_id":"levelo_inurba_marseille","lat":43.28271,"lon":5.35084,"is_reserved":false,"is_disabled":false,"rental_uris":{"android":"levelo://app?vid=f4c41b39-3379-4c07-9438-a097bdc028ad","ios":"levelo://app?vid=f4c41b39-3379-4c07-9438-a097bdc028ad"},"vehicle_type_id":"4","last_reported":1728317436,"current_range_meters":30800,"station_id":"ce4bhbp2rcd13ifvqerg","pricing_plan_id":"cebpf4jnsgd1na2vs0mg"},{"bike_id":"9f72c76a-fefc-4dd0-9191-d7a5fd63a001","system_id":"levelo_inurba_marseille","lat":43.33603,"lon":5.3986,"is_reserved":false,"is_disabled":false,"rental_uris":{"android":"levelo://app?vid=9f72c76a-fefc-4dd0-9191-d7a5fd63a001","ios":"levelo://app?vid=9f72c76a-fefc-4dd0-9191-d7a5fd63a001"},"vehicle_type_id":"4","last_reported":1728317436,"current_range_meters":3600,"station_id":"","pricing_plan_id":"cebpf4jnsgd1na2vs0mg"},{"bike_id":"7183ef91-cf92-4ad0-9e21-16788762b675","system_id":"levelo_inurba_marseille","lat":43.3117,"lon":5.38721,"is_reserved":false,"is_disabled":false,"rental_uris":{"android":"levelo://app?vid=7183ef91-cf92-4ad0-9e21-16788762b675","ios":"levelo://app?vid=7183ef91-cf92-4ad0-9e21-16788762b675"},"vehicle_type_id":"4","last_reported":1728317436,"current_range_meters":32800,"station_id":"ce4bgv12rcd13ifvqcp0","pricing_plan_id":"cebpf4jnsgd1na2vs0mg"},{"bike_id":"003ecd7e-7326-406c-bc85-427e5ec77f65","system_id":"levelo_inurba_marseille","lat":43.30549,"lon":5.36559,"is_reserved":false,"is_disabled":false,"rental_uris":{"android":"levelo://app?vid=003ecd7e-7326-406c-bc85-427e5ec77f65","ios":"levelo://app?vid=003ecd7e-7326-406c-bc85-427e5ec77f65"},"vehicle_type_id":"4","last_reported":1728317436,"current_range_meters":36800,"station_id":"ce4bgs12rcd13ifvqcag","pricing_plan_id":"cebpf4jnsgd1na2vs0mg"},{"bike_id":"6c8d1fd5-0a29-4bcd-a4d6-79dbc484d386","system_id":"levelo_inurba_marseille","lat":43.31687,"lon":5.40473,"is_reserved":false,"is_disabled":false,"rental_uris":{"android":"levelo://app?vid=6c8d1fd5-0a29-4bcd-a4d6-79dbc484d386","ios":"levelo://app?vid=6c8d1fd5-0a29-4bcd-a4d6-79dbc484d386"},"vehicle_type_id":"4","last_reported":1728317436,"current_range_meters":16000,"station_id":"ce4bh012rcd13ifvqd00","pricing_plan_id":"cebpf4jnsgd1na2vs0mg"},{"bike_id":"85cf69d8-14ed-4826-adab-0a67eed374a4","system_id":"levelo_inurba_marseille","lat":43.28706,"lon":5.37393,"is_reserved":false,"is_disabled":false,"rental_uris":{"android":"levelo://app?vid=85cf69d8-14ed-4826-adab-0a67eed374a4","ios":"levelo://app?vid=85cf69d8-14ed-4826-adab-0a67eed374a4"},"vehicle_type_id":"4","last_reported":1728317436,"current_range_meters":25200,"station_id":"ce4bh3p2rcd13ifvqdq0","pricing_plan_id":"cebpf4jnsgd1na2vs0mg"},{"bike_id":"a5b09fdb-44f6-4bc3-9f36-4682894259ea","system_id":"levelo_inurba_marseille","lat":43.29557,"lon":5.42296,"is_reserved":false,"is_disabled":false,"rental_uris":{"android":"levelo://app?vid=a5b09fdb-44f6-4bc3-9f36-4682894259ea","ios":"levelo://app?vid=a5b09fdb-44f6-4bc3-9f36-4682894259ea"},"vehicle_type_id":"4","last_reported":1728317436,"current_range_meters":19200,"station_id":"ce4bhph2rcd13ifvqhdg","pricing_plan_id":"cebpf4jnsgd1na2vs0mg"},{"bike_id":"4378a0dd-7ddd-4246-9294-1e2af02e0700","system_id":"levelo_inurba_marseille","lat":43.23198,"lon":5.35554,"is_reserved":false,"is_disabled":false,"rental_uris":{"android":"levelo://app?vid=4378a0dd-7ddd-4246-9294-1e2af02e0700","ios":"levelo://app?vid=4378a0dd-7ddd-4246-9294-1e2af02e0700"},"vehicle_type_id":"4","last_reported":1728317436,"current_range_meters":3600,"station_id":"ce4bhu92rcd13ifvqi70","pricing_plan_id":"cebpf4jnsgd1na2vs0mg"},{"bike_id":"e4ef45d7-75ad-43e9-afa2-dfd793a5d09a","system_id":"levelo_inurba_marseille","lat":43.29536,"lon":5.3855,"is_reserved":false,"is_disabled":false,"rental_uris":{"android":"levelo://app?vid=e4ef45d7-75ad-43e9-afa2-dfd793a5d09a","ios":"levelo://app?vid=e4ef45d7-75ad-43e9-afa2-dfd793a5d09a"},"vehicle_type_id":"4","last_reported":1728317436,"current_range_meters":22000,"station_id":"ce4bgih2rcd13ifvqba0","pricing_plan_id":"cebpf4jnsgd1na2vs0mg"},{"bike_id":"db19e30a-6c60-4cb0-984c-be759e4897bb","system_id":"levelo_inurba_marseille","lat":43.30262,"lon":5.40072,"is_reserved":false,"is_disabled":false,"rental_uris":{"android":"levelo://app?vid=db19e30a-6c60-4cb0-984c-be759e4897bb","ios":"levelo://app?vid=db19e30a-6c60-4cb0-984c-be759e4897bb"},"vehicle_type_id":"4","last_reported":1728317436,"current_range_meters":36000,"station_id":"ce4bgvh2rcd13ifvqcs0","pricing_plan_id":"cebpf4jnsgd1na2vs0mg"},{"bike_id":"78b92df0-55b8-4126-abb9-e0374740f0d3","system_id":"levelo_inurba_marseille","lat":43.30799,"lon":5.38159,"is_reserved":false,"is_disabled":false,"rental_uris":{"android":"levelo://app?vid=78b92df0-55b8-4126-abb9-e0374740f0d3","ios":"levelo://app?vid=78b92df0-55b8-4126-abb9-e0374740f0d3"},"vehicle_type_id":"4","last_reported":1728317436,"current_range_meters":6400,"station_id":"ce4bgt12rcd13ifvqce0","pricing_plan_id":"cebpf4jnsgd1na2vs0mg"},{"bike_id":"93d45870-2e1c-4ed1-9664-7b219a4ed443","system_id":"levelo_inurba_marseille","lat":43.22931,"lon":5.35382,"is_reserved":false,"is_disabled":false,"rental_uris":{"android":"levelo://app?vid=93d45870-2e1c-4ed1-9664-7b219a4ed443","ios":"levelo://app?vid=93d45870-2e1c-4ed1-9664-7b219a4ed443"},"vehicle_type_id":"4","last_reported":1728317436,"current_range_meters":36400,"station_id":"cpo3532slgdg3j2ikp40","pricing_plan_id":"cebpf4jnsgd1na2vs0mg"},{"bike_id":"f8251ca3-05e0-4953-a849-aa6fd1188104","system_id":"levelo_inurba_marseille","lat":43.31178,"lon":5.38725,"is_reserved":false,"is_disabled":false,"rental_uris":{"android":"levelo://app?vid=f8251ca3-05e0-4953-a849-aa6fd1188104","ios":"levelo://app?vid=f8251ca3-05e0-4953-a849-aa6fd1188104"},"vehicle_type_id":"4","last_reported":1728317436,"current_range_meters":27200,"station_id":"ce4bgv12rcd13ifvqcp0","pricing_plan_id":"cebpf4jnsgd1na2vs0mg"},{"bike_id":"fc51f917-c9ac-4942-ad2c-911544f34453","system_id":"levelo_inurba_marseille","lat":43.2858,"lon":5.39495,"is_reserved":false,"is_disabled":false,"rental_uris":{"android":"levelo://app?vid=fc51f917-c9ac-4942-ad2c-911544f34453","ios":"levelo://app?vid=fc51f917-c9ac-4942-ad2c-911544f34453"},"vehicle_type_id":"4","last_reported":1728317436,"current_range_meters":12800,"station_id":"ce4bh292rcd13ifvqdg0","pricing_plan_id":"cebpf4jnsgd1na2vs0mg"},{"bike_id":"3ec4f08c-4c49-45fc-8d63-1405d5a5553d","system_id":"levelo_inurba_marseille","lat":43.29883,"lon":5.39734,"is_reserved":false,"is_disabled":false,"rental_uris":{"android":"levelo://app?vid=3ec4f08c-4c49-45fc-8d63-1405d5a5553d","ios":"levelo://app?vid=3ec4f08c-4c49-45fc-8d63-1405d5a5553d"},"vehicle_type_id":"4","last_reported":1728317436,"current_range_meters":38800,"station_id":"ce4bh0h2rcd13ifvqd50","pricing_plan_id":"cebpf4jnsgd1na2vs0mg"},{"bike_id":"6e512044-ef12-457b-bcca-26bd86c5618a","system_id":"levelo_inurba_marseille","lat":43.23061,"lon":5.3549,"is_reserved":false,"is_disabled":false,"rental_uris":{"android":"levelo://app?vid=6e512044-ef12-457b-bcca-26bd86c5618a","ios":"levelo://app?vid=6e512044-ef12-457b-bcca-26bd86c5618a"},"vehicle_type_id":"4","last_reported":1728317436,"current_range_meters":36400,"station_id":"cpo3342slgdg3j2ifvpg","pricing_plan_id":"cebpf4jnsgd1na2vs0mg"},{"bike_id":"8ac7dc23-479b-4537-9571-b3045c5ee708","system_id":"levelo_inurba_marseille","lat":43.26937,"lon":5.40265,"is_reserved":false,"is_disabled":false,"rental_uris":{"android":"levelo://app?vid=8ac7dc23-479b-4537-9571-b3045c5ee708","ios":"levelo://app?vid=8ac7dc23-479b-4537-9571-b3045c5ee708"},"vehicle_type_id":"4","last_reported":1728317436,"current_range_meters":20800,"station_id":"cjm6bp8fraef2m0cb0m0","pricing_plan_id":"cebpf4jnsgd1na2vs0mg"},{"bike_id":"48559578-63b5-48d4-91ea-c91b56307878","system_id":"levelo_inurba_marseille","lat":43.29567,"lon":5.37529,"is_reserved":false,"is_disabled":false,"rental_uris":{"android":"levelo://app?vid=48559578-63b5-48d4-91ea-c91b56307878","ios":"levelo://app?vid=48559578-63b5-48d4-91ea-c91b56307878"},"vehicle_type_id":"4","last_reported":1728317436,"current_range_meters":32800,"station_id":"ce4bgh92rcd13ifvqb50","pricing_plan_id":"cebpf4jnsgd1na2vs0mg"},{"bike_id":"270b90ca-7521-4165-af49-e1c727e5fa34","system_id":"levelo_inurba_marseille","lat":43.24174,"lon":5.36392,"is_reserved":false,"is_disabled":false,"rental_uris":{"android":"levelo://app?vid=270b90ca-7521-4165-af49-e1c727e5fa34","ios":"levelo://app?vid=270b90ca-7521-4165-af49-e1c727e5fa34"},"vehicle_type_id":"4","last_reported":1728317436,"current_range_meters":28400,"station_id":"cpo36qri1sfpv3e86is0","pricing_plan_id":"cebpf4jnsgd1na2vs0mg"},{"bike_id":"1c6c58c3-e803-47d0-aae9-62fa2a62056c","system_id":"levelo_inurba_marseille","lat":43.23069,"lon":5.35492,"is_reserved":false,"is_disabled":false,"rental_uris":{"android":"levelo://app?vid=1c6c58c3-e803-47d0-aae9-62fa2a62056c","ios":"levelo://app?vid=1c6c58c3-e803-47d0-aae9-62fa2a62056c"},"vehicle_type_id":"4","last_reported":1728317436,"current_range_meters":24800,"station_id":"cpo3342slgdg3j2ifvpg","pricing_plan_id":"cebpf4jnsgd1na2vs0mg"},{"bike_id":"e32747ae-063d-4dc5-a43e-65bc0fd48ae5","system_id":"levelo_inurba_marseille","lat":43.30786,"lon":5.38146,"is_reserved":false,"is_disabled":false,"rental_uris":{"android":"levelo://app?vid=e32747ae-063d-4dc5-a43e-65bc0fd48ae5","ios":"levelo://app?vid=e32747ae-063d-4dc5-a43e-65bc0fd48ae5"},"vehicle_type_id":"4","last_reported":1728317436,"current_range_meters":34000,"station_id":"ce4bgt12rcd13ifvqce0","pricing_plan_id":"cebpf4jnsgd1na2vs0mg"},{"bike_id":"54ed098b-3187-4151-b64a-d7e4f5e000ad","system_id":"levelo_inurba_marseille","lat":43.27672,"lon":5.38884,"is_reserved":false,"is_disabled":false,"rental_uris":{"android":"levelo://app?vid=54ed098b-3187-4151-b64a-d7e4f5e000ad","ios":"levelo://app?vid=54ed098b-3187-4151-b64a-d7e4f5e000ad"},"vehicle_type_id":"4","last_reported":1728317436,"current_range_meters":39200,"station_id":"ce4bhi12rcd13ifvqfo0","pricing_plan_id":"cebpf4jnsgd1na2vs0mg"},{"bike_id":"b702e958-9695-4d40-9c1e-958ad0ebf6ea","system_id":"levelo_inurba_marseille","lat":43.26489,"lon":5.39549,"is_reserved":false,"is_disabled":false,"rental_uris":{"android":"levelo://app?vid=b702e958-9695-4d40-9c1e-958ad0ebf6ea","ios":"levelo://app?vid=b702e958-9695-4d40-9c1e-958ad0ebf6ea"},"vehicle_type_id":"4","last_reported":1728317436,"current_range_meters":27600,"station_id":"ce4bhi12rcd13ifvqfq0","pricing_plan_id":"cebpf4jnsgd1na2vs0mg"},{"bike_id":"e77a5168-df9e-4cba-8a47-066649b8c49b","system_id":"levelo_inurba_marseille","lat":43.26555,"lon":5.37287,"is_reserved":false,"is_disabled":false,"rental_uris":{"android":"levelo://app?vid=e77a5168-df9e-4cba-8a47-066649b8c49b","ios":"levelo://app?vid=e77a5168-df9e-4cba-8a47-066649b8c49b"},"vehicle_type_id":"4","last_reported":1728317436,"current_range_meters":5600,"station_id":"ce4bhg12rcd13ifvqf70","pricing_plan_id":"cebpf4jnsgd1na2vs0mg"},{"bike_id":"58d1e485-b1a1-450a-bf8d-f64ec904ffd4","system_id":"levelo_inurba_marseille","lat":43.298979,"lon":5.43674,"is_reserved":false,"is_disabled":false,"rental_uris":{"android":"levelo://app?vid=58d1e485-b1a1-450a-bf8d-f64ec904ffd4","ios":"levelo://app?vid=58d1e485-b1a1-450a-bf8d-f64ec904ffd4"},"vehicle_type_id":"4","last_reported":1728317436,"current_range_meters":38800,"station_id":"ce4bho92rcd13ifvqh3g","pricing_plan_id":"cebpf4jnsgd1na2vs0mg"},{"bike_id":"6fea6536-76dc-430b-b546-c9439597e325","system_id":"levelo_inurba_marseille","lat":43.27185,"lon":5.40997,"is_reserved":false,"is_disabled":false,"rental_uris":{"android":"levelo://app?vid=6fea6536-76dc-430b-b546-c9439597e325","ios":"levelo://app?vid=6fea6536-76dc-430b-b546-c9439597e325"},"vehicle_type_id":"4","last_reported":1728317436,"current_range_meters":34000,"station_id":"ce4bhl12rcd13ifvqgf0","pricing_plan_id":"cebpf4jnsgd1na2vs0mg"},{"bike_id":"1a5da960-8e28-4b3b-9882-19f61ff0b810","system_id":"levelo_inurba_marseille","lat":43.29867,"lon":5.39749,"is_reserved":false,"is_disabled":false,"rental_uris":{"android":"levelo://app?vid=1a5da960-8e28-4b3b-9882-19f61ff0b810","ios":"levelo://app?vid=1a5da960-8e28-4b3b-9882-19f61ff0b810"},"vehicle_type_id":"4","last_reported":1728317436,"current_range_meters":31200,"station_id":"ce4bh0h2rcd13ifvqd50","pricing_plan_id":"cebpf4jnsgd1na2vs0mg"},{"bike_id":"810c56fc-9d75-48ab-b949-5063e3a536f8","system_id":"levelo_inurba_marseille","lat":43.30801,"lon":5.43524,"is_reserved":false,"is_disabled":false,"rental_uris":{"android":"levelo://app?vid=810c56fc-9d75-48ab-b949-5063e3a536f8","ios":"levelo://app?vid=810c56fc-9d75-48ab-b949-5063e3a536f8"},"vehicle_type_id":"4","last_reported":1728317436,"current_range_meters":39200,"station_id":"ce4bhph2rcd13ifvqheg","pricing_plan_id":"cebpf4jnsgd1na2vs0mg"},{"bike_id":"ab0ef8f6-2d64-477f-ab35-7e54daa51f0f","system_id":"levelo_inurba_marseille","lat":43.31712,"lon":5.4371,"is_reserved":false,"is_disabled":false,"rental_uris":{"android":"levelo://app?vid=ab0ef8f6-2d64-477f-ab35-7e54daa51f0f","ios":"levelo://app?vid=ab0ef8f6-2d64-477f-ab35-7e54daa51f0f"},"vehicle_type_id":"4","last_reported":1728317436,"current_range_meters":25200,"station_id":"ce4bhp92rcd13ifvqhcg","pricing_plan_id":"cebpf4jnsgd1na2vs0mg"},{"bike_id":"c45340a7-5257-408a-897a-01994bd38219","system_id":"levelo_inurba_marseille","lat":43.28463,"lon":5.35894,"is_reserved":false,"is_disabled":false,"rental_uris":{"android":"levelo://app?vid=c45340a7-5257-408a-897a-01994bd38219","ios":"levelo://app?vid=c45340a7-5257-408a-897a-01994bd38219"},"vehicle_type_id":"4","last_reported":1728317436,"current_range_meters":6000,"station_id":"ce4bhah2rcd13ifvqei0","pricing_plan_id":"cebpf4jnsgd1na2vs0mg"},{"bike_id":"606dd62b-d351-4368-a951-6d0adc3ed87e","system_id":"levelo_inurba_marseille","lat":43.26555,"lon":5.37295,"is_reserved":false,"is_disabled":false,"rental_uris":{"android":"levelo://app?vid=606dd62b-d351-4368-a951-6d0adc3ed87e","ios":"levelo://app?vid=606dd62b-d351-4368-a951-6d0adc3ed87e"},"vehicle_type_id":"4","last_reported":1728317436,"current_range_meters":8800,"station_id":"ce4bhg12rcd13ifvqf70","pricing_plan_id":"cebpf4jnsgd1na2vs0mg"},{"bike_id":"b9644df2-b234-4f72-b771-b50713752d5c","system_id":"levelo_inurba_marseille","lat":43.29598,"lon":5.4249,"is_reserved":false,"is_disabled":false,"rental_uris":{"android":"levelo://app?vid=b9644df2-b234-4f72-b771-b50713752d5c","ios":"levelo://app?vid=b9644df2-b234-4f72-b771-b50713752d5c"},"vehicle_type_id":"4","last_reported":1728317436,"current_range_meters":12400,"station_id":"","pricing_plan_id":"cebpf4jnsgd1na2vs0mg"},{"bike_id":"f7612392-4f4b-453b-a64c-499de3c2600f","system_id":"levelo_inurba_marseille","lat":43.24172,"lon":5.36388,"is_reserved":false,"is_disabled":false,"rental_uris":{"android":"levelo://app?vid=f7612392-4f4b-453b-a64c-499de3c2600f","ios":"levelo://app?vid=f7612392-4f4b-453b-a64c-499de3c2600f"},"vehicle_type_id":"4","last_reported":1728317436,"current_range_meters":36000,"station_id":"cpo36qri1sfpv3e86is0","pricing_plan_id":"cebpf4jnsgd1na2vs0mg"},{"bike_id":"b9f7e217-2396-4f17-99e6-316574934f3f","system_id":"levelo_inurba_marseille","lat":43.28461,"lon":5.35893,"is_reserved":false,"is_disabled":false,"rental_uris":{"android":"levelo://app?vid=b9f7e217-2396-4f17-99e6-316574934f3f","ios":"levelo://app?vid=b9f7e217-2396-4f17-99e6-316574934f3f"},"vehicle_type_id":"4","last_reported":1728317436,"current_range_meters":36800,"station_id":"ce4bhah2rcd13ifvqei0","pricing_plan_id":"cebpf4jnsgd1na2vs0mg"},{"bike_id":"9a873b21-4325-4346-9f74-80b6d80ab720","system_id":"levelo_inurba_marseille","lat":43.26953,"lon":5.38623,"is_reserved":false,"is_disabled":false,"rental_uris":{"android":"levelo://app?vid=9a873b21-4325-4346-9f74-80b6d80ab720","ios":"levelo://app?vid=9a873b21-4325-4346-9f74-80b6d80ab720"},"vehicle_type_id":"4","last_reported":1728317436,"current_range_meters":22400,"station_id":"ce4bhh92rcd13ifvqfh0","pricing_plan_id":"cebpf4jnsgd1na2vs0mg"},{"bike_id":"ba1e3c15-415a-4c77-b369-55010b5afb5d","system_id":"levelo_inurba_marseille","lat":43.28679,"lon":5.38673,"is_reserved":false,"is_disabled":false,"rental_uris":{"android":"levelo://app?vid=ba1e3c15-415a-4c77-b369-55010b5afb5d","ios":"levelo://app?vid=ba1e3c15-415a-4c77-b369-55010b5afb5d"},"vehicle_type_id":"4","last_reported":1728317436,"current_range_meters":6800,"station_id":"ce4bh492rcd13ifvqdug","pricing_plan_id":"cebpf4jnsgd1na2vs0mg"},{"bike_id":"f2478951-cb2f-49f6-808f-c5997993ac96","system_id":"levelo_inurba_marseille","lat":43.28001,"lon":5.41669,"is_reserved":false,"is_disabled":false,"rental_uris":{"android":"levelo://app?vid=f2478951-cb2f-49f6-808f-c5997993ac96","ios":"levelo://app?vid=f2478951-cb2f-49f6-808f-c5997993ac96"},"vehicle_type_id":"4","last_reported":1728317436,"current_range_meters":23200,"station_id":"ce4bho12rcd13ifvqh1g","pricing_plan_id":"cebpf4jnsgd1na2vs0mg"},{"bike_id":"16f2623b-8d6e-4528-b0c1-3479f17c28a9","system_id":"levelo_inurba_marseille","lat":43.27819,"lon":5.40718,"is_reserved":false,"is_disabled":false,"rental_uris":{"android":"levelo://app?vid=16f2623b-8d6e-4528-b0c1-3479f17c28a9","ios":"levelo://app?vid=16f2623b-8d6e-4528-b0c1-3479f17c28a9"},"vehicle_type_id":"4","last_reported":1728317436,"current_range_meters":18000,"station_id":"ce4bhnh2rcd13ifvqgtg","pricing_plan_id":"cebpf4jnsgd1na2vs0mg"},{"bike_id":"068cfa75-5768-40a3-8092-11c1e43f86c1","system_id":"levelo_inurba_marseille","lat":43.27424,"lon":5.39418,"is_reserved":false,"is_disabled":false,"rental_uris":{"android":"levelo://app?vid=068cfa75-5768-40a3-8092-11c1e43f86c1","ios":"levelo://app?vid=068cfa75-5768-40a3-8092-11c1e43f86c1"},"vehicle_type_id":"4","last_reported":1728317436,"current_range_meters":8800,"station_id":"ce4bhdp2rcd13ifvqf20","pricing_plan_id":"cebpf4jnsgd1na2vs0mg"},{"bike_id":"b5a449ba-1a21-42b9-8c18-159b3dcea6ee","system_id":"levelo_inurba_marseille","lat":43.29016,"lon":5.35623,"is_reserved":false,"is_disabled":false,"rental_uris":{"android":"levelo://app?vid=b5a449ba-1a21-42b9-8c18-159b3dcea6ee","ios":"levelo://app?vid=b5a449ba-1a21-42b9-8c18-159b3dcea6ee"},"vehicle_type_id":"4","last_reported":1728317436,"current_range_meters":6800,"station_id":"ce4bhb92rcd13ifvqen0","pricing_plan_id":"cebpf4jnsgd1na2vs0mg"},{"bike_id":"8c88e06c-1e82-4a7d-a799-22b3b6fbc7a2","system_id":"levelo_inurba_marseille","lat":43.30421,"lon":5.41296,"is_reserved":false,"is_disabled":false,"rental_uris":{"android":"levelo://app?vid=8c88e06c-1e82-4a7d-a799-22b3b6fbc7a2","ios":"levelo://app?vid=8c88e06c-1e82-4a7d-a799-22b3b6fbc7a2"},"vehicle_type_id":"4","last_reported":1728317436,"current_range_meters":23200,"station_id":"ce4bhop2rcd13ifvqh8g","pricing_plan_id":"cebpf4jnsgd1na2vs0mg"},{"bike_id":"a6c5a80a-144f-4b1a-8158-d5a523a0a231","system_id":"levelo_inurba_marseille","lat":43.29529,"lon":5.38549,"is_reserved":false,"is_disabled":false,"rental_uris":{"android":"levelo://app?vid=a6c5a80a-144f-4b1a-8158-d5a523a0a231","ios":"levelo://app?vid=a6c5a80a-144f-4b1a-8158-d5a523a0a231"},"vehicle_type_id":"4","last_reported":1728317436,"current_range_meters":32800,"station_id":"ce4bgih2rcd13ifvqba0","pricing_plan_id":"cebpf4jnsgd1na2vs0mg"},{"bike_id":"5a0e4884-ec03-4c64-b89d-abb274bb2439","system_id":"levelo_inurba_marseille","lat":43.29259,"lon":5.40924,"is_reserved":false,"is_disabled":false,"rental_uris":{"android":"levelo://app?vid=5a0e4884-ec03-4c64-b89d-abb274bb2439","ios":"levelo://app?vid=5a0e4884-ec03-4c64-b89d-abb274bb2439"},"vehicle_type_id":"4","last_reported":1728317436,"current_range_meters":22400,"station_id":"ce4bh192rcd13ifvqdc0","pricing_plan_id":"cebpf4jnsgd1na2vs0mg"},{"bike_id":"a306c6d4-6ae8-4741-9fef-5a4c5b07f472","system_id":"levelo_inurba_marseille","lat":43.30356,"lon":5.41879,"is_reserved":false,"is_disabled":false,"rental_uris":{"android":"levelo://app?vid=a306c6d4-6ae8-4741-9fef-5a4c5b07f472","ios":"levelo://app?vid=a306c6d4-6ae8-4741-9fef-5a4c5b07f472"},"vehicle_type_id":"4","last_reported":1728317436,"current_range_meters":4800,"station_id":"ce4bhop2rcd13ifvqh7g","pricing_plan_id":"cebpf4jnsgd1na2vs0mg"},{"bike_id":"6efcc99a-8620-4544-b515-2744c6da1cfe","system_id":"levelo_inurba_marseille","lat":43.30805,"lon":5.38154,"is_reserved":false,"is_disabled":false,"rental_uris":{"android":"levelo://app?vid=6efcc99a-8620-4544-b515-2744c6da1cfe","ios":"levelo://app?vid=6efcc99a-8620-4544-b515-2744c6da1cfe"},"vehicle_type_id":"4","last_reported":1728317436,"current_range_meters":17200,"station_id":"ce4bgt12rcd13ifvqce0","pricing_plan_id":"cebpf4jnsgd1na2vs0mg"},{"bike_id":"ad3d18c9-fa55-41ed-b851-2d8ac93a9945","system_id":"levelo_inurba_marseille","lat":43.2956,"lon":5.42291,"is_reserved":false,"is_disabled":false,"rental_uris":{"android":"levelo://app?vid=ad3d18c9-fa55-41ed-b851-2d8ac93a9945","ios":"levelo://app?vid=ad3d18c9-fa55-41ed-b851-2d8ac93a9945"},"vehicle_type_id":"4","last_reported":1728317436,"current_range_meters":38800,"station_id":"ce4bhph2rcd13ifvqhdg","pricing_plan_id":"cebpf4jnsgd1na2vs0mg"},{"bike_id":"035169f9-3688-40e7-b630-6e0665ca7977","system_id":"levelo_inurba_marseille","lat":43.27817,"lon":5.40724,"is_reserved":false,"is_disabled":false,"rental_uris":{"android":"levelo://app?vid=035169f9-3688-40e7-b630-6e0665ca7977","ios":"levelo://app?vid=035169f9-3688-40e7-b630-6e0665ca7977"},"vehicle_type_id":"4","last_reported":1728317436,"current_range_meters":28800,"station_id":"ce4bhnh2rcd13ifvqgtg","pricing_plan_id":"cebpf4jnsgd1na2vs0mg"},{"bike_id":"bb07c2cc-f741-449b-ba4d-69e71cc77060","system_id":"levelo_inurba_marseille","lat":43.301239,"lon":5.388059,"is_reserved":false,"is_disabled":false,"rental_uris":{"android":"levelo://app?vid=bb07c2cc-f741-449b-ba4d-69e71cc77060","ios":"levelo://app?vid=bb07c2cc-f741-449b-ba4d-69e71cc77060"},"vehicle_type_id":"4","last_reported":1728317436,"current_range_meters":27200,"station_id":"chh1huq6cuj3fo74tm60","pricing_plan_id":"cebpf4jnsgd1na2vs0mg"},{"bike_id":"61df179f-3bfc-44e6-a1a1-26f552c14e31","system_id":"levelo_inurba_marseille","lat":43.286634,"lon":5.365228,"is_reserved":false,"is_disabled":false,"rental_uris":{"android":"levelo://app?vid=61df179f-3bfc-44e6-a1a1-26f552c14e31","ios":"levelo://app?vid=61df179f-3bfc-44e6-a1a1-26f552c14e31"},"vehicle_type_id":"4","last_reported":1728317436,"current_range_meters":31200,"station_id":"ce4bhah2rcd13ifvqej0","pricing_plan_id":"cebpf4jnsgd1na2vs0mg"},{"bike_id":"be8cd08b-3976-41e3-a4bb-3aea3f272c97","system_id":"levelo_inurba_marseille","lat":43.292694,"lon":5.36849,"is_reserved":false,"is_disabled":false,"rental_uris":{"android":"levelo://app?vid=be8cd08b-3976-41e3-a4bb-3aea3f272c97","ios":"levelo://app?vid=be8cd08b-3976-41e3-a4bb-3aea3f272c97"},"vehicle_type_id":"4","last_reported":1728317436,"current_range_meters":18000,"station_id":"ce4bhbp2rcd13ifvqesg","pricing_plan_id":"cebpf4jnsgd1na2vs0mg"},{"bike_id":"c7c933ea-453c-4444-a304-2fa069327739","system_id":"levelo_inurba_marseille","lat":43.23066,"lon":5.3549,"is_reserved":false,"is_disabled":false,"rental_uris":{"android":"levelo://app?vid=c7c933ea-453c-4444-a304-2fa069327739","ios":"levelo://app?vid=c7c933ea-453c-4444-a304-2fa069327739"},"vehicle_type_id":"4","last_reported":1728317436,"current_range_meters":10800,"station_id":"cpo3342slgdg3j2ifvpg","pricing_plan_id":"cebpf4jnsgd1na2vs0mg"},{"bike_id":"a33a1ffd-f1df-4ef5-9008-ad10171f2716","system_id":"levelo_inurba_marseille","lat":43.28275,"lon":5.35072,"is_reserved":false,"is_disabled":false,"rental_uris":{"android":"levelo://app?vid=a33a1ffd-f1df-4ef5-9008-ad10171f2716","ios":"levelo://app?vid=a33a1ffd-f1df-4ef5-9008-ad10171f2716"},"vehicle_type_id":"4","last_reported":1728317436,"current_range_meters":7200,"station_id":"ce4bhbp2rcd13ifvqerg","pricing_plan_id":"cebpf4jnsgd1na2vs0mg"},{"bike_id":"63905476-2890-443e-983a-17cf520e6a49","system_id":"levelo_inurba_marseille","lat":43.28275,"lon":5.35075,"is_reserved":false,"is_disabled":false,"rental_uris":{"android":"levelo://app?vid=63905476-2890-443e-983a-17cf520e6a49","ios":"levelo://app?vid=63905476-2890-443e-983a-17cf520e6a49"},"vehicle_type_id":"4","last_reported":1728317436,"current_range_meters":38800,"station_id":"ce4bhbp2rcd13ifvqerg","pricing_plan_id":"cebpf4jnsgd1na2vs0mg"},{"bike_id":"561f23d3-5659-4542-817d-b6f0618307d2","system_id":"levelo_inurba_marseille","lat":43.29875,"lon":5.3973,"is_reserved":false,"is_disabled":false,"rental_uris":{"android":"levelo://app?vid=561f23d3-5659-4542-817d-b6f0618307d2","ios":"levelo://app?vid=561f23d3-5659-4542-817d-b6f0618307d2"},"vehicle_type_id":"4","last_reported":1728317436,"current_range_meters":22000,"station_id":"ce4bh0h2rcd13ifvqd50","pricing_plan_id":"cebpf4jnsgd1na2vs0mg"},{"bike_id":"8e1ff5c3-1833-401a-8e1f-07ad5a031c10","system_id":"levelo_inurba_marseille","lat":43.30323,"lon":5.40437,"is_reserved":false,"is_disabled":false,"rental_uris":{"android":"levelo://app?vid=8e1ff5c3-1833-401a-8e1f-07ad5a031c10","ios":"levelo://app?vid=8e1ff5c3-1833-401a-8e1f-07ad5a031c10"},"vehicle_type_id":"4","last_reported":1728317436,"current_range_meters":34800,"station_id":"ce4bh012rcd13ifvqd10","pricing_plan_id":"cebpf4jnsgd1na2vs0mg"},{"bike_id":"c190b4a1-ea1d-47e2-b2e8-eefa3099f9cc","system_id":"levelo_inurba_marseille","lat":43.23191,"lon":5.35556,"is_reserved":false,"is_disabled":false,"rental_uris":{"android":"levelo://app?vid=c190b4a1-ea1d-47e2-b2e8-eefa3099f9cc","ios":"levelo://app?vid=c190b4a1-ea1d-47e2-b2e8-eefa3099f9cc"},"vehicle_type_id":"4","last_reported":1728317436,"current_range_meters":38800,"station_id":"ce4bhu92rcd13ifvqi70","pricing_plan_id":"cebpf4jnsgd1na2vs0mg"},{"bike_id":"0335f160-ffe6-45bb-babd-336ab368f351","system_id":"levelo_inurba_marseille","lat":43.289364,"lon":5.36646,"is_reserved":false,"is_disabled":false,"rental_uris":{"android":"levelo://app?vid=0335f160-ffe6-45bb-babd-336ab368f351","ios":"levelo://app?vid=0335f160-ffe6-45bb-babd-336ab368f351"},"vehicle_type_id":"4","last_reported":1728317436,"current_range_meters":14000,"station_id":"ce4bhap2rcd13ifvqek0","pricing_plan_id":"cebpf4jnsgd1na2vs0mg"},{"bike_id":"2b39b295-40cd-4f15-b96e-e5ff34cbc165","system_id":"levelo_inurba_marseille","lat":43.26683,"lon":5.38277,"is_reserved":false,"is_disabled":false,"rental_uris":{"android":"levelo://app?vid=2b39b295-40cd-4f15-b96e-e5ff34cbc165","ios":"levelo://app?vid=2b39b295-40cd-4f15-b96e-e5ff34cbc165"},"vehicle_type_id":"4","last_reported":1728317436,"current_range_meters":7200,"station_id":"ce4bhg92rcd13ifvqf90","pricing_plan_id":"cebpf4jnsgd1na2vs0mg"},{"bike_id":"79f2931d-0417-4a9e-92ec-53f4bd22b18c","system_id":"levelo_inurba_marseille","lat":43.28465,"lon":5.35888,"is_reserved":false,"is_disabled":false,"rental_uris":{"android":"levelo://app?vid=79f2931d-0417-4a9e-92ec-53f4bd22b18c","ios":"levelo://app?vid=79f2931d-0417-4a9e-92ec-53f4bd22b18c"},"vehicle_type_id":"4","last_reported":1728317436,"current_range_meters":34800,"station_id":"ce4bhah2rcd13ifvqei0","pricing_plan_id":"cebpf4jnsgd1na2vs0mg"},{"bike_id":"f1a587de-a4d9-42a8-8fe6-d4518f6dd1b0","system_id":"levelo_inurba_marseille","lat":43.23063,"lon":5.35493,"is_reserved":false,"is_disabled":false,"rental_uris":{"android":"levelo://app?vid=f1a587de-a4d9-42a8-8fe6-d4518f6dd1b0","ios":"levelo://app?vid=f1a587de-a4d9-42a8-8fe6-d4518f6dd1b0"},"vehicle_type_id":"4","last_reported":1728317436,"current_range_meters":11200,"station_id":"cpo3342slgdg3j2ifvpg","pricing_plan_id":"cebpf4jnsgd1na2vs0mg"},{"bike_id":"6b4618ac-bf15-42bd-b8ce-f62f3e28352b","system_id":"levelo_inurba_marseille","lat":43.23193,"lon":5.35554,"is_reserved":false,"is_disabled":false,"rental_uris":{"android":"levelo://app?vid=6b4618ac-bf15-42bd-b8ce-f62f3e28352b","ios":"levelo://app?vid=6b4618ac-bf15-42bd-b8ce-f62f3e28352b"},"vehicle_type_id":"4","last_reported":1728317436,"current_range_meters":32800,"station_id":"ce4bhu92rcd13ifvqi70","pricing_plan_id":"cebpf4jnsgd1na2vs0mg"},{"bike_id":"a69fd01b-3806-4b2c-a0dc-9fb7dfe4ac36","system_id":"levelo_inurba_marseille","lat":43.33026,"lon":5.39045,"is_reserved":false,"is_disabled":false,"rental_uris":{"android":"levelo://app?vid=a69fd01b-3806-4b2c-a0dc-9fb7dfe4ac36","ios":"levelo://app?vid=a69fd01b-3806-4b2c-a0dc-9fb7dfe4ac36"},"vehicle_type_id":"4","last_reported":1728317436,"current_range_meters":25600,"station_id":"ce4bhr92rcd13ifvqhrg","pricing_plan_id":"cebpf4jnsgd1na2vs0mg"},{"bike_id":"65cf87a0-f755-4c25-bc3f-c7bc1093ce46","system_id":"levelo_inurba_marseille","lat":43.33031,"lon":5.39049,"is_reserved":false,"is_disabled":false,"rental_uris":{"android":"levelo://app?vid=65cf87a0-f755-4c25-bc3f-c7bc1093ce46","ios":"levelo://app?vid=65cf87a0-f755-4c25-bc3f-c7bc1093ce46"},"vehicle_type_id":"4","last_reported":1728317436,"current_range_meters":22400,"station_id":"ce4bhr92rcd13ifvqhrg","pricing_plan_id":"cebpf4jnsgd1na2vs0mg"},{"bike_id":"8b9459e4-5c41-443b-a9bc-24b1de99621c","system_id":"levelo_inurba_marseille","lat":43.29898,"lon":5.4367,"is_reserved":false,"is_disabled":false,"rental_uris":{"android":"levelo://app?vid=8b9459e4-5c41-443b-a9bc-24b1de99621c","ios":"levelo://app?vid=8b9459e4-5c41-443b-a9bc-24b1de99621c"},"vehicle_type_id":"4","last_reported":1728317436,"current_range_meters":16800,"station_id":"ce4bhpp2rcd13ifvqhfg","pricing_plan_id":"cebpf4jnsgd1na2vs0mg"},{"bike_id":"f70a52c3-19ed-4a8d-8448-4c95fe9d982a","system_id":"levelo_inurba_marseille","lat":43.24812,"lon":5.37464,"is_reserved":false,"is_disabled":false,"rental_uris":{"android":"levelo://app?vid=f70a52c3-19ed-4a8d-8448-4c95fe9d982a","ios":"levelo://app?vid=f70a52c3-19ed-4a8d-8448-4c95fe9d982a"},"vehicle_type_id":"4","last_reported":1728317436,"current_range_meters":28400,"station_id":"ce4bhgh2rcd13ifvqfb0","pricing_plan_id":"cebpf4jnsgd1na2vs0mg"},{"bike_id":"4dbc9b22-4c46-419e-b5a6-9c9438a9829f","system_id":"levelo_inurba_marseille","lat":43.31359,"lon":5.38494,"is_reserved":false,"is_disabled":false,"rental_uris":{"android":"levelo://app?vid=4dbc9b22-4c46-419e-b5a6-9c9438a9829f","ios":"levelo://app?vid=4dbc9b22-4c46-419e-b5a6-9c9438a9829f"},"vehicle_type_id":"4","last_reported":1728317436,"current_range_meters":36400,"station_id":"ce4bgt92rcd13ifvqcf0","pricing_plan_id":"cebpf4jnsgd1na2vs0mg"},{"bike_id":"7494a003-e052-453b-83a6-141b25607758","system_id":"levelo_inurba_marseille","lat":43.30213,"lon":5.3946,"is_reserved":false,"is_disabled":false,"rental_uris":{"android":"levelo://app?vid=7494a003-e052-453b-83a6-141b25607758","ios":"levelo://app?vid=7494a003-e052-453b-83a6-141b25607758"},"vehicle_type_id":"4","last_reported":1728317436,"current_range_meters":8000,"station_id":"ce4bh0p2rcd13ifvqd70","pricing_plan_id":"cebpf4jnsgd1na2vs0mg"},{"bike_id":"b7d5f233-5cdb-48c7-b935-3dcf72595089","system_id":"levelo_inurba_marseille","lat":43.26557,"lon":5.37285,"is_reserved":false,"is_disabled":false,"rental_uris":{"android":"levelo://app?vid=b7d5f233-5cdb-48c7-b935-3dcf72595089","ios":"levelo://app?vid=b7d5f233-5cdb-48c7-b935-3dcf72595089"},"vehicle_type_id":"4","last_reported":1728317436,"current_range_meters":28800,"station_id":"ce4bhg12rcd13ifvqf70","pricing_plan_id":"cebpf4jnsgd1na2vs0mg"},{"bike_id":"926380f0-4ec2-45d5-8c58-de39b75f601e","system_id":"levelo_inurba_marseille","lat":43.23071,"lon":5.35498,"is_reserved":false,"is_disabled":false,"rental_uris":{"android":"levelo://app?vid=926380f0-4ec2-45d5-8c58-de39b75f601e","ios":"levelo://app?vid=926380f0-4ec2-45d5-8c58-de39b75f601e"},"vehicle_type_id":"4","last_reported":1728317436,"current_range_meters":16000,"station_id":"cpo3342slgdg3j2ifvpg","pricing_plan_id":"cebpf4jnsgd1na2vs0mg"},{"bike_id":"4277e319-3241-4732-b2a4-5298e526517a","system_id":"levelo_inurba_marseille","lat":43.29808,"lon":5.40424,"is_reserved":false,"is_disabled":false,"rental_uris":{"android":"levelo://app?vid=4277e319-3241-4732-b2a4-5298e526517a","ios":"levelo://app?vid=4277e319-3241-4732-b2a4-5298e526517a"},"vehicle_type_id":"4","last_reported":1728317436,"current_range_meters":30800,"station_id":"ce4bh112rcd13ifvqd90","pricing_plan_id":"cebpf4jnsgd1na2vs0mg"},{"bike_id":"404b4697-2249-46d0-afb0-44351c2d122f","system_id":"levelo_inurba_marseille","lat":43.29547,"lon":5.42272,"is_reserved":false,"is_disabled":false,"rental_uris":{"android":"levelo://app?vid=404b4697-2249-46d0-afb0-44351c2d122f","ios":"levelo://app?vid=404b4697-2249-46d0-afb0-44351c2d122f"},"vehicle_type_id":"4","last_reported":1728317436,"current_range_meters":22400,"station_id":"ce4bhph2rcd13ifvqhdg","pricing_plan_id":"cebpf4jnsgd1na2vs0mg"},{"bike_id":"e7fb5936-ea5d-4369-85a4-85843247cdd0","system_id":"levelo_inurba_marseille","lat":43.30866,"lon":5.37613,"is_reserved":false,"is_disabled":false,"rental_uris":{"android":"levelo://app?vid=e7fb5936-ea5d-4369-85a4-85843247cdd0","ios":"levelo://app?vid=e7fb5936-ea5d-4369-85a4-85843247cdd0"},"vehicle_type_id":"4","last_reported":1728317436,"current_range_meters":18800,"station_id":"","pricing_plan_id":"cebpf4jnsgd1na2vs0mg"},{"bike_id":"62c2c883-4a8b-4db6-bf23-ce685ecc4545","system_id":"levelo_inurba_marseille","lat":43.28701,"lon":5.37386,"is_reserved":false,"is_disabled":false,"rental_uris":{"android":"levelo://app?vid=62c2c883-4a8b-4db6-bf23-ce685ecc4545","ios":"levelo://app?vid=62c2c883-4a8b-4db6-bf23-ce685ecc4545"},"vehicle_type_id":"4","last_reported":1728317436,"current_range_meters":4000,"station_id":"ce4bh3p2rcd13ifvqdq0","pricing_plan_id":"cebpf4jnsgd1na2vs0mg"},{"bike_id":"0e69521a-cd11-4226-a774-b6e42611481a","system_id":"levelo_inurba_marseille","lat":43.27233,"lon":5.39094,"is_reserved":false,"is_disabled":false,"rental_uris":{"android":"levelo://app?vid=0e69521a-cd11-4226-a774-b6e42611481a","ios":"levelo://app?vid=0e69521a-cd11-4226-a774-b6e42611481a"},"vehicle_type_id":"4","last_reported":1728317436,"current_range_meters":16800,"station_id":"ce4bh392rcd13ifvqdl0","pricing_plan_id":"cebpf4jnsgd1na2vs0mg"},{"bike_id":"07385764-6ad0-48d7-9802-98983aa542bf","system_id":"levelo_inurba_marseille","lat":43.29265,"lon":5.40902,"is_reserved":false,"is_disabled":false,"rental_uris":{"android":"levelo://app?vid=07385764-6ad0-48d7-9802-98983aa542bf","ios":"levelo://app?vid=07385764-6ad0-48d7-9802-98983aa542bf"},"vehicle_type_id":"4","last_reported":1728317436,"current_range_meters":4800,"station_id":"ce4bh192rcd13ifvqdc0","pricing_plan_id":"cebpf4jnsgd1na2vs0mg"},{"bike_id":"7ce75e77-1307-49a7-84cb-3fb2d39296f9","system_id":"levelo_inurba_marseille","lat":43.32351,"lon":5.40637,"is_reserved":false,"is_disabled":false,"rental_uris":{"android":"levelo://app?vid=7ce75e77-1307-49a7-84cb-3fb2d39296f9","ios":"levelo://app?vid=7ce75e77-1307-49a7-84cb-3fb2d39296f9"},"vehicle_type_id":"4","last_reported":1728317436,"current_range_meters":6000,"station_id":"ce4bhq92rcd13ifvqhjg","pricing_plan_id":"cebpf4jnsgd1na2vs0mg"},{"bike_id":"50c09793-6ec3-4527-b35e-4ab184319d2f","system_id":"levelo_inurba_marseille","lat":43.27954,"lon":5.41048,"is_reserved":false,"is_disabled":false,"rental_uris":{"android":"levelo://app?vid=50c09793-6ec3-4527-b35e-4ab184319d2f","ios":"levelo://app?vid=50c09793-6ec3-4527-b35e-4ab184319d2f"},"vehicle_type_id":"4","last_reported":1728317436,"current_range_meters":30000,"station_id":"ce4bhnp2rcd13ifvqh0g","pricing_plan_id":"cebpf4jnsgd1na2vs0mg"},{"bike_id":"6d1eed5c-946a-4443-972f-1adb480c8b5d","system_id":"levelo_inurba_marseille","lat":43.30789,"lon":5.37655,"is_reserved":false,"is_disabled":false,"rental_uris":{"android":"levelo://app?vid=6d1eed5c-946a-4443-972f-1adb480c8b5d","ios":"levelo://app?vid=6d1eed5c-946a-4443-972f-1adb480c8b5d"},"vehicle_type_id":"4","last_reported":1728317436,"current_range_meters":16800,"station_id":"ce4bgv92rcd13ifvqcq0","pricing_plan_id":"cebpf4jnsgd1na2vs0mg"},{"bike_id":"792005ab-17f6-4cd8-8775-0167b80fbb3c","system_id":"levelo_inurba_marseille","lat":43.29634,"lon":5.40605,"is_reserved":false,"is_disabled":false,"rental_uris":{"android":"levelo://app?vid=792005ab-17f6-4cd8-8775-0167b80fbb3c","ios":"levelo://app?vid=792005ab-17f6-4cd8-8775-0167b80fbb3c"},"vehicle_type_id":"4","last_reported":1728317436,"current_range_meters":11600,"station_id":"ce4bh0h2rcd13ifvqd60","pricing_plan_id":"cebpf4jnsgd1na2vs0mg"},{"bike_id":"43dddd74-d741-42ab-91a9-1718b48f4943","system_id":"levelo_inurba_marseille","lat":43.28005,"lon":5.40012,"is_reserved":false,"is_disabled":false,"rental_uris":{"android":"levelo://app?vid=43dddd74-d741-42ab-91a9-1718b48f4943","ios":"levelo://app?vid=43dddd74-d741-42ab-91a9-1718b48f4943"},"vehicle_type_id":"4","last_reported":1728317436,"current_range_meters":8000,"station_id":"ce4bho92rcd13ifvqh4g","pricing_plan_id":"cebpf4jnsgd1na2vs0mg"},{"bike_id":"12e536ef-a7b7-4edf-8607-e8a78220c802","system_id":"levelo_inurba_marseille","lat":43.25037,"lon":5.39669,"is_reserved":false,"is_disabled":false,"rental_uris":{"android":"levelo://app?vid=12e536ef-a7b7-4edf-8607-e8a78220c802","ios":"levelo://app?vid=12e536ef-a7b7-4edf-8607-e8a78220c802"},"vehicle_type_id":"4","last_reported":1728317436,"current_range_meters":18000,"station_id":"","pricing_plan_id":"cebpf4jnsgd1na2vs0mg"},{"bike_id":"f676e657-7884-4bae-af9a-789134d2dd48","system_id":"levelo_inurba_marseille","lat":43.24666,"lon":5.38168,"is_reserved":false,"is_disabled":false,"rental_uris":{"android":"levelo://app?vid=f676e657-7884-4bae-af9a-789134d2dd48","ios":"levelo://app?vid=f676e657-7884-4bae-af9a-789134d2dd48"},"vehicle_type_id":"4","last_reported":1728317436,"current_range_meters":9600,"station_id":"ce4bhih2rcd13ifvqfr0","pricing_plan_id":"cebpf4jnsgd1na2vs0mg"},{"bike_id":"af101257-97d8-427d-926c-bfd575a5c827","system_id":"levelo_inurba_marseille","lat":43.23067,"lon":5.35486,"is_reserved":false,"is_disabled":false,"rental_uris":{"android":"levelo://app?vid=af101257-97d8-427d-926c-bfd575a5c827","ios":"levelo://app?vid=af101257-97d8-427d-926c-bfd575a5c827"},"vehicle_type_id":"4","last_reported":1728317436,"current_range_meters":9200,"station_id":"cpo3342slgdg3j2ifvpg","pricing_plan_id":"cebpf4jnsgd1na2vs0mg"},{"bike_id":"79d4ce44-dde0-4856-adfb-9d048612b764","system_id":"levelo_inurba_marseille","lat":43.241729,"lon":5.363967,"is_reserved":false,"is_disabled":false,"rental_uris":{"android":"levelo://app?vid=79d4ce44-dde0-4856-adfb-9d048612b764","ios":"levelo://app?vid=79d4ce44-dde0-4856-adfb-9d048612b764"},"vehicle_type_id":"4","last_reported":1728317436,"current_range_meters":28000,"station_id":"cpo36qri1sfpv3e86is0","pricing_plan_id":"cebpf4jnsgd1na2vs0mg"},{"bike_id":"36a08e6a-9719-4caa-9f21-a9ffb6dccffa","system_id":"levelo_inurba_marseille","lat":43.24808,"lon":5.37461,"is_reserved":false,"is_disabled":false,"rental_uris":{"android":"levelo://app?vid=36a08e6a-9719-4caa-9f21-a9ffb6dccffa","ios":"levelo://app?vid=36a08e6a-9719-4caa-9f21-a9ffb6dccffa"},"vehicle_type_id":"4","last_reported":1728317436,"current_range_meters":29600,"station_id":"ce4bhgh2rcd13ifvqfb0","pricing_plan_id":"cebpf4jnsgd1na2vs0mg"},{"bike_id":"6362dd7e-711b-4b82-af8e-291ea8f6ea1e","system_id":"levelo_inurba_marseille","lat":43.23068,"lon":5.35493,"is_reserved":false,"is_disabled":false,"rental_uris":{"android":"levelo://app?vid=6362dd7e-711b-4b82-af8e-291ea8f6ea1e","ios":"levelo://app?vid=6362dd7e-711b-4b82-af8e-291ea8f6ea1e"},"vehicle_type_id":"4","last_reported":1728317436,"current_range_meters":25600,"station_id":"cpo3342slgdg3j2ifvpg","pricing_plan_id":"cebpf4jnsgd1na2vs0mg"},{"bike_id":"5113d289-e20c-492f-844f-6188ff718d88","system_id":"levelo_inurba_marseille","lat":43.22937,"lon":5.35385,"is_reserved":false,"is_disabled":false,"rental_uris":{"android":"levelo://app?vid=5113d289-e20c-492f-844f-6188ff718d88","ios":"levelo://app?vid=5113d289-e20c-492f-844f-6188ff718d88"},"vehicle_type_id":"4","last_reported":1728317436,"current_range_meters":32400,"station_id":"cpo3532slgdg3j2ikp40","pricing_plan_id":"cebpf4jnsgd1na2vs0mg"},{"bike_id":"8aa77f63-de81-4042-80cc-6a85548cbec3","system_id":"levelo_inurba_marseille","lat":43.26552,"lon":5.37287,"is_reserved":false,"is_disabled":false,"rental_uris":{"android":"levelo://app?vid=8aa77f63-de81-4042-80cc-6a85548cbec3","ios":"levelo://app?vid=8aa77f63-de81-4042-80cc-6a85548cbec3"},"vehicle_type_id":"4","last_reported":1728317436,"current_range_meters":6800,"station_id":"ce4bhg12rcd13ifvqf70","pricing_plan_id":"cebpf4jnsgd1na2vs0mg"},{"bike_id":"43965e70-3bac-4d99-8df6-74c7e39e4b9e","system_id":"levelo_inurba_marseille","lat":43.30156,"lon":5.3808,"is_reserved":false,"is_disabled":false,"rental_uris":{"android":"levelo://app?vid=43965e70-3bac-4d99-8df6-74c7e39e4b9e","ios":"levelo://app?vid=43965e70-3bac-4d99-8df6-74c7e39e4b9e"},"vehicle_type_id":"4","last_reported":1728317436,"current_range_meters":16800,"station_id":"ce4bgjp2rcd13ifvqbh0","pricing_plan_id":"cebpf4jnsgd1na2vs0mg"},{"bike_id":"fbab334e-6568-46ac-88f7-b856d9d2d598","system_id":"levelo_inurba_marseille","lat":43.23196,"lon":5.35557,"is_reserved":false,"is_disabled":false,"rental_uris":{"android":"levelo://app?vid=fbab334e-6568-46ac-88f7-b856d9d2d598","ios":"levelo://app?vid=fbab334e-6568-46ac-88f7-b856d9d2d598"},"vehicle_type_id":"4","last_reported":1728317436,"current_range_meters":38800,"station_id":"ce4bhu92rcd13ifvqi70","pricing_plan_id":"cebpf4jnsgd1na2vs0mg"},{"bike_id":"ca06f500-fdb8-4316-9347-00462f47e52b","system_id":"levelo_inurba_marseille","lat":43.25497,"lon":5.37642,"is_reserved":false,"is_disabled":false,"rental_uris":{"android":"levelo://app?vid=ca06f500-fdb8-4316-9347-00462f47e52b","ios":"levelo://app?vid=ca06f500-fdb8-4316-9347-00462f47e52b"},"vehicle_type_id":"4","last_reported":1728317436,"current_range_meters":10800,"station_id":"ce4bhh12rcd13ifvqff0","pricing_plan_id":"cebpf4jnsgd1na2vs0mg"},{"bike_id":"a075c398-dbae-4a34-a670-936065ab484f","system_id":"levelo_inurba_marseille","lat":43.29003,"lon":5.35616,"is_reserved":false,"is_disabled":false,"rental_uris":{"android":"levelo://app?vid=a075c398-dbae-4a34-a670-936065ab484f","ios":"levelo://app?vid=a075c398-dbae-4a34-a670-936065ab484f"},"vehicle_type_id":"4","last_reported":1728317436,"current_range_meters":16000,"station_id":"ce4bhb92rcd13ifvqen0","pricing_plan_id":"cebpf4jnsgd1na2vs0mg"},{"bike_id":"096c3c52-ea66-4fc7-aedf-0f68535ced1d","system_id":"levelo_inurba_marseille","lat":43.23884,"lon":5.39532,"is_reserved":false,"is_disabled":false,"rental_uris":{"android":"levelo://app?vid=096c3c52-ea66-4fc7-aedf-0f68535ced1d","ios":"levelo://app?vid=096c3c52-ea66-4fc7-aedf-0f68535ced1d"},"vehicle_type_id":"4","last_reported":1728317436,"current_range_meters":5600,"station_id":"","pricing_plan_id":"cebpf4jnsgd1na2vs0mg"},{"bike_id":"6cd1e758-c2fe-4139-aea3-1fa904f4803e","system_id":"levelo_inurba_marseille","lat":43.28364,"lon":5.38633,"is_reserved":false,"is_disabled":false,"rental_uris":{"android":"levelo://app?vid=6cd1e758-c2fe-4139-aea3-1fa904f4803e","ios":"levelo://app?vid=6cd1e758-c2fe-4139-aea3-1fa904f4803e"},"vehicle_type_id":"4","last_reported":1728317436,"current_range_meters":8400,"station_id":"ce4bh492rcd13ifvqdvg","pricing_plan_id":"cebpf4jnsgd1na2vs0mg"},{"bike_id":"ac63b881-53ef-4e4b-b5e6-9f4914bcf168","system_id":"levelo_inurba_marseille","lat":43.23054,"lon":5.35491,"is_reserved":false,"is_disabled":false,"rental_uris":{"android":"levelo://app?vid=ac63b881-53ef-4e4b-b5e6-9f4914bcf168","ios":"levelo://app?vid=ac63b881-53ef-4e4b-b5e6-9f4914bcf168"},"vehicle_type_id":"4","last_reported":1728317436,"current_range_meters":36000,"station_id":"cpo3342slgdg3j2ifvpg","pricing_plan_id":"cebpf4jnsgd1na2vs0mg"},{"bike_id":"10e2cad8-5b87-4361-a750-816e7c888c91","system_id":"levelo_inurba_marseille","lat":43.23061,"lon":5.35497,"is_reserved":false,"is_disabled":false,"rental_uris":{"android":"levelo://app?vid=10e2cad8-5b87-4361-a750-816e7c888c91","ios":"levelo://app?vid=10e2cad8-5b87-4361-a750-816e7c888c91"},"vehicle_type_id":"4","last_reported":1728317436,"current_range_meters":25600,"station_id":"cpo3342slgdg3j2ifvpg","pricing_plan_id":"cebpf4jnsgd1na2vs0mg"},{"bike_id":"d2e4e863-8004-4a69-958f-9112d1264cb3","system_id":"levelo_inurba_marseille","lat":43.330244,"lon":5.390373,"is_reserved":false,"is_disabled":false,"rental_uris":{"android":"levelo://app?vid=d2e4e863-8004-4a69-958f-9112d1264cb3","ios":"levelo://app?vid=d2e4e863-8004-4a69-958f-9112d1264cb3"},"vehicle_type_id":"4","last_reported":1728317436,"current_range_meters":22800,"station_id":"ce4bhr92rcd13ifvqhrg","pricing_plan_id":"cebpf4jnsgd1na2vs0mg"},{"bike_id":"58c5dd40-a1e2-47f3-999f-a2630087bb98","system_id":"levelo_inurba_marseille","lat":43.30438,"lon":5.38907,"is_reserved":false,"is_disabled":false,"rental_uris":{"android":"levelo://app?vid=58c5dd40-a1e2-47f3-999f-a2630087bb98","ios":"levelo://app?vid=58c5dd40-a1e2-47f3-999f-a2630087bb98"},"vehicle_type_id":"4","last_reported":1728317436,"current_range_meters":14400,"station_id":"ce4bgk12rcd13ifvqbi0","pricing_plan_id":"cebpf4jnsgd1na2vs0mg"},{"bike_id":"71c94fb6-80ff-4ef8-a95b-b06b1532beb2","system_id":"levelo_inurba_marseille","lat":43.28572,"lon":5.395,"is_reserved":false,"is_disabled":false,"rental_uris":{"android":"levelo://app?vid=71c94fb6-80ff-4ef8-a95b-b06b1532beb2","ios":"levelo://app?vid=71c94fb6-80ff-4ef8-a95b-b06b1532beb2"},"vehicle_type_id":"4","last_reported":1728317436,"current_range_meters":8800,"station_id":"ce4bh292rcd13ifvqdg0","pricing_plan_id":"cebpf4jnsgd1na2vs0mg"},{"bike_id":"1f051470-94a4-4881-ab48-08232e0e948e","system_id":"levelo_inurba_marseille","lat":43.23194,"lon":5.35555,"is_reserved":false,"is_disabled":false,"rental_uris":{"android":"levelo://app?vid=1f051470-94a4-4881-ab48-08232e0e948e","ios":"levelo://app?vid=1f051470-94a4-4881-ab48-08232e0e948e"},"vehicle_type_id":"4","last_reported":1728317436,"current_range_meters":11200,"station_id":"ce4bhu92rcd13ifvqi70","pricing_plan_id":"cebpf4jnsgd1na2vs0mg"},{"bike_id":"9e3fe2e1-eca8-4201-b615-2eaf2b4dc3f2","system_id":"levelo_inurba_marseille","lat":43.23197,"lon":5.35555,"is_reserved":false,"is_disabled":false,"rental_uris":{"android":"levelo://app?vid=9e3fe2e1-eca8-4201-b615-2eaf2b4dc3f2","ios":"levelo://app?vid=9e3fe2e1-eca8-4201-b615-2eaf2b4dc3f2"},"vehicle_type_id":"4","last_reported":1728317436,"current_range_meters":5600,"station_id":"ce4bhu92rcd13ifvqi70","pricing_plan_id":"cebpf4jnsgd1na2vs0mg"},{"bike_id":"5c56a3bd-eee6-46f6-9565-18e2d60b4a2a","system_id":"levelo_inurba_marseille","lat":43.24166,"lon":5.36398,"is_reserved":false,"is_disabled":false,"rental_uris":{"android":"levelo://app?vid=5c56a3bd-eee6-46f6-9565-18e2d60b4a2a","ios":"levelo://app?vid=5c56a3bd-eee6-46f6-9565-18e2d60b4a2a"},"vehicle_type_id":"4","last_reported":1728317436,"current_range_meters":30000,"station_id":"cpo36qri1sfpv3e86is0","pricing_plan_id":"cebpf4jnsgd1na2vs0mg"},{"bike_id":"be446fa0-5d99-4a2d-b12b-6757552773d5","system_id":"levelo_inurba_marseille","lat":43.29194,"lon":5.39323,"is_reserved":false,"is_disabled":false,"rental_uris":{"android":"levelo://app?vid=be446fa0-5d99-4a2d-b12b-6757552773d5","ios":"levelo://app?vid=be446fa0-5d99-4a2d-b12b-6757552773d5"},"vehicle_type_id":"4","last_reported":1728317436,"current_range_meters":4400,"station_id":"ce4bh192rcd13ifvqdd0","pricing_plan_id":"cebpf4jnsgd1na2vs0mg"},{"bike_id":"8d48b785-90e5-4c34-b2e9-91307dc9d594","system_id":"levelo_inurba_marseille","lat":43.28,"lon":5.40021,"is_reserved":false,"is_disabled":false,"rental_uris":{"android":"levelo://app?vid=8d48b785-90e5-4c34-b2e9-91307dc9d594","ios":"levelo://app?vid=8d48b785-90e5-4c34-b2e9-91307dc9d594"},"vehicle_type_id":"4","last_reported":1728317436,"current_range_meters":38800,"station_id":"ce4bho92rcd13ifvqh4g","pricing_plan_id":"cebpf4jnsgd1na2vs0mg"},{"bike_id":"5567a12b-8b2b-4bff-aec5-4ab11e3bcbeb","system_id":"levelo_inurba_marseille","lat":43.280073,"lon":5.41673,"is_reserved":false,"is_disabled":false,"rental_uris":{"android":"levelo://app?vid=5567a12b-8b2b-4bff-aec5-4ab11e3bcbeb","ios":"levelo://app?vid=5567a12b-8b2b-4bff-aec5-4ab11e3bcbeb"},"vehicle_type_id":"4","last_reported":1728317436,"current_range_meters":27600,"station_id":"ce4bho12rcd13ifvqh1g","pricing_plan_id":"cebpf4jnsgd1na2vs0mg"},{"bike_id":"00ac3aef-1c11-4805-a8bb-e168106f7088","system_id":"levelo_inurba_marseille","lat":43.30608,"lon":5.3722,"is_reserved":false,"is_disabled":false,"rental_uris":{"android":"levelo://app?vid=00ac3aef-1c11-4805-a8bb-e168106f7088","ios":"levelo://app?vid=00ac3aef-1c11-4805-a8bb-e168106f7088"},"vehicle_type_id":"4","last_reported":1728317436,"current_range_meters":38800,"station_id":"ce4bgqh2rcd13ifvqc4g","pricing_plan_id":"cebpf4jnsgd1na2vs0mg"},{"bike_id":"c8f0c310-9b4a-4d29-8d49-941a6ac22422","system_id":"levelo_inurba_marseille","lat":43.28857,"lon":5.35857,"is_reserved":false,"is_disabled":false,"rental_uris":{"android":"levelo://app?vid=c8f0c310-9b4a-4d29-8d49-941a6ac22422","ios":"levelo://app?vid=c8f0c310-9b4a-4d29-8d49-941a6ac22422"},"vehicle_type_id":"4","last_reported":1728317436,"current_range_meters":27600,"station_id":"ce4bhb12rcd13ifvqem0","pricing_plan_id":"cebpf4jnsgd1na2vs0mg"},{"bike_id":"8b10cb9f-15d9-4eb9-a18e-896430cdcbda","system_id":"levelo_inurba_marseille","lat":43.32018,"lon":5.40796,"is_reserved":false,"is_disabled":false,"rental_uris":{"android":"levelo://app?vid=8b10cb9f-15d9-4eb9-a18e-896430cdcbda","ios":"levelo://app?vid=8b10cb9f-15d9-4eb9-a18e-896430cdcbda"},"vehicle_type_id":"4","last_reported":1728317436,"current_range_meters":32800,"station_id":"ce4bhq92rcd13ifvqhjg","pricing_plan_id":"cebpf4jnsgd1na2vs0mg"},{"bike_id":"2294fadb-ed37-48c6-888c-79f98deee6dd","system_id":"levelo_inurba_marseille","lat":43.29418,"lon":5.3863,"is_reserved":false,"is_disabled":false,"rental_uris":{"android":"levelo://app?vid=2294fadb-ed37-48c6-888c-79f98deee6dd","ios":"levelo://app?vid=2294fadb-ed37-48c6-888c-79f98deee6dd"},"vehicle_type_id":"4","last_reported":1728317436,"current_range_meters":18000,"station_id":"ce4bh2h2rcd13ifvqdh0","pricing_plan_id":"cebpf4jnsgd1na2vs0mg"},{"bike_id":"4bc49598-a9a6-4eb9-b9b1-1cda8d67cb04","system_id":"levelo_inurba_marseille","lat":43.283455,"lon":5.38098,"is_reserved":false,"is_disabled":false,"rental_uris":{"android":"levelo://app?vid=4bc49598-a9a6-4eb9-b9b1-1cda8d67cb04","ios":"levelo://app?vid=4bc49598-a9a6-4eb9-b9b1-1cda8d67cb04"},"vehicle_type_id":"4","last_reported":1728317436,"current_range_meters":24400,"station_id":"ce4bh412rcd13ifvqdr0","pricing_plan_id":"cebpf4jnsgd1na2vs0mg"},{"bike_id":"9c494a09-9a69-406d-ab19-4148012e6ae8","system_id":"levelo_inurba_marseille","lat":43.271851,"lon":5.399994,"is_reserved":false,"is_disabled":false,"rental_uris":{"android":"levelo://app?vid=9c494a09-9a69-406d-ab19-4148012e6ae8","ios":"levelo://app?vid=9c494a09-9a69-406d-ab19-4148012e6ae8"},"vehicle_type_id":"4","last_reported":1728317436,"current_range_meters":1200,"station_id":"ce4bhnh2rcd13ifvqgtg","pricing_plan_id":"cebpf4jnsgd1na2vs0mg"},{"bike_id":"7de1dfe2-10be-4d1c-87cd-ba8becc4df3c","system_id":"levelo_inurba_marseille","lat":43.29435,"lon":5.39765,"is_reserved":false,"is_disabled":false,"rental_uris":{"android":"levelo://app?vid=7de1dfe2-10be-4d1c-87cd-ba8becc4df3c","ios":"levelo://app?vid=7de1dfe2-10be-4d1c-87cd-ba8becc4df3c"},"vehicle_type_id":"4","last_reported":1728317436,"current_range_meters":16400,"station_id":"ce4bh3h2rcd13ifvqdo0","pricing_plan_id":"cebpf4jnsgd1na2vs0mg"},{"bike_id":"453acb5d-c897-4a67-ab6c-4198714aebc1","system_id":"levelo_inurba_marseille","lat":43.23066,"lon":5.35488,"is_reserved":false,"is_disabled":false,"rental_uris":{"android":"levelo://app?vid=453acb5d-c897-4a67-ab6c-4198714aebc1","ios":"levelo://app?vid=453acb5d-c897-4a67-ab6c-4198714aebc1"},"vehicle_type_id":"4","last_reported":1728317436,"current_range_meters":6800,"station_id":"cpo3342slgdg3j2ifvpg","pricing_plan_id":"cebpf4jnsgd1na2vs0mg"},{"bike_id":"f997df17-27e4-4d1f-8d9c-0538b7575e96","system_id":"levelo_inurba_marseille","lat":43.28464,"lon":5.35897,"is_reserved":false,"is_disabled":false,"rental_uris":{"android":"levelo://app?vid=f997df17-27e4-4d1f-8d9c-0538b7575e96","ios":"levelo://app?vid=f997df17-27e4-4d1f-8d9c-0538b7575e96"},"vehicle_type_id":"4","last_reported":1728317436,"current_range_meters":38800,"station_id":"ce4bhah2rcd13ifvqei0","pricing_plan_id":"cebpf4jnsgd1na2vs0mg"},{"bike_id":"5d98e0b3-1c48-4bce-8ffe-0e2c2ea088a0","system_id":"levelo_inurba_marseille","lat":43.23056,"lon":5.35491,"is_reserved":false,"is_disabled":false,"rental_uris":{"android":"levelo://app?vid=5d98e0b3-1c48-4bce-8ffe-0e2c2ea088a0","ios":"levelo://app?vid=5d98e0b3-1c48-4bce-8ffe-0e2c2ea088a0"},"vehicle_type_id":"4","last_reported":1728317436,"current_range_meters":36000,"station_id":"cpo3342slgdg3j2ifvpg","pricing_plan_id":"cebpf4jnsgd1na2vs0mg"},{"bike_id":"a85a17c0-87f3-4602-9d55-83fba0eac568","system_id":"levelo_inurba_marseille","lat":43.33723,"lon":5.39186,"is_reserved":false,"is_disabled":false,"rental_uris":{"android":"levelo://app?vid=a85a17c0-87f3-4602-9d55-83fba0eac568","ios":"levelo://app?vid=a85a17c0-87f3-4602-9d55-83fba0eac568"},"vehicle_type_id":"4","last_reported":1728317436,"current_range_meters":7200,"station_id":"ce4bhr92rcd13ifvqhsg","pricing_plan_id":"cebpf4jnsgd1na2vs0mg"},{"bike_id":"e270a9ca-84e8-4848-a582-e495af1f14e2","system_id":"levelo_inurba_marseille","lat":43.306461,"lon":5.379986,"is_reserved":false,"is_disabled":false,"rental_uris":{"android":"levelo://app?vid=e270a9ca-84e8-4848-a582-e495af1f14e2","ios":"levelo://app?vid=e270a9ca-84e8-4848-a582-e495af1f14e2"},"vehicle_type_id":"4","last_reported":1728317436,"current_range_meters":12800,"station_id":"","pricing_plan_id":"cebpf4jnsgd1na2vs0mg"},{"bike_id":"1c2a7ea2-e2fa-4939-b755-ead12eeae790","system_id":"levelo_inurba_marseille","lat":43.28396,"lon":5.38216,"is_reserved":false,"is_disabled":false,"rental_uris":{"android":"levelo://app?vid=1c2a7ea2-e2fa-4939-b755-ead12eeae790","ios":"levelo://app?vid=1c2a7ea2-e2fa-4939-b755-ead12eeae790"},"vehicle_type_id":"4","last_reported":1728317436,"current_range_meters":4400,"station_id":"ce4bhf92rcd13ifvqf50","pricing_plan_id":"cebpf4jnsgd1na2vs0mg"},{"bike_id":"4cfd9dce-433b-4ab3-b089-b283ab88a450","system_id":"levelo_inurba_marseille","lat":43.25584,"lon":5.38231,"is_reserved":false,"is_disabled":false,"rental_uris":{"android":"levelo://app?vid=4cfd9dce-433b-4ab3-b089-b283ab88a450","ios":"levelo://app?vid=4cfd9dce-433b-4ab3-b089-b283ab88a450"},"vehicle_type_id":"4","last_reported":1728317436,"current_range_meters":18000,"station_id":"ce4bhih2rcd13ifvqfs0","pricing_plan_id":"cebpf4jnsgd1na2vs0mg"},{"bike_id":"9d0f07ad-4e81-4772-be69-e1d4fb3d382e","system_id":"levelo_inurba_marseille","lat":43.29557,"lon":5.42283,"is_reserved":false,"is_disabled":false,"rental_uris":{"android":"levelo://app?vid=9d0f07ad-4e81-4772-be69-e1d4fb3d382e","ios":"levelo://app?vid=9d0f07ad-4e81-4772-be69-e1d4fb3d382e"},"vehicle_type_id":"4","last_reported":1728317436,"current_range_meters":36400,"station_id":"ce4bhph2rcd13ifvqhdg","pricing_plan_id":"cebpf4jnsgd1na2vs0mg"},{"bike_id":"93eb450b-61da-457a-b8f2-c5aca727cacb","system_id":"levelo_inurba_marseille","lat":43.24649,"lon":5.40301,"is_reserved":false,"is_disabled":false,"rental_uris":{"android":"levelo://app?vid=93eb450b-61da-457a-b8f2-c5aca727cacb","ios":"levelo://app?vid=93eb450b-61da-457a-b8f2-c5aca727cacb"},"vehicle_type_id":"4","last_reported":1728317436,"current_range_meters":24800,"station_id":"","pricing_plan_id":"cebpf4jnsgd1na2vs0mg"},{"bike_id":"2eb1180c-3c37-45a8-8c05-d2fd624d984f","system_id":"levelo_inurba_marseille","lat":43.23061,"lon":5.35499,"is_reserved":false,"is_disabled":false,"rental_uris":{"android":"levelo://app?vid=2eb1180c-3c37-45a8-8c05-d2fd624d984f","ios":"levelo://app?vid=2eb1180c-3c37-45a8-8c05-d2fd624d984f"},"vehicle_type_id":"4","last_reported":1728317436,"current_range_meters":25200,"station_id":"cpo3342slgdg3j2ifvpg","pricing_plan_id":"cebpf4jnsgd1na2vs0mg"},{"bike_id":"5f5fdd06-0802-4999-8ada-0434a81b9b68","system_id":"levelo_inurba_marseille","lat":43.31713,"lon":5.37747,"is_reserved":false,"is_disabled":false,"rental_uris":{"android":"levelo://app?vid=5f5fdd06-0802-4999-8ada-0434a81b9b68","ios":"levelo://app?vid=5f5fdd06-0802-4999-8ada-0434a81b9b68"},"vehicle_type_id":"4","last_reported":1728317436,"current_range_meters":27600,"station_id":"ce4bgth2rcd13ifvqch0","pricing_plan_id":"cebpf4jnsgd1na2vs0mg"},{"bike_id":"a1b7d63d-3d76-4b09-ae1e-a9808ca0cb87","system_id":"levelo_inurba_marseille","lat":43.293091,"lon":5.371794,"is_reserved":false,"is_disabled":false,"rental_uris":{"android":"levelo://app?vid=a1b7d63d-3d76-4b09-ae1e-a9808ca0cb87","ios":"levelo://app?vid=a1b7d63d-3d76-4b09-ae1e-a9808ca0cb87"},"vehicle_type_id":"4","last_reported":1728317436,"current_range_meters":16400,"station_id":"ce4bh012rcd13ifvqcv0","pricing_plan_id":"cebpf4jnsgd1na2vs0mg"},{"bike_id":"c6fc2f26-99f2-46a3-b355-a822d72fb732","system_id":"levelo_inurba_marseille","lat":43.32292,"lon":5.38278,"is_reserved":false,"is_disabled":false,"rental_uris":{"android":"levelo://app?vid=c6fc2f26-99f2-46a3-b355-a822d72fb732","ios":"levelo://app?vid=c6fc2f26-99f2-46a3-b355-a822d72fb732"},"vehicle_type_id":"4","last_reported":1728317436,"current_range_meters":25200,"station_id":"ce4bhr12rcd13ifvqhqg","pricing_plan_id":"cebpf4jnsgd1na2vs0mg"},{"bike_id":"5fd65ad3-c3b6-4367-a6e1-efdf9caa34ae","system_id":"levelo_inurba_marseille","lat":43.24167,"lon":5.36394,"is_reserved":false,"is_disabled":false,"rental_uris":{"android":"levelo://app?vid=5fd65ad3-c3b6-4367-a6e1-efdf9caa34ae","ios":"levelo://app?vid=5fd65ad3-c3b6-4367-a6e1-efdf9caa34ae"},"vehicle_type_id":"4","last_reported":1728317436,"current_range_meters":32400,"station_id":"cpo36qri1sfpv3e86is0","pricing_plan_id":"cebpf4jnsgd1na2vs0mg"},{"bike_id":"9d0771d9-fe9f-4689-a07e-c2febac6931c","system_id":"levelo_inurba_marseille","lat":43.26557,"lon":5.37284,"is_reserved":false,"is_disabled":false,"rental_uris":{"android":"levelo://app?vid=9d0771d9-fe9f-4689-a07e-c2febac6931c","ios":"levelo://app?vid=9d0771d9-fe9f-4689-a07e-c2febac6931c"},"vehicle_type_id":"4","last_reported":1728317436,"current_range_meters":22000,"station_id":"ce4bhg12rcd13ifvqf70","pricing_plan_id":"cebpf4jnsgd1na2vs0mg"},{"bike_id":"e1aead42-599d-492a-bce7-0cc741e8a87f","system_id":"levelo_inurba_marseille","lat":43.26555,"lon":5.37298,"is_reserved":false,"is_disabled":false,"rental_uris":{"android":"levelo://app?vid=e1aead42-599d-492a-bce7-0cc741e8a87f","ios":"levelo://app?vid=e1aead42-599d-492a-bce7-0cc741e8a87f"},"vehicle_type_id":"4","last_reported":1728317436,"current_range_meters":20800,"station_id":"ce4bhg12rcd13ifvqf70","pricing_plan_id":"cebpf4jnsgd1na2vs0mg"},{"bike_id":"26c4927c-2ab3-4651-9770-e79a448b7940","system_id":"levelo_inurba_marseille","lat":43.29532,"lon":5.38554,"is_reserved":false,"is_disabled":false,"rental_uris":{"android":"levelo://app?vid=26c4927c-2ab3-4651-9770-e79a448b7940","ios":"levelo://app?vid=26c4927c-2ab3-4651-9770-e79a448b7940"},"vehicle_type_id":"4","last_reported":1728317436,"current_range_meters":14000,"station_id":"ce4bgih2rcd13ifvqba0","pricing_plan_id":"cebpf4jnsgd1na2vs0mg"},{"bike_id":"fd3ff965-4f00-4893-8831-3694e09c671a","system_id":"levelo_inurba_marseille","lat":43.27925,"lon":5.39586,"is_reserved":false,"is_disabled":false,"rental_uris":{"android":"levelo://app?vid=fd3ff965-4f00-4893-8831-3694e09c671a","ios":"levelo://app?vid=fd3ff965-4f00-4893-8831-3694e09c671a"},"vehicle_type_id":"4","last_reported":1728317436,"current_range_meters":9200,"station_id":"ce4bhf92rcd13ifvqf40","pricing_plan_id":"cebpf4jnsgd1na2vs0mg"},{"bike_id":"d0295cb1-33cc-4dae-94fa-d7fa9228e8e6","system_id":"levelo_inurba_marseille","lat":43.28695,"lon":5.37403,"is_reserved":false,"is_disabled":false,"rental_uris":{"android":"levelo://app?vid=d0295cb1-33cc-4dae-94fa-d7fa9228e8e6","ios":"levelo://app?vid=d0295cb1-33cc-4dae-94fa-d7fa9228e8e6"},"vehicle_type_id":"4","last_reported":1728317436,"current_range_meters":8400,"station_id":"ce4bh3p2rcd13ifvqdq0","pricing_plan_id":"cebpf4jnsgd1na2vs0mg"},{"bike_id":"4aa3d252-1e16-4376-ad72-72f83695ae26","system_id":"levelo_inurba_marseille","lat":43.25094,"lon":5.39529,"is_reserved":false,"is_disabled":false,"rental_uris":{"android":"levelo://app?vid=4aa3d252-1e16-4376-ad72-72f83695ae26","ios":"levelo://app?vid=4aa3d252-1e16-4376-ad72-72f83695ae26"},"vehicle_type_id":"4","last_reported":1728317436,"current_range_meters":20000,"station_id":"ce4bhm12rcd13ifvqgkg","pricing_plan_id":"cebpf4jnsgd1na2vs0mg"},{"bike_id":"8e7bb989-a70b-4c45-a6e2-ea3012fe5dbc","system_id":"levelo_inurba_marseille","lat":43.28466,"lon":5.35905,"is_reserved":false,"is_disabled":false,"rental_uris":{"android":"levelo://app?vid=8e7bb989-a70b-4c45-a6e2-ea3012fe5dbc","ios":"levelo://app?vid=8e7bb989-a70b-4c45-a6e2-ea3012fe5dbc"},"vehicle_type_id":"4","last_reported":1728317436,"current_range_meters":16400,"station_id":"ce4bhah2rcd13ifvqei0","pricing_plan_id":"cebpf4jnsgd1na2vs0mg"},{"bike_id":"c0817f98-e025-42d7-9543-9384286057f2","system_id":"levelo_inurba_marseille","lat":43.2622,"lon":5.37445,"is_reserved":false,"is_disabled":false,"rental_uris":{"android":"levelo://app?vid=c0817f98-e025-42d7-9543-9384286057f2","ios":"levelo://app?vid=c0817f98-e025-42d7-9543-9384286057f2"},"vehicle_type_id":"4","last_reported":1728317436,"current_range_meters":20800,"station_id":"ce4bhgp2rcd13ifvqfc0","pricing_plan_id":"cebpf4jnsgd1na2vs0mg"},{"bike_id":"846984a2-b212-4bbb-a13a-656e47b7f4d4","system_id":"levelo_inurba_marseille","lat":43.29114,"lon":5.36061,"is_reserved":false,"is_disabled":false,"rental_uris":{"android":"levelo://app?vid=846984a2-b212-4bbb-a13a-656e47b7f4d4","ios":"levelo://app?vid=846984a2-b212-4bbb-a13a-656e47b7f4d4"},"vehicle_type_id":"4","last_reported":1728317436,"current_range_meters":4000,"station_id":"","pricing_plan_id":"cebpf4jnsgd1na2vs0mg"},{"bike_id":"be3b53a3-24ed-43aa-b197-d2e8fd789838","system_id":"levelo_inurba_marseille","lat":43.29815,"lon":5.38096,"is_reserved":false,"is_disabled":false,"rental_uris":{"android":"levelo://app?vid=be3b53a3-24ed-43aa-b197-d2e8fd789838","ios":"levelo://app?vid=be3b53a3-24ed-43aa-b197-d2e8fd789838"},"vehicle_type_id":"4","last_reported":1728317436,"current_range_meters":38000,"station_id":"ce4bgip2rcd13ifvqbb0","pricing_plan_id":"cebpf4jnsgd1na2vs0mg"},{"bike_id":"ad95af84-9510-49a3-a7ef-2684b93d730d","system_id":"levelo_inurba_marseille","lat":43.29926,"lon":5.36555,"is_reserved":false,"is_disabled":false,"rental_uris":{"android":"levelo://app?vid=ad95af84-9510-49a3-a7ef-2684b93d730d","ios":"levelo://app?vid=ad95af84-9510-49a3-a7ef-2684b93d730d"},"vehicle_type_id":"4","last_reported":1728317436,"current_range_meters":14800,"station_id":"ce4bgm92rcd13ifvqbr0","pricing_plan_id":"cebpf4jnsgd1na2vs0mg"},{"bike_id":"665a7d0c-6e4a-4ec7-9fd0-7725a44990ff","system_id":"levelo_inurba_marseille","lat":43.30605,"lon":5.43554,"is_reserved":false,"is_disabled":false,"rental_uris":{"android":"levelo://app?vid=665a7d0c-6e4a-4ec7-9fd0-7725a44990ff","ios":"levelo://app?vid=665a7d0c-6e4a-4ec7-9fd0-7725a44990ff"},"vehicle_type_id":"4","last_reported":1728317436,"current_range_meters":8800,"station_id":"ce4bhph2rcd13ifvqheg","pricing_plan_id":"cebpf4jnsgd1na2vs0mg"},{"bike_id":"91476158-b447-4b2c-af37-f29986a928d5","system_id":"levelo_inurba_marseille","lat":43.3112,"lon":5.3778,"is_reserved":false,"is_disabled":false,"rental_uris":{"android":"levelo://app?vid=91476158-b447-4b2c-af37-f29986a928d5","ios":"levelo://app?vid=91476158-b447-4b2c-af37-f29986a928d5"},"vehicle_type_id":"4","last_reported":1728317436,"current_range_meters":6800,"station_id":"ce4bgt92rcd13ifvqcg0","pricing_plan_id":"cebpf4jnsgd1na2vs0mg"},{"bike_id":"937afa9a-a938-4a8e-a160-0b7f2dc8a5c3","system_id":"levelo_inurba_marseille","lat":43.23062,"lon":5.35493,"is_reserved":false,"is_disabled":false,"rental_uris":{"android":"levelo://app?vid=937afa9a-a938-4a8e-a160-0b7f2dc8a5c3","ios":"levelo://app?vid=937afa9a-a938-4a8e-a160-0b7f2dc8a5c3"},"vehicle_type_id":"4","last_reported":1728317436,"current_range_meters":14800,"station_id":"cpo3342slgdg3j2ifvpg","pricing_plan_id":"cebpf4jnsgd1na2vs0mg"},{"bike_id":"3ab05678-d4ab-490a-b2d8-8e36f89187ef","system_id":"levelo_inurba_marseille","lat":43.2512,"lon":5.40319,"is_reserved":false,"is_disabled":false,"rental_uris":{"android":"levelo://app?vid=3ab05678-d4ab-490a-b2d8-8e36f89187ef","ios":"levelo://app?vid=3ab05678-d4ab-490a-b2d8-8e36f89187ef"},"vehicle_type_id":"4","last_reported":1728317436,"current_range_meters":20400,"station_id":"ce4bhlh2rcd13ifvqgig","pricing_plan_id":"cebpf4jnsgd1na2vs0mg"},{"bike_id":"bf1b1f6f-5463-43b8-8edf-0e4c2125871a","system_id":"levelo_inurba_marseille","lat":43.25579,"lon":5.38231,"is_reserved":false,"is_disabled":false,"rental_uris":{"android":"levelo://app?vid=bf1b1f6f-5463-43b8-8edf-0e4c2125871a","ios":"levelo://app?vid=bf1b1f6f-5463-43b8-8edf-0e4c2125871a"},"vehicle_type_id":"4","last_reported":1728317436,"current_range_meters":38000,"station_id":"ce4bhih2rcd13ifvqfs0","pricing_plan_id":"cebpf4jnsgd1na2vs0mg"},{"bike_id":"d39e9adc-2bbc-4869-b1ca-cd74c7dda9a6","system_id":"levelo_inurba_marseille","lat":43.23055,"lon":5.35493,"is_reserved":false,"is_disabled":false,"rental_uris":{"android":"levelo://app?vid=d39e9adc-2bbc-4869-b1ca-cd74c7dda9a6","ios":"levelo://app?vid=d39e9adc-2bbc-4869-b1ca-cd74c7dda9a6"},"vehicle_type_id":"4","last_reported":1728317436,"current_range_meters":36800,"station_id":"cpo3342slgdg3j2ifvpg","pricing_plan_id":"cebpf4jnsgd1na2vs0mg"},{"bike_id":"eb932041-ab03-4458-8aa6-2eec1b639106","system_id":"levelo_inurba_marseille","lat":43.28415,"lon":5.37525,"is_reserved":false,"is_disabled":false,"rental_uris":{"android":"levelo://app?vid=eb932041-ab03-4458-8aa6-2eec1b639106","ios":"levelo://app?vid=eb932041-ab03-4458-8aa6-2eec1b639106"},"vehicle_type_id":"4","last_reported":1728317436,"current_range_meters":11600,"station_id":"ce4bh412rcd13ifvqds0","pricing_plan_id":"cebpf4jnsgd1na2vs0mg"},{"bike_id":"b4e85788-c561-45ec-a01b-3e8d5ad51914","system_id":"levelo_inurba_marseille","lat":43.31532,"lon":5.38038,"is_reserved":false,"is_disabled":false,"rental_uris":{"android":"levelo://app?vid=b4e85788-c561-45ec-a01b-3e8d5ad51914","ios":"levelo://app?vid=b4e85788-c561-45ec-a01b-3e8d5ad51914"},"vehicle_type_id":"4","last_reported":1728317436,"current_range_meters":12400,"station_id":"ce4bhsp2rcd13ifvqi50","pricing_plan_id":"cebpf4jnsgd1na2vs0mg"},{"bike_id":"591c6a99-7293-42f1-80d5-d809eb153fca","system_id":"levelo_inurba_marseille","lat":43.29638,"lon":5.4061,"is_reserved":false,"is_disabled":false,"rental_uris":{"android":"levelo://app?vid=591c6a99-7293-42f1-80d5-d809eb153fca","ios":"levelo://app?vid=591c6a99-7293-42f1-80d5-d809eb153fca"},"vehicle_type_id":"4","last_reported":1728317436,"current_range_meters":3200,"station_id":"ce4bh0h2rcd13ifvqd60","pricing_plan_id":"cebpf4jnsgd1na2vs0mg"},{"bike_id":"e1bf51ef-6860-46c3-a155-14f0f67ea1e3","system_id":"levelo_inurba_marseille","lat":43.28833,"lon":5.392475,"is_reserved":false,"is_disabled":false,"rental_uris":{"android":"levelo://app?vid=e1bf51ef-6860-46c3-a155-14f0f67ea1e3","ios":"levelo://app?vid=e1bf51ef-6860-46c3-a155-14f0f67ea1e3"},"vehicle_type_id":"4","last_reported":1728317436,"current_range_meters":12400,"station_id":"ce4bh2p2rcd13ifvqdi0","pricing_plan_id":"cebpf4jnsgd1na2vs0mg"},{"bike_id":"6b206cc9-7fc9-4d76-9e86-809600ff41ad","system_id":"levelo_inurba_marseille","lat":43.27944,"lon":5.41055,"is_reserved":false,"is_disabled":false,"rental_uris":{"android":"levelo://app?vid=6b206cc9-7fc9-4d76-9e86-809600ff41ad","ios":"levelo://app?vid=6b206cc9-7fc9-4d76-9e86-809600ff41ad"},"vehicle_type_id":"4","last_reported":1728317436,"current_range_meters":3200,"station_id":"ce4bhnp2rcd13ifvqh0g","pricing_plan_id":"cebpf4jnsgd1na2vs0mg"},{"bike_id":"d846a64d-d9ed-401a-b18a-3f9ea6d61124","system_id":"levelo_inurba_marseille","lat":43.28416,"lon":5.37527,"is_reserved":false,"is_disabled":false,"rental_uris":{"android":"levelo://app?vid=d846a64d-d9ed-401a-b18a-3f9ea6d61124","ios":"levelo://app?vid=d846a64d-d9ed-401a-b18a-3f9ea6d61124"},"vehicle_type_id":"4","last_reported":1728317436,"current_range_meters":35600,"station_id":"ce4bh412rcd13ifvqds0","pricing_plan_id":"cebpf4jnsgd1na2vs0mg"},{"bike_id":"f9d7799d-9c72-49fe-ac8f-c21aa4b6ec51","system_id":"levelo_inurba_marseille","lat":43.2294,"lon":5.3538,"is_reserved":false,"is_disabled":false,"rental_uris":{"android":"levelo://app?vid=f9d7799d-9c72-49fe-ac8f-c21aa4b6ec51","ios":"levelo://app?vid=f9d7799d-9c72-49fe-ac8f-c21aa4b6ec51"},"vehicle_type_id":"4","last_reported":1728317436,"current_range_meters":24800,"station_id":"cpo3532slgdg3j2ikp40","pricing_plan_id":"cebpf4jnsgd1na2vs0mg"},{"bike_id":"95c23636-4230-462b-94c1-064c155bd8c7","system_id":"levelo_inurba_marseille","lat":43.28278,"lon":5.35091,"is_reserved":false,"is_disabled":false,"rental_uris":{"android":"levelo://app?vid=95c23636-4230-462b-94c1-064c155bd8c7","ios":"levelo://app?vid=95c23636-4230-462b-94c1-064c155bd8c7"},"vehicle_type_id":"4","last_reported":1728317436,"current_range_meters":16400,"station_id":"ce4bhbp2rcd13ifvqerg","pricing_plan_id":"cebpf4jnsgd1na2vs0mg"},{"bike_id":"ad7ad254-ffae-46a0-a291-30d0ff8034da","system_id":"levelo_inurba_marseille","lat":43.23187,"lon":5.4,"is_reserved":false,"is_disabled":false,"rental_uris":{"android":"levelo://app?vid=ad7ad254-ffae-46a0-a291-30d0ff8034da","ios":"levelo://app?vid=ad7ad254-ffae-46a0-a291-30d0ff8034da"},"vehicle_type_id":"4","last_reported":1728317436,"current_range_meters":6800,"station_id":"ce4bhn12rcd13ifvqgqg","pricing_plan_id":"cebpf4jnsgd1na2vs0mg"},{"bike_id":"dbbb1e5a-c031-4b23-986c-a57969b66649","system_id":"levelo_inurba_marseille","lat":43.30299,"lon":5.39214,"is_reserved":false,"is_disabled":false,"rental_uris":{"android":"levelo://app?vid=dbbb1e5a-c031-4b23-986c-a57969b66649","ios":"levelo://app?vid=dbbb1e5a-c031-4b23-986c-a57969b66649"},"vehicle_type_id":"4","last_reported":1728317436,"current_range_meters":38400,"station_id":"ce4bgkh2rcd13ifvqbk0","pricing_plan_id":"cebpf4jnsgd1na2vs0mg"},{"bike_id":"0d60ff29-f3c6-42bd-8f4e-9e8e682e839d","system_id":"levelo_inurba_marseille","lat":43.298671,"lon":5.397364,"is_reserved":false,"is_disabled":false,"rental_uris":{"android":"levelo://app?vid=0d60ff29-f3c6-42bd-8f4e-9e8e682e839d","ios":"levelo://app?vid=0d60ff29-f3c6-42bd-8f4e-9e8e682e839d"},"vehicle_type_id":"4","last_reported":1728317436,"current_range_meters":31200,"station_id":"ce4bh2p2rcd13ifvqdi0","pricing_plan_id":"cebpf4jnsgd1na2vs0mg"},{"bike_id":"962d2be3-023d-40b9-be13-109c399071ee","system_id":"levelo_inurba_marseille","lat":43.23198,"lon":5.35558,"is_reserved":false,"is_disabled":false,"rental_uris":{"android":"levelo://app?vid=962d2be3-023d-40b9-be13-109c399071ee","ios":"levelo://app?vid=962d2be3-023d-40b9-be13-109c399071ee"},"vehicle_type_id":"4","last_reported":1728317436,"current_range_meters":15200,"station_id":"ce4bhu92rcd13ifvqi70","pricing_plan_id":"cebpf4jnsgd1na2vs0mg"},{"bike_id":"22e8cfda-51c4-40b3-aca0-18abe08f9619","system_id":"levelo_inurba_marseille","lat":43.26181,"lon":5.375006,"is_reserved":false,"is_disabled":false,"rental_uris":{"android":"levelo://app?vid=22e8cfda-51c4-40b3-aca0-18abe08f9619","ios":"levelo://app?vid=22e8cfda-51c4-40b3-aca0-18abe08f9619"},"vehicle_type_id":"4","last_reported":1728317436,"current_range_meters":16800,"station_id":"ce4bhgp2rcd13ifvqfc0","pricing_plan_id":"cebpf4jnsgd1na2vs0mg"},{"bike_id":"62b599e7-6f9c-45ac-855d-81d822541cba","system_id":"levelo_inurba_marseille","lat":43.29423,"lon":5.3862,"is_reserved":false,"is_disabled":false,"rental_uris":{"android":"levelo://app?vid=62b599e7-6f9c-45ac-855d-81d822541cba","ios":"levelo://app?vid=62b599e7-6f9c-45ac-855d-81d822541cba"},"vehicle_type_id":"4","last_reported":1728317436,"current_range_meters":32400,"station_id":"ce4bh2h2rcd13ifvqdh0","pricing_plan_id":"cebpf4jnsgd1na2vs0mg"},{"bike_id":"bc607050-45f1-4f4e-b1a0-befa414057e8","system_id":"levelo_inurba_marseille","lat":43.27374,"lon":5.36266,"is_reserved":false,"is_disabled":false,"rental_uris":{"android":"levelo://app?vid=bc607050-45f1-4f4e-b1a0-befa414057e8","ios":"levelo://app?vid=bc607050-45f1-4f4e-b1a0-befa414057e8"},"vehicle_type_id":"4","last_reported":1728317436,"current_range_meters":22000,"station_id":"ce4bhbh2rcd13ifvqeo0","pricing_plan_id":"cebpf4jnsgd1na2vs0mg"},{"bike_id":"cbefa273-ee25-4f2d-a9bb-2e36a36517cb","system_id":"levelo_inurba_marseille","lat":43.29198,"lon":5.39325,"is_reserved":false,"is_disabled":false,"rental_uris":{"android":"levelo://app?vid=cbefa273-ee25-4f2d-a9bb-2e36a36517cb","ios":"levelo://app?vid=cbefa273-ee25-4f2d-a9bb-2e36a36517cb"},"vehicle_type_id":"4","last_reported":1728317436,"current_range_meters":3200,"station_id":"ce4bh192rcd13ifvqdd0","pricing_plan_id":"cebpf4jnsgd1na2vs0mg"},{"bike_id":"9b8a6733-6bd6-4934-a0b1-dff5c3897118","system_id":"levelo_inurba_marseille","lat":43.29881,"lon":5.39747,"is_reserved":false,"is_disabled":false,"rental_uris":{"android":"levelo://app?vid=9b8a6733-6bd6-4934-a0b1-dff5c3897118","ios":"levelo://app?vid=9b8a6733-6bd6-4934-a0b1-dff5c3897118"},"vehicle_type_id":"4","last_reported":1728317436,"current_range_meters":38800,"station_id":"ce4bh0h2rcd13ifvqd50","pricing_plan_id":"cebpf4jnsgd1na2vs0mg"},{"bike_id":"b20a1197-3446-4b4e-9ee5-36dad3d2c5e7","system_id":"levelo_inurba_marseille","lat":43.31118,"lon":5.37771,"is_reserved":false,"is_disabled":false,"rental_uris":{"android":"levelo://app?vid=b20a1197-3446-4b4e-9ee5-36dad3d2c5e7","ios":"levelo://app?vid=b20a1197-3446-4b4e-9ee5-36dad3d2c5e7"},"vehicle_type_id":"4","last_reported":1728317436,"current_range_meters":35200,"station_id":"ce4bgt92rcd13ifvqcg0","pricing_plan_id":"cebpf4jnsgd1na2vs0mg"},{"bike_id":"925351d7-bfef-4d4d-83c2-508cb65c69c7","system_id":"levelo_inurba_marseille","lat":43.22937,"lon":5.3539,"is_reserved":false,"is_disabled":false,"rental_uris":{"android":"levelo://app?vid=925351d7-bfef-4d4d-83c2-508cb65c69c7","ios":"levelo://app?vid=925351d7-bfef-4d4d-83c2-508cb65c69c7"},"vehicle_type_id":"4","last_reported":1728317436,"current_range_meters":29600,"station_id":"cpo3532slgdg3j2ikp40","pricing_plan_id":"cebpf4jnsgd1na2vs0mg"},{"bike_id":"5f3a1e8b-516a-4568-b96b-7431943be976","system_id":"levelo_inurba_marseille","lat":43.30219,"lon":5.39478,"is_reserved":false,"is_disabled":false,"rental_uris":{"android":"levelo://app?vid=5f3a1e8b-516a-4568-b96b-7431943be976","ios":"levelo://app?vid=5f3a1e8b-516a-4568-b96b-7431943be976"},"vehicle_type_id":"4","last_reported":1728317436,"current_range_meters":16800,"station_id":"ce4bh0p2rcd13ifvqd70","pricing_plan_id":"cebpf4jnsgd1na2vs0mg"},{"bike_id":"79c7a1e7-d75f-4738-8032-dd91d0f8aa8a","system_id":"levelo_inurba_marseille","lat":43.23057,"lon":5.35497,"is_reserved":false,"is_disabled":false,"rental_uris":{"android":"levelo://app?vid=79c7a1e7-d75f-4738-8032-dd91d0f8aa8a","ios":"levelo://app?vid=79c7a1e7-d75f-4738-8032-dd91d0f8aa8a"},"vehicle_type_id":"4","last_reported":1728317436,"current_range_meters":20800,"station_id":"cpo3342slgdg3j2ifvpg","pricing_plan_id":"cebpf4jnsgd1na2vs0mg"},{"bike_id":"65ad03a2-5bcc-4eca-8723-6ff625b6f1ed","system_id":"levelo_inurba_marseille","lat":43.23063,"lon":5.35493,"is_reserved":false,"is_disabled":false,"rental_uris":{"android":"levelo://app?vid=65ad03a2-5bcc-4eca-8723-6ff625b6f1ed","ios":"levelo://app?vid=65ad03a2-5bcc-4eca-8723-6ff625b6f1ed"},"vehicle_type_id":"4","last_reported":1728317436,"current_range_meters":31200,"station_id":"cpo3342slgdg3j2ifvpg","pricing_plan_id":"cebpf4jnsgd1na2vs0mg"},