{"last_updated":1783453160,"ttl":60,"version":"2.2","data":{"bikes":[{"bike_id":"ba0c28b1-8732-48e2-8079-f25b2b3fbc3c","system_id":"levelo_inurba_marseille","lat":43.337444,"lon":5.374475,"is_reserved":false,"is_disabled":false,"rental_uris":{"android":"levelo://app?vid=ba0c28b1-8732-48e2-8079-f25b2b3fbc3c","ios":"levelo://app?vid=ba0c28b1-8732-48e2-8079-f25b2b3fbc3c"},"vehicle_type_id":"4","last_reported":1783453161,"current_range_meters":0,"station_id":"","pricing_plan_id":"cebpf4jnsgd1na2vs0mg"},{"bike_id":"7fb54030-81c0-4653-ab50-a6e69be8636f","system_id":"levelo_inurba_marseille","lat":43.26042,"lon":5.37474,"is_reserved":false,"is_disabled":true,"rental_uris":{"android":"levelo://app?vid=7fb54030-81c0-4653-ab50-a6e69be8636f","ios":"levelo://app?vid=7fb54030-81c0-4653-ab50-a6e69be8636f"},"vehicle_type_id":"4","last_reported":1783453161,"current_range_meters":2800,"station_id":"ce4bhgh2rcd13ifvqfa0","pricing_plan_id":"cebpf4jnsgd1na2vs0mg"},{"bike_id":"68a02fff-39fd-4a0c-940f-50d32f187ffa","system_id":"levelo_inurba_marseille","lat":43.2319,"lon":5.35553,"is_reserved":false,"is_disabled":true,"rental_uris":{"android":"levelo://app?vid=68a02fff-39fd-4a0c-940f-50d32f187ffa","ios":"levelo://app?vid=68a02fff-39fd-4a0c-940f-50d32f187ffa"},"vehicle_type_id":"4","last_reported":1783453161,"current_range_meters":2800,"station_id":"ce4bhu92rcd13ifvqi70","pricing_plan_id":"cebpf4jnsgd1na2vs0mg"},{"bike_id":"5c27c21d-e49d-4272-89f4-b58751c04dc1","system_id":"levelo_inurba_marseille","lat":43.23411,"lon":5.38147,"is_reserved":false,"is_disabled":false,"rental_uris":{"android":"levelo://app?vid=5c27c21d-e49d-4272-89f4-b58751c04dc1","ios":"levelo://app?vid=5c27c21d-e49d-4272-89f4-b58751c04dc1"},"vehicle_type_id":"4","last_reported":1783453161,"current_range_meters":2800,"station_id":"","pricing_plan_id":"cebpf4jnsgd1na2vs0mg"},{"bike_id":"7a71c416-c3b5-4289-ad0e-531bcb18f06d","system_id":"levelo_inurba_marseille","lat":43.32473,"lon":5.36462,"is_reserved":false,"is_disabled":false,"rental_uris":{"android":"levelo://app?vid=7a71c416-c3b5-4289-ad0e-531bcb18f06d","ios":"levelo://app?vid=7a71c416-c3b5-4289-ad0e-531bcb18f06d"},"vehicle_type_id":"4","last_reported":1783453161,"current_range_meters":2800,"station_id":"","pricing_plan_id":"cebpf4jnsgd1na2vs0mg"},{"bike_id":"20caa1fc-06d5-4252-9f45-594b25108b35","system_id":"levelo_inurba_marseille","lat":43.28479,"lon":5.48398,"is_reserved":false,"is_disabled":false,"rental_uris":{"android":"levelo://app?vid=20caa1fc-06d5-4252-9f45-594b25108b35","ios":"levelo://app?vid=20caa1fc-06d5-4252-9f45-594b25108b35"},"vehicle_type_id":"4","last_reported":1783453161,"current_range_meters":2800,"station_id":"st_d3svhcjqgbts73a3dn0g","pricing_plan_id":"cebpf4jnsgd1na2vs0mg"},{"bike_id":"b2e3003e-8745-424f-9600-657e9aa0c136","system_id":"levelo_inurba_marseille","lat":43.28354,"lon":5.38093,"is_reserved":false,"is_disabled":false,"rental_uris":{"android":"levelo://app?vid=b2e3003e-8745-424f-9600-657e9aa0c136","ios":"levelo://app?vid=b2e3003e-8745-424f-9600-657e9aa0c136"},"vehicle_type_id":"4","last_reported":1783453161,"current_range_meters":2800,"station_id":"ce4bh412rcd13ifvqdr0","pricing_plan_id":"cebpf4jnsgd1na2vs0mg"},{"bike_id":"d6f3fa2b-4777-42c6-ad84-9643fb2d27e8","system_id":"levelo_inurba_marseille","lat":43.26224,"lon":5.40453,"is_reserved":false,"is_disabled":false,"rental_uris":{"android":"levelo://app?vid=d6f3fa2b-4777-42c6-ad84-9643fb2d27e8","ios":"levelo://app?vid=d6f3fa2b-4777-42c6-ad84-9643fb2d27e8"},"vehicle_type_id":"4","last_reported":1783453161,"current_range_meters":2800,"station_id":"ce4bhmh2rcd13ifvqgmg","pricing_plan_id":"cebpf4jnsgd1na2vs0mg"},{"bike_id":"fbba83fb-d6f9-48af-a9cc-ba4ef60b7175","system_id":"levelo_inurba_marseille","lat":43.302546,"lon":5.40068,"is_reserved":false,"is_disabled":false,"rental_uris":{"android":"levelo://app?vid=fbba83fb-d6f9-48af-a9cc-ba4ef60b7175","ios":"levelo://app?vid=fbba83fb-d6f9-48af-a9cc-ba4ef60b7175"},"vehicle_type_id":"4","last_reported":1783453161,"current_range_meters":2800,"station_id":"ce4bgvh2rcd13ifvqcs0","pricing_plan_id":"cebpf4jnsgd1na2vs0mg"},{"bike_id":"73ffbb3a-fd6d-4833-8a5c-d0de52fbd078","system_id":"levelo_inurba_marseille","lat":43.28041,"lon":5.35365,"is_reserved":false,"is_disabled":false,"rental_uris":{"android":"levelo://app?vid=73ffbb3a-fd6d-4833-8a5c-d0de52fbd078","ios":"levelo://app?vid=73ffbb3a-fd6d-4833-8a5c-d0de52fbd078"},"vehicle_type_id":"4","last_reported":1783453161,"current_range_meters":3200,"station_id":"","pricing_plan_id":"cebpf4jnsgd1na2vs0mg"},{"bike_id":"044c84af-cc27-4b6b-94ca-c1f0fc2980be","system_id":"levelo_inurba_marseille","lat":43.30032,"lon":5.3891,"is_reserved":false,"is_disabled":false,"rental_uris":{"android":"levelo://app?vid=044c84af-cc27-4b6b-94ca-c1f0fc2980be","ios":"levelo://app?vid=044c84af-cc27-4b6b-94ca-c1f0fc2980be"},"vehicle_type_id":"4","last_reported":1783453161,"current_range_meters":3200,"station_id":"","pricing_plan_id":"cebpf4jnsgd1na2vs0mg"},{"bike_id":"69aa2a07-fa8e-4241-9a10-c2a605583547","system_id":"levelo_inurba_marseille","lat":43.23878,"lon":5.37101,"is_reserved":false,"is_disabled":false,"rental_uris":{"android":"levelo://app?vid=69aa2a07-fa8e-4241-9a10-c2a605583547","ios":"levelo://app?vid=69aa2a07-fa8e-4241-9a10-c2a605583547"},"vehicle_type_id":"4","last_reported":1783453161,"current_range_meters":3200,"station_id":"","pricing_plan_id":"cebpf4jnsgd1na2vs0mg"},{"bike_id":"efce0065-4524-417a-a35d-e4c1a8a9f922","system_id":"levelo_inurba_marseille","lat":43.28209,"lon":5.34909,"is_reserved":false,"is_disabled":false,"rental_uris":{"android":"levelo://app?vid=efce0065-4524-417a-a35d-e4c1a8a9f922","ios":"levelo://app?vid=efce0065-4524-417a-a35d-e4c1a8a9f922"},"vehicle_type_id":"4","last_reported":1783453161,"current_range_meters":3200,"station_id":"","pricing_plan_id":"cebpf4jnsgd1na2vs0mg"},{"bike_id":"2fa0e237-ba63-4b8c-8993-7270fa3aaacc","system_id":"levelo_inurba_marseille","lat":43.29887,"lon":5.36585,"is_reserved":false,"is_disabled":false,"rental_uris":{"android":"levelo://app?vid=2fa0e237-ba63-4b8c-8993-7270fa3aaacc","ios":"levelo://app?vid=2fa0e237-ba63-4b8c-8993-7270fa3aaacc"},"vehicle_type_id":"4","last_reported":1783453161,"current_range_meters":3200,"station_id":"ce4bgm92rcd13ifvqbr0","pricing_plan_id":"cebpf4jnsgd1na2vs0mg"},{"bike_id":"83d9625d-b00b-4129-85ca-0b095b690b27","system_id":"levelo_inurba_marseille","lat":43.28951,"lon":5.4276,"is_reserved":false,"is_disabled":false,"rental_uris":{"android":"levelo://app?vid=83d9625d-b00b-4129-85ca-0b095b690b27","ios":"levelo://app?vid=83d9625d-b00b-4129-85ca-0b095b690b27"},"vehicle_type_id":"4","last_reported":1783453161,"current_range_meters":3200,"station_id":"","pricing_plan_id":"cebpf4jnsgd1na2vs0mg"},{"bike_id":"3112c030-03e7-4ad3-a895-94002cb7d5c7","system_id":"levelo_inurba_marseille","lat":43.23961,"lon":5.36621,"is_reserved":false,"is_disabled":true,"rental_uris":{"android":"levelo://app?vid=3112c030-03e7-4ad3-a895-94002cb7d5c7","ios":"levelo://app?vid=3112c030-03e7-4ad3-a895-94002cb7d5c7"},"vehicle_type_id":"4","last_reported":1783453161,"current_range_meters":3200,"station_id":"ce4bhi12rcd13ifvqfp0","pricing_plan_id":"cebpf4jnsgd1na2vs0mg"},{"bike_id":"3ee42266-3712-4488-b386-bdbbb5e2d040","system_id":"levelo_inurba_marseille","lat":43.25081,"lon":5.39531,"is_reserved":false,"is_disabled":true,"rental_uris":{"android":"levelo://app?vid=3ee42266-3712-4488-b386-bdbbb5e2d040","ios":"levelo://app?vid=3ee42266-3712-4488-b386-bdbbb5e2d040"},"vehicle_type_id":"4","last_reported":1783453161,"current_range_meters":3200,"station_id":"ce4bhm12rcd13ifvqgkg","pricing_plan_id":"cebpf4jnsgd1na2vs0mg"},{"bike_id":"746e2243-fb8b-436f-a9f8-3fe06c4dcbe3","system_id":"levelo_inurba_marseille","lat":43.29197,"lon":5.35785,"is_reserved":false,"is_disabled":true,"rental_uris":{"android":"levelo://app?vid=746e2243-fb8b-436f-a9f8-3fe06c4dcbe3","ios":"levelo://app?vid=746e2243-fb8b-436f-a9f8-3fe06c4dcbe3"},"vehicle_type_id":"4","last_reported":1783453161,"current_range_meters":3200,"station_id":"ce4bhb12rcd13ifvqel0","pricing_plan_id":"cebpf4jnsgd1na2vs0mg"},{"bike_id":"ff1f8213-5f6f-40b1-a50d-1c8f56ccdd2c","system_id":"levelo_inurba_marseille","lat":43.2842,"lon":5.37517,"is_reserved":false,"is_disabled":false,"rental_uris":{"android":"levelo://app?vid=ff1f8213-5f6f-40b1-a50d-1c8f56ccdd2c","ios":"levelo://app?vid=ff1f8213-5f6f-40b1-a50d-1c8f56ccdd2c"},"vehicle_type_id":"4","last_reported":1783453161,"current_range_meters":3200,"station_id":"","pricing_plan_id":"cebpf4jnsgd1na2vs0mg"},{"bike_id":"07062c27-c112-4a57-b738-bc8ab5baf1aa","system_id":"levelo_inurba_marseille","lat":43.30423,"lon":5.39755,"is_reserved":false,"is_disabled":false,"rental_uris":{"android":"levelo://app?vid=07062c27-c112-4a57-b738-bc8ab5baf1aa","ios":"levelo://app?vid=07062c27-c112-4a57-b738-bc8ab5baf1aa"},"vehicle_type_id":"4","last_reported":1783453161,"current_range_meters":3200,"station_id":"ce4bh092rcd13ifvqd20","pricing_plan_id":"cebpf4jnsgd1na2vs0mg"},{"bike_id":"724bcc83-3f52-4709-a78a-e88c609be32a","system_id":"levelo_inurba_marseille","lat":43.28108,"lon":5.37838,"is_reserved":false,"is_disabled":false,"rental_uris":{"android":"levelo://app?vid=724bcc83-3f52-4709-a78a-e88c609be32a","ios":"levelo://app?vid=724bcc83-3f52-4709-a78a-e88c609be32a"},"vehicle_type_id":"4","last_reported":1783453161,"current_range_meters":3200,"station_id":"ce4bha12rcd13ifvqee0","pricing_plan_id":"cebpf4jnsgd1na2vs0mg"},{"bike_id":"6e42c2d9-ba5e-4a1b-b6b3-959951cb0a08","system_id":"levelo_inurba_marseille","lat":43.27492,"lon":5.41576,"is_reserved":false,"is_disabled":true,"rental_uris":{"android":"levelo://app?vid=6e42c2d9-ba5e-4a1b-b6b3-959951cb0a08","ios":"levelo://app?vid=6e42c2d9-ba5e-4a1b-b6b3-959951cb0a08"},"vehicle_type_id":"4","last_reported":1783453161,"current_range_meters":3200,"station_id":"st_d6im8g6chgec73a5pndg","pricing_plan_id":"cebpf4jnsgd1na2vs0mg"},{"bike_id":"96e1bc80-1e84-437d-8013-aec0d17d853e","system_id":"levelo_inurba_marseille","lat":43.28274,"lon":5.35036,"is_reserved":false,"is_disabled":false,"rental_uris":{"android":"levelo://app?vid=96e1bc80-1e84-437d-8013-aec0d17d853e","ios":"levelo://app?vid=96e1bc80-1e84-437d-8013-aec0d17d853e"},"vehicle_type_id":"4","last_reported":1783453161,"current_range_meters":3200,"station_id":"ce4bhbp2rcd13ifvqerg","pricing_plan_id":"cebpf4jnsgd1na2vs0mg"},{"bike_id":"7678e258-73ee-4d26-8d86-8beb357c78a0","system_id":"levelo_inurba_marseille","lat":43.24352,"lon":5.40583,"is_reserved":false,"is_disabled":false,"rental_uris":{"android":"levelo://app?vid=7678e258-73ee-4d26-8d86-8beb357c78a0","ios":"levelo://app?vid=7678e258-73ee-4d26-8d86-8beb357c78a0"},"vehicle_type_id":"4","last_reported":1783453161,"current_range_meters":3200,"station_id":"","pricing_plan_id":"cebpf4jnsgd1na2vs0mg"},{"bike_id":"cdac78b8-11e0-49e0-a79b-93be7d012a99","system_id":"levelo_inurba_marseille","lat":43.30131,"lon":5.38776,"is_reserved":false,"is_disabled":false,"rental_uris":{"android":"levelo://app?vid=cdac78b8-11e0-49e0-a79b-93be7d012a99","ios":"levelo://app?vid=cdac78b8-11e0-49e0-a79b-93be7d012a99"},"vehicle_type_id":"4","last_reported":1783453161,"current_range_meters":3200,"station_id":"ce4bghh2rcd13ifvqb60","pricing_plan_id":"cebpf4jnsgd1na2vs0mg"},{"bike_id":"f4a533d3-31ea-47a5-bea0-91df8407ca75","system_id":"levelo_inurba_marseille","lat":43.273712,"lon":5.362596,"is_reserved":false,"is_disabled":false,"rental_uris":{"android":"levelo://app?vid=f4a533d3-31ea-47a5-bea0-91df8407ca75","ios":"levelo://app?vid=f4a533d3-31ea-47a5-bea0-91df8407ca75"},"vehicle_type_id":"4","last_reported":1783453161,"current_range_meters":3200,"station_id":"ce4bhbh2rcd13ifvqeo0","pricing_plan_id":"cebpf4jnsgd1na2vs0mg"},{"bike_id":"c81973cd-4ea9-42f1-987b-c98948ef8f57","system_id":"levelo_inurba_marseille","lat":43.29588,"lon":5.38104,"is_reserved":false,"is_disabled":false,"rental_uris":{"android":"levelo://app?vid=c81973cd-4ea9-42f1-987b-c98948ef8f57","ios":"levelo://app?vid=c81973cd-4ea9-42f1-987b-c98948ef8f57"},"vehicle_type_id":"4","last_reported":1783453161,"current_range_meters":3600,"station_id":"ce4bgl12rcd13ifvqbo0","pricing_plan_id":"cebpf4jnsgd1na2vs0mg"},{"bike_id":"8d35626d-5b4c-4dc7-ba1a-c9dd35a82333","system_id":"levelo_inurba_marseille","lat":43.29214,"lon":5.3606,"is_reserved":false,"is_disabled":false,"rental_uris":{"android":"levelo://app?vid=8d35626d-5b4c-4dc7-ba1a-c9dd35a82333","ios":"levelo://app?vid=8d35626d-5b4c-4dc7-ba1a-c9dd35a82333"},"vehicle_type_id":"4","last_reported":1783453161,"current_range_meters":3600,"station_id":"ce4bhbh2rcd13ifvqeqg","pricing_plan_id":"cebpf4jnsgd1na2vs0mg"},{"bike_id":"9f0b30f8-3323-45a3-91b9-84add8c3f3aa","system_id":"levelo_inurba_marseille","lat":43.2558,"lon":5.38227,"is_reserved":false,"is_disabled":false,"rental_uris":{"android":"levelo://app?vid=9f0b30f8-3323-45a3-91b9-84add8c3f3aa","ios":"levelo://app?vid=9f0b30f8-3323-45a3-91b9-84add8c3f3aa"},"vehicle_type_id":"4","last_reported":1783453161,"current_range_meters":3600,"station_id":"ce4bhih2rcd13ifvqfs0","pricing_plan_id":"cebpf4jnsgd1na2vs0mg"},{"bike_id":"55439c1c-5c0f-403c-a18c-9e1aad1f2d06","system_id":"levelo_inurba_marseille","lat":43.24159,"lon":5.36411,"is_reserved":false,"is_disabled":true,"rental_uris":{"android":"levelo://app?vid=55439c1c-5c0f-403c-a18c-9e1aad1f2d06","ios":"levelo://app?vid=55439c1c-5c0f-403c-a18c-9e1aad1f2d06"},"vehicle_type_id":"4","last_reported":1783453161,"current_range_meters":3600,"station_id":"cpo36qri1sfpv3e86is0","pricing_plan_id":"cebpf4jnsgd1na2vs0mg"},{"bike_id":"f21fd926-5813-45e9-a3de-4c08808a5877","system_id":"levelo_inurba_marseille","lat":43.21515,"lon":5.34752,"is_reserved":false,"is_disabled":false,"rental_uris":{"android":"levelo://app?vid=f21fd926-5813-45e9-a3de-4c08808a5877","ios":"levelo://app?vid=f21fd926-5813-45e9-a3de-4c08808a5877"},"vehicle_type_id":"4","last_reported":1783453161,"current_range_meters":3600,"station_id":"","pricing_plan_id":"cebpf4jnsgd1na2vs0mg"},{"bike_id":"948e757b-fcea-400c-bcd5-2dd13136291d","system_id":"levelo_inurba_marseille","lat":43.30605,"lon":5.37224,"is_reserved":false,"is_disabled":false,"rental_uris":{"android":"levelo://app?vid=948e757b-fcea-400c-bcd5-2dd13136291d","ios":"levelo://app?vid=948e757b-fcea-400c-bcd5-2dd13136291d"},"vehicle_type_id":"4","last_reported":1783453161,"current_range_meters":3600,"station_id":"ce4bgqh2rcd13ifvqc4g","pricing_plan_id":"cebpf4jnsgd1na2vs0mg"},{"bike_id":"4d98a237-4723-4614-93c2-c045bd2a4baa","system_id":"levelo_inurba_marseille","lat":43.30796,"lon":5.38164,"is_reserved":false,"is_disabled":false,"rental_uris":{"android":"levelo://app?vid=4d98a237-4723-4614-93c2-c045bd2a4baa","ios":"levelo://app?vid=4d98a237-4723-4614-93c2-c045bd2a4baa"},"vehicle_type_id":"4","last_reported":1783453161,"current_range_meters":3600,"station_id":"ce4bgt12rcd13ifvqce0","pricing_plan_id":"cebpf4jnsgd1na2vs0mg"},{"bike_id":"f2fba10d-03f7-4e19-925e-238599152c0c","system_id":"levelo_inurba_marseille","lat":43.29803,"lon":5.39323,"is_reserved":false,"is_disabled":false,"rental_uris":{"android":"levelo://app?vid=f2fba10d-03f7-4e19-925e-238599152c0c","ios":"levelo://app?vid=f2fba10d-03f7-4e19-925e-238599152c0c"},"vehicle_type_id":"4","last_reported":1783453161,"current_range_meters":3600,"station_id":"chh1huq6cuj3fo74tm60","pricing_plan_id":"cebpf4jnsgd1na2vs0mg"},{"bike_id":"8e23c038-728d-409b-b9b1-d2e3040c249c","system_id":"levelo_inurba_marseille","lat":43.29931,"lon":5.39473,"is_reserved":false,"is_disabled":false,"rental_uris":{"android":"levelo://app?vid=8e23c038-728d-409b-b9b1-d2e3040c249c","ios":"levelo://app?vid=8e23c038-728d-409b-b9b1-d2e3040c249c"},"vehicle_type_id":"4","last_reported":1783453161,"current_range_meters":3600,"station_id":"","pricing_plan_id":"cebpf4jnsgd1na2vs0mg"},{"bike_id":"8811c114-a428-42b6-8eee-3539e48f17d2","system_id":"levelo_inurba_marseille","lat":43.25531,"lon":5.39642,"is_reserved":false,"is_disabled":false,"rental_uris":{"android":"levelo://app?vid=8811c114-a428-42b6-8eee-3539e48f17d2","ios":"levelo://app?vid=8811c114-a428-42b6-8eee-3539e48f17d2"},"vehicle_type_id":"4","last_reported":1783453161,"current_range_meters":3600,"station_id":"","pricing_plan_id":"cebpf4jnsgd1na2vs0mg"},{"bike_id":"59d926f6-a293-43bc-8efa-7b417a1e4524","system_id":"levelo_inurba_marseille","lat":43.28085,"lon":5.39658,"is_reserved":false,"is_disabled":false,"rental_uris":{"android":"levelo://app?vid=59d926f6-a293-43bc-8efa-7b417a1e4524","ios":"levelo://app?vid=59d926f6-a293-43bc-8efa-7b417a1e4524"},"vehicle_type_id":"4","last_reported":1783453161,"current_range_meters":3600,"station_id":"ce4bho12rcd13ifvqh2g","pricing_plan_id":"cebpf4jnsgd1na2vs0mg"},{"bike_id":"6c1578a9-cf4e-4dca-8bb8-d3addb11f80a","system_id":"levelo_inurba_marseille","lat":43.25128,"lon":5.38582,"is_reserved":false,"is_disabled":false,"rental_uris":{"android":"levelo://app?vid=6c1578a9-cf4e-4dca-8bb8-d3addb11f80a","ios":"levelo://app?vid=6c1578a9-cf4e-4dca-8bb8-d3addb11f80a"},"vehicle_type_id":"4","last_reported":1783453161,"current_range_meters":3600,"station_id":"","pricing_plan_id":"cebpf4jnsgd1na2vs0mg"},{"bike_id":"908acb38-b31c-4d24-8e29-66d8799c8148","system_id":"levelo_inurba_marseille","lat":43.30811,"lon":5.38147,"is_reserved":false,"is_disabled":false,"rental_uris":{"android":"levelo://app?vid=908acb38-b31c-4d24-8e29-66d8799c8148","ios":"levelo://app?vid=908acb38-b31c-4d24-8e29-66d8799c8148"},"vehicle_type_id":"4","last_reported":1783453161,"current_range_meters":3600,"station_id":"ce4bgt12rcd13ifvqce0","pricing_plan_id":"cebpf4jnsgd1na2vs0mg"},{"bike_id":"e07ec8d1-dd6d-4748-ada7-2d0b56299482","system_id":"levelo_inurba_marseille","lat":43.29281,"lon":5.38442,"is_reserved":false,"is_disabled":false,"rental_uris":{"android":"levelo://app?vid=e07ec8d1-dd6d-4748-ada7-2d0b56299482","ios":"levelo://app?vid=e07ec8d1-dd6d-4748-ada7-2d0b56299482"},"vehicle_type_id":"4","last_reported":1783453161,"current_range_meters":3600,"station_id":"ce4bh692rcd13ifvqea0","pricing_plan_id":"cebpf4jnsgd1na2vs0mg"},{"bike_id":"07020d4d-6317-4936-9b72-80cbc6c0a3fa","system_id":"levelo_inurba_marseille","lat":43.30605,"lon":5.37224,"is_reserved":false,"is_disabled":false,"rental_uris":{"android":"levelo://app?vid=07020d4d-6317-4936-9b72-80cbc6c0a3fa","ios":"levelo://app?vid=07020d4d-6317-4936-9b72-80cbc6c0a3fa"},"vehicle_type_id":"4","last_reported":1783453161,"current_range_meters":3600,"station_id":"ce4bgqh2rcd13ifvqc4g","pricing_plan_id":"cebpf4jnsgd1na2vs0mg"},{"bike_id":"aa89890e-9369-4ccb-8fcc-00218209f1be","system_id":"levelo_inurba_marseille","lat":43.29237,"lon":5.37219,"is_reserved":false,"is_disabled":false,"rental_uris":{"android":"levelo://app?vid=aa89890e-9369-4ccb-8fcc-00218209f1be","ios":"levelo://app?vid=aa89890e-9369-4ccb-8fcc-00218209f1be"},"vehicle_type_id":"4","last_reported":1783453161,"current_range_meters":3600,"station_id":"","pricing_plan_id":"cebpf4jnsgd1na2vs0mg"},{"bike_id":"9309962d-90e2-45a7-bed3-11f556c2a994","system_id":"levelo_inurba_marseille","lat":43.30936,"lon":5.39037,"is_reserved":false,"is_disabled":false,"rental_uris":{"android":"levelo://app?vid=9309962d-90e2-45a7-bed3-11f556c2a994","ios":"levelo://app?vid=9309962d-90e2-45a7-bed3-11f556c2a994"},"vehicle_type_id":"4","last_reported":1783453161,"current_range_meters":3600,"station_id":"ce4bgup2rcd13ifvqco0","pricing_plan_id":"cebpf4jnsgd1na2vs0mg"},{"bike_id":"9dbc6b5d-d921-4618-b2d6-4ccd5a1ce15a","system_id":"levelo_inurba_marseille","lat":43.31105,"lon":5.38228,"is_reserved":false,"is_disabled":false,"rental_uris":{"android":"levelo://app?vid=9dbc6b5d-d921-4618-b2d6-4ccd5a1ce15a","ios":"levelo://app?vid=9dbc6b5d-d921-4618-b2d6-4ccd5a1ce15a"},"vehicle_type_id":"4","last_reported":1783453161,"current_range_meters":4000,"station_id":"","pricing_plan_id":"cebpf4jnsgd1na2vs0mg"},{"bike_id":"4461f359-e578-4853-804a-593f2289f613","system_id":"levelo_inurba_marseille","lat":43.29646,"lon":5.40128,"is_reserved":false,"is_disabled":false,"rental_uris":{"android":"levelo://app?vid=4461f359-e578-4853-804a-593f2289f613","ios":"levelo://app?vid=4461f359-e578-4853-804a-593f2289f613"},"vehicle_type_id":"4","last_reported":1783453161,"current_range_meters":4000,"station_id":"","pricing_plan_id":"cebpf4jnsgd1na2vs0mg"},{"bike_id":"d4f54aae-8e08-42c8-a787-059a3a9f8421","system_id":"levelo_inurba_marseille","lat":43.29464,"lon":5.44849,"is_reserved":false,"is_disabled":false,"rental_uris":{"android":"levelo://app?vid=d4f54aae-8e08-42c8-a787-059a3a9f8421","ios":"levelo://app?vid=d4f54aae-8e08-42c8-a787-059a3a9f8421"},"vehicle_type_id":"4","last_reported":1783453161,"current_range_meters":4000,"station_id":"","pricing_plan_id":"cebpf4jnsgd1na2vs0mg"},{"bike_id":"6dba7751-9b32-49d1-8663-50c18acacf6a","system_id":"levelo_inurba_marseille","lat":43.30623,"lon":5.37569,"is_reserved":false,"is_disabled":false,"rental_uris":{"android":"levelo://app?vid=6dba7751-9b32-49d1-8663-50c18acacf6a","ios":"levelo://app?vid=6dba7751-9b32-49d1-8663-50c18acacf6a"},"vehicle_type_id":"4","last_reported":1783453161,"current_range_meters":4000,"station_id":"","pricing_plan_id":"cebpf4jnsgd1na2vs0mg"},{"bike_id":"7edce65f-5ddf-438d-b839-5dbaf1f3b1bd","system_id":"levelo_inurba_marseille","lat":43.29245,"lon":5.3847,"is_reserved":false,"is_disabled":false,"rental_uris":{"android":"levelo://app?vid=7edce65f-5ddf-438d-b839-5dbaf1f3b1bd","ios":"levelo://app?vid=7edce65f-5ddf-438d-b839-5dbaf1f3b1bd"},"vehicle_type_id":"4","last_reported":1783453161,"current_range_meters":4000,"station_id":"ce4bh692rcd13ifvqea0","pricing_plan_id":"cebpf4jnsgd1na2vs0mg"},{"bike_id":"a9c9bc8f-26ec-4554-b30e-ad69c3184f37","system_id":"levelo_inurba_marseille","lat":43.25223,"lon":5.38038,"is_reserved":false,"is_disabled":false,"rental_uris":{"android":"levelo://app?vid=a9c9bc8f-26ec-4554-b30e-ad69c3184f37","ios":"levelo://app?vid=a9c9bc8f-26ec-4554-b30e-ad69c3184f37"},"vehicle_type_id":"4","last_reported":1783453161,"current_range_meters":4000,"station_id":"","pricing_plan_id":"cebpf4jnsgd1na2vs0mg"},{"bike_id":"8b9db7fa-0942-4065-9a9d-d9a5190798fe","system_id":"levelo_inurba_marseille","lat":43.24376,"lon":5.38515,"is_reserved":false,"is_disabled":false,"rental_uris":{"android":"levelo://app?vid=8b9db7fa-0942-4065-9a9d-d9a5190798fe","ios":"levelo://app?vid=8b9db7fa-0942-4065-9a9d-d9a5190798fe"},"vehicle_type_id":"4","last_reported":1783453161,"current_range_meters":4000,"station_id":"","pricing_plan_id":"cebpf4jnsgd1na2vs0mg"},{"bike_id":"22548119-db44-48f1-9533-7082119d4a22","system_id":"levelo_inurba_marseille","lat":43.26551,"lon":5.37281,"is_reserved":false,"is_disabled":false,"rental_uris":{"android":"levelo://app?vid=22548119-db44-48f1-9533-7082119d4a22","ios":"levelo://app?vid=22548119-db44-48f1-9533-7082119d4a22"},"vehicle_type_id":"4","last_reported":1783453161,"current_range_meters":4000,"station_id":"ce4bhg12rcd13ifvqf70","pricing_plan_id":"cebpf4jnsgd1na2vs0mg"},{"bike_id":"63ea15bf-e4c9-4e1f-88b5-a37c0a7b6653","system_id":"levelo_inurba_marseille","lat":43.28273,"lon":5.35063,"is_reserved":false,"is_disabled":false,"rental_uris":{"android":"levelo://app?vid=63ea15bf-e4c9-4e1f-88b5-a37c0a7b6653","ios":"levelo://app?vid=63ea15bf-e4c9-4e1f-88b5-a37c0a7b6653"},"vehicle_type_id":"4","last_reported":1783453161,"current_range_meters":4000,"station_id":"ce4bhbp2rcd13ifvqerg","pricing_plan_id":"cebpf4jnsgd1na2vs0mg"},{"bike_id":"0d21fbcc-c167-40b9-a2ad-d8e84f22a0a8","system_id":"levelo_inurba_marseille","lat":43.3089,"lon":5.39659,"is_reserved":false,"is_disabled":false,"rental_uris":{"android":"levelo://app?vid=0d21fbcc-c167-40b9-a2ad-d8e84f22a0a8","ios":"levelo://app?vid=0d21fbcc-c167-40b9-a2ad-d8e84f22a0a8"},"vehicle_type_id":"4","last_reported":1783453161,"current_range_meters":4000,"station_id":"ce4bh012rcd13ifvqcv0","pricing_plan_id":"cebpf4jnsgd1na2vs0mg"},{"bike_id":"45cf330a-b85e-4393-8e1d-d2995db97f4b","system_id":"levelo_inurba_marseille","lat":43.28466,"lon":5.35891,"is_reserved":false,"is_disabled":false,"rental_uris":{"android":"levelo://app?vid=45cf330a-b85e-4393-8e1d-d2995db97f4b","ios":"levelo://app?vid=45cf330a-b85e-4393-8e1d-d2995db97f4b"},"vehicle_type_id":"4","last_reported":1783453161,"current_range_meters":4000,"station_id":"ce4bhah2rcd13ifvqei0","pricing_plan_id":"cebpf4jnsgd1na2vs0mg"},{"bike_id":"b2a4d694-3ae3-439c-8f65-83073fbdc351","system_id":"levelo_inurba_marseille","lat":43.28404,"lon":5.34983,"is_reserved":false,"is_disabled":false,"rental_uris":{"android":"levelo://app?vid=b2a4d694-3ae3-439c-8f65-83073fbdc351","ios":"levelo://app?vid=b2a4d694-3ae3-439c-8f65-83073fbdc351"},"vehicle_type_id":"4","last_reported":1783453161,"current_range_meters":4000,"station_id":"ce4bhbh2rcd13ifvqepg","pricing_plan_id":"cebpf4jnsgd1na2vs0mg"},{"bike_id":"eff906e5-c31d-49b6-be73-7c9b73f9e245","system_id":"levelo_inurba_marseille","lat":43.28412,"lon":5.34989,"is_reserved":false,"is_disabled":false,"rental_uris":{"android":"levelo://app?vid=eff906e5-c31d-49b6-be73-7c9b73f9e245","ios":"levelo://app?vid=eff906e5-c31d-49b6-be73-7c9b73f9e245"},"vehicle_type_id":"4","last_reported":1783453161,"current_range_meters":4000,"station_id":"ce4bhbh2rcd13ifvqepg","pricing_plan_id":"cebpf4jnsgd1na2vs0mg"},{"bike_id":"43463906-30d0-4691-953f-eba235a730cf","system_id":"levelo_inurba_marseille","lat":43.3353,"lon":5.37462,"is_reserved":false,"is_disabled":false,"rental_uris":{"android":"levelo://app?vid=43463906-30d0-4691-953f-eba235a730cf","ios":"levelo://app?vid=43463906-30d0-4691-953f-eba235a730cf"},"vehicle_type_id":"4","last_reported":1783453161,"current_range_meters":4000,"station_id":"st_d46tts09ee8s73dlu43g","pricing_plan_id":"cebpf4jnsgd1na2vs0mg"},{"bike_id":"8f9589bc-5102-48ec-bff3-0aa876684c01","system_id":"levelo_inurba_marseille","lat":43.29828,"lon":5.4407,"is_reserved":false,"is_disabled":true,"rental_uris":{"android":"levelo://app?vid=8f9589bc-5102-48ec-bff3-0aa876684c01","ios":"levelo://app?vid=8f9589bc-5102-48ec-bff3-0aa876684c01"},"vehicle_type_id":"4","last_reported":1783453161,"current_range_meters":4000,"station_id":"st_d3jp68qikq2c7381ktn0","pricing_plan_id":"cebpf4jnsgd1na2vs0mg"},{"bike_id":"9397a9ae-98a1-4398-a0a8-062ac77f5129","system_id":"levelo_inurba_marseille","lat":43.287273,"lon":5.360793,"is_reserved":false,"is_disabled":false,"rental_uris":{"android":"levelo://app?vid=9397a9ae-98a1-4398-a0a8-062ac77f5129","ios":"levelo://app?vid=9397a9ae-98a1-4398-a0a8-062ac77f5129"},"vehicle_type_id":"4","last_reported":1783453161,"current_range_meters":4000,"station_id":"cki0cbj6b192h4jlfktg","pricing_plan_id":"cebpf4jnsgd1na2vs0mg"},{"bike_id":"ce984c70-b306-4b18-a72a-4e5e26192971","system_id":"levelo_inurba_marseille","lat":43.23688,"lon":5.36067,"is_reserved":false,"is_disabled":false,"rental_uris":{"android":"levelo://app?vid=ce984c70-b306-4b18-a72a-4e5e26192971","ios":"levelo://app?vid=ce984c70-b306-4b18-a72a-4e5e26192971"},"vehicle_type_id":"4","last_reported":1783453161,"current_range_meters":4000,"station_id":"","pricing_plan_id":"cebpf4jnsgd1na2vs0mg"},{"bike_id":"ce246acd-8c78-4e93-8d68-b477575009da","system_id":"levelo_inurba_marseille","lat":43.25196,"lon":5.37815,"is_reserved":false,"is_disabled":false,"rental_uris":{"android":"levelo://app?vid=ce246acd-8c78-4e93-8d68-b477575009da","ios":"levelo://app?vid=ce246acd-8c78-4e93-8d68-b477575009da"},"vehicle_type_id":"4","last_reported":1783453161,"current_range_meters":4000,"station_id":"","pricing_plan_id":"cebpf4jnsgd1na2vs0mg"},{"bike_id":"6ddd6b27-5a6d-48d8-876f-ac188d90aab4","system_id":"levelo_inurba_marseille","lat":43.29777,"lon":5.37107,"is_reserved":false,"is_disabled":false,"rental_uris":{"android":"levelo://app?vid=6ddd6b27-5a6d-48d8-876f-ac188d90aab4","ios":"levelo://app?vid=6ddd6b27-5a6d-48d8-876f-ac188d90aab4"},"vehicle_type_id":"4","last_reported":1783453161,"current_range_meters":4000,"station_id":"ce4bgop2rcd13ifvqc1g","pricing_plan_id":"cebpf4jnsgd1na2vs0mg"},{"bike_id":"401beb52-7dd5-4e26-b86e-92c4b7a914f4","system_id":"levelo_inurba_marseille","lat":43.28426,"lon":5.34997,"is_reserved":false,"is_disabled":true,"rental_uris":{"android":"levelo://app?vid=401beb52-7dd5-4e26-b86e-92c4b7a914f4","ios":"levelo://app?vid=401beb52-7dd5-4e26-b86e-92c4b7a914f4"},"vehicle_type_id":"4","last_reported":1783453161,"current_range_meters":4400,"station_id":"ce4bhbh2rcd13ifvqepg","pricing_plan_id":"cebpf4jnsgd1na2vs0mg"},{"bike_id":"b47d58c7-2f47-44f4-b19c-d8c7ff4d6dd6","system_id":"levelo_inurba_marseille","lat":43.30305,"lon":5.39208,"is_reserved":false,"is_disabled":false,"rental_uris":{"android":"levelo://app?vid=b47d58c7-2f47-44f4-b19c-d8c7ff4d6dd6","ios":"levelo://app?vid=b47d58c7-2f47-44f4-b19c-d8c7ff4d6dd6"},"vehicle_type_id":"4","last_reported":1783453161,"current_range_meters":4400,"station_id":"ce4bgkh2rcd13ifvqbk0","pricing_plan_id":"cebpf4jnsgd1na2vs0mg"},{"bike_id":"5f3db657-539e-4869-9ae4-dc405c65d581","system_id":"levelo_inurba_marseille","lat":43.23609,"lon":5.37475,"is_reserved":false,"is_disabled":false,"rental_uris":{"android":"levelo://app?vid=5f3db657-539e-4869-9ae4-dc405c65d581","ios":"levelo://app?vid=5f3db657-539e-4869-9ae4-dc405c65d581"},"vehicle_type_id":"4","last_reported":1783453161,"current_range_meters":4400,"station_id":"","pricing_plan_id":"cebpf4jnsgd1na2vs0mg"},{"bike_id":"ca599f09-f156-4a15-b2d1-cff306b38e16","system_id":"levelo_inurba_marseille","lat":43.29029,"lon":5.38128,"is_reserved":false,"is_disabled":true,"rental_uris":{"android":"levelo://app?vid=ca599f09-f156-4a15-b2d1-cff306b38e16","ios":"levelo://app?vid=ca599f09-f156-4a15-b2d1-cff306b38e16"},"vehicle_type_id":"4","last_reported":1783453161,"current_range_meters":4400,"station_id":"ce4bh4p2rcd13ifvqe1g","pricing_plan_id":"cebpf4jnsgd1na2vs0mg"},{"bike_id":"c33bac24-7d2b-4184-8c4a-db5ab7b94a68","system_id":"levelo_inurba_marseille","lat":43.25398,"lon":5.42715,"is_reserved":false,"is_disabled":false,"rental_uris":{"android":"levelo://app?vid=c33bac24-7d2b-4184-8c4a-db5ab7b94a68","ios":"levelo://app?vid=c33bac24-7d2b-4184-8c4a-db5ab7b94a68"},"vehicle_type_id":"4","last_reported":1783453161,"current_range_meters":4400,"station_id":"","pricing_plan_id":"cebpf4jnsgd1na2vs0mg"},{"bike_id":"a5e43570-e01d-47d0-b4ab-4f08dec50696","system_id":"levelo_inurba_marseille","lat":43.28608,"lon":5.35107,"is_reserved":false,"is_disabled":false,"rental_uris":{"android":"levelo://app?vid=a5e43570-e01d-47d0-b4ab-4f08dec50696","ios":"levelo://app?vid=a5e43570-e01d-47d0-b4ab-4f08dec50696"},"vehicle_type_id":"4","last_reported":1783453161,"current_range_meters":4400,"station_id":"ce4bhch2rcd13ifvqeug","pricing_plan_id":"cebpf4jnsgd1na2vs0mg"},{"bike_id":"89472712-e6bc-4276-b26c-0445e4130d17","system_id":"levelo_inurba_marseille","lat":43.28607,"lon":5.35115,"is_reserved":false,"is_disabled":false,"rental_uris":{"android":"levelo://app?vid=89472712-e6bc-4276-b26c-0445e4130d17","ios":"levelo://app?vid=89472712-e6bc-4276-b26c-0445e4130d17"},"vehicle_type_id":"4","last_reported":1783453161,"current_range_meters":4400,"station_id":"ce4bhch2rcd13ifvqeug","pricing_plan_id":"cebpf4jnsgd1na2vs0mg"},{"bike_id":"55a2e920-c03d-4c16-8765-05f1b190aa46","system_id":"levelo_inurba_marseille","lat":43.24302,"lon":5.37138,"is_reserved":false,"is_disabled":true,"rental_uris":{"android":"levelo://app?vid=55a2e920-c03d-4c16-8765-05f1b190aa46","ios":"levelo://app?vid=55a2e920-c03d-4c16-8765-05f1b190aa46"},"vehicle_type_id":"4","last_reported":1783453161,"current_range_meters":4400,"station_id":"","pricing_plan_id":"cebpf4jnsgd1na2vs0mg"},{"bike_id":"68576130-524e-4a46-bd67-9dab3ddcb0d7","system_id":"levelo_inurba_marseille","lat":43.24168,"lon":5.36396,"is_reserved":false,"is_disabled":true,"rental_uris":{"android":"levelo://app?vid=68576130-524e-4a46-bd67-9dab3ddcb0d7","ios":"levelo://app?vid=68576130-524e-4a46-bd67-9dab3ddcb0d7"},"vehicle_type_id":"4","last_reported":1783453161,"current_range_meters":4400,"station_id":"cpo36qri1sfpv3e86is0","pricing_plan_id":"cebpf4jnsgd1na2vs0mg"},{"bike_id":"d328015d-e86e-4aa8-a824-f3f03bb17137","system_id":"levelo_inurba_marseille","lat":43.29889,"lon":5.43659,"is_reserved":false,"is_disabled":false,"rental_uris":{"android":"levelo://app?vid=d328015d-e86e-4aa8-a824-f3f03bb17137","ios":"levelo://app?vid=d328015d-e86e-4aa8-a824-f3f03bb17137"},"vehicle_type_id":"4","last_reported":1783453161,"current_range_meters":4400,"station_id":"ce4bhpp2rcd13ifvqhfg","pricing_plan_id":"cebpf4jnsgd1na2vs0mg"},{"bike_id":"6d75fd5f-0573-4974-81d4-40fd3bd13743","system_id":"levelo_inurba_marseille","lat":43.27808,"lon":5.40704,"is_reserved":false,"is_disabled":false,"rental_uris":{"android":"levelo://app?vid=6d75fd5f-0573-4974-81d4-40fd3bd13743","ios":"levelo://app?vid=6d75fd5f-0573-4974-81d4-40fd3bd13743"},"vehicle_type_id":"4","last_reported":1783453161,"current_range_meters":4400,"station_id":"ce4bhnh2rcd13ifvqgtg","pricing_plan_id":"cebpf4jnsgd1na2vs0mg"},{"bike_id":"a4075591-0262-47b7-80c4-0794325fbac9","system_id":"levelo_inurba_marseille","lat":43.29226,"lon":5.36055,"is_reserved":false,"is_disabled":false,"rental_uris":{"android":"levelo://app?vid=a4075591-0262-47b7-80c4-0794325fbac9","ios":"levelo://app?vid=a4075591-0262-47b7-80c4-0794325fbac9"},"vehicle_type_id":"4","last_reported":1783453161,"current_range_meters":4400,"station_id":"ce4bhbh2rcd13ifvqeqg","pricing_plan_id":"cebpf4jnsgd1na2vs0mg"},{"bike_id":"970f9d27-c901-484d-9773-22a023a5892c","system_id":"levelo_inurba_marseille","lat":43.24975,"lon":5.40479,"is_reserved":false,"is_disabled":false,"rental_uris":{"android":"levelo://app?vid=970f9d27-c901-484d-9773-22a023a5892c","ios":"levelo://app?vid=970f9d27-c901-484d-9773-22a023a5892c"},"vehicle_type_id":"4","last_reported":1783453161,"current_range_meters":4400,"station_id":"st_d2ngiaodas8pm72gd1h0","pricing_plan_id":"cebpf4jnsgd1na2vs0mg"},{"bike_id":"39d344a6-9f9e-4e03-abbf-54d88c3a78f1","system_id":"levelo_inurba_marseille","lat":43.33761,"lon":5.37463,"is_reserved":false,"is_disabled":false,"rental_uris":{"android":"levelo://app?vid=39d344a6-9f9e-4e03-abbf-54d88c3a78f1","ios":"levelo://app?vid=39d344a6-9f9e-4e03-abbf-54d88c3a78f1"},"vehicle_type_id":"4","last_reported":1783453161,"current_range_meters":4400,"station_id":"","pricing_plan_id":"cebpf4jnsgd1na2vs0mg"},{"bike_id":"b91befbb-6e17-4be1-8cb9-8bec22a584cc","system_id":"levelo_inurba_marseille","lat":43.26521,"lon":5.42224,"is_reserved":false,"is_disabled":false,"rental_uris":{"android":"levelo://app?vid=b91befbb-6e17-4be1-8cb9-8bec22a584cc","ios":"levelo://app?vid=b91befbb-6e17-4be1-8cb9-8bec22a584cc"},"vehicle_type_id":"4","last_reported":1783453161,"current_range_meters":4400,"station_id":"","pricing_plan_id":"cebpf4jnsgd1na2vs0mg"},{"bike_id":"f402f14d-f7f3-47d5-b13d-acb42aa09241","system_id":"levelo_inurba_marseille","lat":43.29193,"lon":5.35779,"is_reserved":false,"is_disabled":false,"rental_uris":{"android":"levelo://app?vid=f402f14d-f7f3-47d5-b13d-acb42aa09241","ios":"levelo://app?vid=f402f14d-f7f3-47d5-b13d-acb42aa09241"},"vehicle_type_id":"4","last_reported":1783453161,"current_range_meters":4400,"station_id":"ce4bhb12rcd13ifvqel0","pricing_plan_id":"cebpf4jnsgd1na2vs0mg"},{"bike_id":"935b705b-606b-4475-91d7-388bed222d2a","system_id":"levelo_inurba_marseille","lat":43.21737,"lon":5.34612,"is_reserved":false,"is_disabled":true,"rental_uris":{"android":"levelo://app?vid=935b705b-606b-4475-91d7-388bed222d2a","ios":"levelo://app?vid=935b705b-606b-4475-91d7-388bed222d2a"},"vehicle_type_id":"4","last_reported":1783453161,"current_range_meters":4400,"station_id":"st_cvj6r9ubvosntc0bgbag","pricing_plan_id":"cebpf4jnsgd1na2vs0mg"},{"bike_id":"ad96ea2e-d2e6-43d4-a12e-3bf37f8aaa0d","system_id":"levelo_inurba_marseille","lat":43.309002,"lon":5.391171,"is_reserved":false,"is_disabled":false,"rental_uris":{"android":"levelo://app?vid=ad96ea2e-d2e6-43d4-a12e-3bf37f8aaa0d","ios":"levelo://app?vid=ad96ea2e-d2e6-43d4-a12e-3bf37f8aaa0d"},"vehicle_type_id":"4","last_reported":1783453161,"current_range_meters":4400,"station_id":"ce4bgup2rcd13ifvqco0","pricing_plan_id":"cebpf4jnsgd1na2vs0mg"},{"bike_id":"0642f81e-fa16-4bd2-9ba3-26fad53609b9","system_id":"levelo_inurba_marseille","lat":43.31313,"lon":5.39034,"is_reserved":false,"is_disabled":false,"rental_uris":{"android":"levelo://app?vid=0642f81e-fa16-4bd2-9ba3-26fad53609b9","ios":"levelo://app?vid=0642f81e-fa16-4bd2-9ba3-26fad53609b9"},"vehicle_type_id":"4","last_reported":1783453161,"current_range_meters":4400,"station_id":"","pricing_plan_id":"cebpf4jnsgd1na2vs0mg"},{"bike_id":"7981ea20-5248-4fa5-a401-a522df3b4d26","system_id":"levelo_inurba_marseille","lat":43.23173,"lon":5.3557,"is_reserved":false,"is_disabled":true,"rental_uris":{"android":"levelo://app?vid=7981ea20-5248-4fa5-a401-a522df3b4d26","ios":"levelo://app?vid=7981ea20-5248-4fa5-a401-a522df3b4d26"},"vehicle_type_id":"4","last_reported":1783453161,"current_range_meters":4400,"station_id":"ce4bhu92rcd13ifvqi70","pricing_plan_id":"cebpf4jnsgd1na2vs0mg"},{"bike_id":"30943e09-16fc-488e-ad38-eca01f9d1c7b","system_id":"levelo_inurba_marseille","lat":43.24801,"lon":5.37452,"is_reserved":false,"is_disabled":true,"rental_uris":{"android":"levelo://app?vid=30943e09-16fc-488e-ad38-eca01f9d1c7b","ios":"levelo://app?vid=30943e09-16fc-488e-ad38-eca01f9d1c7b"},"vehicle_type_id":"4","last_reported":1783453161,"current_range_meters":4400,"station_id":"ce4bhgh2rcd13ifvqfb0","pricing_plan_id":"cebpf4jnsgd1na2vs0mg"},{"bike_id":"bf2d02fd-dbd5-4eb5-bfca-4b5204661889","system_id":"levelo_inurba_marseille","lat":43.27147,"lon":5.39001,"is_reserved":false,"is_disabled":false,"rental_uris":{"android":"levelo://app?vid=bf2d02fd-dbd5-4eb5-bfca-4b5204661889","ios":"levelo://app?vid=bf2d02fd-dbd5-4eb5-bfca-4b5204661889"},"vehicle_type_id":"4","last_reported":1783453161,"current_range_meters":4400,"station_id":"","pricing_plan_id":"cebpf4jnsgd1na2vs0mg"},{"bike_id":"299e017c-2e18-42bc-a1e7-ff9688dc2341","system_id":"levelo_inurba_marseille","lat":43.293382,"lon":5.371394,"is_reserved":false,"is_disabled":false,"rental_uris":{"android":"levelo://app?vid=299e017c-2e18-42bc-a1e7-ff9688dc2341","ios":"levelo://app?vid=299e017c-2e18-42bc-a1e7-ff9688dc2341"},"vehicle_type_id":"4","last_reported":1783453161,"current_range_meters":4400,"station_id":"ce4bgh92rcd13ifvqb40","pricing_plan_id":"cebpf4jnsgd1na2vs0mg"},{"bike_id":"9fad2b88-3b21-4b0c-b0eb-2a3cd48301a6","system_id":"levelo_inurba_marseille","lat":43.24405,"lon":5.37051,"is_reserved":false,"is_disabled":true,"rental_uris":{"android":"levelo://app?vid=9fad2b88-3b21-4b0c-b0eb-2a3cd48301a6","ios":"levelo://app?vid=9fad2b88-3b21-4b0c-b0eb-2a3cd48301a6"},"vehicle_type_id":"4","last_reported":1783453161,"current_range_meters":4800,"station_id":"ce4bhhh2rcd13ifvqfk0","pricing_plan_id":"cebpf4jnsgd1na2vs0mg"},{"bike_id":"6444b19d-06b5-41e8-b1f0-ef84d52d8914","system_id":"levelo_inurba_marseille","lat":43.2831,"lon":5.34977,"is_reserved":false,"is_disabled":false,"rental_uris":{"android":"levelo://app?vid=6444b19d-06b5-41e8-b1f0-ef84d52d8914","ios":"levelo://app?vid=6444b19d-06b5-41e8-b1f0-ef84d52d8914"},"vehicle_type_id":"4","last_reported":1783453161,"current_range_meters":4800,"station_id":"","pricing_plan_id":"cebpf4jnsgd1na2vs0mg"},{"bike_id":"fb557b6f-3ce0-4df7-adcf-7d21736b35ad","system_id":"levelo_inurba_marseille","lat":43.26222,"lon":5.37423,"is_reserved":false,"is_disabled":false,"rental_uris":{"android":"levelo://app?vid=fb557b6f-3ce0-4df7-adcf-7d21736b35ad","ios":"levelo://app?vid=fb557b6f-3ce0-4df7-adcf-7d21736b35ad"},"vehicle_type_id":"4","last_reported":1783453161,"current_range_meters":4800,"station_id":"","pricing_plan_id":"cebpf4jnsgd1na2vs0mg"},{"bike_id":"01de31a5-3b02-4d74-a149-4ba40aa9be4b","system_id":"levelo_inurba_marseille","lat":43.29563,"lon":5.39951,"is_reserved":false,"is_disabled":false,"rental_uris":{"android":"levelo://app?vid=01de31a5-3b02-4d74-a149-4ba40aa9be4b","ios":"levelo://app?vid=01de31a5-3b02-4d74-a149-4ba40aa9be4b"},"vehicle_type_id":"4","last_reported":1783453161,"current_range_meters":4800,"station_id":"ce4bh312rcd13ifvqdj0","pricing_plan_id":"cebpf4jnsgd1na2vs0mg"},{"bike_id":"8e768e5a-ba32-4518-9bd1-61a1c0a41447","system_id":"levelo_inurba_marseille","lat":43.29691,"lon":5.37117,"is_reserved":false,"is_disabled":true,"rental_uris":{"android":"levelo://app?vid=8e768e5a-ba32-4518-9bd1-61a1c0a41447","ios":"levelo://app?vid=8e768e5a-ba32-4518-9bd1-61a1c0a41447"},"vehicle_type_id":"4","last_reported":1783453161,"current_range_meters":4800,"station_id":"","pricing_plan_id":"cebpf4jnsgd1na2vs0mg"},{"bike_id":"d96cb2ee-a7b1-42b8-bf57-9f11f464b730","system_id":"levelo_inurba_marseille","lat":43.24162,"lon":5.36406,"is_reserved":false,"is_disabled":true,"rental_uris":{"android":"levelo://app?vid=d96cb2ee-a7b1-42b8-bf57-9f11f464b730","ios":"levelo://app?vid=d96cb2ee-a7b1-42b8-bf57-9f11f464b730"},"vehicle_type_id":"4","last_reported":1783453161,"current_range_meters":4800,"station_id":"cpo36qri1sfpv3e86is0","pricing_plan_id":"cebpf4jnsgd1na2vs0mg"},{"bike_id":"abcc1987-a497-467a-8382-ffe790974a3b","system_id":"levelo_inurba_marseille","lat":43.28416,"lon":5.34987,"is_reserved":false,"is_disabled":false,"rental_uris":{"android":"levelo://app?vid=abcc1987-a497-467a-8382-ffe790974a3b","ios":"levelo://app?vid=abcc1987-a497-467a-8382-ffe790974a3b"},"vehicle_type_id":"4","last_reported":1783453161,"current_range_meters":4800,"station_id":"ce4bhbh2rcd13ifvqepg","pricing_plan_id":"cebpf4jnsgd1na2vs0mg"},{"bike_id":"1f8f3e40-17a8-4f5c-8f54-b5b36153126c","system_id":"levelo_inurba_marseille","lat":43.28862,"lon":5.425181,"is_reserved":false,"is_disabled":false,"rental_uris":{"android":"levelo://app?vid=1f8f3e40-17a8-4f5c-8f54-b5b36153126c","ios":"levelo://app?vid=1f8f3e40-17a8-4f5c-8f54-b5b36153126c"},"vehicle_type_id":"4","last_reported":1783453161,"current_range_meters":4800,"station_id":"st_d3b462108ojc7389ooeg","pricing_plan_id":"cebpf4jnsgd1na2vs0mg"},{"bike_id":"0961aae5-8acf-4e66-95a7-76ee8fdbcad6","system_id":"levelo_inurba_marseille","lat":43.29604,"lon":5.38088,"is_reserved":false,"is_disabled":true,"rental_uris":{"android":"levelo://app?vid=0961aae5-8acf-4e66-95a7-76ee8fdbcad6","ios":"levelo://app?vid=0961aae5-8acf-4e66-95a7-76ee8fdbcad6"},"vehicle_type_id":"4","last_reported":1783453161,"current_range_meters":4800,"station_id":"ce4bgl12rcd13ifvqbo0","pricing_plan_id":"cebpf4jnsgd1na2vs0mg"},{"bike_id":"8a82404e-1f42-443a-a9a6-c42197279468","system_id":"levelo_inurba_marseille","lat":43.2678,"lon":5.39403,"is_reserved":false,"is_disabled":false,"rental_uris":{"android":"levelo://app?vid=8a82404e-1f42-443a-a9a6-c42197279468","ios":"levelo://app?vid=8a82404e-1f42-443a-a9a6-c42197279468"},"vehicle_type_id":"4","last_reported":1783453161,"current_range_meters":4800,"station_id":"ce4bhh12rcd13ifvqfg0","pricing_plan_id":"cebpf4jnsgd1na2vs0mg"},{"bike_id":"a50fa26e-2237-4732-b4a6-4e9d5f05f038","system_id":"levelo_inurba_marseille","lat":43.27773,"lon":5.35959,"is_reserved":false,"is_disabled":false,"rental_uris":{"android":"levelo://app?vid=a50fa26e-2237-4732-b4a6-4e9d5f05f038","ios":"levelo://app?vid=a50fa26e-2237-4732-b4a6-4e9d5f05f038"},"vehicle_type_id":"4","last_reported":1783453161,"current_range_meters":4800,"station_id":"","pricing_plan_id":"cebpf4jnsgd1na2vs0mg"},{"bike_id":"91a5a8ca-2478-4040-8e7b-fb96e4d02487","system_id":"levelo_inurba_marseille","lat":43.28409,"lon":5.34971,"is_reserved":false,"is_disabled":false,"rental_uris":{"android":"levelo://app?vid=91a5a8ca-2478-4040-8e7b-fb96e4d02487","ios":"levelo://app?vid=91a5a8ca-2478-4040-8e7b-fb96e4d02487"},"vehicle_type_id":"4","last_reported":1783453161,"current_range_meters":4800,"station_id":"ce4bhbh2rcd13ifvqepg","pricing_plan_id":"cebpf4jnsgd1na2vs0mg"},{"bike_id":"3e20c2b7-be82-4f95-a41f-49254a2d218f","system_id":"levelo_inurba_marseille","lat":43.28303,"lon":5.36262,"is_reserved":false,"is_disabled":false,"rental_uris":{"android":"levelo://app?vid=3e20c2b7-be82-4f95-a41f-49254a2d218f","ios":"levelo://app?vid=3e20c2b7-be82-4f95-a41f-49254a2d218f"},"vehicle_type_id":"4","last_reported":1783453161,"current_range_meters":4800,"station_id":"","pricing_plan_id":"cebpf4jnsgd1na2vs0mg"},{"bike_id":"dbed68a0-d683-4130-99cc-7a5d070add5a","system_id":"levelo_inurba_marseille","lat":43.23152,"lon":5.43705,"is_reserved":false,"is_disabled":true,"rental_uris":{"android":"levelo://app?vid=dbed68a0-d683-4130-99cc-7a5d070add5a","ios":"levelo://app?vid=dbed68a0-d683-4130-99cc-7a5d070add5a"},"vehicle_type_id":"4","last_reported":1783453161,"current_range_meters":4800,"station_id":"ce4bhmp2rcd13ifvqgog","pricing_plan_id":"cebpf4jnsgd1na2vs0mg"},{"bike_id":"c7ea8252-2d72-4321-b0bb-34385dfeb29a","system_id":"levelo_inurba_marseille","lat":43.30423,"lon":5.39721,"is_reserved":false,"is_disabled":false,"rental_uris":{"android":"levelo://app?vid=c7ea8252-2d72-4321-b0bb-34385dfeb29a","ios":"levelo://app?vid=c7ea8252-2d72-4321-b0bb-34385dfeb29a"},"vehicle_type_id":"4","last_reported":1783453161,"current_range_meters":4800,"station_id":"ce4bh092rcd13ifvqd20","pricing_plan_id":"cebpf4jnsgd1na2vs0mg"},{"bike_id":"a6376fca-e770-487b-9f61-9f4bf6a6bc54","system_id":"levelo_inurba_marseille","lat":43.24393,"lon":5.37045,"is_reserved":false,"is_disabled":true,"rental_uris":{"android":"levelo://app?vid=a6376fca-e770-487b-9f61-9f4bf6a6bc54","ios":"levelo://app?vid=a6376fca-e770-487b-9f61-9f4bf6a6bc54"},"vehicle_type_id":"4","last_reported":1783453161,"current_range_meters":4800,"station_id":"ce4bhhh2rcd13ifvqfk0","pricing_plan_id":"cebpf4jnsgd1na2vs0mg"},{"bike_id":"0142e413-32f0-4a67-9da0-eaf8d8ac0718","system_id":"levelo_inurba_marseille","lat":43.30741,"lon":5.44614,"is_reserved":false,"is_disabled":true,"rental_uris":{"android":"levelo://app?vid=0142e413-32f0-4a67-9da0-eaf8d8ac0718","ios":"levelo://app?vid=0142e413-32f0-4a67-9da0-eaf8d8ac0718"},"vehicle_type_id":"4","last_reported":1783453161,"current_range_meters":4800,"station_id":"","pricing_plan_id":"cebpf4jnsgd1na2vs0mg"},{"bike_id":"240abc92-ffc2-4531-b575-f9fecdf095fb","system_id":"levelo_inurba_marseille","lat":43.27815,"lon":5.40707,"is_reserved":false,"is_disabled":false,"rental_uris":{"android":"levelo://app?vid=240abc92-ffc2-4531-b575-f9fecdf095fb","ios":"levelo://app?vid=240abc92-ffc2-4531-b575-f9fecdf095fb"},"vehicle_type_id":"4","last_reported":1783453161,"current_range_meters":4800,"station_id":"ce4bhnh2rcd13ifvqgtg","pricing_plan_id":"cebpf4jnsgd1na2vs0mg"},{"bike_id":"854f4c61-b95c-42e3-be5d-48ccc9f93c3f","system_id":"levelo_inurba_marseille","lat":43.28463,"lon":5.35876,"is_reserved":false,"is_disabled":false,"rental_uris":{"android":"levelo://app?vid=854f4c61-b95c-42e3-be5d-48ccc9f93c3f","ios":"levelo://app?vid=854f4c61-b95c-42e3-be5d-48ccc9f93c3f"},"vehicle_type_id":"4","last_reported":1783453161,"current_range_meters":5600,"station_id":"ce4bhah2rcd13ifvqei0","pricing_plan_id":"cebpf4jnsgd1na2vs0mg"},{"bike_id":"85e526e4-04da-47c6-b77f-6f18ba079a1e","system_id":"levelo_inurba_marseille","lat":43.30306,"lon":5.39519,"is_reserved":false,"is_disabled":false,"rental_uris":{"android":"levelo://app?vid=85e526e4-04da-47c6-b77f-6f18ba079a1e","ios":"levelo://app?vid=85e526e4-04da-47c6-b77f-6f18ba079a1e"},"vehicle_type_id":"4","last_reported":1783453161,"current_range_meters":5600,"station_id":"","pricing_plan_id":"cebpf4jnsgd1na2vs0mg"},{"bike_id":"dba96277-395c-4229-a6c2-674c9ca4389f","system_id":"levelo_inurba_marseille","lat":43.25719,"lon":5.41818,"is_reserved":false,"is_disabled":false,"rental_uris":{"android":"levelo://app?vid=dba96277-395c-4229-a6c2-674c9ca4389f","ios":"levelo://app?vid=dba96277-395c-4229-a6c2-674c9ca4389f"},"vehicle_type_id":"4","last_reported":1783453161,"current_range_meters":5600,"station_id":"","pricing_plan_id":"cebpf4jnsgd1na2vs0mg"},{"bike_id":"56206bf3-b1e5-44f9-9502-0eb9472f4cf1","system_id":"levelo_inurba_marseille","lat":43.29357,"lon":5.4026,"is_reserved":false,"is_disabled":false,"rental_uris":{"android":"levelo://app?vid=56206bf3-b1e5-44f9-9502-0eb9472f4cf1","ios":"levelo://app?vid=56206bf3-b1e5-44f9-9502-0eb9472f4cf1"},"vehicle_type_id":"4","last_reported":1783453161,"current_range_meters":5600,"station_id":"","pricing_plan_id":"cebpf4jnsgd1na2vs0mg"},{"bike_id":"f32cdf9a-576b-4b27-b9be-a25712691f8e","system_id":"levelo_inurba_marseille","lat":43.31689,"lon":5.37337,"is_reserved":false,"is_disabled":false,"rental_uris":{"android":"levelo://app?vid=f32cdf9a-576b-4b27-b9be-a25712691f8e","ios":"levelo://app?vid=f32cdf9a-576b-4b27-b9be-a25712691f8e"},"vehicle_type_id":"4","last_reported":1783453161,"current_range_meters":5600,"station_id":"","pricing_plan_id":"cebpf4jnsgd1na2vs0mg"},{"bike_id":"108bd70f-62e9-4002-9e5e-6bb29c3d4e15","system_id":"levelo_inurba_marseille","lat":43.24625,"lon":5.3896,"is_reserved":false,"is_disabled":false,"rental_uris":{"android":"levelo://app?vid=108bd70f-62e9-4002-9e5e-6bb29c3d4e15","ios":"levelo://app?vid=108bd70f-62e9-4002-9e5e-6bb29c3d4e15"},"vehicle_type_id":"4","last_reported":1783453161,"current_range_meters":5600,"station_id":"","pricing_plan_id":"cebpf4jnsgd1na2vs0mg"},{"bike_id":"4950968e-fa61-49e5-9dee-6de87ac6388d","system_id":"levelo_inurba_marseille","lat":43.29036,"lon":5.36954,"is_reserved":false,"is_disabled":false,"rental_uris":{"android":"levelo://app?vid=4950968e-fa61-49e5-9dee-6de87ac6388d","ios":"levelo://app?vid=4950968e-fa61-49e5-9dee-6de87ac6388d"},"vehicle_type_id":"4","last_reported":1783453161,"current_range_meters":5600,"station_id":"","pricing_plan_id":"cebpf4jnsgd1na2vs0mg"},{"bike_id":"f7809977-bda7-43e8-bb7e-4bef8b6f0f97","system_id":"levelo_inurba_marseille","lat":43.30006,"lon":5.37349,"is_reserved":false,"is_disabled":false,"rental_uris":{"android":"levelo://app?vid=f7809977-bda7-43e8-bb7e-4bef8b6f0f97","ios":"levelo://app?vid=f7809977-bda7-43e8-bb7e-4bef8b6f0f97"},"vehicle_type_id":"4","last_reported":1783453161,"current_range_meters":5600,"station_id":"","pricing_plan_id":"cebpf4jnsgd1na2vs0mg"},{"bike_id":"98d38cc2-1c37-4d92-a90c-eb01d7757881","system_id":"levelo_inurba_marseille","lat":43.30886,"lon":5.39659,"is_reserved":false,"is_disabled":false,"rental_uris":{"android":"levelo://app?vid=98d38cc2-1c37-4d92-a90c-eb01d7757881","ios":"levelo://app?vid=98d38cc2-1c37-4d92-a90c-eb01d7757881"},"vehicle_type_id":"4","last_reported":1783453161,"current_range_meters":5600,"station_id":"ce4bh012rcd13ifvqcv0","pricing_plan_id":"cebpf4jnsgd1na2vs0mg"},{"bike_id":"f25c9973-86be-47e9-b136-7902b6101199","system_id":"levelo_inurba_marseille","lat":43.28412,"lon":5.34999,"is_reserved":false,"is_disabled":false,"rental_uris":{"android":"levelo://app?vid=f25c9973-86be-47e9-b136-7902b6101199","ios":"levelo://app?vid=f25c9973-86be-47e9-b136-7902b6101199"},"vehicle_type_id":"4","last_reported":1783453161,"current_range_meters":5600,"station_id":"ce4bhbh2rcd13ifvqepg","pricing_plan_id":"cebpf4jnsgd1na2vs0mg"},{"bike_id":"677ad55a-8774-4ee1-a311-2b5de6fb969b","system_id":"levelo_inurba_marseille","lat":43.265484,"lon":5.372862,"is_reserved":false,"is_disabled":false,"rental_uris":{"android":"levelo://app?vid=677ad55a-8774-4ee1-a311-2b5de6fb969b","ios":"levelo://app?vid=677ad55a-8774-4ee1-a311-2b5de6fb969b"},"vehicle_type_id":"4","last_reported":1783453161,"current_range_meters":5600,"station_id":"ce4bhg12rcd13ifvqf70","pricing_plan_id":"cebpf4jnsgd1na2vs0mg"},{"bike_id":"e0305505-9569-4df7-a8cd-4bd5878894f1","system_id":"levelo_inurba_marseille","lat":43.28771,"lon":5.38083,"is_reserved":false,"is_disabled":false,"rental_uris":{"android":"levelo://app?vid=e0305505-9569-4df7-a8cd-4bd5878894f1","ios":"levelo://app?vid=e0305505-9569-4df7-a8cd-4bd5878894f1"},"vehicle_type_id":"4","last_reported":1783453161,"current_range_meters":5600,"station_id":"","pricing_plan_id":"cebpf4jnsgd1na2vs0mg"},{"bike_id":"bb6807ef-965e-43b2-a2be-e58b885ff21e","system_id":"levelo_inurba_marseille","lat":43.31891,"lon":5.38611,"is_reserved":false,"is_disabled":false,"rental_uris":{"android":"levelo://app?vid=bb6807ef-965e-43b2-a2be-e58b885ff21e","ios":"levelo://app?vid=bb6807ef-965e-43b2-a2be-e58b885ff21e"},"vehicle_type_id":"4","last_reported":1783453161,"current_range_meters":5600,"station_id":"","pricing_plan_id":"cebpf4jnsgd1na2vs0mg"},{"bike_id":"a2ef02c0-0665-4eb1-aa47-af1029d50580","system_id":"levelo_inurba_marseille","lat":43.2902,"lon":5.38617,"is_reserved":false,"is_disabled":false,"rental_uris":{"android":"levelo://app?vid=a2ef02c0-0665-4eb1-aa47-af1029d50580","ios":"levelo://app?vid=a2ef02c0-0665-4eb1-aa47-af1029d50580"},"vehicle_type_id":"4","last_reported":1783453161,"current_range_meters":5600,"station_id":"ce4bh4p2rcd13ifvqe0g","pricing_plan_id":"cebpf4jnsgd1na2vs0mg"},{"bike_id":"c225d542-3b33-4a85-a375-02a17ab6f62f","system_id":"levelo_inurba_marseille","lat":43.2927,"lon":5.37631,"is_reserved":false,"is_disabled":false,"rental_uris":{"android":"levelo://app?vid=c225d542-3b33-4a85-a375-02a17ab6f62f","ios":"levelo://app?vid=c225d542-3b33-4a85-a375-02a17ab6f62f"},"vehicle_type_id":"4","last_reported":1783453161,"current_range_meters":5600,"station_id":"ce4bgi12rcd13ifvqb80","pricing_plan_id":"cebpf4jnsgd1na2vs0mg"},{"bike_id":"4feeeab7-348e-4598-a9c7-b66d51a44c0d","system_id":"levelo_inurba_marseille","lat":43.28259,"lon":5.35071,"is_reserved":false,"is_disabled":false,"rental_uris":{"android":"levelo://app?vid=4feeeab7-348e-4598-a9c7-b66d51a44c0d","ios":"levelo://app?vid=4feeeab7-348e-4598-a9c7-b66d51a44c0d"},"vehicle_type_id":"4","last_reported":1783453161,"current_range_meters":6000,"station_id":"ce4bhbp2rcd13ifvqerg","pricing_plan_id":"cebpf4jnsgd1na2vs0mg"},{"bike_id":"c6cb8df0-f1a9-4c87-993a-1a77e7e046f1","system_id":"levelo_inurba_marseille","lat":43.29268,"lon":5.36852,"is_reserved":false,"is_disabled":false,"rental_uris":{"android":"levelo://app?vid=c6cb8df0-f1a9-4c87-993a-1a77e7e046f1","ios":"levelo://app?vid=c6cb8df0-f1a9-4c87-993a-1a77e7e046f1"},"vehicle_type_id":"4","last_reported":1783453161,"current_range_meters":6000,"station_id":"ce4bhbp2rcd13ifvqesg","pricing_plan_id":"cebpf4jnsgd1na2vs0mg"},{"bike_id":"158da3ed-42d4-4d62-97ad-c86dd7f2a70a","system_id":"levelo_inurba_marseille","lat":43.29425,"lon":5.39748,"is_reserved":false,"is_disabled":false,"rental_uris":{"android":"levelo://app?vid=158da3ed-42d4-4d62-97ad-c86dd7f2a70a","ios":"levelo://app?vid=158da3ed-42d4-4d62-97ad-c86dd7f2a70a"},"vehicle_type_id":"4","last_reported":1783453161,"current_range_meters":6000,"station_id":"ce4bh3h2rcd13ifvqdo0","pricing_plan_id":"cebpf4jnsgd1na2vs0mg"},{"bike_id":"825e0b69-1ecd-4951-8ba3-c943ea1858d4","system_id":"levelo_inurba_marseille","lat":43.255163,"lon":5.376518,"is_reserved":false,"is_disabled":true,"rental_uris":{"android":"levelo://app?vid=825e0b69-1ecd-4951-8ba3-c943ea1858d4","ios":"levelo://app?vid=825e0b69-1ecd-4951-8ba3-c943ea1858d4"},"vehicle_type_id":"4","last_reported":1783453161,"current_range_meters":6000,"station_id":"ce4bhh12rcd13ifvqff0","pricing_plan_id":"cebpf4jnsgd1na2vs0mg"},{"bike_id":"58a46d9a-1f13-4a96-828b-f6b17a203c7c","system_id":"levelo_inurba_marseille","lat":43.29916,"lon":5.37474,"is_reserved":false,"is_disabled":false,"rental_uris":{"android":"levelo://app?vid=58a46d9a-1f13-4a96-828b-f6b17a203c7c","ios":"levelo://app?vid=58a46d9a-1f13-4a96-828b-f6b17a203c7c"},"vehicle_type_id":"4","last_reported":1783453161,"current_range_meters":6000,"station_id":"ce4bgjh2rcd13ifvqbg0","pricing_plan_id":"cebpf4jnsgd1na2vs0mg"},{"bike_id":"d76c8370-7377-410d-bcc7-fdc52eaf857c","system_id":"levelo_inurba_marseille","lat":43.24641,"lon":5.43118,"is_reserved":false,"is_disabled":false,"rental_uris":{"android":"levelo://app?vid=d76c8370-7377-410d-bcc7-fdc52eaf857c","ios":"levelo://app?vid=d76c8370-7377-410d-bcc7-fdc52eaf857c"},"vehicle_type_id":"4","last_reported":1783453161,"current_range_meters":6000,"station_id":"st_d2m6c4gdas8pm72e190g","pricing_plan_id":"cebpf4jnsgd1na2vs0mg"},{"bike_id":"1df151cf-d8f0-4a65-8b05-c736d4325626","system_id":"levelo_inurba_marseille","lat":43.31756,"lon":5.39014,"is_reserved":false,"is_disabled":false,"rental_uris":{"android":"levelo://app?vid=1df151cf-d8f0-4a65-8b05-c736d4325626","ios":"levelo://app?vid=1df151cf-d8f0-4a65-8b05-c736d4325626"},"vehicle_type_id":"4","last_reported":1783453161,"current_range_meters":6000,"station_id":"ce4bhqp2rcd13ifvqhng","pricing_plan_id":"cebpf4jnsgd1na2vs0mg"},{"bike_id":"3633122f-e99d-4f9d-8c83-1c0411df7b3c","system_id":"levelo_inurba_marseille","lat":43.27967,"lon":5.38714,"is_reserved":false,"is_disabled":false,"rental_uris":{"android":"levelo://app?vid=3633122f-e99d-4f9d-8c83-1c0411df7b3c","ios":"levelo://app?vid=3633122f-e99d-4f9d-8c83-1c0411df7b3c"},"vehicle_type_id":"4","last_reported":1783453161,"current_range_meters":6000,"station_id":"ce4bhg12rcd13ifvqf80","pricing_plan_id":"cebpf4jnsgd1na2vs0mg"},{"bike_id":"7ba47a37-f237-491c-877e-1d7012a5b804","system_id":"levelo_inurba_marseille","lat":43.26219,"lon":5.4046,"is_reserved":false,"is_disabled":false,"rental_uris":{"android":"levelo://app?vid=7ba47a37-f237-491c-877e-1d7012a5b804","ios":"levelo://app?vid=7ba47a37-f237-491c-877e-1d7012a5b804"},"vehicle_type_id":"4","last_reported":1783453161,"current_range_meters":6000,"station_id":"ce4bhmh2rcd13ifvqgmg","pricing_plan_id":"cebpf4jnsgd1na2vs0mg"},{"bike_id":"a839ee65-e165-465f-a591-2b89ee64b2a0","system_id":"levelo_inurba_marseille","lat":43.25709,"lon":5.41086,"is_reserved":false,"is_disabled":false,"rental_uris":{"android":"levelo://app?vid=a839ee65-e165-465f-a591-2b89ee64b2a0","ios":"levelo://app?vid=a839ee65-e165-465f-a591-2b89ee64b2a0"},"vehicle_type_id":"4","last_reported":1783453161,"current_range_meters":6000,"station_id":"ce4bhkp2rcd13ifvqgd0","pricing_plan_id":"cebpf4jnsgd1na2vs0mg"},{"bike_id":"9909ee19-b4ca-42e8-9496-ca01c243939a","system_id":"levelo_inurba_marseille","lat":43.23181,"lon":5.40474,"is_reserved":false,"is_disabled":false,"rental_uris":{"android":"levelo://app?vid=9909ee19-b4ca-42e8-9496-ca01c243939a","ios":"levelo://app?vid=9909ee19-b4ca-42e8-9496-ca01c243939a"},"vehicle_type_id":"4","last_reported":1783453161,"current_range_meters":6000,"station_id":"","pricing_plan_id":"cebpf4jnsgd1na2vs0mg"},{"bike_id":"2b2dcb84-0b15-4188-b010-a06dbd937554","system_id":"levelo_inurba_marseille","lat":43.28605,"lon":5.35105,"is_reserved":false,"is_disabled":false,"rental_uris":{"android":"levelo://app?vid=2b2dcb84-0b15-4188-b010-a06dbd937554","ios":"levelo://app?vid=2b2dcb84-0b15-4188-b010-a06dbd937554"},"vehicle_type_id":"4","last_reported":1783453161,"current_range_meters":6000,"station_id":"ce4bhch2rcd13ifvqeug","pricing_plan_id":"cebpf4jnsgd1na2vs0mg"},{"bike_id":"09485e5f-b240-438b-a911-ba21eb0180ba","system_id":"levelo_inurba_marseille","lat":43.27048,"lon":5.40264,"is_reserved":false,"is_disabled":false,"rental_uris":{"android":"levelo://app?vid=09485e5f-b240-438b-a911-ba21eb0180ba","ios":"levelo://app?vid=09485e5f-b240-438b-a911-ba21eb0180ba"},"vehicle_type_id":"4","last_reported":1783453161,"current_range_meters":6000,"station_id":"ce4bhk92rcd13ifvqgc0","pricing_plan_id":"cebpf4jnsgd1na2vs0mg"},{"bike_id":"fb1a0f2a-09e7-4e8e-afdd-08de2960b4ce","system_id":"levelo_inurba_marseille","lat":43.27369,"lon":5.36252,"is_reserved":false,"is_disabled":false,"rental_uris":{"android":"levelo://app?vid=fb1a0f2a-09e7-4e8e-afdd-08de2960b4ce","ios":"levelo://app?vid=fb1a0f2a-09e7-4e8e-afdd-08de2960b4ce"},"vehicle_type_id":"4","last_reported":1783453161,"current_range_meters":6000,"station_id":"ce4bhbh2rcd13ifvqeo0","pricing_plan_id":"cebpf4jnsgd1na2vs0mg"},{"bike_id":"07d22d15-253d-4661-95f3-1cf4a0e65903","system_id":"levelo_inurba_marseille","lat":43.27451,"lon":5.4153,"is_reserved":false,"is_disabled":false,"rental_uris":{"android":"levelo://app?vid=07d22d15-253d-4661-95f3-1cf4a0e65903","ios":"levelo://app?vid=07d22d15-253d-4661-95f3-1cf4a0e65903"},"vehicle_type_id":"4","last_reported":1783453161,"current_range_meters":6000,"station_id":"","pricing_plan_id":"cebpf4jnsgd1na2vs0mg"},{"bike_id":"35cb6c4e-6278-4052-bbc6-b95a7429aa59","system_id":"levelo_inurba_marseille","lat":43.2907,"lon":5.37154,"is_reserved":false,"is_disabled":false,"rental_uris":{"android":"levelo://app?vid=35cb6c4e-6278-4052-bbc6-b95a7429aa59","ios":"levelo://app?vid=35cb6c4e-6278-4052-bbc6-b95a7429aa59"},"vehicle_type_id":"4","last_reported":1783453161,"current_range_meters":6000,"station_id":"ce4bh5p2rcd13ifvqe4g","pricing_plan_id":"cebpf4jnsgd1na2vs0mg"},{"bike_id":"bfca1827-bbb1-4a3c-83d2-55c3870adf9b","system_id":"levelo_inurba_marseille","lat":43.28271,"lon":5.35043,"is_reserved":false,"is_disabled":false,"rental_uris":{"android":"levelo://app?vid=bfca1827-bbb1-4a3c-83d2-55c3870adf9b","ios":"levelo://app?vid=bfca1827-bbb1-4a3c-83d2-55c3870adf9b"},"vehicle_type_id":"4","last_reported":1783453161,"current_range_meters":6000,"station_id":"ce4bhbp2rcd13ifvqerg","pricing_plan_id":"cebpf4jnsgd1na2vs0mg"},{"bike_id":"d0208d64-9cdd-47cc-b418-2abbaf29b1fd","system_id":"levelo_inurba_marseille","lat":43.32989,"lon":5.39694,"is_reserved":false,"is_disabled":false,"rental_uris":{"android":"levelo://app?vid=d0208d64-9cdd-47cc-b418-2abbaf29b1fd","ios":"levelo://app?vid=d0208d64-9cdd-47cc-b418-2abbaf29b1fd"},"vehicle_type_id":"4","last_reported":1783453161,"current_range_meters":6000,"station_id":"","pricing_plan_id":"cebpf4jnsgd1na2vs0mg"},{"bike_id":"3f5a3c1b-1dd0-4f63-adc4-fee55e0c9465","system_id":"levelo_inurba_marseille","lat":43.33392,"lon":5.40723,"is_reserved":false,"is_disabled":false,"rental_uris":{"android":"levelo://app?vid=3f5a3c1b-1dd0-4f63-adc4-fee55e0c9465","ios":"levelo://app?vid=3f5a3c1b-1dd0-4f63-adc4-fee55e0c9465"},"vehicle_type_id":"4","last_reported":1783453161,"current_range_meters":6000,"station_id":"","pricing_plan_id":"cebpf4jnsgd1na2vs0mg"},{"bike_id":"d525da24-a041-4b64-b63c-c64a46846db4","system_id":"levelo_inurba_marseille","lat":43.27915,"lon":5.39575,"is_reserved":false,"is_disabled":false,"rental_uris":{"android":"levelo://app?vid=d525da24-a041-4b64-b63c-c64a46846db4","ios":"levelo://app?vid=d525da24-a041-4b64-b63c-c64a46846db4"},"vehicle_type_id":"4","last_reported":1783453161,"current_range_meters":6000,"station_id":"ce4bhf92rcd13ifvqf40","pricing_plan_id":"cebpf4jnsgd1na2vs0mg"},{"bike_id":"968a2fdc-a521-4576-bdf0-9caa313d2cc2","system_id":"levelo_inurba_marseille","lat":43.28609,"lon":5.351,"is_reserved":false,"is_disabled":false,"rental_uris":{"android":"levelo://app?vid=968a2fdc-a521-4576-bdf0-9caa313d2cc2","ios":"levelo://app?vid=968a2fdc-a521-4576-bdf0-9caa313d2cc2"},"vehicle_type_id":"4","last_reported":1783453161,"current_range_meters":6000,"station_id":"ce4bhch2rcd13ifvqeug","pricing_plan_id":"cebpf4jnsgd1na2vs0mg"},{"bike_id":"26807e64-e705-48d3-a4b2-a5a9802a8e7c","system_id":"levelo_inurba_marseille","lat":43.28484,"lon":5.48378,"is_reserved":false,"is_disabled":false,"rental_uris":{"android":"levelo://app?vid=26807e64-e705-48d3-a4b2-a5a9802a8e7c","ios":"levelo://app?vid=26807e64-e705-48d3-a4b2-a5a9802a8e7c"},"vehicle_type_id":"4","last_reported":1783453161,"current_range_meters":6000,"station_id":"st_d3svhcjqgbts73a3dn0g","pricing_plan_id":"cebpf4jnsgd1na2vs0mg"},{"bike_id":"9e9ef8d0-05a1-40e5-a8d0-1ab74fa34867","system_id":"levelo_inurba_marseille","lat":43.29583,"lon":5.36748,"is_reserved":false,"is_disabled":false,"rental_uris":{"android":"levelo://app?vid=9e9ef8d0-05a1-40e5-a8d0-1ab74fa34867","ios":"levelo://app?vid=9e9ef8d0-05a1-40e5-a8d0-1ab74fa34867"},"vehicle_type_id":"4","last_reported":1783453161,"current_range_meters":6400,"station_id":"ce4bgph2rcd13ifvqc2g","pricing_plan_id":"cebpf4jnsgd1na2vs0mg"},{"bike_id":"a8bc9b95-568e-42e9-904a-dc73a068f4bc","system_id":"levelo_inurba_marseille","lat":43.29258,"lon":5.40913,"is_reserved":false,"is_disabled":true,"rental_uris":{"android":"levelo://app?vid=a8bc9b95-568e-42e9-904a-dc73a068f4bc","ios":"levelo://app?vid=a8bc9b95-568e-42e9-904a-dc73a068f4bc"},"vehicle_type_id":"4","last_reported":1783453161,"current_range_meters":6400,"station_id":"ce4bh192rcd13ifvqdc0","pricing_plan_id":"cebpf4jnsgd1na2vs0mg"},{"bike_id":"36ac71f0-8ab5-42f4-b955-03285432c1fc","system_id":"levelo_inurba_marseille","lat":43.32604,"lon":5.36671,"is_reserved":false,"is_disabled":false,"rental_uris":{"android":"levelo://app?vid=36ac71f0-8ab5-42f4-b955-03285432c1fc","ios":"levelo://app?vid=36ac71f0-8ab5-42f4-b955-03285432c1fc"},"vehicle_type_id":"4","last_reported":1783453161,"current_range_meters":6400,"station_id":"","pricing_plan_id":"cebpf4jnsgd1na2vs0mg"},{"bike_id":"81794b5e-7ec2-4f91-8e91-fd6bd8a3372c","system_id":"levelo_inurba_marseille","lat":43.26899,"lon":5.38883,"is_reserved":false,"is_disabled":false,"rental_uris":{"android":"levelo://app?vid=81794b5e-7ec2-4f91-8e91-fd6bd8a3372c","ios":"levelo://app?vid=81794b5e-7ec2-4f91-8e91-fd6bd8a3372c"},"vehicle_type_id":"4","last_reported":1783453161,"current_range_meters":6400,"station_id":"","pricing_plan_id":"cebpf4jnsgd1na2vs0mg"},{"bike_id":"01dc7650-24e7-4823-8de9-e3c43f67d1d6","system_id":"levelo_inurba_marseille","lat":43.303249,"lon":5.404354,"is_reserved":false,"is_disabled":false,"rental_uris":{"android":"levelo://app?vid=01dc7650-24e7-4823-8de9-e3c43f67d1d6","ios":"levelo://app?vid=01dc7650-24e7-4823-8de9-e3c43f67d1d6"},"vehicle_type_id":"4","last_reported":1783453161,"current_range_meters":6400,"station_id":"ce4bh012rcd13ifvqd10","pricing_plan_id":"cebpf4jnsgd1na2vs0mg"},{"bike_id":"c0c26542-b3c8-4307-b5e7-b745ee1cc936","system_id":"levelo_inurba_marseille","lat":43.28611,"lon":5.35107,"is_reserved":false,"is_disabled":false,"rental_uris":{"android":"levelo://app?vid=c0c26542-b3c8-4307-b5e7-b745ee1cc936","ios":"levelo://app?vid=c0c26542-b3c8-4307-b5e7-b745ee1cc936"},"vehicle_type_id":"4","last_reported":1783453161,"current_range_meters":6400,"station_id":"ce4bhch2rcd13ifvqeug","pricing_plan_id":"cebpf4jnsgd1na2vs0mg"},{"bike_id":"baf99cf6-2fff-4447-a78a-6a67fb814a95","system_id":"levelo_inurba_marseille","lat":43.28581,"lon":5.35138,"is_reserved":false,"is_disabled":false,"rental_uris":{"android":"levelo://app?vid=baf99cf6-2fff-4447-a78a-6a67fb814a95","ios":"levelo://app?vid=baf99cf6-2fff-4447-a78a-6a67fb814a95"},"vehicle_type_id":"4","last_reported":1783453161,"current_range_meters":6400,"station_id":"","pricing_plan_id":"cebpf4jnsgd1na2vs0mg"},{"bike_id":"d36dfc07-84c7-48e2-ae1f-adbcd3f5540f","system_id":"levelo_inurba_marseille","lat":43.24172,"lon":5.36399,"is_reserved":false,"is_disabled":false,"rental_uris":{"android":"levelo://app?vid=d36dfc07-84c7-48e2-ae1f-adbcd3f5540f","ios":"levelo://app?vid=d36dfc07-84c7-48e2-ae1f-adbcd3f5540f"},"vehicle_type_id":"4","last_reported":1783453161,"current_range_meters":6400,"station_id":"cpo36qri1sfpv3e86is0","pricing_plan_id":"cebpf4jnsgd1na2vs0mg"},{"bike_id":"f656c73b-66f0-4628-958e-49d4903923bd","system_id":"levelo_inurba_marseille","lat":43.31889,"lon":5.36807,"is_reserved":false,"is_disabled":false,"rental_uris":{"android":"levelo://app?vid=f656c73b-66f0-4628-958e-49d4903923bd","ios":"levelo://app?vid=f656c73b-66f0-4628-958e-49d4903923bd"},"vehicle_type_id":"4","last_reported":1783453161,"current_range_meters":6400,"station_id":"st_d6o2h0d0559c73evc1b0","pricing_plan_id":"cebpf4jnsgd1na2vs0mg"},{"bike_id":"918a3ea2-7771-4e91-92e5-a7d3d7c63a50","system_id":"levelo_inurba_marseille","lat":43.29529,"lon":5.37511,"is_reserved":false,"is_disabled":false,"rental_uris":{"android":"levelo://app?vid=918a3ea2-7771-4e91-92e5-a7d3d7c63a50","ios":"levelo://app?vid=918a3ea2-7771-4e91-92e5-a7d3d7c63a50"},"vehicle_type_id":"4","last_reported":1783453161,"current_range_meters":6400,"station_id":"ce4bgkp2rcd13ifvqbmg","pricing_plan_id":"cebpf4jnsgd1na2vs0mg"},{"bike_id":"a67d29c7-31b7-4b5e-9af9-66fa8fd5fca1","system_id":"levelo_inurba_marseille","lat":43.26222,"lon":5.41662,"is_reserved":false,"is_disabled":false,"rental_uris":{"android":"levelo://app?vid=a67d29c7-31b7-4b5e-9af9-66fa8fd5fca1","ios":"levelo://app?vid=a67d29c7-31b7-4b5e-9af9-66fa8fd5fca1"},"vehicle_type_id":"4","last_reported":1783453161,"current_range_meters":6400,"station_id":"","pricing_plan_id":"cebpf4jnsgd1na2vs0mg"},{"bike_id":"268858a3-46fb-4c00-805b-be8fddee4c0b","system_id":"levelo_inurba_marseille","lat":43.25329,"lon":5.4218,"is_reserved":false,"is_disabled":false,"rental_uris":{"android":"levelo://app?vid=268858a3-46fb-4c00-805b-be8fddee4c0b","ios":"levelo://app?vid=268858a3-46fb-4c00-805b-be8fddee4c0b"},"vehicle_type_id":"4","last_reported":1783453161,"current_range_meters":6400,"station_id":"st_d2m65c5bi1j21697t3ng","pricing_plan_id":"cebpf4jnsgd1na2vs0mg"},{"bike_id":"187349e0-94ec-41e7-8157-b4936eadc4fe","system_id":"levelo_inurba_marseille","lat":43.31759,"lon":5.39009,"is_reserved":false,"is_disabled":false,"rental_uris":{"android":"levelo://app?vid=187349e0-94ec-41e7-8157-b4936eadc4fe","ios":"levelo://app?vid=187349e0-94ec-41e7-8157-b4936eadc4fe"},"vehicle_type_id":"4","last_reported":1783453161,"current_range_meters":6400,"station_id":"ce4bhqp2rcd13ifvqhng","pricing_plan_id":"cebpf4jnsgd1na2vs0mg"},{"bike_id":"c0069f21-c6a1-4129-8da3-8ff40bb4bc24","system_id":"levelo_inurba_marseille","lat":43.24659,"lon":5.38164,"is_reserved":false,"is_disabled":false,"rental_uris":{"android":"levelo://app?vid=c0069f21-c6a1-4129-8da3-8ff40bb4bc24","ios":"levelo://app?vid=c0069f21-c6a1-4129-8da3-8ff40bb4bc24"},"vehicle_type_id":"4","last_reported":1783453161,"current_range_meters":6400,"station_id":"ce4bhih2rcd13ifvqfr0","pricing_plan_id":"cebpf4jnsgd1na2vs0mg"},{"bike_id":"363bc3b5-10c1-401c-a855-1ea766662e42","system_id":"levelo_inurba_marseille","lat":43.28569,"lon":5.39495,"is_reserved":false,"is_disabled":false,"rental_uris":{"android":"levelo://app?vid=363bc3b5-10c1-401c-a855-1ea766662e42","ios":"levelo://app?vid=363bc3b5-10c1-401c-a855-1ea766662e42"},"vehicle_type_id":"4","last_reported":1783453161,"current_range_meters":6400,"station_id":"ce4bh292rcd13ifvqdg0","pricing_plan_id":"cebpf4jnsgd1na2vs0mg"},{"bike_id":"a14f2724-19fc-49ef-a387-3b6ddb3ea188","system_id":"levelo_inurba_marseille","lat":43.273752,"lon":5.362644,"is_reserved":false,"is_disabled":false,"rental_uris":{"android":"levelo://app?vid=a14f2724-19fc-49ef-a387-3b6ddb3ea188","ios":"levelo://app?vid=a14f2724-19fc-49ef-a387-3b6ddb3ea188"},"vehicle_type_id":"4","last_reported":1783453161,"current_range_meters":6400,"station_id":"ce4bhbh2rcd13ifvqeo0","pricing_plan_id":"cebpf4jnsgd1na2vs0mg"},{"bike_id":"a96aedad-610f-40f2-805a-101205eca472","system_id":"levelo_inurba_marseille","lat":43.30909,"lon":5.36847,"is_reserved":false,"is_disabled":false,"rental_uris":{"android":"levelo://app?vid=a96aedad-610f-40f2-805a-101205eca472","ios":"levelo://app?vid=a96aedad-610f-40f2-805a-101205eca472"},"vehicle_type_id":"4","last_reported":1783453161,"current_range_meters":6800,"station_id":"ce4bgn92rcd13ifvqbvg","pricing_plan_id":"cebpf4jnsgd1na2vs0mg"},{"bike_id":"b7841ab8-cf64-4c27-9ae1-388859f4dffe","system_id":"levelo_inurba_marseille","lat":43.2886,"lon":5.42527,"is_reserved":false,"is_disabled":false,"rental_uris":{"android":"levelo://app?vid=b7841ab8-cf64-4c27-9ae1-388859f4dffe","ios":"levelo://app?vid=b7841ab8-cf64-4c27-9ae1-388859f4dffe"},"vehicle_type_id":"4","last_reported":1783453161,"current_range_meters":6800,"station_id":"st_d3b462108ojc7389ooeg","pricing_plan_id":"cebpf4jnsgd1na2vs0mg"},{"bike_id":"b6879253-f1ac-4d6d-9740-19b6fcdcbe7a","system_id":"levelo_inurba_marseille","lat":43.32922,"lon":5.39068,"is_reserved":false,"is_disabled":false,"rental_uris":{"android":"levelo://app?vid=b6879253-f1ac-4d6d-9740-19b6fcdcbe7a","ios":"levelo://app?vid=b6879253-f1ac-4d6d-9740-19b6fcdcbe7a"},"vehicle_type_id":"4","last_reported":1783453161,"current_range_meters":6800,"station_id":"","pricing_plan_id":"cebpf4jnsgd1na2vs0mg"},{"bike_id":"77b41e3f-5c16-4e91-aacc-0bc34f6f7a05","system_id":"levelo_inurba_marseille","lat":43.31647,"lon":5.40546,"is_reserved":false,"is_disabled":false,"rental_uris":{"android":"levelo://app?vid=77b41e3f-5c16-4e91-aacc-0bc34f6f7a05","ios":"levelo://app?vid=77b41e3f-5c16-4e91-aacc-0bc34f6f7a05"},"vehicle_type_id":"4","last_reported":1783453161,"current_range_meters":6800,"station_id":"","pricing_plan_id":"cebpf4jnsgd1na2vs0mg"},{"bike_id":"8cd8273a-346e-4fb8-afa3-99fc9340afac","system_id":"levelo_inurba_marseille","lat":43.27427,"lon":5.36121,"is_reserved":false,"is_disabled":false,"rental_uris":{"android":"levelo://app?vid=8cd8273a-346e-4fb8-afa3-99fc9340afac","ios":"levelo://app?vid=8cd8273a-346e-4fb8-afa3-99fc9340afac"},"vehicle_type_id":"4","last_reported":1783453161,"current_range_meters":6800,"station_id":"","pricing_plan_id":"cebpf4jnsgd1na2vs0mg"},{"bike_id":"a84796e2-993d-4bce-8f7c-050ca0fbd3a0","system_id":"levelo_inurba_marseille","lat":43.30146,"lon":5.38776,"is_reserved":false,"is_disabled":false,"rental_uris":{"android":"levelo://app?vid=a84796e2-993d-4bce-8f7c-050ca0fbd3a0","ios":"levelo://app?vid=a84796e2-993d-4bce-8f7c-050ca0fbd3a0"},"vehicle_type_id":"4","last_reported":1783453161,"current_range_meters":6800,"station_id":"ce4bghh2rcd13ifvqb60","pricing_plan_id":"cebpf4jnsgd1na2vs0mg"},{"bike_id":"cffeff89-1a79-4eb1-8fc7-46f7a0d9ebc7","system_id":"levelo_inurba_marseille","lat":43.29252,"lon":5.36846,"is_reserved":false,"is_disabled":false,"rental_uris":{"android":"levelo://app?vid=cffeff89-1a79-4eb1-8fc7-46f7a0d9ebc7","ios":"levelo://app?vid=cffeff89-1a79-4eb1-8fc7-46f7a0d9ebc7"},"vehicle_type_id":"4","last_reported":1783453161,"current_range_meters":6800,"station_id":"ce4bhbp2rcd13ifvqesg","pricing_plan_id":"cebpf4jnsgd1na2vs0mg"},{"bike_id":"ce4fbe5f-866d-4ce7-9677-28f98c268c6d","system_id":"levelo_inurba_marseille","lat":43.25587,"lon":5.38224,"is_reserved":false,"is_disabled":false,"rental_uris":{"android":"levelo://app?vid=ce4fbe5f-866d-4ce7-9677-28f98c268c6d","ios":"levelo://app?vid=ce4fbe5f-866d-4ce7-9677-28f98c268c6d"},"vehicle_type_id":"4","last_reported":1783453161,"current_range_meters":6800,"station_id":"ce4bhih2rcd13ifvqfs0","pricing_plan_id":"cebpf4jnsgd1na2vs0mg"},{"bike_id":"34e85628-cc9a-48c0-bd41-78c23609ae7f","system_id":"levelo_inurba_marseille","lat":43.30954,"lon":5.39029,"is_reserved":false,"is_disabled":false,"rental_uris":{"android":"levelo://app?vid=34e85628-cc9a-48c0-bd41-78c23609ae7f","ios":"levelo://app?vid=34e85628-cc9a-48c0-bd41-78c23609ae7f"},"vehicle_type_id":"4","last_reported":1783453161,"current_range_meters":6800,"station_id":"ce4bgup2rcd13ifvqco0","pricing_plan_id":"cebpf4jnsgd1na2vs0mg"},{"bike_id":"8a60fd99-29f2-48fa-9eaa-21feda21be50","system_id":"levelo_inurba_marseille","lat":43.27162,"lon":5.40957,"is_reserved":false,"is_disabled":false,"rental_uris":{"android":"levelo://app?vid=8a60fd99-29f2-48fa-9eaa-21feda21be50","ios":"levelo://app?vid=8a60fd99-29f2-48fa-9eaa-21feda21be50"},"vehicle_type_id":"4","last_reported":1783453161,"current_range_meters":6800,"station_id":"ce4bhl12rcd13ifvqgf0","pricing_plan_id":"cebpf4jnsgd1na2vs0mg"},{"bike_id":"9ab6d1e3-0ad9-4637-8536-df9d68195748","system_id":"levelo_inurba_marseille","lat":43.29563,"lon":5.37497,"is_reserved":false,"is_disabled":true,"rental_uris":{"android":"levelo://app?vid=9ab6d1e3-0ad9-4637-8536-df9d68195748","ios":"levelo://app?vid=9ab6d1e3-0ad9-4637-8536-df9d68195748"},"vehicle_type_id":"4","last_reported":1783453161,"current_range_meters":6800,"station_id":"ce4bgh92rcd13ifvqb50","pricing_plan_id":"cebpf4jnsgd1na2vs0mg"},{"bike_id":"c526e977-effa-4911-a937-df5a8ad4590c","system_id":"levelo_inurba_marseille","lat":43.2378,"lon":5.36627,"is_reserved":false,"is_disabled":false,"rental_uris":{"android":"levelo://app?vid=c526e977-effa-4911-a937-df5a8ad4590c","ios":"levelo://app?vid=c526e977-effa-4911-a937-df5a8ad4590c"},"vehicle_type_id":"4","last_reported":1783453161,"current_range_meters":6800,"station_id":"st_d3nk18o9ro0c73en2l3g","pricing_plan_id":"cebpf4jnsgd1na2vs0mg"},{"bike_id":"5349d702-3eef-4360-8c75-b943a368bbbb","system_id":"levelo_inurba_marseille","lat":43.2753,"lon":5.36611,"is_reserved":false,"is_disabled":false,"rental_uris":{"android":"levelo://app?vid=5349d702-3eef-4360-8c75-b943a368bbbb","ios":"levelo://app?vid=5349d702-3eef-4360-8c75-b943a368bbbb"},"vehicle_type_id":"4","last_reported":1783453161,"current_range_meters":6800,"station_id":"","pricing_plan_id":"cebpf4jnsgd1na2vs0mg"},{"bike_id":"61bb3329-c351-4e0c-8093-c19808456125","system_id":"levelo_inurba_marseille","lat":43.28351,"lon":5.3812,"is_reserved":false,"is_disabled":false,"rental_uris":{"android":"levelo://app?vid=61bb3329-c351-4e0c-8093-c19808456125","ios":"levelo://app?vid=61bb3329-c351-4e0c-8093-c19808456125"},"vehicle_type_id":"4","last_reported":1783453161,"current_range_meters":6800,"station_id":"ce4bh412rcd13ifvqdr0","pricing_plan_id":"cebpf4jnsgd1na2vs0mg"},{"bike_id":"84b5cac9-c372-4bea-9441-4320852b2bcc","system_id":"levelo_inurba_marseille","lat":43.28945,"lon":5.3963,"is_reserved":false,"is_disabled":true,"rental_uris":{"android":"levelo://app?vid=84b5cac9-c372-4bea-9441-4320852b2bcc","ios":"levelo://app?vid=84b5cac9-c372-4bea-9441-4320852b2bcc"},"vehicle_type_id":"4","last_reported":1783453161,"current_range_meters":6800,"station_id":"ce4bh3h2rcd13ifvqdn0","pricing_plan_id":"cebpf4jnsgd1na2vs0mg"},{"bike_id":"cd98fbd5-9aff-4693-bf71-9c88ce166c64","system_id":"levelo_inurba_marseille","lat":43.30599,"lon":5.37219,"is_reserved":false,"is_disabled":false,"rental_uris":{"android":"levelo://app?vid=cd98fbd5-9aff-4693-bf71-9c88ce166c64","ios":"levelo://app?vid=cd98fbd5-9aff-4693-bf71-9c88ce166c64"},"vehicle_type_id":"4","last_reported":1783453161,"current_range_meters":6800,"station_id":"ce4bgqh2rcd13ifvqc4g","pricing_plan_id":"cebpf4jnsgd1na2vs0mg"},{"bike_id":"e45cbb00-8db4-424d-b738-38b779e404fa","system_id":"levelo_inurba_marseille","lat":43.30109,"lon":5.39087,"is_reserved":false,"is_disabled":false,"rental_uris":{"android":"levelo://app?vid=e45cbb00-8db4-424d-b738-38b779e404fa","ios":"levelo://app?vid=e45cbb00-8db4-424d-b738-38b779e404fa"},"vehicle_type_id":"4","last_reported":1783453161,"current_range_meters":6800,"station_id":"ce4bh192rcd13ifvqdb0","pricing_plan_id":"cebpf4jnsgd1na2vs0mg"},{"bike_id":"21969074-1fb3-488c-9873-38abdcacbdf0","system_id":"levelo_inurba_marseille","lat":43.287,"lon":5.4668,"is_reserved":false,"is_disabled":false,"rental_uris":{"android":"levelo://app?vid=21969074-1fb3-488c-9873-38abdcacbdf0","ios":"levelo://app?vid=21969074-1fb3-488c-9873-38abdcacbdf0"},"vehicle_type_id":"4","last_reported":1783453161,"current_range_meters":6800,"station_id":"st_d6tc3vkotcvc738tfjhg","pricing_plan_id":"cebpf4jnsgd1na2vs0mg"},{"bike_id":"88e8b0e2-3394-467c-80ea-7be30d7b20ec","system_id":"levelo_inurba_marseille","lat":43.24065,"lon":5.37763,"is_reserved":false,"is_disabled":false,"rental_uris":{"android":"levelo://app?vid=88e8b0e2-3394-467c-80ea-7be30d7b20ec","ios":"levelo://app?vid=88e8b0e2-3394-467c-80ea-7be30d7b20ec"},"vehicle_type_id":"4","last_reported":1783453161,"current_range_meters":6800,"station_id":"ce4bhnp2rcd13ifvqgvg","pricing_plan_id":"cebpf4jnsgd1na2vs0mg"},{"bike_id":"81d96b17-bcd7-4d18-ade9-c8e65af26f25","system_id":"levelo_inurba_marseille","lat":43.35129,"lon":5.3685,"is_reserved":false,"is_disabled":false,"rental_uris":{"android":"levelo://app?vid=81d96b17-bcd7-4d18-ade9-c8e65af26f25","ios":"levelo://app?vid=81d96b17-bcd7-4d18-ade9-c8e65af26f25"},"vehicle_type_id":"4","last_reported":1783453161,"current_range_meters":6800,"station_id":"","pricing_plan_id":"cebpf4jnsgd1na2vs0mg"},{"bike_id":"0a678c8b-f8b5-43fc-b3c7-84546b5601fa","system_id":"levelo_inurba_marseille","lat":43.27375,"lon":5.36255,"is_reserved":false,"is_disabled":false,"rental_uris":{"android":"levelo://app?vid=0a678c8b-f8b5-43fc-b3c7-84546b5601fa","ios":"levelo://app?vid=0a678c8b-f8b5-43fc-b3c7-84546b5601fa"},"vehicle_type_id":"4","last_reported":1783453161,"current_range_meters":6800,"station_id":"ce4bhbh2rcd13ifvqeo0","pricing_plan_id":"cebpf4jnsgd1na2vs0mg"},{"bike_id":"c667d4dd-7866-48ad-9181-18680324cefc","system_id":"levelo_inurba_marseille","lat":43.24385,"lon":5.37056,"is_reserved":false,"is_disabled":false,"rental_uris":{"android":"levelo://app?vid=c667d4dd-7866-48ad-9181-18680324cefc","ios":"levelo://app?vid=c667d4dd-7866-48ad-9181-18680324cefc"},"vehicle_type_id":"4","last_reported":1783453161,"current_range_meters":6800,"station_id":"ce4bhhh2rcd13ifvqfk0","pricing_plan_id":"cebpf4jnsgd1na2vs0mg"},{"bike_id":"88d01cbd-c4c7-497b-8c98-cefad39d8741","system_id":"levelo_inurba_marseille","lat":43.30874,"lon":5.39829,"is_reserved":false,"is_disabled":false,"rental_uris":{"android":"levelo://app?vid=88d01cbd-c4c7-497b-8c98-cefad39d8741","ios":"levelo://app?vid=88d01cbd-c4c7-497b-8c98-cefad39d8741"},"vehicle_type_id":"4","last_reported":1783453161,"current_range_meters":6800,"station_id":"","pricing_plan_id":"cebpf4jnsgd1na2vs0mg"},{"bike_id":"ac88ee16-7892-472f-85b1-3bcb1b5ba774","system_id":"levelo_inurba_marseille","lat":43.21189,"lon":5.35068,"is_reserved":false,"is_disabled":false,"rental_uris":{"android":"levelo://app?vid=ac88ee16-7892-472f-85b1-3bcb1b5ba774","ios":"levelo://app?vid=ac88ee16-7892-472f-85b1-3bcb1b5ba774"},"vehicle_type_id":"4","last_reported":1783453161,"current_range_meters":7200,"station_id":"st_cvj6sg6p6f1abm77japg","pricing_plan_id":"cebpf4jnsgd1na2vs0mg"},{"bike_id":"8dff0313-f787-4fa9-bffa-d0d178722c9c","system_id":"levelo_inurba_marseille","lat":43.27072,"lon":5.42267,"is_reserved":false,"is_disabled":false,"rental_uris":{"android":"levelo://app?vid=8dff0313-f787-4fa9-bffa-d0d178722c9c","ios":"levelo://app?vid=8dff0313-f787-4fa9-bffa-d0d178722c9c"},"vehicle_type_id":"4","last_reported":1783453161,"current_range_meters":7200,"station_id":"ce4bhk92rcd13ifvqgb0","pricing_plan_id":"cebpf4jnsgd1na2vs0mg"},{"bike_id":"33f79040-c386-4826-8c1f-060a45960d19","system_id":"levelo_inurba_marseille","lat":43.28419,"lon":5.34995,"is_reserved":false,"is_disabled":false,"rental_uris":{"android":"levelo://app?vid=33f79040-c386-4826-8c1f-060a45960d19","ios":"levelo://app?vid=33f79040-c386-4826-8c1f-060a45960d19"},"vehicle_type_id":"4","last_reported":1783453161,"current_range_meters":7200,"station_id":"ce4bhbh2rcd13ifvqepg","pricing_plan_id":"cebpf4jnsgd1na2vs0mg"},{"bike_id":"910ce522-4ad5-4a33-b092-6154491b8412","system_id":"levelo_inurba_marseille","lat":43.28427,"lon":5.34963,"is_reserved":false,"is_disabled":true,"rental_uris":{"android":"levelo://app?vid=910ce522-4ad5-4a33-b092-6154491b8412","ios":"levelo://app?vid=910ce522-4ad5-4a33-b092-6154491b8412"},"vehicle_type_id":"4","last_reported":1783453161,"current_range_meters":7200,"station_id":"ce4bhbh2rcd13ifvqepg","pricing_plan_id":"cebpf4jnsgd1na2vs0mg"},{"bike_id":"e4a2d089-fcbb-4b37-af7a-0e49f934baa8","system_id":"levelo_inurba_marseille","lat":43.23788,"lon":5.36621,"is_reserved":false,"is_disabled":false,"rental_uris":{"android":"levelo://app?vid=e4a2d089-fcbb-4b37-af7a-0e49f934baa8","ios":"levelo://app?vid=e4a2d089-fcbb-4b37-af7a-0e49f934baa8"},"vehicle_type_id":"4","last_reported":1783453161,"current_range_meters":7200,"station_id":"st_d3nk18o9ro0c73en2l3g","pricing_plan_id":"cebpf4jnsgd1na2vs0mg"},{"bike_id":"32ad17e2-75db-4140-96b3-6539f22c9f5b","system_id":"levelo_inurba_marseille","lat":43.28605,"lon":5.35099,"is_reserved":false,"is_disabled":false,"rental_uris":{"android":"levelo://app?vid=32ad17e2-75db-4140-96b3-6539f22c9f5b","ios":"levelo://app?vid=32ad17e2-75db-4140-96b3-6539f22c9f5b"},"vehicle_type_id":"4","last_reported":1783453161,"current_range_meters":7200,"station_id":"ce4bhch2rcd13ifvqeug","pricing_plan_id":"cebpf4jnsgd1na2vs0mg"},{"bike_id":"10136b26-1228-4c32-99e0-401ab44a27a3","system_id":"levelo_inurba_marseille","lat":43.27491,"lon":5.42562,"is_reserved":false,"is_disabled":false,"rental_uris":{"android":"levelo://app?vid=10136b26-1228-4c32-99e0-401ab44a27a3","ios":"levelo://app?vid=10136b26-1228-4c32-99e0-401ab44a27a3"},"vehicle_type_id":"4","last_reported":1783453161,"current_range_meters":7200,"station_id":"st_d8t4bh7nbrqs73arha60","pricing_plan_id":"cebpf4jnsgd1na2vs0mg"},{"bike_id":"c9945c1b-3ddf-4877-995d-971b5e05b166","system_id":"levelo_inurba_marseille","lat":43.278106,"lon":5.407036,"is_reserved":false,"is_disabled":false,"rental_uris":{"android":"levelo://app?vid=c9945c1b-3ddf-4877-995d-971b5e05b166","ios":"levelo://app?vid=c9945c1b-3ddf-4877-995d-971b5e05b166"},"vehicle_type_id":"4","last_reported":1783453161,"current_range_meters":7200,"station_id":"ce4bhnh2rcd13ifvqgtg","pricing_plan_id":"cebpf4jnsgd1na2vs0mg"},{"bike_id":"8dd35461-9e62-483a-b06c-d9f25cfa8a30","system_id":"levelo_inurba_marseille","lat":43.24056,"lon":5.37775,"is_reserved":false,"is_disabled":false,"rental_uris":{"android":"levelo://app?vid=8dd35461-9e62-483a-b06c-d9f25cfa8a30","ios":"levelo://app?vid=8dd35461-9e62-483a-b06c-d9f25cfa8a30"},"vehicle_type_id":"4","last_reported":1783453161,"current_range_meters":7200,"station_id":"ce4bhnp2rcd13ifvqgvg","pricing_plan_id":"cebpf4jnsgd1na2vs0mg"},{"bike_id":"767f36b8-c3a3-43ba-a160-786e891fe5d7","system_id":"levelo_inurba_marseille","lat":43.3206,"lon":5.4155,"is_reserved":false,"is_disabled":false,"rental_uris":{"android":"levelo://app?vid=767f36b8-c3a3-43ba-a160-786e891fe5d7","ios":"levelo://app?vid=767f36b8-c3a3-43ba-a160-786e891fe5d7"},"vehicle_type_id":"4","last_reported":1783453161,"current_range_meters":7200,"station_id":"ce4bhq92rcd13ifvqhkg","pricing_plan_id":"cebpf4jnsgd1na2vs0mg"},{"bike_id":"a068bb0a-86ef-4022-81ed-6d80f867cdc8","system_id":"levelo_inurba_marseille","lat":43.28612,"lon":5.37062,"is_reserved":false,"is_disabled":false,"rental_uris":{"android":"levelo://app?vid=a068bb0a-86ef-4022-81ed-6d80f867cdc8","ios":"levelo://app?vid=a068bb0a-86ef-4022-81ed-6d80f867cdc8"},"vehicle_type_id":"4","last_reported":1783453161,"current_range_meters":7200,"station_id":"ce4bht12rcd13ifvqi60","pricing_plan_id":"cebpf4jnsgd1na2vs0mg"},{"bike_id":"e46c5852-2b83-432c-9089-a1a12e85d39c","system_id":"levelo_inurba_marseille","lat":43.31901,"lon":5.42901,"is_reserved":false,"is_disabled":false,"rental_uris":{"android":"levelo://app?vid=e46c5852-2b83-432c-9089-a1a12e85d39c","ios":"levelo://app?vid=e46c5852-2b83-432c-9089-a1a12e85d39c"},"vehicle_type_id":"4","last_reported":1783453161,"current_range_meters":7200,"station_id":"","pricing_plan_id":"cebpf4jnsgd1na2vs0mg"},{"bike_id":"681ff363-1de8-40e2-82d5-0991867b851c","system_id":"levelo_inurba_marseille","lat":43.295717,"lon":5.39971,"is_reserved":false,"is_disabled":false,"rental_uris":{"android":"levelo://app?vid=681ff363-1de8-40e2-82d5-0991867b851c","ios":"levelo://app?vid=681ff363-1de8-40e2-82d5-0991867b851c"},"vehicle_type_id":"4","last_reported":1783453161,"current_range_meters":7200,"station_id":"ce4bh312rcd13ifvqdj0","pricing_plan_id":"cebpf4jnsgd1na2vs0mg"},{"bike_id":"4d52a61b-5c30-41df-a6ac-71b42f016aed","system_id":"levelo_inurba_marseille","lat":43.2586,"lon":5.39901,"is_reserved":false,"is_disabled":true,"rental_uris":{"android":"levelo://app?vid=4d52a61b-5c30-41df-a6ac-71b42f016aed","ios":"levelo://app?vid=4d52a61b-5c30-41df-a6ac-71b42f016aed"},"vehicle_type_id":"4","last_reported":1783453161,"current_range_meters":7200,"station_id":"ce4bhl92rcd13ifvqghg","pricing_plan_id":"cebpf4jnsgd1na2vs0mg"},{"bike_id":"c5428954-6a8c-434b-b478-2c2d81e3d859","system_id":"levelo_inurba_marseille","lat":43.29253,"lon":5.40905,"is_reserved":false,"is_disabled":true,"rental_uris":{"android":"levelo://app?vid=c5428954-6a8c-434b-b478-2c2d81e3d859","ios":"levelo://app?vid=c5428954-6a8c-434b-b478-2c2d81e3d859"},"vehicle_type_id":"4","last_reported":1783453161,"current_range_meters":7200,"station_id":"ce4bh192rcd13ifvqdc0","pricing_plan_id":"cebpf4jnsgd1na2vs0mg"},{"bike_id":"cc738f32-f811-4e3f-b968-0bc0d7c9be0d","system_id":"levelo_inurba_marseille","lat":43.29258,"lon":5.40915,"is_reserved":false,"is_disabled":true,"rental_uris":{"android":"levelo://app?vid=cc738f32-f811-4e3f-b968-0bc0d7c9be0d","ios":"levelo://app?vid=cc738f32-f811-4e3f-b968-0bc0d7c9be0d"},"vehicle_type_id":"4","last_reported":1783453161,"current_range_meters":7200,"station_id":"ce4bh192rcd13ifvqdc0","pricing_plan_id":"cebpf4jnsgd1na2vs0mg"},{"bike_id":"8feab343-aadc-43ad-bb24-73d5b419b2d0","system_id":"levelo_inurba_marseille","lat":43.24485,"lon":5.39685,"is_reserved":false,"is_disabled":false,"rental_uris":{"android":"levelo://app?vid=8feab343-aadc-43ad-bb24-73d5b419b2d0","ios":"levelo://app?vid=8feab343-aadc-43ad-bb24-73d5b419b2d0"},"vehicle_type_id":"4","last_reported":1783453161,"current_range_meters":7200,"station_id":"","pricing_plan_id":"cebpf4jnsgd1na2vs0mg"},{"bike_id":"adbede9c-54fa-49f9-a4a1-e72a974b99f4","system_id":"levelo_inurba_marseille","lat":43.29033,"lon":5.39953,"is_reserved":false,"is_disabled":false,"rental_uris":{"android":"levelo://app?vid=adbede9c-54fa-49f9-a4a1-e72a974b99f4","ios":"levelo://app?vid=adbede9c-54fa-49f9-a4a1-e72a974b99f4"},"vehicle_type_id":"4","last_reported":1783453161,"current_range_meters":7200,"station_id":"ce4bh392rcd13ifvqdm0","pricing_plan_id":"cebpf4jnsgd1na2vs0mg"},{"bike_id":"252d1181-7cba-4203-a6a7-936ef78e828d","system_id":"levelo_inurba_marseille","lat":43.25131,"lon":5.38551,"is_reserved":false,"is_disabled":false,"rental_uris":{"android":"levelo://app?vid=252d1181-7cba-4203-a6a7-936ef78e828d","ios":"levelo://app?vid=252d1181-7cba-4203-a6a7-936ef78e828d"},"vehicle_type_id":"4","last_reported":1783453161,"current_range_meters":7200,"station_id":"","pricing_plan_id":"cebpf4jnsgd1na2vs0mg"},{"bike_id":"98db3563-4c3d-4451-81a5-6805e0123323","system_id":"levelo_inurba_marseille","lat":43.28614,"lon":5.35098,"is_reserved":false,"is_disabled":false,"rental_uris":{"android":"levelo://app?vid=98db3563-4c3d-4451-81a5-6805e0123323","ios":"levelo://app?vid=98db3563-4c3d-4451-81a5-6805e0123323"},"vehicle_type_id":"4","last_reported":1783453161,"current_range_meters":7200,"station_id":"ce4bhch2rcd13ifvqeug","pricing_plan_id":"cebpf4jnsgd1na2vs0mg"},{"bike_id":"a7d00adf-28c2-4d68-be3b-3438a7cbbe22","system_id":"levelo_inurba_marseille","lat":43.29231,"lon":5.3605,"is_reserved":false,"is_disabled":false,"rental_uris":{"android":"levelo://app?vid=a7d00adf-28c2-4d68-be3b-3438a7cbbe22","ios":"levelo://app?vid=a7d00adf-28c2-4d68-be3b-3438a7cbbe22"},"vehicle_type_id":"4","last_reported":1783453161,"current_range_meters":7200,"station_id":"ce4bhbh2rcd13ifvqeqg","pricing_plan_id":"cebpf4jnsgd1na2vs0mg"},{"bike_id":"6009a8d6-74ed-47a9-a0dc-33e29e59fe8b","system_id":"levelo_inurba_marseille","lat":43.30542,"lon":5.36506,"is_reserved":false,"is_disabled":true,"rental_uris":{"android":"levelo://app?vid=6009a8d6-74ed-47a9-a0dc-33e29e59fe8b","ios":"levelo://app?vid=6009a8d6-74ed-47a9-a0dc-33e29e59fe8b"},"vehicle_type_id":"4","last_reported":1783453161,"current_range_meters":7200,"station_id":"","pricing_plan_id":"cebpf4jnsgd1na2vs0mg"},{"bike_id":"5466473c-f74c-43bf-aa96-519985042320","system_id":"levelo_inurba_marseille","lat":43.2928,"lon":5.38439,"is_reserved":false,"is_disabled":false,"rental_uris":{"android":"levelo://app?vid=5466473c-f74c-43bf-aa96-519985042320","ios":"levelo://app?vid=5466473c-f74c-43bf-aa96-519985042320"},"vehicle_type_id":"4","last_reported":1783453161,"current_range_meters":7200,"station_id":"ce4bh692rcd13ifvqea0","pricing_plan_id":"cebpf4jnsgd1na2vs0mg"},{"bike_id":"29bf15ed-cb5f-495d-9a7b-afd83bf34a21","system_id":"levelo_inurba_marseille","lat":43.23107,"lon":5.41294,"is_reserved":false,"is_disabled":false,"rental_uris":{"android":"levelo://app?vid=29bf15ed-cb5f-495d-9a7b-afd83bf34a21","ios":"levelo://app?vid=29bf15ed-cb5f-495d-9a7b-afd83bf34a21"},"vehicle_type_id":"4","last_reported":1783453161,"current_range_meters":7200,"station_id":"","pricing_plan_id":"cebpf4jnsgd1na2vs0mg"},{"bike_id":"d374c854-4248-4bd2-b2a2-fb880c8491e9","system_id":"levelo_inurba_marseille","lat":43.24096,"lon":5.37694,"is_reserved":false,"is_disabled":false,"rental_uris":{"android":"levelo://app?vid=d374c854-4248-4bd2-b2a2-fb880c8491e9","ios":"levelo://app?vid=d374c854-4248-4bd2-b2a2-fb880c8491e9"},"vehicle_type_id":"4","last_reported":1783453161,"current_range_meters":7200,"station_id":"","pricing_plan_id":"cebpf4jnsgd1na2vs0mg"},{"bike_id":"85f56b45-44e5-460e-92dc-1843285dcbe3","system_id":"levelo_inurba_marseille","lat":43.28413,"lon":5.3497,"is_reserved":false,"is_disabled":false,"rental_uris":{"android":"levelo://app?vid=85f56b45-44e5-460e-92dc-1843285dcbe3","ios":"levelo://app?vid=85f56b45-44e5-460e-92dc-1843285dcbe3"},"vehicle_type_id":"4","last_reported":1783453161,"current_range_meters":7200,"station_id":"ce4bhbh2rcd13ifvqepg","pricing_plan_id":"cebpf4jnsgd1na2vs0mg"},{"bike_id":"842d1814-2335-4a6a-958d-aa2b889abfa0","system_id":"levelo_inurba_marseille","lat":43.28423,"lon":5.3498,"is_reserved":false,"is_disabled":false,"rental_uris":{"android":"levelo://app?vid=842d1814-2335-4a6a-958d-aa2b889abfa0","ios":"levelo://app?vid=842d1814-2335-4a6a-958d-aa2b889abfa0"},"vehicle_type_id":"4","last_reported":1783453161,"current_range_meters":7200,"station_id":"ce4bhbh2rcd13ifvqepg","pricing_plan_id":"cebpf4jnsgd1na2vs0mg"},{"bike_id":"f0418703-7a27-4dca-9433-bdd8213135dc","system_id":"levelo_inurba_marseille","lat":43.21187,"lon":5.35082,"is_reserved":false,"is_disabled":false,"rental_uris":{"android":"levelo://app?vid=f0418703-7a27-4dca-9433-bdd8213135dc","ios":"levelo://app?vid=f0418703-7a27-4dca-9433-bdd8213135dc"},"vehicle_type_id":"4","last_reported":1783453161,"current_range_meters":8000,"station_id":"st_cvj6sg6p6f1abm77japg","pricing_plan_id":"cebpf4jnsgd1na2vs0mg"},{"bike_id":"f0697b92-9fd6-4e20-8efa-02d37fe954df","system_id":"levelo_inurba_marseille","lat":43.29635,"lon":5.40602,"is_reserved":false,"is_disabled":false,"rental_uris":{"android":"levelo://app?vid=f0697b92-9fd6-4e20-8efa-02d37fe954df","ios":"levelo://app?vid=f0697b92-9fd6-4e20-8efa-02d37fe954df"},"vehicle_type_id":"4","last_reported":1783453161,"current_range_meters":8000,"station_id":"ce4bh0h2rcd13ifvqd60","pricing_plan_id":"cebpf4jnsgd1na2vs0mg"},{"bike_id":"b959ba35-b21b-4df0-919d-0c18eb5f7e97","system_id":"levelo_inurba_marseille","lat":43.30549,"lon":5.367,"is_reserved":false,"is_disabled":true,"rental_uris":{"android":"levelo://app?vid=b959ba35-b21b-4df0-919d-0c18eb5f7e97","ios":"levelo://app?vid=b959ba35-b21b-4df0-919d-0c18eb5f7e97"},"vehicle_type_id":"4","last_reported":1783453161,"current_range_meters":8000,"station_id":"ce4bgrp2rcd13ifvqc9g","pricing_plan_id":"cebpf4jnsgd1na2vs0mg"},{"bike_id":"b2b0c4ce-a03c-4220-b1f5-e5ba91338faf","system_id":"levelo_inurba_marseille","lat":43.29267,"lon":5.36849,"is_reserved":false,"is_disabled":false,"rental_uris":{"android":"levelo://app?vid=b2b0c4ce-a03c-4220-b1f5-e5ba91338faf","ios":"levelo://app?vid=b2b0c4ce-a03c-4220-b1f5-e5ba91338faf"},"vehicle_type_id":"4","last_reported":1783453161,"current_range_meters":8000,"station_id":"ce4bhbp2rcd13ifvqesg","pricing_plan_id":"cebpf4jnsgd1na2vs0mg"},{"bike_id":"6b97afa6-2ce2-4a08-b755-5765d2660577","system_id":"levelo_inurba_marseille","lat":43.28177,"lon":5.40423,"is_reserved":false,"is_disabled":false,"rental_uris":{"android":"levelo://app?vid=6b97afa6-2ce2-4a08-b755-5765d2660577","ios":"levelo://app?vid=6b97afa6-2ce2-4a08-b755-5765d2660577"},"vehicle_type_id":"4","last_reported":1783453161,"current_range_meters":8000,"station_id":"","pricing_plan_id":"cebpf4jnsgd1na2vs0mg"},{"bike_id":"d428cd76-a315-4752-916d-f19733390218","system_id":"levelo_inurba_marseille","lat":43.30177,"lon":5.40221,"is_reserved":false,"is_disabled":false,"rental_uris":{"android":"levelo://app?vid=d428cd76-a315-4752-916d-f19733390218","ios":"levelo://app?vid=d428cd76-a315-4752-916d-f19733390218"},"vehicle_type_id":"4","last_reported":1783453161,"current_range_meters":8000,"station_id":"","pricing_plan_id":"cebpf4jnsgd1na2vs0mg"},{"bike_id":"3ba0ec89-904b-406b-8e74-32c3ab09540e","system_id":"levelo_inurba_marseille","lat":43.23362,"lon":5.36034,"is_reserved":false,"is_disabled":false,"rental_uris":{"android":"levelo://app?vid=3ba0ec89-904b-406b-8e74-32c3ab09540e","ios":"levelo://app?vid=3ba0ec89-904b-406b-8e74-32c3ab09540e"},"vehicle_type_id":"4","last_reported":1783453161,"current_range_meters":8000,"station_id":"","pricing_plan_id":"cebpf4jnsgd1na2vs0mg"},{"bike_id":"c223056a-cee4-44b0-b411-9e874d6d5516","system_id":"levelo_inurba_marseille","lat":43.29487,"lon":5.39929,"is_reserved":false,"is_disabled":false,"rental_uris":{"android":"levelo://app?vid=c223056a-cee4-44b0-b411-9e874d6d5516","ios":"levelo://app?vid=c223056a-cee4-44b0-b411-9e874d6d5516"},"vehicle_type_id":"4","last_reported":1783453161,"current_range_meters":8000,"station_id":"","pricing_plan_id":"cebpf4jnsgd1na2vs0mg"},{"bike_id":"f94d0993-f89a-47dc-a035-eafae8a9d2cd","system_id":"levelo_inurba_marseille","lat":43.2601,"lon":5.41589,"is_reserved":false,"is_disabled":false,"rental_uris":{"android":"levelo://app?vid=f94d0993-f89a-47dc-a035-eafae8a9d2cd","ios":"levelo://app?vid=f94d0993-f89a-47dc-a035-eafae8a9d2cd"},"vehicle_type_id":"4","last_reported":1783453161,"current_range_meters":8000,"station_id":"","pricing_plan_id":"cebpf4jnsgd1na2vs0mg"},{"bike_id":"4111ae8f-585a-4b76-83f5-e6e0e39ec1f3","system_id":"levelo_inurba_marseille","lat":43.28418,"lon":5.37512,"is_reserved":false,"is_disabled":false,"rental_uris":{"android":"levelo://app?vid=4111ae8f-585a-4b76-83f5-e6e0e39ec1f3","ios":"levelo://app?vid=4111ae8f-585a-4b76-83f5-e6e0e39ec1f3"},"vehicle_type_id":"4","last_reported":1783453161,"current_range_meters":8000,"station_id":"ce4bh412rcd13ifvqds0","pricing_plan_id":"cebpf4jnsgd1na2vs0mg"},{"bike_id":"9a423a5c-7423-4581-94ed-02937217b8cc","system_id":"levelo_inurba_marseille","lat":43.25327,"lon":5.42172,"is_reserved":false,"is_disabled":false,"rental_uris":{"android":"levelo://app?vid=9a423a5c-7423-4581-94ed-02937217b8cc","ios":"levelo://app?vid=9a423a5c-7423-4581-94ed-02937217b8cc"},"vehicle_type_id":"4","last_reported":1783453161,"current_range_meters":8000,"station_id":"st_d2m65c5bi1j21697t3ng","pricing_plan_id":"cebpf4jnsgd1na2vs0mg"},{"bike_id":"65867055-bc77-4ee2-873b-394472118251","system_id":"levelo_inurba_marseille","lat":43.23535,"lon":5.3601,"is_reserved":false,"is_disabled":false,"rental_uris":{"android":"levelo://app?vid=65867055-bc77-4ee2-873b-394472118251","ios":"levelo://app?vid=65867055-bc77-4ee2-873b-394472118251"},"vehicle_type_id":"4","last_reported":1783453161,"current_range_meters":8000,"station_id":"","pricing_plan_id":"cebpf4jnsgd1na2vs0mg"},{"bike_id":"3a5c3e08-32cd-4590-bfac-536fc50cc5d0","system_id":"levelo_inurba_marseille","lat":43.28348,"lon":5.38107,"is_reserved":false,"is_disabled":false,"rental_uris":{"android":"levelo://app?vid=3a5c3e08-32cd-4590-bfac-536fc50cc5d0","ios":"levelo://app?vid=3a5c3e08-32cd-4590-bfac-536fc50cc5d0"},"vehicle_type_id":"4","last_reported":1783453161,"current_range_meters":8000,"station_id":"ce4bh412rcd13ifvqdr0","pricing_plan_id":"cebpf4jnsgd1na2vs0mg"},{"bike_id":"934dfb9c-4fc1-4b3e-8e0c-b30bf9b88f7f","system_id":"levelo_inurba_marseille","lat":43.2663,"lon":5.41957,"is_reserved":false,"is_disabled":false,"rental_uris":{"android":"levelo://app?vid=934dfb9c-4fc1-4b3e-8e0c-b30bf9b88f7f","ios":"levelo://app?vid=934dfb9c-4fc1-4b3e-8e0c-b30bf9b88f7f"},"vehicle_type_id":"4","last_reported":1783453161,"current_range_meters":8000,"station_id":"","pricing_plan_id":"cebpf4jnsgd1na2vs0mg"},{"bike_id":"e8a9339a-fcc4-4c47-903d-31886f5344b3","system_id":"levelo_inurba_marseille","lat":43.30251,"lon":5.40085,"is_reserved":false,"is_disabled":false,"rental_uris":{"android":"levelo://app?vid=e8a9339a-fcc4-4c47-903d-31886f5344b3","ios":"levelo://app?vid=e8a9339a-fcc4-4c47-903d-31886f5344b3"},"vehicle_type_id":"4","last_reported":1783453161,"current_range_meters":8000,"station_id":"ce4bgvh2rcd13ifvqcs0","pricing_plan_id":"cebpf4jnsgd1na2vs0mg"},{"bike_id":"14cfde5d-9d91-49c0-a79a-942f6fdde213","system_id":"levelo_inurba_marseille","lat":43.23198,"lon":5.39964,"is_reserved":false,"is_disabled":false,"rental_uris":{"android":"levelo://app?vid=14cfde5d-9d91-49c0-a79a-942f6fdde213","ios":"levelo://app?vid=14cfde5d-9d91-49c0-a79a-942f6fdde213"},"vehicle_type_id":"4","last_reported":1783453161,"current_range_meters":8000,"station_id":"ce4bhn12rcd13ifvqgqg","pricing_plan_id":"cebpf4jnsgd1na2vs0mg"},