{"last_updated":1761304157,"ttl":60,"version":"2.2","data":{"bikes":[{"bike_id":"0bb4fe26-ec4c-4964-812a-ccb4ca39ece6","system_id":"levelo_inurba_marseille","lat":43.30367,"lon":5.41872,"is_reserved":false,"is_disabled":false,"rental_uris":{"android":"levelo://app?vid=0bb4fe26-ec4c-4964-812a-ccb4ca39ece6","ios":"levelo://app?vid=0bb4fe26-ec4c-4964-812a-ccb4ca39ece6"},"vehicle_type_id":"4","last_reported":1761304157,"current_range_meters":3200,"station_id":"ce4bhop2rcd13ifvqh7g","pricing_plan_id":"cebpf4jnsgd1na2vs0mg"},{"bike_id":"ff3ba630-dc04-489c-b422-8721b9ddc862","system_id":"levelo_inurba_marseille","lat":43.2983,"lon":5.37752,"is_reserved":false,"is_disabled":false,"rental_uris":{"android":"levelo://app?vid=ff3ba630-dc04-489c-b422-8721b9ddc862","ios":"levelo://app?vid=ff3ba630-dc04-489c-b422-8721b9ddc862"},"vehicle_type_id":"4","last_reported":1761304157,"current_range_meters":3200,"station_id":"","pricing_plan_id":"cebpf4jnsgd1na2vs0mg"},{"bike_id":"f0d34060-ed7a-4856-ad29-9af6a44db576","system_id":"levelo_inurba_marseille","lat":43.29801,"lon":5.38096,"is_reserved":false,"is_disabled":false,"rental_uris":{"android":"levelo://app?vid=f0d34060-ed7a-4856-ad29-9af6a44db576","ios":"levelo://app?vid=f0d34060-ed7a-4856-ad29-9af6a44db576"},"vehicle_type_id":"4","last_reported":1761304157,"current_range_meters":3200,"station_id":"ce4bgip2rcd13ifvqbb0","pricing_plan_id":"cebpf4jnsgd1na2vs0mg"},{"bike_id":"9a95991b-5813-48b6-a5d5-e40cddb31467","system_id":"levelo_inurba_marseille","lat":43.265533,"lon":5.372812,"is_reserved":false,"is_disabled":false,"rental_uris":{"android":"levelo://app?vid=9a95991b-5813-48b6-a5d5-e40cddb31467","ios":"levelo://app?vid=9a95991b-5813-48b6-a5d5-e40cddb31467"},"vehicle_type_id":"4","last_reported":1761304157,"current_range_meters":3600,"station_id":"ce4bhb92rcd13ifvqen0","pricing_plan_id":"cebpf4jnsgd1na2vs0mg"},{"bike_id":"82576c51-8b9b-43eb-aa43-fc4a18c9ea5b","system_id":"levelo_inurba_marseille","lat":43.21734,"lon":5.34637,"is_reserved":false,"is_disabled":false,"rental_uris":{"android":"levelo://app?vid=82576c51-8b9b-43eb-aa43-fc4a18c9ea5b","ios":"levelo://app?vid=82576c51-8b9b-43eb-aa43-fc4a18c9ea5b"},"vehicle_type_id":"4","last_reported":1761304157,"current_range_meters":4000,"station_id":"st_cvj6r9ubvosntc0bgbag","pricing_plan_id":"cebpf4jnsgd1na2vs0mg"},{"bike_id":"d51ea2e7-d7d3-4314-baf7-a2e423781ce4","system_id":"levelo_inurba_marseille","lat":43.29723,"lon":5.37693,"is_reserved":false,"is_disabled":false,"rental_uris":{"android":"levelo://app?vid=d51ea2e7-d7d3-4314-baf7-a2e423781ce4","ios":"levelo://app?vid=d51ea2e7-d7d3-4314-baf7-a2e423781ce4"},"vehicle_type_id":"4","last_reported":1761304157,"current_range_meters":4000,"station_id":"ce4bgkh2rcd13ifvqbl0","pricing_plan_id":"cebpf4jnsgd1na2vs0mg"},{"bike_id":"de88b060-a8d3-4631-9b2a-19bac33a1a68","system_id":"levelo_inurba_marseille","lat":43.307361,"lon":5.424376,"is_reserved":false,"is_disabled":false,"rental_uris":{"android":"levelo://app?vid=de88b060-a8d3-4631-9b2a-19bac33a1a68","ios":"levelo://app?vid=de88b060-a8d3-4631-9b2a-19bac33a1a68"},"vehicle_type_id":"4","last_reported":1761304157,"current_range_meters":4000,"station_id":"st_cvj6ca6bvosntc0bfgr0","pricing_plan_id":"cebpf4jnsgd1na2vs0mg"},{"bike_id":"37d01fc8-4b4d-4652-a489-1254eb9d4c80","system_id":"levelo_inurba_marseille","lat":43.34076,"lon":5.40411,"is_reserved":false,"is_disabled":false,"rental_uris":{"android":"levelo://app?vid=37d01fc8-4b4d-4652-a489-1254eb9d4c80","ios":"levelo://app?vid=37d01fc8-4b4d-4652-a489-1254eb9d4c80"},"vehicle_type_id":"4","last_reported":1761304157,"current_range_meters":4400,"station_id":"","pricing_plan_id":"cebpf4jnsgd1na2vs0mg"},{"bike_id":"ffdec006-cac2-4ec7-bc08-4ec1d93f21d0","system_id":"levelo_inurba_marseille","lat":43.29964,"lon":5.38497,"is_reserved":false,"is_disabled":false,"rental_uris":{"android":"levelo://app?vid=ffdec006-cac2-4ec7-bc08-4ec1d93f21d0","ios":"levelo://app?vid=ffdec006-cac2-4ec7-bc08-4ec1d93f21d0"},"vehicle_type_id":"4","last_reported":1761304157,"current_range_meters":4400,"station_id":"ce4bgj92rcd13ifvqbd0","pricing_plan_id":"cebpf4jnsgd1na2vs0mg"},{"bike_id":"1b4df06c-251d-434d-8d09-993cd8657916","system_id":"levelo_inurba_marseille","lat":43.27562,"lon":5.38419,"is_reserved":false,"is_disabled":false,"rental_uris":{"android":"levelo://app?vid=1b4df06c-251d-434d-8d09-993cd8657916","ios":"levelo://app?vid=1b4df06c-251d-434d-8d09-993cd8657916"},"vehicle_type_id":"4","last_reported":1761304157,"current_range_meters":5600,"station_id":"ce4bhh92rcd13ifvqfi0","pricing_plan_id":"cebpf4jnsgd1na2vs0mg"},{"bike_id":"dd9fc8d7-baab-4c63-903b-785b784b5225","system_id":"levelo_inurba_marseille","lat":43.29377,"lon":5.37844,"is_reserved":false,"is_disabled":false,"rental_uris":{"android":"levelo://app?vid=dd9fc8d7-baab-4c63-903b-785b784b5225","ios":"levelo://app?vid=dd9fc8d7-baab-4c63-903b-785b784b5225"},"vehicle_type_id":"4","last_reported":1761304157,"current_range_meters":5600,"station_id":"ce4bgjh2rcd13ifvqbf0","pricing_plan_id":"cebpf4jnsgd1na2vs0mg"},{"bike_id":"d24281ca-7cc6-4200-be5d-c72e380d2fc2","system_id":"levelo_inurba_marseille","lat":43.31078,"lon":5.38359,"is_reserved":false,"is_disabled":false,"rental_uris":{"android":"levelo://app?vid=d24281ca-7cc6-4200-be5d-c72e380d2fc2","ios":"levelo://app?vid=d24281ca-7cc6-4200-be5d-c72e380d2fc2"},"vehicle_type_id":"4","last_reported":1761304157,"current_range_meters":6000,"station_id":"ce4bgv92rcd13ifvqcr0","pricing_plan_id":"cebpf4jnsgd1na2vs0mg"},{"bike_id":"1a61b27c-9e5c-4c60-895a-c53d639c14d6","system_id":"levelo_inurba_marseille","lat":43.29708,"lon":5.37702,"is_reserved":false,"is_disabled":false,"rental_uris":{"android":"levelo://app?vid=1a61b27c-9e5c-4c60-895a-c53d639c14d6","ios":"levelo://app?vid=1a61b27c-9e5c-4c60-895a-c53d639c14d6"},"vehicle_type_id":"4","last_reported":1761304157,"current_range_meters":6000,"station_id":"ce4bgkh2rcd13ifvqbl0","pricing_plan_id":"cebpf4jnsgd1na2vs0mg"},{"bike_id":"a3098626-e0a6-4874-8ce7-1732c7ed2112","system_id":"levelo_inurba_marseille","lat":43.28461,"lon":5.35896,"is_reserved":false,"is_disabled":false,"rental_uris":{"android":"levelo://app?vid=a3098626-e0a6-4874-8ce7-1732c7ed2112","ios":"levelo://app?vid=a3098626-e0a6-4874-8ce7-1732c7ed2112"},"vehicle_type_id":"4","last_reported":1761304157,"current_range_meters":6000,"station_id":"ce4bhah2rcd13ifvqei0","pricing_plan_id":"cebpf4jnsgd1na2vs0mg"},{"bike_id":"bd02b5f3-d63a-41d9-8f58-f51a09db7e2d","system_id":"levelo_inurba_marseille","lat":43.28613,"lon":5.37057,"is_reserved":false,"is_disabled":false,"rental_uris":{"android":"levelo://app?vid=bd02b5f3-d63a-41d9-8f58-f51a09db7e2d","ios":"levelo://app?vid=bd02b5f3-d63a-41d9-8f58-f51a09db7e2d"},"vehicle_type_id":"4","last_reported":1761304157,"current_range_meters":6000,"station_id":"ce4bht12rcd13ifvqi60","pricing_plan_id":"cebpf4jnsgd1na2vs0mg"},{"bike_id":"2224c804-4267-4524-ba11-e7bcb2d89348","system_id":"levelo_inurba_marseille","lat":43.30149,"lon":5.36938,"is_reserved":false,"is_disabled":false,"rental_uris":{"android":"levelo://app?vid=2224c804-4267-4524-ba11-e7bcb2d89348","ios":"levelo://app?vid=2224c804-4267-4524-ba11-e7bcb2d89348"},"vehicle_type_id":"4","last_reported":1761304157,"current_range_meters":6400,"station_id":"","pricing_plan_id":"cebpf4jnsgd1na2vs0mg"},{"bike_id":"e282a234-13b1-4a4a-9ecf-445c6cc44b54","system_id":"levelo_inurba_marseille","lat":43.28156,"lon":5.42636,"is_reserved":false,"is_disabled":false,"rental_uris":{"android":"levelo://app?vid=e282a234-13b1-4a4a-9ecf-445c6cc44b54","ios":"levelo://app?vid=e282a234-13b1-4a4a-9ecf-445c6cc44b54"},"vehicle_type_id":"4","last_reported":1761304157,"current_range_meters":6400,"station_id":"ce4bhnh2rcd13ifvqgug","pricing_plan_id":"cebpf4jnsgd1na2vs0mg"},{"bike_id":"4eae2ec4-8862-466e-a3d9-395cca4276d0","system_id":"levelo_inurba_marseille","lat":43.30377,"lon":5.37584,"is_reserved":false,"is_disabled":false,"rental_uris":{"android":"levelo://app?vid=4eae2ec4-8862-466e-a3d9-395cca4276d0","ios":"levelo://app?vid=4eae2ec4-8862-466e-a3d9-395cca4276d0"},"vehicle_type_id":"4","last_reported":1761304157,"current_range_meters":6400,"station_id":"","pricing_plan_id":"cebpf4jnsgd1na2vs0mg"},{"bike_id":"42ff1fd7-0ae2-4c9b-bb71-4e602b26476f","system_id":"levelo_inurba_marseille","lat":43.23133,"lon":5.43711,"is_reserved":false,"is_disabled":false,"rental_uris":{"android":"levelo://app?vid=42ff1fd7-0ae2-4c9b-bb71-4e602b26476f","ios":"levelo://app?vid=42ff1fd7-0ae2-4c9b-bb71-4e602b26476f"},"vehicle_type_id":"4","last_reported":1761304157,"current_range_meters":6800,"station_id":"ce4bhmp2rcd13ifvqgog","pricing_plan_id":"cebpf4jnsgd1na2vs0mg"},{"bike_id":"ad9a8166-85b3-49b6-88c7-1c6bdf69b632","system_id":"levelo_inurba_marseille","lat":43.311107,"lon":5.377624,"is_reserved":false,"is_disabled":false,"rental_uris":{"android":"levelo://app?vid=ad9a8166-85b3-49b6-88c7-1c6bdf69b632","ios":"levelo://app?vid=ad9a8166-85b3-49b6-88c7-1c6bdf69b632"},"vehicle_type_id":"4","last_reported":1761304157,"current_range_meters":6800,"station_id":"","pricing_plan_id":"cebpf4jnsgd1na2vs0mg"},{"bike_id":"4905277f-5bff-40db-8e03-9cfdb4a0857f","system_id":"levelo_inurba_marseille","lat":43.21742,"lon":5.34602,"is_reserved":false,"is_disabled":false,"rental_uris":{"android":"levelo://app?vid=4905277f-5bff-40db-8e03-9cfdb4a0857f","ios":"levelo://app?vid=4905277f-5bff-40db-8e03-9cfdb4a0857f"},"vehicle_type_id":"4","last_reported":1761304157,"current_range_meters":6800,"station_id":"","pricing_plan_id":"cebpf4jnsgd1na2vs0mg"},{"bike_id":"bc977858-8c44-4812-b4a0-6141188d960e","system_id":"levelo_inurba_marseille","lat":43.28475,"lon":5.48393,"is_reserved":false,"is_disabled":false,"rental_uris":{"android":"levelo://app?vid=bc977858-8c44-4812-b4a0-6141188d960e","ios":"levelo://app?vid=bc977858-8c44-4812-b4a0-6141188d960e"},"vehicle_type_id":"4","last_reported":1761304157,"current_range_meters":6800,"station_id":"st_d3svhcjqgbts73a3dn0g","pricing_plan_id":"cebpf4jnsgd1na2vs0mg"},{"bike_id":"c8c0fa58-a519-4343-9887-b0c694f93aef","system_id":"levelo_inurba_marseille","lat":43.288652,"lon":5.425125,"is_reserved":false,"is_disabled":false,"rental_uris":{"android":"levelo://app?vid=c8c0fa58-a519-4343-9887-b0c694f93aef","ios":"levelo://app?vid=c8c0fa58-a519-4343-9887-b0c694f93aef"},"vehicle_type_id":"4","last_reported":1761304157,"current_range_meters":7200,"station_id":"st_d3b462108ojc7389ooeg","pricing_plan_id":"cebpf4jnsgd1na2vs0mg"},{"bike_id":"3167c122-43fa-497a-bf85-d0a6522abe7a","system_id":"levelo_inurba_marseille","lat":43.32758,"lon":5.37508,"is_reserved":false,"is_disabled":false,"rental_uris":{"android":"levelo://app?vid=3167c122-43fa-497a-bf85-d0a6522abe7a","ios":"levelo://app?vid=3167c122-43fa-497a-bf85-d0a6522abe7a"},"vehicle_type_id":"4","last_reported":1761304157,"current_range_meters":7200,"station_id":"","pricing_plan_id":"cebpf4jnsgd1na2vs0mg"},{"bike_id":"5df3bb81-4916-4427-8cd1-aaca61ad6031","system_id":"levelo_inurba_marseille","lat":43.30516,"lon":5.38246,"is_reserved":false,"is_disabled":false,"rental_uris":{"android":"levelo://app?vid=5df3bb81-4916-4427-8cd1-aaca61ad6031","ios":"levelo://app?vid=5df3bb81-4916-4427-8cd1-aaca61ad6031"},"vehicle_type_id":"4","last_reported":1761304157,"current_range_meters":7200,"station_id":"","pricing_plan_id":"cebpf4jnsgd1na2vs0mg"},{"bike_id":"4988d6c3-4308-44df-bd68-5e8d07afaa35","system_id":"levelo_inurba_marseille","lat":43.25109,"lon":5.40322,"is_reserved":false,"is_disabled":false,"rental_uris":{"android":"levelo://app?vid=4988d6c3-4308-44df-bd68-5e8d07afaa35","ios":"levelo://app?vid=4988d6c3-4308-44df-bd68-5e8d07afaa35"},"vehicle_type_id":"4","last_reported":1761304157,"current_range_meters":8000,"station_id":"ce4bhlh2rcd13ifvqgig","pricing_plan_id":"cebpf4jnsgd1na2vs0mg"},{"bike_id":"00fd3c6a-780c-49dc-9993-d4de69c9b57a","system_id":"levelo_inurba_marseille","lat":43.31049,"lon":5.37461,"is_reserved":false,"is_disabled":false,"rental_uris":{"android":"levelo://app?vid=00fd3c6a-780c-49dc-9993-d4de69c9b57a","ios":"levelo://app?vid=00fd3c6a-780c-49dc-9993-d4de69c9b57a"},"vehicle_type_id":"4","last_reported":1761304157,"current_range_meters":8000,"station_id":"","pricing_plan_id":"cebpf4jnsgd1na2vs0mg"},{"bike_id":"38cfc697-afb8-4456-94d7-f68ef67f785a","system_id":"levelo_inurba_marseille","lat":43.28146,"lon":5.42652,"is_reserved":false,"is_disabled":false,"rental_uris":{"android":"levelo://app?vid=38cfc697-afb8-4456-94d7-f68ef67f785a","ios":"levelo://app?vid=38cfc697-afb8-4456-94d7-f68ef67f785a"},"vehicle_type_id":"4","last_reported":1761304157,"current_range_meters":8000,"station_id":"ce4bhnh2rcd13ifvqgug","pricing_plan_id":"cebpf4jnsgd1na2vs0mg"},{"bike_id":"8755d3e9-784f-417a-baa5-0647ff06183c","system_id":"levelo_inurba_marseille","lat":43.336,"lon":5.41035,"is_reserved":false,"is_disabled":false,"rental_uris":{"android":"levelo://app?vid=8755d3e9-784f-417a-baa5-0647ff06183c","ios":"levelo://app?vid=8755d3e9-784f-417a-baa5-0647ff06183c"},"vehicle_type_id":"4","last_reported":1761304157,"current_range_meters":8400,"station_id":"ce4bhqh2rcd13ifvqhmg","pricing_plan_id":"cebpf4jnsgd1na2vs0mg"},{"bike_id":"32e7919e-26d8-4f7d-b229-086147816fa4","system_id":"levelo_inurba_marseille","lat":43.301286,"lon":5.38775,"is_reserved":false,"is_disabled":false,"rental_uris":{"android":"levelo://app?vid=32e7919e-26d8-4f7d-b229-086147816fa4","ios":"levelo://app?vid=32e7919e-26d8-4f7d-b229-086147816fa4"},"vehicle_type_id":"4","last_reported":1761304157,"current_range_meters":8400,"station_id":"","pricing_plan_id":"cebpf4jnsgd1na2vs0mg"},{"bike_id":"e970d21e-df4c-4d8a-9dcc-b09959ead2d8","system_id":"levelo_inurba_marseille","lat":43.339262,"lon":5.397555,"is_reserved":false,"is_disabled":false,"rental_uris":{"android":"levelo://app?vid=e970d21e-df4c-4d8a-9dcc-b09959ead2d8","ios":"levelo://app?vid=e970d21e-df4c-4d8a-9dcc-b09959ead2d8"},"vehicle_type_id":"4","last_reported":1761304157,"current_range_meters":8400,"station_id":"","pricing_plan_id":"cebpf4jnsgd1na2vs0mg"},{"bike_id":"25b55bb8-013b-4593-81c8-4132db17e577","system_id":"levelo_inurba_marseille","lat":43.28607,"lon":5.37056,"is_reserved":false,"is_disabled":false,"rental_uris":{"android":"levelo://app?vid=25b55bb8-013b-4593-81c8-4132db17e577","ios":"levelo://app?vid=25b55bb8-013b-4593-81c8-4132db17e577"},"vehicle_type_id":"4","last_reported":1761304157,"current_range_meters":8800,"station_id":"ce4bht12rcd13ifvqi60","pricing_plan_id":"cebpf4jnsgd1na2vs0mg"},{"bike_id":"ec9665a2-32ab-42b2-9bdf-cf94d158a9c2","system_id":"levelo_inurba_marseille","lat":43.30125,"lon":5.37074,"is_reserved":false,"is_disabled":false,"rental_uris":{"android":"levelo://app?vid=ec9665a2-32ab-42b2-9bdf-cf94d158a9c2","ios":"levelo://app?vid=ec9665a2-32ab-42b2-9bdf-cf94d158a9c2"},"vehicle_type_id":"4","last_reported":1761304157,"current_range_meters":8800,"station_id":"","pricing_plan_id":"cebpf4jnsgd1na2vs0mg"},{"bike_id":"fad83562-48b2-424c-aa40-412e264f6c09","system_id":"levelo_inurba_marseille","lat":43.29578,"lon":5.36744,"is_reserved":false,"is_disabled":false,"rental_uris":{"android":"levelo://app?vid=fad83562-48b2-424c-aa40-412e264f6c09","ios":"levelo://app?vid=fad83562-48b2-424c-aa40-412e264f6c09"},"vehicle_type_id":"4","last_reported":1761304157,"current_range_meters":8800,"station_id":"ce4bgph2rcd13ifvqc2g","pricing_plan_id":"cebpf4jnsgd1na2vs0mg"},{"bike_id":"620a1707-51ef-465d-8c8b-d7454590e589","system_id":"levelo_inurba_marseille","lat":43.24655,"lon":5.38157,"is_reserved":false,"is_disabled":false,"rental_uris":{"android":"levelo://app?vid=620a1707-51ef-465d-8c8b-d7454590e589","ios":"levelo://app?vid=620a1707-51ef-465d-8c8b-d7454590e589"},"vehicle_type_id":"4","last_reported":1761304157,"current_range_meters":8800,"station_id":"ce4bhih2rcd13ifvqfr0","pricing_plan_id":"cebpf4jnsgd1na2vs0mg"},{"bike_id":"9e0de07d-3c0e-466f-82b6-afd26f49e336","system_id":"levelo_inurba_marseille","lat":43.31483,"lon":5.37298,"is_reserved":false,"is_disabled":false,"rental_uris":{"android":"levelo://app?vid=9e0de07d-3c0e-466f-82b6-afd26f49e336","ios":"levelo://app?vid=9e0de07d-3c0e-466f-82b6-afd26f49e336"},"vehicle_type_id":"4","last_reported":1761304157,"current_range_meters":9200,"station_id":"ce4bgt12rcd13ifvqcd0","pricing_plan_id":"cebpf4jnsgd1na2vs0mg"},{"bike_id":"52fa3cf3-9a48-4541-96ac-015f3d8b1c28","system_id":"levelo_inurba_marseille","lat":43.31171,"lon":5.38718,"is_reserved":false,"is_disabled":false,"rental_uris":{"android":"levelo://app?vid=52fa3cf3-9a48-4541-96ac-015f3d8b1c28","ios":"levelo://app?vid=52fa3cf3-9a48-4541-96ac-015f3d8b1c28"},"vehicle_type_id":"4","last_reported":1761304157,"current_range_meters":9200,"station_id":"ce4bgv12rcd13ifvqcp0","pricing_plan_id":"cebpf4jnsgd1na2vs0mg"},{"bike_id":"1aaa028d-93d8-4a20-8355-7a4b17d8620a","system_id":"levelo_inurba_marseille","lat":43.276358,"lon":5.392021,"is_reserved":false,"is_disabled":false,"rental_uris":{"android":"levelo://app?vid=1aaa028d-93d8-4a20-8355-7a4b17d8620a","ios":"levelo://app?vid=1aaa028d-93d8-4a20-8355-7a4b17d8620a"},"vehicle_type_id":"4","last_reported":1761304157,"current_range_meters":9200,"station_id":"","pricing_plan_id":"cebpf4jnsgd1na2vs0mg"},{"bike_id":"7909e8c4-88f8-436b-a156-1c76a253d016","system_id":"levelo_inurba_marseille","lat":43.280564,"lon":5.368131,"is_reserved":false,"is_disabled":false,"rental_uris":{"android":"levelo://app?vid=7909e8c4-88f8-436b-a156-1c76a253d016","ios":"levelo://app?vid=7909e8c4-88f8-436b-a156-1c76a253d016"},"vehicle_type_id":"4","last_reported":1761304157,"current_range_meters":9200,"station_id":"ce4bha12rcd13ifvqef0","pricing_plan_id":"cebpf4jnsgd1na2vs0mg"},{"bike_id":"fcd85f07-fc88-4b7c-8904-4d2b88ef7078","system_id":"levelo_inurba_marseille","lat":43.290108,"lon":5.356175,"is_reserved":false,"is_disabled":false,"rental_uris":{"android":"levelo://app?vid=fcd85f07-fc88-4b7c-8904-4d2b88ef7078","ios":"levelo://app?vid=fcd85f07-fc88-4b7c-8904-4d2b88ef7078"},"vehicle_type_id":"4","last_reported":1761304157,"current_range_meters":9200,"station_id":"","pricing_plan_id":"cebpf4jnsgd1na2vs0mg"},{"bike_id":"4733eab5-a32b-4044-b5ea-d1f2174643cd","system_id":"levelo_inurba_marseille","lat":43.28682,"lon":5.38664,"is_reserved":false,"is_disabled":false,"rental_uris":{"android":"levelo://app?vid=4733eab5-a32b-4044-b5ea-d1f2174643cd","ios":"levelo://app?vid=4733eab5-a32b-4044-b5ea-d1f2174643cd"},"vehicle_type_id":"4","last_reported":1761304157,"current_range_meters":9600,"station_id":"ce4bh492rcd13ifvqdug","pricing_plan_id":"cebpf4jnsgd1na2vs0mg"},{"bike_id":"e96035ce-3f75-42c7-bc07-32e4ba0bd41a","system_id":"levelo_inurba_marseille","lat":43.30493,"lon":5.36925,"is_reserved":false,"is_disabled":false,"rental_uris":{"android":"levelo://app?vid=e96035ce-3f75-42c7-bc07-32e4ba0bd41a","ios":"levelo://app?vid=e96035ce-3f75-42c7-bc07-32e4ba0bd41a"},"vehicle_type_id":"4","last_reported":1761304157,"current_range_meters":9600,"station_id":"","pricing_plan_id":"cebpf4jnsgd1na2vs0mg"},{"bike_id":"323bf2de-3bb4-4b4c-b330-b19ea807dbf5","system_id":"levelo_inurba_marseille","lat":43.329929,"lon":5.429581,"is_reserved":false,"is_disabled":false,"rental_uris":{"android":"levelo://app?vid=323bf2de-3bb4-4b4c-b330-b19ea807dbf5","ios":"levelo://app?vid=323bf2de-3bb4-4b4c-b330-b19ea807dbf5"},"vehicle_type_id":"4","last_reported":1761304157,"current_range_meters":9600,"station_id":"","pricing_plan_id":"cebpf4jnsgd1na2vs0mg"},{"bike_id":"ec21432d-3f75-4f4b-8fb1-2ea1ab0f3efe","system_id":"levelo_inurba_marseille","lat":43.29197,"lon":5.39314,"is_reserved":false,"is_disabled":false,"rental_uris":{"android":"levelo://app?vid=ec21432d-3f75-4f4b-8fb1-2ea1ab0f3efe","ios":"levelo://app?vid=ec21432d-3f75-4f4b-8fb1-2ea1ab0f3efe"},"vehicle_type_id":"4","last_reported":1761304157,"current_range_meters":9600,"station_id":"ce4bh192rcd13ifvqdd0","pricing_plan_id":"cebpf4jnsgd1na2vs0mg"},{"bike_id":"f70a4004-9861-4504-8b4a-669d443a80c3","system_id":"levelo_inurba_marseille","lat":43.26954,"lon":5.38633,"is_reserved":false,"is_disabled":false,"rental_uris":{"android":"levelo://app?vid=f70a4004-9861-4504-8b4a-669d443a80c3","ios":"levelo://app?vid=f70a4004-9861-4504-8b4a-669d443a80c3"},"vehicle_type_id":"4","last_reported":1761304157,"current_range_meters":9600,"station_id":"ce4bhh92rcd13ifvqfh0","pricing_plan_id":"cebpf4jnsgd1na2vs0mg"},{"bike_id":"2a92daf0-2813-464b-a3e7-faa8d1222a70","system_id":"levelo_inurba_marseille","lat":43.31162,"lon":5.38721,"is_reserved":false,"is_disabled":false,"rental_uris":{"android":"levelo://app?vid=2a92daf0-2813-464b-a3e7-faa8d1222a70","ios":"levelo://app?vid=2a92daf0-2813-464b-a3e7-faa8d1222a70"},"vehicle_type_id":"4","last_reported":1761304157,"current_range_meters":10000,"station_id":"ce4bgv12rcd13ifvqcp0","pricing_plan_id":"cebpf4jnsgd1na2vs0mg"},{"bike_id":"3e4783b6-28d8-4737-a4ef-6a1b0da02476","system_id":"levelo_inurba_marseille","lat":43.29442,"lon":5.40716,"is_reserved":false,"is_disabled":false,"rental_uris":{"android":"levelo://app?vid=3e4783b6-28d8-4737-a4ef-6a1b0da02476","ios":"levelo://app?vid=3e4783b6-28d8-4737-a4ef-6a1b0da02476"},"vehicle_type_id":"4","last_reported":1761304157,"current_range_meters":10000,"station_id":"","pricing_plan_id":"cebpf4jnsgd1na2vs0mg"},{"bike_id":"bf52d227-e2e6-4e46-bfde-44cbb96d7d45","system_id":"levelo_inurba_marseille","lat":43.21195,"lon":5.35077,"is_reserved":false,"is_disabled":false,"rental_uris":{"android":"levelo://app?vid=bf52d227-e2e6-4e46-bfde-44cbb96d7d45","ios":"levelo://app?vid=bf52d227-e2e6-4e46-bfde-44cbb96d7d45"},"vehicle_type_id":"4","last_reported":1761304157,"current_range_meters":10000,"station_id":"st_cvj6sg6p6f1abm77japg","pricing_plan_id":"cebpf4jnsgd1na2vs0mg"},{"bike_id":"53aeaacf-80b5-40ce-98f8-09f3de011ca3","system_id":"levelo_inurba_marseille","lat":43.286121,"lon":5.35102,"is_reserved":false,"is_disabled":false,"rental_uris":{"android":"levelo://app?vid=53aeaacf-80b5-40ce-98f8-09f3de011ca3","ios":"levelo://app?vid=53aeaacf-80b5-40ce-98f8-09f3de011ca3"},"vehicle_type_id":"4","last_reported":1761304157,"current_range_meters":10000,"station_id":"ce4bhch2rcd13ifvqeug","pricing_plan_id":"cebpf4jnsgd1na2vs0mg"},{"bike_id":"f0764640-ec1d-486f-9e1c-59043e66eb76","system_id":"levelo_inurba_marseille","lat":43.21352,"lon":5.34978,"is_reserved":false,"is_disabled":false,"rental_uris":{"android":"levelo://app?vid=f0764640-ec1d-486f-9e1c-59043e66eb76","ios":"levelo://app?vid=f0764640-ec1d-486f-9e1c-59043e66eb76"},"vehicle_type_id":"4","last_reported":1761304157,"current_range_meters":10800,"station_id":"","pricing_plan_id":"cebpf4jnsgd1na2vs0mg"},{"bike_id":"2280980b-732f-4357-9e33-d6d9e3ba8e3d","system_id":"levelo_inurba_marseille","lat":43.29622,"lon":5.3774,"is_reserved":false,"is_disabled":false,"rental_uris":{"android":"levelo://app?vid=2280980b-732f-4357-9e33-d6d9e3ba8e3d","ios":"levelo://app?vid=2280980b-732f-4357-9e33-d6d9e3ba8e3d"},"vehicle_type_id":"4","last_reported":1761304157,"current_range_meters":10800,"station_id":"ce4bgi92rcd13ifvqb90","pricing_plan_id":"cebpf4jnsgd1na2vs0mg"},{"bike_id":"222a93e8-289d-4a0d-98f5-fe3f3c791798","system_id":"levelo_inurba_marseille","lat":43.27218,"lon":5.3919,"is_reserved":false,"is_disabled":false,"rental_uris":{"android":"levelo://app?vid=222a93e8-289d-4a0d-98f5-fe3f3c791798","ios":"levelo://app?vid=222a93e8-289d-4a0d-98f5-fe3f3c791798"},"vehicle_type_id":"4","last_reported":1761304157,"current_range_meters":10800,"station_id":"ce4bhhp2rcd13ifvqfm0","pricing_plan_id":"cebpf4jnsgd1na2vs0mg"},{"bike_id":"2758c137-009a-4313-9a29-02107fd1fa16","system_id":"levelo_inurba_marseille","lat":43.26955,"lon":5.38634,"is_reserved":false,"is_disabled":false,"rental_uris":{"android":"levelo://app?vid=2758c137-009a-4313-9a29-02107fd1fa16","ios":"levelo://app?vid=2758c137-009a-4313-9a29-02107fd1fa16"},"vehicle_type_id":"4","last_reported":1761304157,"current_range_meters":10800,"station_id":"ce4bhh92rcd13ifvqfh0","pricing_plan_id":"cebpf4jnsgd1na2vs0mg"},{"bike_id":"2e67092c-a72f-49f6-8f4f-e6578d52fbea","system_id":"levelo_inurba_marseille","lat":43.32361,"lon":5.36756,"is_reserved":false,"is_disabled":false,"rental_uris":{"android":"levelo://app?vid=2e67092c-a72f-49f6-8f4f-e6578d52fbea","ios":"levelo://app?vid=2e67092c-a72f-49f6-8f4f-e6578d52fbea"},"vehicle_type_id":"4","last_reported":1761304157,"current_range_meters":10800,"station_id":"ce4bhsh2rcd13ifvqi2g","pricing_plan_id":"cebpf4jnsgd1na2vs0mg"},{"bike_id":"c6a12843-d00b-41c6-b174-8a2cee7e4f77","system_id":"levelo_inurba_marseille","lat":43.2979,"lon":5.39344,"is_reserved":false,"is_disabled":false,"rental_uris":{"android":"levelo://app?vid=c6a12843-d00b-41c6-b174-8a2cee7e4f77","ios":"levelo://app?vid=c6a12843-d00b-41c6-b174-8a2cee7e4f77"},"vehicle_type_id":"4","last_reported":1761304157,"current_range_meters":10800,"station_id":"chh1huq6cuj3fo74tm60","pricing_plan_id":"cebpf4jnsgd1na2vs0mg"},{"bike_id":"316c843e-0abd-49e3-b3e9-3f61b02a5647","system_id":"levelo_inurba_marseille","lat":43.28869,"lon":5.42505,"is_reserved":false,"is_disabled":false,"rental_uris":{"android":"levelo://app?vid=316c843e-0abd-49e3-b3e9-3f61b02a5647","ios":"levelo://app?vid=316c843e-0abd-49e3-b3e9-3f61b02a5647"},"vehicle_type_id":"4","last_reported":1761304157,"current_range_meters":11200,"station_id":"st_d3b462108ojc7389ooeg","pricing_plan_id":"cebpf4jnsgd1na2vs0mg"},{"bike_id":"8a0eb3e4-0207-4576-b554-c9c2c9006c98","system_id":"levelo_inurba_marseille","lat":43.33608,"lon":5.41032,"is_reserved":false,"is_disabled":false,"rental_uris":{"android":"levelo://app?vid=8a0eb3e4-0207-4576-b554-c9c2c9006c98","ios":"levelo://app?vid=8a0eb3e4-0207-4576-b554-c9c2c9006c98"},"vehicle_type_id":"4","last_reported":1761304157,"current_range_meters":11200,"station_id":"ce4bhqh2rcd13ifvqhmg","pricing_plan_id":"cebpf4jnsgd1na2vs0mg"},{"bike_id":"d41b65ef-6fbe-46c9-aae5-cd83ae63073e","system_id":"levelo_inurba_marseille","lat":43.295981,"lon":5.381021,"is_reserved":false,"is_disabled":false,"rental_uris":{"android":"levelo://app?vid=d41b65ef-6fbe-46c9-aae5-cd83ae63073e","ios":"levelo://app?vid=d41b65ef-6fbe-46c9-aae5-cd83ae63073e"},"vehicle_type_id":"4","last_reported":1761304157,"current_range_meters":11200,"station_id":"ce4bgl12rcd13ifvqbo0","pricing_plan_id":"cebpf4jnsgd1na2vs0mg"},{"bike_id":"8f3a37d7-ef68-438e-b675-4c925fc10151","system_id":"levelo_inurba_marseille","lat":43.21189,"lon":5.35062,"is_reserved":false,"is_disabled":false,"rental_uris":{"android":"levelo://app?vid=8f3a37d7-ef68-438e-b675-4c925fc10151","ios":"levelo://app?vid=8f3a37d7-ef68-438e-b675-4c925fc10151"},"vehicle_type_id":"4","last_reported":1761304157,"current_range_meters":11200,"station_id":"st_cvj6sg6p6f1abm77japg","pricing_plan_id":"cebpf4jnsgd1na2vs0mg"},{"bike_id":"afd65491-261f-41a2-94fb-78b1ed70d270","system_id":"levelo_inurba_marseille","lat":43.28478,"lon":5.38453,"is_reserved":false,"is_disabled":false,"rental_uris":{"android":"levelo://app?vid=afd65491-261f-41a2-94fb-78b1ed70d270","ios":"levelo://app?vid=afd65491-261f-41a2-94fb-78b1ed70d270"},"vehicle_type_id":"4","last_reported":1761304157,"current_range_meters":11200,"station_id":"ce4bh512rcd13ifvqe3g","pricing_plan_id":"cebpf4jnsgd1na2vs0mg"},{"bike_id":"1bde7ee4-1a2d-4094-8d1a-0dd7ca52e2aa","system_id":"levelo_inurba_marseille","lat":43.30129,"lon":5.38785,"is_reserved":false,"is_disabled":false,"rental_uris":{"android":"levelo://app?vid=1bde7ee4-1a2d-4094-8d1a-0dd7ca52e2aa","ios":"levelo://app?vid=1bde7ee4-1a2d-4094-8d1a-0dd7ca52e2aa"},"vehicle_type_id":"4","last_reported":1761304157,"current_range_meters":11200,"station_id":"ce4bghh2rcd13ifvqb60","pricing_plan_id":"cebpf4jnsgd1na2vs0mg"},{"bike_id":"9881c788-42a8-46f5-8ccc-580a73583155","system_id":"levelo_inurba_marseille","lat":43.32085,"lon":5.40887,"is_reserved":false,"is_disabled":true,"rental_uris":{"android":"levelo://app?vid=9881c788-42a8-46f5-8ccc-580a73583155","ios":"levelo://app?vid=9881c788-42a8-46f5-8ccc-580a73583155"},"vehicle_type_id":"4","last_reported":1761304157,"current_range_meters":11200,"station_id":"","pricing_plan_id":"cebpf4jnsgd1na2vs0mg"},{"bike_id":"8d6c7236-f620-4b6b-a423-516a20af52f1","system_id":"levelo_inurba_marseille","lat":43.21751,"lon":5.34606,"is_reserved":false,"is_disabled":false,"rental_uris":{"android":"levelo://app?vid=8d6c7236-f620-4b6b-a423-516a20af52f1","ios":"levelo://app?vid=8d6c7236-f620-4b6b-a423-516a20af52f1"},"vehicle_type_id":"4","last_reported":1761304157,"current_range_meters":11200,"station_id":"st_cvj6r9ubvosntc0bgbag","pricing_plan_id":"cebpf4jnsgd1na2vs0mg"},{"bike_id":"67510f6b-e3d4-40ca-803e-2ce4d2afc447","system_id":"levelo_inurba_marseille","lat":43.28973,"lon":5.37828,"is_reserved":false,"is_disabled":false,"rental_uris":{"android":"levelo://app?vid=67510f6b-e3d4-40ca-803e-2ce4d2afc447","ios":"levelo://app?vid=67510f6b-e3d4-40ca-803e-2ce4d2afc447"},"vehicle_type_id":"4","last_reported":1761304157,"current_range_meters":11600,"station_id":"ce4bh9p2rcd13ifvqed0","pricing_plan_id":"cebpf4jnsgd1na2vs0mg"},{"bike_id":"3ea58f4d-da4f-4cea-9001-5ec07adb8d4f","system_id":"levelo_inurba_marseille","lat":43.28698,"lon":5.39984,"is_reserved":false,"is_disabled":false,"rental_uris":{"android":"levelo://app?vid=3ea58f4d-da4f-4cea-9001-5ec07adb8d4f","ios":"levelo://app?vid=3ea58f4d-da4f-4cea-9001-5ec07adb8d4f"},"vehicle_type_id":"4","last_reported":1761304157,"current_range_meters":11600,"station_id":"ce4bho92rcd13ifvqh3g","pricing_plan_id":"cebpf4jnsgd1na2vs0mg"},{"bike_id":"b9764ed2-f91a-421e-b54e-d7527bd8af22","system_id":"levelo_inurba_marseille","lat":43.29811,"lon":5.36588,"is_reserved":false,"is_disabled":false,"rental_uris":{"android":"levelo://app?vid=b9764ed2-f91a-421e-b54e-d7527bd8af22","ios":"levelo://app?vid=b9764ed2-f91a-421e-b54e-d7527bd8af22"},"vehicle_type_id":"4","last_reported":1761304157,"current_range_meters":11600,"station_id":"","pricing_plan_id":"cebpf4jnsgd1na2vs0mg"},{"bike_id":"d10b22fa-7672-4128-97f0-5cbf4295b17c","system_id":"levelo_inurba_marseille","lat":43.2935,"lon":5.39344,"is_reserved":false,"is_disabled":false,"rental_uris":{"android":"levelo://app?vid=d10b22fa-7672-4128-97f0-5cbf4295b17c","ios":"levelo://app?vid=d10b22fa-7672-4128-97f0-5cbf4295b17c"},"vehicle_type_id":"4","last_reported":1761304157,"current_range_meters":11600,"station_id":"","pricing_plan_id":"cebpf4jnsgd1na2vs0mg"},{"bike_id":"8bcacd78-80de-4026-af75-b37ebe3030fe","system_id":"levelo_inurba_marseille","lat":43.334756,"lon":5.404255,"is_reserved":false,"is_disabled":false,"rental_uris":{"android":"levelo://app?vid=8bcacd78-80de-4026-af75-b37ebe3030fe","ios":"levelo://app?vid=8bcacd78-80de-4026-af75-b37ebe3030fe"},"vehicle_type_id":"4","last_reported":1761304157,"current_range_meters":11600,"station_id":"","pricing_plan_id":"cebpf4jnsgd1na2vs0mg"},{"bike_id":"2842f5fd-7b05-4b47-909c-5ee54d7d3bc5","system_id":"levelo_inurba_marseille","lat":43.324614,"lon":5.428063,"is_reserved":false,"is_disabled":false,"rental_uris":{"android":"levelo://app?vid=2842f5fd-7b05-4b47-909c-5ee54d7d3bc5","ios":"levelo://app?vid=2842f5fd-7b05-4b47-909c-5ee54d7d3bc5"},"vehicle_type_id":"4","last_reported":1761304157,"current_range_meters":11600,"station_id":"","pricing_plan_id":"cebpf4jnsgd1na2vs0mg"},{"bike_id":"62e29de6-f858-4be9-ad94-49dd3603a84f","system_id":"levelo_inurba_marseille","lat":43.28537,"lon":5.44092,"is_reserved":false,"is_disabled":false,"rental_uris":{"android":"levelo://app?vid=62e29de6-f858-4be9-ad94-49dd3603a84f","ios":"levelo://app?vid=62e29de6-f858-4be9-ad94-49dd3603a84f"},"vehicle_type_id":"4","last_reported":1761304157,"current_range_meters":11600,"station_id":"st_d3j3df2ikq2c7380ej80","pricing_plan_id":"cebpf4jnsgd1na2vs0mg"},{"bike_id":"6844db38-03a9-4f91-b6d0-a4ec531bee4c","system_id":"levelo_inurba_marseille","lat":43.301394,"lon":5.374136,"is_reserved":false,"is_disabled":false,"rental_uris":{"android":"levelo://app?vid=6844db38-03a9-4f91-b6d0-a4ec531bee4c","ios":"levelo://app?vid=6844db38-03a9-4f91-b6d0-a4ec531bee4c"},"vehicle_type_id":"4","last_reported":1761304157,"current_range_meters":11600,"station_id":"ce4bgs92rcd13ifvqcc0","pricing_plan_id":"cebpf4jnsgd1na2vs0mg"},{"bike_id":"c9aec2b7-d64b-40a9-be7b-a9c142296576","system_id":"levelo_inurba_marseille","lat":43.29908,"lon":5.38137,"is_reserved":false,"is_disabled":false,"rental_uris":{"android":"levelo://app?vid=c9aec2b7-d64b-40a9-be7b-a9c142296576","ios":"levelo://app?vid=c9aec2b7-d64b-40a9-be7b-a9c142296576"},"vehicle_type_id":"4","last_reported":1761304157,"current_range_meters":12000,"station_id":"ce4bgj12rcd13ifvqbc0","pricing_plan_id":"cebpf4jnsgd1na2vs0mg"},{"bike_id":"206c9dfc-208c-4863-918b-822c7c15ba8d","system_id":"levelo_inurba_marseille","lat":43.30799,"lon":5.3816,"is_reserved":false,"is_disabled":false,"rental_uris":{"android":"levelo://app?vid=206c9dfc-208c-4863-918b-822c7c15ba8d","ios":"levelo://app?vid=206c9dfc-208c-4863-918b-822c7c15ba8d"},"vehicle_type_id":"4","last_reported":1761304157,"current_range_meters":12000,"station_id":"ce4bgt12rcd13ifvqce0","pricing_plan_id":"cebpf4jnsgd1na2vs0mg"},{"bike_id":"5281e5df-222b-45d2-a20f-c3840dd97c29","system_id":"levelo_inurba_marseille","lat":43.25338,"lon":5.42181,"is_reserved":false,"is_disabled":false,"rental_uris":{"android":"levelo://app?vid=5281e5df-222b-45d2-a20f-c3840dd97c29","ios":"levelo://app?vid=5281e5df-222b-45d2-a20f-c3840dd97c29"},"vehicle_type_id":"4","last_reported":1761304157,"current_range_meters":12000,"station_id":"st_d2m65c5bi1j21697t3ng","pricing_plan_id":"cebpf4jnsgd1na2vs0mg"},{"bike_id":"0b9b57bc-7a8a-4239-9bf8-8db0d41132b5","system_id":"levelo_inurba_marseille","lat":43.30128,"lon":5.3742,"is_reserved":false,"is_disabled":false,"rental_uris":{"android":"levelo://app?vid=0b9b57bc-7a8a-4239-9bf8-8db0d41132b5","ios":"levelo://app?vid=0b9b57bc-7a8a-4239-9bf8-8db0d41132b5"},"vehicle_type_id":"4","last_reported":1761304157,"current_range_meters":12000,"station_id":"ce4bgs92rcd13ifvqcc0","pricing_plan_id":"cebpf4jnsgd1na2vs0mg"},{"bike_id":"c12a786b-d447-4373-876a-58fc20f19148","system_id":"levelo_inurba_marseille","lat":43.29893,"lon":5.43642,"is_reserved":false,"is_disabled":false,"rental_uris":{"android":"levelo://app?vid=c12a786b-d447-4373-876a-58fc20f19148","ios":"levelo://app?vid=c12a786b-d447-4373-876a-58fc20f19148"},"vehicle_type_id":"4","last_reported":1761304157,"current_range_meters":12000,"station_id":"ce4bhpp2rcd13ifvqhfg","pricing_plan_id":"cebpf4jnsgd1na2vs0mg"},{"bike_id":"390d990b-e62c-4cbb-b0db-85df35452570","system_id":"levelo_inurba_marseille","lat":43.306,"lon":5.372306,"is_reserved":false,"is_disabled":false,"rental_uris":{"android":"levelo://app?vid=390d990b-e62c-4cbb-b0db-85df35452570","ios":"levelo://app?vid=390d990b-e62c-4cbb-b0db-85df35452570"},"vehicle_type_id":"4","last_reported":1761304157,"current_range_meters":12000,"station_id":"ce4bgih2rcd13ifvqba0","pricing_plan_id":"cebpf4jnsgd1na2vs0mg"},{"bike_id":"b8132e4e-54c5-4ee2-9476-d2684321070b","system_id":"levelo_inurba_marseille","lat":43.299,"lon":5.43665,"is_reserved":false,"is_disabled":false,"rental_uris":{"android":"levelo://app?vid=b8132e4e-54c5-4ee2-9476-d2684321070b","ios":"levelo://app?vid=b8132e4e-54c5-4ee2-9476-d2684321070b"},"vehicle_type_id":"4","last_reported":1761304157,"current_range_meters":12000,"station_id":"ce4bhpp2rcd13ifvqhfg","pricing_plan_id":"cebpf4jnsgd1na2vs0mg"},{"bike_id":"f45ada0e-fa5b-4909-9994-fd65b380e818","system_id":"levelo_inurba_marseille","lat":43.28415,"lon":5.34976,"is_reserved":false,"is_disabled":false,"rental_uris":{"android":"levelo://app?vid=f45ada0e-fa5b-4909-9994-fd65b380e818","ios":"levelo://app?vid=f45ada0e-fa5b-4909-9994-fd65b380e818"},"vehicle_type_id":"4","last_reported":1761304157,"current_range_meters":12000,"station_id":"ce4bhbh2rcd13ifvqepg","pricing_plan_id":"cebpf4jnsgd1na2vs0mg"},{"bike_id":"85b50222-f503-4b10-8bd0-505abd1334cb","system_id":"levelo_inurba_marseille","lat":43.211917,"lon":5.35073,"is_reserved":false,"is_disabled":false,"rental_uris":{"android":"levelo://app?vid=85b50222-f503-4b10-8bd0-505abd1334cb","ios":"levelo://app?vid=85b50222-f503-4b10-8bd0-505abd1334cb"},"vehicle_type_id":"4","last_reported":1761304157,"current_range_meters":12400,"station_id":"","pricing_plan_id":"cebpf4jnsgd1na2vs0mg"},{"bike_id":"379ebc6e-9b78-47fc-a4e5-3b7eec440663","system_id":"levelo_inurba_marseille","lat":43.29951,"lon":5.37186,"is_reserved":false,"is_disabled":false,"rental_uris":{"android":"levelo://app?vid=379ebc6e-9b78-47fc-a4e5-3b7eec440663","ios":"levelo://app?vid=379ebc6e-9b78-47fc-a4e5-3b7eec440663"},"vehicle_type_id":"4","last_reported":1761304157,"current_range_meters":12800,"station_id":"ce4bgr92rcd13ifvqc7g","pricing_plan_id":"cebpf4jnsgd1na2vs0mg"},{"bike_id":"15326849-f39c-465c-81e3-c75b217686b2","system_id":"levelo_inurba_marseille","lat":43.26198,"lon":5.37929,"is_reserved":false,"is_disabled":false,"rental_uris":{"android":"levelo://app?vid=15326849-f39c-465c-81e3-c75b217686b2","ios":"levelo://app?vid=15326849-f39c-465c-81e3-c75b217686b2"},"vehicle_type_id":"4","last_reported":1761304157,"current_range_meters":12800,"station_id":"ce4bhjp2rcd13ifvqg90","pricing_plan_id":"cebpf4jnsgd1na2vs0mg"},{"bike_id":"2e516aa3-da3f-4cd4-8d7a-1dc8bf5d8ddd","system_id":"levelo_inurba_marseille","lat":43.32095,"lon":5.36728,"is_reserved":false,"is_disabled":false,"rental_uris":{"android":"levelo://app?vid=2e516aa3-da3f-4cd4-8d7a-1dc8bf5d8ddd","ios":"levelo://app?vid=2e516aa3-da3f-4cd4-8d7a-1dc8bf5d8ddd"},"vehicle_type_id":"4","last_reported":1761304157,"current_range_meters":13600,"station_id":"ce4bhrh2rcd13ifvqhug","pricing_plan_id":"cebpf4jnsgd1na2vs0mg"},{"bike_id":"49205a8f-4198-4c0b-b7d7-97a9473705ce","system_id":"levelo_inurba_marseille","lat":43.32111,"lon":5.36763,"is_reserved":false,"is_disabled":false,"rental_uris":{"android":"levelo://app?vid=49205a8f-4198-4c0b-b7d7-97a9473705ce","ios":"levelo://app?vid=49205a8f-4198-4c0b-b7d7-97a9473705ce"},"vehicle_type_id":"4","last_reported":1761304157,"current_range_meters":13600,"station_id":"ce4bhrh2rcd13ifvqhug","pricing_plan_id":"cebpf4jnsgd1na2vs0mg"},{"bike_id":"82a6ac02-8c08-4f93-844a-981cd0f715d0","system_id":"levelo_inurba_marseille","lat":43.25497,"lon":5.37654,"is_reserved":false,"is_disabled":false,"rental_uris":{"android":"levelo://app?vid=82a6ac02-8c08-4f93-844a-981cd0f715d0","ios":"levelo://app?vid=82a6ac02-8c08-4f93-844a-981cd0f715d0"},"vehicle_type_id":"4","last_reported":1761304157,"current_range_meters":13600,"station_id":"ce4bhh12rcd13ifvqff0","pricing_plan_id":"cebpf4jnsgd1na2vs0mg"},{"bike_id":"f0d51a16-618d-4032-ad74-ebb04ca16936","system_id":"levelo_inurba_marseille","lat":43.27054,"lon":5.40251,"is_reserved":false,"is_disabled":false,"rental_uris":{"android":"levelo://app?vid=f0d51a16-618d-4032-ad74-ebb04ca16936","ios":"levelo://app?vid=f0d51a16-618d-4032-ad74-ebb04ca16936"},"vehicle_type_id":"4","last_reported":1761304157,"current_range_meters":13600,"station_id":"ce4bhk92rcd13ifvqgc0","pricing_plan_id":"cebpf4jnsgd1na2vs0mg"},{"bike_id":"dfc041f6-a962-4c93-8a58-0f138abbf1a2","system_id":"levelo_inurba_marseille","lat":43.26235,"lon":5.4046,"is_reserved":false,"is_disabled":false,"rental_uris":{"android":"levelo://app?vid=dfc041f6-a962-4c93-8a58-0f138abbf1a2","ios":"levelo://app?vid=dfc041f6-a962-4c93-8a58-0f138abbf1a2"},"vehicle_type_id":"4","last_reported":1761304157,"current_range_meters":14000,"station_id":"ce4bhmh2rcd13ifvqgmg","pricing_plan_id":"cebpf4jnsgd1na2vs0mg"},{"bike_id":"de4b8ab5-285e-474a-b521-72ccb626a9fe","system_id":"levelo_inurba_marseille","lat":43.32246,"lon":5.38357,"is_reserved":false,"is_disabled":false,"rental_uris":{"android":"levelo://app?vid=de4b8ab5-285e-474a-b521-72ccb626a9fe","ios":"levelo://app?vid=de4b8ab5-285e-474a-b521-72ccb626a9fe"},"vehicle_type_id":"4","last_reported":1761304157,"current_range_meters":14000,"station_id":"ce4bhr12rcd13ifvqhqg","pricing_plan_id":"cebpf4jnsgd1na2vs0mg"},{"bike_id":"f8c755d7-1bb8-4fcd-bb3f-74aeb49951cc","system_id":"levelo_inurba_marseille","lat":43.31371,"lon":5.37909,"is_reserved":false,"is_disabled":false,"rental_uris":{"android":"levelo://app?vid=f8c755d7-1bb8-4fcd-bb3f-74aeb49951cc","ios":"levelo://app?vid=f8c755d7-1bb8-4fcd-bb3f-74aeb49951cc"},"vehicle_type_id":"4","last_reported":1761304157,"current_range_meters":14000,"station_id":"","pricing_plan_id":"cebpf4jnsgd1na2vs0mg"},{"bike_id":"5e4f17f3-426d-4420-9e7e-4ec3f32475aa","system_id":"levelo_inurba_marseille","lat":43.299242,"lon":5.374908,"is_reserved":false,"is_disabled":false,"rental_uris":{"android":"levelo://app?vid=5e4f17f3-426d-4420-9e7e-4ec3f32475aa","ios":"levelo://app?vid=5e4f17f3-426d-4420-9e7e-4ec3f32475aa"},"vehicle_type_id":"4","last_reported":1761304157,"current_range_meters":14000,"station_id":"ce4bgjh2rcd13ifvqbg0","pricing_plan_id":"cebpf4jnsgd1na2vs0mg"},{"bike_id":"321a5f9d-b829-40b1-a6ce-af39ec0bca80","system_id":"levelo_inurba_marseille","lat":43.25579,"lon":5.38225,"is_reserved":false,"is_disabled":false,"rental_uris":{"android":"levelo://app?vid=321a5f9d-b829-40b1-a6ce-af39ec0bca80","ios":"levelo://app?vid=321a5f9d-b829-40b1-a6ce-af39ec0bca80"},"vehicle_type_id":"4","last_reported":1761304157,"current_range_meters":14000,"station_id":"ce4bhih2rcd13ifvqfs0","pricing_plan_id":"cebpf4jnsgd1na2vs0mg"},{"bike_id":"b82aa972-da68-4f95-87c7-ebee292f36bd","system_id":"levelo_inurba_marseille","lat":43.24172,"lon":5.36394,"is_reserved":false,"is_disabled":false,"rental_uris":{"android":"levelo://app?vid=b82aa972-da68-4f95-87c7-ebee292f36bd","ios":"levelo://app?vid=b82aa972-da68-4f95-87c7-ebee292f36bd"},"vehicle_type_id":"4","last_reported":1761304157,"current_range_meters":14000,"station_id":"cpo36qri1sfpv3e86is0","pricing_plan_id":"cebpf4jnsgd1na2vs0mg"},{"bike_id":"0830e790-0fce-44b0-af8b-53543e1614de","system_id":"levelo_inurba_marseille","lat":43.290428,"lon":5.399618,"is_reserved":false,"is_disabled":false,"rental_uris":{"android":"levelo://app?vid=0830e790-0fce-44b0-af8b-53543e1614de","ios":"levelo://app?vid=0830e790-0fce-44b0-af8b-53543e1614de"},"vehicle_type_id":"4","last_reported":1761304157,"current_range_meters":14000,"station_id":"ce4bh392rcd13ifvqdm0","pricing_plan_id":"cebpf4jnsgd1na2vs0mg"},{"bike_id":"412a5fea-2bce-4d3d-93c6-7f1c971a7e5a","system_id":"levelo_inurba_marseille","lat":43.240732,"lon":5.377587,"is_reserved":false,"is_disabled":false,"rental_uris":{"android":"levelo://app?vid=412a5fea-2bce-4d3d-93c6-7f1c971a7e5a","ios":"levelo://app?vid=412a5fea-2bce-4d3d-93c6-7f1c971a7e5a"},"vehicle_type_id":"4","last_reported":1761304157,"current_range_meters":14000,"station_id":"ce4bhnp2rcd13ifvqgvg","pricing_plan_id":"cebpf4jnsgd1na2vs0mg"},{"bike_id":"68913c84-342a-4ac5-9ffa-ea0a618c0522","system_id":"levelo_inurba_marseille","lat":43.211948,"lon":5.350742,"is_reserved":false,"is_disabled":false,"rental_uris":{"android":"levelo://app?vid=68913c84-342a-4ac5-9ffa-ea0a618c0522","ios":"levelo://app?vid=68913c84-342a-4ac5-9ffa-ea0a618c0522"},"vehicle_type_id":"4","last_reported":1761304157,"current_range_meters":14400,"station_id":"st_cvj6sg6p6f1abm77japg","pricing_plan_id":"cebpf4jnsgd1na2vs0mg"},{"bike_id":"30c20775-7e7c-4dd5-b544-8b63c9979e48","system_id":"levelo_inurba_marseille","lat":43.2922,"lon":5.36063,"is_reserved":false,"is_disabled":false,"rental_uris":{"android":"levelo://app?vid=30c20775-7e7c-4dd5-b544-8b63c9979e48","ios":"levelo://app?vid=30c20775-7e7c-4dd5-b544-8b63c9979e48"},"vehicle_type_id":"4","last_reported":1761304157,"current_range_meters":14400,"station_id":"ce4bhbh2rcd13ifvqeqg","pricing_plan_id":"cebpf4jnsgd1na2vs0mg"},{"bike_id":"ad6d3237-fb04-41a4-b8e6-df088bef2945","system_id":"levelo_inurba_marseille","lat":43.32447,"lon":5.37385,"is_reserved":false,"is_disabled":false,"rental_uris":{"android":"levelo://app?vid=ad6d3237-fb04-41a4-b8e6-df088bef2945","ios":"levelo://app?vid=ad6d3237-fb04-41a4-b8e6-df088bef2945"},"vehicle_type_id":"4","last_reported":1761304157,"current_range_meters":14400,"station_id":"","pricing_plan_id":"cebpf4jnsgd1na2vs0mg"},{"bike_id":"0c216ec5-2d75-4ee4-a223-b0d23bee74b5","system_id":"levelo_inurba_marseille","lat":43.24655,"lon":5.38892,"is_reserved":false,"is_disabled":false,"rental_uris":{"android":"levelo://app?vid=0c216ec5-2d75-4ee4-a223-b0d23bee74b5","ios":"levelo://app?vid=0c216ec5-2d75-4ee4-a223-b0d23bee74b5"},"vehicle_type_id":"4","last_reported":1761304157,"current_range_meters":14400,"station_id":"ce4bhg12rcd13ifvqf60","pricing_plan_id":"cebpf4jnsgd1na2vs0mg"},{"bike_id":"b6124ae0-f3eb-48e5-a4e1-d1fead20997b","system_id":"levelo_inurba_marseille","lat":43.27996,"lon":5.40017,"is_reserved":false,"is_disabled":false,"rental_uris":{"android":"levelo://app?vid=b6124ae0-f3eb-48e5-a4e1-d1fead20997b","ios":"levelo://app?vid=b6124ae0-f3eb-48e5-a4e1-d1fead20997b"},"vehicle_type_id":"4","last_reported":1761304157,"current_range_meters":14800,"station_id":"ce4bho92rcd13ifvqh4g","pricing_plan_id":"cebpf4jnsgd1na2vs0mg"},{"bike_id":"011eee06-da75-42c1-8e54-714561c0b18b","system_id":"levelo_inurba_marseille","lat":43.2923,"lon":5.37152,"is_reserved":false,"is_disabled":false,"rental_uris":{"android":"levelo://app?vid=011eee06-da75-42c1-8e54-714561c0b18b","ios":"levelo://app?vid=011eee06-da75-42c1-8e54-714561c0b18b"},"vehicle_type_id":"4","last_reported":1761304157,"current_range_meters":14800,"station_id":"","pricing_plan_id":"cebpf4jnsgd1na2vs0mg"},{"bike_id":"8e7186e9-e052-4030-a83b-1c1eb47fd46c","system_id":"levelo_inurba_marseille","lat":43.22927,"lon":5.35366,"is_reserved":false,"is_disabled":false,"rental_uris":{"android":"levelo://app?vid=8e7186e9-e052-4030-a83b-1c1eb47fd46c","ios":"levelo://app?vid=8e7186e9-e052-4030-a83b-1c1eb47fd46c"},"vehicle_type_id":"4","last_reported":1761304157,"current_range_meters":14800,"station_id":"cpo3532slgdg3j2ikp40","pricing_plan_id":"cebpf4jnsgd1na2vs0mg"},{"bike_id":"47f09c0c-92a9-44eb-a23c-69934b3ff134","system_id":"levelo_inurba_marseille","lat":43.30125,"lon":5.4309,"is_reserved":false,"is_disabled":false,"rental_uris":{"android":"levelo://app?vid=47f09c0c-92a9-44eb-a23c-69934b3ff134","ios":"levelo://app?vid=47f09c0c-92a9-44eb-a23c-69934b3ff134"},"vehicle_type_id":"4","last_reported":1761304157,"current_range_meters":14800,"station_id":"st_d3js3co5814s73ftftug","pricing_plan_id":"cebpf4jnsgd1na2vs0mg"},{"bike_id":"84a75eb5-3329-408d-883d-28da87824d50","system_id":"levelo_inurba_marseille","lat":43.23152,"lon":5.43705,"is_reserved":false,"is_disabled":false,"rental_uris":{"android":"levelo://app?vid=84a75eb5-3329-408d-883d-28da87824d50","ios":"levelo://app?vid=84a75eb5-3329-408d-883d-28da87824d50"},"vehicle_type_id":"4","last_reported":1761304157,"current_range_meters":15200,"station_id":"ce4bhmp2rcd13ifvqgog","pricing_plan_id":"cebpf4jnsgd1na2vs0mg"},{"bike_id":"07ce55da-841a-4a11-ba53-d6fee4af5401","system_id":"levelo_inurba_marseille","lat":43.29902,"lon":5.38156,"is_reserved":false,"is_disabled":false,"rental_uris":{"android":"levelo://app?vid=07ce55da-841a-4a11-ba53-d6fee4af5401","ios":"levelo://app?vid=07ce55da-841a-4a11-ba53-d6fee4af5401"},"vehicle_type_id":"4","last_reported":1761304157,"current_range_meters":15200,"station_id":"ce4bgj12rcd13ifvqbc0","pricing_plan_id":"cebpf4jnsgd1na2vs0mg"},{"bike_id":"6b307c52-f33b-4885-85a6-9bac6592bb3d","system_id":"levelo_inurba_marseille","lat":43.21193,"lon":5.35062,"is_reserved":false,"is_disabled":false,"rental_uris":{"android":"levelo://app?vid=6b307c52-f33b-4885-85a6-9bac6592bb3d","ios":"levelo://app?vid=6b307c52-f33b-4885-85a6-9bac6592bb3d"},"vehicle_type_id":"4","last_reported":1761304157,"current_range_meters":15200,"station_id":"st_cvj6sg6p6f1abm77japg","pricing_plan_id":"cebpf4jnsgd1na2vs0mg"},{"bike_id":"e8c27b8d-241a-41f3-892d-350fab50dc13","system_id":"levelo_inurba_marseille","lat":43.28635,"lon":5.35076,"is_reserved":false,"is_disabled":false,"rental_uris":{"android":"levelo://app?vid=e8c27b8d-241a-41f3-892d-350fab50dc13","ios":"levelo://app?vid=e8c27b8d-241a-41f3-892d-350fab50dc13"},"vehicle_type_id":"4","last_reported":1761304157,"current_range_meters":15200,"station_id":"ce4bhch2rcd13ifvqeug","pricing_plan_id":"cebpf4jnsgd1na2vs0mg"},{"bike_id":"34620a6d-6cbe-45b0-a540-768a36ac4c42","system_id":"levelo_inurba_marseille","lat":43.25932,"lon":5.4089,"is_reserved":false,"is_disabled":false,"rental_uris":{"android":"levelo://app?vid=34620a6d-6cbe-45b0-a540-768a36ac4c42","ios":"levelo://app?vid=34620a6d-6cbe-45b0-a540-768a36ac4c42"},"vehicle_type_id":"4","last_reported":1761304157,"current_range_meters":16000,"station_id":"ce4bhm92rcd13ifvqglg","pricing_plan_id":"cebpf4jnsgd1na2vs0mg"},{"bike_id":"8d37e86e-0fcb-4934-9c24-f827e9ccc08f","system_id":"levelo_inurba_marseille","lat":43.23151,"lon":5.43721,"is_reserved":false,"is_disabled":false,"rental_uris":{"android":"levelo://app?vid=8d37e86e-0fcb-4934-9c24-f827e9ccc08f","ios":"levelo://app?vid=8d37e86e-0fcb-4934-9c24-f827e9ccc08f"},"vehicle_type_id":"4","last_reported":1761304157,"current_range_meters":16000,"station_id":"ce4bhmp2rcd13ifvqgog","pricing_plan_id":"cebpf4jnsgd1na2vs0mg"},{"bike_id":"9cf0739c-a98e-4342-bc79-0bc0c7e49bf1","system_id":"levelo_inurba_marseille","lat":43.30528,"lon":5.36581,"is_reserved":false,"is_disabled":false,"rental_uris":{"android":"levelo://app?vid=9cf0739c-a98e-4342-bc79-0bc0c7e49bf1","ios":"levelo://app?vid=9cf0739c-a98e-4342-bc79-0bc0c7e49bf1"},"vehicle_type_id":"4","last_reported":1761304157,"current_range_meters":16000,"station_id":"","pricing_plan_id":"cebpf4jnsgd1na2vs0mg"},{"bike_id":"a6db5271-cc06-4162-8b23-e7a88487b7c3","system_id":"levelo_inurba_marseille","lat":43.2174,"lon":5.34594,"is_reserved":false,"is_disabled":false,"rental_uris":{"android":"levelo://app?vid=a6db5271-cc06-4162-8b23-e7a88487b7c3","ios":"levelo://app?vid=a6db5271-cc06-4162-8b23-e7a88487b7c3"},"vehicle_type_id":"4","last_reported":1761304157,"current_range_meters":16000,"station_id":"st_cvj6r9ubvosntc0bgbag","pricing_plan_id":"cebpf4jnsgd1na2vs0mg"},{"bike_id":"abbc103d-a709-4f6e-9831-892b0c6410a3","system_id":"levelo_inurba_marseille","lat":43.30152,"lon":5.38092,"is_reserved":false,"is_disabled":false,"rental_uris":{"android":"levelo://app?vid=abbc103d-a709-4f6e-9831-892b0c6410a3","ios":"levelo://app?vid=abbc103d-a709-4f6e-9831-892b0c6410a3"},"vehicle_type_id":"4","last_reported":1761304157,"current_range_meters":16000,"station_id":"ce4bgjp2rcd13ifvqbh0","pricing_plan_id":"cebpf4jnsgd1na2vs0mg"},{"bike_id":"d6bf35d6-726d-4e21-8f7d-58a4c5ab0506","system_id":"levelo_inurba_marseille","lat":43.217442,"lon":5.345998,"is_reserved":false,"is_disabled":false,"rental_uris":{"android":"levelo://app?vid=d6bf35d6-726d-4e21-8f7d-58a4c5ab0506","ios":"levelo://app?vid=d6bf35d6-726d-4e21-8f7d-58a4c5ab0506"},"vehicle_type_id":"4","last_reported":1761304157,"current_range_meters":16000,"station_id":"","pricing_plan_id":"cebpf4jnsgd1na2vs0mg"},{"bike_id":"249615da-bae2-4bb3-9506-b338b9fb85b7","system_id":"levelo_inurba_marseille","lat":43.2974,"lon":5.37663,"is_reserved":false,"is_disabled":true,"rental_uris":{"android":"levelo://app?vid=249615da-bae2-4bb3-9506-b338b9fb85b7","ios":"levelo://app?vid=249615da-bae2-4bb3-9506-b338b9fb85b7"},"vehicle_type_id":"4","last_reported":1761304157,"current_range_meters":16400,"station_id":"ce4bgkh2rcd13ifvqbl0","pricing_plan_id":"cebpf4jnsgd1na2vs0mg"},{"bike_id":"dde114a4-8805-4784-b02d-0d744116457b","system_id":"levelo_inurba_marseille","lat":43.229324,"lon":5.35376,"is_reserved":false,"is_disabled":false,"rental_uris":{"android":"levelo://app?vid=dde114a4-8805-4784-b02d-0d744116457b","ios":"levelo://app?vid=dde114a4-8805-4784-b02d-0d744116457b"},"vehicle_type_id":"4","last_reported":1761304157,"current_range_meters":16400,"station_id":"cpo3532slgdg3j2ikp40","pricing_plan_id":"cebpf4jnsgd1na2vs0mg"},{"bike_id":"0060c2b0-cbc7-429f-93b2-d414dcccf270","system_id":"levelo_inurba_marseille","lat":43.2867,"lon":5.38664,"is_reserved":false,"is_disabled":false,"rental_uris":{"android":"levelo://app?vid=0060c2b0-cbc7-429f-93b2-d414dcccf270","ios":"levelo://app?vid=0060c2b0-cbc7-429f-93b2-d414dcccf270"},"vehicle_type_id":"4","last_reported":1761304157,"current_range_meters":16400,"station_id":"ce4bh492rcd13ifvqdug","pricing_plan_id":"cebpf4jnsgd1na2vs0mg"},{"bike_id":"51eceae6-e77b-4ec6-8b90-f7c26939900c","system_id":"levelo_inurba_marseille","lat":43.27375,"lon":5.36257,"is_reserved":false,"is_disabled":false,"rental_uris":{"android":"levelo://app?vid=51eceae6-e77b-4ec6-8b90-f7c26939900c","ios":"levelo://app?vid=51eceae6-e77b-4ec6-8b90-f7c26939900c"},"vehicle_type_id":"4","last_reported":1761304157,"current_range_meters":16800,"station_id":"ce4bhbh2rcd13ifvqeo0","pricing_plan_id":"cebpf4jnsgd1na2vs0mg"},{"bike_id":"4f5c5045-2f2c-4ab7-ad8b-eeba1d52fe66","system_id":"levelo_inurba_marseille","lat":43.315779,"lon":5.371984,"is_reserved":false,"is_disabled":false,"rental_uris":{"android":"levelo://app?vid=4f5c5045-2f2c-4ab7-ad8b-eeba1d52fe66","ios":"levelo://app?vid=4f5c5045-2f2c-4ab7-ad8b-eeba1d52fe66"},"vehicle_type_id":"4","last_reported":1761304157,"current_range_meters":16800,"station_id":"","pricing_plan_id":"cebpf4jnsgd1na2vs0mg"},{"bike_id":"027671f0-647c-4906-b36a-8e0c86a19dff","system_id":"levelo_inurba_marseille","lat":43.302179,"lon":5.394717,"is_reserved":false,"is_disabled":false,"rental_uris":{"android":"levelo://app?vid=027671f0-647c-4906-b36a-8e0c86a19dff","ios":"levelo://app?vid=027671f0-647c-4906-b36a-8e0c86a19dff"},"vehicle_type_id":"4","last_reported":1761304157,"current_range_meters":16800,"station_id":"","pricing_plan_id":"cebpf4jnsgd1na2vs0mg"},{"bike_id":"46c0226f-9fad-4b07-8a98-586b07fa945a","system_id":"levelo_inurba_marseille","lat":43.30552,"lon":5.36515,"is_reserved":false,"is_disabled":false,"rental_uris":{"android":"levelo://app?vid=46c0226f-9fad-4b07-8a98-586b07fa945a","ios":"levelo://app?vid=46c0226f-9fad-4b07-8a98-586b07fa945a"},"vehicle_type_id":"4","last_reported":1761304157,"current_range_meters":16800,"station_id":"ce4bgs12rcd13ifvqcag","pricing_plan_id":"cebpf4jnsgd1na2vs0mg"},{"bike_id":"ce6cd538-c766-4c96-b93f-5b786164e4be","system_id":"levelo_inurba_marseille","lat":43.308827,"lon":5.37211,"is_reserved":false,"is_disabled":false,"rental_uris":{"android":"levelo://app?vid=ce6cd538-c766-4c96-b93f-5b786164e4be","ios":"levelo://app?vid=ce6cd538-c766-4c96-b93f-5b786164e4be"},"vehicle_type_id":"4","last_reported":1761304157,"current_range_meters":16800,"station_id":"ce4bguh2rcd13ifvqckg","pricing_plan_id":"cebpf4jnsgd1na2vs0mg"},{"bike_id":"66ebfd0d-0319-4249-9597-d1865e04e85a","system_id":"levelo_inurba_marseille","lat":43.30601,"lon":5.37224,"is_reserved":false,"is_disabled":false,"rental_uris":{"android":"levelo://app?vid=66ebfd0d-0319-4249-9597-d1865e04e85a","ios":"levelo://app?vid=66ebfd0d-0319-4249-9597-d1865e04e85a"},"vehicle_type_id":"4","last_reported":1761304157,"current_range_meters":16800,"station_id":"ce4bgqh2rcd13ifvqc4g","pricing_plan_id":"cebpf4jnsgd1na2vs0mg"},{"bike_id":"64c19929-6593-4939-ad50-49b013bc225f","system_id":"levelo_inurba_marseille","lat":43.29168,"lon":5.37167,"is_reserved":false,"is_disabled":false,"rental_uris":{"android":"levelo://app?vid=64c19929-6593-4939-ad50-49b013bc225f","ios":"levelo://app?vid=64c19929-6593-4939-ad50-49b013bc225f"},"vehicle_type_id":"4","last_reported":1761304157,"current_range_meters":17200,"station_id":"ce4bha92rcd13ifvqeh0","pricing_plan_id":"cebpf4jnsgd1na2vs0mg"},{"bike_id":"e8712f0a-44df-4bcd-b774-a6d4c6b41299","system_id":"levelo_inurba_marseille","lat":43.281533,"lon":5.426409,"is_reserved":false,"is_disabled":false,"rental_uris":{"android":"levelo://app?vid=e8712f0a-44df-4bcd-b774-a6d4c6b41299","ios":"levelo://app?vid=e8712f0a-44df-4bcd-b774-a6d4c6b41299"},"vehicle_type_id":"4","last_reported":1761304157,"current_range_meters":17200,"station_id":"ce4bhnh2rcd13ifvqgug","pricing_plan_id":"cebpf4jnsgd1na2vs0mg"},{"bike_id":"be88eaa4-e674-44f9-9199-3901304dd644","system_id":"levelo_inurba_marseille","lat":43.217565,"lon":5.345967,"is_reserved":false,"is_disabled":false,"rental_uris":{"android":"levelo://app?vid=be88eaa4-e674-44f9-9199-3901304dd644","ios":"levelo://app?vid=be88eaa4-e674-44f9-9199-3901304dd644"},"vehicle_type_id":"4","last_reported":1761304157,"current_range_meters":17200,"station_id":"st_cvj6r9ubvosntc0bgbag","pricing_plan_id":"cebpf4jnsgd1na2vs0mg"},{"bike_id":"0f640445-b7c2-4dab-bfd8-f47d334584a8","system_id":"levelo_inurba_marseille","lat":43.273691,"lon":5.393243,"is_reserved":false,"is_disabled":false,"rental_uris":{"android":"levelo://app?vid=0f640445-b7c2-4dab-bfd8-f47d334584a8","ios":"levelo://app?vid=0f640445-b7c2-4dab-bfd8-f47d334584a8"},"vehicle_type_id":"4","last_reported":1761304157,"current_range_meters":17200,"station_id":"ce4bhdp2rcd13ifvqf20","pricing_plan_id":"cebpf4jnsgd1na2vs0mg"},{"bike_id":"17585014-36d0-4d96-ab97-1812e8c7fbe7","system_id":"levelo_inurba_marseille","lat":43.31667,"lon":5.38241,"is_reserved":false,"is_disabled":false,"rental_uris":{"android":"levelo://app?vid=17585014-36d0-4d96-ab97-1812e8c7fbe7","ios":"levelo://app?vid=17585014-36d0-4d96-ab97-1812e8c7fbe7"},"vehicle_type_id":"4","last_reported":1761304157,"current_range_meters":17200,"station_id":"","pricing_plan_id":"cebpf4jnsgd1na2vs0mg"},{"bike_id":"75eebb0f-2447-4bf8-b846-45b5b359059b","system_id":"levelo_inurba_marseille","lat":43.33769,"lon":5.37496,"is_reserved":false,"is_disabled":false,"rental_uris":{"android":"levelo://app?vid=75eebb0f-2447-4bf8-b846-45b5b359059b","ios":"levelo://app?vid=75eebb0f-2447-4bf8-b846-45b5b359059b"},"vehicle_type_id":"4","last_reported":1761304157,"current_range_meters":17200,"station_id":"","pricing_plan_id":"cebpf4jnsgd1na2vs0mg"},{"bike_id":"8ae1a895-256a-42ff-81e2-1ddef1dcb177","system_id":"levelo_inurba_marseille","lat":43.23146,"lon":5.43697,"is_reserved":false,"is_disabled":false,"rental_uris":{"android":"levelo://app?vid=8ae1a895-256a-42ff-81e2-1ddef1dcb177","ios":"levelo://app?vid=8ae1a895-256a-42ff-81e2-1ddef1dcb177"},"vehicle_type_id":"4","last_reported":1761304157,"current_range_meters":17200,"station_id":"ce4bhmp2rcd13ifvqgog","pricing_plan_id":"cebpf4jnsgd1na2vs0mg"},{"bike_id":"89f6ed30-217a-416d-942e-ce1c87582fa9","system_id":"levelo_inurba_marseille","lat":43.29842,"lon":5.3628,"is_reserved":false,"is_disabled":false,"rental_uris":{"android":"levelo://app?vid=89f6ed30-217a-416d-942e-ce1c87582fa9","ios":"levelo://app?vid=89f6ed30-217a-416d-942e-ce1c87582fa9"},"vehicle_type_id":"4","last_reported":1761304157,"current_range_meters":17200,"station_id":"ce4bgpp2rcd13ifvqc3g","pricing_plan_id":"cebpf4jnsgd1na2vs0mg"},{"bike_id":"39ee548f-6a8d-43fb-82c4-70e803532344","system_id":"levelo_inurba_marseille","lat":43.28615,"lon":5.35107,"is_reserved":false,"is_disabled":false,"rental_uris":{"android":"levelo://app?vid=39ee548f-6a8d-43fb-82c4-70e803532344","ios":"levelo://app?vid=39ee548f-6a8d-43fb-82c4-70e803532344"},"vehicle_type_id":"4","last_reported":1761304157,"current_range_meters":17600,"station_id":"ce4bhch2rcd13ifvqeug","pricing_plan_id":"cebpf4jnsgd1na2vs0mg"},{"bike_id":"417d2345-c4c6-4ccd-bc5c-2eafc961607b","system_id":"levelo_inurba_marseille","lat":43.25494,"lon":5.37652,"is_reserved":false,"is_disabled":false,"rental_uris":{"android":"levelo://app?vid=417d2345-c4c6-4ccd-bc5c-2eafc961607b","ios":"levelo://app?vid=417d2345-c4c6-4ccd-bc5c-2eafc961607b"},"vehicle_type_id":"4","last_reported":1761304157,"current_range_meters":17600,"station_id":"ce4bhh12rcd13ifvqff0","pricing_plan_id":"cebpf4jnsgd1na2vs0mg"},{"bike_id":"109d7612-6660-4347-8456-915d50bd877c","system_id":"levelo_inurba_marseille","lat":43.2902,"lon":5.38127,"is_reserved":false,"is_disabled":false,"rental_uris":{"android":"levelo://app?vid=109d7612-6660-4347-8456-915d50bd877c","ios":"levelo://app?vid=109d7612-6660-4347-8456-915d50bd877c"},"vehicle_type_id":"4","last_reported":1761304157,"current_range_meters":17600,"station_id":"ce4bh4p2rcd13ifvqe1g","pricing_plan_id":"cebpf4jnsgd1na2vs0mg"},{"bike_id":"9d964ec4-c537-4f1d-b21c-451d3f46b1bf","system_id":"levelo_inurba_marseille","lat":43.29902,"lon":5.3785,"is_reserved":false,"is_disabled":false,"rental_uris":{"android":"levelo://app?vid=9d964ec4-c537-4f1d-b21c-451d3f46b1bf","ios":"levelo://app?vid=9d964ec4-c537-4f1d-b21c-451d3f46b1bf"},"vehicle_type_id":"4","last_reported":1761304157,"current_range_meters":17600,"station_id":"","pricing_plan_id":"cebpf4jnsgd1na2vs0mg"},{"bike_id":"8bb7bee9-5e62-432b-8c49-b661a9775620","system_id":"levelo_inurba_marseille","lat":43.25934,"lon":5.40917,"is_reserved":false,"is_disabled":false,"rental_uris":{"android":"levelo://app?vid=8bb7bee9-5e62-432b-8c49-b661a9775620","ios":"levelo://app?vid=8bb7bee9-5e62-432b-8c49-b661a9775620"},"vehicle_type_id":"4","last_reported":1761304157,"current_range_meters":17600,"station_id":"ce4bhm92rcd13ifvqglg","pricing_plan_id":"cebpf4jnsgd1na2vs0mg"},{"bike_id":"87153494-c9e3-435d-890d-1d1442f38460","system_id":"levelo_inurba_marseille","lat":43.27561,"lon":5.38412,"is_reserved":false,"is_disabled":false,"rental_uris":{"android":"levelo://app?vid=87153494-c9e3-435d-890d-1d1442f38460","ios":"levelo://app?vid=87153494-c9e3-435d-890d-1d1442f38460"},"vehicle_type_id":"4","last_reported":1761304157,"current_range_meters":18000,"station_id":"ce4bhh92rcd13ifvqfi0","pricing_plan_id":"cebpf4jnsgd1na2vs0mg"},{"bike_id":"baad6161-3b0c-4294-89b1-9ce6c01ce975","system_id":"levelo_inurba_marseille","lat":43.28861,"lon":5.42522,"is_reserved":false,"is_disabled":false,"rental_uris":{"android":"levelo://app?vid=baad6161-3b0c-4294-89b1-9ce6c01ce975","ios":"levelo://app?vid=baad6161-3b0c-4294-89b1-9ce6c01ce975"},"vehicle_type_id":"4","last_reported":1761304157,"current_range_meters":18000,"station_id":"st_d3b462108ojc7389ooeg","pricing_plan_id":"cebpf4jnsgd1na2vs0mg"},{"bike_id":"3c9fcec8-1986-4a06-b8b9-4e6bdcacb272","system_id":"levelo_inurba_marseille","lat":43.2315,"lon":5.43718,"is_reserved":false,"is_disabled":false,"rental_uris":{"android":"levelo://app?vid=3c9fcec8-1986-4a06-b8b9-4e6bdcacb272","ios":"levelo://app?vid=3c9fcec8-1986-4a06-b8b9-4e6bdcacb272"},"vehicle_type_id":"4","last_reported":1761304157,"current_range_meters":18000,"station_id":"ce4bhmp2rcd13ifvqgog","pricing_plan_id":"cebpf4jnsgd1na2vs0mg"},{"bike_id":"c82af006-c154-4765-801d-fa5dec2b10c1","system_id":"levelo_inurba_marseille","lat":43.29779,"lon":5.37086,"is_reserved":false,"is_disabled":false,"rental_uris":{"android":"levelo://app?vid=c82af006-c154-4765-801d-fa5dec2b10c1","ios":"levelo://app?vid=c82af006-c154-4765-801d-fa5dec2b10c1"},"vehicle_type_id":"4","last_reported":1761304157,"current_range_meters":18000,"station_id":"ce4bgop2rcd13ifvqc1g","pricing_plan_id":"cebpf4jnsgd1na2vs0mg"},{"bike_id":"3a96a2e1-43cf-4bcf-8c88-9cf5be0234ed","system_id":"levelo_inurba_marseille","lat":43.21746,"lon":5.34599,"is_reserved":false,"is_disabled":false,"rental_uris":{"android":"levelo://app?vid=3a96a2e1-43cf-4bcf-8c88-9cf5be0234ed","ios":"levelo://app?vid=3a96a2e1-43cf-4bcf-8c88-9cf5be0234ed"},"vehicle_type_id":"4","last_reported":1761304157,"current_range_meters":18000,"station_id":"st_cvj6r9ubvosntc0bgbag","pricing_plan_id":"cebpf4jnsgd1na2vs0mg"},{"bike_id":"2c7f4b30-9d1c-4725-ae74-8b8af82be5bb","system_id":"levelo_inurba_marseille","lat":43.21192,"lon":5.35073,"is_reserved":false,"is_disabled":false,"rental_uris":{"android":"levelo://app?vid=2c7f4b30-9d1c-4725-ae74-8b8af82be5bb","ios":"levelo://app?vid=2c7f4b30-9d1c-4725-ae74-8b8af82be5bb"},"vehicle_type_id":"4","last_reported":1761304157,"current_range_meters":18000,"station_id":"st_cvj6sg6p6f1abm77japg","pricing_plan_id":"cebpf4jnsgd1na2vs0mg"},{"bike_id":"49c88eb1-18b5-42cc-aab1-cb913bda0353","system_id":"levelo_inurba_marseille","lat":43.33588,"lon":5.4097,"is_reserved":false,"is_disabled":true,"rental_uris":{"android":"levelo://app?vid=49c88eb1-18b5-42cc-aab1-cb913bda0353","ios":"levelo://app?vid=49c88eb1-18b5-42cc-aab1-cb913bda0353"},"vehicle_type_id":"4","last_reported":1761304157,"current_range_meters":18000,"station_id":"ce4bhqh2rcd13ifvqhmg","pricing_plan_id":"cebpf4jnsgd1na2vs0mg"},{"bike_id":"083ffa16-2dbe-4360-9307-23b2ed529f2a","system_id":"levelo_inurba_marseille","lat":43.2867,"lon":5.38649,"is_reserved":false,"is_disabled":false,"rental_uris":{"android":"levelo://app?vid=083ffa16-2dbe-4360-9307-23b2ed529f2a","ios":"levelo://app?vid=083ffa16-2dbe-4360-9307-23b2ed529f2a"},"vehicle_type_id":"4","last_reported":1761304157,"current_range_meters":18800,"station_id":"ce4bh492rcd13ifvqdug","pricing_plan_id":"cebpf4jnsgd1na2vs0mg"},{"bike_id":"5fbaab1f-d829-4fc7-a95c-01ac91069356","system_id":"levelo_inurba_marseille","lat":43.30152,"lon":5.3809,"is_reserved":false,"is_disabled":false,"rental_uris":{"android":"levelo://app?vid=5fbaab1f-d829-4fc7-a95c-01ac91069356","ios":"levelo://app?vid=5fbaab1f-d829-4fc7-a95c-01ac91069356"},"vehicle_type_id":"4","last_reported":1761304157,"current_range_meters":18800,"station_id":"ce4bgjp2rcd13ifvqbh0","pricing_plan_id":"cebpf4jnsgd1na2vs0mg"},{"bike_id":"49a40464-c446-4022-adf4-3fd2e647b0e5","system_id":"levelo_inurba_marseille","lat":43.290351,"lon":5.375639,"is_reserved":false,"is_disabled":false,"rental_uris":{"android":"levelo://app?vid=49a40464-c446-4022-adf4-3fd2e647b0e5","ios":"levelo://app?vid=49a40464-c446-4022-adf4-3fd2e647b0e5"},"vehicle_type_id":"4","last_reported":1761304157,"current_range_meters":18800,"station_id":"","pricing_plan_id":"cebpf4jnsgd1na2vs0mg"},{"bike_id":"1bcdb918-cbd4-4f01-9d15-a2f0705ec890","system_id":"levelo_inurba_marseille","lat":43.29792,"lon":5.38098,"is_reserved":false,"is_disabled":false,"rental_uris":{"android":"levelo://app?vid=1bcdb918-cbd4-4f01-9d15-a2f0705ec890","ios":"levelo://app?vid=1bcdb918-cbd4-4f01-9d15-a2f0705ec890"},"vehicle_type_id":"4","last_reported":1761304157,"current_range_meters":18800,"station_id":"ce4bgip2rcd13ifvqbb0","pricing_plan_id":"cebpf4jnsgd1na2vs0mg"},{"bike_id":"e23c0a95-bc81-480f-9eb6-a061b964da3f","system_id":"levelo_inurba_marseille","lat":43.31344,"lon":5.36725,"is_reserved":false,"is_disabled":false,"rental_uris":{"android":"levelo://app?vid=e23c0a95-bc81-480f-9eb6-a061b964da3f","ios":"levelo://app?vid=e23c0a95-bc81-480f-9eb6-a061b964da3f"},"vehicle_type_id":"4","last_reported":1761304157,"current_range_meters":18800,"station_id":"ce4bgr92rcd13ifvqc6g","pricing_plan_id":"cebpf4jnsgd1na2vs0mg"},{"bike_id":"0314410c-0b13-4156-b6a7-447bee8f3097","system_id":"levelo_inurba_marseille","lat":43.24166,"lon":5.36393,"is_reserved":false,"is_disabled":false,"rental_uris":{"android":"levelo://app?vid=0314410c-0b13-4156-b6a7-447bee8f3097","ios":"levelo://app?vid=0314410c-0b13-4156-b6a7-447bee8f3097"},"vehicle_type_id":"4","last_reported":1761304157,"current_range_meters":19200,"station_id":"cpo36qri1sfpv3e86is0","pricing_plan_id":"cebpf4jnsgd1na2vs0mg"},{"bike_id":"70e38157-b585-43eb-a51e-3d14a26b3d24","system_id":"levelo_inurba_marseille","lat":43.26485,"lon":5.3956,"is_reserved":false,"is_disabled":false,"rental_uris":{"android":"levelo://app?vid=70e38157-b585-43eb-a51e-3d14a26b3d24","ios":"levelo://app?vid=70e38157-b585-43eb-a51e-3d14a26b3d24"},"vehicle_type_id":"4","last_reported":1761304157,"current_range_meters":19200,"station_id":"ce4bhi12rcd13ifvqfq0","pricing_plan_id":"cebpf4jnsgd1na2vs0mg"},{"bike_id":"386a9c87-6707-4c56-9410-3952ef242f20","system_id":"levelo_inurba_marseille","lat":43.24067,"lon":5.37756,"is_reserved":false,"is_disabled":false,"rental_uris":{"android":"levelo://app?vid=386a9c87-6707-4c56-9410-3952ef242f20","ios":"levelo://app?vid=386a9c87-6707-4c56-9410-3952ef242f20"},"vehicle_type_id":"4","last_reported":1761304157,"current_range_meters":19200,"station_id":"ce4bhnp2rcd13ifvqgvg","pricing_plan_id":"cebpf4jnsgd1na2vs0mg"},{"bike_id":"1d91d2c9-29d3-4c7d-a6a8-29c5c39d1cce","system_id":"levelo_inurba_marseille","lat":43.22931,"lon":5.35373,"is_reserved":false,"is_disabled":false,"rental_uris":{"android":"levelo://app?vid=1d91d2c9-29d3-4c7d-a6a8-29c5c39d1cce","ios":"levelo://app?vid=1d91d2c9-29d3-4c7d-a6a8-29c5c39d1cce"},"vehicle_type_id":"4","last_reported":1761304157,"current_range_meters":19200,"station_id":"","pricing_plan_id":"cebpf4jnsgd1na2vs0mg"},{"bike_id":"1e04bd5e-dba9-4c39-b5e3-df33312b1ae1","system_id":"levelo_inurba_marseille","lat":43.270571,"lon":5.383019,"is_reserved":false,"is_disabled":false,"rental_uris":{"android":"levelo://app?vid=1e04bd5e-dba9-4c39-b5e3-df33312b1ae1","ios":"levelo://app?vid=1e04bd5e-dba9-4c39-b5e3-df33312b1ae1"},"vehicle_type_id":"4","last_reported":1761304157,"current_range_meters":19200,"station_id":"st_d3n2fo6cfp8s73cte1j0","pricing_plan_id":"cebpf4jnsgd1na2vs0mg"},{"bike_id":"0bee0626-b9a8-413e-bed7-d82dc19927df","system_id":"levelo_inurba_marseille","lat":43.314875,"lon":5.373,"is_reserved":false,"is_disabled":false,"rental_uris":{"android":"levelo://app?vid=0bee0626-b9a8-413e-bed7-d82dc19927df","ios":"levelo://app?vid=0bee0626-b9a8-413e-bed7-d82dc19927df"},"vehicle_type_id":"4","last_reported":1761304157,"current_range_meters":19200,"station_id":"ce4bgt12rcd13ifvqcd0","pricing_plan_id":"cebpf4jnsgd1na2vs0mg"},{"bike_id":"85831b0c-ac03-4a31-ad4b-6acd383c62ca","system_id":"levelo_inurba_marseille","lat":43.277037,"lon":5.388755,"is_reserved":false,"is_disabled":false,"rental_uris":{"android":"levelo://app?vid=85831b0c-ac03-4a31-ad4b-6acd383c62ca","ios":"levelo://app?vid=85831b0c-ac03-4a31-ad4b-6acd383c62ca"},"vehicle_type_id":"4","last_reported":1761304157,"current_range_meters":19200,"station_id":"ce4bhi12rcd13ifvqfo0","pricing_plan_id":"cebpf4jnsgd1na2vs0mg"},{"bike_id":"d4f34596-cd96-4004-af96-068144e0795b","system_id":"levelo_inurba_marseille","lat":43.30679,"lon":5.4222,"is_reserved":false,"is_disabled":false,"rental_uris":{"android":"levelo://app?vid=d4f34596-cd96-4004-af96-068144e0795b","ios":"levelo://app?vid=d4f34596-cd96-4004-af96-068144e0795b"},"vehicle_type_id":"4","last_reported":1761304157,"current_range_meters":19200,"station_id":"","pricing_plan_id":"cebpf4jnsgd1na2vs0mg"},{"bike_id":"b3c4ef67-de97-4245-8177-c1d3f4d1f246","system_id":"levelo_inurba_marseille","lat":43.28856,"lon":5.35861,"is_reserved":false,"is_disabled":false,"rental_uris":{"android":"levelo://app?vid=b3c4ef67-de97-4245-8177-c1d3f4d1f246","ios":"levelo://app?vid=b3c4ef67-de97-4245-8177-c1d3f4d1f246"},"vehicle_type_id":"4","last_reported":1761304157,"current_range_meters":19200,"station_id":"ce4bhb12rcd13ifvqem0","pricing_plan_id":"cebpf4jnsgd1na2vs0mg"},{"bike_id":"05671d9c-e63a-4542-a1a7-01e7da0ef5a5","system_id":"levelo_inurba_marseille","lat":43.26962,"lon":5.38597,"is_reserved":false,"is_disabled":false,"rental_uris":{"android":"levelo://app?vid=05671d9c-e63a-4542-a1a7-01e7da0ef5a5","ios":"levelo://app?vid=05671d9c-e63a-4542-a1a7-01e7da0ef5a5"},"vehicle_type_id":"4","last_reported":1761304157,"current_range_meters":19200,"station_id":"ce4bhh92rcd13ifvqfh0","pricing_plan_id":"cebpf4jnsgd1na2vs0mg"},{"bike_id":"8e92164c-deff-4fbd-9f4e-43ff81933572","system_id":"levelo_inurba_marseille","lat":43.298354,"lon":5.420175,"is_reserved":false,"is_disabled":false,"rental_uris":{"android":"levelo://app?vid=8e92164c-deff-4fbd-9f4e-43ff81933572","ios":"levelo://app?vid=8e92164c-deff-4fbd-9f4e-43ff81933572"},"vehicle_type_id":"4","last_reported":1761304157,"current_range_meters":19200,"station_id":"","pricing_plan_id":"cebpf4jnsgd1na2vs0mg"},{"bike_id":"affcb4d7-bd11-485d-ac87-73a3514edca3","system_id":"levelo_inurba_marseille","lat":43.21755,"lon":5.34601,"is_reserved":false,"is_disabled":false,"rental_uris":{"android":"levelo://app?vid=affcb4d7-bd11-485d-ac87-73a3514edca3","ios":"levelo://app?vid=affcb4d7-bd11-485d-ac87-73a3514edca3"},"vehicle_type_id":"4","last_reported":1761304157,"current_range_meters":19200,"station_id":"st_cvj6r9ubvosntc0bgbag","pricing_plan_id":"cebpf4jnsgd1na2vs0mg"},{"bike_id":"73a84e4b-1dc4-4293-ac07-8c8f95c6e770","system_id":"levelo_inurba_marseille","lat":43.31119,"lon":5.37764,"is_reserved":false,"is_disabled":true,"rental_uris":{"android":"levelo://app?vid=73a84e4b-1dc4-4293-ac07-8c8f95c6e770","ios":"levelo://app?vid=73a84e4b-1dc4-4293-ac07-8c8f95c6e770"},"vehicle_type_id":"4","last_reported":1761304157,"current_range_meters":19600,"station_id":"ce4bgt92rcd13ifvqcg0","pricing_plan_id":"cebpf4jnsgd1na2vs0mg"},{"bike_id":"bfaea6f8-ccc6-44a7-83a6-9d7d9a7e60cc","system_id":"levelo_inurba_marseille","lat":43.263894,"lon":5.397494,"is_reserved":false,"is_disabled":false,"rental_uris":{"android":"levelo://app?vid=bfaea6f8-ccc6-44a7-83a6-9d7d9a7e60cc","ios":"levelo://app?vid=bfaea6f8-ccc6-44a7-83a6-9d7d9a7e60cc"},"vehicle_type_id":"4","last_reported":1761304157,"current_range_meters":19600,"station_id":"","pricing_plan_id":"cebpf4jnsgd1na2vs0mg"},{"bike_id":"add309f2-27a7-4e40-86be-6df6bc65d6d7","system_id":"levelo_inurba_marseille","lat":43.29707,"lon":5.37701,"is_reserved":false,"is_disabled":false,"rental_uris":{"android":"levelo://app?vid=add309f2-27a7-4e40-86be-6df6bc65d6d7","ios":"levelo://app?vid=add309f2-27a7-4e40-86be-6df6bc65d6d7"},"vehicle_type_id":"4","last_reported":1761304157,"current_range_meters":19600,"station_id":"ce4bgkh2rcd13ifvqbl0","pricing_plan_id":"cebpf4jnsgd1na2vs0mg"},{"bike_id":"cf3f1919-4e8f-4c97-b113-686ac7cc978e","system_id":"levelo_inurba_marseille","lat":43.31727,"lon":5.42394,"is_reserved":false,"is_disabled":false,"rental_uris":{"android":"levelo://app?vid=cf3f1919-4e8f-4c97-b113-686ac7cc978e","ios":"levelo://app?vid=cf3f1919-4e8f-4c97-b113-686ac7cc978e"},"vehicle_type_id":"4","last_reported":1761304157,"current_range_meters":19600,"station_id":"ce4bhp92rcd13ifvqhbg","pricing_plan_id":"cebpf4jnsgd1na2vs0mg"},{"bike_id":"7c098c70-ed37-42af-ab5f-23635c8020bc","system_id":"levelo_inurba_marseille","lat":43.24166,"lon":5.36392,"is_reserved":false,"is_disabled":false,"rental_uris":{"android":"levelo://app?vid=7c098c70-ed37-42af-ab5f-23635c8020bc","ios":"levelo://app?vid=7c098c70-ed37-42af-ab5f-23635c8020bc"},"vehicle_type_id":"4","last_reported":1761304157,"current_range_meters":19600,"station_id":"cpo36qri1sfpv3e86is0","pricing_plan_id":"cebpf4jnsgd1na2vs0mg"},{"bike_id":"9489737c-7c2c-4f83-bc76-e520af4d2990","system_id":"levelo_inurba_marseille","lat":43.32369,"lon":5.38848,"is_reserved":false,"is_disabled":false,"rental_uris":{"android":"levelo://app?vid=9489737c-7c2c-4f83-bc76-e520af4d2990","ios":"levelo://app?vid=9489737c-7c2c-4f83-bc76-e520af4d2990"},"vehicle_type_id":"4","last_reported":1761304157,"current_range_meters":19600,"station_id":"ce4bhqp2rcd13ifvqhog","pricing_plan_id":"cebpf4jnsgd1na2vs0mg"},{"bike_id":"a9e05bfb-9399-4957-aa10-db4ed53a8dd2","system_id":"levelo_inurba_marseille","lat":43.289439,"lon":5.363946,"is_reserved":false,"is_disabled":false,"rental_uris":{"android":"levelo://app?vid=a9e05bfb-9399-4957-aa10-db4ed53a8dd2","ios":"levelo://app?vid=a9e05bfb-9399-4957-aa10-db4ed53a8dd2"},"vehicle_type_id":"4","last_reported":1761304157,"current_range_meters":19600,"station_id":"ce4bhc92rcd13ifvqetg","pricing_plan_id":"cebpf4jnsgd1na2vs0mg"},{"bike_id":"a3afe735-3826-428d-9982-b0b60a35200c","system_id":"levelo_inurba_marseille","lat":43.3031,"lon":5.36892,"is_reserved":false,"is_disabled":false,"rental_uris":{"android":"levelo://app?vid=a3afe735-3826-428d-9982-b0b60a35200c","ios":"levelo://app?vid=a3afe735-3826-428d-9982-b0b60a35200c"},"vehicle_type_id":"4","last_reported":1761304157,"current_range_meters":20000,"station_id":"ce4bgqh2rcd13ifvqc5g","pricing_plan_id":"cebpf4jnsgd1na2vs0mg"},{"bike_id":"ba9a9429-bfde-4653-87f1-2b95b92f5e70","system_id":"levelo_inurba_marseille","lat":43.28528,"lon":5.44097,"is_reserved":false,"is_disabled":false,"rental_uris":{"android":"levelo://app?vid=ba9a9429-bfde-4653-87f1-2b95b92f5e70","ios":"levelo://app?vid=ba9a9429-bfde-4653-87f1-2b95b92f5e70"},"vehicle_type_id":"4","last_reported":1761304157,"current_range_meters":20000,"station_id":"st_d3j3df2ikq2c7380ej80","pricing_plan_id":"cebpf4jnsgd1na2vs0mg"},{"bike_id":"7d99dcaa-df4f-4535-b0a3-ace13915ae9b","system_id":"levelo_inurba_marseille","lat":43.27201,"lon":5.39195,"is_reserved":false,"is_disabled":false,"rental_uris":{"android":"levelo://app?vid=7d99dcaa-df4f-4535-b0a3-ace13915ae9b","ios":"levelo://app?vid=7d99dcaa-df4f-4535-b0a3-ace13915ae9b"},"vehicle_type_id":"4","last_reported":1761304157,"current_range_meters":20000,"station_id":"ce4bhhp2rcd13ifvqfm0","pricing_plan_id":"cebpf4jnsgd1na2vs0mg"},{"bike_id":"8c35a7e4-8378-4fdf-b42f-02e88b6199ca","system_id":"levelo_inurba_marseille","lat":43.321076,"lon":5.367587,"is_reserved":false,"is_disabled":false,"rental_uris":{"android":"levelo://app?vid=8c35a7e4-8378-4fdf-b42f-02e88b6199ca","ios":"levelo://app?vid=8c35a7e4-8378-4fdf-b42f-02e88b6199ca"},"vehicle_type_id":"4","last_reported":1761304157,"current_range_meters":20000,"station_id":"ce4bhrh2rcd13ifvqhug","pricing_plan_id":"cebpf4jnsgd1na2vs0mg"},{"bike_id":"b6e7c082-fffa-4fa7-9f2b-c42c37ca5b5b","system_id":"levelo_inurba_marseille","lat":43.300427,"lon":5.389506,"is_reserved":false,"is_disabled":false,"rental_uris":{"android":"levelo://app?vid=b6e7c082-fffa-4fa7-9f2b-c42c37ca5b5b","ios":"levelo://app?vid=b6e7c082-fffa-4fa7-9f2b-c42c37ca5b5b"},"vehicle_type_id":"4","last_reported":1761304157,"current_range_meters":20000,"station_id":"ce4bh192rcd13ifvqdb0","pricing_plan_id":"cebpf4jnsgd1na2vs0mg"},{"bike_id":"67ded677-11fa-41c8-9ae2-40366a4d9de4","system_id":"levelo_inurba_marseille","lat":43.23182,"lon":5.39985,"is_reserved":false,"is_disabled":false,"rental_uris":{"android":"levelo://app?vid=67ded677-11fa-41c8-9ae2-40366a4d9de4","ios":"levelo://app?vid=67ded677-11fa-41c8-9ae2-40366a4d9de4"},"vehicle_type_id":"4","last_reported":1761304157,"current_range_meters":20400,"station_id":"ce4bhn12rcd13ifvqgqg","pricing_plan_id":"cebpf4jnsgd1na2vs0mg"},{"bike_id":"73069b31-82a2-4124-9498-419aeff86536","system_id":"levelo_inurba_marseille","lat":43.25723,"lon":5.41106,"is_reserved":false,"is_disabled":false,"rental_uris":{"android":"levelo://app?vid=73069b31-82a2-4124-9498-419aeff86536","ios":"levelo://app?vid=73069b31-82a2-4124-9498-419aeff86536"},"vehicle_type_id":"4","last_reported":1761304157,"current_range_meters":20400,"station_id":"ce4bhkp2rcd13ifvqgd0","pricing_plan_id":"cebpf4jnsgd1na2vs0mg"},{"bike_id":"b2e20cd2-c54c-4e77-b03f-069ffaf8b17b","system_id":"levelo_inurba_marseille","lat":43.2175,"lon":5.34605,"is_reserved":false,"is_disabled":false,"rental_uris":{"android":"levelo://app?vid=b2e20cd2-c54c-4e77-b03f-069ffaf8b17b","ios":"levelo://app?vid=b2e20cd2-c54c-4e77-b03f-069ffaf8b17b"},"vehicle_type_id":"4","last_reported":1761304157,"current_range_meters":20400,"station_id":"st_cvj6r9ubvosntc0bgbag","pricing_plan_id":"cebpf4jnsgd1na2vs0mg"},{"bike_id":"d55468d4-c18a-454c-882f-c6a2e2a79a63","system_id":"levelo_inurba_marseille","lat":43.30192,"lon":5.36625,"is_reserved":false,"is_disabled":false,"rental_uris":{"android":"levelo://app?vid=d55468d4-c18a-454c-882f-c6a2e2a79a63","ios":"levelo://app?vid=d55468d4-c18a-454c-882f-c6a2e2a79a63"},"vehicle_type_id":"4","last_reported":1761304157,"current_range_meters":20400,"station_id":"ce4bgrh2rcd13ifvqc8g","pricing_plan_id":"cebpf4jnsgd1na2vs0mg"},{"bike_id":"14576734-0164-4558-8d79-b7e7e6d87f7e","system_id":"levelo_inurba_marseille","lat":43.29701,"lon":5.3772,"is_reserved":false,"is_disabled":false,"rental_uris":{"android":"levelo://app?vid=14576734-0164-4558-8d79-b7e7e6d87f7e","ios":"levelo://app?vid=14576734-0164-4558-8d79-b7e7e6d87f7e"},"vehicle_type_id":"4","last_reported":1761304157,"current_range_meters":20400,"station_id":"ce4bgkh2rcd13ifvqbl0","pricing_plan_id":"cebpf4jnsgd1na2vs0mg"},{"bike_id":"fbc51a66-9f5b-4793-bf47-376ff7c8c289","system_id":"levelo_inurba_marseille","lat":43.21194,"lon":5.35068,"is_reserved":false,"is_disabled":false,"rental_uris":{"android":"levelo://app?vid=fbc51a66-9f5b-4793-bf47-376ff7c8c289","ios":"levelo://app?vid=fbc51a66-9f5b-4793-bf47-376ff7c8c289"},"vehicle_type_id":"4","last_reported":1761304157,"current_range_meters":20400,"station_id":"st_cvj6sg6p6f1abm77japg","pricing_plan_id":"cebpf4jnsgd1na2vs0mg"},{"bike_id":"22c93976-9f79-4dab-b41c-f42c1078da85","system_id":"levelo_inurba_marseille","lat":43.27823,"lon":5.40697,"is_reserved":false,"is_disabled":false,"rental_uris":{"android":"levelo://app?vid=22c93976-9f79-4dab-b41c-f42c1078da85","ios":"levelo://app?vid=22c93976-9f79-4dab-b41c-f42c1078da85"},"vehicle_type_id":"4","last_reported":1761304157,"current_range_meters":20800,"station_id":"ce4bhnh2rcd13ifvqgtg","pricing_plan_id":"cebpf4jnsgd1na2vs0mg"},{"bike_id":"dab36927-4328-48fa-bffb-145a737de07e","system_id":"levelo_inurba_marseille","lat":43.30782,"lon":5.43509,"is_reserved":false,"is_disabled":true,"rental_uris":{"android":"levelo://app?vid=dab36927-4328-48fa-bffb-145a737de07e","ios":"levelo://app?vid=dab36927-4328-48fa-bffb-145a737de07e"},"vehicle_type_id":"4","last_reported":1761304157,"current_range_meters":20800,"station_id":"ce4bhph2rcd13ifvqheg","pricing_plan_id":"cebpf4jnsgd1na2vs0mg"},{"bike_id":"06c2d8ff-cb51-418d-86bf-fe02aa900f95","system_id":"levelo_inurba_marseille","lat":43.30112,"lon":5.39851,"is_reserved":false,"is_disabled":false,"rental_uris":{"android":"levelo://app?vid=06c2d8ff-cb51-418d-86bf-fe02aa900f95","ios":"levelo://app?vid=06c2d8ff-cb51-418d-86bf-fe02aa900f95"},"vehicle_type_id":"4","last_reported":1761304157,"current_range_meters":20800,"station_id":"ce4bh0h2rcd13ifvqd40","pricing_plan_id":"cebpf4jnsgd1na2vs0mg"},{"bike_id":"a48b489a-127e-4aab-97a2-25cf37e655c9","system_id":"levelo_inurba_marseille","lat":43.30928,"lon":5.4026,"is_reserved":false,"is_disabled":false,"rental_uris":{"android":"levelo://app?vid=a48b489a-127e-4aab-97a2-25cf37e655c9","ios":"levelo://app?vid=a48b489a-127e-4aab-97a2-25cf37e655c9"},"vehicle_type_id":"4","last_reported":1761304157,"current_range_meters":20800,"station_id":"","pricing_plan_id":"cebpf4jnsgd1na2vs0mg"},{"bike_id":"d033526a-bda5-4262-a0f4-45aece7c18b4","system_id":"levelo_inurba_marseille","lat":43.292344,"lon":5.391971,"is_reserved":false,"is_disabled":false,"rental_uris":{"android":"levelo://app?vid=d033526a-bda5-4262-a0f4-45aece7c18b4","ios":"levelo://app?vid=d033526a-bda5-4262-a0f4-45aece7c18b4"},"vehicle_type_id":"4","last_reported":1761304157,"current_range_meters":20800,"station_id":"ce4bh192rcd13ifvqdd0","pricing_plan_id":"cebpf4jnsgd1na2vs0mg"},{"bike_id":"d662b0e9-17e6-4e1f-9935-ca01c0a994ea","system_id":"levelo_inurba_marseille","lat":43.225616,"lon":5.416219,"is_reserved":false,"is_disabled":false,"rental_uris":{"android":"levelo://app?vid=d662b0e9-17e6-4e1f-9935-ca01c0a994ea","ios":"levelo://app?vid=d662b0e9-17e6-4e1f-9935-ca01c0a994ea"},"vehicle_type_id":"4","last_reported":1761304157,"current_range_meters":20800,"station_id":"st_d2o4gvlbi1j2169b742g","pricing_plan_id":"cebpf4jnsgd1na2vs0mg"},{"bike_id":"4b336ac8-f146-4ba2-b0c6-7f5de28835f3","system_id":"levelo_inurba_marseille","lat":43.27938,"lon":5.41064,"is_reserved":false,"is_disabled":false,"rental_uris":{"android":"levelo://app?vid=4b336ac8-f146-4ba2-b0c6-7f5de28835f3","ios":"levelo://app?vid=4b336ac8-f146-4ba2-b0c6-7f5de28835f3"},"vehicle_type_id":"4","last_reported":1761304157,"current_range_meters":20800,"station_id":"ce4bhnp2rcd13ifvqh0g","pricing_plan_id":"cebpf4jnsgd1na2vs0mg"},{"bike_id":"3621ef27-2621-4db7-ba50-a876f8c3da44","system_id":"levelo_inurba_marseille","lat":43.24807,"lon":5.37456,"is_reserved":false,"is_disabled":false,"rental_uris":{"android":"levelo://app?vid=3621ef27-2621-4db7-ba50-a876f8c3da44","ios":"levelo://app?vid=3621ef27-2621-4db7-ba50-a876f8c3da44"},"vehicle_type_id":"4","last_reported":1761304157,"current_range_meters":20800,"station_id":"ce4bhgh2rcd13ifvqfb0","pricing_plan_id":"cebpf4jnsgd1na2vs0mg"},{"bike_id":"6d79298e-9a6c-456d-91fd-4fd8f9405f13","system_id":"levelo_inurba_marseille","lat":43.29936,"lon":5.3656,"is_reserved":false,"is_disabled":false,"rental_uris":{"android":"levelo://app?vid=6d79298e-9a6c-456d-91fd-4fd8f9405f13","ios":"levelo://app?vid=6d79298e-9a6c-456d-91fd-4fd8f9405f13"},"vehicle_type_id":"4","last_reported":1761304157,"current_range_meters":20800,"station_id":"ce4bgm92rcd13ifvqbr0","pricing_plan_id":"cebpf4jnsgd1na2vs0mg"},{"bike_id":"aa4e4a50-0da6-4144-bbc5-ac74fc503d7f","system_id":"levelo_inurba_marseille","lat":43.28431,"lon":5.39186,"is_reserved":false,"is_disabled":false,"rental_uris":{"android":"levelo://app?vid=aa4e4a50-0da6-4144-bbc5-ac74fc503d7f","ios":"levelo://app?vid=aa4e4a50-0da6-4144-bbc5-ac74fc503d7f"},"vehicle_type_id":"4","last_reported":1761304157,"current_range_meters":21600,"station_id":"ce4bhoh2rcd13ifvqh5g","pricing_plan_id":"cebpf4jnsgd1na2vs0mg"},{"bike_id":"b10b6f37-c167-4ff7-ba2a-89bd6256deac","system_id":"levelo_inurba_marseille","lat":43.27375,"lon":5.36256,"is_reserved":false,"is_disabled":false,"rental_uris":{"android":"levelo://app?vid=b10b6f37-c167-4ff7-ba2a-89bd6256deac","ios":"levelo://app?vid=b10b6f37-c167-4ff7-ba2a-89bd6256deac"},"vehicle_type_id":"4","last_reported":1761304157,"current_range_meters":21600,"station_id":"ce4bhbh2rcd13ifvqeo0","pricing_plan_id":"cebpf4jnsgd1na2vs0mg"},{"bike_id":"4bf2aad4-ba18-40e9-8644-4c26e7f4069f","system_id":"levelo_inurba_marseille","lat":43.29214,"lon":5.36062,"is_reserved":false,"is_disabled":false,"rental_uris":{"android":"levelo://app?vid=4bf2aad4-ba18-40e9-8644-4c26e7f4069f","ios":"levelo://app?vid=4bf2aad4-ba18-40e9-8644-4c26e7f4069f"},"vehicle_type_id":"4","last_reported":1761304157,"current_range_meters":21600,"station_id":"ce4bhbh2rcd13ifvqeqg","pricing_plan_id":"cebpf4jnsgd1na2vs0mg"},{"bike_id":"c1a421f7-469d-400b-a25d-ae5b7ca452a1","system_id":"levelo_inurba_marseille","lat":43.298444,"lon":5.362776,"is_reserved":false,"is_disabled":false,"rental_uris":{"android":"levelo://app?vid=c1a421f7-469d-400b-a25d-ae5b7ca452a1","ios":"levelo://app?vid=c1a421f7-469d-400b-a25d-ae5b7ca452a1"},"vehicle_type_id":"4","last_reported":1761304157,"current_range_meters":21600,"station_id":"","pricing_plan_id":"cebpf4jnsgd1na2vs0mg"},{"bike_id":"62f0a2f8-d352-4580-a096-e8ce56ffccdb","system_id":"levelo_inurba_marseille","lat":43.32111,"lon":5.36746,"is_reserved":false,"is_disabled":false,"rental_uris":{"android":"levelo://app?vid=62f0a2f8-d352-4580-a096-e8ce56ffccdb","ios":"levelo://app?vid=62f0a2f8-d352-4580-a096-e8ce56ffccdb"},"vehicle_type_id":"4","last_reported":1761304157,"current_range_meters":21600,"station_id":"ce4bhrh2rcd13ifvqhug","pricing_plan_id":"cebpf4jnsgd1na2vs0mg"},{"bike_id":"36ef565d-595c-4fe5-832e-9069968fcd08","system_id":"levelo_inurba_marseille","lat":43.325351,"lon":5.4145,"is_reserved":false,"is_disabled":true,"rental_uris":{"android":"levelo://app?vid=36ef565d-595c-4fe5-832e-9069968fcd08","ios":"levelo://app?vid=36ef565d-595c-4fe5-832e-9069968fcd08"},"vehicle_type_id":"4","last_reported":1761304157,"current_range_meters":21600,"station_id":"ce4bhq12rcd13ifvqhhg","pricing_plan_id":"cebpf4jnsgd1na2vs0mg"},{"bike_id":"77f156b0-4f05-4a6e-a513-c6806bf33878","system_id":"levelo_inurba_marseille","lat":43.3031,"lon":5.36894,"is_reserved":false,"is_disabled":false,"rental_uris":{"android":"levelo://app?vid=77f156b0-4f05-4a6e-a513-c6806bf33878","ios":"levelo://app?vid=77f156b0-4f05-4a6e-a513-c6806bf33878"},"vehicle_type_id":"4","last_reported":1761304157,"current_range_meters":21600,"station_id":"ce4bgqh2rcd13ifvqc5g","pricing_plan_id":"cebpf4jnsgd1na2vs0mg"},{"bike_id":"9ff0db1a-80a9-4db2-b63a-94d008d957ce","system_id":"levelo_inurba_marseille","lat":43.29006,"lon":5.3561,"is_reserved":false,"is_disabled":false,"rental_uris":{"android":"levelo://app?vid=9ff0db1a-80a9-4db2-b63a-94d008d957ce","ios":"levelo://app?vid=9ff0db1a-80a9-4db2-b63a-94d008d957ce"},"vehicle_type_id":"4","last_reported":1761304157,"current_range_meters":21600,"station_id":"ce4bhb92rcd13ifvqen0","pricing_plan_id":"cebpf4jnsgd1na2vs0mg"},{"bike_id":"acc3bb1b-c3ca-4d3e-9d69-3dfe2d42263f","system_id":"levelo_inurba_marseille","lat":43.28666,"lon":5.36348,"is_reserved":false,"is_disabled":false,"rental_uris":{"android":"levelo://app?vid=acc3bb1b-c3ca-4d3e-9d69-3dfe2d42263f","ios":"levelo://app?vid=acc3bb1b-c3ca-4d3e-9d69-3dfe2d42263f"},"vehicle_type_id":"4","last_reported":1761304157,"current_range_meters":22000,"station_id":"ce4bhah2rcd13ifvqej0","pricing_plan_id":"cebpf4jnsgd1na2vs0mg"},{"bike_id":"857bb19d-4c41-4aba-a8b5-bff5a9650adc","system_id":"levelo_inurba_marseille","lat":43.22935,"lon":5.3537,"is_reserved":false,"is_disabled":false,"rental_uris":{"android":"levelo://app?vid=857bb19d-4c41-4aba-a8b5-bff5a9650adc","ios":"levelo://app?vid=857bb19d-4c41-4aba-a8b5-bff5a9650adc"},"vehicle_type_id":"4","last_reported":1761304157,"current_range_meters":22000,"station_id":"cpo3532slgdg3j2ikp40","pricing_plan_id":"cebpf4jnsgd1na2vs0mg"},{"bike_id":"1a70d9c3-47c6-4bf9-8f72-0245459fc374","system_id":"levelo_inurba_marseille","lat":43.217567,"lon":5.346035,"is_reserved":false,"is_disabled":false,"rental_uris":{"android":"levelo://app?vid=1a70d9c3-47c6-4bf9-8f72-0245459fc374","ios":"levelo://app?vid=1a70d9c3-47c6-4bf9-8f72-0245459fc374"},"vehicle_type_id":"4","last_reported":1761304157,"current_range_meters":22000,"station_id":"st_cvj6r9ubvosntc0bgbag","pricing_plan_id":"cebpf4jnsgd1na2vs0mg"},{"bike_id":"49edea08-de8c-4cb5-8fbc-b4c1c838dfc9","system_id":"levelo_inurba_marseille","lat":43.30554,"lon":5.36662,"is_reserved":false,"is_disabled":false,"rental_uris":{"android":"levelo://app?vid=49edea08-de8c-4cb5-8fbc-b4c1c838dfc9","ios":"levelo://app?vid=49edea08-de8c-4cb5-8fbc-b4c1c838dfc9"},"vehicle_type_id":"4","last_reported":1761304157,"current_range_meters":22000,"station_id":"","pricing_plan_id":"cebpf4jnsgd1na2vs0mg"},{"bike_id":"875af547-cfd6-4670-9df8-3028f8a67393","system_id":"levelo_inurba_marseille","lat":43.29893,"lon":5.43665,"is_reserved":false,"is_disabled":false,"rental_uris":{"android":"levelo://app?vid=875af547-cfd6-4670-9df8-3028f8a67393","ios":"levelo://app?vid=875af547-cfd6-4670-9df8-3028f8a67393"},"vehicle_type_id":"4","last_reported":1761304157,"current_range_meters":22000,"station_id":"ce4bhpp2rcd13ifvqhfg","pricing_plan_id":"cebpf4jnsgd1na2vs0mg"},{"bike_id":"2e88e133-3eb5-4e5b-b44a-7ba8d339eff6","system_id":"levelo_inurba_marseille","lat":43.31268,"lon":5.36723,"is_reserved":false,"is_disabled":false,"rental_uris":{"android":"levelo://app?vid=2e88e133-3eb5-4e5b-b44a-7ba8d339eff6","ios":"levelo://app?vid=2e88e133-3eb5-4e5b-b44a-7ba8d339eff6"},"vehicle_type_id":"4","last_reported":1761304157,"current_range_meters":22000,"station_id":"","pricing_plan_id":"cebpf4jnsgd1na2vs0mg"},{"bike_id":"4c2cd850-f8be-4920-9c53-c224c5d6214b","system_id":"levelo_inurba_marseille","lat":43.27814,"lon":5.40711,"is_reserved":false,"is_disabled":false,"rental_uris":{"android":"levelo://app?vid=4c2cd850-f8be-4920-9c53-c224c5d6214b","ios":"levelo://app?vid=4c2cd850-f8be-4920-9c53-c224c5d6214b"},"vehicle_type_id":"4","last_reported":1761304157,"current_range_meters":22000,"station_id":"ce4bhnh2rcd13ifvqgtg","pricing_plan_id":"cebpf4jnsgd1na2vs0mg"},{"bike_id":"de4c9d67-aa03-439a-a821-c7b9a613d790","system_id":"levelo_inurba_marseille","lat":43.21196,"lon":5.35066,"is_reserved":false,"is_disabled":false,"rental_uris":{"android":"levelo://app?vid=de4c9d67-aa03-439a-a821-c7b9a613d790","ios":"levelo://app?vid=de4c9d67-aa03-439a-a821-c7b9a613d790"},"vehicle_type_id":"4","last_reported":1761304157,"current_range_meters":22000,"station_id":"st_cvj6sg6p6f1abm77japg","pricing_plan_id":"cebpf4jnsgd1na2vs0mg"},{"bike_id":"3557c0fa-9ff5-45d9-9d65-1214cedec124","system_id":"levelo_inurba_marseille","lat":43.2827,"lon":5.35057,"is_reserved":false,"is_disabled":false,"rental_uris":{"android":"levelo://app?vid=3557c0fa-9ff5-45d9-9d65-1214cedec124","ios":"levelo://app?vid=3557c0fa-9ff5-45d9-9d65-1214cedec124"},"vehicle_type_id":"4","last_reported":1761304157,"current_range_meters":22000,"station_id":"ce4bhbp2rcd13ifvqerg","pricing_plan_id":"cebpf4jnsgd1na2vs0mg"},{"bike_id":"29b38a45-3e07-40c1-b8b1-5f85b487711f","system_id":"levelo_inurba_marseille","lat":43.31249,"lon":5.40393,"is_reserved":false,"is_disabled":false,"rental_uris":{"android":"levelo://app?vid=29b38a45-3e07-40c1-b8b1-5f85b487711f","ios":"levelo://app?vid=29b38a45-3e07-40c1-b8b1-5f85b487711f"},"vehicle_type_id":"4","last_reported":1761304157,"current_range_meters":22400,"station_id":"","pricing_plan_id":"cebpf4jnsgd1na2vs0mg"},{"bike_id":"eab4c106-273d-4ebf-80dd-9f04d7fee1bb","system_id":"levelo_inurba_marseille","lat":43.27374,"lon":5.36252,"is_reserved":false,"is_disabled":false,"rental_uris":{"android":"levelo://app?vid=eab4c106-273d-4ebf-80dd-9f04d7fee1bb","ios":"levelo://app?vid=eab4c106-273d-4ebf-80dd-9f04d7fee1bb"},"vehicle_type_id":"4","last_reported":1761304157,"current_range_meters":22400,"station_id":"ce4bhbh2rcd13ifvqeo0","pricing_plan_id":"cebpf4jnsgd1na2vs0mg"},{"bike_id":"0144bdf2-84a6-45ad-976a-ea6fd3101d41","system_id":"levelo_inurba_marseille","lat":43.32103,"lon":5.36787,"is_reserved":false,"is_disabled":false,"rental_uris":{"android":"levelo://app?vid=0144bdf2-84a6-45ad-976a-ea6fd3101d41","ios":"levelo://app?vid=0144bdf2-84a6-45ad-976a-ea6fd3101d41"},"vehicle_type_id":"4","last_reported":1761304157,"current_range_meters":22400,"station_id":"ce4bhrh2rcd13ifvqhug","pricing_plan_id":"cebpf4jnsgd1na2vs0mg"},{"bike_id":"1fe5b1e0-8c9c-4d46-9a05-5b6169693b04","system_id":"levelo_inurba_marseille","lat":43.30131,"lon":5.38779,"is_reserved":false,"is_disabled":false,"rental_uris":{"android":"levelo://app?vid=1fe5b1e0-8c9c-4d46-9a05-5b6169693b04","ios":"levelo://app?vid=1fe5b1e0-8c9c-4d46-9a05-5b6169693b04"},"vehicle_type_id":"4","last_reported":1761304157,"current_range_meters":22400,"station_id":"ce4bghh2rcd13ifvqb60","pricing_plan_id":"cebpf4jnsgd1na2vs0mg"},{"bike_id":"a8fffc67-21cc-446b-bae5-f325717e7383","system_id":"levelo_inurba_marseille","lat":43.23187,"lon":5.39981,"is_reserved":false,"is_disabled":false,"rental_uris":{"android":"levelo://app?vid=a8fffc67-21cc-446b-bae5-f325717e7383","ios":"levelo://app?vid=a8fffc67-21cc-446b-bae5-f325717e7383"},"vehicle_type_id":"4","last_reported":1761304157,"current_range_meters":22400,"station_id":"ce4bhn12rcd13ifvqgqg","pricing_plan_id":"cebpf4jnsgd1na2vs0mg"},{"bike_id":"117ebb32-de20-4083-a87c-3c910d7c9eb2","system_id":"levelo_inurba_marseille","lat":43.33615,"lon":5.4104,"is_reserved":false,"is_disabled":false,"rental_uris":{"android":"levelo://app?vid=117ebb32-de20-4083-a87c-3c910d7c9eb2","ios":"levelo://app?vid=117ebb32-de20-4083-a87c-3c910d7c9eb2"},"vehicle_type_id":"4","last_reported":1761304157,"current_range_meters":22400,"station_id":"ce4bhqh2rcd13ifvqhmg","pricing_plan_id":"cebpf4jnsgd1na2vs0mg"},{"bike_id":"a6c1a674-7746-4f2b-bfdf-0ab497e36b91","system_id":"levelo_inurba_marseille","lat":43.23175,"lon":5.39979,"is_reserved":false,"is_disabled":false,"rental_uris":{"android":"levelo://app?vid=a6c1a674-7746-4f2b-bfdf-0ab497e36b91","ios":"levelo://app?vid=a6c1a674-7746-4f2b-bfdf-0ab497e36b91"},"vehicle_type_id":"4","last_reported":1761304157,"current_range_meters":22400,"station_id":"ce4bhn12rcd13ifvqgqg","pricing_plan_id":"cebpf4jnsgd1na2vs0mg"},{"bike_id":"c0b81f28-bbba-4247-a74b-c55a34b31846","system_id":"levelo_inurba_marseille","lat":43.33258,"lon":5.41086,"is_reserved":false,"is_disabled":false,"rental_uris":{"android":"levelo://app?vid=c0b81f28-bbba-4247-a74b-c55a34b31846","ios":"levelo://app?vid=c0b81f28-bbba-4247-a74b-c55a34b31846"},"vehicle_type_id":"4","last_reported":1761304157,"current_range_meters":22800,"station_id":"","pricing_plan_id":"cebpf4jnsgd1na2vs0mg"},{"bike_id":"f3817190-10b1-4cd7-98d8-77cc6966185e","system_id":"levelo_inurba_marseille","lat":43.23053,"lon":5.35468,"is_reserved":false,"is_disabled":false,"rental_uris":{"android":"levelo://app?vid=f3817190-10b1-4cd7-98d8-77cc6966185e","ios":"levelo://app?vid=f3817190-10b1-4cd7-98d8-77cc6966185e"},"vehicle_type_id":"4","last_reported":1761304157,"current_range_meters":22800,"station_id":"cpo3342slgdg3j2ifvpg","pricing_plan_id":"cebpf4jnsgd1na2vs0mg"},{"bike_id":"a420fe42-d929-4f02-8db6-f1518becc2c4","system_id":"levelo_inurba_marseille","lat":43.23187,"lon":5.35558,"is_reserved":false,"is_disabled":false,"rental_uris":{"android":"levelo://app?vid=a420fe42-d929-4f02-8db6-f1518becc2c4","ios":"levelo://app?vid=a420fe42-d929-4f02-8db6-f1518becc2c4"},"vehicle_type_id":"4","last_reported":1761304157,"current_range_meters":22800,"station_id":"ce4bhu92rcd13ifvqi70","pricing_plan_id":"cebpf4jnsgd1na2vs0mg"},{"bike_id":"7844ae01-a92b-4fce-a043-385d20847277","system_id":"levelo_inurba_marseille","lat":43.28344,"lon":5.38092,"is_reserved":false,"is_disabled":false,"rental_uris":{"android":"levelo://app?vid=7844ae01-a92b-4fce-a043-385d20847277","ios":"levelo://app?vid=7844ae01-a92b-4fce-a043-385d20847277"},"vehicle_type_id":"4","last_reported":1761304157,"current_range_meters":22800,"station_id":"ce4bh412rcd13ifvqdr0","pricing_plan_id":"cebpf4jnsgd1na2vs0mg"},{"bike_id":"a3eee975-2607-46e5-8ac8-fbaa894255d1","system_id":"levelo_inurba_marseille","lat":43.231974,"lon":5.355449,"is_reserved":false,"is_disabled":false,"rental_uris":{"android":"levelo://app?vid=a3eee975-2607-46e5-8ac8-fbaa894255d1","ios":"levelo://app?vid=a3eee975-2607-46e5-8ac8-fbaa894255d1"},"vehicle_type_id":"4","last_reported":1761304157,"current_range_meters":22800,"station_id":"ce4bhu92rcd13ifvqi70","pricing_plan_id":"cebpf4jnsgd1na2vs0mg"},{"bike_id":"8b568fab-e273-49f6-bdca-e47680ec431f","system_id":"levelo_inurba_marseille","lat":43.337673,"lon":5.374312,"is_reserved":false,"is_disabled":false,"rental_uris":{"android":"levelo://app?vid=8b568fab-e273-49f6-bdca-e47680ec431f","ios":"levelo://app?vid=8b568fab-e273-49f6-bdca-e47680ec431f"},"vehicle_type_id":"4","last_reported":1761304157,"current_range_meters":23200,"station_id":"","pricing_plan_id":"cebpf4jnsgd1na2vs0mg"},{"bike_id":"0cef377d-7fdd-4696-81d9-5ecd711659d4","system_id":"levelo_inurba_marseille","lat":43.30247,"lon":5.400477,"is_reserved":false,"is_disabled":false,"rental_uris":{"android":"levelo://app?vid=0cef377d-7fdd-4696-81d9-5ecd711659d4","ios":"levelo://app?vid=0cef377d-7fdd-4696-81d9-5ecd711659d4"},"vehicle_type_id":"4","last_reported":1761304157,"current_range_meters":23200,"station_id":"ce4bgvh2rcd13ifvqcs0","pricing_plan_id":"cebpf4jnsgd1na2vs0mg"},{"bike_id":"2a2aff09-cef7-4571-b519-d6732b8b5969","system_id":"levelo_inurba_marseille","lat":43.2958,"lon":5.36747,"is_reserved":false,"is_disabled":false,"rental_uris":{"android":"levelo://app?vid=2a2aff09-cef7-4571-b519-d6732b8b5969","ios":"levelo://app?vid=2a2aff09-cef7-4571-b519-d6732b8b5969"},"vehicle_type_id":"4","last_reported":1761304157,"current_range_meters":23200,"station_id":"ce4bgph2rcd13ifvqc2g","pricing_plan_id":"cebpf4jnsgd1na2vs0mg"},{"bike_id":"a92c7415-09fe-4e7c-bae5-c755f5ae93d7","system_id":"levelo_inurba_marseille","lat":43.307415,"lon":5.424415,"is_reserved":false,"is_disabled":false,"rental_uris":{"android":"levelo://app?vid=a92c7415-09fe-4e7c-bae5-c755f5ae93d7","ios":"levelo://app?vid=a92c7415-09fe-4e7c-bae5-c755f5ae93d7"},"vehicle_type_id":"4","last_reported":1761304157,"current_range_meters":23200,"station_id":"st_cvj6ca6bvosntc0bfgr0","pricing_plan_id":"cebpf4jnsgd1na2vs0mg"},{"bike_id":"294a3f34-361b-4c46-9333-ce2708bba8b2","system_id":"levelo_inurba_marseille","lat":43.31705,"lon":5.36936,"is_reserved":false,"is_disabled":false,"rental_uris":{"android":"levelo://app?vid=294a3f34-361b-4c46-9333-ce2708bba8b2","ios":"levelo://app?vid=294a3f34-361b-4c46-9333-ce2708bba8b2"},"vehicle_type_id":"4","last_reported":1761304157,"current_range_meters":23200,"station_id":"","pricing_plan_id":"cebpf4jnsgd1na2vs0mg"},{"bike_id":"58ec3577-fc60-428d-8980-e5e5f2effc88","system_id":"levelo_inurba_marseille","lat":43.30612,"lon":5.37206,"is_reserved":false,"is_disabled":false,"rental_uris":{"android":"levelo://app?vid=58ec3577-fc60-428d-8980-e5e5f2effc88","ios":"levelo://app?vid=58ec3577-fc60-428d-8980-e5e5f2effc88"},"vehicle_type_id":"4","last_reported":1761304157,"current_range_meters":23200,"station_id":"ce4bgqh2rcd13ifvqc4g","pricing_plan_id":"cebpf4jnsgd1na2vs0mg"},