{"last_updated":1737648693,"ttl":60,"version":"2.2","data":{"bikes":[{"bike_id":"ec0ece1b-cffe-4b93-a600-434ba50156da","system_id":"levelo_inurba_marseille","lat":43.23196,"lon":5.39998,"is_reserved":false,"is_disabled":false,"rental_uris":{"android":"levelo://app?vid=ec0ece1b-cffe-4b93-a600-434ba50156da","ios":"levelo://app?vid=ec0ece1b-cffe-4b93-a600-434ba50156da"},"vehicle_type_id":"4","last_reported":1737648693,"current_range_meters":17200,"station_id":"ce4bhn12rcd13ifvqgqg","pricing_plan_id":"cebpf4jnsgd1na2vs0mg"},{"bike_id":"d623b4b3-be07-4eff-97e9-6eae49ffd7a3","system_id":"levelo_inurba_marseille","lat":43.31116,"lon":5.37764,"is_reserved":false,"is_disabled":false,"rental_uris":{"android":"levelo://app?vid=d623b4b3-be07-4eff-97e9-6eae49ffd7a3","ios":"levelo://app?vid=d623b4b3-be07-4eff-97e9-6eae49ffd7a3"},"vehicle_type_id":"4","last_reported":1737648693,"current_range_meters":22800,"station_id":"ce4bgt92rcd13ifvqcg0","pricing_plan_id":"cebpf4jnsgd1na2vs0mg"},{"bike_id":"f5703541-2189-419c-ba33-5daae8e34713","system_id":"levelo_inurba_marseille","lat":43.28937,"lon":5.36637,"is_reserved":false,"is_disabled":false,"rental_uris":{"android":"levelo://app?vid=f5703541-2189-419c-ba33-5daae8e34713","ios":"levelo://app?vid=f5703541-2189-419c-ba33-5daae8e34713"},"vehicle_type_id":"4","last_reported":1737648693,"current_range_meters":39200,"station_id":"ce4bhap2rcd13ifvqek0","pricing_plan_id":"cebpf4jnsgd1na2vs0mg"},{"bike_id":"dcf4555a-aebc-4561-8ac8-3e8a57d63da1","system_id":"levelo_inurba_marseille","lat":43.29588,"lon":5.3674,"is_reserved":false,"is_disabled":false,"rental_uris":{"android":"levelo://app?vid=dcf4555a-aebc-4561-8ac8-3e8a57d63da1","ios":"levelo://app?vid=dcf4555a-aebc-4561-8ac8-3e8a57d63da1"},"vehicle_type_id":"4","last_reported":1737648693,"current_range_meters":38800,"station_id":"ce4bgph2rcd13ifvqc2g","pricing_plan_id":"cebpf4jnsgd1na2vs0mg"},{"bike_id":"0e50f88c-8e8f-4129-b303-76c074a2266c","system_id":"levelo_inurba_marseille","lat":43.29446,"lon":5.39741,"is_reserved":false,"is_disabled":false,"rental_uris":{"android":"levelo://app?vid=0e50f88c-8e8f-4129-b303-76c074a2266c","ios":"levelo://app?vid=0e50f88c-8e8f-4129-b303-76c074a2266c"},"vehicle_type_id":"4","last_reported":1737648693,"current_range_meters":33200,"station_id":"ce4bh3h2rcd13ifvqdo0","pricing_plan_id":"cebpf4jnsgd1na2vs0mg"},{"bike_id":"b5cb07e6-6ffd-4db4-8954-0084503b2aef","system_id":"levelo_inurba_marseille","lat":43.33041,"lon":5.3903,"is_reserved":false,"is_disabled":false,"rental_uris":{"android":"levelo://app?vid=b5cb07e6-6ffd-4db4-8954-0084503b2aef","ios":"levelo://app?vid=b5cb07e6-6ffd-4db4-8954-0084503b2aef"},"vehicle_type_id":"4","last_reported":1737648693,"current_range_meters":38800,"station_id":"ce4bhr92rcd13ifvqhrg","pricing_plan_id":"cebpf4jnsgd1na2vs0mg"},{"bike_id":"ce2b86ec-5c6e-436b-bbf1-eb1b6c761903","system_id":"levelo_inurba_marseille","lat":43.27664,"lon":5.38917,"is_reserved":false,"is_disabled":false,"rental_uris":{"android":"levelo://app?vid=ce2b86ec-5c6e-436b-bbf1-eb1b6c761903","ios":"levelo://app?vid=ce2b86ec-5c6e-436b-bbf1-eb1b6c761903"},"vehicle_type_id":"4","last_reported":1737648693,"current_range_meters":36400,"station_id":"ce4bhi12rcd13ifvqfo0","pricing_plan_id":"cebpf4jnsgd1na2vs0mg"},{"bike_id":"ec016e4b-1100-4b80-a9e8-7ce8bce9aee4","system_id":"levelo_inurba_marseille","lat":43.27996,"lon":5.40016,"is_reserved":false,"is_disabled":false,"rental_uris":{"android":"levelo://app?vid=ec016e4b-1100-4b80-a9e8-7ce8bce9aee4","ios":"levelo://app?vid=ec016e4b-1100-4b80-a9e8-7ce8bce9aee4"},"vehicle_type_id":"4","last_reported":1737648693,"current_range_meters":22400,"station_id":"ce4bho92rcd13ifvqh4g","pricing_plan_id":"cebpf4jnsgd1na2vs0mg"},{"bike_id":"83143b1b-7e85-496b-bb21-4262ab02e8e6","system_id":"levelo_inurba_marseille","lat":43.28419,"lon":5.39201,"is_reserved":false,"is_disabled":false,"rental_uris":{"android":"levelo://app?vid=83143b1b-7e85-496b-bb21-4262ab02e8e6","ios":"levelo://app?vid=83143b1b-7e85-496b-bb21-4262ab02e8e6"},"vehicle_type_id":"4","last_reported":1737648693,"current_range_meters":24400,"station_id":"ce4bhoh2rcd13ifvqh5g","pricing_plan_id":"cebpf4jnsgd1na2vs0mg"},{"bike_id":"90ef6c1c-7716-486b-815b-e3296621e8a4","system_id":"levelo_inurba_marseille","lat":43.27915,"lon":5.39566,"is_reserved":false,"is_disabled":true,"rental_uris":{"android":"levelo://app?vid=90ef6c1c-7716-486b-815b-e3296621e8a4","ios":"levelo://app?vid=90ef6c1c-7716-486b-815b-e3296621e8a4"},"vehicle_type_id":"4","last_reported":1737648693,"current_range_meters":0,"station_id":"ce4bhf92rcd13ifvqf40","pricing_plan_id":"cebpf4jnsgd1na2vs0mg"},{"bike_id":"bdf30182-09ec-4529-b5d0-e9ae0c11d3e7","system_id":"levelo_inurba_marseille","lat":43.30255,"lon":5.40099,"is_reserved":false,"is_disabled":false,"rental_uris":{"android":"levelo://app?vid=bdf30182-09ec-4529-b5d0-e9ae0c11d3e7","ios":"levelo://app?vid=bdf30182-09ec-4529-b5d0-e9ae0c11d3e7"},"vehicle_type_id":"4","last_reported":1737648693,"current_range_meters":14000,"station_id":"ce4bgvh2rcd13ifvqcs0","pricing_plan_id":"cebpf4jnsgd1na2vs0mg"},{"bike_id":"1a0e3d8f-f1ed-4364-8447-00c69d0c1af0","system_id":"levelo_inurba_marseille","lat":43.28259,"lon":5.35079,"is_reserved":false,"is_disabled":false,"rental_uris":{"android":"levelo://app?vid=1a0e3d8f-f1ed-4364-8447-00c69d0c1af0","ios":"levelo://app?vid=1a0e3d8f-f1ed-4364-8447-00c69d0c1af0"},"vehicle_type_id":"4","last_reported":1737648693,"current_range_meters":9200,"station_id":"ce4bhbp2rcd13ifvqerg","pricing_plan_id":"cebpf4jnsgd1na2vs0mg"},{"bike_id":"79be800d-0d3f-4209-b899-a90dbe70a062","system_id":"levelo_inurba_marseille","lat":43.27616,"lon":5.36118,"is_reserved":false,"is_disabled":false,"rental_uris":{"android":"levelo://app?vid=79be800d-0d3f-4209-b899-a90dbe70a062","ios":"levelo://app?vid=79be800d-0d3f-4209-b899-a90dbe70a062"},"vehicle_type_id":"4","last_reported":1737648693,"current_range_meters":30400,"station_id":"ce4bgj92rcd13ifvqbe0","pricing_plan_id":"cebpf4jnsgd1na2vs0mg"},{"bike_id":"e8222557-ce9b-48a2-97b3-2313ba7f827f","system_id":"levelo_inurba_marseille","lat":43.29887,"lon":5.389,"is_reserved":false,"is_disabled":false,"rental_uris":{"android":"levelo://app?vid=e8222557-ce9b-48a2-97b3-2313ba7f827f","ios":"levelo://app?vid=e8222557-ce9b-48a2-97b3-2313ba7f827f"},"vehicle_type_id":"4","last_reported":1737648693,"current_range_meters":18800,"station_id":"ce4bh392rcd13ifvqdl0","pricing_plan_id":"cebpf4jnsgd1na2vs0mg"},{"bike_id":"4b99948f-ea48-4383-875e-b58ed823d600","system_id":"levelo_inurba_marseille","lat":43.30568,"lon":5.36676,"is_reserved":false,"is_disabled":false,"rental_uris":{"android":"levelo://app?vid=4b99948f-ea48-4383-875e-b58ed823d600","ios":"levelo://app?vid=4b99948f-ea48-4383-875e-b58ed823d600"},"vehicle_type_id":"4","last_reported":1737648693,"current_range_meters":39200,"station_id":"ce4bgrp2rcd13ifvqc9g","pricing_plan_id":"cebpf4jnsgd1na2vs0mg"},{"bike_id":"f7e068d9-be8a-4e26-8d37-7ec03de6c74a","system_id":"levelo_inurba_marseille","lat":43.29308,"lon":5.37156,"is_reserved":false,"is_disabled":false,"rental_uris":{"android":"levelo://app?vid=f7e068d9-be8a-4e26-8d37-7ec03de6c74a","ios":"levelo://app?vid=f7e068d9-be8a-4e26-8d37-7ec03de6c74a"},"vehicle_type_id":"4","last_reported":1737648693,"current_range_meters":13600,"station_id":"ce4bgh92rcd13ifvqb40","pricing_plan_id":"cebpf4jnsgd1na2vs0mg"},{"bike_id":"9429aa8c-6897-46ab-a7ef-94ed3d972cdd","system_id":"levelo_inurba_marseille","lat":43.28107,"lon":5.37848,"is_reserved":false,"is_disabled":false,"rental_uris":{"android":"levelo://app?vid=9429aa8c-6897-46ab-a7ef-94ed3d972cdd","ios":"levelo://app?vid=9429aa8c-6897-46ab-a7ef-94ed3d972cdd"},"vehicle_type_id":"4","last_reported":1737648693,"current_range_meters":25200,"station_id":"ce4bha12rcd13ifvqee0","pricing_plan_id":"cebpf4jnsgd1na2vs0mg"},{"bike_id":"e38da209-d8d9-4680-be99-11d1954272ef","system_id":"levelo_inurba_marseille","lat":43.262001,"lon":5.379225,"is_reserved":false,"is_disabled":false,"rental_uris":{"android":"levelo://app?vid=e38da209-d8d9-4680-be99-11d1954272ef","ios":"levelo://app?vid=e38da209-d8d9-4680-be99-11d1954272ef"},"vehicle_type_id":"4","last_reported":1737648693,"current_range_meters":38800,"station_id":"ce4bhjp2rcd13ifvqg90","pricing_plan_id":"cebpf4jnsgd1na2vs0mg"},{"bike_id":"cefc7761-5704-4e2f-9c21-5d8755a0f7c5","system_id":"levelo_inurba_marseille","lat":43.29307,"lon":5.37173,"is_reserved":false,"is_disabled":false,"rental_uris":{"android":"levelo://app?vid=cefc7761-5704-4e2f-9c21-5d8755a0f7c5","ios":"levelo://app?vid=cefc7761-5704-4e2f-9c21-5d8755a0f7c5"},"vehicle_type_id":"4","last_reported":1737648693,"current_range_meters":28400,"station_id":"ce4bgh92rcd13ifvqb40","pricing_plan_id":"cebpf4jnsgd1na2vs0mg"},{"bike_id":"99d9bb6f-70da-4770-938d-78f29943a189","system_id":"levelo_inurba_marseille","lat":43.27429,"lon":5.39426,"is_reserved":false,"is_disabled":false,"rental_uris":{"android":"levelo://app?vid=99d9bb6f-70da-4770-938d-78f29943a189","ios":"levelo://app?vid=99d9bb6f-70da-4770-938d-78f29943a189"},"vehicle_type_id":"4","last_reported":1737648693,"current_range_meters":26000,"station_id":"ce4bhdp2rcd13ifvqf20","pricing_plan_id":"cebpf4jnsgd1na2vs0mg"},{"bike_id":"53122257-0eb1-4af9-962c-7e284d94dad8","system_id":"levelo_inurba_marseille","lat":43.29905,"lon":5.38143,"is_reserved":false,"is_disabled":false,"rental_uris":{"android":"levelo://app?vid=53122257-0eb1-4af9-962c-7e284d94dad8","ios":"levelo://app?vid=53122257-0eb1-4af9-962c-7e284d94dad8"},"vehicle_type_id":"4","last_reported":1737648693,"current_range_meters":10800,"station_id":"ce4bgj12rcd13ifvqbc0","pricing_plan_id":"cebpf4jnsgd1na2vs0mg"},{"bike_id":"8af8c407-bf84-4091-99cf-74f62278e1fc","system_id":"levelo_inurba_marseille","lat":43.27009,"lon":5.39275,"is_reserved":false,"is_disabled":false,"rental_uris":{"android":"levelo://app?vid=8af8c407-bf84-4091-99cf-74f62278e1fc","ios":"levelo://app?vid=8af8c407-bf84-4091-99cf-74f62278e1fc"},"vehicle_type_id":"4","last_reported":1737648693,"current_range_meters":30000,"station_id":"","pricing_plan_id":"cebpf4jnsgd1na2vs0mg"},{"bike_id":"553e4976-b27f-47dc-8e32-f79d8de69447","system_id":"levelo_inurba_marseille","lat":43.29,"lon":5.35618,"is_reserved":false,"is_disabled":false,"rental_uris":{"android":"levelo://app?vid=553e4976-b27f-47dc-8e32-f79d8de69447","ios":"levelo://app?vid=553e4976-b27f-47dc-8e32-f79d8de69447"},"vehicle_type_id":"4","last_reported":1737648693,"current_range_meters":38800,"station_id":"ce4bhb92rcd13ifvqen0","pricing_plan_id":"cebpf4jnsgd1na2vs0mg"},{"bike_id":"aaca1319-39bb-45ec-82d4-cb4d2916fda2","system_id":"levelo_inurba_marseille","lat":43.28428,"lon":5.34982,"is_reserved":false,"is_disabled":false,"rental_uris":{"android":"levelo://app?vid=aaca1319-39bb-45ec-82d4-cb4d2916fda2","ios":"levelo://app?vid=aaca1319-39bb-45ec-82d4-cb4d2916fda2"},"vehicle_type_id":"4","last_reported":1737648693,"current_range_meters":6400,"station_id":"ce4bhbh2rcd13ifvqepg","pricing_plan_id":"cebpf4jnsgd1na2vs0mg"},{"bike_id":"c0d87deb-3034-4283-85a4-3460960a8a8a","system_id":"levelo_inurba_marseille","lat":43.30425,"lon":5.41293,"is_reserved":false,"is_disabled":false,"rental_uris":{"android":"levelo://app?vid=c0d87deb-3034-4283-85a4-3460960a8a8a","ios":"levelo://app?vid=c0d87deb-3034-4283-85a4-3460960a8a8a"},"vehicle_type_id":"4","last_reported":1737648693,"current_range_meters":8800,"station_id":"ce4bhop2rcd13ifvqh8g","pricing_plan_id":"cebpf4jnsgd1na2vs0mg"},{"bike_id":"159f9a9d-60ed-4b8f-90f2-23c1bf57b24d","system_id":"levelo_inurba_marseille","lat":43.28275,"lon":5.35081,"is_reserved":false,"is_disabled":false,"rental_uris":{"android":"levelo://app?vid=159f9a9d-60ed-4b8f-90f2-23c1bf57b24d","ios":"levelo://app?vid=159f9a9d-60ed-4b8f-90f2-23c1bf57b24d"},"vehicle_type_id":"4","last_reported":1737648693,"current_range_meters":30000,"station_id":"ce4bhbp2rcd13ifvqerg","pricing_plan_id":"cebpf4jnsgd1na2vs0mg"},{"bike_id":"934b3c93-273f-4fbb-a489-e01503d5e9d5","system_id":"levelo_inurba_marseille","lat":43.29789,"lon":5.38097,"is_reserved":false,"is_disabled":false,"rental_uris":{"android":"levelo://app?vid=934b3c93-273f-4fbb-a489-e01503d5e9d5","ios":"levelo://app?vid=934b3c93-273f-4fbb-a489-e01503d5e9d5"},"vehicle_type_id":"4","last_reported":1737648693,"current_range_meters":23200,"station_id":"ce4bgip2rcd13ifvqbb0","pricing_plan_id":"cebpf4jnsgd1na2vs0mg"},{"bike_id":"6a9d422f-1c7b-4d6b-bedd-517e71e15fe5","system_id":"levelo_inurba_marseille","lat":43.29798,"lon":5.38081,"is_reserved":false,"is_disabled":false,"rental_uris":{"android":"levelo://app?vid=6a9d422f-1c7b-4d6b-bedd-517e71e15fe5","ios":"levelo://app?vid=6a9d422f-1c7b-4d6b-bedd-517e71e15fe5"},"vehicle_type_id":"4","last_reported":1737648693,"current_range_meters":16000,"station_id":"ce4bgip2rcd13ifvqbb0","pricing_plan_id":"cebpf4jnsgd1na2vs0mg"},{"bike_id":"b6917ed1-8eaf-41df-a2b9-bec381c3c412","system_id":"levelo_inurba_marseille","lat":43.30858,"lon":5.37184,"is_reserved":false,"is_disabled":true,"rental_uris":{"android":"levelo://app?vid=b6917ed1-8eaf-41df-a2b9-bec381c3c412","ios":"levelo://app?vid=b6917ed1-8eaf-41df-a2b9-bec381c3c412"},"vehicle_type_id":"4","last_reported":1737648693,"current_range_meters":0,"station_id":"","pricing_plan_id":"cebpf4jnsgd1na2vs0mg"},{"bike_id":"dec31f37-4218-40d0-a15b-0fef56fa9f65","system_id":"levelo_inurba_marseille","lat":43.28409,"lon":5.37527,"is_reserved":false,"is_disabled":false,"rental_uris":{"android":"levelo://app?vid=dec31f37-4218-40d0-a15b-0fef56fa9f65","ios":"levelo://app?vid=dec31f37-4218-40d0-a15b-0fef56fa9f65"},"vehicle_type_id":"4","last_reported":1737648693,"current_range_meters":9200,"station_id":"ce4bh412rcd13ifvqds0","pricing_plan_id":"cebpf4jnsgd1na2vs0mg"},{"bike_id":"0672c778-6d96-43cb-9618-48f187d64dea","system_id":"levelo_inurba_marseille","lat":43.25576,"lon":5.38242,"is_reserved":false,"is_disabled":false,"rental_uris":{"android":"levelo://app?vid=0672c778-6d96-43cb-9618-48f187d64dea","ios":"levelo://app?vid=0672c778-6d96-43cb-9618-48f187d64dea"},"vehicle_type_id":"4","last_reported":1737648693,"current_range_meters":7200,"station_id":"ce4bhih2rcd13ifvqfs0","pricing_plan_id":"cebpf4jnsgd1na2vs0mg"},{"bike_id":"b7c1b669-81b3-4492-91f7-f1e7410caa45","system_id":"levelo_inurba_marseille","lat":43.32352,"lon":5.36738,"is_reserved":false,"is_disabled":false,"rental_uris":{"android":"levelo://app?vid=b7c1b669-81b3-4492-91f7-f1e7410caa45","ios":"levelo://app?vid=b7c1b669-81b3-4492-91f7-f1e7410caa45"},"vehicle_type_id":"4","last_reported":1737648693,"current_range_meters":30800,"station_id":"ce4bhsh2rcd13ifvqi2g","pricing_plan_id":"cebpf4jnsgd1na2vs0mg"},{"bike_id":"9891fa34-e281-4171-b18f-1181b9c06c10","system_id":"levelo_inurba_marseille","lat":43.29528,"lon":5.39402,"is_reserved":false,"is_disabled":false,"rental_uris":{"android":"levelo://app?vid=9891fa34-e281-4171-b18f-1181b9c06c10","ios":"levelo://app?vid=9891fa34-e281-4171-b18f-1181b9c06c10"},"vehicle_type_id":"4","last_reported":1737648693,"current_range_meters":38000,"station_id":"ce4bh292rcd13ifvqdf0","pricing_plan_id":"cebpf4jnsgd1na2vs0mg"},{"bike_id":"f80a255a-148d-4bab-884c-6ff12c98002a","system_id":"levelo_inurba_marseille","lat":43.29698,"lon":5.37689,"is_reserved":false,"is_disabled":false,"rental_uris":{"android":"levelo://app?vid=f80a255a-148d-4bab-884c-6ff12c98002a","ios":"levelo://app?vid=f80a255a-148d-4bab-884c-6ff12c98002a"},"vehicle_type_id":"4","last_reported":1737648693,"current_range_meters":24400,"station_id":"ce4bgkh2rcd13ifvqbl0","pricing_plan_id":"cebpf4jnsgd1na2vs0mg"},{"bike_id":"3b2614b7-8dc1-4810-b4d0-f47a2ab7ce15","system_id":"levelo_inurba_marseille","lat":43.23184,"lon":5.3999,"is_reserved":false,"is_disabled":false,"rental_uris":{"android":"levelo://app?vid=3b2614b7-8dc1-4810-b4d0-f47a2ab7ce15","ios":"levelo://app?vid=3b2614b7-8dc1-4810-b4d0-f47a2ab7ce15"},"vehicle_type_id":"4","last_reported":1737648693,"current_range_meters":4400,"station_id":"ce4bhn12rcd13ifvqgqg","pricing_plan_id":"cebpf4jnsgd1na2vs0mg"},{"bike_id":"bbdfc660-e997-4a11-9591-bbb56c89be46","system_id":"levelo_inurba_marseille","lat":43.32992,"lon":5.39045,"is_reserved":false,"is_disabled":false,"rental_uris":{"android":"levelo://app?vid=bbdfc660-e997-4a11-9591-bbb56c89be46","ios":"levelo://app?vid=bbdfc660-e997-4a11-9591-bbb56c89be46"},"vehicle_type_id":"4","last_reported":1737648693,"current_range_meters":38400,"station_id":"ce4bhr92rcd13ifvqhrg","pricing_plan_id":"cebpf4jnsgd1na2vs0mg"},{"bike_id":"5e75dd30-ab3b-44d3-8dcb-cb5fd4a0eb65","system_id":"levelo_inurba_marseille","lat":43.24639,"lon":5.38898,"is_reserved":false,"is_disabled":false,"rental_uris":{"android":"levelo://app?vid=5e75dd30-ab3b-44d3-8dcb-cb5fd4a0eb65","ios":"levelo://app?vid=5e75dd30-ab3b-44d3-8dcb-cb5fd4a0eb65"},"vehicle_type_id":"4","last_reported":1737648693,"current_range_meters":37600,"station_id":"ce4bhg12rcd13ifvqf60","pricing_plan_id":"cebpf4jnsgd1na2vs0mg"},{"bike_id":"d12a6117-9192-43dc-9e5b-71e32bbabcda","system_id":"levelo_inurba_marseille","lat":43.260286,"lon":5.375519,"is_reserved":false,"is_disabled":false,"rental_uris":{"android":"levelo://app?vid=d12a6117-9192-43dc-9e5b-71e32bbabcda","ios":"levelo://app?vid=d12a6117-9192-43dc-9e5b-71e32bbabcda"},"vehicle_type_id":"4","last_reported":1737648693,"current_range_meters":38400,"station_id":"ce4bhgh2rcd13ifvqfa0","pricing_plan_id":"cebpf4jnsgd1na2vs0mg"},{"bike_id":"6c2e2f41-9c52-4308-86ab-09129b1176ab","system_id":"levelo_inurba_marseille","lat":43.30535,"lon":5.3655,"is_reserved":false,"is_disabled":false,"rental_uris":{"android":"levelo://app?vid=6c2e2f41-9c52-4308-86ab-09129b1176ab","ios":"levelo://app?vid=6c2e2f41-9c52-4308-86ab-09129b1176ab"},"vehicle_type_id":"4","last_reported":1737648693,"current_range_meters":32000,"station_id":"ce4bgs12rcd13ifvqcag","pricing_plan_id":"cebpf4jnsgd1na2vs0mg"},{"bike_id":"f13d75e9-f2bb-4098-9738-098178395895","system_id":"levelo_inurba_marseille","lat":43.31223,"lon":5.36861,"is_reserved":false,"is_disabled":false,"rental_uris":{"android":"levelo://app?vid=f13d75e9-f2bb-4098-9738-098178395895","ios":"levelo://app?vid=f13d75e9-f2bb-4098-9738-098178395895"},"vehicle_type_id":"4","last_reported":1737648693,"current_range_meters":16000,"station_id":"ce4bgl92rcd13ifvqbq0","pricing_plan_id":"cebpf4jnsgd1na2vs0mg"},{"bike_id":"6db5c8d5-2d5d-4344-a3f9-0d2bd6426c01","system_id":"levelo_inurba_marseille","lat":43.305476,"lon":5.365554,"is_reserved":false,"is_disabled":false,"rental_uris":{"android":"levelo://app?vid=6db5c8d5-2d5d-4344-a3f9-0d2bd6426c01","ios":"levelo://app?vid=6db5c8d5-2d5d-4344-a3f9-0d2bd6426c01"},"vehicle_type_id":"4","last_reported":1737648693,"current_range_meters":27200,"station_id":"ce4bgs12rcd13ifvqcag","pricing_plan_id":"cebpf4jnsgd1na2vs0mg"},{"bike_id":"9838cc78-2b53-49d3-ae13-82df62c4fd64","system_id":"levelo_inurba_marseille","lat":43.28436,"lon":5.40935,"is_reserved":false,"is_disabled":false,"rental_uris":{"android":"levelo://app?vid=9838cc78-2b53-49d3-ae13-82df62c4fd64","ios":"levelo://app?vid=9838cc78-2b53-49d3-ae13-82df62c4fd64"},"vehicle_type_id":"4","last_reported":1737648693,"current_range_meters":6000,"station_id":"","pricing_plan_id":"cebpf4jnsgd1na2vs0mg"},{"bike_id":"06b63ec2-5358-4dce-bf72-f77c9ccccb40","system_id":"levelo_inurba_marseille","lat":43.30545,"lon":5.36548,"is_reserved":false,"is_disabled":false,"rental_uris":{"android":"levelo://app?vid=06b63ec2-5358-4dce-bf72-f77c9ccccb40","ios":"levelo://app?vid=06b63ec2-5358-4dce-bf72-f77c9ccccb40"},"vehicle_type_id":"4","last_reported":1737648693,"current_range_meters":32000,"station_id":"ce4bgs12rcd13ifvqcag","pricing_plan_id":"cebpf4jnsgd1na2vs0mg"},{"bike_id":"d9d67e50-ff60-4024-bb97-06b4cc192a7e","system_id":"levelo_inurba_marseille","lat":43.30248,"lon":5.37452,"is_reserved":false,"is_disabled":true,"rental_uris":{"android":"levelo://app?vid=d9d67e50-ff60-4024-bb97-06b4cc192a7e","ios":"levelo://app?vid=d9d67e50-ff60-4024-bb97-06b4cc192a7e"},"vehicle_type_id":"4","last_reported":1737648693,"current_range_meters":38800,"station_id":"","pricing_plan_id":"cebpf4jnsgd1na2vs0mg"},{"bike_id":"b28f580b-a878-4a2a-a638-bc1f488703ac","system_id":"levelo_inurba_marseille","lat":43.28358,"lon":5.38107,"is_reserved":false,"is_disabled":false,"rental_uris":{"android":"levelo://app?vid=b28f580b-a878-4a2a-a638-bc1f488703ac","ios":"levelo://app?vid=b28f580b-a878-4a2a-a638-bc1f488703ac"},"vehicle_type_id":"4","last_reported":1737648693,"current_range_meters":21600,"station_id":"ce4bh412rcd13ifvqdr0","pricing_plan_id":"cebpf4jnsgd1na2vs0mg"},{"bike_id":"7d763c98-42ea-4785-9a67-445fecef725e","system_id":"levelo_inurba_marseille","lat":43.28275,"lon":5.35077,"is_reserved":false,"is_disabled":false,"rental_uris":{"android":"levelo://app?vid=7d763c98-42ea-4785-9a67-445fecef725e","ios":"levelo://app?vid=7d763c98-42ea-4785-9a67-445fecef725e"},"vehicle_type_id":"4","last_reported":1737648693,"current_range_meters":38800,"station_id":"ce4bhbp2rcd13ifvqerg","pricing_plan_id":"cebpf4jnsgd1na2vs0mg"},{"bike_id":"bf096a89-ee72-4f37-85bd-7b3cf9f0cb41","system_id":"levelo_inurba_marseille","lat":43.31556,"lon":5.38933,"is_reserved":false,"is_disabled":false,"rental_uris":{"android":"levelo://app?vid=bf096a89-ee72-4f37-85bd-7b3cf9f0cb41","ios":"levelo://app?vid=bf096a89-ee72-4f37-85bd-7b3cf9f0cb41"},"vehicle_type_id":"4","last_reported":1737648693,"current_range_meters":37600,"station_id":"","pricing_plan_id":"cebpf4jnsgd1na2vs0mg"},{"bike_id":"634d56c1-a2c0-4178-97ec-f77ccc52b51c","system_id":"levelo_inurba_marseille","lat":43.23194,"lon":5.39977,"is_reserved":false,"is_disabled":false,"rental_uris":{"android":"levelo://app?vid=634d56c1-a2c0-4178-97ec-f77ccc52b51c","ios":"levelo://app?vid=634d56c1-a2c0-4178-97ec-f77ccc52b51c"},"vehicle_type_id":"4","last_reported":1737648693,"current_range_meters":35600,"station_id":"ce4bhn12rcd13ifvqgqg","pricing_plan_id":"cebpf4jnsgd1na2vs0mg"},{"bike_id":"453049cf-9b62-421e-aca6-df9a4afd0bf0","system_id":"levelo_inurba_marseille","lat":43.28119,"lon":5.37815,"is_reserved":false,"is_disabled":false,"rental_uris":{"android":"levelo://app?vid=453049cf-9b62-421e-aca6-df9a4afd0bf0","ios":"levelo://app?vid=453049cf-9b62-421e-aca6-df9a4afd0bf0"},"vehicle_type_id":"4","last_reported":1737648693,"current_range_meters":11200,"station_id":"ce4bha12rcd13ifvqee0","pricing_plan_id":"cebpf4jnsgd1na2vs0mg"},{"bike_id":"92dc41e3-39f7-4d4d-9bc1-c37481200d58","system_id":"levelo_inurba_marseille","lat":43.27831,"lon":5.39198,"is_reserved":false,"is_disabled":false,"rental_uris":{"android":"levelo://app?vid=92dc41e3-39f7-4d4d-9bc1-c37481200d58","ios":"levelo://app?vid=92dc41e3-39f7-4d4d-9bc1-c37481200d58"},"vehicle_type_id":"4","last_reported":1737648693,"current_range_meters":23200,"station_id":"ce4bhjp2rcd13ifvqga0","pricing_plan_id":"cebpf4jnsgd1na2vs0mg"},{"bike_id":"5ef6ee23-b2ed-4cef-a362-717f0e52aeed","system_id":"levelo_inurba_marseille","lat":43.25091,"lon":5.39501,"is_reserved":false,"is_disabled":false,"rental_uris":{"android":"levelo://app?vid=5ef6ee23-b2ed-4cef-a362-717f0e52aeed","ios":"levelo://app?vid=5ef6ee23-b2ed-4cef-a362-717f0e52aeed"},"vehicle_type_id":"4","last_reported":1737648693,"current_range_meters":16000,"station_id":"ce4bhm12rcd13ifvqgkg","pricing_plan_id":"cebpf4jnsgd1na2vs0mg"},{"bike_id":"68b608b1-4b2e-42e4-afbb-5cdcf5bc15cf","system_id":"levelo_inurba_marseille","lat":43.26687,"lon":5.38267,"is_reserved":false,"is_disabled":false,"rental_uris":{"android":"levelo://app?vid=68b608b1-4b2e-42e4-afbb-5cdcf5bc15cf","ios":"levelo://app?vid=68b608b1-4b2e-42e4-afbb-5cdcf5bc15cf"},"vehicle_type_id":"4","last_reported":1737648693,"current_range_meters":24000,"station_id":"ce4bhg92rcd13ifvqf90","pricing_plan_id":"cebpf4jnsgd1na2vs0mg"},{"bike_id":"48abaa4a-2251-4b1a-985d-736d5322fef9","system_id":"levelo_inurba_marseille","lat":43.26577,"lon":5.37322,"is_reserved":false,"is_disabled":false,"rental_uris":{"android":"levelo://app?vid=48abaa4a-2251-4b1a-985d-736d5322fef9","ios":"levelo://app?vid=48abaa4a-2251-4b1a-985d-736d5322fef9"},"vehicle_type_id":"4","last_reported":1737648693,"current_range_meters":16800,"station_id":"ce4bhg12rcd13ifvqf70","pricing_plan_id":"cebpf4jnsgd1na2vs0mg"},{"bike_id":"266f33ed-1f11-40fe-a296-8639c179d07a","system_id":"levelo_inurba_marseille","lat":43.28423,"lon":5.34979,"is_reserved":false,"is_disabled":false,"rental_uris":{"android":"levelo://app?vid=266f33ed-1f11-40fe-a296-8639c179d07a","ios":"levelo://app?vid=266f33ed-1f11-40fe-a296-8639c179d07a"},"vehicle_type_id":"4","last_reported":1737648693,"current_range_meters":34800,"station_id":"ce4bhbh2rcd13ifvqepg","pricing_plan_id":"cebpf4jnsgd1na2vs0mg"},{"bike_id":"84c32a56-c1fe-4fe4-9ebb-d80284606208","system_id":"levelo_inurba_marseille","lat":43.31686,"lon":5.40466,"is_reserved":false,"is_disabled":false,"rental_uris":{"android":"levelo://app?vid=84c32a56-c1fe-4fe4-9ebb-d80284606208","ios":"levelo://app?vid=84c32a56-c1fe-4fe4-9ebb-d80284606208"},"vehicle_type_id":"4","last_reported":1737648693,"current_range_meters":19200,"station_id":"ce4bh012rcd13ifvqd00","pricing_plan_id":"cebpf4jnsgd1na2vs0mg"},{"bike_id":"536484ed-d967-41c5-8f88-22ed70378acb","system_id":"levelo_inurba_marseille","lat":43.31507,"lon":5.4069,"is_reserved":false,"is_disabled":false,"rental_uris":{"android":"levelo://app?vid=536484ed-d967-41c5-8f88-22ed70378acb","ios":"levelo://app?vid=536484ed-d967-41c5-8f88-22ed70378acb"},"vehicle_type_id":"4","last_reported":1737648693,"current_range_meters":12400,"station_id":"","pricing_plan_id":"cebpf4jnsgd1na2vs0mg"},{"bike_id":"04de6f23-407d-4fcf-b28c-ee2a21a52bbe","system_id":"levelo_inurba_marseille","lat":43.23157,"lon":5.43707,"is_reserved":false,"is_disabled":false,"rental_uris":{"android":"levelo://app?vid=04de6f23-407d-4fcf-b28c-ee2a21a52bbe","ios":"levelo://app?vid=04de6f23-407d-4fcf-b28c-ee2a21a52bbe"},"vehicle_type_id":"4","last_reported":1737648693,"current_range_meters":38400,"station_id":"ce4bhmp2rcd13ifvqgog","pricing_plan_id":"cebpf4jnsgd1na2vs0mg"},{"bike_id":"a48a1d35-3f13-45af-a2ef-e29bf30d3d17","system_id":"levelo_inurba_marseille","lat":43.30803,"lon":5.43525,"is_reserved":false,"is_disabled":false,"rental_uris":{"android":"levelo://app?vid=a48a1d35-3f13-45af-a2ef-e29bf30d3d17","ios":"levelo://app?vid=a48a1d35-3f13-45af-a2ef-e29bf30d3d17"},"vehicle_type_id":"4","last_reported":1737648693,"current_range_meters":7200,"station_id":"ce4bhph2rcd13ifvqheg","pricing_plan_id":"cebpf4jnsgd1na2vs0mg"},{"bike_id":"92856cf5-26af-45d6-9916-934ef8eaa4e6","system_id":"levelo_inurba_marseille","lat":43.28705,"lon":5.39996,"is_reserved":false,"is_disabled":false,"rental_uris":{"android":"levelo://app?vid=92856cf5-26af-45d6-9916-934ef8eaa4e6","ios":"levelo://app?vid=92856cf5-26af-45d6-9916-934ef8eaa4e6"},"vehicle_type_id":"4","last_reported":1737648693,"current_range_meters":32400,"station_id":"ce4bho92rcd13ifvqh3g","pricing_plan_id":"cebpf4jnsgd1na2vs0mg"},{"bike_id":"050bd42b-0fa4-4ea3-8a02-3c1196960ece","system_id":"levelo_inurba_marseille","lat":43.316422,"lon":5.373969,"is_reserved":false,"is_disabled":false,"rental_uris":{"android":"levelo://app?vid=050bd42b-0fa4-4ea3-8a02-3c1196960ece","ios":"levelo://app?vid=050bd42b-0fa4-4ea3-8a02-3c1196960ece"},"vehicle_type_id":"4","last_reported":1737648693,"current_range_meters":27200,"station_id":"","pricing_plan_id":"cebpf4jnsgd1na2vs0mg"},{"bike_id":"3a59db95-3ba3-45d9-9d51-35faeb1e0f2b","system_id":"levelo_inurba_marseille","lat":43.25118,"lon":5.40309,"is_reserved":false,"is_disabled":false,"rental_uris":{"android":"levelo://app?vid=3a59db95-3ba3-45d9-9d51-35faeb1e0f2b","ios":"levelo://app?vid=3a59db95-3ba3-45d9-9d51-35faeb1e0f2b"},"vehicle_type_id":"4","last_reported":1737648693,"current_range_meters":30000,"station_id":"ce4bhlh2rcd13ifvqgig","pricing_plan_id":"cebpf4jnsgd1na2vs0mg"},{"bike_id":"6a2317c6-95bd-45a5-8947-dc218b70af60","system_id":"levelo_inurba_marseille","lat":43.29977,"lon":5.37205,"is_reserved":false,"is_disabled":true,"rental_uris":{"android":"levelo://app?vid=6a2317c6-95bd-45a5-8947-dc218b70af60","ios":"levelo://app?vid=6a2317c6-95bd-45a5-8947-dc218b70af60"},"vehicle_type_id":"4","last_reported":1737648693,"current_range_meters":2000,"station_id":"ce4bgr92rcd13ifvqc7g","pricing_plan_id":"cebpf4jnsgd1na2vs0mg"},{"bike_id":"2f4fa984-4c44-4974-abb6-1d4b539de1f0","system_id":"levelo_inurba_marseille","lat":43.28655,"lon":5.38668,"is_reserved":false,"is_disabled":true,"rental_uris":{"android":"levelo://app?vid=2f4fa984-4c44-4974-abb6-1d4b539de1f0","ios":"levelo://app?vid=2f4fa984-4c44-4974-abb6-1d4b539de1f0"},"vehicle_type_id":"4","last_reported":1737648693,"current_range_meters":36000,"station_id":"ce4bh492rcd13ifvqdug","pricing_plan_id":"cebpf4jnsgd1na2vs0mg"},{"bike_id":"347dd29e-9a9e-4a37-8ddd-6e2050aaff03","system_id":"levelo_inurba_marseille","lat":43.33733,"lon":5.39179,"is_reserved":false,"is_disabled":true,"rental_uris":{"android":"levelo://app?vid=347dd29e-9a9e-4a37-8ddd-6e2050aaff03","ios":"levelo://app?vid=347dd29e-9a9e-4a37-8ddd-6e2050aaff03"},"vehicle_type_id":"4","last_reported":1737648693,"current_range_meters":0,"station_id":"ce4bhr92rcd13ifvqhsg","pricing_plan_id":"cebpf4jnsgd1na2vs0mg"},{"bike_id":"59b67f3c-af3c-4aed-b85e-9ac5e1288252","system_id":"levelo_inurba_marseille","lat":43.28488,"lon":5.38415,"is_reserved":false,"is_disabled":false,"rental_uris":{"android":"levelo://app?vid=59b67f3c-af3c-4aed-b85e-9ac5e1288252","ios":"levelo://app?vid=59b67f3c-af3c-4aed-b85e-9ac5e1288252"},"vehicle_type_id":"4","last_reported":1737648693,"current_range_meters":6000,"station_id":"ce4bh512rcd13ifvqe3g","pricing_plan_id":"cebpf4jnsgd1na2vs0mg"},{"bike_id":"33bdb648-9d21-4884-aef8-a671389b4fbb","system_id":"levelo_inurba_marseille","lat":43.29265,"lon":5.36842,"is_reserved":false,"is_disabled":true,"rental_uris":{"android":"levelo://app?vid=33bdb648-9d21-4884-aef8-a671389b4fbb","ios":"levelo://app?vid=33bdb648-9d21-4884-aef8-a671389b4fbb"},"vehicle_type_id":"4","last_reported":1737648693,"current_range_meters":1200,"station_id":"ce4bhbp2rcd13ifvqesg","pricing_plan_id":"cebpf4jnsgd1na2vs0mg"},{"bike_id":"a37871ad-8d0a-430b-ae53-3e96463d5460","system_id":"levelo_inurba_marseille","lat":43.31184,"lon":5.386825,"is_reserved":false,"is_disabled":false,"rental_uris":{"android":"levelo://app?vid=a37871ad-8d0a-430b-ae53-3e96463d5460","ios":"levelo://app?vid=a37871ad-8d0a-430b-ae53-3e96463d5460"},"vehicle_type_id":"4","last_reported":1737648693,"current_range_meters":17200,"station_id":"ce4bgv12rcd13ifvqcp0","pricing_plan_id":"cebpf4jnsgd1na2vs0mg"},{"bike_id":"f98a7ee0-f9fe-4556-933e-ecf6827038e5","system_id":"levelo_inurba_marseille","lat":43.29182,"lon":5.35727,"is_reserved":false,"is_disabled":false,"rental_uris":{"android":"levelo://app?vid=f98a7ee0-f9fe-4556-933e-ecf6827038e5","ios":"levelo://app?vid=f98a7ee0-f9fe-4556-933e-ecf6827038e5"},"vehicle_type_id":"4","last_reported":1737648693,"current_range_meters":12400,"station_id":"","pricing_plan_id":"cebpf4jnsgd1na2vs0mg"},{"bike_id":"90b8a1b1-ad54-458d-9362-f5197bbdf048","system_id":"levelo_inurba_marseille","lat":43.22949,"lon":5.35368,"is_reserved":false,"is_disabled":false,"rental_uris":{"android":"levelo://app?vid=90b8a1b1-ad54-458d-9362-f5197bbdf048","ios":"levelo://app?vid=90b8a1b1-ad54-458d-9362-f5197bbdf048"},"vehicle_type_id":"4","last_reported":1737648693,"current_range_meters":35200,"station_id":"cpo3532slgdg3j2ikp40","pricing_plan_id":"cebpf4jnsgd1na2vs0mg"},{"bike_id":"6f37b84a-25c9-4d18-8436-644270f8f44e","system_id":"levelo_inurba_marseille","lat":43.27996,"lon":5.41667,"is_reserved":false,"is_disabled":false,"rental_uris":{"android":"levelo://app?vid=6f37b84a-25c9-4d18-8436-644270f8f44e","ios":"levelo://app?vid=6f37b84a-25c9-4d18-8436-644270f8f44e"},"vehicle_type_id":"4","last_reported":1737648693,"current_range_meters":12400,"station_id":"ce4bho12rcd13ifvqh1g","pricing_plan_id":"cebpf4jnsgd1na2vs0mg"},{"bike_id":"656571c3-6c17-4e0d-a9af-c80324863edf","system_id":"levelo_inurba_marseille","lat":43.29183,"lon":5.35813,"is_reserved":false,"is_disabled":false,"rental_uris":{"android":"levelo://app?vid=656571c3-6c17-4e0d-a9af-c80324863edf","ios":"levelo://app?vid=656571c3-6c17-4e0d-a9af-c80324863edf"},"vehicle_type_id":"4","last_reported":1737648693,"current_range_meters":38000,"station_id":"ce4bhb12rcd13ifvqel0","pricing_plan_id":"cebpf4jnsgd1na2vs0mg"},{"bike_id":"62069f6c-3dd9-4b79-9f44-941214b1a57f","system_id":"levelo_inurba_marseille","lat":43.2994,"lon":5.36514,"is_reserved":false,"is_disabled":false,"rental_uris":{"android":"levelo://app?vid=62069f6c-3dd9-4b79-9f44-941214b1a57f","ios":"levelo://app?vid=62069f6c-3dd9-4b79-9f44-941214b1a57f"},"vehicle_type_id":"4","last_reported":1737648693,"current_range_meters":38800,"station_id":"ce4bgm92rcd13ifvqbr0","pricing_plan_id":"cebpf4jnsgd1na2vs0mg"},{"bike_id":"e29265f6-1b6a-471b-875e-759ef0968cb6","system_id":"levelo_inurba_marseille","lat":43.27616,"lon":5.36105,"is_reserved":false,"is_disabled":false,"rental_uris":{"android":"levelo://app?vid=e29265f6-1b6a-471b-875e-759ef0968cb6","ios":"levelo://app?vid=e29265f6-1b6a-471b-875e-759ef0968cb6"},"vehicle_type_id":"4","last_reported":1737648693,"current_range_meters":7200,"station_id":"ce4bgj92rcd13ifvqbe0","pricing_plan_id":"cebpf4jnsgd1na2vs0mg"},{"bike_id":"ce90fea6-ff2a-4d0b-bd4f-45ced0acf4c0","system_id":"levelo_inurba_marseille","lat":43.32367,"lon":5.3677,"is_reserved":false,"is_disabled":false,"rental_uris":{"android":"levelo://app?vid=ce90fea6-ff2a-4d0b-bd4f-45ced0acf4c0","ios":"levelo://app?vid=ce90fea6-ff2a-4d0b-bd4f-45ced0acf4c0"},"vehicle_type_id":"4","last_reported":1737648693,"current_range_meters":10800,"station_id":"ce4bhsh2rcd13ifvqi2g","pricing_plan_id":"cebpf4jnsgd1na2vs0mg"},{"bike_id":"241e0007-ecf7-437a-b532-163bccf9f3dc","system_id":"levelo_inurba_marseille","lat":43.30323,"lon":5.4045,"is_reserved":false,"is_disabled":false,"rental_uris":{"android":"levelo://app?vid=241e0007-ecf7-437a-b532-163bccf9f3dc","ios":"levelo://app?vid=241e0007-ecf7-437a-b532-163bccf9f3dc"},"vehicle_type_id":"4","last_reported":1737648693,"current_range_meters":26000,"station_id":"ce4bh012rcd13ifvqd10","pricing_plan_id":"cebpf4jnsgd1na2vs0mg"},{"bike_id":"ab13439f-1c4b-4b83-ac72-9f4e6d1f64cb","system_id":"levelo_inurba_marseille","lat":43.312443,"lon":5.379705,"is_reserved":false,"is_disabled":true,"rental_uris":{"android":"levelo://app?vid=ab13439f-1c4b-4b83-ac72-9f4e6d1f64cb","ios":"levelo://app?vid=ab13439f-1c4b-4b83-ac72-9f4e6d1f64cb"},"vehicle_type_id":"4","last_reported":1737648693,"current_range_meters":10000,"station_id":"","pricing_plan_id":"cebpf4jnsgd1na2vs0mg"},{"bike_id":"565f8213-9516-47b4-a8af-dc330ce904d6","system_id":"levelo_inurba_marseille","lat":43.30194,"lon":5.40062,"is_reserved":false,"is_disabled":false,"rental_uris":{"android":"levelo://app?vid=565f8213-9516-47b4-a8af-dc330ce904d6","ios":"levelo://app?vid=565f8213-9516-47b4-a8af-dc330ce904d6"},"vehicle_type_id":"4","last_reported":1737648693,"current_range_meters":38800,"station_id":"","pricing_plan_id":"cebpf4jnsgd1na2vs0mg"},{"bike_id":"02394dc5-85af-47df-a8e1-31c154c9e2cc","system_id":"levelo_inurba_marseille","lat":43.231866,"lon":5.399805,"is_reserved":false,"is_disabled":false,"rental_uris":{"android":"levelo://app?vid=02394dc5-85af-47df-a8e1-31c154c9e2cc","ios":"levelo://app?vid=02394dc5-85af-47df-a8e1-31c154c9e2cc"},"vehicle_type_id":"4","last_reported":1737648693,"current_range_meters":38000,"station_id":"ce4bhn12rcd13ifvqgqg","pricing_plan_id":"cebpf4jnsgd1na2vs0mg"},{"bike_id":"d84d300e-72f8-495f-82c2-41dc0fdb64ad","system_id":"levelo_inurba_marseille","lat":43.31489,"lon":5.37306,"is_reserved":false,"is_disabled":false,"rental_uris":{"android":"levelo://app?vid=d84d300e-72f8-495f-82c2-41dc0fdb64ad","ios":"levelo://app?vid=d84d300e-72f8-495f-82c2-41dc0fdb64ad"},"vehicle_type_id":"4","last_reported":1737648693,"current_range_meters":38800,"station_id":"ce4bgt12rcd13ifvqcd0","pricing_plan_id":"cebpf4jnsgd1na2vs0mg"},{"bike_id":"69c47985-dae8-486f-a22e-57ba7614bd83","system_id":"levelo_inurba_marseille","lat":43.29974,"lon":5.41317,"is_reserved":false,"is_disabled":false,"rental_uris":{"android":"levelo://app?vid=69c47985-dae8-486f-a22e-57ba7614bd83","ios":"levelo://app?vid=69c47985-dae8-486f-a22e-57ba7614bd83"},"vehicle_type_id":"4","last_reported":1737648693,"current_range_meters":38800,"station_id":"ce4bhp12rcd13ifvqh9g","pricing_plan_id":"cebpf4jnsgd1na2vs0mg"},{"bike_id":"704b9ac4-08a6-48ef-85ea-bb2a6455baf7","system_id":"levelo_inurba_marseille","lat":43.26203,"lon":5.37929,"is_reserved":false,"is_disabled":false,"rental_uris":{"android":"levelo://app?vid=704b9ac4-08a6-48ef-85ea-bb2a6455baf7","ios":"levelo://app?vid=704b9ac4-08a6-48ef-85ea-bb2a6455baf7"},"vehicle_type_id":"4","last_reported":1737648693,"current_range_meters":38800,"station_id":"ce4bhjp2rcd13ifvqg90","pricing_plan_id":"cebpf4jnsgd1na2vs0mg"},{"bike_id":"852c4b2c-ff0b-4349-b1ad-8f4566913b6c","system_id":"levelo_inurba_marseille","lat":43.29709,"lon":5.37695,"is_reserved":false,"is_disabled":true,"rental_uris":{"android":"levelo://app?vid=852c4b2c-ff0b-4349-b1ad-8f4566913b6c","ios":"levelo://app?vid=852c4b2c-ff0b-4349-b1ad-8f4566913b6c"},"vehicle_type_id":"4","last_reported":1737648693,"current_range_meters":800,"station_id":"ce4bgkh2rcd13ifvqbl0","pricing_plan_id":"cebpf4jnsgd1na2vs0mg"},{"bike_id":"f3c43f3f-5ca3-46fd-a012-c8d0e216ec91","system_id":"levelo_inurba_marseille","lat":43.28684,"lon":5.38661,"is_reserved":false,"is_disabled":false,"rental_uris":{"android":"levelo://app?vid=f3c43f3f-5ca3-46fd-a012-c8d0e216ec91","ios":"levelo://app?vid=f3c43f3f-5ca3-46fd-a012-c8d0e216ec91"},"vehicle_type_id":"4","last_reported":1737648693,"current_range_meters":36400,"station_id":"ce4bh492rcd13ifvqdug","pricing_plan_id":"cebpf4jnsgd1na2vs0mg"},{"bike_id":"cb89451d-fcbc-47ab-bfa4-263d9c5e103c","system_id":"levelo_inurba_marseille","lat":43.24994,"lon":5.38948,"is_reserved":false,"is_disabled":false,"rental_uris":{"android":"levelo://app?vid=cb89451d-fcbc-47ab-bfa4-263d9c5e103c","ios":"levelo://app?vid=cb89451d-fcbc-47ab-bfa4-263d9c5e103c"},"vehicle_type_id":"4","last_reported":1737648693,"current_range_meters":29600,"station_id":"ce4bhgp2rcd13ifvqfd0","pricing_plan_id":"cebpf4jnsgd1na2vs0mg"},{"bike_id":"a8e24087-ea50-450b-ad81-a0571ee2f4f7","system_id":"levelo_inurba_marseille","lat":43.30352,"lon":5.41882,"is_reserved":false,"is_disabled":false,"rental_uris":{"android":"levelo://app?vid=a8e24087-ea50-450b-ad81-a0571ee2f4f7","ios":"levelo://app?vid=a8e24087-ea50-450b-ad81-a0571ee2f4f7"},"vehicle_type_id":"4","last_reported":1737648693,"current_range_meters":38000,"station_id":"ce4bhop2rcd13ifvqh7g","pricing_plan_id":"cebpf4jnsgd1na2vs0mg"},{"bike_id":"d6122d6f-00d2-486c-99c7-90dc2bcbd920","system_id":"levelo_inurba_marseille","lat":43.31326,"lon":5.39689,"is_reserved":false,"is_disabled":false,"rental_uris":{"android":"levelo://app?vid=d6122d6f-00d2-486c-99c7-90dc2bcbd920","ios":"levelo://app?vid=d6122d6f-00d2-486c-99c7-90dc2bcbd920"},"vehicle_type_id":"4","last_reported":1737648693,"current_range_meters":26000,"station_id":"ce4bgvp2rcd13ifvqcu0","pricing_plan_id":"cebpf4jnsgd1na2vs0mg"},{"bike_id":"2876aca2-4ddb-4f16-984a-1efd2877960c","system_id":"levelo_inurba_marseille","lat":43.337292,"lon":5.391872,"is_reserved":false,"is_disabled":false,"rental_uris":{"android":"levelo://app?vid=2876aca2-4ddb-4f16-984a-1efd2877960c","ios":"levelo://app?vid=2876aca2-4ddb-4f16-984a-1efd2877960c"},"vehicle_type_id":"4","last_reported":1737648693,"current_range_meters":38800,"station_id":"ce4bhr92rcd13ifvqhsg","pricing_plan_id":"cebpf4jnsgd1na2vs0mg"},{"bike_id":"fc0abc3e-3dd9-4426-bd49-faf33e935976","system_id":"levelo_inurba_marseille","lat":43.32465,"lon":5.36534,"is_reserved":false,"is_disabled":false,"rental_uris":{"android":"levelo://app?vid=fc0abc3e-3dd9-4426-bd49-faf33e935976","ios":"levelo://app?vid=fc0abc3e-3dd9-4426-bd49-faf33e935976"},"vehicle_type_id":"4","last_reported":1737648693,"current_range_meters":38000,"station_id":"ce4bhs12rcd13ifvqhvg","pricing_plan_id":"cebpf4jnsgd1na2vs0mg"},{"bike_id":"fe46c27a-9c15-4020-bd8e-f3459e5afa46","system_id":"levelo_inurba_marseille","lat":43.24177,"lon":5.39726,"is_reserved":false,"is_disabled":false,"rental_uris":{"android":"levelo://app?vid=fe46c27a-9c15-4020-bd8e-f3459e5afa46","ios":"levelo://app?vid=fe46c27a-9c15-4020-bd8e-f3459e5afa46"},"vehicle_type_id":"4","last_reported":1737648693,"current_range_meters":8400,"station_id":"ce4bhn12rcd13ifvqgpg","pricing_plan_id":"cebpf4jnsgd1na2vs0mg"},{"bike_id":"1e553b66-963f-416f-8f7d-f0e5cecf6ffe","system_id":"levelo_inurba_marseille","lat":43.303328,"lon":5.404394,"is_reserved":false,"is_disabled":false,"rental_uris":{"android":"levelo://app?vid=1e553b66-963f-416f-8f7d-f0e5cecf6ffe","ios":"levelo://app?vid=1e553b66-963f-416f-8f7d-f0e5cecf6ffe"},"vehicle_type_id":"4","last_reported":1737648693,"current_range_meters":2800,"station_id":"ce4bh012rcd13ifvqd10","pricing_plan_id":"cebpf4jnsgd1na2vs0mg"},{"bike_id":"7815a146-5aa8-4707-82e7-ac2cc94ff7b3","system_id":"levelo_inurba_marseille","lat":43.2903,"lon":5.38645,"is_reserved":false,"is_disabled":false,"rental_uris":{"android":"levelo://app?vid=7815a146-5aa8-4707-82e7-ac2cc94ff7b3","ios":"levelo://app?vid=7815a146-5aa8-4707-82e7-ac2cc94ff7b3"},"vehicle_type_id":"4","last_reported":1737648693,"current_range_meters":11600,"station_id":"ce4bh4p2rcd13ifvqe0g","pricing_plan_id":"cebpf4jnsgd1na2vs0mg"},{"bike_id":"9c255e12-a74e-44cd-a174-5e893beb1072","system_id":"levelo_inurba_marseille","lat":43.28671,"lon":5.38666,"is_reserved":false,"is_disabled":false,"rental_uris":{"android":"levelo://app?vid=9c255e12-a74e-44cd-a174-5e893beb1072","ios":"levelo://app?vid=9c255e12-a74e-44cd-a174-5e893beb1072"},"vehicle_type_id":"4","last_reported":1737648693,"current_range_meters":10800,"station_id":"ce4bh492rcd13ifvqdug","pricing_plan_id":"cebpf4jnsgd1na2vs0mg"},{"bike_id":"a68c43ea-6ad3-4a83-a94e-689782e633e3","system_id":"levelo_inurba_marseille","lat":43.28728,"lon":5.36097,"is_reserved":false,"is_disabled":false,"rental_uris":{"android":"levelo://app?vid=a68c43ea-6ad3-4a83-a94e-689782e633e3","ios":"levelo://app?vid=a68c43ea-6ad3-4a83-a94e-689782e633e3"},"vehicle_type_id":"4","last_reported":1737648693,"current_range_meters":38400,"station_id":"cki0cbj6b192h4jlfktg","pricing_plan_id":"cebpf4jnsgd1na2vs0mg"},{"bike_id":"eb04dc87-6fe4-47c2-a613-d93d93afefba","system_id":"levelo_inurba_marseille","lat":43.32336,"lon":5.40618,"is_reserved":false,"is_disabled":false,"rental_uris":{"android":"levelo://app?vid=eb04dc87-6fe4-47c2-a613-d93d93afefba","ios":"levelo://app?vid=eb04dc87-6fe4-47c2-a613-d93d93afefba"},"vehicle_type_id":"4","last_reported":1737648693,"current_range_meters":3200,"station_id":"ce4bhq92rcd13ifvqhjg","pricing_plan_id":"cebpf4jnsgd1na2vs0mg"},{"bike_id":"232b25b7-fa81-4630-9104-082348ac0480","system_id":"levelo_inurba_marseille","lat":43.27999,"lon":5.40016,"is_reserved":false,"is_disabled":false,"rental_uris":{"android":"levelo://app?vid=232b25b7-fa81-4630-9104-082348ac0480","ios":"levelo://app?vid=232b25b7-fa81-4630-9104-082348ac0480"},"vehicle_type_id":"4","last_reported":1737648693,"current_range_meters":38800,"station_id":"ce4bho92rcd13ifvqh4g","pricing_plan_id":"cebpf4jnsgd1na2vs0mg"},{"bike_id":"f7d48dec-58d8-4d1f-9306-318a3e03c002","system_id":"levelo_inurba_marseille","lat":43.29192,"lon":5.35803,"is_reserved":false,"is_disabled":false,"rental_uris":{"android":"levelo://app?vid=f7d48dec-58d8-4d1f-9306-318a3e03c002","ios":"levelo://app?vid=f7d48dec-58d8-4d1f-9306-318a3e03c002"},"vehicle_type_id":"4","last_reported":1737648693,"current_range_meters":37600,"station_id":"ce4bhb12rcd13ifvqel0","pricing_plan_id":"cebpf4jnsgd1na2vs0mg"},{"bike_id":"11700138-e8ed-4466-9d46-d694cbd5f045","system_id":"levelo_inurba_marseille","lat":43.30798,"lon":5.38143,"is_reserved":false,"is_disabled":false,"rental_uris":{"android":"levelo://app?vid=11700138-e8ed-4466-9d46-d694cbd5f045","ios":"levelo://app?vid=11700138-e8ed-4466-9d46-d694cbd5f045"},"vehicle_type_id":"4","last_reported":1737648693,"current_range_meters":18000,"station_id":"ce4bgt12rcd13ifvqce0","pricing_plan_id":"cebpf4jnsgd1na2vs0mg"},{"bike_id":"7a55f28a-5a5b-4ca4-9825-dee123c17d08","system_id":"levelo_inurba_marseille","lat":43.32094,"lon":5.36788,"is_reserved":false,"is_disabled":true,"rental_uris":{"android":"levelo://app?vid=7a55f28a-5a5b-4ca4-9825-dee123c17d08","ios":"levelo://app?vid=7a55f28a-5a5b-4ca4-9825-dee123c17d08"},"vehicle_type_id":"4","last_reported":1737648693,"current_range_meters":0,"station_id":"ce4bhrh2rcd13ifvqhug","pricing_plan_id":"cebpf4jnsgd1na2vs0mg"},{"bike_id":"4844be42-6a87-4dac-a589-6c9a3773afd5","system_id":"levelo_inurba_marseille","lat":43.28272,"lon":5.35063,"is_reserved":false,"is_disabled":false,"rental_uris":{"android":"levelo://app?vid=4844be42-6a87-4dac-a589-6c9a3773afd5","ios":"levelo://app?vid=4844be42-6a87-4dac-a589-6c9a3773afd5"},"vehicle_type_id":"4","last_reported":1737648693,"current_range_meters":25200,"station_id":"ce4bhbp2rcd13ifvqerg","pricing_plan_id":"cebpf4jnsgd1na2vs0mg"},{"bike_id":"9710a62d-44d7-4e7d-a53d-918b1ca6965b","system_id":"levelo_inurba_marseille","lat":43.30082,"lon":5.39082,"is_reserved":false,"is_disabled":false,"rental_uris":{"android":"levelo://app?vid=9710a62d-44d7-4e7d-a53d-918b1ca6965b","ios":"levelo://app?vid=9710a62d-44d7-4e7d-a53d-918b1ca6965b"},"vehicle_type_id":"4","last_reported":1737648693,"current_range_meters":34000,"station_id":"ce4bh192rcd13ifvqdb0","pricing_plan_id":"cebpf4jnsgd1na2vs0mg"},{"bike_id":"09db3483-02c9-41df-80ad-eaf1d261a5d2","system_id":"levelo_inurba_marseille","lat":43.28923,"lon":5.38401,"is_reserved":false,"is_disabled":false,"rental_uris":{"android":"levelo://app?vid=09db3483-02c9-41df-80ad-eaf1d261a5d2","ios":"levelo://app?vid=09db3483-02c9-41df-80ad-eaf1d261a5d2"},"vehicle_type_id":"4","last_reported":1737648693,"current_range_meters":29600,"station_id":"ce4bh612rcd13ifvqe6g","pricing_plan_id":"cebpf4jnsgd1na2vs0mg"},{"bike_id":"acc9e968-42f2-443f-bb58-cd32856c66f2","system_id":"levelo_inurba_marseille","lat":43.28407,"lon":5.37516,"is_reserved":false,"is_disabled":false,"rental_uris":{"android":"levelo://app?vid=acc9e968-42f2-443f-bb58-cd32856c66f2","ios":"levelo://app?vid=acc9e968-42f2-443f-bb58-cd32856c66f2"},"vehicle_type_id":"4","last_reported":1737648693,"current_range_meters":28800,"station_id":"ce4bh412rcd13ifvqds0","pricing_plan_id":"cebpf4jnsgd1na2vs0mg"},{"bike_id":"0a4445a0-e252-471a-99c0-848ee2415c47","system_id":"levelo_inurba_marseille","lat":43.27696,"lon":5.38902,"is_reserved":false,"is_disabled":false,"rental_uris":{"android":"levelo://app?vid=0a4445a0-e252-471a-99c0-848ee2415c47","ios":"levelo://app?vid=0a4445a0-e252-471a-99c0-848ee2415c47"},"vehicle_type_id":"4","last_reported":1737648693,"current_range_meters":38000,"station_id":"ce4bhi12rcd13ifvqfo0","pricing_plan_id":"cebpf4jnsgd1na2vs0mg"},{"bike_id":"b8dffa58-c163-4c10-9f14-961605a2b2e1","system_id":"levelo_inurba_marseille","lat":43.26953,"lon":5.38631,"is_reserved":false,"is_disabled":false,"rental_uris":{"android":"levelo://app?vid=b8dffa58-c163-4c10-9f14-961605a2b2e1","ios":"levelo://app?vid=b8dffa58-c163-4c10-9f14-961605a2b2e1"},"vehicle_type_id":"4","last_reported":1737648693,"current_range_meters":38800,"station_id":"ce4bhh92rcd13ifvqfh0","pricing_plan_id":"cebpf4jnsgd1na2vs0mg"},{"bike_id":"35614ed7-a0df-4792-bca2-a1978fcd9fab","system_id":"levelo_inurba_marseille","lat":43.30793,"lon":5.43525,"is_reserved":false,"is_disabled":true,"rental_uris":{"android":"levelo://app?vid=35614ed7-a0df-4792-bca2-a1978fcd9fab","ios":"levelo://app?vid=35614ed7-a0df-4792-bca2-a1978fcd9fab"},"vehicle_type_id":"4","last_reported":1737648693,"current_range_meters":0,"station_id":"ce4bhph2rcd13ifvqheg","pricing_plan_id":"cebpf4jnsgd1na2vs0mg"},{"bike_id":"59330309-df9a-48c4-9235-796da7a2782d","system_id":"levelo_inurba_marseille","lat":43.30789,"lon":5.43515,"is_reserved":false,"is_disabled":true,"rental_uris":{"android":"levelo://app?vid=59330309-df9a-48c4-9235-796da7a2782d","ios":"levelo://app?vid=59330309-df9a-48c4-9235-796da7a2782d"},"vehicle_type_id":"4","last_reported":1737648693,"current_range_meters":0,"station_id":"ce4bhph2rcd13ifvqheg","pricing_plan_id":"cebpf4jnsgd1na2vs0mg"},{"bike_id":"c68f7842-042a-4ced-b764-8a0bf5c7fdb6","system_id":"levelo_inurba_marseille","lat":43.29371,"lon":5.37858,"is_reserved":false,"is_disabled":false,"rental_uris":{"android":"levelo://app?vid=c68f7842-042a-4ced-b764-8a0bf5c7fdb6","ios":"levelo://app?vid=c68f7842-042a-4ced-b764-8a0bf5c7fdb6"},"vehicle_type_id":"4","last_reported":1737648693,"current_range_meters":26000,"station_id":"ce4bgjh2rcd13ifvqbf0","pricing_plan_id":"cebpf4jnsgd1na2vs0mg"},{"bike_id":"5e0169dd-cfb6-4345-b9e5-59ab64e75e4d","system_id":"levelo_inurba_marseille","lat":43.32292,"lon":5.3827,"is_reserved":false,"is_disabled":false,"rental_uris":{"android":"levelo://app?vid=5e0169dd-cfb6-4345-b9e5-59ab64e75e4d","ios":"levelo://app?vid=5e0169dd-cfb6-4345-b9e5-59ab64e75e4d"},"vehicle_type_id":"4","last_reported":1737648693,"current_range_meters":38800,"station_id":"ce4bhr12rcd13ifvqhqg","pricing_plan_id":"cebpf4jnsgd1na2vs0mg"},{"bike_id":"91597c02-45b7-468d-ad8f-7004609287ce","system_id":"levelo_inurba_marseille","lat":43.25121,"lon":5.40314,"is_reserved":false,"is_disabled":false,"rental_uris":{"android":"levelo://app?vid=91597c02-45b7-468d-ad8f-7004609287ce","ios":"levelo://app?vid=91597c02-45b7-468d-ad8f-7004609287ce"},"vehicle_type_id":"4","last_reported":1737648693,"current_range_meters":6800,"station_id":"ce4bhlh2rcd13ifvqgig","pricing_plan_id":"cebpf4jnsgd1na2vs0mg"},{"bike_id":"96bd9e64-ec79-445f-af92-f8aeeeeb8575","system_id":"levelo_inurba_marseille","lat":43.28404,"lon":5.37531,"is_reserved":false,"is_disabled":false,"rental_uris":{"android":"levelo://app?vid=96bd9e64-ec79-445f-af92-f8aeeeeb8575","ios":"levelo://app?vid=96bd9e64-ec79-445f-af92-f8aeeeeb8575"},"vehicle_type_id":"4","last_reported":1737648693,"current_range_meters":13600,"station_id":"ce4bh412rcd13ifvqds0","pricing_plan_id":"cebpf4jnsgd1na2vs0mg"},{"bike_id":"5e30ded7-410d-44cc-bde0-c6a20811fe54","system_id":"levelo_inurba_marseille","lat":43.29278,"lon":5.36846,"is_reserved":false,"is_disabled":false,"rental_uris":{"android":"levelo://app?vid=5e30ded7-410d-44cc-bde0-c6a20811fe54","ios":"levelo://app?vid=5e30ded7-410d-44cc-bde0-c6a20811fe54"},"vehicle_type_id":"4","last_reported":1737648693,"current_range_meters":26000,"station_id":"ce4bhbp2rcd13ifvqesg","pricing_plan_id":"cebpf4jnsgd1na2vs0mg"},{"bike_id":"a909192c-b42e-42fd-897a-26537d9a69e9","system_id":"levelo_inurba_marseille","lat":43.29977,"lon":5.41322,"is_reserved":false,"is_disabled":true,"rental_uris":{"android":"levelo://app?vid=a909192c-b42e-42fd-897a-26537d9a69e9","ios":"levelo://app?vid=a909192c-b42e-42fd-897a-26537d9a69e9"},"vehicle_type_id":"4","last_reported":1737648693,"current_range_meters":0,"station_id":"ce4bhp12rcd13ifvqh9g","pricing_plan_id":"cebpf4jnsgd1na2vs0mg"},{"bike_id":"b7484b8b-3a71-45d6-b948-aa32b13a1995","system_id":"levelo_inurba_marseille","lat":43.29894,"lon":5.4366,"is_reserved":false,"is_disabled":false,"rental_uris":{"android":"levelo://app?vid=b7484b8b-3a71-45d6-b948-aa32b13a1995","ios":"levelo://app?vid=b7484b8b-3a71-45d6-b948-aa32b13a1995"},"vehicle_type_id":"4","last_reported":1737648693,"current_range_meters":18800,"station_id":"ce4bhpp2rcd13ifvqhfg","pricing_plan_id":"cebpf4jnsgd1na2vs0mg"},{"bike_id":"d6d16160-8ba6-485c-92d4-327813e07bfa","system_id":"levelo_inurba_marseille","lat":43.2842,"lon":5.34979,"is_reserved":false,"is_disabled":false,"rental_uris":{"android":"levelo://app?vid=d6d16160-8ba6-485c-92d4-327813e07bfa","ios":"levelo://app?vid=d6d16160-8ba6-485c-92d4-327813e07bfa"},"vehicle_type_id":"4","last_reported":1737648693,"current_range_meters":4400,"station_id":"ce4bhbh2rcd13ifvqepg","pricing_plan_id":"cebpf4jnsgd1na2vs0mg"},{"bike_id":"da20b02b-1412-4d02-a059-c85f91beba04","system_id":"levelo_inurba_marseille","lat":43.30354,"lon":5.41879,"is_reserved":false,"is_disabled":false,"rental_uris":{"android":"levelo://app?vid=da20b02b-1412-4d02-a059-c85f91beba04","ios":"levelo://app?vid=da20b02b-1412-4d02-a059-c85f91beba04"},"vehicle_type_id":"4","last_reported":1737648693,"current_range_meters":38400,"station_id":"ce4bhop2rcd13ifvqh7g","pricing_plan_id":"cebpf4jnsgd1na2vs0mg"},{"bike_id":"730a19d7-8638-4500-9d66-b33219f24537","system_id":"levelo_inurba_marseille","lat":43.30807,"lon":5.43542,"is_reserved":false,"is_disabled":false,"rental_uris":{"android":"levelo://app?vid=730a19d7-8638-4500-9d66-b33219f24537","ios":"levelo://app?vid=730a19d7-8638-4500-9d66-b33219f24537"},"vehicle_type_id":"4","last_reported":1737648693,"current_range_meters":25200,"station_id":"ce4bhph2rcd13ifvqheg","pricing_plan_id":"cebpf4jnsgd1na2vs0mg"},{"bike_id":"c1a6aaf8-e618-403c-bf1a-c781bc189ff5","system_id":"levelo_inurba_marseille","lat":43.313129,"lon":5.375319,"is_reserved":false,"is_disabled":false,"rental_uris":{"android":"levelo://app?vid=c1a6aaf8-e618-403c-bf1a-c781bc189ff5","ios":"levelo://app?vid=c1a6aaf8-e618-403c-bf1a-c781bc189ff5"},"vehicle_type_id":"4","last_reported":1737648693,"current_range_meters":25600,"station_id":"ce4bgt12rcd13ifvqcd0","pricing_plan_id":"cebpf4jnsgd1na2vs0mg"},{"bike_id":"f2a423d2-541a-4d27-98b1-bbdc8f11174c","system_id":"levelo_inurba_marseille","lat":43.305966,"lon":5.393643,"is_reserved":false,"is_disabled":true,"rental_uris":{"android":"levelo://app?vid=f2a423d2-541a-4d27-98b1-bbdc8f11174c","ios":"levelo://app?vid=f2a423d2-541a-4d27-98b1-bbdc8f11174c"},"vehicle_type_id":"4","last_reported":1737648693,"current_range_meters":8400,"station_id":"ce4bh0p2rcd13ifvqd80","pricing_plan_id":"cebpf4jnsgd1na2vs0mg"},{"bike_id":"701f268f-043c-4ccf-b3cc-518831144fa6","system_id":"levelo_inurba_marseille","lat":43.28,"lon":5.40003,"is_reserved":false,"is_disabled":false,"rental_uris":{"android":"levelo://app?vid=701f268f-043c-4ccf-b3cc-518831144fa6","ios":"levelo://app?vid=701f268f-043c-4ccf-b3cc-518831144fa6"},"vehicle_type_id":"4","last_reported":1737648693,"current_range_meters":6400,"station_id":"ce4bho92rcd13ifvqh4g","pricing_plan_id":"cebpf4jnsgd1na2vs0mg"},{"bike_id":"9863b7f9-4316-4322-9f6c-3cc66b0448e2","system_id":"levelo_inurba_marseille","lat":43.279439,"lon":5.389008,"is_reserved":false,"is_disabled":true,"rental_uris":{"android":"levelo://app?vid=9863b7f9-4316-4322-9f6c-3cc66b0448e2","ios":"levelo://app?vid=9863b7f9-4316-4322-9f6c-3cc66b0448e2"},"vehicle_type_id":"4","last_reported":1737648693,"current_range_meters":24400,"station_id":"","pricing_plan_id":"cebpf4jnsgd1na2vs0mg"},{"bike_id":"9af3b9fd-53c8-4229-b2a9-99ecd7725f91","system_id":"levelo_inurba_marseille","lat":43.297,"lon":5.37694,"is_reserved":false,"is_disabled":false,"rental_uris":{"android":"levelo://app?vid=9af3b9fd-53c8-4229-b2a9-99ecd7725f91","ios":"levelo://app?vid=9af3b9fd-53c8-4229-b2a9-99ecd7725f91"},"vehicle_type_id":"4","last_reported":1737648693,"current_range_meters":24000,"station_id":"ce4bgkh2rcd13ifvqbl0","pricing_plan_id":"cebpf4jnsgd1na2vs0mg"},{"bike_id":"6fa2f3d2-bfc7-4a9b-a1c6-efd0e29b47c4","system_id":"levelo_inurba_marseille","lat":43.2604,"lon":5.37541,"is_reserved":false,"is_disabled":false,"rental_uris":{"android":"levelo://app?vid=6fa2f3d2-bfc7-4a9b-a1c6-efd0e29b47c4","ios":"levelo://app?vid=6fa2f3d2-bfc7-4a9b-a1c6-efd0e29b47c4"},"vehicle_type_id":"4","last_reported":1737648693,"current_range_meters":39200,"station_id":"ce4bhgh2rcd13ifvqfa0","pricing_plan_id":"cebpf4jnsgd1na2vs0mg"},{"bike_id":"1a7f10b2-8731-4911-9041-86699a4abdf3","system_id":"levelo_inurba_marseille","lat":43.31215,"lon":5.41126,"is_reserved":false,"is_disabled":false,"rental_uris":{"android":"levelo://app?vid=1a7f10b2-8731-4911-9041-86699a4abdf3","ios":"levelo://app?vid=1a7f10b2-8731-4911-9041-86699a4abdf3"},"vehicle_type_id":"4","last_reported":1737648693,"current_range_meters":6800,"station_id":"ce4bhp92rcd13ifvqhbg","pricing_plan_id":"cebpf4jnsgd1na2vs0mg"},{"bike_id":"7555df76-45e5-4931-82aa-7216ceb1ea14","system_id":"levelo_inurba_marseille","lat":43.25864,"lon":5.39898,"is_reserved":false,"is_disabled":false,"rental_uris":{"android":"levelo://app?vid=7555df76-45e5-4931-82aa-7216ceb1ea14","ios":"levelo://app?vid=7555df76-45e5-4931-82aa-7216ceb1ea14"},"vehicle_type_id":"4","last_reported":1737648693,"current_range_meters":10000,"station_id":"ce4bhl92rcd13ifvqghg","pricing_plan_id":"cebpf4jnsgd1na2vs0mg"},{"bike_id":"a3da089e-9eb3-4689-887c-254e0a756d72","system_id":"levelo_inurba_marseille","lat":43.30145,"lon":5.38085,"is_reserved":false,"is_disabled":false,"rental_uris":{"android":"levelo://app?vid=a3da089e-9eb3-4689-887c-254e0a756d72","ios":"levelo://app?vid=a3da089e-9eb3-4689-887c-254e0a756d72"},"vehicle_type_id":"4","last_reported":1737648693,"current_range_meters":12400,"station_id":"ce4bgjp2rcd13ifvqbh0","pricing_plan_id":"cebpf4jnsgd1na2vs0mg"},{"bike_id":"4c24e187-09e8-4e7d-b31b-42bbe1136d82","system_id":"levelo_inurba_marseille","lat":43.31231,"lon":5.36829,"is_reserved":false,"is_disabled":false,"rental_uris":{"android":"levelo://app?vid=4c24e187-09e8-4e7d-b31b-42bbe1136d82","ios":"levelo://app?vid=4c24e187-09e8-4e7d-b31b-42bbe1136d82"},"vehicle_type_id":"4","last_reported":1737648693,"current_range_meters":10000,"station_id":"ce4bgl92rcd13ifvqbq0","pricing_plan_id":"cebpf4jnsgd1na2vs0mg"},{"bike_id":"9287c6a5-d566-44a0-9ba5-4cd5854ae88f","system_id":"levelo_inurba_marseille","lat":43.26577,"lon":5.39023,"is_reserved":false,"is_disabled":false,"rental_uris":{"android":"levelo://app?vid=9287c6a5-d566-44a0-9ba5-4cd5854ae88f","ios":"levelo://app?vid=9287c6a5-d566-44a0-9ba5-4cd5854ae88f"},"vehicle_type_id":"4","last_reported":1737648693,"current_range_meters":38800,"station_id":"ce4bhe12rcd13ifvqf30","pricing_plan_id":"cebpf4jnsgd1na2vs0mg"},{"bike_id":"b8522101-a8dc-4556-9aa4-7546debea75f","system_id":"levelo_inurba_marseille","lat":43.337248,"lon":5.391854,"is_reserved":false,"is_disabled":false,"rental_uris":{"android":"levelo://app?vid=b8522101-a8dc-4556-9aa4-7546debea75f","ios":"levelo://app?vid=b8522101-a8dc-4556-9aa4-7546debea75f"},"vehicle_type_id":"4","last_reported":1737648693,"current_range_meters":38800,"station_id":"ce4bhr92rcd13ifvqhsg","pricing_plan_id":"cebpf4jnsgd1na2vs0mg"},{"bike_id":"093c0a4b-c65c-4f81-818a-f415ef9de89a","system_id":"levelo_inurba_marseille","lat":43.31379,"lon":5.36693,"is_reserved":false,"is_disabled":false,"rental_uris":{"android":"levelo://app?vid=093c0a4b-c65c-4f81-818a-f415ef9de89a","ios":"levelo://app?vid=093c0a4b-c65c-4f81-818a-f415ef9de89a"},"vehicle_type_id":"4","last_reported":1737648693,"current_range_meters":38800,"station_id":"ce4bgr92rcd13ifvqc6g","pricing_plan_id":"cebpf4jnsgd1na2vs0mg"},{"bike_id":"7618d29f-2360-4ead-9d75-51dc8b5bf276","system_id":"levelo_inurba_marseille","lat":43.26566,"lon":5.39011,"is_reserved":false,"is_disabled":true,"rental_uris":{"android":"levelo://app?vid=7618d29f-2360-4ead-9d75-51dc8b5bf276","ios":"levelo://app?vid=7618d29f-2360-4ead-9d75-51dc8b5bf276"},"vehicle_type_id":"4","last_reported":1737648693,"current_range_meters":0,"station_id":"ce4bhe12rcd13ifvqf30","pricing_plan_id":"cebpf4jnsgd1na2vs0mg"},{"bike_id":"13404d01-1c7c-4d4b-bb24-e98755f8bf24","system_id":"levelo_inurba_marseille","lat":43.30543,"lon":5.3668,"is_reserved":false,"is_disabled":false,"rental_uris":{"android":"levelo://app?vid=13404d01-1c7c-4d4b-bb24-e98755f8bf24","ios":"levelo://app?vid=13404d01-1c7c-4d4b-bb24-e98755f8bf24"},"vehicle_type_id":"4","last_reported":1737648693,"current_range_meters":32000,"station_id":"ce4bgrp2rcd13ifvqc9g","pricing_plan_id":"cebpf4jnsgd1na2vs0mg"},{"bike_id":"e979f076-fdbc-40b3-a25f-b7e114717424","system_id":"levelo_inurba_marseille","lat":43.30327,"lon":5.40432,"is_reserved":false,"is_disabled":false,"rental_uris":{"android":"levelo://app?vid=e979f076-fdbc-40b3-a25f-b7e114717424","ios":"levelo://app?vid=e979f076-fdbc-40b3-a25f-b7e114717424"},"vehicle_type_id":"4","last_reported":1737648693,"current_range_meters":24800,"station_id":"ce4bh012rcd13ifvqd10","pricing_plan_id":"cebpf4jnsgd1na2vs0mg"},{"bike_id":"372d372c-fba1-4757-b021-5a0dc0db84d5","system_id":"levelo_inurba_marseille","lat":43.28932,"lon":5.36633,"is_reserved":false,"is_disabled":false,"rental_uris":{"android":"levelo://app?vid=372d372c-fba1-4757-b021-5a0dc0db84d5","ios":"levelo://app?vid=372d372c-fba1-4757-b021-5a0dc0db84d5"},"vehicle_type_id":"4","last_reported":1737648693,"current_range_meters":38800,"station_id":"ce4bhap2rcd13ifvqek0","pricing_plan_id":"cebpf4jnsgd1na2vs0mg"},{"bike_id":"b89dea21-daae-43fd-b315-8f82c7d3aeca","system_id":"levelo_inurba_marseille","lat":43.2955,"lon":5.42271,"is_reserved":false,"is_disabled":false,"rental_uris":{"android":"levelo://app?vid=b89dea21-daae-43fd-b315-8f82c7d3aeca","ios":"levelo://app?vid=b89dea21-daae-43fd-b315-8f82c7d3aeca"},"vehicle_type_id":"4","last_reported":1737648693,"current_range_meters":38800,"station_id":"ce4bhph2rcd13ifvqhdg","pricing_plan_id":"cebpf4jnsgd1na2vs0mg"},{"bike_id":"7c78a755-c7f5-4f07-a96b-621451d47948","system_id":"levelo_inurba_marseille","lat":43.298969,"lon":5.436688,"is_reserved":false,"is_disabled":false,"rental_uris":{"android":"levelo://app?vid=7c78a755-c7f5-4f07-a96b-621451d47948","ios":"levelo://app?vid=7c78a755-c7f5-4f07-a96b-621451d47948"},"vehicle_type_id":"4","last_reported":1737648693,"current_range_meters":10800,"station_id":"ce4bhpp2rcd13ifvqhfg","pricing_plan_id":"cebpf4jnsgd1na2vs0mg"},{"bike_id":"db4d6ad6-375d-4e89-9f56-82f178e67efd","system_id":"levelo_inurba_marseille","lat":43.305479,"lon":5.365548,"is_reserved":false,"is_disabled":false,"rental_uris":{"android":"levelo://app?vid=db4d6ad6-375d-4e89-9f56-82f178e67efd","ios":"levelo://app?vid=db4d6ad6-375d-4e89-9f56-82f178e67efd"},"vehicle_type_id":"4","last_reported":1737648693,"current_range_meters":37600,"station_id":"ce4bgs12rcd13ifvqcag","pricing_plan_id":"cebpf4jnsgd1na2vs0mg"},{"bike_id":"af26f1bc-cb1b-4e2f-b2d4-d9810d7dc31c","system_id":"levelo_inurba_marseille","lat":43.29865,"lon":5.36267,"is_reserved":false,"is_disabled":false,"rental_uris":{"android":"levelo://app?vid=af26f1bc-cb1b-4e2f-b2d4-d9810d7dc31c","ios":"levelo://app?vid=af26f1bc-cb1b-4e2f-b2d4-d9810d7dc31c"},"vehicle_type_id":"4","last_reported":1737648693,"current_range_meters":17200,"station_id":"ce4bgpp2rcd13ifvqc3g","pricing_plan_id":"cebpf4jnsgd1na2vs0mg"},{"bike_id":"b01fce57-63c8-454c-9252-5518a237155b","system_id":"levelo_inurba_marseille","lat":43.23177,"lon":5.3999,"is_reserved":false,"is_disabled":false,"rental_uris":{"android":"levelo://app?vid=b01fce57-63c8-454c-9252-5518a237155b","ios":"levelo://app?vid=b01fce57-63c8-454c-9252-5518a237155b"},"vehicle_type_id":"4","last_reported":1737648693,"current_range_meters":19600,"station_id":"ce4bhn12rcd13ifvqgqg","pricing_plan_id":"cebpf4jnsgd1na2vs0mg"},{"bike_id":"fea3d4a5-e485-45e5-84cd-9f1c4b9150f0","system_id":"levelo_inurba_marseille","lat":43.30131,"lon":5.37421,"is_reserved":false,"is_disabled":false,"rental_uris":{"android":"levelo://app?vid=fea3d4a5-e485-45e5-84cd-9f1c4b9150f0","ios":"levelo://app?vid=fea3d4a5-e485-45e5-84cd-9f1c4b9150f0"},"vehicle_type_id":"4","last_reported":1737648693,"current_range_meters":7200,"station_id":"ce4bgs92rcd13ifvqcc0","pricing_plan_id":"cebpf4jnsgd1na2vs0mg"},{"bike_id":"14b29708-13c1-4d85-8340-7710c1ef2b19","system_id":"levelo_inurba_marseille","lat":43.27827,"lon":5.39208,"is_reserved":false,"is_disabled":false,"rental_uris":{"android":"levelo://app?vid=14b29708-13c1-4d85-8340-7710c1ef2b19","ios":"levelo://app?vid=14b29708-13c1-4d85-8340-7710c1ef2b19"},"vehicle_type_id":"4","last_reported":1737648693,"current_range_meters":37600,"station_id":"ce4bhjp2rcd13ifvqga0","pricing_plan_id":"cebpf4jnsgd1na2vs0mg"},{"bike_id":"e8ce8e41-e5fd-4bcc-800b-7e5a2354eb7f","system_id":"levelo_inurba_marseille","lat":43.25585,"lon":5.38233,"is_reserved":false,"is_disabled":false,"rental_uris":{"android":"levelo://app?vid=e8ce8e41-e5fd-4bcc-800b-7e5a2354eb7f","ios":"levelo://app?vid=e8ce8e41-e5fd-4bcc-800b-7e5a2354eb7f"},"vehicle_type_id":"4","last_reported":1737648693,"current_range_meters":7200,"station_id":"ce4bhih2rcd13ifvqfs0","pricing_plan_id":"cebpf4jnsgd1na2vs0mg"},{"bike_id":"99d5d918-7a27-4f45-9921-a02ab9e461fe","system_id":"levelo_inurba_marseille","lat":43.289088,"lon":5.384078,"is_reserved":false,"is_disabled":false,"rental_uris":{"android":"levelo://app?vid=99d5d918-7a27-4f45-9921-a02ab9e461fe","ios":"levelo://app?vid=99d5d918-7a27-4f45-9921-a02ab9e461fe"},"vehicle_type_id":"4","last_reported":1737648693,"current_range_meters":35600,"station_id":"ce4bh612rcd13ifvqe6g","pricing_plan_id":"cebpf4jnsgd1na2vs0mg"},{"bike_id":"8091da5a-cc04-462d-bb09-ae380ca5e4ce","system_id":"levelo_inurba_marseille","lat":43.2321,"lon":5.39979,"is_reserved":false,"is_disabled":false,"rental_uris":{"android":"levelo://app?vid=8091da5a-cc04-462d-bb09-ae380ca5e4ce","ios":"levelo://app?vid=8091da5a-cc04-462d-bb09-ae380ca5e4ce"},"vehicle_type_id":"4","last_reported":1737648693,"current_range_meters":10000,"station_id":"ce4bhn12rcd13ifvqgqg","pricing_plan_id":"cebpf4jnsgd1na2vs0mg"},{"bike_id":"fe3d2582-5318-4a14-9e7b-b172e715f839","system_id":"levelo_inurba_marseille","lat":43.29783,"lon":5.3935,"is_reserved":false,"is_disabled":false,"rental_uris":{"android":"levelo://app?vid=fe3d2582-5318-4a14-9e7b-b172e715f839","ios":"levelo://app?vid=fe3d2582-5318-4a14-9e7b-b172e715f839"},"vehicle_type_id":"4","last_reported":1737648693,"current_range_meters":8800,"station_id":"chh1huq6cuj3fo74tm60","pricing_plan_id":"cebpf4jnsgd1na2vs0mg"},{"bike_id":"7e50e231-6e86-4854-8e19-cf288d95a447","system_id":"levelo_inurba_marseille","lat":43.3124,"lon":5.36858,"is_reserved":false,"is_disabled":false,"rental_uris":{"android":"levelo://app?vid=7e50e231-6e86-4854-8e19-cf288d95a447","ios":"levelo://app?vid=7e50e231-6e86-4854-8e19-cf288d95a447"},"vehicle_type_id":"4","last_reported":1737648693,"current_range_meters":16400,"station_id":"ce4bgl92rcd13ifvqbq0","pricing_plan_id":"cebpf4jnsgd1na2vs0mg"},{"bike_id":"8210b62d-a1a5-4f4c-8046-84672334af72","system_id":"levelo_inurba_marseille","lat":43.25121,"lon":5.40327,"is_reserved":false,"is_disabled":false,"rental_uris":{"android":"levelo://app?vid=8210b62d-a1a5-4f4c-8046-84672334af72","ios":"levelo://app?vid=8210b62d-a1a5-4f4c-8046-84672334af72"},"vehicle_type_id":"4","last_reported":1737648693,"current_range_meters":32000,"station_id":"ce4bhlh2rcd13ifvqgig","pricing_plan_id":"cebpf4jnsgd1na2vs0mg"},{"bike_id":"72428ff6-b760-4407-bd52-28cdb9f11441","system_id":"levelo_inurba_marseille","lat":43.27378,"lon":5.36249,"is_reserved":false,"is_disabled":false,"rental_uris":{"android":"levelo://app?vid=72428ff6-b760-4407-bd52-28cdb9f11441","ios":"levelo://app?vid=72428ff6-b760-4407-bd52-28cdb9f11441"},"vehicle_type_id":"4","last_reported":1737648693,"current_range_meters":22800,"station_id":"ce4bhbh2rcd13ifvqeo0","pricing_plan_id":"cebpf4jnsgd1na2vs0mg"},{"bike_id":"51b693ec-6376-489f-b989-9f78de29a1f3","system_id":"levelo_inurba_marseille","lat":43.24168,"lon":5.36396,"is_reserved":false,"is_disabled":false,"rental_uris":{"android":"levelo://app?vid=51b693ec-6376-489f-b989-9f78de29a1f3","ios":"levelo://app?vid=51b693ec-6376-489f-b989-9f78de29a1f3"},"vehicle_type_id":"4","last_reported":1737648693,"current_range_meters":22000,"station_id":"cpo36qri1sfpv3e86is0","pricing_plan_id":"cebpf4jnsgd1na2vs0mg"},{"bike_id":"66608dc1-56d2-47c5-adf6-aeb6e2343bb6","system_id":"levelo_inurba_marseille","lat":43.29627,"lon":5.37148,"is_reserved":false,"is_disabled":false,"rental_uris":{"android":"levelo://app?vid=66608dc1-56d2-47c5-adf6-aeb6e2343bb6","ios":"levelo://app?vid=66608dc1-56d2-47c5-adf6-aeb6e2343bb6"},"vehicle_type_id":"4","last_reported":1737648693,"current_range_meters":38800,"station_id":"ce4bgnh2rcd13ifvqc0g","pricing_plan_id":"cebpf4jnsgd1na2vs0mg"},{"bike_id":"13ff516e-16cf-4543-8540-9030b8b296b4","system_id":"levelo_inurba_marseille","lat":43.23194,"lon":5.355589,"is_reserved":false,"is_disabled":false,"rental_uris":{"android":"levelo://app?vid=13ff516e-16cf-4543-8540-9030b8b296b4","ios":"levelo://app?vid=13ff516e-16cf-4543-8540-9030b8b296b4"},"vehicle_type_id":"4","last_reported":1737648693,"current_range_meters":28400,"station_id":"ce4bhu92rcd13ifvqi70","pricing_plan_id":"cebpf4jnsgd1na2vs0mg"},{"bike_id":"e82752fc-ef99-4f70-8b62-0b5e08d39e82","system_id":"levelo_inurba_marseille","lat":43.27423,"lon":5.39412,"is_reserved":false,"is_disabled":false,"rental_uris":{"android":"levelo://app?vid=e82752fc-ef99-4f70-8b62-0b5e08d39e82","ios":"levelo://app?vid=e82752fc-ef99-4f70-8b62-0b5e08d39e82"},"vehicle_type_id":"4","last_reported":1737648693,"current_range_meters":38000,"station_id":"ce4bhdp2rcd13ifvqf20","pricing_plan_id":"cebpf4jnsgd1na2vs0mg"},{"bike_id":"4863d741-c83d-4a10-a239-ef9ca96ec30e","system_id":"levelo_inurba_marseille","lat":43.27823,"lon":5.40697,"is_reserved":false,"is_disabled":false,"rental_uris":{"android":"levelo://app?vid=4863d741-c83d-4a10-a239-ef9ca96ec30e","ios":"levelo://app?vid=4863d741-c83d-4a10-a239-ef9ca96ec30e"},"vehicle_type_id":"4","last_reported":1737648693,"current_range_meters":9200,"station_id":"ce4bhnh2rcd13ifvqgtg","pricing_plan_id":"cebpf4jnsgd1na2vs0mg"},{"bike_id":"8a151ccc-edf6-40ab-a6a3-42b4ac96f698","system_id":"levelo_inurba_marseille","lat":43.28271,"lon":5.3508,"is_reserved":false,"is_disabled":true,"rental_uris":{"android":"levelo://app?vid=8a151ccc-edf6-40ab-a6a3-42b4ac96f698","ios":"levelo://app?vid=8a151ccc-edf6-40ab-a6a3-42b4ac96f698"},"vehicle_type_id":"4","last_reported":1737648693,"current_range_meters":27200,"station_id":"ce4bhbp2rcd13ifvqerg","pricing_plan_id":"cebpf4jnsgd1na2vs0mg"},{"bike_id":"f1be3c05-e8fe-40f7-ac78-0082c44f89e2","system_id":"levelo_inurba_marseille","lat":43.298,"lon":5.38095,"is_reserved":false,"is_disabled":false,"rental_uris":{"android":"levelo://app?vid=f1be3c05-e8fe-40f7-ac78-0082c44f89e2","ios":"levelo://app?vid=f1be3c05-e8fe-40f7-ac78-0082c44f89e2"},"vehicle_type_id":"4","last_reported":1737648693,"current_range_meters":17200,"station_id":"ce4bgip2rcd13ifvqbb0","pricing_plan_id":"cebpf4jnsgd1na2vs0mg"},{"bike_id":"52cd407b-fc2d-4d99-8029-12f4da2ed0dc","system_id":"levelo_inurba_marseille","lat":43.30636,"lon":5.40095,"is_reserved":false,"is_disabled":false,"rental_uris":{"android":"levelo://app?vid=52cd407b-fc2d-4d99-8029-12f4da2ed0dc","ios":"levelo://app?vid=52cd407b-fc2d-4d99-8029-12f4da2ed0dc"},"vehicle_type_id":"4","last_reported":1737648693,"current_range_meters":12400,"station_id":"ce4bh112rcd13ifvqda0","pricing_plan_id":"cebpf4jnsgd1na2vs0mg"},{"bike_id":"b75f1ee2-5658-470b-aa07-f07ef805ebea","system_id":"levelo_inurba_marseille","lat":43.29612,"lon":5.37732,"is_reserved":false,"is_disabled":false,"rental_uris":{"android":"levelo://app?vid=b75f1ee2-5658-470b-aa07-f07ef805ebea","ios":"levelo://app?vid=b75f1ee2-5658-470b-aa07-f07ef805ebea"},"vehicle_type_id":"4","last_reported":1737648693,"current_range_meters":9600,"station_id":"ce4bgi92rcd13ifvqb90","pricing_plan_id":"cebpf4jnsgd1na2vs0mg"},{"bike_id":"949adc13-c275-42bb-b995-242920fc8ce6","system_id":"levelo_inurba_marseille","lat":43.2781,"lon":5.40729,"is_reserved":false,"is_disabled":false,"rental_uris":{"android":"levelo://app?vid=949adc13-c275-42bb-b995-242920fc8ce6","ios":"levelo://app?vid=949adc13-c275-42bb-b995-242920fc8ce6"},"vehicle_type_id":"4","last_reported":1737648693,"current_range_meters":37600,"station_id":"ce4bhnh2rcd13ifvqgtg","pricing_plan_id":"cebpf4jnsgd1na2vs0mg"},{"bike_id":"72652770-3339-4a48-966d-6475a40dd01b","system_id":"levelo_inurba_marseille","lat":43.28075,"lon":5.39661,"is_reserved":false,"is_disabled":false,"rental_uris":{"android":"levelo://app?vid=72652770-3339-4a48-966d-6475a40dd01b","ios":"levelo://app?vid=72652770-3339-4a48-966d-6475a40dd01b"},"vehicle_type_id":"4","last_reported":1737648693,"current_range_meters":18800,"station_id":"ce4bho12rcd13ifvqh2g","pricing_plan_id":"cebpf4jnsgd1na2vs0mg"},{"bike_id":"9918f875-23c7-4910-b6b1-6adfbbbc75d1","system_id":"levelo_inurba_marseille","lat":43.28708,"lon":5.39977,"is_reserved":false,"is_disabled":false,"rental_uris":{"android":"levelo://app?vid=9918f875-23c7-4910-b6b1-6adfbbbc75d1","ios":"levelo://app?vid=9918f875-23c7-4910-b6b1-6adfbbbc75d1"},"vehicle_type_id":"4","last_reported":1737648693,"current_range_meters":12000,"station_id":"ce4bho92rcd13ifvqh3g","pricing_plan_id":"cebpf4jnsgd1na2vs0mg"},{"bike_id":"d28e6da9-9d50-41fc-92a1-acd12478bf45","system_id":"levelo_inurba_marseille","lat":43.27911,"lon":5.37999,"is_reserved":false,"is_disabled":false,"rental_uris":{"android":"levelo://app?vid=d28e6da9-9d50-41fc-92a1-acd12478bf45","ios":"levelo://app?vid=d28e6da9-9d50-41fc-92a1-acd12478bf45"},"vehicle_type_id":"4","last_reported":1737648693,"current_range_meters":32000,"station_id":"ce4bhf92rcd13ifvqf50","pricing_plan_id":"cebpf4jnsgd1na2vs0mg"},{"bike_id":"b97c2534-d695-4522-862e-f9ae8ca5a23a","system_id":"levelo_inurba_marseille","lat":43.28706,"lon":5.37384,"is_reserved":false,"is_disabled":false,"rental_uris":{"android":"levelo://app?vid=b97c2534-d695-4522-862e-f9ae8ca5a23a","ios":"levelo://app?vid=b97c2534-d695-4522-862e-f9ae8ca5a23a"},"vehicle_type_id":"4","last_reported":1737648693,"current_range_meters":38800,"station_id":"ce4bh3p2rcd13ifvqdq0","pricing_plan_id":"cebpf4jnsgd1na2vs0mg"},{"bike_id":"e1cd9866-5b4a-4efe-a8a6-5860705b5fe2","system_id":"levelo_inurba_marseille","lat":43.25121,"lon":5.40325,"is_reserved":false,"is_disabled":false,"rental_uris":{"android":"levelo://app?vid=e1cd9866-5b4a-4efe-a8a6-5860705b5fe2","ios":"levelo://app?vid=e1cd9866-5b4a-4efe-a8a6-5860705b5fe2"},"vehicle_type_id":"4","last_reported":1737648693,"current_range_meters":3600,"station_id":"ce4bhlh2rcd13ifvqgig","pricing_plan_id":"cebpf4jnsgd1na2vs0mg"},{"bike_id":"68e9c31c-ad3e-43bf-9dd6-a2db62b95ef7","system_id":"levelo_inurba_marseille","lat":43.32491,"lon":5.36536,"is_reserved":false,"is_disabled":false,"rental_uris":{"android":"levelo://app?vid=68e9c31c-ad3e-43bf-9dd6-a2db62b95ef7","ios":"levelo://app?vid=68e9c31c-ad3e-43bf-9dd6-a2db62b95ef7"},"vehicle_type_id":"4","last_reported":1737648693,"current_range_meters":22400,"station_id":"ce4bhs12rcd13ifvqhvg","pricing_plan_id":"cebpf4jnsgd1na2vs0mg"},{"bike_id":"3de157d2-9250-478e-86af-d6848e108847","system_id":"levelo_inurba_marseille","lat":43.28078,"lon":5.39664,"is_reserved":false,"is_disabled":false,"rental_uris":{"android":"levelo://app?vid=3de157d2-9250-478e-86af-d6848e108847","ios":"levelo://app?vid=3de157d2-9250-478e-86af-d6848e108847"},"vehicle_type_id":"4","last_reported":1737648693,"current_range_meters":7200,"station_id":"ce4bho12rcd13ifvqh2g","pricing_plan_id":"cebpf4jnsgd1na2vs0mg"},{"bike_id":"b8338bfe-1284-4232-9a51-15bb8e974f1c","system_id":"levelo_inurba_marseille","lat":43.298424,"lon":5.36265,"is_reserved":false,"is_disabled":false,"rental_uris":{"android":"levelo://app?vid=b8338bfe-1284-4232-9a51-15bb8e974f1c","ios":"levelo://app?vid=b8338bfe-1284-4232-9a51-15bb8e974f1c"},"vehicle_type_id":"4","last_reported":1737648693,"current_range_meters":38800,"station_id":"ce4bgpp2rcd13ifvqc3g","pricing_plan_id":"cebpf4jnsgd1na2vs0mg"},{"bike_id":"dfd95694-8023-46a8-a2e9-3f0d436b5474","system_id":"levelo_inurba_marseille","lat":43.30538,"lon":5.36715,"is_reserved":false,"is_disabled":true,"rental_uris":{"android":"levelo://app?vid=dfd95694-8023-46a8-a2e9-3f0d436b5474","ios":"levelo://app?vid=dfd95694-8023-46a8-a2e9-3f0d436b5474"},"vehicle_type_id":"4","last_reported":1737648693,"current_range_meters":0,"station_id":"ce4bgrp2rcd13ifvqc9g","pricing_plan_id":"cebpf4jnsgd1na2vs0mg"},{"bike_id":"75495e7c-20bd-4569-84c6-35df34ab244d","system_id":"levelo_inurba_marseille","lat":43.29899,"lon":5.43666,"is_reserved":false,"is_disabled":false,"rental_uris":{"android":"levelo://app?vid=75495e7c-20bd-4569-84c6-35df34ab244d","ios":"levelo://app?vid=75495e7c-20bd-4569-84c6-35df34ab244d"},"vehicle_type_id":"4","last_reported":1737648693,"current_range_meters":3200,"station_id":"ce4bhpp2rcd13ifvqhfg","pricing_plan_id":"cebpf4jnsgd1na2vs0mg"},{"bike_id":"e5ad2ae7-d354-484f-9264-83fc4ddbdf2b","system_id":"levelo_inurba_marseille","lat":43.26934,"lon":5.40248,"is_reserved":false,"is_disabled":false,"rental_uris":{"android":"levelo://app?vid=e5ad2ae7-d354-484f-9264-83fc4ddbdf2b","ios":"levelo://app?vid=e5ad2ae7-d354-484f-9264-83fc4ddbdf2b"},"vehicle_type_id":"4","last_reported":1737648693,"current_range_meters":18800,"station_id":"cjm6bp8fraef2m0cb0m0","pricing_plan_id":"cebpf4jnsgd1na2vs0mg"},{"bike_id":"5c6dd2ff-5977-45ea-9ab6-79ed70b4ade5","system_id":"levelo_inurba_marseille","lat":43.29419,"lon":5.38618,"is_reserved":false,"is_disabled":true,"rental_uris":{"android":"levelo://app?vid=5c6dd2ff-5977-45ea-9ab6-79ed70b4ade5","ios":"levelo://app?vid=5c6dd2ff-5977-45ea-9ab6-79ed70b4ade5"},"vehicle_type_id":"4","last_reported":1737648693,"current_range_meters":35200,"station_id":"ce4bh2h2rcd13ifvqdh0","pricing_plan_id":"cebpf4jnsgd1na2vs0mg"},{"bike_id":"a92bf0a7-2305-41d2-9596-7040d7876636","system_id":"levelo_inurba_marseille","lat":43.31362,"lon":5.38506,"is_reserved":false,"is_disabled":false,"rental_uris":{"android":"levelo://app?vid=a92bf0a7-2305-41d2-9596-7040d7876636","ios":"levelo://app?vid=a92bf0a7-2305-41d2-9596-7040d7876636"},"vehicle_type_id":"4","last_reported":1737648693,"current_range_meters":32000,"station_id":"ce4bgt92rcd13ifvqcf0","pricing_plan_id":"cebpf4jnsgd1na2vs0mg"},{"bike_id":"f15a3926-03ea-4c4b-9f1b-6e7324acfe94","system_id":"levelo_inurba_marseille","lat":43.2875,"lon":5.37665,"is_reserved":false,"is_disabled":true,"rental_uris":{"android":"levelo://app?vid=f15a3926-03ea-4c4b-9f1b-6e7324acfe94","ios":"levelo://app?vid=f15a3926-03ea-4c4b-9f1b-6e7324acfe94"},"vehicle_type_id":"4","last_reported":1737648693,"current_range_meters":9600,"station_id":"","pricing_plan_id":"cebpf4jnsgd1na2vs0mg"},{"bike_id":"6c40b4bc-1b51-4f90-82ec-522ab7695721","system_id":"levelo_inurba_marseille","lat":43.29877,"lon":5.38914,"is_reserved":false,"is_disabled":false,"rental_uris":{"android":"levelo://app?vid=6c40b4bc-1b51-4f90-82ec-522ab7695721","ios":"levelo://app?vid=6c40b4bc-1b51-4f90-82ec-522ab7695721"},"vehicle_type_id":"4","last_reported":1737648693,"current_range_meters":6800,"station_id":"ce4bh392rcd13ifvqdl0","pricing_plan_id":"cebpf4jnsgd1na2vs0mg"},{"bike_id":"d22b6dd8-70dd-44e2-b2da-7416379d6042","system_id":"levelo_inurba_marseille","lat":43.266779,"lon":5.382716,"is_reserved":false,"is_disabled":false,"rental_uris":{"android":"levelo://app?vid=d22b6dd8-70dd-44e2-b2da-7416379d6042","ios":"levelo://app?vid=d22b6dd8-70dd-44e2-b2da-7416379d6042"},"vehicle_type_id":"4","last_reported":1737648693,"current_range_meters":38800,"station_id":"ce4bhg92rcd13ifvqf90","pricing_plan_id":"cebpf4jnsgd1na2vs0mg"},{"bike_id":"0683b8fa-bf66-4a85-b23f-305b1ef8e2c5","system_id":"levelo_inurba_marseille","lat":43.29899,"lon":5.43666,"is_reserved":false,"is_disabled":false,"rental_uris":{"android":"levelo://app?vid=0683b8fa-bf66-4a85-b23f-305b1ef8e2c5","ios":"levelo://app?vid=0683b8fa-bf66-4a85-b23f-305b1ef8e2c5"},"vehicle_type_id":"4","last_reported":1737648693,"current_range_meters":17600,"station_id":"ce4bhpp2rcd13ifvqhfg","pricing_plan_id":"cebpf4jnsgd1na2vs0mg"},{"bike_id":"fd7692f4-42fc-4e6c-a407-0b756c3076d2","system_id":"levelo_inurba_marseille","lat":43.31993,"lon":5.38158,"is_reserved":false,"is_disabled":false,"rental_uris":{"android":"levelo://app?vid=fd7692f4-42fc-4e6c-a407-0b756c3076d2","ios":"levelo://app?vid=fd7692f4-42fc-4e6c-a407-0b756c3076d2"},"vehicle_type_id":"4","last_reported":1737648693,"current_range_meters":36000,"station_id":"ce4bhr12rcd13ifvqhpg","pricing_plan_id":"cebpf4jnsgd1na2vs0mg"},{"bike_id":"b3b5b932-530e-4eb5-a4c5-218abc82b7aa","system_id":"levelo_inurba_marseille","lat":43.32656,"lon":5.40995,"is_reserved":false,"is_disabled":false,"rental_uris":{"android":"levelo://app?vid=b3b5b932-530e-4eb5-a4c5-218abc82b7aa","ios":"levelo://app?vid=b3b5b932-530e-4eb5-a4c5-218abc82b7aa"},"vehicle_type_id":"4","last_reported":1737648693,"current_range_meters":25200,"station_id":"ce4bhpp2rcd13ifvqhgg","pricing_plan_id":"cebpf4jnsgd1na2vs0mg"},{"bike_id":"b1d5e3e3-5809-49c4-ba43-6a350b34f096","system_id":"levelo_inurba_marseille","lat":43.29419,"lon":5.38632,"is_reserved":false,"is_disabled":false,"rental_uris":{"android":"levelo://app?vid=b1d5e3e3-5809-49c4-ba43-6a350b34f096","ios":"levelo://app?vid=b1d5e3e3-5809-49c4-ba43-6a350b34f096"},"vehicle_type_id":"4","last_reported":1737648693,"current_range_meters":36400,"station_id":"ce4bh2h2rcd13ifvqdh0","pricing_plan_id":"cebpf4jnsgd1na2vs0mg"},{"bike_id":"e79b40fa-6e2c-4974-8b66-16e2e815ff75","system_id":"levelo_inurba_marseille","lat":43.255,"lon":5.37656,"is_reserved":false,"is_disabled":false,"rental_uris":{"android":"levelo://app?vid=e79b40fa-6e2c-4974-8b66-16e2e815ff75","ios":"levelo://app?vid=e79b40fa-6e2c-4974-8b66-16e2e815ff75"},"vehicle_type_id":"4","last_reported":1737648693,"current_range_meters":34800,"station_id":"ce4bhh12rcd13ifvqff0","pricing_plan_id":"cebpf4jnsgd1na2vs0mg"},{"bike_id":"ce9b6775-622a-4006-8fb5-f269869a0dfc","system_id":"levelo_inurba_marseille","lat":43.31359,"lon":5.38506,"is_reserved":false,"is_disabled":true,"rental_uris":{"android":"levelo://app?vid=ce9b6775-622a-4006-8fb5-f269869a0dfc","ios":"levelo://app?vid=ce9b6775-622a-4006-8fb5-f269869a0dfc"},"vehicle_type_id":"4","last_reported":1737648693,"current_range_meters":30000,"station_id":"ce4bgt92rcd13ifvqcf0","pricing_plan_id":"cebpf4jnsgd1na2vs0mg"},{"bike_id":"73437ec1-c49c-4c1d-87bb-5c89656ded36","system_id":"levelo_inurba_marseille","lat":43.30529,"lon":5.36712,"is_reserved":false,"is_disabled":false,"rental_uris":{"android":"levelo://app?vid=73437ec1-c49c-4c1d-87bb-5c89656ded36","ios":"levelo://app?vid=73437ec1-c49c-4c1d-87bb-5c89656ded36"},"vehicle_type_id":"4","last_reported":1737648693,"current_range_meters":38800,"station_id":"ce4bgrp2rcd13ifvqc9g","pricing_plan_id":"cebpf4jnsgd1na2vs0mg"},{"bike_id":"c709a6f6-06c6-414a-b7e4-50a0683e65e2","system_id":"levelo_inurba_marseille","lat":43.27615,"lon":5.36111,"is_reserved":false,"is_disabled":false,"rental_uris":{"android":"levelo://app?vid=c709a6f6-06c6-414a-b7e4-50a0683e65e2","ios":"levelo://app?vid=c709a6f6-06c6-414a-b7e4-50a0683e65e2"},"vehicle_type_id":"4","last_reported":1737648693,"current_range_meters":24800,"station_id":"ce4bgj92rcd13ifvqbe0","pricing_plan_id":"cebpf4jnsgd1na2vs0mg"},{"bike_id":"6ce5c547-9f54-48ce-a96b-554b463fae39","system_id":"levelo_inurba_marseille","lat":43.24071,"lon":5.37766,"is_reserved":false,"is_disabled":false,"rental_uris":{"android":"levelo://app?vid=6ce5c547-9f54-48ce-a96b-554b463fae39","ios":"levelo://app?vid=6ce5c547-9f54-48ce-a96b-554b463fae39"},"vehicle_type_id":"4","last_reported":1737648693,"current_range_meters":22000,"station_id":"ce4bhnp2rcd13ifvqgvg","pricing_plan_id":"cebpf4jnsgd1na2vs0mg"},{"bike_id":"f84420e5-6846-4ef8-bc68-fe1a73dffea4","system_id":"levelo_inurba_marseille","lat":43.29418,"lon":5.38624,"is_reserved":false,"is_disabled":false,"rental_uris":{"android":"levelo://app?vid=f84420e5-6846-4ef8-bc68-fe1a73dffea4","ios":"levelo://app?vid=f84420e5-6846-4ef8-bc68-fe1a73dffea4"},"vehicle_type_id":"4","last_reported":1737648693,"current_range_meters":27600,"station_id":"ce4bh2h2rcd13ifvqdh0","pricing_plan_id":"cebpf4jnsgd1na2vs0mg"},{"bike_id":"6430b4be-9b3b-400c-84f4-c4ff28229b18","system_id":"levelo_inurba_marseille","lat":43.28098,"lon":5.37848,"is_reserved":false,"is_disabled":false,"rental_uris":{"android":"levelo://app?vid=6430b4be-9b3b-400c-84f4-c4ff28229b18","ios":"levelo://app?vid=6430b4be-9b3b-400c-84f4-c4ff28229b18"},"vehicle_type_id":"4","last_reported":1737648693,"current_range_meters":28800,"station_id":"ce4bha12rcd13ifvqee0","pricing_plan_id":"cebpf4jnsgd1na2vs0mg"},{"bike_id":"03921c1c-920c-44b2-9197-b3dc2c1e5087","system_id":"levelo_inurba_marseille","lat":43.28153,"lon":5.42642,"is_reserved":false,"is_disabled":false,"rental_uris":{"android":"levelo://app?vid=03921c1c-920c-44b2-9197-b3dc2c1e5087","ios":"levelo://app?vid=03921c1c-920c-44b2-9197-b3dc2c1e5087"},"vehicle_type_id":"4","last_reported":1737648693,"current_range_meters":30400,"station_id":"ce4bhnh2rcd13ifvqgug","pricing_plan_id":"cebpf4jnsgd1na2vs0mg"},{"bike_id":"ddd963ba-9a0c-435b-be45-69b594dc5944","system_id":"levelo_inurba_marseille","lat":43.25109,"lon":5.4033,"is_reserved":false,"is_disabled":false,"rental_uris":{"android":"levelo://app?vid=ddd963ba-9a0c-435b-be45-69b594dc5944","ios":"levelo://app?vid=ddd963ba-9a0c-435b-be45-69b594dc5944"},"vehicle_type_id":"4","last_reported":1737648693,"current_range_meters":22800,"station_id":"ce4bhlh2rcd13ifvqgig","pricing_plan_id":"cebpf4jnsgd1na2vs0mg"},{"bike_id":"4e5d60ec-0af3-4f8c-b469-ebb95fbf6d85","system_id":"levelo_inurba_marseille","lat":43.28704,"lon":5.37385,"is_reserved":false,"is_disabled":false,"rental_uris":{"android":"levelo://app?vid=4e5d60ec-0af3-4f8c-b469-ebb95fbf6d85","ios":"levelo://app?vid=4e5d60ec-0af3-4f8c-b469-ebb95fbf6d85"},"vehicle_type_id":"4","last_reported":1737648693,"current_range_meters":11200,"station_id":"ce4bh3p2rcd13ifvqdq0","pricing_plan_id":"cebpf4jnsgd1na2vs0mg"},{"bike_id":"4b50bc4c-b085-478e-a97b-9c11f4c46896","system_id":"levelo_inurba_marseille","lat":43.31489,"lon":5.37265,"is_reserved":false,"is_disabled":false,"rental_uris":{"android":"levelo://app?vid=4b50bc4c-b085-478e-a97b-9c11f4c46896","ios":"levelo://app?vid=4b50bc4c-b085-478e-a97b-9c11f4c46896"},"vehicle_type_id":"4","last_reported":1737648693,"current_range_meters":38800,"station_id":"ce4bgt12rcd13ifvqcd0","pricing_plan_id":"cebpf4jnsgd1na2vs0mg"},{"bike_id":"de7118bf-ca6e-4b12-b657-decea3c7ab02","system_id":"levelo_inurba_marseille","lat":43.26935,"lon":5.38927,"is_reserved":false,"is_disabled":false,"rental_uris":{"android":"levelo://app?vid=de7118bf-ca6e-4b12-b657-decea3c7ab02","ios":"levelo://app?vid=de7118bf-ca6e-4b12-b657-decea3c7ab02"},"vehicle_type_id":"4","last_reported":1737648693,"current_range_meters":38400,"station_id":"ce4bhhh2rcd13ifvqfl0","pricing_plan_id":"cebpf4jnsgd1na2vs0mg"},{"bike_id":"54aca84e-06a2-42f9-82f0-807c1ed11713","system_id":"levelo_inurba_marseille","lat":43.274203,"lon":5.394139,"is_reserved":false,"is_disabled":false,"rental_uris":{"android":"levelo://app?vid=54aca84e-06a2-42f9-82f0-807c1ed11713","ios":"levelo://app?vid=54aca84e-06a2-42f9-82f0-807c1ed11713"},"vehicle_type_id":"4","last_reported":1737648693,"current_range_meters":36000,"station_id":"ce4bho92rcd13ifvqh4g","pricing_plan_id":"cebpf4jnsgd1na2vs0mg"},{"bike_id":"a7792e6b-e27d-430a-a466-afe28d5c54ba","system_id":"levelo_inurba_marseille","lat":43.29921,"lon":5.37467,"is_reserved":false,"is_disabled":false,"rental_uris":{"android":"levelo://app?vid=a7792e6b-e27d-430a-a466-afe28d5c54ba","ios":"levelo://app?vid=a7792e6b-e27d-430a-a466-afe28d5c54ba"},"vehicle_type_id":"4","last_reported":1737648693,"current_range_meters":36400,"station_id":"ce4bgjh2rcd13ifvqbg0","pricing_plan_id":"cebpf4jnsgd1na2vs0mg"},{"bike_id":"9ba858d3-e901-429a-bdd4-ce4e7a30e8c1","system_id":"levelo_inurba_marseille","lat":43.29324,"lon":5.37911,"is_reserved":false,"is_disabled":false,"rental_uris":{"android":"levelo://app?vid=9ba858d3-e901-429a-bdd4-ce4e7a30e8c1","ios":"levelo://app?vid=9ba858d3-e901-429a-bdd4-ce4e7a30e8c1"},"vehicle_type_id":"4","last_reported":1737648693,"current_range_meters":36000,"station_id":"ce4bgjh2rcd13ifvqbf0","pricing_plan_id":"cebpf4jnsgd1na2vs0mg"},{"bike_id":"8b8929bc-4b9f-45f1-9607-384009214396","system_id":"levelo_inurba_marseille","lat":43.25728,"lon":5.41098,"is_reserved":false,"is_disabled":true,"rental_uris":{"android":"levelo://app?vid=8b8929bc-4b9f-45f1-9607-384009214396","ios":"levelo://app?vid=8b8929bc-4b9f-45f1-9607-384009214396"},"vehicle_type_id":"4","last_reported":1737648693,"current_range_meters":1600,"station_id":"ce4bhkp2rcd13ifvqgd0","pricing_plan_id":"cebpf4jnsgd1na2vs0mg"},{"bike_id":"5801677c-5c9e-41fa-89e2-fe61a9da5268","system_id":"levelo_inurba_marseille","lat":43.25584,"lon":5.3823,"is_reserved":false,"is_disabled":false,"rental_uris":{"android":"levelo://app?vid=5801677c-5c9e-41fa-89e2-fe61a9da5268","ios":"levelo://app?vid=5801677c-5c9e-41fa-89e2-fe61a9da5268"},"vehicle_type_id":"4","last_reported":1737648693,"current_range_meters":17600,"station_id":"ce4bhih2rcd13ifvqfs0","pricing_plan_id":"cebpf4jnsgd1na2vs0mg"},{"bike_id":"cd55c2c7-29f9-4ba5-bfba-8cef9f722c7d","system_id":"levelo_inurba_marseille","lat":43.29784,"lon":5.39355,"is_reserved":false,"is_disabled":false,"rental_uris":{"android":"levelo://app?vid=cd55c2c7-29f9-4ba5-bfba-8cef9f722c7d","ios":"levelo://app?vid=cd55c2c7-29f9-4ba5-bfba-8cef9f722c7d"},"vehicle_type_id":"4","last_reported":1737648693,"current_range_meters":29600,"station_id":"chh1huq6cuj3fo74tm60","pricing_plan_id":"cebpf4jnsgd1na2vs0mg"},{"bike_id":"d8798bf2-8d82-406c-a476-126705363321","system_id":"levelo_inurba_marseille","lat":43.29732,"lon":5.37686,"is_reserved":false,"is_disabled":false,"rental_uris":{"android":"levelo://app?vid=d8798bf2-8d82-406c-a476-126705363321","ios":"levelo://app?vid=d8798bf2-8d82-406c-a476-126705363321"},"vehicle_type_id":"4","last_reported":1737648693,"current_range_meters":39200,"station_id":"ce4bgkh2rcd13ifvqbl0","pricing_plan_id":"cebpf4jnsgd1na2vs0mg"},{"bike_id":"60917f5a-6d11-43b9-947a-12233b99656f","system_id":"levelo_inurba_marseille","lat":43.28408,"lon":5.37507,"is_reserved":false,"is_disabled":false,"rental_uris":{"android":"levelo://app?vid=60917f5a-6d11-43b9-947a-12233b99656f","ios":"levelo://app?vid=60917f5a-6d11-43b9-947a-12233b99656f"},"vehicle_type_id":"4","last_reported":1737648693,"current_range_meters":6400,"station_id":"ce4bh412rcd13ifvqds0","pricing_plan_id":"cebpf4jnsgd1na2vs0mg"},{"bike_id":"4f8c3ef4-8f83-4dd3-9449-8c0a37ac7169","system_id":"levelo_inurba_marseille","lat":43.28271,"lon":5.35061,"is_reserved":false,"is_disabled":false,"rental_uris":{"android":"levelo://app?vid=4f8c3ef4-8f83-4dd3-9449-8c0a37ac7169","ios":"levelo://app?vid=4f8c3ef4-8f83-4dd3-9449-8c0a37ac7169"},"vehicle_type_id":"4","last_reported":1737648693,"current_range_meters":3200,"station_id":"ce4bhbp2rcd13ifvqerg","pricing_plan_id":"cebpf4jnsgd1na2vs0mg"},{"bike_id":"2512f82c-59f4-4f85-8cd3-133991d6f7a4","system_id":"levelo_inurba_marseille","lat":43.31719,"lon":5.43693,"is_reserved":false,"is_disabled":false,"rental_uris":{"android":"levelo://app?vid=2512f82c-59f4-4f85-8cd3-133991d6f7a4","ios":"levelo://app?vid=2512f82c-59f4-4f85-8cd3-133991d6f7a4"},"vehicle_type_id":"4","last_reported":1737648693,"current_range_meters":30400,"station_id":"ce4bhp92rcd13ifvqhcg","pricing_plan_id":"cebpf4jnsgd1na2vs0mg"},{"bike_id":"41c63cd8-be63-454f-ad49-e8ffaabe7de5","system_id":"levelo_inurba_marseille","lat":43.29876,"lon":5.38903,"is_reserved":false,"is_disabled":false,"rental_uris":{"android":"levelo://app?vid=41c63cd8-be63-454f-ad49-e8ffaabe7de5","ios":"levelo://app?vid=41c63cd8-be63-454f-ad49-e8ffaabe7de5"},"vehicle_type_id":"4","last_reported":1737648693,"current_range_meters":32000,"station_id":"ce4bh392rcd13ifvqdl0","pricing_plan_id":"cebpf4jnsgd1na2vs0mg"},{"bike_id":"3c9d5d82-e531-4fce-b24d-74c2797405a3","system_id":"levelo_inurba_marseille","lat":43.3236,"lon":5.36767,"is_reserved":false,"is_disabled":false,"rental_uris":{"android":"levelo://app?vid=3c9d5d82-e531-4fce-b24d-74c2797405a3","ios":"levelo://app?vid=3c9d5d82-e531-4fce-b24d-74c2797405a3"},"vehicle_type_id":"4","last_reported":1737648693,"current_range_meters":16000,"station_id":"ce4bhsh2rcd13ifvqi2g","pricing_plan_id":"cebpf4jnsgd1na2vs0mg"},{"bike_id":"e7ac4ec6-432e-4ab9-a340-7a0f45957c4e","system_id":"levelo_inurba_marseille","lat":43.33705,"lon":5.39226,"is_reserved":false,"is_disabled":false,"rental_uris":{"android":"levelo://app?vid=e7ac4ec6-432e-4ab9-a340-7a0f45957c4e","ios":"levelo://app?vid=e7ac4ec6-432e-4ab9-a340-7a0f45957c4e"},"vehicle_type_id":"4","last_reported":1737648693,"current_range_meters":38800,"station_id":"ce4bhr92rcd13ifvqhsg","pricing_plan_id":"cebpf4jnsgd1na2vs0mg"},{"bike_id":"9ebe6da3-99b5-4623-a8f5-c14708d586f4","system_id":"levelo_inurba_marseille","lat":43.29856,"lon":5.36276,"is_reserved":false,"is_disabled":false,"rental_uris":{"android":"levelo://app?vid=9ebe6da3-99b5-4623-a8f5-c14708d586f4","ios":"levelo://app?vid=9ebe6da3-99b5-4623-a8f5-c14708d586f4"},"vehicle_type_id":"4","last_reported":1737648693,"current_range_meters":38800,"station_id":"ce4bgpp2rcd13ifvqc3g","pricing_plan_id":"cebpf4jnsgd1na2vs0mg"},{"bike_id":"291dd99a-a228-4e63-8f34-8f7b833624b8","system_id":"levelo_inurba_marseille","lat":43.31268,"lon":5.36848,"is_reserved":false,"is_disabled":false,"rental_uris":{"android":"levelo://app?vid=291dd99a-a228-4e63-8f34-8f7b833624b8","ios":"levelo://app?vid=291dd99a-a228-4e63-8f34-8f7b833624b8"},"vehicle_type_id":"4","last_reported":1737648693,"current_range_meters":15200,"station_id":"ce4bgl92rcd13ifvqbq0","pricing_plan_id":"cebpf4jnsgd1na2vs0mg"},{"bike_id":"c59d6775-753e-48d1-9189-3a5e1e003e25","system_id":"levelo_inurba_marseille","lat":43.29032,"lon":5.38644,"is_reserved":false,"is_disabled":false,"rental_uris":{"android":"levelo://app?vid=c59d6775-753e-48d1-9189-3a5e1e003e25","ios":"levelo://app?vid=c59d6775-753e-48d1-9189-3a5e1e003e25"},"vehicle_type_id":"4","last_reported":1737648693,"current_range_meters":22800,"station_id":"ce4bh4p2rcd13ifvqe0g","pricing_plan_id":"cebpf4jnsgd1na2vs0mg"},{"bike_id":"1fe9a02e-8c9d-4be3-baa6-af3e29a29caf","system_id":"levelo_inurba_marseille","lat":43.28073,"lon":5.39659,"is_reserved":false,"is_disabled":false,"rental_uris":{"android":"levelo://app?vid=1fe9a02e-8c9d-4be3-baa6-af3e29a29caf","ios":"levelo://app?vid=1fe9a02e-8c9d-4be3-baa6-af3e29a29caf"},"vehicle_type_id":"4","last_reported":1737648693,"current_range_meters":32000,"station_id":"ce4bho12rcd13ifvqh2g","pricing_plan_id":"cebpf4jnsgd1na2vs0mg"},{"bike_id":"377cf596-c5f6-4372-a2ba-bf771e74233e","system_id":"levelo_inurba_marseille","lat":43.28667,"lon":5.3636,"is_reserved":false,"is_disabled":false,"rental_uris":{"android":"levelo://app?vid=377cf596-c5f6-4372-a2ba-bf771e74233e","ios":"levelo://app?vid=377cf596-c5f6-4372-a2ba-bf771e74233e"},"vehicle_type_id":"4","last_reported":1737648693,"current_range_meters":28400,"station_id":"ce4bhah2rcd13ifvqej0","pricing_plan_id":"cebpf4jnsgd1na2vs0mg"},{"bike_id":"4756969f-b769-43a9-8978-4908b8b5e2aa","system_id":"levelo_inurba_marseille","lat":43.26709,"lon":5.38271,"is_reserved":false,"is_disabled":false,"rental_uris":{"android":"levelo://app?vid=4756969f-b769-43a9-8978-4908b8b5e2aa","ios":"levelo://app?vid=4756969f-b769-43a9-8978-4908b8b5e2aa"},"vehicle_type_id":"4","last_reported":1737648693,"current_range_meters":8000,"station_id":"ce4bhg92rcd13ifvqf90","pricing_plan_id":"cebpf4jnsgd1na2vs0mg"},{"bike_id":"484398c3-2589-4c10-bc02-a2296f04f55f","system_id":"levelo_inurba_marseille","lat":43.28384,"lon":5.3867,"is_reserved":false,"is_disabled":false,"rental_uris":{"android":"levelo://app?vid=484398c3-2589-4c10-bc02-a2296f04f55f","ios":"levelo://app?vid=484398c3-2589-4c10-bc02-a2296f04f55f"},"vehicle_type_id":"4","last_reported":1737648693,"current_range_meters":31200,"station_id":"ce4bh492rcd13ifvqdvg","pricing_plan_id":"cebpf4jnsgd1na2vs0mg"},{"bike_id":"09516abb-444a-4ef2-87fb-422fef2a7c18","system_id":"levelo_inurba_marseille","lat":43.29881,"lon":5.36257,"is_reserved":false,"is_disabled":false,"rental_uris":{"android":"levelo://app?vid=09516abb-444a-4ef2-87fb-422fef2a7c18","ios":"levelo://app?vid=09516abb-444a-4ef2-87fb-422fef2a7c18"},"vehicle_type_id":"4","last_reported":1737648693,"current_range_meters":23200,"station_id":"ce4bgpp2rcd13ifvqc3g","pricing_plan_id":"cebpf4jnsgd1na2vs0mg"},{"bike_id":"56384c4a-1eca-4cfb-a8e4-67ae38eda8fd","system_id":"levelo_inurba_marseille","lat":43.30644,"lon":5.40107,"is_reserved":false,"is_disabled":false,"rental_uris":{"android":"levelo://app?vid=56384c4a-1eca-4cfb-a8e4-67ae38eda8fd","ios":"levelo://app?vid=56384c4a-1eca-4cfb-a8e4-67ae38eda8fd"},"vehicle_type_id":"4","last_reported":1737648693,"current_range_meters":24400,"station_id":"ce4bh112rcd13ifvqda0","pricing_plan_id":"cebpf4jnsgd1na2vs0mg"},{"bike_id":"580c7e60-fec9-4226-b1a9-e6cc1877b79c","system_id":"levelo_inurba_marseille","lat":43.290317,"lon":5.37559,"is_reserved":false,"is_disabled":false,"rental_uris":{"android":"levelo://app?vid=580c7e60-fec9-4226-b1a9-e6cc1877b79c","ios":"levelo://app?vid=580c7e60-fec9-4226-b1a9-e6cc1877b79c"},"vehicle_type_id":"4","last_reported":1737648693,"current_range_meters":27200,"station_id":"ce4bh692rcd13ifvqe90","pricing_plan_id":"cebpf4jnsgd1na2vs0mg"},{"bike_id":"6fd73f4f-1954-4782-9e90-de7f65b3c67c","system_id":"levelo_inurba_marseille","lat":43.31755,"lon":5.39014,"is_reserved":false,"is_disabled":false,"rental_uris":{"android":"levelo://app?vid=6fd73f4f-1954-4782-9e90-de7f65b3c67c","ios":"levelo://app?vid=6fd73f4f-1954-4782-9e90-de7f65b3c67c"},"vehicle_type_id":"4","last_reported":1737648693,"current_range_meters":38800,"station_id":"ce4bhqp2rcd13ifvqhng","pricing_plan_id":"cebpf4jnsgd1na2vs0mg"},{"bike_id":"7db52b9f-ce79-4063-a90d-1d006402972c","system_id":"levelo_inurba_marseille","lat":43.323648,"lon":5.367604,"is_reserved":false,"is_disabled":false,"rental_uris":{"android":"levelo://app?vid=7db52b9f-ce79-4063-a90d-1d006402972c","ios":"levelo://app?vid=7db52b9f-ce79-4063-a90d-1d006402972c"},"vehicle_type_id":"4","last_reported":1737648693,"current_range_meters":25600,"station_id":"ce4bhsh2rcd13ifvqi2g","pricing_plan_id":"cebpf4jnsgd1na2vs0mg"},{"bike_id":"40f4a98e-adc2-4e25-b01a-95afec24429a","system_id":"levelo_inurba_marseille","lat":43.2781,"lon":5.40704,"is_reserved":false,"is_disabled":false,"rental_uris":{"android":"levelo://app?vid=40f4a98e-adc2-4e25-b01a-95afec24429a","ios":"levelo://app?vid=40f4a98e-adc2-4e25-b01a-95afec24429a"},"vehicle_type_id":"4","last_reported":1737648693,"current_range_meters":33200,"station_id":"ce4bhnh2rcd13ifvqgtg","pricing_plan_id":"cebpf4jnsgd1na2vs0mg"},{"bike_id":"6f91d618-21e7-4346-9444-3a1bb0416f40","system_id":"levelo_inurba_marseille","lat":43.29892,"lon":5.43675,"is_reserved":false,"is_disabled":false,"rental_uris":{"android":"levelo://app?vid=6f91d618-21e7-4346-9444-3a1bb0416f40","ios":"levelo://app?vid=6f91d618-21e7-4346-9444-3a1bb0416f40"},"vehicle_type_id":"4","last_reported":1737648693,"current_range_meters":24000,"station_id":"ce4bhpp2rcd13ifvqhfg","pricing_plan_id":"cebpf4jnsgd1na2vs0mg"},{"bike_id":"66e2b2a3-ad8d-4342-978a-ecc4b2ad37b5","system_id":"levelo_inurba_marseille","lat":43.31342,"lon":5.39676,"is_reserved":false,"is_disabled":false,"rental_uris":{"android":"levelo://app?vid=66e2b2a3-ad8d-4342-978a-ecc4b2ad37b5","ios":"levelo://app?vid=66e2b2a3-ad8d-4342-978a-ecc4b2ad37b5"},"vehicle_type_id":"4","last_reported":1737648693,"current_range_meters":18000,"station_id":"ce4bgvp2rcd13ifvqcu0","pricing_plan_id":"cebpf4jnsgd1na2vs0mg"},{"bike_id":"1a02b468-78cf-4297-a7e5-bc4d83011429","system_id":"levelo_inurba_marseille","lat":43.31229,"lon":5.36843,"is_reserved":false,"is_disabled":false,"rental_uris":{"android":"levelo://app?vid=1a02b468-78cf-4297-a7e5-bc4d83011429","ios":"levelo://app?vid=1a02b468-78cf-4297-a7e5-bc4d83011429"},"vehicle_type_id":"4","last_reported":1737648693,"current_range_meters":10800,"station_id":"ce4bgl92rcd13ifvqbq0","pricing_plan_id":"cebpf4jnsgd1na2vs0mg"},{"bike_id":"c87a4585-d4b3-4b20-9858-3350807f5893","system_id":"levelo_inurba_marseille","lat":43.28476,"lon":5.38548,"is_reserved":false,"is_disabled":false,"rental_uris":{"android":"levelo://app?vid=c87a4585-d4b3-4b20-9858-3350807f5893","ios":"levelo://app?vid=c87a4585-d4b3-4b20-9858-3350807f5893"},"vehicle_type_id":"4","last_reported":1737648693,"current_range_meters":38800,"station_id":"ce4bh8p2rcd13ifvqeb0","pricing_plan_id":"cebpf4jnsgd1na2vs0mg"},