{"last_updated":1743750611,"ttl":60,"version":"2.2","data":{"bikes":[{"bike_id":"1b70eea0-1caf-4e00-bd96-faedadf63d77","system_id":"levelo_inurba_marseille","lat":43.24083,"lon":5.37762,"is_reserved":false,"is_disabled":false,"rental_uris":{"android":"levelo://app?vid=1b70eea0-1caf-4e00-bd96-faedadf63d77","ios":"levelo://app?vid=1b70eea0-1caf-4e00-bd96-faedadf63d77"},"vehicle_type_id":"4","last_reported":1743750611,"current_range_meters":2800,"station_id":"ce4bhnp2rcd13ifvqgvg","pricing_plan_id":"cebpf4jnsgd1na2vs0mg"},{"bike_id":"6a618f83-63e3-4800-9dcf-8e774c1eca02","system_id":"levelo_inurba_marseille","lat":43.2928,"lon":5.36846,"is_reserved":false,"is_disabled":false,"rental_uris":{"android":"levelo://app?vid=6a618f83-63e3-4800-9dcf-8e774c1eca02","ios":"levelo://app?vid=6a618f83-63e3-4800-9dcf-8e774c1eca02"},"vehicle_type_id":"4","last_reported":1743750611,"current_range_meters":2800,"station_id":"ce4bhbp2rcd13ifvqesg","pricing_plan_id":"cebpf4jnsgd1na2vs0mg"},{"bike_id":"95cc1559-19df-4baa-bf2f-c95b3fbda069","system_id":"levelo_inurba_marseille","lat":43.2749,"lon":5.42454,"is_reserved":false,"is_disabled":false,"rental_uris":{"android":"levelo://app?vid=95cc1559-19df-4baa-bf2f-c95b3fbda069","ios":"levelo://app?vid=95cc1559-19df-4baa-bf2f-c95b3fbda069"},"vehicle_type_id":"4","last_reported":1743750611,"current_range_meters":2800,"station_id":"ce4bhn92rcd13ifvqgrg","pricing_plan_id":"cebpf4jnsgd1na2vs0mg"},{"bike_id":"6e0ac892-eb5a-4e58-b40d-44ea2a6de718","system_id":"levelo_inurba_marseille","lat":43.23205,"lon":5.35555,"is_reserved":false,"is_disabled":false,"rental_uris":{"android":"levelo://app?vid=6e0ac892-eb5a-4e58-b40d-44ea2a6de718","ios":"levelo://app?vid=6e0ac892-eb5a-4e58-b40d-44ea2a6de718"},"vehicle_type_id":"4","last_reported":1743750611,"current_range_meters":2800,"station_id":"ce4bhu92rcd13ifvqi70","pricing_plan_id":"cebpf4jnsgd1na2vs0mg"},{"bike_id":"59cc0335-bc7c-4f7c-b695-a5cff05bf6b1","system_id":"levelo_inurba_marseille","lat":43.33603,"lon":5.41035,"is_reserved":false,"is_disabled":false,"rental_uris":{"android":"levelo://app?vid=59cc0335-bc7c-4f7c-b695-a5cff05bf6b1","ios":"levelo://app?vid=59cc0335-bc7c-4f7c-b695-a5cff05bf6b1"},"vehicle_type_id":"4","last_reported":1743750611,"current_range_meters":2800,"station_id":"ce4bhqh2rcd13ifvqhmg","pricing_plan_id":"cebpf4jnsgd1na2vs0mg"},{"bike_id":"95b2dba6-3cf3-44db-bc87-502efd8e4af6","system_id":"levelo_inurba_marseille","lat":43.2767,"lon":5.38887,"is_reserved":false,"is_disabled":false,"rental_uris":{"android":"levelo://app?vid=95b2dba6-3cf3-44db-bc87-502efd8e4af6","ios":"levelo://app?vid=95b2dba6-3cf3-44db-bc87-502efd8e4af6"},"vehicle_type_id":"4","last_reported":1743750611,"current_range_meters":3200,"station_id":"ce4bhi12rcd13ifvqfo0","pricing_plan_id":"cebpf4jnsgd1na2vs0mg"},{"bike_id":"9d13c440-da3b-4535-b70d-8105619f88bd","system_id":"levelo_inurba_marseille","lat":43.323642,"lon":5.38891,"is_reserved":false,"is_disabled":true,"rental_uris":{"android":"levelo://app?vid=9d13c440-da3b-4535-b70d-8105619f88bd","ios":"levelo://app?vid=9d13c440-da3b-4535-b70d-8105619f88bd"},"vehicle_type_id":"4","last_reported":1743750611,"current_range_meters":3200,"station_id":"ce4bhqp2rcd13ifvqhog","pricing_plan_id":"cebpf4jnsgd1na2vs0mg"},{"bike_id":"f87e996c-206a-47d9-8697-84a2d463fdc3","system_id":"levelo_inurba_marseille","lat":43.23187,"lon":5.35561,"is_reserved":false,"is_disabled":false,"rental_uris":{"android":"levelo://app?vid=f87e996c-206a-47d9-8697-84a2d463fdc3","ios":"levelo://app?vid=f87e996c-206a-47d9-8697-84a2d463fdc3"},"vehicle_type_id":"4","last_reported":1743750611,"current_range_meters":3200,"station_id":"ce4bhu92rcd13ifvqi70","pricing_plan_id":"cebpf4jnsgd1na2vs0mg"},{"bike_id":"c34938d9-8df5-43a6-875c-8fd80461c037","system_id":"levelo_inurba_marseille","lat":43.2731,"lon":5.39111,"is_reserved":false,"is_disabled":false,"rental_uris":{"android":"levelo://app?vid=c34938d9-8df5-43a6-875c-8fd80461c037","ios":"levelo://app?vid=c34938d9-8df5-43a6-875c-8fd80461c037"},"vehicle_type_id":"4","last_reported":1743750611,"current_range_meters":3200,"station_id":"ce4bhgp2rcd13ifvqfe0","pricing_plan_id":"cebpf4jnsgd1na2vs0mg"},{"bike_id":"cdd58a93-b82b-4f86-b712-63c2b463db2f","system_id":"levelo_inurba_marseille","lat":43.26564,"lon":5.39005,"is_reserved":false,"is_disabled":false,"rental_uris":{"android":"levelo://app?vid=cdd58a93-b82b-4f86-b712-63c2b463db2f","ios":"levelo://app?vid=cdd58a93-b82b-4f86-b712-63c2b463db2f"},"vehicle_type_id":"4","last_reported":1743750611,"current_range_meters":3200,"station_id":"ce4bhe12rcd13ifvqf30","pricing_plan_id":"cebpf4jnsgd1na2vs0mg"},{"bike_id":"cc67574a-def3-4317-8cc1-ac8464d3ee06","system_id":"levelo_inurba_marseille","lat":43.29167,"lon":5.37158,"is_reserved":false,"is_disabled":false,"rental_uris":{"android":"levelo://app?vid=cc67574a-def3-4317-8cc1-ac8464d3ee06","ios":"levelo://app?vid=cc67574a-def3-4317-8cc1-ac8464d3ee06"},"vehicle_type_id":"4","last_reported":1743750611,"current_range_meters":2800,"station_id":"ce4bha92rcd13ifvqeh0","pricing_plan_id":"cebpf4jnsgd1na2vs0mg"},{"bike_id":"a9f87a76-189b-4ef6-ab51-2b2d098104a2","system_id":"levelo_inurba_marseille","lat":43.27215,"lon":5.39184,"is_reserved":false,"is_disabled":false,"rental_uris":{"android":"levelo://app?vid=a9f87a76-189b-4ef6-ab51-2b2d098104a2","ios":"levelo://app?vid=a9f87a76-189b-4ef6-ab51-2b2d098104a2"},"vehicle_type_id":"4","last_reported":1743750611,"current_range_meters":2800,"station_id":"ce4bhhp2rcd13ifvqfm0","pricing_plan_id":"cebpf4jnsgd1na2vs0mg"},{"bike_id":"1802a5d2-8fe8-4604-997a-2ebcd4c38c9a","system_id":"levelo_inurba_marseille","lat":43.32366,"lon":5.36764,"is_reserved":false,"is_disabled":false,"rental_uris":{"android":"levelo://app?vid=1802a5d2-8fe8-4604-997a-2ebcd4c38c9a","ios":"levelo://app?vid=1802a5d2-8fe8-4604-997a-2ebcd4c38c9a"},"vehicle_type_id":"4","last_reported":1743750611,"current_range_meters":3600,"station_id":"ce4bhsh2rcd13ifvqi2g","pricing_plan_id":"cebpf4jnsgd1na2vs0mg"},{"bike_id":"4fdff7f0-f70f-4161-90cd-f94235f8a056","system_id":"levelo_inurba_marseille","lat":43.25102,"lon":5.40323,"is_reserved":false,"is_disabled":false,"rental_uris":{"android":"levelo://app?vid=4fdff7f0-f70f-4161-90cd-f94235f8a056","ios":"levelo://app?vid=4fdff7f0-f70f-4161-90cd-f94235f8a056"},"vehicle_type_id":"4","last_reported":1743750611,"current_range_meters":3600,"station_id":"ce4bhlh2rcd13ifvqgig","pricing_plan_id":"cebpf4jnsgd1na2vs0mg"},{"bike_id":"73d80700-af3e-4b57-b471-6a30c2e59c3e","system_id":"levelo_inurba_marseille","lat":43.25674,"lon":5.39745,"is_reserved":false,"is_disabled":false,"rental_uris":{"android":"levelo://app?vid=73d80700-af3e-4b57-b471-6a30c2e59c3e","ios":"levelo://app?vid=73d80700-af3e-4b57-b471-6a30c2e59c3e"},"vehicle_type_id":"4","last_reported":1743750611,"current_range_meters":3600,"station_id":"","pricing_plan_id":"cebpf4jnsgd1na2vs0mg"},{"bike_id":"dde5d947-0c24-4f20-9966-26e07e6a3d7d","system_id":"levelo_inurba_marseille","lat":43.31221,"lon":5.3685,"is_reserved":false,"is_disabled":false,"rental_uris":{"android":"levelo://app?vid=dde5d947-0c24-4f20-9966-26e07e6a3d7d","ios":"levelo://app?vid=dde5d947-0c24-4f20-9966-26e07e6a3d7d"},"vehicle_type_id":"4","last_reported":1743750611,"current_range_meters":3600,"station_id":"ce4bgl92rcd13ifvqbq0","pricing_plan_id":"cebpf4jnsgd1na2vs0mg"},{"bike_id":"3a5c6441-a455-43a3-b2fc-5e6051e9f830","system_id":"levelo_inurba_marseille","lat":43.288621,"lon":5.358814,"is_reserved":false,"is_disabled":true,"rental_uris":{"android":"levelo://app?vid=3a5c6441-a455-43a3-b2fc-5e6051e9f830","ios":"levelo://app?vid=3a5c6441-a455-43a3-b2fc-5e6051e9f830"},"vehicle_type_id":"4","last_reported":1743750611,"current_range_meters":3600,"station_id":"ce4bhb12rcd13ifvqem0","pricing_plan_id":"cebpf4jnsgd1na2vs0mg"},{"bike_id":"02bf7185-a2a7-4ab2-b50c-4758bb892d09","system_id":"levelo_inurba_marseille","lat":43.26955,"lon":5.38633,"is_reserved":false,"is_disabled":false,"rental_uris":{"android":"levelo://app?vid=02bf7185-a2a7-4ab2-b50c-4758bb892d09","ios":"levelo://app?vid=02bf7185-a2a7-4ab2-b50c-4758bb892d09"},"vehicle_type_id":"4","last_reported":1743750611,"current_range_meters":3600,"station_id":"ce4bhh92rcd13ifvqfh0","pricing_plan_id":"cebpf4jnsgd1na2vs0mg"},{"bike_id":"b00ae40a-8d84-49c9-ab1f-47c1ad60fead","system_id":"levelo_inurba_marseille","lat":43.337444,"lon":5.374475,"is_reserved":false,"is_disabled":false,"rental_uris":{"android":"levelo://app?vid=b00ae40a-8d84-49c9-ab1f-47c1ad60fead","ios":"levelo://app?vid=b00ae40a-8d84-49c9-ab1f-47c1ad60fead"},"vehicle_type_id":"4","last_reported":1743750611,"current_range_meters":4000,"station_id":"","pricing_plan_id":"cebpf4jnsgd1na2vs0mg"},{"bike_id":"6b47b7fa-3901-4c16-a18d-dd6c6e60c2b6","system_id":"levelo_inurba_marseille","lat":43.23151,"lon":5.43717,"is_reserved":false,"is_disabled":false,"rental_uris":{"android":"levelo://app?vid=6b47b7fa-3901-4c16-a18d-dd6c6e60c2b6","ios":"levelo://app?vid=6b47b7fa-3901-4c16-a18d-dd6c6e60c2b6"},"vehicle_type_id":"4","last_reported":1743750611,"current_range_meters":4000,"station_id":"ce4bhmp2rcd13ifvqgog","pricing_plan_id":"cebpf4jnsgd1na2vs0mg"},{"bike_id":"0e20f154-4524-4b0b-b0b5-fbe830a9859e","system_id":"levelo_inurba_marseille","lat":43.26504,"lon":5.39548,"is_reserved":false,"is_disabled":false,"rental_uris":{"android":"levelo://app?vid=0e20f154-4524-4b0b-b0b5-fbe830a9859e","ios":"levelo://app?vid=0e20f154-4524-4b0b-b0b5-fbe830a9859e"},"vehicle_type_id":"4","last_reported":1743750611,"current_range_meters":4000,"station_id":"ce4bhi12rcd13ifvqfq0","pricing_plan_id":"cebpf4jnsgd1na2vs0mg"},{"bike_id":"4f3eb7d3-6193-4152-af90-0b8ba47b65bc","system_id":"levelo_inurba_marseille","lat":43.28155,"lon":5.42638,"is_reserved":false,"is_disabled":false,"rental_uris":{"android":"levelo://app?vid=4f3eb7d3-6193-4152-af90-0b8ba47b65bc","ios":"levelo://app?vid=4f3eb7d3-6193-4152-af90-0b8ba47b65bc"},"vehicle_type_id":"4","last_reported":1743750611,"current_range_meters":4000,"station_id":"ce4bhnh2rcd13ifvqgug","pricing_plan_id":"cebpf4jnsgd1na2vs0mg"},{"bike_id":"5a4bba22-b8bd-485a-9124-e201f115a77b","system_id":"levelo_inurba_marseille","lat":43.248081,"lon":5.374641,"is_reserved":false,"is_disabled":true,"rental_uris":{"android":"levelo://app?vid=5a4bba22-b8bd-485a-9124-e201f115a77b","ios":"levelo://app?vid=5a4bba22-b8bd-485a-9124-e201f115a77b"},"vehicle_type_id":"4","last_reported":1743750611,"current_range_meters":4000,"station_id":"","pricing_plan_id":"cebpf4jnsgd1na2vs0mg"},{"bike_id":"806811af-3513-4913-ac33-baf3494d5aa6","system_id":"levelo_inurba_marseille","lat":43.3126,"lon":5.40162,"is_reserved":false,"is_disabled":false,"rental_uris":{"android":"levelo://app?vid=806811af-3513-4913-ac33-baf3494d5aa6","ios":"levelo://app?vid=806811af-3513-4913-ac33-baf3494d5aa6"},"vehicle_type_id":"4","last_reported":1743750611,"current_range_meters":3600,"station_id":"ce4bh092rcd13ifvqd30","pricing_plan_id":"cebpf4jnsgd1na2vs0mg"},{"bike_id":"32a978e0-d0c2-43d4-9b03-19a5c41c27de","system_id":"levelo_inurba_marseille","lat":43.31074,"lon":5.38363,"is_reserved":false,"is_disabled":true,"rental_uris":{"android":"levelo://app?vid=32a978e0-d0c2-43d4-9b03-19a5c41c27de","ios":"levelo://app?vid=32a978e0-d0c2-43d4-9b03-19a5c41c27de"},"vehicle_type_id":"4","last_reported":1743750611,"current_range_meters":4000,"station_id":"ce4bgv92rcd13ifvqcr0","pricing_plan_id":"cebpf4jnsgd1na2vs0mg"},{"bike_id":"12722531-4a55-424a-91fd-8bea4f4d40da","system_id":"levelo_inurba_marseille","lat":43.305408,"lon":5.367227,"is_reserved":false,"is_disabled":false,"rental_uris":{"android":"levelo://app?vid=12722531-4a55-424a-91fd-8bea4f4d40da","ios":"levelo://app?vid=12722531-4a55-424a-91fd-8bea4f4d40da"},"vehicle_type_id":"4","last_reported":1743750611,"current_range_meters":4000,"station_id":"ce4bgqh2rcd13ifvqc5g","pricing_plan_id":"cebpf4jnsgd1na2vs0mg"},{"bike_id":"ef3d362c-32e3-42b9-a96e-2a77377fa812","system_id":"levelo_inurba_marseille","lat":43.29586,"lon":5.3999,"is_reserved":false,"is_disabled":false,"rental_uris":{"android":"levelo://app?vid=ef3d362c-32e3-42b9-a96e-2a77377fa812","ios":"levelo://app?vid=ef3d362c-32e3-42b9-a96e-2a77377fa812"},"vehicle_type_id":"4","last_reported":1743750611,"current_range_meters":4000,"station_id":"ce4bh312rcd13ifvqdj0","pricing_plan_id":"cebpf4jnsgd1na2vs0mg"},{"bike_id":"e1bcd518-a3a1-4a25-9b9e-794fbd0bdf0a","system_id":"levelo_inurba_marseille","lat":43.23967,"lon":5.36638,"is_reserved":false,"is_disabled":false,"rental_uris":{"android":"levelo://app?vid=e1bcd518-a3a1-4a25-9b9e-794fbd0bdf0a","ios":"levelo://app?vid=e1bcd518-a3a1-4a25-9b9e-794fbd0bdf0a"},"vehicle_type_id":"4","last_reported":1743750611,"current_range_meters":4000,"station_id":"ce4bhi12rcd13ifvqfp0","pricing_plan_id":"cebpf4jnsgd1na2vs0mg"},{"bike_id":"01d16764-1329-4496-972c-49fe88c2faa6","system_id":"levelo_inurba_marseille","lat":43.27965,"lon":5.38751,"is_reserved":false,"is_disabled":true,"rental_uris":{"android":"levelo://app?vid=01d16764-1329-4496-972c-49fe88c2faa6","ios":"levelo://app?vid=01d16764-1329-4496-972c-49fe88c2faa6"},"vehicle_type_id":"4","last_reported":1743750611,"current_range_meters":3600,"station_id":"ce4bhg12rcd13ifvqf80","pricing_plan_id":"cebpf4jnsgd1na2vs0mg"},{"bike_id":"8fd0e12a-ac71-4fa9-af5b-2240b48aee23","system_id":"levelo_inurba_marseille","lat":43.29227,"lon":5.3606,"is_reserved":false,"is_disabled":false,"rental_uris":{"android":"levelo://app?vid=8fd0e12a-ac71-4fa9-af5b-2240b48aee23","ios":"levelo://app?vid=8fd0e12a-ac71-4fa9-af5b-2240b48aee23"},"vehicle_type_id":"4","last_reported":1743750611,"current_range_meters":4000,"station_id":"ce4bhbh2rcd13ifvqeqg","pricing_plan_id":"cebpf4jnsgd1na2vs0mg"},{"bike_id":"368b8265-2179-44f5-a6dd-a88659b7d528","system_id":"levelo_inurba_marseille","lat":43.30271,"lon":5.37696,"is_reserved":false,"is_disabled":false,"rental_uris":{"android":"levelo://app?vid=368b8265-2179-44f5-a6dd-a88659b7d528","ios":"levelo://app?vid=368b8265-2179-44f5-a6dd-a88659b7d528"},"vehicle_type_id":"4","last_reported":1743750611,"current_range_meters":4400,"station_id":"ce4bguh2rcd13ifvqcj0","pricing_plan_id":"cebpf4jnsgd1na2vs0mg"},{"bike_id":"bddd4ccf-1482-4a9d-a8d7-0870910ef155","system_id":"levelo_inurba_marseille","lat":43.27944,"lon":5.41062,"is_reserved":false,"is_disabled":false,"rental_uris":{"android":"levelo://app?vid=bddd4ccf-1482-4a9d-a8d7-0870910ef155","ios":"levelo://app?vid=bddd4ccf-1482-4a9d-a8d7-0870910ef155"},"vehicle_type_id":"4","last_reported":1743750611,"current_range_meters":4400,"station_id":"ce4bhnp2rcd13ifvqh0g","pricing_plan_id":"cebpf4jnsgd1na2vs0mg"},{"bike_id":"ef4c73b0-9c12-4ab9-a24b-bc704f6838db","system_id":"levelo_inurba_marseille","lat":43.31346,"lon":5.36715,"is_reserved":false,"is_disabled":false,"rental_uris":{"android":"levelo://app?vid=ef4c73b0-9c12-4ab9-a24b-bc704f6838db","ios":"levelo://app?vid=ef4c73b0-9c12-4ab9-a24b-bc704f6838db"},"vehicle_type_id":"4","last_reported":1743750611,"current_range_meters":4400,"station_id":"ce4bgr92rcd13ifvqc6g","pricing_plan_id":"cebpf4jnsgd1na2vs0mg"},{"bike_id":"8ab97fef-20d4-4a22-8056-5b87f0690a9a","system_id":"levelo_inurba_marseille","lat":43.27678,"lon":5.38905,"is_reserved":false,"is_disabled":false,"rental_uris":{"android":"levelo://app?vid=8ab97fef-20d4-4a22-8056-5b87f0690a9a","ios":"levelo://app?vid=8ab97fef-20d4-4a22-8056-5b87f0690a9a"},"vehicle_type_id":"4","last_reported":1743750611,"current_range_meters":4400,"station_id":"ce4bhi12rcd13ifvqfo0","pricing_plan_id":"cebpf4jnsgd1na2vs0mg"},{"bike_id":"de8d28c5-2c85-4a6c-ab1d-ccf527660273","system_id":"levelo_inurba_marseille","lat":43.27493,"lon":5.42459,"is_reserved":false,"is_disabled":false,"rental_uris":{"android":"levelo://app?vid=de8d28c5-2c85-4a6c-ab1d-ccf527660273","ios":"levelo://app?vid=de8d28c5-2c85-4a6c-ab1d-ccf527660273"},"vehicle_type_id":"4","last_reported":1743750611,"current_range_meters":4400,"station_id":"ce4bhn92rcd13ifvqgrg","pricing_plan_id":"cebpf4jnsgd1na2vs0mg"},{"bike_id":"f7bb8436-ecd2-4874-be2e-726e23b6b5f6","system_id":"levelo_inurba_marseille","lat":43.33598,"lon":5.41033,"is_reserved":false,"is_disabled":false,"rental_uris":{"android":"levelo://app?vid=f7bb8436-ecd2-4874-be2e-726e23b6b5f6","ios":"levelo://app?vid=f7bb8436-ecd2-4874-be2e-726e23b6b5f6"},"vehicle_type_id":"4","last_reported":1743750611,"current_range_meters":4400,"station_id":"ce4bhqh2rcd13ifvqhmg","pricing_plan_id":"cebpf4jnsgd1na2vs0mg"},{"bike_id":"bb22f16d-6a18-4bd9-996e-a195f5f24c67","system_id":"levelo_inurba_marseille","lat":43.27488,"lon":5.42445,"is_reserved":false,"is_disabled":false,"rental_uris":{"android":"levelo://app?vid=bb22f16d-6a18-4bd9-996e-a195f5f24c67","ios":"levelo://app?vid=bb22f16d-6a18-4bd9-996e-a195f5f24c67"},"vehicle_type_id":"4","last_reported":1743750611,"current_range_meters":4800,"station_id":"ce4bhn92rcd13ifvqgrg","pricing_plan_id":"cebpf4jnsgd1na2vs0mg"},{"bike_id":"3374421a-949f-40b6-870f-59a2d8ba0de4","system_id":"levelo_inurba_marseille","lat":43.24175,"lon":5.36417,"is_reserved":false,"is_disabled":false,"rental_uris":{"android":"levelo://app?vid=3374421a-949f-40b6-870f-59a2d8ba0de4","ios":"levelo://app?vid=3374421a-949f-40b6-870f-59a2d8ba0de4"},"vehicle_type_id":"4","last_reported":1743750611,"current_range_meters":4800,"station_id":"cpo36qri1sfpv3e86is0","pricing_plan_id":"cebpf4jnsgd1na2vs0mg"},{"bike_id":"6322cc57-6e84-4cd0-8abd-a253a7112318","system_id":"levelo_inurba_marseille","lat":43.30945,"lon":5.39027,"is_reserved":false,"is_disabled":false,"rental_uris":{"android":"levelo://app?vid=6322cc57-6e84-4cd0-8abd-a253a7112318","ios":"levelo://app?vid=6322cc57-6e84-4cd0-8abd-a253a7112318"},"vehicle_type_id":"4","last_reported":1743750611,"current_range_meters":4800,"station_id":"ce4bgup2rcd13ifvqco0","pricing_plan_id":"cebpf4jnsgd1na2vs0mg"},{"bike_id":"78d6b7cd-ac07-453b-bc94-98692716d8c6","system_id":"levelo_inurba_marseille","lat":43.232009,"lon":5.355656,"is_reserved":false,"is_disabled":false,"rental_uris":{"android":"levelo://app?vid=78d6b7cd-ac07-453b-bc94-98692716d8c6","ios":"levelo://app?vid=78d6b7cd-ac07-453b-bc94-98692716d8c6"},"vehicle_type_id":"4","last_reported":1743750611,"current_range_meters":4800,"station_id":"ce4bhu92rcd13ifvqi70","pricing_plan_id":"cebpf4jnsgd1na2vs0mg"},{"bike_id":"237f4b52-fb30-477b-9d9b-400306194de0","system_id":"levelo_inurba_marseille","lat":43.2926,"lon":5.36855,"is_reserved":false,"is_disabled":true,"rental_uris":{"android":"levelo://app?vid=237f4b52-fb30-477b-9d9b-400306194de0","ios":"levelo://app?vid=237f4b52-fb30-477b-9d9b-400306194de0"},"vehicle_type_id":"4","last_reported":1743750611,"current_range_meters":4800,"station_id":"ce4bhbp2rcd13ifvqesg","pricing_plan_id":"cebpf4jnsgd1na2vs0mg"},{"bike_id":"6242a91e-cd87-4d7a-bf34-c1bc4f1656b2","system_id":"levelo_inurba_marseille","lat":43.28725,"lon":5.37937,"is_reserved":false,"is_disabled":false,"rental_uris":{"android":"levelo://app?vid=6242a91e-cd87-4d7a-bf34-c1bc4f1656b2","ios":"levelo://app?vid=6242a91e-cd87-4d7a-bf34-c1bc4f1656b2"},"vehicle_type_id":"4","last_reported":1743750611,"current_range_meters":4800,"station_id":"ce4bh9p2rcd13ifvqec0","pricing_plan_id":"cebpf4jnsgd1na2vs0mg"},{"bike_id":"6f887ac6-7f3b-4306-ab60-7d5fb452a7c5","system_id":"levelo_inurba_marseille","lat":43.30956,"lon":5.39036,"is_reserved":false,"is_disabled":false,"rental_uris":{"android":"levelo://app?vid=6f887ac6-7f3b-4306-ab60-7d5fb452a7c5","ios":"levelo://app?vid=6f887ac6-7f3b-4306-ab60-7d5fb452a7c5"},"vehicle_type_id":"4","last_reported":1743750611,"current_range_meters":4800,"station_id":"ce4bgup2rcd13ifvqco0","pricing_plan_id":"cebpf4jnsgd1na2vs0mg"},{"bike_id":"75dae32f-059a-4b5b-a5e8-963c6eda2f66","system_id":"levelo_inurba_marseille","lat":43.27524,"lon":5.41014,"is_reserved":false,"is_disabled":false,"rental_uris":{"android":"levelo://app?vid=75dae32f-059a-4b5b-a5e8-963c6eda2f66","ios":"levelo://app?vid=75dae32f-059a-4b5b-a5e8-963c6eda2f66"},"vehicle_type_id":"4","last_reported":1743750611,"current_range_meters":4800,"station_id":"","pricing_plan_id":"cebpf4jnsgd1na2vs0mg"},{"bike_id":"2b5af4fa-67d9-4c43-9afc-788d8b9617a9","system_id":"levelo_inurba_marseille","lat":43.30268,"lon":5.3772,"is_reserved":false,"is_disabled":false,"rental_uris":{"android":"levelo://app?vid=2b5af4fa-67d9-4c43-9afc-788d8b9617a9","ios":"levelo://app?vid=2b5af4fa-67d9-4c43-9afc-788d8b9617a9"},"vehicle_type_id":"4","last_reported":1743750611,"current_range_meters":5600,"station_id":"ce4bguh2rcd13ifvqcj0","pricing_plan_id":"cebpf4jnsgd1na2vs0mg"},{"bike_id":"d49a38c9-99e5-4f8e-8f68-f0127ecd7310","system_id":"levelo_inurba_marseille","lat":43.24524,"lon":5.37565,"is_reserved":false,"is_disabled":true,"rental_uris":{"android":"levelo://app?vid=d49a38c9-99e5-4f8e-8f68-f0127ecd7310","ios":"levelo://app?vid=d49a38c9-99e5-4f8e-8f68-f0127ecd7310"},"vehicle_type_id":"4","last_reported":1743750611,"current_range_meters":5600,"station_id":"","pricing_plan_id":"cebpf4jnsgd1na2vs0mg"},{"bike_id":"759c6b99-fd51-4b42-b52c-c25f518cd949","system_id":"levelo_inurba_marseille","lat":43.25867,"lon":5.39898,"is_reserved":false,"is_disabled":false,"rental_uris":{"android":"levelo://app?vid=759c6b99-fd51-4b42-b52c-c25f518cd949","ios":"levelo://app?vid=759c6b99-fd51-4b42-b52c-c25f518cd949"},"vehicle_type_id":"4","last_reported":1743750611,"current_range_meters":4800,"station_id":"ce4bhl92rcd13ifvqghg","pricing_plan_id":"cebpf4jnsgd1na2vs0mg"},{"bike_id":"d8565e43-190e-4475-90e5-2a7731378c41","system_id":"levelo_inurba_marseille","lat":43.3032,"lon":5.36858,"is_reserved":false,"is_disabled":false,"rental_uris":{"android":"levelo://app?vid=d8565e43-190e-4475-90e5-2a7731378c41","ios":"levelo://app?vid=d8565e43-190e-4475-90e5-2a7731378c41"},"vehicle_type_id":"4","last_reported":1743750611,"current_range_meters":5600,"station_id":"ce4bgqh2rcd13ifvqc5g","pricing_plan_id":"cebpf4jnsgd1na2vs0mg"},{"bike_id":"023427af-6175-4344-975e-36fad77ace7d","system_id":"levelo_inurba_marseille","lat":43.25575,"lon":5.38259,"is_reserved":false,"is_disabled":false,"rental_uris":{"android":"levelo://app?vid=023427af-6175-4344-975e-36fad77ace7d","ios":"levelo://app?vid=023427af-6175-4344-975e-36fad77ace7d"},"vehicle_type_id":"4","last_reported":1743750611,"current_range_meters":5600,"station_id":"ce4bhih2rcd13ifvqfs0","pricing_plan_id":"cebpf4jnsgd1na2vs0mg"},{"bike_id":"60c1b3df-533b-4b9c-98c5-b4564d7cbc28","system_id":"levelo_inurba_marseille","lat":43.30142,"lon":5.38066,"is_reserved":false,"is_disabled":false,"rental_uris":{"android":"levelo://app?vid=60c1b3df-533b-4b9c-98c5-b4564d7cbc28","ios":"levelo://app?vid=60c1b3df-533b-4b9c-98c5-b4564d7cbc28"},"vehicle_type_id":"4","last_reported":1743750611,"current_range_meters":5600,"station_id":"ce4bgjp2rcd13ifvqbh0","pricing_plan_id":"cebpf4jnsgd1na2vs0mg"},{"bike_id":"72cd10fe-429d-415b-b9f1-e04659dbcb01","system_id":"levelo_inurba_marseille","lat":43.27833,"lon":5.40729,"is_reserved":false,"is_disabled":false,"rental_uris":{"android":"levelo://app?vid=72cd10fe-429d-415b-b9f1-e04659dbcb01","ios":"levelo://app?vid=72cd10fe-429d-415b-b9f1-e04659dbcb01"},"vehicle_type_id":"4","last_reported":1743750611,"current_range_meters":6000,"station_id":"ce4bhnh2rcd13ifvqgtg","pricing_plan_id":"cebpf4jnsgd1na2vs0mg"},{"bike_id":"fede0e43-1609-4a28-9f97-913c3f149703","system_id":"levelo_inurba_marseille","lat":43.23196,"lon":5.3557,"is_reserved":false,"is_disabled":false,"rental_uris":{"android":"levelo://app?vid=fede0e43-1609-4a28-9f97-913c3f149703","ios":"levelo://app?vid=fede0e43-1609-4a28-9f97-913c3f149703"},"vehicle_type_id":"4","last_reported":1743750611,"current_range_meters":5600,"station_id":"ce4bhu92rcd13ifvqi70","pricing_plan_id":"cebpf4jnsgd1na2vs0mg"},{"bike_id":"0491a2e1-674b-4388-8228-146192daa588","system_id":"levelo_inurba_marseille","lat":43.27492,"lon":5.42462,"is_reserved":false,"is_disabled":false,"rental_uris":{"android":"levelo://app?vid=0491a2e1-674b-4388-8228-146192daa588","ios":"levelo://app?vid=0491a2e1-674b-4388-8228-146192daa588"},"vehicle_type_id":"4","last_reported":1743750611,"current_range_meters":5600,"station_id":"ce4bhn92rcd13ifvqgrg","pricing_plan_id":"cebpf4jnsgd1na2vs0mg"},{"bike_id":"c2e6881a-04a3-4a38-9cc0-75cacf165e78","system_id":"levelo_inurba_marseille","lat":43.28832,"lon":5.364645,"is_reserved":false,"is_disabled":false,"rental_uris":{"android":"levelo://app?vid=c2e6881a-04a3-4a38-9cc0-75cacf165e78","ios":"levelo://app?vid=c2e6881a-04a3-4a38-9cc0-75cacf165e78"},"vehicle_type_id":"4","last_reported":1743750611,"current_range_meters":6000,"station_id":"","pricing_plan_id":"cebpf4jnsgd1na2vs0mg"},{"bike_id":"2ef62c6a-9732-4c9c-a6fe-bb7d82e6db65","system_id":"levelo_inurba_marseille","lat":43.30158,"lon":5.38093,"is_reserved":false,"is_disabled":false,"rental_uris":{"android":"levelo://app?vid=2ef62c6a-9732-4c9c-a6fe-bb7d82e6db65","ios":"levelo://app?vid=2ef62c6a-9732-4c9c-a6fe-bb7d82e6db65"},"vehicle_type_id":"4","last_reported":1743750611,"current_range_meters":6000,"station_id":"ce4bgjp2rcd13ifvqbh0","pricing_plan_id":"cebpf4jnsgd1na2vs0mg"},{"bike_id":"ebccf539-8823-41cb-b5e9-24d9e474755f","system_id":"levelo_inurba_marseille","lat":43.24083,"lon":5.37749,"is_reserved":false,"is_disabled":false,"rental_uris":{"android":"levelo://app?vid=ebccf539-8823-41cb-b5e9-24d9e474755f","ios":"levelo://app?vid=ebccf539-8823-41cb-b5e9-24d9e474755f"},"vehicle_type_id":"4","last_reported":1743750611,"current_range_meters":6000,"station_id":"ce4bhnp2rcd13ifvqgvg","pricing_plan_id":"cebpf4jnsgd1na2vs0mg"},{"bike_id":"15ea3e20-e3c1-434f-8b50-88d1ebba3f71","system_id":"levelo_inurba_marseille","lat":43.23197,"lon":5.3556,"is_reserved":false,"is_disabled":false,"rental_uris":{"android":"levelo://app?vid=15ea3e20-e3c1-434f-8b50-88d1ebba3f71","ios":"levelo://app?vid=15ea3e20-e3c1-434f-8b50-88d1ebba3f71"},"vehicle_type_id":"4","last_reported":1743750611,"current_range_meters":6000,"station_id":"ce4bhu92rcd13ifvqi70","pricing_plan_id":"cebpf4jnsgd1na2vs0mg"},{"bike_id":"9684f4b4-207e-41dc-9a54-f1411fe6fae7","system_id":"levelo_inurba_marseille","lat":43.30159,"lon":5.3809,"is_reserved":false,"is_disabled":true,"rental_uris":{"android":"levelo://app?vid=9684f4b4-207e-41dc-9a54-f1411fe6fae7","ios":"levelo://app?vid=9684f4b4-207e-41dc-9a54-f1411fe6fae7"},"vehicle_type_id":"4","last_reported":1743750611,"current_range_meters":6400,"station_id":"ce4bgjp2rcd13ifvqbh0","pricing_plan_id":"cebpf4jnsgd1na2vs0mg"},{"bike_id":"ed910235-7712-4f43-a3a3-b84c24c262e1","system_id":"levelo_inurba_marseille","lat":43.28346,"lon":5.38111,"is_reserved":false,"is_disabled":false,"rental_uris":{"android":"levelo://app?vid=ed910235-7712-4f43-a3a3-b84c24c262e1","ios":"levelo://app?vid=ed910235-7712-4f43-a3a3-b84c24c262e1"},"vehicle_type_id":"4","last_reported":1743750611,"current_range_meters":6400,"station_id":"ce4bh412rcd13ifvqdr0","pricing_plan_id":"cebpf4jnsgd1na2vs0mg"},{"bike_id":"dde4b567-b09c-4828-ba1c-0e31e33668b2","system_id":"levelo_inurba_marseille","lat":43.31195,"lon":5.36873,"is_reserved":false,"is_disabled":false,"rental_uris":{"android":"levelo://app?vid=dde4b567-b09c-4828-ba1c-0e31e33668b2","ios":"levelo://app?vid=dde4b567-b09c-4828-ba1c-0e31e33668b2"},"vehicle_type_id":"4","last_reported":1743750611,"current_range_meters":6400,"station_id":"ce4bgl92rcd13ifvqbq0","pricing_plan_id":"cebpf4jnsgd1na2vs0mg"},{"bike_id":"a318fd10-418c-45e1-b3bd-b7894275fc0d","system_id":"levelo_inurba_marseille","lat":43.292852,"lon":5.380157,"is_reserved":false,"is_disabled":false,"rental_uris":{"android":"levelo://app?vid=a318fd10-418c-45e1-b3bd-b7894275fc0d","ios":"levelo://app?vid=a318fd10-418c-45e1-b3bd-b7894275fc0d"},"vehicle_type_id":"4","last_reported":1743750611,"current_range_meters":6400,"station_id":"ce4bh9p2rcd13ifvqed0","pricing_plan_id":"cebpf4jnsgd1na2vs0mg"},{"bike_id":"2f5ebb33-56ac-48ac-8004-513ec8b3c9df","system_id":"levelo_inurba_marseille","lat":43.25939,"lon":5.40943,"is_reserved":false,"is_disabled":false,"rental_uris":{"android":"levelo://app?vid=2f5ebb33-56ac-48ac-8004-513ec8b3c9df","ios":"levelo://app?vid=2f5ebb33-56ac-48ac-8004-513ec8b3c9df"},"vehicle_type_id":"4","last_reported":1743750611,"current_range_meters":6400,"station_id":"ce4bhm92rcd13ifvqglg","pricing_plan_id":"cebpf4jnsgd1na2vs0mg"},{"bike_id":"4676dabc-be79-482e-bef3-0854f875540c","system_id":"levelo_inurba_marseille","lat":43.26571,"lon":5.39019,"is_reserved":false,"is_disabled":false,"rental_uris":{"android":"levelo://app?vid=4676dabc-be79-482e-bef3-0854f875540c","ios":"levelo://app?vid=4676dabc-be79-482e-bef3-0854f875540c"},"vehicle_type_id":"4","last_reported":1743750611,"current_range_meters":6400,"station_id":"ce4bhe12rcd13ifvqf30","pricing_plan_id":"cebpf4jnsgd1na2vs0mg"},{"bike_id":"e590fe23-e0aa-4322-a597-417c816f1dd9","system_id":"levelo_inurba_marseille","lat":43.27939,"lon":5.41067,"is_reserved":false,"is_disabled":false,"rental_uris":{"android":"levelo://app?vid=e590fe23-e0aa-4322-a597-417c816f1dd9","ios":"levelo://app?vid=e590fe23-e0aa-4322-a597-417c816f1dd9"},"vehicle_type_id":"4","last_reported":1743750611,"current_range_meters":6400,"station_id":"ce4bhnp2rcd13ifvqh0g","pricing_plan_id":"cebpf4jnsgd1na2vs0mg"},{"bike_id":"f37d8f5c-d063-4e35-8e15-0215542ca205","system_id":"levelo_inurba_marseille","lat":43.23733,"lon":5.40421,"is_reserved":false,"is_disabled":false,"rental_uris":{"android":"levelo://app?vid=f37d8f5c-d063-4e35-8e15-0215542ca205","ios":"levelo://app?vid=f37d8f5c-d063-4e35-8e15-0215542ca205"},"vehicle_type_id":"4","last_reported":1743750611,"current_range_meters":6400,"station_id":"","pricing_plan_id":"cebpf4jnsgd1na2vs0mg"},{"bike_id":"f7f0f7a7-a969-4fad-b205-1df920a7b303","system_id":"levelo_inurba_marseille","lat":43.24078,"lon":5.37756,"is_reserved":false,"is_disabled":false,"rental_uris":{"android":"levelo://app?vid=f7f0f7a7-a969-4fad-b205-1df920a7b303","ios":"levelo://app?vid=f7f0f7a7-a969-4fad-b205-1df920a7b303"},"vehicle_type_id":"4","last_reported":1743750611,"current_range_meters":6400,"station_id":"ce4bhnp2rcd13ifvqgvg","pricing_plan_id":"cebpf4jnsgd1na2vs0mg"},{"bike_id":"a2af088d-ed25-4926-a358-27fcc28ac501","system_id":"levelo_inurba_marseille","lat":43.3236,"lon":5.38906,"is_reserved":false,"is_disabled":false,"rental_uris":{"android":"levelo://app?vid=a2af088d-ed25-4926-a358-27fcc28ac501","ios":"levelo://app?vid=a2af088d-ed25-4926-a358-27fcc28ac501"},"vehicle_type_id":"4","last_reported":1743750611,"current_range_meters":6800,"station_id":"ce4bhqp2rcd13ifvqhog","pricing_plan_id":"cebpf4jnsgd1na2vs0mg"},{"bike_id":"b3587832-ffa9-47f5-8518-d0f7996e9b69","system_id":"levelo_inurba_marseille","lat":43.262006,"lon":5.379208,"is_reserved":false,"is_disabled":false,"rental_uris":{"android":"levelo://app?vid=b3587832-ffa9-47f5-8518-d0f7996e9b69","ios":"levelo://app?vid=b3587832-ffa9-47f5-8518-d0f7996e9b69"},"vehicle_type_id":"4","last_reported":1743750611,"current_range_meters":6400,"station_id":"ce4bhjp2rcd13ifvqg90","pricing_plan_id":"cebpf4jnsgd1na2vs0mg"},{"bike_id":"cd83c8ac-ed09-4369-9279-b6f36f2bbd3c","system_id":"levelo_inurba_marseille","lat":43.30805,"lon":5.38243,"is_reserved":false,"is_disabled":false,"rental_uris":{"android":"levelo://app?vid=cd83c8ac-ed09-4369-9279-b6f36f2bbd3c","ios":"levelo://app?vid=cd83c8ac-ed09-4369-9279-b6f36f2bbd3c"},"vehicle_type_id":"4","last_reported":1743750611,"current_range_meters":6800,"station_id":"","pricing_plan_id":"cebpf4jnsgd1na2vs0mg"},{"bike_id":"30264409-d9cb-47e4-a499-bc1a851cb362","system_id":"levelo_inurba_marseille","lat":43.27321,"lon":5.39079,"is_reserved":false,"is_disabled":false,"rental_uris":{"android":"levelo://app?vid=30264409-d9cb-47e4-a499-bc1a851cb362","ios":"levelo://app?vid=30264409-d9cb-47e4-a499-bc1a851cb362"},"vehicle_type_id":"4","last_reported":1743750611,"current_range_meters":6800,"station_id":"ce4bhgp2rcd13ifvqfe0","pricing_plan_id":"cebpf4jnsgd1na2vs0mg"},{"bike_id":"71e55f99-90e5-4133-8167-5af8b2b35d7e","system_id":"levelo_inurba_marseille","lat":43.23076,"lon":5.35519,"is_reserved":false,"is_disabled":false,"rental_uris":{"android":"levelo://app?vid=71e55f99-90e5-4133-8167-5af8b2b35d7e","ios":"levelo://app?vid=71e55f99-90e5-4133-8167-5af8b2b35d7e"},"vehicle_type_id":"4","last_reported":1743750611,"current_range_meters":6800,"station_id":"cpo3342slgdg3j2ifvpg","pricing_plan_id":"cebpf4jnsgd1na2vs0mg"},{"bike_id":"bac84049-1997-4aab-b7f2-cbe56ec171ff","system_id":"levelo_inurba_marseille","lat":43.240641,"lon":5.377545,"is_reserved":false,"is_disabled":false,"rental_uris":{"android":"levelo://app?vid=bac84049-1997-4aab-b7f2-cbe56ec171ff","ios":"levelo://app?vid=bac84049-1997-4aab-b7f2-cbe56ec171ff"},"vehicle_type_id":"4","last_reported":1743750611,"current_range_meters":6800,"station_id":"ce4bhnp2rcd13ifvqgvg","pricing_plan_id":"cebpf4jnsgd1na2vs0mg"},{"bike_id":"f89437ce-bfe6-40d6-aa18-e82dbdbdcad9","system_id":"levelo_inurba_marseille","lat":43.3094,"lon":5.39037,"is_reserved":false,"is_disabled":false,"rental_uris":{"android":"levelo://app?vid=f89437ce-bfe6-40d6-aa18-e82dbdbdcad9","ios":"levelo://app?vid=f89437ce-bfe6-40d6-aa18-e82dbdbdcad9"},"vehicle_type_id":"4","last_reported":1743750611,"current_range_meters":6800,"station_id":"ce4bgup2rcd13ifvqco0","pricing_plan_id":"cebpf4jnsgd1na2vs0mg"},{"bike_id":"f86725f9-05e9-4b67-9a91-0d41103e6ff1","system_id":"levelo_inurba_marseille","lat":43.33023,"lon":5.39037,"is_reserved":false,"is_disabled":false,"rental_uris":{"android":"levelo://app?vid=f86725f9-05e9-4b67-9a91-0d41103e6ff1","ios":"levelo://app?vid=f86725f9-05e9-4b67-9a91-0d41103e6ff1"},"vehicle_type_id":"4","last_reported":1743750611,"current_range_meters":7200,"station_id":"ce4bhr92rcd13ifvqhrg","pricing_plan_id":"cebpf4jnsgd1na2vs0mg"},{"bike_id":"c50a89dc-b7b3-47ca-b77f-0aedf03cdfeb","system_id":"levelo_inurba_marseille","lat":43.28158,"lon":5.42664,"is_reserved":false,"is_disabled":false,"rental_uris":{"android":"levelo://app?vid=c50a89dc-b7b3-47ca-b77f-0aedf03cdfeb","ios":"levelo://app?vid=c50a89dc-b7b3-47ca-b77f-0aedf03cdfeb"},"vehicle_type_id":"4","last_reported":1743750611,"current_range_meters":7200,"station_id":"ce4bhnh2rcd13ifvqgug","pricing_plan_id":"cebpf4jnsgd1na2vs0mg"},{"bike_id":"5eeb5e50-0db0-41c6-afc4-e17fd1bc146e","system_id":"levelo_inurba_marseille","lat":43.31492,"lon":5.37314,"is_reserved":false,"is_disabled":false,"rental_uris":{"android":"levelo://app?vid=5eeb5e50-0db0-41c6-afc4-e17fd1bc146e","ios":"levelo://app?vid=5eeb5e50-0db0-41c6-afc4-e17fd1bc146e"},"vehicle_type_id":"4","last_reported":1743750611,"current_range_meters":7200,"station_id":"ce4bgt12rcd13ifvqcd0","pricing_plan_id":"cebpf4jnsgd1na2vs0mg"},{"bike_id":"ee0eacd9-f146-46f7-a54c-7d739b14c97c","system_id":"levelo_inurba_marseille","lat":43.3014,"lon":5.37413,"is_reserved":false,"is_disabled":false,"rental_uris":{"android":"levelo://app?vid=ee0eacd9-f146-46f7-a54c-7d739b14c97c","ios":"levelo://app?vid=ee0eacd9-f146-46f7-a54c-7d739b14c97c"},"vehicle_type_id":"4","last_reported":1743750611,"current_range_meters":7200,"station_id":"ce4bgs92rcd13ifvqcc0","pricing_plan_id":"cebpf4jnsgd1na2vs0mg"},{"bike_id":"809ab426-da69-405a-9ff2-30b58e1aceb6","system_id":"levelo_inurba_marseille","lat":43.30002,"lon":5.38733,"is_reserved":false,"is_disabled":false,"rental_uris":{"android":"levelo://app?vid=809ab426-da69-405a-9ff2-30b58e1aceb6","ios":"levelo://app?vid=809ab426-da69-405a-9ff2-30b58e1aceb6"},"vehicle_type_id":"4","last_reported":1743750611,"current_range_meters":7200,"station_id":"","pricing_plan_id":"cebpf4jnsgd1na2vs0mg"},{"bike_id":"c5bdb780-c7d5-4abb-8079-90749692fcfe","system_id":"levelo_inurba_marseille","lat":43.30781,"lon":5.3764,"is_reserved":false,"is_disabled":false,"rental_uris":{"android":"levelo://app?vid=c5bdb780-c7d5-4abb-8079-90749692fcfe","ios":"levelo://app?vid=c5bdb780-c7d5-4abb-8079-90749692fcfe"},"vehicle_type_id":"4","last_reported":1743750611,"current_range_meters":7200,"station_id":"ce4bgv92rcd13ifvqcq0","pricing_plan_id":"cebpf4jnsgd1na2vs0mg"},{"bike_id":"835ba050-c4e1-4478-9730-4d0cf0157070","system_id":"levelo_inurba_marseille","lat":43.275,"lon":5.4245,"is_reserved":false,"is_disabled":false,"rental_uris":{"android":"levelo://app?vid=835ba050-c4e1-4478-9730-4d0cf0157070","ios":"levelo://app?vid=835ba050-c4e1-4478-9730-4d0cf0157070"},"vehicle_type_id":"4","last_reported":1743750611,"current_range_meters":7200,"station_id":"ce4bhn92rcd13ifvqgrg","pricing_plan_id":"cebpf4jnsgd1na2vs0mg"},{"bike_id":"6997e810-3f4c-46f4-a539-996e89fe73bb","system_id":"levelo_inurba_marseille","lat":43.28163,"lon":5.42697,"is_reserved":false,"is_disabled":false,"rental_uris":{"android":"levelo://app?vid=6997e810-3f4c-46f4-a539-996e89fe73bb","ios":"levelo://app?vid=6997e810-3f4c-46f4-a539-996e89fe73bb"},"vehicle_type_id":"4","last_reported":1743750611,"current_range_meters":7200,"station_id":"ce4bhnh2rcd13ifvqgug","pricing_plan_id":"cebpf4jnsgd1na2vs0mg"},{"bike_id":"c13336a2-47ce-488c-b5b6-77c01a3ac1d1","system_id":"levelo_inurba_marseille","lat":43.31915,"lon":5.40736,"is_reserved":false,"is_disabled":true,"rental_uris":{"android":"levelo://app?vid=c13336a2-47ce-488c-b5b6-77c01a3ac1d1","ios":"levelo://app?vid=c13336a2-47ce-488c-b5b6-77c01a3ac1d1"},"vehicle_type_id":"4","last_reported":1743750611,"current_range_meters":8400,"station_id":"ce4bhq12rcd13ifvqhig","pricing_plan_id":"cebpf4jnsgd1na2vs0mg"},{"bike_id":"b8692d6b-2620-4683-b9d1-dcf328df4e8c","system_id":"levelo_inurba_marseille","lat":43.27215,"lon":5.39152,"is_reserved":false,"is_disabled":false,"rental_uris":{"android":"levelo://app?vid=b8692d6b-2620-4683-b9d1-dcf328df4e8c","ios":"levelo://app?vid=b8692d6b-2620-4683-b9d1-dcf328df4e8c"},"vehicle_type_id":"4","last_reported":1743750611,"current_range_meters":7200,"station_id":"ce4bhhp2rcd13ifvqfm0","pricing_plan_id":"cebpf4jnsgd1na2vs0mg"},{"bike_id":"08412614-9a7f-42c5-91c9-6bf43ea0736a","system_id":"levelo_inurba_marseille","lat":43.23154,"lon":5.43712,"is_reserved":false,"is_disabled":false,"rental_uris":{"android":"levelo://app?vid=08412614-9a7f-42c5-91c9-6bf43ea0736a","ios":"levelo://app?vid=08412614-9a7f-42c5-91c9-6bf43ea0736a"},"vehicle_type_id":"4","last_reported":1743750611,"current_range_meters":7200,"station_id":"ce4bhmp2rcd13ifvqgog","pricing_plan_id":"cebpf4jnsgd1na2vs0mg"},{"bike_id":"4cba49d4-c5bd-4502-803e-6c3eb368c36a","system_id":"levelo_inurba_marseille","lat":43.24111,"lon":5.37753,"is_reserved":false,"is_disabled":false,"rental_uris":{"android":"levelo://app?vid=4cba49d4-c5bd-4502-803e-6c3eb368c36a","ios":"levelo://app?vid=4cba49d4-c5bd-4502-803e-6c3eb368c36a"},"vehicle_type_id":"4","last_reported":1743750611,"current_range_meters":7200,"station_id":"ce4bhnp2rcd13ifvqgvg","pricing_plan_id":"cebpf4jnsgd1na2vs0mg"},{"bike_id":"8d7eab5b-bc43-48f5-9c97-0948b42ca6cf","system_id":"levelo_inurba_marseille","lat":43.22929,"lon":5.35421,"is_reserved":false,"is_disabled":false,"rental_uris":{"android":"levelo://app?vid=8d7eab5b-bc43-48f5-9c97-0948b42ca6cf","ios":"levelo://app?vid=8d7eab5b-bc43-48f5-9c97-0948b42ca6cf"},"vehicle_type_id":"4","last_reported":1743750611,"current_range_meters":7200,"station_id":"cpo3532slgdg3j2ikp40","pricing_plan_id":"cebpf4jnsgd1na2vs0mg"},{"bike_id":"73d854ad-9eb6-4d68-8878-e9b2295ae65a","system_id":"levelo_inurba_marseille","lat":43.23075,"lon":5.35512,"is_reserved":false,"is_disabled":false,"rental_uris":{"android":"levelo://app?vid=73d854ad-9eb6-4d68-8878-e9b2295ae65a","ios":"levelo://app?vid=73d854ad-9eb6-4d68-8878-e9b2295ae65a"},"vehicle_type_id":"4","last_reported":1743750611,"current_range_meters":8000,"station_id":"cpo3342slgdg3j2ifvpg","pricing_plan_id":"cebpf4jnsgd1na2vs0mg"},{"bike_id":"0ffba603-acfb-4cff-9365-de66b4c17e2f","system_id":"levelo_inurba_marseille","lat":43.29627,"lon":5.37714,"is_reserved":false,"is_disabled":false,"rental_uris":{"android":"levelo://app?vid=0ffba603-acfb-4cff-9365-de66b4c17e2f","ios":"levelo://app?vid=0ffba603-acfb-4cff-9365-de66b4c17e2f"},"vehicle_type_id":"4","last_reported":1743750611,"current_range_meters":8000,"station_id":"ce4bgi92rcd13ifvqb90","pricing_plan_id":"cebpf4jnsgd1na2vs0mg"},{"bike_id":"b4cb4e28-e514-44da-9db3-2c7d453900ef","system_id":"levelo_inurba_marseille","lat":43.28161,"lon":5.42656,"is_reserved":false,"is_disabled":false,"rental_uris":{"android":"levelo://app?vid=b4cb4e28-e514-44da-9db3-2c7d453900ef","ios":"levelo://app?vid=b4cb4e28-e514-44da-9db3-2c7d453900ef"},"vehicle_type_id":"4","last_reported":1743750611,"current_range_meters":8000,"station_id":"ce4bhnh2rcd13ifvqgug","pricing_plan_id":"cebpf4jnsgd1na2vs0mg"},{"bike_id":"8c707924-ba72-4a97-9ae3-3e4bc3b670df","system_id":"levelo_inurba_marseille","lat":43.26205,"lon":5.37443,"is_reserved":false,"is_disabled":false,"rental_uris":{"android":"levelo://app?vid=8c707924-ba72-4a97-9ae3-3e4bc3b670df","ios":"levelo://app?vid=8c707924-ba72-4a97-9ae3-3e4bc3b670df"},"vehicle_type_id":"4","last_reported":1743750611,"current_range_meters":8000,"station_id":"ce4bhgp2rcd13ifvqfc0","pricing_plan_id":"cebpf4jnsgd1na2vs0mg"},{"bike_id":"81296a64-2b77-42f6-8329-c4c8f1f0969e","system_id":"levelo_inurba_marseille","lat":43.2832,"lon":5.3809,"is_reserved":false,"is_disabled":false,"rental_uris":{"android":"levelo://app?vid=81296a64-2b77-42f6-8329-c4c8f1f0969e","ios":"levelo://app?vid=81296a64-2b77-42f6-8329-c4c8f1f0969e"},"vehicle_type_id":"4","last_reported":1743750611,"current_range_meters":8400,"station_id":"ce4bh412rcd13ifvqdr0","pricing_plan_id":"cebpf4jnsgd1na2vs0mg"},{"bike_id":"be19e26c-e8d6-41dc-9289-b6df129eb6b6","system_id":"levelo_inurba_marseille","lat":43.29257,"lon":5.40921,"is_reserved":false,"is_disabled":true,"rental_uris":{"android":"levelo://app?vid=be19e26c-e8d6-41dc-9289-b6df129eb6b6","ios":"levelo://app?vid=be19e26c-e8d6-41dc-9289-b6df129eb6b6"},"vehicle_type_id":"4","last_reported":1743750611,"current_range_meters":8400,"station_id":"ce4bh192rcd13ifvqdc0","pricing_plan_id":"cebpf4jnsgd1na2vs0mg"},{"bike_id":"4ef1f24a-cdc0-4dae-93b8-59602c159aa4","system_id":"levelo_inurba_marseille","lat":43.31805,"lon":5.37491,"is_reserved":false,"is_disabled":false,"rental_uris":{"android":"levelo://app?vid=4ef1f24a-cdc0-4dae-93b8-59602c159aa4","ios":"levelo://app?vid=4ef1f24a-cdc0-4dae-93b8-59602c159aa4"},"vehicle_type_id":"4","last_reported":1743750611,"current_range_meters":8400,"station_id":"","pricing_plan_id":"cebpf4jnsgd1na2vs0mg"},{"bike_id":"84778fb5-dff9-47bd-8838-39c4d1525eba","system_id":"levelo_inurba_marseille","lat":43.29619,"lon":5.37161,"is_reserved":false,"is_disabled":false,"rental_uris":{"android":"levelo://app?vid=84778fb5-dff9-47bd-8838-39c4d1525eba","ios":"levelo://app?vid=84778fb5-dff9-47bd-8838-39c4d1525eba"},"vehicle_type_id":"4","last_reported":1743750611,"current_range_meters":8400,"station_id":"ce4bgnh2rcd13ifvqc0g","pricing_plan_id":"cebpf4jnsgd1na2vs0mg"},{"bike_id":"d76832c4-3604-4de9-b7a5-182f7c6e995c","system_id":"levelo_inurba_marseille","lat":43.31365,"lon":5.38503,"is_reserved":false,"is_disabled":true,"rental_uris":{"android":"levelo://app?vid=d76832c4-3604-4de9-b7a5-182f7c6e995c","ios":"levelo://app?vid=d76832c4-3604-4de9-b7a5-182f7c6e995c"},"vehicle_type_id":"4","last_reported":1743750611,"current_range_meters":8400,"station_id":"ce4bgt92rcd13ifvqcf0","pricing_plan_id":"cebpf4jnsgd1na2vs0mg"},{"bike_id":"69acddf6-1674-4a48-b247-b816dce31989","system_id":"levelo_inurba_marseille","lat":43.34144,"lon":5.40908,"is_reserved":false,"is_disabled":false,"rental_uris":{"android":"levelo://app?vid=69acddf6-1674-4a48-b247-b816dce31989","ios":"levelo://app?vid=69acddf6-1674-4a48-b247-b816dce31989"},"vehicle_type_id":"4","last_reported":1743750611,"current_range_meters":8400,"station_id":"ce4bhqh2rcd13ifvqhlg","pricing_plan_id":"cebpf4jnsgd1na2vs0mg"},{"bike_id":"e3a29d38-a611-4b12-87ef-2fb8a21c41d5","system_id":"levelo_inurba_marseille","lat":43.22934,"lon":5.35375,"is_reserved":false,"is_disabled":false,"rental_uris":{"android":"levelo://app?vid=e3a29d38-a611-4b12-87ef-2fb8a21c41d5","ios":"levelo://app?vid=e3a29d38-a611-4b12-87ef-2fb8a21c41d5"},"vehicle_type_id":"4","last_reported":1743750611,"current_range_meters":8400,"station_id":"cpo3532slgdg3j2ikp40","pricing_plan_id":"cebpf4jnsgd1na2vs0mg"},{"bike_id":"efddeda7-6eb2-4c14-868d-fa0ce0b35ef3","system_id":"levelo_inurba_marseille","lat":43.31287,"lon":5.38277,"is_reserved":false,"is_disabled":false,"rental_uris":{"android":"levelo://app?vid=efddeda7-6eb2-4c14-868d-fa0ce0b35ef3","ios":"levelo://app?vid=efddeda7-6eb2-4c14-868d-fa0ce0b35ef3"},"vehicle_type_id":"4","last_reported":1743750611,"current_range_meters":8400,"station_id":"","pricing_plan_id":"cebpf4jnsgd1na2vs0mg"},{"bike_id":"424ee29c-6572-493b-810f-20201b6df2e3","system_id":"levelo_inurba_marseille","lat":43.27492,"lon":5.42456,"is_reserved":false,"is_disabled":false,"rental_uris":{"android":"levelo://app?vid=424ee29c-6572-493b-810f-20201b6df2e3","ios":"levelo://app?vid=424ee29c-6572-493b-810f-20201b6df2e3"},"vehicle_type_id":"4","last_reported":1743750611,"current_range_meters":8400,"station_id":"ce4bhn92rcd13ifvqgrg","pricing_plan_id":"cebpf4jnsgd1na2vs0mg"},{"bike_id":"4d021dc5-da23-461e-96b2-594066586ca8","system_id":"levelo_inurba_marseille","lat":43.27946,"lon":5.40938,"is_reserved":false,"is_disabled":false,"rental_uris":{"android":"levelo://app?vid=4d021dc5-da23-461e-96b2-594066586ca8","ios":"levelo://app?vid=4d021dc5-da23-461e-96b2-594066586ca8"},"vehicle_type_id":"4","last_reported":1743750611,"current_range_meters":8400,"station_id":"","pricing_plan_id":"cebpf4jnsgd1na2vs0mg"},{"bike_id":"ab00c886-5f83-45c8-b181-a41c8e9dba17","system_id":"levelo_inurba_marseille","lat":43.29259,"lon":5.40912,"is_reserved":false,"is_disabled":false,"rental_uris":{"android":"levelo://app?vid=ab00c886-5f83-45c8-b181-a41c8e9dba17","ios":"levelo://app?vid=ab00c886-5f83-45c8-b181-a41c8e9dba17"},"vehicle_type_id":"4","last_reported":1743750611,"current_range_meters":8400,"station_id":"ce4bh192rcd13ifvqdc0","pricing_plan_id":"cebpf4jnsgd1na2vs0mg"},{"bike_id":"b3eac9c5-b95b-4848-a104-d84634d1a70c","system_id":"levelo_inurba_marseille","lat":43.31018,"lon":5.38008,"is_reserved":false,"is_disabled":false,"rental_uris":{"android":"levelo://app?vid=b3eac9c5-b95b-4848-a104-d84634d1a70c","ios":"levelo://app?vid=b3eac9c5-b95b-4848-a104-d84634d1a70c"},"vehicle_type_id":"4","last_reported":1743750611,"current_range_meters":8400,"station_id":"","pricing_plan_id":"cebpf4jnsgd1na2vs0mg"},{"bike_id":"3fd283c5-171d-46ec-9324-2de2c345f1af","system_id":"levelo_inurba_marseille","lat":43.309155,"lon":5.368407,"is_reserved":false,"is_disabled":false,"rental_uris":{"android":"levelo://app?vid=3fd283c5-171d-46ec-9324-2de2c345f1af","ios":"levelo://app?vid=3fd283c5-171d-46ec-9324-2de2c345f1af"},"vehicle_type_id":"4","last_reported":1743750611,"current_range_meters":8400,"station_id":"ce4bgn92rcd13ifvqbvg","pricing_plan_id":"cebpf4jnsgd1na2vs0mg"},{"bike_id":"8d21cfaa-8fe2-4151-9e9f-b288e47f7623","system_id":"levelo_inurba_marseille","lat":43.30744,"lon":5.38157,"is_reserved":false,"is_disabled":false,"rental_uris":{"android":"levelo://app?vid=8d21cfaa-8fe2-4151-9e9f-b288e47f7623","ios":"levelo://app?vid=8d21cfaa-8fe2-4151-9e9f-b288e47f7623"},"vehicle_type_id":"4","last_reported":1743750611,"current_range_meters":8400,"station_id":"ce4bgt12rcd13ifvqce0","pricing_plan_id":"cebpf4jnsgd1na2vs0mg"},{"bike_id":"1f65dc15-3b88-4765-8d95-4a3c41cc9559","system_id":"levelo_inurba_marseille","lat":43.33606,"lon":5.41018,"is_reserved":false,"is_disabled":true,"rental_uris":{"android":"levelo://app?vid=1f65dc15-3b88-4765-8d95-4a3c41cc9559","ios":"levelo://app?vid=1f65dc15-3b88-4765-8d95-4a3c41cc9559"},"vehicle_type_id":"4","last_reported":1743750611,"current_range_meters":8400,"station_id":"ce4bhqh2rcd13ifvqhmg","pricing_plan_id":"cebpf4jnsgd1na2vs0mg"},{"bike_id":"63c19073-a7de-46ed-a396-8639743b910e","system_id":"levelo_inurba_marseille","lat":43.23177,"lon":5.35565,"is_reserved":false,"is_disabled":false,"rental_uris":{"android":"levelo://app?vid=63c19073-a7de-46ed-a396-8639743b910e","ios":"levelo://app?vid=63c19073-a7de-46ed-a396-8639743b910e"},"vehicle_type_id":"4","last_reported":1743750611,"current_range_meters":8400,"station_id":"ce4bhu92rcd13ifvqi70","pricing_plan_id":"cebpf4jnsgd1na2vs0mg"},{"bike_id":"8434eba8-389a-4450-a1c1-480a85899abe","system_id":"levelo_inurba_marseille","lat":43.30175,"lon":5.36616,"is_reserved":false,"is_disabled":false,"rental_uris":{"android":"levelo://app?vid=8434eba8-389a-4450-a1c1-480a85899abe","ios":"levelo://app?vid=8434eba8-389a-4450-a1c1-480a85899abe"},"vehicle_type_id":"4","last_reported":1743750611,"current_range_meters":8400,"station_id":"ce4bgrh2rcd13ifvqc8g","pricing_plan_id":"cebpf4jnsgd1na2vs0mg"},{"bike_id":"55a458b5-99f0-4a0e-bf15-969bb5b742d8","system_id":"levelo_inurba_marseille","lat":43.31646,"lon":5.39445,"is_reserved":false,"is_disabled":false,"rental_uris":{"android":"levelo://app?vid=55a458b5-99f0-4a0e-bf15-969bb5b742d8","ios":"levelo://app?vid=55a458b5-99f0-4a0e-bf15-969bb5b742d8"},"vehicle_type_id":"4","last_reported":1743750611,"current_range_meters":8400,"station_id":"","pricing_plan_id":"cebpf4jnsgd1na2vs0mg"},{"bike_id":"9e611599-fc3a-4a2f-a1ae-af0629db6ee7","system_id":"levelo_inurba_marseille","lat":43.26571,"lon":5.39001,"is_reserved":false,"is_disabled":false,"rental_uris":{"android":"levelo://app?vid=9e611599-fc3a-4a2f-a1ae-af0629db6ee7","ios":"levelo://app?vid=9e611599-fc3a-4a2f-a1ae-af0629db6ee7"},"vehicle_type_id":"4","last_reported":1743750611,"current_range_meters":8800,"station_id":"ce4bhe12rcd13ifvqf30","pricing_plan_id":"cebpf4jnsgd1na2vs0mg"},{"bike_id":"3cf22d29-90b6-4c79-a643-886bc3743ca7","system_id":"levelo_inurba_marseille","lat":43.33388,"lon":5.40083,"is_reserved":false,"is_disabled":false,"rental_uris":{"android":"levelo://app?vid=3cf22d29-90b6-4c79-a643-886bc3743ca7","ios":"levelo://app?vid=3cf22d29-90b6-4c79-a643-886bc3743ca7"},"vehicle_type_id":"4","last_reported":1743750611,"current_range_meters":8800,"station_id":"","pricing_plan_id":"cebpf4jnsgd1na2vs0mg"},{"bike_id":"abb3a774-cdd1-457e-b7b5-5b21eb1a1a36","system_id":"levelo_inurba_marseille","lat":43.31483,"lon":5.37303,"is_reserved":false,"is_disabled":false,"rental_uris":{"android":"levelo://app?vid=abb3a774-cdd1-457e-b7b5-5b21eb1a1a36","ios":"levelo://app?vid=abb3a774-cdd1-457e-b7b5-5b21eb1a1a36"},"vehicle_type_id":"4","last_reported":1743750611,"current_range_meters":8800,"station_id":"ce4bgt12rcd13ifvqcd0","pricing_plan_id":"cebpf4jnsgd1na2vs0mg"},{"bike_id":"cec7e131-dcea-4133-82e0-d0b7abfa023e","system_id":"levelo_inurba_marseille","lat":43.24074,"lon":5.37758,"is_reserved":false,"is_disabled":false,"rental_uris":{"android":"levelo://app?vid=cec7e131-dcea-4133-82e0-d0b7abfa023e","ios":"levelo://app?vid=cec7e131-dcea-4133-82e0-d0b7abfa023e"},"vehicle_type_id":"4","last_reported":1743750611,"current_range_meters":8800,"station_id":"ce4bhnp2rcd13ifvqgvg","pricing_plan_id":"cebpf4jnsgd1na2vs0mg"},{"bike_id":"0e54924c-c421-47dc-a19b-78867bf9bea0","system_id":"levelo_inurba_marseille","lat":43.30378,"lon":5.42492,"is_reserved":false,"is_disabled":false,"rental_uris":{"android":"levelo://app?vid=0e54924c-c421-47dc-a19b-78867bf9bea0","ios":"levelo://app?vid=0e54924c-c421-47dc-a19b-78867bf9bea0"},"vehicle_type_id":"4","last_reported":1743750611,"current_range_meters":8800,"station_id":"ce4bhoh2rcd13ifvqh6g","pricing_plan_id":"cebpf4jnsgd1na2vs0mg"},{"bike_id":"64cd3283-8a55-4240-818a-8735273cc3b9","system_id":"levelo_inurba_marseille","lat":43.26686,"lon":5.38272,"is_reserved":false,"is_disabled":false,"rental_uris":{"android":"levelo://app?vid=64cd3283-8a55-4240-818a-8735273cc3b9","ios":"levelo://app?vid=64cd3283-8a55-4240-818a-8735273cc3b9"},"vehicle_type_id":"4","last_reported":1743750611,"current_range_meters":9200,"station_id":"ce4bhg92rcd13ifvqf90","pricing_plan_id":"cebpf4jnsgd1na2vs0mg"},{"bike_id":"ad24643f-1a63-49bc-b3f1-d1508dda9e4f","system_id":"levelo_inurba_marseille","lat":43.24387,"lon":5.37055,"is_reserved":false,"is_disabled":false,"rental_uris":{"android":"levelo://app?vid=ad24643f-1a63-49bc-b3f1-d1508dda9e4f","ios":"levelo://app?vid=ad24643f-1a63-49bc-b3f1-d1508dda9e4f"},"vehicle_type_id":"4","last_reported":1743750611,"current_range_meters":8800,"station_id":"ce4bhhh2rcd13ifvqfk0","pricing_plan_id":"cebpf4jnsgd1na2vs0mg"},{"bike_id":"19224d95-e048-4cbb-8884-43e0e6b3db9b","system_id":"levelo_inurba_marseille","lat":43.29868,"lon":5.39752,"is_reserved":false,"is_disabled":true,"rental_uris":{"android":"levelo://app?vid=19224d95-e048-4cbb-8884-43e0e6b3db9b","ios":"levelo://app?vid=19224d95-e048-4cbb-8884-43e0e6b3db9b"},"vehicle_type_id":"4","last_reported":1743750611,"current_range_meters":9200,"station_id":"ce4bh0h2rcd13ifvqd50","pricing_plan_id":"cebpf4jnsgd1na2vs0mg"},{"bike_id":"63139285-137c-4e8d-8e95-6c2a275f8333","system_id":"levelo_inurba_marseille","lat":43.32146,"lon":5.36766,"is_reserved":false,"is_disabled":false,"rental_uris":{"android":"levelo://app?vid=63139285-137c-4e8d-8e95-6c2a275f8333","ios":"levelo://app?vid=63139285-137c-4e8d-8e95-6c2a275f8333"},"vehicle_type_id":"4","last_reported":1743750611,"current_range_meters":9200,"station_id":"ce4bhrh2rcd13ifvqhug","pricing_plan_id":"cebpf4jnsgd1na2vs0mg"},{"bike_id":"69c0db05-6ded-4dc6-9720-2452c83c1020","system_id":"levelo_inurba_marseille","lat":43.22945,"lon":5.35394,"is_reserved":false,"is_disabled":false,"rental_uris":{"android":"levelo://app?vid=69c0db05-6ded-4dc6-9720-2452c83c1020","ios":"levelo://app?vid=69c0db05-6ded-4dc6-9720-2452c83c1020"},"vehicle_type_id":"4","last_reported":1743750611,"current_range_meters":9600,"station_id":"cpo3532slgdg3j2ikp40","pricing_plan_id":"cebpf4jnsgd1na2vs0mg"},{"bike_id":"74572929-c861-4535-88cd-839f6e8d7f6b","system_id":"levelo_inurba_marseille","lat":43.30421,"lon":5.4128,"is_reserved":false,"is_disabled":false,"rental_uris":{"android":"levelo://app?vid=74572929-c861-4535-88cd-839f6e8d7f6b","ios":"levelo://app?vid=74572929-c861-4535-88cd-839f6e8d7f6b"},"vehicle_type_id":"4","last_reported":1743750611,"current_range_meters":9200,"station_id":"ce4bhop2rcd13ifvqh8g","pricing_plan_id":"cebpf4jnsgd1na2vs0mg"},{"bike_id":"432382a9-fe76-403f-b618-2f97c6b89637","system_id":"levelo_inurba_marseille","lat":43.28939,"lon":5.3664,"is_reserved":false,"is_disabled":false,"rental_uris":{"android":"levelo://app?vid=432382a9-fe76-403f-b618-2f97c6b89637","ios":"levelo://app?vid=432382a9-fe76-403f-b618-2f97c6b89637"},"vehicle_type_id":"4","last_reported":1743750611,"current_range_meters":9600,"station_id":"ce4bhap2rcd13ifvqek0","pricing_plan_id":"cebpf4jnsgd1na2vs0mg"},{"bike_id":"5f46717b-05d1-4f34-a220-8087932d755b","system_id":"levelo_inurba_marseille","lat":43.30131,"lon":5.369597,"is_reserved":false,"is_disabled":false,"rental_uris":{"android":"levelo://app?vid=5f46717b-05d1-4f34-a220-8087932d755b","ios":"levelo://app?vid=5f46717b-05d1-4f34-a220-8087932d755b"},"vehicle_type_id":"4","last_reported":1743750611,"current_range_meters":9600,"station_id":"","pricing_plan_id":"cebpf4jnsgd1na2vs0mg"},{"bike_id":"a2cc56b1-ff5c-4d49-8794-6951d2d93f41","system_id":"levelo_inurba_marseille","lat":43.23935,"lon":5.36603,"is_reserved":false,"is_disabled":false,"rental_uris":{"android":"levelo://app?vid=a2cc56b1-ff5c-4d49-8794-6951d2d93f41","ios":"levelo://app?vid=a2cc56b1-ff5c-4d49-8794-6951d2d93f41"},"vehicle_type_id":"4","last_reported":1743750611,"current_range_meters":10000,"station_id":"ce4bhi12rcd13ifvqfp0","pricing_plan_id":"cebpf4jnsgd1na2vs0mg"},{"bike_id":"0bcbed84-1c8e-45d1-9a91-61985ee791ba","system_id":"levelo_inurba_marseille","lat":43.24999,"lon":5.38926,"is_reserved":false,"is_disabled":false,"rental_uris":{"android":"levelo://app?vid=0bcbed84-1c8e-45d1-9a91-61985ee791ba","ios":"levelo://app?vid=0bcbed84-1c8e-45d1-9a91-61985ee791ba"},"vehicle_type_id":"4","last_reported":1743750611,"current_range_meters":10800,"station_id":"ce4bhgp2rcd13ifvqfd0","pricing_plan_id":"cebpf4jnsgd1na2vs0mg"},{"bike_id":"dd534b88-b712-46a5-ac0a-286a44bcfb80","system_id":"levelo_inurba_marseille","lat":43.24085,"lon":5.37751,"is_reserved":false,"is_disabled":false,"rental_uris":{"android":"levelo://app?vid=dd534b88-b712-46a5-ac0a-286a44bcfb80","ios":"levelo://app?vid=dd534b88-b712-46a5-ac0a-286a44bcfb80"},"vehicle_type_id":"4","last_reported":1743750611,"current_range_meters":10800,"station_id":"ce4bhnp2rcd13ifvqgvg","pricing_plan_id":"cebpf4jnsgd1na2vs0mg"},{"bike_id":"758c2355-846a-4f3d-bcd8-eac4b3145cd6","system_id":"levelo_inurba_marseille","lat":43.23216,"lon":5.35558,"is_reserved":false,"is_disabled":false,"rental_uris":{"android":"levelo://app?vid=758c2355-846a-4f3d-bcd8-eac4b3145cd6","ios":"levelo://app?vid=758c2355-846a-4f3d-bcd8-eac4b3145cd6"},"vehicle_type_id":"4","last_reported":1743750611,"current_range_meters":10800,"station_id":"ce4bhu92rcd13ifvqi70","pricing_plan_id":"cebpf4jnsgd1na2vs0mg"},{"bike_id":"ed034283-1492-4da7-9409-35bdead80f30","system_id":"levelo_inurba_marseille","lat":43.30127,"lon":5.38822,"is_reserved":false,"is_disabled":true,"rental_uris":{"android":"levelo://app?vid=ed034283-1492-4da7-9409-35bdead80f30","ios":"levelo://app?vid=ed034283-1492-4da7-9409-35bdead80f30"},"vehicle_type_id":"4","last_reported":1743750611,"current_range_meters":10800,"station_id":"ce4bghh2rcd13ifvqb60","pricing_plan_id":"cebpf4jnsgd1na2vs0mg"},{"bike_id":"d5894d60-1e7e-4616-8db5-708a3974aab2","system_id":"levelo_inurba_marseille","lat":43.28156,"lon":5.42644,"is_reserved":false,"is_disabled":false,"rental_uris":{"android":"levelo://app?vid=d5894d60-1e7e-4616-8db5-708a3974aab2","ios":"levelo://app?vid=d5894d60-1e7e-4616-8db5-708a3974aab2"},"vehicle_type_id":"4","last_reported":1743750611,"current_range_meters":10800,"station_id":"ce4bhnh2rcd13ifvqgug","pricing_plan_id":"cebpf4jnsgd1na2vs0mg"},{"bike_id":"f1e5f20d-e5bb-4349-9a72-f7ab8a004414","system_id":"levelo_inurba_marseille","lat":43.30345,"lon":5.40457,"is_reserved":false,"is_disabled":true,"rental_uris":{"android":"levelo://app?vid=f1e5f20d-e5bb-4349-9a72-f7ab8a004414","ios":"levelo://app?vid=f1e5f20d-e5bb-4349-9a72-f7ab8a004414"},"vehicle_type_id":"4","last_reported":1743750611,"current_range_meters":10800,"station_id":"ce4bh012rcd13ifvqd10","pricing_plan_id":"cebpf4jnsgd1na2vs0mg"},{"bike_id":"74a13a18-430a-4f50-ba26-e7dfbad23482","system_id":"levelo_inurba_marseille","lat":43.23071,"lon":5.35494,"is_reserved":false,"is_disabled":false,"rental_uris":{"android":"levelo://app?vid=74a13a18-430a-4f50-ba26-e7dfbad23482","ios":"levelo://app?vid=74a13a18-430a-4f50-ba26-e7dfbad23482"},"vehicle_type_id":"4","last_reported":1743750611,"current_range_meters":10800,"station_id":"cpo3342slgdg3j2ifvpg","pricing_plan_id":"cebpf4jnsgd1na2vs0mg"},{"bike_id":"9396f31d-e485-4f45-a818-9888089b5bb6","system_id":"levelo_inurba_marseille","lat":43.231905,"lon":5.355621,"is_reserved":false,"is_disabled":false,"rental_uris":{"android":"levelo://app?vid=9396f31d-e485-4f45-a818-9888089b5bb6","ios":"levelo://app?vid=9396f31d-e485-4f45-a818-9888089b5bb6"},"vehicle_type_id":"4","last_reported":1743750611,"current_range_meters":10800,"station_id":"ce4bhu92rcd13ifvqi70","pricing_plan_id":"cebpf4jnsgd1na2vs0mg"},{"bike_id":"3a0b0f90-790c-4160-b50c-b4d5547d0490","system_id":"levelo_inurba_marseille","lat":43.30376,"lon":5.42484,"is_reserved":false,"is_disabled":false,"rental_uris":{"android":"levelo://app?vid=3a0b0f90-790c-4160-b50c-b4d5547d0490","ios":"levelo://app?vid=3a0b0f90-790c-4160-b50c-b4d5547d0490"},"vehicle_type_id":"4","last_reported":1743750611,"current_range_meters":11200,"station_id":"ce4bhoh2rcd13ifvqh6g","pricing_plan_id":"cebpf4jnsgd1na2vs0mg"},{"bike_id":"69d96eab-d655-4e71-80af-adf26a43bf2a","system_id":"levelo_inurba_marseille","lat":43.28359,"lon":5.38121,"is_reserved":false,"is_disabled":false,"rental_uris":{"android":"levelo://app?vid=69d96eab-d655-4e71-80af-adf26a43bf2a","ios":"levelo://app?vid=69d96eab-d655-4e71-80af-adf26a43bf2a"},"vehicle_type_id":"4","last_reported":1743750611,"current_range_meters":11200,"station_id":"ce4bh412rcd13ifvqdr0","pricing_plan_id":"cebpf4jnsgd1na2vs0mg"},{"bike_id":"873c31b7-1ed3-4551-9039-d8861202b6bf","system_id":"levelo_inurba_marseille","lat":43.30141,"lon":5.3741,"is_reserved":false,"is_disabled":false,"rental_uris":{"android":"levelo://app?vid=873c31b7-1ed3-4551-9039-d8861202b6bf","ios":"levelo://app?vid=873c31b7-1ed3-4551-9039-d8861202b6bf"},"vehicle_type_id":"4","last_reported":1743750611,"current_range_meters":11200,"station_id":"ce4bgs92rcd13ifvqcc0","pricing_plan_id":"cebpf4jnsgd1na2vs0mg"},{"bike_id":"f062b518-da70-4819-ba8a-ddaf33cb4821","system_id":"levelo_inurba_marseille","lat":43.24078,"lon":5.37752,"is_reserved":false,"is_disabled":false,"rental_uris":{"android":"levelo://app?vid=f062b518-da70-4819-ba8a-ddaf33cb4821","ios":"levelo://app?vid=f062b518-da70-4819-ba8a-ddaf33cb4821"},"vehicle_type_id":"4","last_reported":1743750611,"current_range_meters":11200,"station_id":"ce4bhnp2rcd13ifvqgvg","pricing_plan_id":"cebpf4jnsgd1na2vs0mg"},{"bike_id":"fb348b09-6abb-47a4-a266-91f2eeaee291","system_id":"levelo_inurba_marseille","lat":43.32109,"lon":5.36784,"is_reserved":false,"is_disabled":false,"rental_uris":{"android":"levelo://app?vid=fb348b09-6abb-47a4-a266-91f2eeaee291","ios":"levelo://app?vid=fb348b09-6abb-47a4-a266-91f2eeaee291"},"vehicle_type_id":"4","last_reported":1743750611,"current_range_meters":11600,"station_id":"ce4bhrh2rcd13ifvqhug","pricing_plan_id":"cebpf4jnsgd1na2vs0mg"},{"bike_id":"392f67b3-b6c6-4c2f-84da-a46eebebdf48","system_id":"levelo_inurba_marseille","lat":43.30948,"lon":5.39026,"is_reserved":false,"is_disabled":false,"rental_uris":{"android":"levelo://app?vid=392f67b3-b6c6-4c2f-84da-a46eebebdf48","ios":"levelo://app?vid=392f67b3-b6c6-4c2f-84da-a46eebebdf48"},"vehicle_type_id":"4","last_reported":1743750611,"current_range_meters":11600,"station_id":"ce4bgup2rcd13ifvqco0","pricing_plan_id":"cebpf4jnsgd1na2vs0mg"},{"bike_id":"be4ba173-48be-4345-a43e-c83a2de012db","system_id":"levelo_inurba_marseille","lat":43.24039,"lon":5.37752,"is_reserved":false,"is_disabled":false,"rental_uris":{"android":"levelo://app?vid=be4ba173-48be-4345-a43e-c83a2de012db","ios":"levelo://app?vid=be4ba173-48be-4345-a43e-c83a2de012db"},"vehicle_type_id":"4","last_reported":1743750611,"current_range_meters":11200,"station_id":"ce4bhnp2rcd13ifvqgvg","pricing_plan_id":"cebpf4jnsgd1na2vs0mg"},{"bike_id":"3b550425-1307-4fbb-9ccb-b67ddc66704c","system_id":"levelo_inurba_marseille","lat":43.30161,"lon":5.38099,"is_reserved":false,"is_disabled":false,"rental_uris":{"android":"levelo://app?vid=3b550425-1307-4fbb-9ccb-b67ddc66704c","ios":"levelo://app?vid=3b550425-1307-4fbb-9ccb-b67ddc66704c"},"vehicle_type_id":"4","last_reported":1743750611,"current_range_meters":11600,"station_id":"ce4bgjp2rcd13ifvqbh0","pricing_plan_id":"cebpf4jnsgd1na2vs0mg"},{"bike_id":"cf017a30-2297-414b-a74a-2e08739ba01c","system_id":"levelo_inurba_marseille","lat":43.3094,"lon":5.39026,"is_reserved":false,"is_disabled":false,"rental_uris":{"android":"levelo://app?vid=cf017a30-2297-414b-a74a-2e08739ba01c","ios":"levelo://app?vid=cf017a30-2297-414b-a74a-2e08739ba01c"},"vehicle_type_id":"4","last_reported":1743750611,"current_range_meters":11600,"station_id":"ce4bgup2rcd13ifvqco0","pricing_plan_id":"cebpf4jnsgd1na2vs0mg"},{"bike_id":"7b602871-0a68-47e6-b31b-78235f3c21af","system_id":"levelo_inurba_marseille","lat":43.30954,"lon":5.39033,"is_reserved":false,"is_disabled":false,"rental_uris":{"android":"levelo://app?vid=7b602871-0a68-47e6-b31b-78235f3c21af","ios":"levelo://app?vid=7b602871-0a68-47e6-b31b-78235f3c21af"},"vehicle_type_id":"4","last_reported":1743750611,"current_range_meters":12000,"station_id":"ce4bgup2rcd13ifvqco0","pricing_plan_id":"cebpf4jnsgd1na2vs0mg"},{"bike_id":"f2c7295c-edaa-4723-b578-50b4f377b10a","system_id":"levelo_inurba_marseille","lat":43.33606,"lon":5.41039,"is_reserved":false,"is_disabled":false,"rental_uris":{"android":"levelo://app?vid=f2c7295c-edaa-4723-b578-50b4f377b10a","ios":"levelo://app?vid=f2c7295c-edaa-4723-b578-50b4f377b10a"},"vehicle_type_id":"4","last_reported":1743750611,"current_range_meters":12000,"station_id":"ce4bhqh2rcd13ifvqhmg","pricing_plan_id":"cebpf4jnsgd1na2vs0mg"},{"bike_id":"35354df1-58d1-4693-a885-3624bc1a5277","system_id":"levelo_inurba_marseille","lat":43.30185,"lon":5.36663,"is_reserved":false,"is_disabled":false,"rental_uris":{"android":"levelo://app?vid=35354df1-58d1-4693-a885-3624bc1a5277","ios":"levelo://app?vid=35354df1-58d1-4693-a885-3624bc1a5277"},"vehicle_type_id":"4","last_reported":1743750611,"current_range_meters":11600,"station_id":"ce4bgrh2rcd13ifvqc8g","pricing_plan_id":"cebpf4jnsgd1na2vs0mg"},{"bike_id":"bfb11b41-82f2-4c9c-851a-97bba3e1d8be","system_id":"levelo_inurba_marseille","lat":43.28926,"lon":5.38826,"is_reserved":false,"is_disabled":true,"rental_uris":{"android":"levelo://app?vid=bfb11b41-82f2-4c9c-851a-97bba3e1d8be","ios":"levelo://app?vid=bfb11b41-82f2-4c9c-851a-97bba3e1d8be"},"vehicle_type_id":"4","last_reported":1743750611,"current_range_meters":12000,"station_id":"","pricing_plan_id":"cebpf4jnsgd1na2vs0mg"},{"bike_id":"c093fe99-0f64-4b98-badb-7dc2718d1028","system_id":"levelo_inurba_marseille","lat":43.261588,"lon":5.393927,"is_reserved":false,"is_disabled":false,"rental_uris":{"android":"levelo://app?vid=c093fe99-0f64-4b98-badb-7dc2718d1028","ios":"levelo://app?vid=c093fe99-0f64-4b98-badb-7dc2718d1028"},"vehicle_type_id":"4","last_reported":1743750611,"current_range_meters":11600,"station_id":"ce4bhh92rcd13ifvqfj0","pricing_plan_id":"cebpf4jnsgd1na2vs0mg"},{"bike_id":"93c4d539-5a26-452d-932b-a9b403a887d2","system_id":"levelo_inurba_marseille","lat":43.29909,"lon":5.38132,"is_reserved":false,"is_disabled":false,"rental_uris":{"android":"levelo://app?vid=93c4d539-5a26-452d-932b-a9b403a887d2","ios":"levelo://app?vid=93c4d539-5a26-452d-932b-a9b403a887d2"},"vehicle_type_id":"4","last_reported":1743750611,"current_range_meters":12400,"station_id":"ce4bgj12rcd13ifvqbc0","pricing_plan_id":"cebpf4jnsgd1na2vs0mg"},{"bike_id":"1b07f5d0-df62-4495-a42c-4a12cca8ef22","system_id":"levelo_inurba_marseille","lat":43.302371,"lon":5.400634,"is_reserved":false,"is_disabled":true,"rental_uris":{"android":"levelo://app?vid=1b07f5d0-df62-4495-a42c-4a12cca8ef22","ios":"levelo://app?vid=1b07f5d0-df62-4495-a42c-4a12cca8ef22"},"vehicle_type_id":"4","last_reported":1743750611,"current_range_meters":12400,"station_id":"ce4bgvh2rcd13ifvqcs0","pricing_plan_id":"cebpf4jnsgd1na2vs0mg"},{"bike_id":"988930ae-cf6e-4cc6-a663-6be8d5a86333","system_id":"levelo_inurba_marseille","lat":43.32104,"lon":5.36802,"is_reserved":false,"is_disabled":true,"rental_uris":{"android":"levelo://app?vid=988930ae-cf6e-4cc6-a663-6be8d5a86333","ios":"levelo://app?vid=988930ae-cf6e-4cc6-a663-6be8d5a86333"},"vehicle_type_id":"4","last_reported":1743750611,"current_range_meters":12400,"station_id":"ce4bhrh2rcd13ifvqhug","pricing_plan_id":"cebpf4jnsgd1na2vs0mg"},{"bike_id":"a3bf4e5a-e59c-4a45-a05d-e0a3174b39f2","system_id":"levelo_inurba_marseille","lat":43.284903,"lon":5.385626,"is_reserved":false,"is_disabled":false,"rental_uris":{"android":"levelo://app?vid=a3bf4e5a-e59c-4a45-a05d-e0a3174b39f2","ios":"levelo://app?vid=a3bf4e5a-e59c-4a45-a05d-e0a3174b39f2"},"vehicle_type_id":"4","last_reported":1743750611,"current_range_meters":12000,"station_id":"ce4bh8p2rcd13ifvqeb0","pricing_plan_id":"cebpf4jnsgd1na2vs0mg"},{"bike_id":"46e40aa5-72ae-444f-9358-a676d369a477","system_id":"levelo_inurba_marseille","lat":43.33008,"lon":5.43818,"is_reserved":false,"is_disabled":false,"rental_uris":{"android":"levelo://app?vid=46e40aa5-72ae-444f-9358-a676d369a477","ios":"levelo://app?vid=46e40aa5-72ae-444f-9358-a676d369a477"},"vehicle_type_id":"4","last_reported":1743750611,"current_range_meters":12400,"station_id":"","pricing_plan_id":"cebpf4jnsgd1na2vs0mg"},{"bike_id":"aedc5b1f-732b-487a-b512-4b2f211caf36","system_id":"levelo_inurba_marseille","lat":43.26694,"lon":5.38318,"is_reserved":false,"is_disabled":true,"rental_uris":{"android":"levelo://app?vid=aedc5b1f-732b-487a-b512-4b2f211caf36","ios":"levelo://app?vid=aedc5b1f-732b-487a-b512-4b2f211caf36"},"vehicle_type_id":"4","last_reported":1743750611,"current_range_meters":12400,"station_id":"ce4bhg92rcd13ifvqf90","pricing_plan_id":"cebpf4jnsgd1na2vs0mg"},{"bike_id":"ff3e52f2-b4d9-4b43-b932-91fabdfae3eb","system_id":"levelo_inurba_marseille","lat":43.31687,"lon":5.37783,"is_reserved":false,"is_disabled":false,"rental_uris":{"android":"levelo://app?vid=ff3e52f2-b4d9-4b43-b932-91fabdfae3eb","ios":"levelo://app?vid=ff3e52f2-b4d9-4b43-b932-91fabdfae3eb"},"vehicle_type_id":"4","last_reported":1743750611,"current_range_meters":12000,"station_id":"ce4bgth2rcd13ifvqch0","pricing_plan_id":"cebpf4jnsgd1na2vs0mg"},{"bike_id":"4a35edc2-f650-4e07-8428-3cf4e2729c62","system_id":"levelo_inurba_marseille","lat":43.29021,"lon":5.38651,"is_reserved":false,"is_disabled":false,"rental_uris":{"android":"levelo://app?vid=4a35edc2-f650-4e07-8428-3cf4e2729c62","ios":"levelo://app?vid=4a35edc2-f650-4e07-8428-3cf4e2729c62"},"vehicle_type_id":"4","last_reported":1743750611,"current_range_meters":12400,"station_id":"ce4bh4p2rcd13ifvqe0g","pricing_plan_id":"cebpf4jnsgd1na2vs0mg"},{"bike_id":"4621ad45-29bf-48cb-8077-88f2e1f7279f","system_id":"levelo_inurba_marseille","lat":43.232,"lon":5.35561,"is_reserved":false,"is_disabled":false,"rental_uris":{"android":"levelo://app?vid=4621ad45-29bf-48cb-8077-88f2e1f7279f","ios":"levelo://app?vid=4621ad45-29bf-48cb-8077-88f2e1f7279f"},"vehicle_type_id":"4","last_reported":1743750611,"current_range_meters":12800,"station_id":"ce4bhu92rcd13ifvqi70","pricing_plan_id":"cebpf4jnsgd1na2vs0mg"},{"bike_id":"d90a6df2-01d7-4c51-b3d8-369495ab9875","system_id":"levelo_inurba_marseille","lat":43.3058,"lon":5.3935,"is_reserved":false,"is_disabled":false,"rental_uris":{"android":"levelo://app?vid=d90a6df2-01d7-4c51-b3d8-369495ab9875","ios":"levelo://app?vid=d90a6df2-01d7-4c51-b3d8-369495ab9875"},"vehicle_type_id":"4","last_reported":1743750611,"current_range_meters":12800,"station_id":"ce4bh0p2rcd13ifvqd80","pricing_plan_id":"cebpf4jnsgd1na2vs0mg"},{"bike_id":"a7d58268-0beb-49e5-8273-4762f58b770f","system_id":"levelo_inurba_marseille","lat":43.2749,"lon":5.42464,"is_reserved":false,"is_disabled":false,"rental_uris":{"android":"levelo://app?vid=a7d58268-0beb-49e5-8273-4762f58b770f","ios":"levelo://app?vid=a7d58268-0beb-49e5-8273-4762f58b770f"},"vehicle_type_id":"4","last_reported":1743750611,"current_range_meters":12800,"station_id":"ce4bhn92rcd13ifvqgrg","pricing_plan_id":"cebpf4jnsgd1na2vs0mg"},{"bike_id":"5a8f5ee5-69ef-4467-a713-2b1a8a882f99","system_id":"levelo_inurba_marseille","lat":43.29599,"lon":5.37746,"is_reserved":false,"is_disabled":true,"rental_uris":{"android":"levelo://app?vid=5a8f5ee5-69ef-4467-a713-2b1a8a882f99","ios":"levelo://app?vid=5a8f5ee5-69ef-4467-a713-2b1a8a882f99"},"vehicle_type_id":"4","last_reported":1743750611,"current_range_meters":12800,"station_id":"ce4bgi92rcd13ifvqb90","pricing_plan_id":"cebpf4jnsgd1na2vs0mg"},{"bike_id":"d44ecfd5-bad3-4695-adf7-d7ccc7558411","system_id":"levelo_inurba_marseille","lat":43.24072,"lon":5.37761,"is_reserved":false,"is_disabled":false,"rental_uris":{"android":"levelo://app?vid=d44ecfd5-bad3-4695-adf7-d7ccc7558411","ios":"levelo://app?vid=d44ecfd5-bad3-4695-adf7-d7ccc7558411"},"vehicle_type_id":"4","last_reported":1743750611,"current_range_meters":12800,"station_id":"ce4bhnp2rcd13ifvqgvg","pricing_plan_id":"cebpf4jnsgd1na2vs0mg"},{"bike_id":"6d2df277-537a-4129-8b28-9fe7f3b1d584","system_id":"levelo_inurba_marseille","lat":43.30591,"lon":5.39353,"is_reserved":false,"is_disabled":false,"rental_uris":{"android":"levelo://app?vid=6d2df277-537a-4129-8b28-9fe7f3b1d584","ios":"levelo://app?vid=6d2df277-537a-4129-8b28-9fe7f3b1d584"},"vehicle_type_id":"4","last_reported":1743750611,"current_range_meters":12800,"station_id":"ce4bh0p2rcd13ifvqd80","pricing_plan_id":"cebpf4jnsgd1na2vs0mg"},{"bike_id":"c6f4d592-cd67-4536-ac34-585a4a6a050a","system_id":"levelo_inurba_marseille","lat":43.27494,"lon":5.42457,"is_reserved":false,"is_disabled":false,"rental_uris":{"android":"levelo://app?vid=c6f4d592-cd67-4536-ac34-585a4a6a050a","ios":"levelo://app?vid=c6f4d592-cd67-4536-ac34-585a4a6a050a"},"vehicle_type_id":"4","last_reported":1743750611,"current_range_meters":12800,"station_id":"ce4bhn92rcd13ifvqgrg","pricing_plan_id":"cebpf4jnsgd1na2vs0mg"},{"bike_id":"fe021999-f491-4e4e-ba59-10f5fa9f56ca","system_id":"levelo_inurba_marseille","lat":43.27673,"lon":5.38915,"is_reserved":false,"is_disabled":true,"rental_uris":{"android":"levelo://app?vid=fe021999-f491-4e4e-ba59-10f5fa9f56ca","ios":"levelo://app?vid=fe021999-f491-4e4e-ba59-10f5fa9f56ca"},"vehicle_type_id":"4","last_reported":1743750611,"current_range_meters":12800,"station_id":"ce4bhi12rcd13ifvqfo0","pricing_plan_id":"cebpf4jnsgd1na2vs0mg"},{"bike_id":"2bf0c055-c730-4441-bb71-3d96d95d81ba","system_id":"levelo_inurba_marseille","lat":43.31237,"lon":5.36862,"is_reserved":false,"is_disabled":false,"rental_uris":{"android":"levelo://app?vid=2bf0c055-c730-4441-bb71-3d96d95d81ba","ios":"levelo://app?vid=2bf0c055-c730-4441-bb71-3d96d95d81ba"},"vehicle_type_id":"4","last_reported":1743750611,"current_range_meters":12800,"station_id":"ce4bgl92rcd13ifvqbq0","pricing_plan_id":"cebpf4jnsgd1na2vs0mg"},{"bike_id":"66a078d0-f110-4e76-b508-93197b7850b1","system_id":"levelo_inurba_marseille","lat":43.23154,"lon":5.43713,"is_reserved":false,"is_disabled":false,"rental_uris":{"android":"levelo://app?vid=66a078d0-f110-4e76-b508-93197b7850b1","ios":"levelo://app?vid=66a078d0-f110-4e76-b508-93197b7850b1"},"vehicle_type_id":"4","last_reported":1743750611,"current_range_meters":12800,"station_id":"ce4bhmp2rcd13ifvqgog","pricing_plan_id":"cebpf4jnsgd1na2vs0mg"},{"bike_id":"44a28148-d9cf-40d4-b47d-f2705b077e32","system_id":"levelo_inurba_marseille","lat":43.292617,"lon":5.409036,"is_reserved":false,"is_disabled":false,"rental_uris":{"android":"levelo://app?vid=44a28148-d9cf-40d4-b47d-f2705b077e32","ios":"levelo://app?vid=44a28148-d9cf-40d4-b47d-f2705b077e32"},"vehicle_type_id":"4","last_reported":1743750611,"current_range_meters":13600,"station_id":"ce4bh192rcd13ifvqdc0","pricing_plan_id":"cebpf4jnsgd1na2vs0mg"},{"bike_id":"06c90d56-398a-4339-bd43-f2dacbe0a587","system_id":"levelo_inurba_marseille","lat":43.30592,"lon":5.39336,"is_reserved":false,"is_disabled":false,"rental_uris":{"android":"levelo://app?vid=06c90d56-398a-4339-bd43-f2dacbe0a587","ios":"levelo://app?vid=06c90d56-398a-4339-bd43-f2dacbe0a587"},"vehicle_type_id":"4","last_reported":1743750611,"current_range_meters":13600,"station_id":"ce4bh0p2rcd13ifvqd80","pricing_plan_id":"cebpf4jnsgd1na2vs0mg"},{"bike_id":"c9ab5bfd-fa91-4b45-8fa2-52813c43fa45","system_id":"levelo_inurba_marseille","lat":43.23068,"lon":5.35505,"is_reserved":false,"is_disabled":false,"rental_uris":{"android":"levelo://app?vid=c9ab5bfd-fa91-4b45-8fa2-52813c43fa45","ios":"levelo://app?vid=c9ab5bfd-fa91-4b45-8fa2-52813c43fa45"},"vehicle_type_id":"4","last_reported":1743750611,"current_range_meters":13600,"station_id":"cpo3342slgdg3j2ifvpg","pricing_plan_id":"cebpf4jnsgd1na2vs0mg"},{"bike_id":"39038706-4f46-478f-83b3-757f18d70e45","system_id":"levelo_inurba_marseille","lat":43.26972,"lon":5.38659,"is_reserved":false,"is_disabled":false,"rental_uris":{"android":"levelo://app?vid=39038706-4f46-478f-83b3-757f18d70e45","ios":"levelo://app?vid=39038706-4f46-478f-83b3-757f18d70e45"},"vehicle_type_id":"4","last_reported":1743750611,"current_range_meters":12800,"station_id":"ce4bhhh2rcd13ifvqfl0","pricing_plan_id":"cebpf4jnsgd1na2vs0mg"},{"bike_id":"8336c2e5-6021-4a8f-8e32-78361134cd8d","system_id":"levelo_inurba_marseille","lat":43.267692,"lon":5.382957,"is_reserved":false,"is_disabled":false,"rental_uris":{"android":"levelo://app?vid=8336c2e5-6021-4a8f-8e32-78361134cd8d","ios":"levelo://app?vid=8336c2e5-6021-4a8f-8e32-78361134cd8d"},"vehicle_type_id":"4","last_reported":1743750611,"current_range_meters":13600,"station_id":"ce4bhg92rcd13ifvqf90","pricing_plan_id":"cebpf4jnsgd1na2vs0mg"},{"bike_id":"459042db-382a-4c87-9cb2-ffdeeb6c5660","system_id":"levelo_inurba_marseille","lat":43.29272,"lon":5.37657,"is_reserved":false,"is_disabled":false,"rental_uris":{"android":"levelo://app?vid=459042db-382a-4c87-9cb2-ffdeeb6c5660","ios":"levelo://app?vid=459042db-382a-4c87-9cb2-ffdeeb6c5660"},"vehicle_type_id":"4","last_reported":1743750611,"current_range_meters":13600,"station_id":"ce4bgi12rcd13ifvqb80","pricing_plan_id":"cebpf4jnsgd1na2vs0mg"},{"bike_id":"4b77ab12-533c-45bf-b4cf-30e680dcb1e0","system_id":"levelo_inurba_marseille","lat":43.27191,"lon":5.39191,"is_reserved":false,"is_disabled":false,"rental_uris":{"android":"levelo://app?vid=4b77ab12-533c-45bf-b4cf-30e680dcb1e0","ios":"levelo://app?vid=4b77ab12-533c-45bf-b4cf-30e680dcb1e0"},"vehicle_type_id":"4","last_reported":1743750611,"current_range_meters":14000,"station_id":"ce4bhhp2rcd13ifvqfm0","pricing_plan_id":"cebpf4jnsgd1na2vs0mg"},{"bike_id":"ae6ecea5-f015-4699-b852-ef5eb8d96575","system_id":"levelo_inurba_marseille","lat":43.24704,"lon":5.38158,"is_reserved":false,"is_disabled":true,"rental_uris":{"android":"levelo://app?vid=ae6ecea5-f015-4699-b852-ef5eb8d96575","ios":"levelo://app?vid=ae6ecea5-f015-4699-b852-ef5eb8d96575"},"vehicle_type_id":"4","last_reported":1743750611,"current_range_meters":14000,"station_id":"ce4bhih2rcd13ifvqfr0","pricing_plan_id":"cebpf4jnsgd1na2vs0mg"},{"bike_id":"889b1957-aae9-43ce-bfa6-76a08eff7ab5","system_id":"levelo_inurba_marseille","lat":43.30196,"lon":5.36627,"is_reserved":false,"is_disabled":false,"rental_uris":{"android":"levelo://app?vid=889b1957-aae9-43ce-bfa6-76a08eff7ab5","ios":"levelo://app?vid=889b1957-aae9-43ce-bfa6-76a08eff7ab5"},"vehicle_type_id":"4","last_reported":1743750611,"current_range_meters":14000,"station_id":"ce4bgrh2rcd13ifvqc8g","pricing_plan_id":"cebpf4jnsgd1na2vs0mg"},{"bike_id":"f40fc4e8-cfdd-40aa-8507-3bd8857476a8","system_id":"levelo_inurba_marseille","lat":43.30229,"lon":5.40081,"is_reserved":false,"is_disabled":true,"rental_uris":{"android":"levelo://app?vid=f40fc4e8-cfdd-40aa-8507-3bd8857476a8","ios":"levelo://app?vid=f40fc4e8-cfdd-40aa-8507-3bd8857476a8"},"vehicle_type_id":"4","last_reported":1743750611,"current_range_meters":14000,"station_id":"ce4bgvh2rcd13ifvqcs0","pricing_plan_id":"cebpf4jnsgd1na2vs0mg"},{"bike_id":"9b4d5cca-7e04-48b8-8147-dd5352ae952c","system_id":"levelo_inurba_marseille","lat":43.25487,"lon":5.37653,"is_reserved":false,"is_disabled":false,"rental_uris":{"android":"levelo://app?vid=9b4d5cca-7e04-48b8-8147-dd5352ae952c","ios":"levelo://app?vid=9b4d5cca-7e04-48b8-8147-dd5352ae952c"},"vehicle_type_id":"4","last_reported":1743750611,"current_range_meters":14000,"station_id":"ce4bhh12rcd13ifvqff0","pricing_plan_id":"cebpf4jnsgd1na2vs0mg"},{"bike_id":"05d00f93-8e3a-4dda-843a-8c55f4e7abcc","system_id":"levelo_inurba_marseille","lat":43.31351,"lon":5.36733,"is_reserved":false,"is_disabled":false,"rental_uris":{"android":"levelo://app?vid=05d00f93-8e3a-4dda-843a-8c55f4e7abcc","ios":"levelo://app?vid=05d00f93-8e3a-4dda-843a-8c55f4e7abcc"},"vehicle_type_id":"4","last_reported":1743750611,"current_range_meters":14000,"station_id":"ce4bgr92rcd13ifvqc6g","pricing_plan_id":"cebpf4jnsgd1na2vs0mg"},{"bike_id":"e1c7679e-63f3-452b-bd03-1eaf81a5efbe","system_id":"levelo_inurba_marseille","lat":43.28473,"lon":5.38425,"is_reserved":false,"is_disabled":false,"rental_uris":{"android":"levelo://app?vid=e1c7679e-63f3-452b-bd03-1eaf81a5efbe","ios":"levelo://app?vid=e1c7679e-63f3-452b-bd03-1eaf81a5efbe"},"vehicle_type_id":"4","last_reported":1743750611,"current_range_meters":14000,"station_id":"","pricing_plan_id":"cebpf4jnsgd1na2vs0mg"},{"bike_id":"64fdbb2b-e20c-450b-87b0-deaa705d4ef0","system_id":"levelo_inurba_marseille","lat":43.31353,"lon":5.36709,"is_reserved":false,"is_disabled":false,"rental_uris":{"android":"levelo://app?vid=64fdbb2b-e20c-450b-87b0-deaa705d4ef0","ios":"levelo://app?vid=64fdbb2b-e20c-450b-87b0-deaa705d4ef0"},"vehicle_type_id":"4","last_reported":1743750611,"current_range_meters":14000,"station_id":"ce4bgr92rcd13ifvqc6g","pricing_plan_id":"cebpf4jnsgd1na2vs0mg"},{"bike_id":"b956a246-5006-4c32-9466-439b4c73e42f","system_id":"levelo_inurba_marseille","lat":43.27497,"lon":5.42458,"is_reserved":false,"is_disabled":false,"rental_uris":{"android":"levelo://app?vid=b956a246-5006-4c32-9466-439b4c73e42f","ios":"levelo://app?vid=b956a246-5006-4c32-9466-439b4c73e42f"},"vehicle_type_id":"4","last_reported":1743750611,"current_range_meters":14000,"station_id":"ce4bhn92rcd13ifvqgrg","pricing_plan_id":"cebpf4jnsgd1na2vs0mg"},{"bike_id":"7518bbf0-5e0c-4693-9826-ecfe0f23e6c5","system_id":"levelo_inurba_marseille","lat":43.30139,"lon":5.3741,"is_reserved":false,"is_disabled":false,"rental_uris":{"android":"levelo://app?vid=7518bbf0-5e0c-4693-9826-ecfe0f23e6c5","ios":"levelo://app?vid=7518bbf0-5e0c-4693-9826-ecfe0f23e6c5"},"vehicle_type_id":"4","last_reported":1743750611,"current_range_meters":14400,"station_id":"ce4bgs92rcd13ifvqcc0","pricing_plan_id":"cebpf4jnsgd1na2vs0mg"},{"bike_id":"e5c44f38-52c1-4a12-b066-3258caea8db4","system_id":"levelo_inurba_marseille","lat":43.28938,"lon":5.39636,"is_reserved":false,"is_disabled":false,"rental_uris":{"android":"levelo://app?vid=e5c44f38-52c1-4a12-b066-3258caea8db4","ios":"levelo://app?vid=e5c44f38-52c1-4a12-b066-3258caea8db4"},"vehicle_type_id":"4","last_reported":1743750611,"current_range_meters":14400,"station_id":"ce4bh3h2rcd13ifvqdn0","pricing_plan_id":"cebpf4jnsgd1na2vs0mg"},{"bike_id":"951eccc1-20d8-4955-ae3d-acda4b405800","system_id":"levelo_inurba_marseille","lat":43.30196,"lon":5.3808,"is_reserved":false,"is_disabled":false,"rental_uris":{"android":"levelo://app?vid=951eccc1-20d8-4955-ae3d-acda4b405800","ios":"levelo://app?vid=951eccc1-20d8-4955-ae3d-acda4b405800"},"vehicle_type_id":"4","last_reported":1743750611,"current_range_meters":14400,"station_id":"ce4bgjp2rcd13ifvqbh0","pricing_plan_id":"cebpf4jnsgd1na2vs0mg"},{"bike_id":"538954b0-bc54-45c5-9cef-16a29fd18cc8","system_id":"levelo_inurba_marseille","lat":43.25942,"lon":5.40904,"is_reserved":false,"is_disabled":false,"rental_uris":{"android":"levelo://app?vid=538954b0-bc54-45c5-9cef-16a29fd18cc8","ios":"levelo://app?vid=538954b0-bc54-45c5-9cef-16a29fd18cc8"},"vehicle_type_id":"4","last_reported":1743750611,"current_range_meters":14400,"station_id":"ce4bhm92rcd13ifvqglg","pricing_plan_id":"cebpf4jnsgd1na2vs0mg"},{"bike_id":"f3f2d5c7-c7c7-4f0a-ad22-d04730134ab9","system_id":"levelo_inurba_marseille","lat":43.30889,"lon":5.39654,"is_reserved":false,"is_disabled":true,"rental_uris":{"android":"levelo://app?vid=f3f2d5c7-c7c7-4f0a-ad22-d04730134ab9","ios":"levelo://app?vid=f3f2d5c7-c7c7-4f0a-ad22-d04730134ab9"},"vehicle_type_id":"4","last_reported":1743750611,"current_range_meters":14400,"station_id":"ce4bh012rcd13ifvqcv0","pricing_plan_id":"cebpf4jnsgd1na2vs0mg"},{"bike_id":"f9bf7a8c-d66f-4d22-a3bf-eceedaa6c4f9","system_id":"levelo_inurba_marseille","lat":43.24074,"lon":5.3776,"is_reserved":false,"is_disabled":false,"rental_uris":{"android":"levelo://app?vid=f9bf7a8c-d66f-4d22-a3bf-eceedaa6c4f9","ios":"levelo://app?vid=f9bf7a8c-d66f-4d22-a3bf-eceedaa6c4f9"},"vehicle_type_id":"4","last_reported":1743750611,"current_range_meters":14400,"station_id":"ce4bhnp2rcd13ifvqgvg","pricing_plan_id":"cebpf4jnsgd1na2vs0mg"},{"bike_id":"df2b21a7-d23b-4e81-8ba8-409cb58860a7","system_id":"levelo_inurba_marseille","lat":43.27946,"lon":5.4104,"is_reserved":false,"is_disabled":false,"rental_uris":{"android":"levelo://app?vid=df2b21a7-d23b-4e81-8ba8-409cb58860a7","ios":"levelo://app?vid=df2b21a7-d23b-4e81-8ba8-409cb58860a7"},"vehicle_type_id":"4","last_reported":1743750611,"current_range_meters":14400,"station_id":"ce4bhnp2rcd13ifvqh0g","pricing_plan_id":"cebpf4jnsgd1na2vs0mg"},{"bike_id":"e0339e79-e03e-4775-bced-f606d1414e1d","system_id":"levelo_inurba_marseille","lat":43.24635,"lon":5.38927,"is_reserved":false,"is_disabled":false,"rental_uris":{"android":"levelo://app?vid=e0339e79-e03e-4775-bced-f606d1414e1d","ios":"levelo://app?vid=e0339e79-e03e-4775-bced-f606d1414e1d"},"vehicle_type_id":"4","last_reported":1743750611,"current_range_meters":14000,"station_id":"ce4bhg12rcd13ifvqf60","pricing_plan_id":"cebpf4jnsgd1na2vs0mg"},{"bike_id":"4602486f-8ebc-44c7-b0c3-55584c3862b1","system_id":"levelo_inurba_marseille","lat":43.23151,"lon":5.43722,"is_reserved":false,"is_disabled":false,"rental_uris":{"android":"levelo://app?vid=4602486f-8ebc-44c7-b0c3-55584c3862b1","ios":"levelo://app?vid=4602486f-8ebc-44c7-b0c3-55584c3862b1"},"vehicle_type_id":"4","last_reported":1743750611,"current_range_meters":14400,"station_id":"ce4bhmp2rcd13ifvqgog","pricing_plan_id":"cebpf4jnsgd1na2vs0mg"},{"bike_id":"3b4ad8c6-6244-4378-90d7-dac703d1508d","system_id":"levelo_inurba_marseille","lat":43.23211,"lon":5.35588,"is_reserved":false,"is_disabled":false,"rental_uris":{"android":"levelo://app?vid=3b4ad8c6-6244-4378-90d7-dac703d1508d","ios":"levelo://app?vid=3b4ad8c6-6244-4378-90d7-dac703d1508d"},"vehicle_type_id":"4","last_reported":1743750611,"current_range_meters":14800,"station_id":"ce4bhu92rcd13ifvqi70","pricing_plan_id":"cebpf4jnsgd1na2vs0mg"},{"bike_id":"3e3d0dc5-72e4-4267-9cf4-f1519feaa927","system_id":"levelo_inurba_marseille","lat":43.30143,"lon":5.37424,"is_reserved":false,"is_disabled":false,"rental_uris":{"android":"levelo://app?vid=3e3d0dc5-72e4-4267-9cf4-f1519feaa927","ios":"levelo://app?vid=3e3d0dc5-72e4-4267-9cf4-f1519feaa927"},"vehicle_type_id":"4","last_reported":1743750611,"current_range_meters":14800,"station_id":"ce4bgs92rcd13ifvqcc0","pricing_plan_id":"cebpf4jnsgd1na2vs0mg"},{"bike_id":"a6303451-5b45-435c-bf0e-748f94cc010d","system_id":"levelo_inurba_marseille","lat":43.23206,"lon":5.35549,"is_reserved":false,"is_disabled":false,"rental_uris":{"android":"levelo://app?vid=a6303451-5b45-435c-bf0e-748f94cc010d","ios":"levelo://app?vid=a6303451-5b45-435c-bf0e-748f94cc010d"},"vehicle_type_id":"4","last_reported":1743750611,"current_range_meters":14800,"station_id":"ce4bhu92rcd13ifvqi70","pricing_plan_id":"cebpf4jnsgd1na2vs0mg"},{"bike_id":"f72c82d8-d5e9-4dba-a554-1e33746fa7b6","system_id":"levelo_inurba_marseille","lat":43.27948,"lon":5.41046,"is_reserved":false,"is_disabled":false,"rental_uris":{"android":"levelo://app?vid=f72c82d8-d5e9-4dba-a554-1e33746fa7b6","ios":"levelo://app?vid=f72c82d8-d5e9-4dba-a554-1e33746fa7b6"},"vehicle_type_id":"4","last_reported":1743750611,"current_range_meters":14800,"station_id":"ce4bhnp2rcd13ifvqh0g","pricing_plan_id":"cebpf4jnsgd1na2vs0mg"},{"bike_id":"eb3fd0db-3717-41c3-83f8-c9e70663d169","system_id":"levelo_inurba_marseille","lat":43.23178,"lon":5.43745,"is_reserved":false,"is_disabled":false,"rental_uris":{"android":"levelo://app?vid=eb3fd0db-3717-41c3-83f8-c9e70663d169","ios":"levelo://app?vid=eb3fd0db-3717-41c3-83f8-c9e70663d169"},"vehicle_type_id":"4","last_reported":1743750611,"current_range_meters":14800,"station_id":"ce4bhmp2rcd13ifvqgog","pricing_plan_id":"cebpf4jnsgd1na2vs0mg"},{"bike_id":"252eb5d5-adac-45d5-94c4-dbd923877ac9","system_id":"levelo_inurba_marseille","lat":43.28152,"lon":5.42643,"is_reserved":false,"is_disabled":false,"rental_uris":{"android":"levelo://app?vid=252eb5d5-adac-45d5-94c4-dbd923877ac9","ios":"levelo://app?vid=252eb5d5-adac-45d5-94c4-dbd923877ac9"},"vehicle_type_id":"4","last_reported":1743750611,"current_range_meters":14800,"station_id":"ce4bhnh2rcd13ifvqgug","pricing_plan_id":"cebpf4jnsgd1na2vs0mg"},{"bike_id":"752f534a-a1d5-4aec-92e1-0c500ba368d6","system_id":"levelo_inurba_marseille","lat":43.3236,"lon":5.38883,"is_reserved":false,"is_disabled":false,"rental_uris":{"android":"levelo://app?vid=752f534a-a1d5-4aec-92e1-0c500ba368d6","ios":"levelo://app?vid=752f534a-a1d5-4aec-92e1-0c500ba368d6"},"vehicle_type_id":"4","last_reported":1743750611,"current_range_meters":14800,"station_id":"ce4bhqp2rcd13ifvqhog","pricing_plan_id":"cebpf4jnsgd1na2vs0mg"},{"bike_id":"317c9fed-aa43-4ebc-a3ec-1c4e036450e0","system_id":"levelo_inurba_marseille","lat":43.24077,"lon":5.37759,"is_reserved":false,"is_disabled":false,"rental_uris":{"android":"levelo://app?vid=317c9fed-aa43-4ebc-a3ec-1c4e036450e0","ios":"levelo://app?vid=317c9fed-aa43-4ebc-a3ec-1c4e036450e0"},"vehicle_type_id":"4","last_reported":1743750611,"current_range_meters":14800,"station_id":"ce4bhnp2rcd13ifvqgvg","pricing_plan_id":"cebpf4jnsgd1na2vs0mg"},{"bike_id":"978f00e3-47d2-481d-80c8-31e1e7283ad6","system_id":"levelo_inurba_marseille","lat":43.2292,"lon":5.35367,"is_reserved":false,"is_disabled":false,"rental_uris":{"android":"levelo://app?vid=978f00e3-47d2-481d-80c8-31e1e7283ad6","ios":"levelo://app?vid=978f00e3-47d2-481d-80c8-31e1e7283ad6"},"vehicle_type_id":"4","last_reported":1743750611,"current_range_meters":14800,"station_id":"cpo3532slgdg3j2ikp40","pricing_plan_id":"cebpf4jnsgd1na2vs0mg"},{"bike_id":"6bfccdda-c0cb-4940-9123-b7ddcc718669","system_id":"levelo_inurba_marseille","lat":43.28667,"lon":5.38659,"is_reserved":false,"is_disabled":false,"rental_uris":{"android":"levelo://app?vid=6bfccdda-c0cb-4940-9123-b7ddcc718669","ios":"levelo://app?vid=6bfccdda-c0cb-4940-9123-b7ddcc718669"},"vehicle_type_id":"4","last_reported":1743750611,"current_range_meters":14400,"station_id":"ce4bh492rcd13ifvqdug","pricing_plan_id":"cebpf4jnsgd1na2vs0mg"},{"bike_id":"c2055a2a-1cff-4f19-a52d-9b52baeaa63f","system_id":"levelo_inurba_marseille","lat":43.319924,"lon":5.381623,"is_reserved":false,"is_disabled":true,"rental_uris":{"android":"levelo://app?vid=c2055a2a-1cff-4f19-a52d-9b52baeaa63f","ios":"levelo://app?vid=c2055a2a-1cff-4f19-a52d-9b52baeaa63f"},"vehicle_type_id":"4","last_reported":1743750611,"current_range_meters":14800,"station_id":"ce4bhr12rcd13ifvqhpg","pricing_plan_id":"cebpf4jnsgd1na2vs0mg"},{"bike_id":"7e886135-4525-4cbb-b034-0093109220fa","system_id":"levelo_inurba_marseille","lat":43.27325,"lon":5.39075,"is_reserved":false,"is_disabled":false,"rental_uris":{"android":"levelo://app?vid=7e886135-4525-4cbb-b034-0093109220fa","ios":"levelo://app?vid=7e886135-4525-4cbb-b034-0093109220fa"},"vehicle_type_id":"4","last_reported":1743750611,"current_range_meters":15200,"station_id":"ce4bhgp2rcd13ifvqfe0","pricing_plan_id":"cebpf4jnsgd1na2vs0mg"},{"bike_id":"c52ecb2e-7b4b-4697-9878-67c57bedc65c","system_id":"levelo_inurba_marseille","lat":43.34142,"lon":5.4091,"is_reserved":false,"is_disabled":false,"rental_uris":{"android":"levelo://app?vid=c52ecb2e-7b4b-4697-9878-67c57bedc65c","ios":"levelo://app?vid=c52ecb2e-7b4b-4697-9878-67c57bedc65c"},"vehicle_type_id":"4","last_reported":1743750611,"current_range_meters":15200,"station_id":"ce4bhqh2rcd13ifvqhlg","pricing_plan_id":"cebpf4jnsgd1na2vs0mg"},{"bike_id":"27ebc7eb-5de4-43f0-933c-44535f627bc9","system_id":"levelo_inurba_marseille","lat":43.25374,"lon":5.4186,"is_reserved":false,"is_disabled":false,"rental_uris":{"android":"levelo://app?vid=27ebc7eb-5de4-43f0-933c-44535f627bc9","ios":"levelo://app?vid=27ebc7eb-5de4-43f0-933c-44535f627bc9"},"vehicle_type_id":"4","last_reported":1743750611,"current_range_meters":15200,"station_id":"","pricing_plan_id":"cebpf4jnsgd1na2vs0mg"},{"bike_id":"cccce150-77a7-4565-8ca1-36858ce9e6b0","system_id":"levelo_inurba_marseille","lat":43.32115,"lon":5.36817,"is_reserved":false,"is_disabled":false,"rental_uris":{"android":"levelo://app?vid=cccce150-77a7-4565-8ca1-36858ce9e6b0","ios":"levelo://app?vid=cccce150-77a7-4565-8ca1-36858ce9e6b0"},"vehicle_type_id":"4","last_reported":1743750611,"current_range_meters":15200,"station_id":"ce4bhrh2rcd13ifvqhug","pricing_plan_id":"cebpf4jnsgd1na2vs0mg"},{"bike_id":"ad26a5aa-8188-4073-82a6-a4020a7d2eba","system_id":"levelo_inurba_marseille","lat":43.30148,"lon":5.38779,"is_reserved":false,"is_disabled":false,"rental_uris":{"android":"levelo://app?vid=ad26a5aa-8188-4073-82a6-a4020a7d2eba","ios":"levelo://app?vid=ad26a5aa-8188-4073-82a6-a4020a7d2eba"},"vehicle_type_id":"4","last_reported":1743750611,"current_range_meters":16000,"station_id":"ce4bghh2rcd13ifvqb60","pricing_plan_id":"cebpf4jnsgd1na2vs0mg"},{"bike_id":"4784cd27-b24b-4da8-be33-78a80bb8f096","system_id":"levelo_inurba_marseille","lat":43.27933,"lon":5.41067,"is_reserved":false,"is_disabled":false,"rental_uris":{"android":"levelo://app?vid=4784cd27-b24b-4da8-be33-78a80bb8f096","ios":"levelo://app?vid=4784cd27-b24b-4da8-be33-78a80bb8f096"},"vehicle_type_id":"4","last_reported":1743750611,"current_range_meters":16000,"station_id":"ce4bhnp2rcd13ifvqh0g","pricing_plan_id":"cebpf4jnsgd1na2vs0mg"},{"bike_id":"8fe101ea-e638-4c52-bc73-10ca947cec79","system_id":"levelo_inurba_marseille","lat":43.26225,"lon":5.38798,"is_reserved":false,"is_disabled":false,"rental_uris":{"android":"levelo://app?vid=8fe101ea-e638-4c52-bc73-10ca947cec79","ios":"levelo://app?vid=8fe101ea-e638-4c52-bc73-10ca947cec79"},"vehicle_type_id":"4","last_reported":1743750611,"current_range_meters":16000,"station_id":"","pricing_plan_id":"cebpf4jnsgd1na2vs0mg"},{"bike_id":"0182140a-2247-43c8-9f4c-a243aeffefba","system_id":"levelo_inurba_marseille","lat":43.27495,"lon":5.42456,"is_reserved":false,"is_disabled":false,"rental_uris":{"android":"levelo://app?vid=0182140a-2247-43c8-9f4c-a243aeffefba","ios":"levelo://app?vid=0182140a-2247-43c8-9f4c-a243aeffefba"},"vehicle_type_id":"4","last_reported":1743750611,"current_range_meters":16000,"station_id":"ce4bhn92rcd13ifvqgrg","pricing_plan_id":"cebpf4jnsgd1na2vs0mg"},{"bike_id":"48ec1fe3-fdf4-49a5-977a-526829b4e2e3","system_id":"levelo_inurba_marseille","lat":43.230576,"lon":5.354917,"is_reserved":false,"is_disabled":false,"rental_uris":{"android":"levelo://app?vid=48ec1fe3-fdf4-49a5-977a-526829b4e2e3","ios":"levelo://app?vid=48ec1fe3-fdf4-49a5-977a-526829b4e2e3"},"vehicle_type_id":"4","last_reported":1743750611,"current_range_meters":16000,"station_id":"cpo3342slgdg3j2ifvpg","pricing_plan_id":"cebpf4jnsgd1na2vs0mg"},{"bike_id":"0f9b7c14-724b-4e26-8342-6f4ecf0e5ca2","system_id":"levelo_inurba_marseille","lat":43.29269,"lon":5.40115,"is_reserved":false,"is_disabled":false,"rental_uris":{"android":"levelo://app?vid=0f9b7c14-724b-4e26-8342-6f4ecf0e5ca2","ios":"levelo://app?vid=0f9b7c14-724b-4e26-8342-6f4ecf0e5ca2"},"vehicle_type_id":"4","last_reported":1743750611,"current_range_meters":16000,"station_id":"ce4bh312rcd13ifvqdk0","pricing_plan_id":"cebpf4jnsgd1na2vs0mg"},{"bike_id":"0fd12a38-6761-41f7-bab2-c43e0affa3b8","system_id":"levelo_inurba_marseille","lat":43.30133,"lon":5.39857,"is_reserved":false,"is_disabled":false,"rental_uris":{"android":"levelo://app?vid=0fd12a38-6761-41f7-bab2-c43e0affa3b8","ios":"levelo://app?vid=0fd12a38-6761-41f7-bab2-c43e0affa3b8"},"vehicle_type_id":"4","last_reported":1743750611,"current_range_meters":16000,"station_id":"ce4bh0h2rcd13ifvqd40","pricing_plan_id":"cebpf4jnsgd1na2vs0mg"},{"bike_id":"cf00e7a5-a3fc-4b45-88d7-cf9ed031045d","system_id":"levelo_inurba_marseille","lat":43.246514,"lon":5.381628,"is_reserved":false,"is_disabled":false,"rental_uris":{"android":"levelo://app?vid=cf00e7a5-a3fc-4b45-88d7-cf9ed031045d","ios":"levelo://app?vid=cf00e7a5-a3fc-4b45-88d7-cf9ed031045d"},"vehicle_type_id":"4","last_reported":1743750611,"current_range_meters":16000,"station_id":"ce4bhnp2rcd13ifvqgvg","pricing_plan_id":"cebpf4jnsgd1na2vs0mg"},{"bike_id":"38c05c9b-15ed-49af-8f55-72205ff8fe47","system_id":"levelo_inurba_marseille","lat":43.24063,"lon":5.3775,"is_reserved":false,"is_disabled":false,"rental_uris":{"android":"levelo://app?vid=38c05c9b-15ed-49af-8f55-72205ff8fe47","ios":"levelo://app?vid=38c05c9b-15ed-49af-8f55-72205ff8fe47"},"vehicle_type_id":"4","last_reported":1743750611,"current_range_meters":16000,"station_id":"ce4bhnp2rcd13ifvqgvg","pricing_plan_id":"cebpf4jnsgd1na2vs0mg"},{"bike_id":"188e01b9-65db-4a5b-b580-c3a2d1a3e000","system_id":"levelo_inurba_marseille","lat":43.2873,"lon":5.37102,"is_reserved":false,"is_disabled":false,"rental_uris":{"android":"levelo://app?vid=188e01b9-65db-4a5b-b580-c3a2d1a3e000","ios":"levelo://app?vid=188e01b9-65db-4a5b-b580-c3a2d1a3e000"},"vehicle_type_id":"4","last_reported":1743750611,"current_range_meters":16000,"station_id":"","pricing_plan_id":"cebpf4jnsgd1na2vs0mg"},{"bike_id":"4e7c483f-8e09-4a67-9f1a-99d97e9ca396","system_id":"levelo_inurba_marseille","lat":43.25586,"lon":5.38253,"is_reserved":false,"is_disabled":false,"rental_uris":{"android":"levelo://app?vid=4e7c483f-8e09-4a67-9f1a-99d97e9ca396","ios":"levelo://app?vid=4e7c483f-8e09-4a67-9f1a-99d97e9ca396"},"vehicle_type_id":"4","last_reported":1743750611,"current_range_meters":16000,"station_id":"ce4bhih2rcd13ifvqfs0","pricing_plan_id":"cebpf4jnsgd1na2vs0mg"},{"bike_id":"37eadeb7-aaf0-47e0-9ac7-3cfe5222a705","system_id":"levelo_inurba_marseille","lat":43.26787,"lon":5.3941,"is_reserved":false,"is_disabled":false,"rental_uris":{"android":"levelo://app?vid=37eadeb7-aaf0-47e0-9ac7-3cfe5222a705","ios":"levelo://app?vid=37eadeb7-aaf0-47e0-9ac7-3cfe5222a705"},"vehicle_type_id":"4","last_reported":1743750611,"current_range_meters":16000,"station_id":"ce4bhh12rcd13ifvqfg0","pricing_plan_id":"cebpf4jnsgd1na2vs0mg"},{"bike_id":"6d9715e6-045f-417b-844a-144b6e5c1132","system_id":"levelo_inurba_marseille","lat":43.29217,"lon":5.35711,"is_reserved":false,"is_disabled":false,"rental_uris":{"android":"levelo://app?vid=6d9715e6-045f-417b-844a-144b6e5c1132","ios":"levelo://app?vid=6d9715e6-045f-417b-844a-144b6e5c1132"},"vehicle_type_id":"4","last_reported":1743750611,"current_range_meters":16000,"station_id":"","pricing_plan_id":"cebpf4jnsgd1na2vs0mg"},{"bike_id":"1d5ef6d0-a413-45b3-8100-7222d11689f2","system_id":"levelo_inurba_marseille","lat":43.28923,"lon":5.38415,"is_reserved":false,"is_disabled":true,"rental_uris":{"android":"levelo://app?vid=1d5ef6d0-a413-45b3-8100-7222d11689f2","ios":"levelo://app?vid=1d5ef6d0-a413-45b3-8100-7222d11689f2"},"vehicle_type_id":"4","last_reported":1743750611,"current_range_meters":16000,"station_id":"ce4bh612rcd13ifvqe6g","pricing_plan_id":"cebpf4jnsgd1na2vs0mg"},{"bike_id":"0244a9d7-07d8-4974-af21-df45550d20c0","system_id":"levelo_inurba_marseille","lat":43.30464,"lon":5.37908,"is_reserved":false,"is_disabled":false,"rental_uris":{"android":"levelo://app?vid=0244a9d7-07d8-4974-af21-df45550d20c0","ios":"levelo://app?vid=0244a9d7-07d8-4974-af21-df45550d20c0"},"vehicle_type_id":"4","last_reported":1743750611,"current_range_meters":16400,"station_id":"ce4bgup2rcd13ifvqcn0","pricing_plan_id":"cebpf4jnsgd1na2vs0mg"},{"bike_id":"eb79d1f9-7c91-4ea2-b5f8-796189743e1a","system_id":"levelo_inurba_marseille","lat":43.337291,"lon":5.391747,"is_reserved":false,"is_disabled":false,"rental_uris":{"android":"levelo://app?vid=eb79d1f9-7c91-4ea2-b5f8-796189743e1a","ios":"levelo://app?vid=eb79d1f9-7c91-4ea2-b5f8-796189743e1a"},"vehicle_type_id":"4","last_reported":1743750611,"current_range_meters":16400,"station_id":"ce4bhr92rcd13ifvqhsg","pricing_plan_id":"cebpf4jnsgd1na2vs0mg"},{"bike_id":"d1ef5f56-a77a-4566-a805-8e39e02e74b6","system_id":"levelo_inurba_marseille","lat":43.30569,"lon":5.36542,"is_reserved":false,"is_disabled":false,"rental_uris":{"android":"levelo://app?vid=d1ef5f56-a77a-4566-a805-8e39e02e74b6","ios":"levelo://app?vid=d1ef5f56-a77a-4566-a805-8e39e02e74b6"},"vehicle_type_id":"4","last_reported":1743750611,"current_range_meters":16400,"station_id":"ce4bgs12rcd13ifvqcag","pricing_plan_id":"cebpf4jnsgd1na2vs0mg"},{"bike_id":"0a2af547-4d95-4c8b-9421-f61b7714903d","system_id":"levelo_inurba_marseille","lat":43.26546,"lon":5.37316,"is_reserved":false,"is_disabled":false,"rental_uris":{"android":"levelo://app?vid=0a2af547-4d95-4c8b-9421-f61b7714903d","ios":"levelo://app?vid=0a2af547-4d95-4c8b-9421-f61b7714903d"},"vehicle_type_id":"4","last_reported":1743750611,"current_range_meters":16400,"station_id":"ce4bhg12rcd13ifvqf70","pricing_plan_id":"cebpf4jnsgd1na2vs0mg"},{"bike_id":"6f09a682-5e98-435e-86e7-b24545dd33ac","system_id":"levelo_inurba_marseille","lat":43.24163,"lon":5.36392,"is_reserved":false,"is_disabled":false,"rental_uris":{"android":"levelo://app?vid=6f09a682-5e98-435e-86e7-b24545dd33ac","ios":"levelo://app?vid=6f09a682-5e98-435e-86e7-b24545dd33ac"},"vehicle_type_id":"4","last_reported":1743750611,"current_range_meters":16400,"station_id":"cpo36qri1sfpv3e86is0","pricing_plan_id":"cebpf4jnsgd1na2vs0mg"},