{"last_updated":1723745496,"ttl":30,"version":"2.2","data":{"bikes":[{"bike_id":"58440ee5-0617-4f21-90e2-7a59822c1ae2","system_id":"levelo_inurba_marseille","lat":43.313391,"lon":5.36706,"is_reserved":false,"is_disabled":false,"rental_uris":{"android":"levelo://app?vid=58440ee5-0617-4f21-90e2-7a59822c1ae2","ios":"levelo://app?vid=58440ee5-0617-4f21-90e2-7a59822c1ae2"},"vehicle_type_id":"4","last_reported":1723745496,"current_range_meters":23200,"station_id":"ce4bgr92rcd13ifvqc6g","pricing_plan_id":"cebpf4jnsgd1na2vs0mg"},{"bike_id":"d112b498-833e-4023-bf93-6ac7cddb2868","system_id":"levelo_inurba_marseille","lat":43.312239,"lon":5.368562,"is_reserved":false,"is_disabled":false,"rental_uris":{"android":"levelo://app?vid=d112b498-833e-4023-bf93-6ac7cddb2868","ios":"levelo://app?vid=d112b498-833e-4023-bf93-6ac7cddb2868"},"vehicle_type_id":"4","last_reported":1723745496,"current_range_meters":8400,"station_id":"ce4bgl92rcd13ifvqbq0","pricing_plan_id":"cebpf4jnsgd1na2vs0mg"},{"bike_id":"329720f8-27ce-4ef3-8df7-efa894e814cd","system_id":"levelo_inurba_marseille","lat":43.312239,"lon":5.368562,"is_reserved":false,"is_disabled":false,"rental_uris":{"android":"levelo://app?vid=329720f8-27ce-4ef3-8df7-efa894e814cd","ios":"levelo://app?vid=329720f8-27ce-4ef3-8df7-efa894e814cd"},"vehicle_type_id":"4","last_reported":1723745496,"current_range_meters":2000,"station_id":"ce4bgl92rcd13ifvqbq0","pricing_plan_id":"cebpf4jnsgd1na2vs0mg"},{"bike_id":"6b0ed912-c442-460e-be74-4be0eca0319e","system_id":"levelo_inurba_marseille","lat":43.312239,"lon":5.368562,"is_reserved":false,"is_disabled":false,"rental_uris":{"android":"levelo://app?vid=6b0ed912-c442-460e-be74-4be0eca0319e","ios":"levelo://app?vid=6b0ed912-c442-460e-be74-4be0eca0319e"},"vehicle_type_id":"4","last_reported":1723745496,"current_range_meters":2400,"station_id":"ce4bgl92rcd13ifvqbq0","pricing_plan_id":"cebpf4jnsgd1na2vs0mg"},{"bike_id":"84630644-e930-46c8-8cd4-e646656b0341","system_id":"levelo_inurba_marseille","lat":43.312239,"lon":5.368562,"is_reserved":false,"is_disabled":false,"rental_uris":{"android":"levelo://app?vid=84630644-e930-46c8-8cd4-e646656b0341","ios":"levelo://app?vid=84630644-e930-46c8-8cd4-e646656b0341"},"vehicle_type_id":"4","last_reported":1723745496,"current_range_meters":15200,"station_id":"ce4bgl92rcd13ifvqbq0","pricing_plan_id":"cebpf4jnsgd1na2vs0mg"},{"bike_id":"b72f775e-f258-42b9-acf2-b1b4ba2d4f77","system_id":"levelo_inurba_marseille","lat":43.312239,"lon":5.368562,"is_reserved":false,"is_disabled":false,"rental_uris":{"android":"levelo://app?vid=b72f775e-f258-42b9-acf2-b1b4ba2d4f77","ios":"levelo://app?vid=b72f775e-f258-42b9-acf2-b1b4ba2d4f77"},"vehicle_type_id":"4","last_reported":1723745496,"current_range_meters":17600,"station_id":"ce4bgl92rcd13ifvqbq0","pricing_plan_id":"cebpf4jnsgd1na2vs0mg"},{"bike_id":"b3e68624-6ee6-48e5-85c3-2a501c5eed99","system_id":"levelo_inurba_marseille","lat":43.312239,"lon":5.368562,"is_reserved":false,"is_disabled":false,"rental_uris":{"android":"levelo://app?vid=b3e68624-6ee6-48e5-85c3-2a501c5eed99","ios":"levelo://app?vid=b3e68624-6ee6-48e5-85c3-2a501c5eed99"},"vehicle_type_id":"4","last_reported":1723745496,"current_range_meters":800,"station_id":"ce4bgl92rcd13ifvqbq0","pricing_plan_id":"cebpf4jnsgd1na2vs0mg"},{"bike_id":"179f66dc-419a-4fc6-ade1-343399a4fd6b","system_id":"levelo_inurba_marseille","lat":43.312239,"lon":5.368562,"is_reserved":false,"is_disabled":false,"rental_uris":{"android":"levelo://app?vid=179f66dc-419a-4fc6-ade1-343399a4fd6b","ios":"levelo://app?vid=179f66dc-419a-4fc6-ade1-343399a4fd6b"},"vehicle_type_id":"4","last_reported":1723745496,"current_range_meters":11200,"station_id":"ce4bgl92rcd13ifvqbq0","pricing_plan_id":"cebpf4jnsgd1na2vs0mg"},{"bike_id":"0a47ccf8-4cc0-4cd0-831a-3db14371771e","system_id":"levelo_inurba_marseille","lat":43.312239,"lon":5.368562,"is_reserved":false,"is_disabled":false,"rental_uris":{"android":"levelo://app?vid=0a47ccf8-4cc0-4cd0-831a-3db14371771e","ios":"levelo://app?vid=0a47ccf8-4cc0-4cd0-831a-3db14371771e"},"vehicle_type_id":"4","last_reported":1723745496,"current_range_meters":12400,"station_id":"ce4bgl92rcd13ifvqbq0","pricing_plan_id":"cebpf4jnsgd1na2vs0mg"},{"bike_id":"2dc5a795-1920-4233-aaf3-49b71638d780","system_id":"levelo_inurba_marseille","lat":43.309076,"lon":5.368465,"is_reserved":false,"is_disabled":false,"rental_uris":{"android":"levelo://app?vid=2dc5a795-1920-4233-aaf3-49b71638d780","ios":"levelo://app?vid=2dc5a795-1920-4233-aaf3-49b71638d780"},"vehicle_type_id":"4","last_reported":1723745496,"current_range_meters":20000,"station_id":"ce4bgn92rcd13ifvqbvg","pricing_plan_id":"cebpf4jnsgd1na2vs0mg"},{"bike_id":"2d38d51b-121f-43cb-a68d-39debe9c165a","system_id":"levelo_inurba_marseille","lat":43.309076,"lon":5.368465,"is_reserved":false,"is_disabled":false,"rental_uris":{"android":"levelo://app?vid=2d38d51b-121f-43cb-a68d-39debe9c165a","ios":"levelo://app?vid=2d38d51b-121f-43cb-a68d-39debe9c165a"},"vehicle_type_id":"4","last_reported":1723745496,"current_range_meters":24000,"station_id":"ce4bgn92rcd13ifvqbvg","pricing_plan_id":"cebpf4jnsgd1na2vs0mg"},{"bike_id":"8ed46499-4ffa-4c0c-871a-3bc0bbf2e880","system_id":"levelo_inurba_marseille","lat":43.309076,"lon":5.368465,"is_reserved":false,"is_disabled":false,"rental_uris":{"android":"levelo://app?vid=8ed46499-4ffa-4c0c-871a-3bc0bbf2e880","ios":"levelo://app?vid=8ed46499-4ffa-4c0c-871a-3bc0bbf2e880"},"vehicle_type_id":"4","last_reported":1723745496,"current_range_meters":17200,"station_id":"ce4bgn92rcd13ifvqbvg","pricing_plan_id":"cebpf4jnsgd1na2vs0mg"},{"bike_id":"662edec3-0a96-46fb-9da4-b69f9b3cacf6","system_id":"levelo_inurba_marseille","lat":43.309076,"lon":5.368465,"is_reserved":false,"is_disabled":false,"rental_uris":{"android":"levelo://app?vid=662edec3-0a96-46fb-9da4-b69f9b3cacf6","ios":"levelo://app?vid=662edec3-0a96-46fb-9da4-b69f9b3cacf6"},"vehicle_type_id":"4","last_reported":1723745496,"current_range_meters":13600,"station_id":"ce4bgn92rcd13ifvqbvg","pricing_plan_id":"cebpf4jnsgd1na2vs0mg"},{"bike_id":"4a17c4c3-6cb7-4af7-a9b4-bcaeecfc7249","system_id":"levelo_inurba_marseille","lat":43.314811,"lon":5.373103,"is_reserved":false,"is_disabled":false,"rental_uris":{"android":"levelo://app?vid=4a17c4c3-6cb7-4af7-a9b4-bcaeecfc7249","ios":"levelo://app?vid=4a17c4c3-6cb7-4af7-a9b4-bcaeecfc7249"},"vehicle_type_id":"4","last_reported":1723745496,"current_range_meters":2400,"station_id":"ce4bgt12rcd13ifvqcd0","pricing_plan_id":"cebpf4jnsgd1na2vs0mg"},{"bike_id":"ac34eb56-1338-43f2-8e01-a699c7f240b5","system_id":"levelo_inurba_marseille","lat":43.314811,"lon":5.373103,"is_reserved":false,"is_disabled":false,"rental_uris":{"android":"levelo://app?vid=ac34eb56-1338-43f2-8e01-a699c7f240b5","ios":"levelo://app?vid=ac34eb56-1338-43f2-8e01-a699c7f240b5"},"vehicle_type_id":"4","last_reported":1723745496,"current_range_meters":16400,"station_id":"ce4bgt12rcd13ifvqcd0","pricing_plan_id":"cebpf4jnsgd1na2vs0mg"},{"bike_id":"4a27ecfc-43b4-42ba-89af-6b7d3847f158","system_id":"levelo_inurba_marseille","lat":43.309039,"lon":5.371797,"is_reserved":false,"is_disabled":false,"rental_uris":{"android":"levelo://app?vid=4a27ecfc-43b4-42ba-89af-6b7d3847f158","ios":"levelo://app?vid=4a27ecfc-43b4-42ba-89af-6b7d3847f158"},"vehicle_type_id":"4","last_reported":1723745496,"current_range_meters":10000,"station_id":"ce4bguh2rcd13ifvqckg","pricing_plan_id":"cebpf4jnsgd1na2vs0mg"},{"bike_id":"5c3e7e5d-f7ea-4a48-88e2-4153987c3e38","system_id":"levelo_inurba_marseille","lat":43.309039,"lon":5.371797,"is_reserved":false,"is_disabled":false,"rental_uris":{"android":"levelo://app?vid=5c3e7e5d-f7ea-4a48-88e2-4153987c3e38","ios":"levelo://app?vid=5c3e7e5d-f7ea-4a48-88e2-4153987c3e38"},"vehicle_type_id":"4","last_reported":1723745496,"current_range_meters":31600,"station_id":"ce4bguh2rcd13ifvqckg","pricing_plan_id":"cebpf4jnsgd1na2vs0mg"},{"bike_id":"f8f2c95f-62cb-44b4-9672-a0119502fc8c","system_id":"levelo_inurba_marseille","lat":43.309034,"lon":5.371783,"is_reserved":false,"is_disabled":false,"rental_uris":{"android":"levelo://app?vid=f8f2c95f-62cb-44b4-9672-a0119502fc8c","ios":"levelo://app?vid=f8f2c95f-62cb-44b4-9672-a0119502fc8c"},"vehicle_type_id":"4","last_reported":1723745496,"current_range_meters":5600,"station_id":"ce4bguh2rcd13ifvqckg","pricing_plan_id":"cebpf4jnsgd1na2vs0mg"},{"bike_id":"d806e892-f2b5-4e7f-a4b4-b6e3da10b534","system_id":"levelo_inurba_marseille","lat":43.309039,"lon":5.371797,"is_reserved":false,"is_disabled":false,"rental_uris":{"android":"levelo://app?vid=d806e892-f2b5-4e7f-a4b4-b6e3da10b534","ios":"levelo://app?vid=d806e892-f2b5-4e7f-a4b4-b6e3da10b534"},"vehicle_type_id":"4","last_reported":1723745496,"current_range_meters":28400,"station_id":"ce4bguh2rcd13ifvqckg","pricing_plan_id":"cebpf4jnsgd1na2vs0mg"},{"bike_id":"0a2cd40f-5691-4368-86a3-d880528c209e","system_id":"levelo_inurba_marseille","lat":43.305368,"lon":5.367343,"is_reserved":false,"is_disabled":false,"rental_uris":{"android":"levelo://app?vid=0a2cd40f-5691-4368-86a3-d880528c209e","ios":"levelo://app?vid=0a2cd40f-5691-4368-86a3-d880528c209e"},"vehicle_type_id":"4","last_reported":1723745496,"current_range_meters":30800,"station_id":"ce4bgrp2rcd13ifvqc9g","pricing_plan_id":"cebpf4jnsgd1na2vs0mg"},{"bike_id":"90b24e60-e64c-45e6-86ad-d0c829d3e484","system_id":"levelo_inurba_marseille","lat":43.305989,"lon":5.37225,"is_reserved":false,"is_disabled":false,"rental_uris":{"android":"levelo://app?vid=90b24e60-e64c-45e6-86ad-d0c829d3e484","ios":"levelo://app?vid=90b24e60-e64c-45e6-86ad-d0c829d3e484"},"vehicle_type_id":"4","last_reported":1723745496,"current_range_meters":18400,"station_id":"ce4bgqh2rcd13ifvqc4g","pricing_plan_id":"cebpf4jnsgd1na2vs0mg"},{"bike_id":"2dc6d26d-c53f-487c-9ba4-4c14a4f33099","system_id":"levelo_inurba_marseille","lat":43.305989,"lon":5.37225,"is_reserved":false,"is_disabled":false,"rental_uris":{"android":"levelo://app?vid=2dc6d26d-c53f-487c-9ba4-4c14a4f33099","ios":"levelo://app?vid=2dc6d26d-c53f-487c-9ba4-4c14a4f33099"},"vehicle_type_id":"4","last_reported":1723745496,"current_range_meters":24000,"station_id":"ce4bgqh2rcd13ifvqc4g","pricing_plan_id":"cebpf4jnsgd1na2vs0mg"},{"bike_id":"57fab331-5ebd-414a-8358-85e1bf602fbb","system_id":"levelo_inurba_marseille","lat":43.305989,"lon":5.37225,"is_reserved":false,"is_disabled":false,"rental_uris":{"android":"levelo://app?vid=57fab331-5ebd-414a-8358-85e1bf602fbb","ios":"levelo://app?vid=57fab331-5ebd-414a-8358-85e1bf602fbb"},"vehicle_type_id":"4","last_reported":1723745496,"current_range_meters":23600,"station_id":"ce4bgqh2rcd13ifvqc4g","pricing_plan_id":"cebpf4jnsgd1na2vs0mg"},{"bike_id":"22863854-25f0-41d4-99cc-9a4c00fead21","system_id":"levelo_inurba_marseille","lat":43.305989,"lon":5.37225,"is_reserved":false,"is_disabled":false,"rental_uris":{"android":"levelo://app?vid=22863854-25f0-41d4-99cc-9a4c00fead21","ios":"levelo://app?vid=22863854-25f0-41d4-99cc-9a4c00fead21"},"vehicle_type_id":"4","last_reported":1723745496,"current_range_meters":17200,"station_id":"ce4bgqh2rcd13ifvqc4g","pricing_plan_id":"cebpf4jnsgd1na2vs0mg"},{"bike_id":"86959c23-772b-4cb9-9cb8-ca0ab9c6a31f","system_id":"levelo_inurba_marseille","lat":43.305989,"lon":5.37225,"is_reserved":false,"is_disabled":false,"rental_uris":{"android":"levelo://app?vid=86959c23-772b-4cb9-9cb8-ca0ab9c6a31f","ios":"levelo://app?vid=86959c23-772b-4cb9-9cb8-ca0ab9c6a31f"},"vehicle_type_id":"4","last_reported":1723745496,"current_range_meters":22000,"station_id":"ce4bgqh2rcd13ifvqc4g","pricing_plan_id":"cebpf4jnsgd1na2vs0mg"},{"bike_id":"6fc50849-986e-4a90-a310-4c2ea5da0ea4","system_id":"levelo_inurba_marseille","lat":43.305989,"lon":5.37225,"is_reserved":false,"is_disabled":false,"rental_uris":{"android":"levelo://app?vid=6fc50849-986e-4a90-a310-4c2ea5da0ea4","ios":"levelo://app?vid=6fc50849-986e-4a90-a310-4c2ea5da0ea4"},"vehicle_type_id":"4","last_reported":1723745496,"current_range_meters":29200,"station_id":"ce4bgqh2rcd13ifvqc4g","pricing_plan_id":"cebpf4jnsgd1na2vs0mg"},{"bike_id":"ed5872e2-fe12-4b5e-b23a-b818f2a7ea40","system_id":"levelo_inurba_marseille","lat":43.305989,"lon":5.37225,"is_reserved":false,"is_disabled":false,"rental_uris":{"android":"levelo://app?vid=ed5872e2-fe12-4b5e-b23a-b818f2a7ea40","ios":"levelo://app?vid=ed5872e2-fe12-4b5e-b23a-b818f2a7ea40"},"vehicle_type_id":"4","last_reported":1723745496,"current_range_meters":15600,"station_id":"ce4bgqh2rcd13ifvqc4g","pricing_plan_id":"cebpf4jnsgd1na2vs0mg"},{"bike_id":"8ab4b8b3-1e19-450b-aeca-2d25e8b60b65","system_id":"levelo_inurba_marseille","lat":43.305989,"lon":5.37225,"is_reserved":false,"is_disabled":false,"rental_uris":{"android":"levelo://app?vid=8ab4b8b3-1e19-450b-aeca-2d25e8b60b65","ios":"levelo://app?vid=8ab4b8b3-1e19-450b-aeca-2d25e8b60b65"},"vehicle_type_id":"4","last_reported":1723745496,"current_range_meters":21600,"station_id":"ce4bgqh2rcd13ifvqc4g","pricing_plan_id":"cebpf4jnsgd1na2vs0mg"},{"bike_id":"d1fa2367-0510-457b-accd-13512bc5c84d","system_id":"levelo_inurba_marseille","lat":43.311125,"lon":5.377624,"is_reserved":false,"is_disabled":false,"rental_uris":{"android":"levelo://app?vid=d1fa2367-0510-457b-accd-13512bc5c84d","ios":"levelo://app?vid=d1fa2367-0510-457b-accd-13512bc5c84d"},"vehicle_type_id":"4","last_reported":1723745496,"current_range_meters":22400,"station_id":"ce4bgt92rcd13ifvqcg0","pricing_plan_id":"cebpf4jnsgd1na2vs0mg"},{"bike_id":"8641847b-9493-46f4-b3a0-fa60cc513f2f","system_id":"levelo_inurba_marseille","lat":43.311131,"lon":5.377651,"is_reserved":false,"is_disabled":false,"rental_uris":{"android":"levelo://app?vid=8641847b-9493-46f4-b3a0-fa60cc513f2f","ios":"levelo://app?vid=8641847b-9493-46f4-b3a0-fa60cc513f2f"},"vehicle_type_id":"4","last_reported":1723745496,"current_range_meters":25200,"station_id":"ce4bgt92rcd13ifvqcg0","pricing_plan_id":"cebpf4jnsgd1na2vs0mg"},{"bike_id":"7c5d8e69-e7e4-4e7d-8653-73dc9068f26b","system_id":"levelo_inurba_marseille","lat":43.311125,"lon":5.377624,"is_reserved":false,"is_disabled":false,"rental_uris":{"android":"levelo://app?vid=7c5d8e69-e7e4-4e7d-8653-73dc9068f26b","ios":"levelo://app?vid=7c5d8e69-e7e4-4e7d-8653-73dc9068f26b"},"vehicle_type_id":"4","last_reported":1723745496,"current_range_meters":29200,"station_id":"ce4bgt92rcd13ifvqcg0","pricing_plan_id":"cebpf4jnsgd1na2vs0mg"},{"bike_id":"e4d6a8e0-bb9a-493f-9ae1-46ceb05a9d48","system_id":"levelo_inurba_marseille","lat":43.311125,"lon":5.377624,"is_reserved":false,"is_disabled":false,"rental_uris":{"android":"levelo://app?vid=e4d6a8e0-bb9a-493f-9ae1-46ceb05a9d48","ios":"levelo://app?vid=e4d6a8e0-bb9a-493f-9ae1-46ceb05a9d48"},"vehicle_type_id":"4","last_reported":1723745496,"current_range_meters":18000,"station_id":"ce4bgt92rcd13ifvqcg0","pricing_plan_id":"cebpf4jnsgd1na2vs0mg"},{"bike_id":"838db905-0c27-4ab4-825e-13cc0886d266","system_id":"levelo_inurba_marseille","lat":43.311125,"lon":5.377624,"is_reserved":false,"is_disabled":false,"rental_uris":{"android":"levelo://app?vid=838db905-0c27-4ab4-825e-13cc0886d266","ios":"levelo://app?vid=838db905-0c27-4ab4-825e-13cc0886d266"},"vehicle_type_id":"4","last_reported":1723745496,"current_range_meters":4800,"station_id":"ce4bgt92rcd13ifvqcg0","pricing_plan_id":"cebpf4jnsgd1na2vs0mg"},{"bike_id":"7be836fa-f2e4-4475-885e-e28e2674ada4","system_id":"levelo_inurba_marseille","lat":43.311125,"lon":5.377624,"is_reserved":false,"is_disabled":false,"rental_uris":{"android":"levelo://app?vid=7be836fa-f2e4-4475-885e-e28e2674ada4","ios":"levelo://app?vid=7be836fa-f2e4-4475-885e-e28e2674ada4"},"vehicle_type_id":"4","last_reported":1723745496,"current_range_meters":14800,"station_id":"ce4bgt92rcd13ifvqcg0","pricing_plan_id":"cebpf4jnsgd1na2vs0mg"},{"bike_id":"1ff8b504-f728-4ad2-8ce3-fd2d4ad399af","system_id":"levelo_inurba_marseille","lat":43.305989,"lon":5.37225,"is_reserved":false,"is_disabled":false,"rental_uris":{"android":"levelo://app?vid=1ff8b504-f728-4ad2-8ce3-fd2d4ad399af","ios":"levelo://app?vid=1ff8b504-f728-4ad2-8ce3-fd2d4ad399af"},"vehicle_type_id":"4","last_reported":1723745496,"current_range_meters":9600,"station_id":"ce4bgqh2rcd13ifvqc4g","pricing_plan_id":"cebpf4jnsgd1na2vs0mg"},{"bike_id":"47c0e401-d440-47d7-bb30-a1fb014af5bd","system_id":"levelo_inurba_marseille","lat":43.307945,"lon":5.376487,"is_reserved":false,"is_disabled":false,"rental_uris":{"android":"levelo://app?vid=47c0e401-d440-47d7-bb30-a1fb014af5bd","ios":"levelo://app?vid=47c0e401-d440-47d7-bb30-a1fb014af5bd"},"vehicle_type_id":"4","last_reported":1723745496,"current_range_meters":19200,"station_id":"ce4bgv92rcd13ifvqcq0","pricing_plan_id":"cebpf4jnsgd1na2vs0mg"},{"bike_id":"84e38001-c08e-4f2a-8d98-83e3278b9961","system_id":"levelo_inurba_marseille","lat":43.317075,"lon":5.377367,"is_reserved":false,"is_disabled":false,"rental_uris":{"android":"levelo://app?vid=84e38001-c08e-4f2a-8d98-83e3278b9961","ios":"levelo://app?vid=84e38001-c08e-4f2a-8d98-83e3278b9961"},"vehicle_type_id":"4","last_reported":1723745496,"current_range_meters":27600,"station_id":"ce4bgth2rcd13ifvqch0","pricing_plan_id":"cebpf4jnsgd1na2vs0mg"},{"bike_id":"5797a3cb-2806-4df3-a0ab-805c340c8ff4","system_id":"levelo_inurba_marseille","lat":43.303046,"lon":5.368981,"is_reserved":false,"is_disabled":false,"rental_uris":{"android":"levelo://app?vid=5797a3cb-2806-4df3-a0ab-805c340c8ff4","ios":"levelo://app?vid=5797a3cb-2806-4df3-a0ab-805c340c8ff4"},"vehicle_type_id":"4","last_reported":1723745496,"current_range_meters":8000,"station_id":"ce4bgqh2rcd13ifvqc5g","pricing_plan_id":"cebpf4jnsgd1na2vs0mg"},{"bike_id":"05f57039-4b7a-4ad6-9cba-a6684235ef05","system_id":"levelo_inurba_marseille","lat":43.30304,"lon":5.368987,"is_reserved":false,"is_disabled":false,"rental_uris":{"android":"levelo://app?vid=05f57039-4b7a-4ad6-9cba-a6684235ef05","ios":"levelo://app?vid=05f57039-4b7a-4ad6-9cba-a6684235ef05"},"vehicle_type_id":"4","last_reported":1723745496,"current_range_meters":14000,"station_id":"ce4bgqh2rcd13ifvqc5g","pricing_plan_id":"cebpf4jnsgd1na2vs0mg"},{"bike_id":"1805568c-9aec-44c8-9ca9-f1536fe89dae","system_id":"levelo_inurba_marseille","lat":43.30304,"lon":5.368987,"is_reserved":false,"is_disabled":false,"rental_uris":{"android":"levelo://app?vid=1805568c-9aec-44c8-9ca9-f1536fe89dae","ios":"levelo://app?vid=1805568c-9aec-44c8-9ca9-f1536fe89dae"},"vehicle_type_id":"4","last_reported":1723745496,"current_range_meters":20400,"station_id":"ce4bgqh2rcd13ifvqc5g","pricing_plan_id":"cebpf4jnsgd1na2vs0mg"},{"bike_id":"30cf6715-a4ff-4f73-91c3-4dea33dc52d8","system_id":"levelo_inurba_marseille","lat":43.301939,"lon":5.366286,"is_reserved":false,"is_disabled":false,"rental_uris":{"android":"levelo://app?vid=30cf6715-a4ff-4f73-91c3-4dea33dc52d8","ios":"levelo://app?vid=30cf6715-a4ff-4f73-91c3-4dea33dc52d8"},"vehicle_type_id":"4","last_reported":1723745496,"current_range_meters":28800,"station_id":"ce4bgrh2rcd13ifvqc8g","pricing_plan_id":"cebpf4jnsgd1na2vs0mg"},{"bike_id":"9f7df3d7-cdef-432d-8348-f495e61367c6","system_id":"levelo_inurba_marseille","lat":43.301939,"lon":5.366286,"is_reserved":false,"is_disabled":false,"rental_uris":{"android":"levelo://app?vid=9f7df3d7-cdef-432d-8348-f495e61367c6","ios":"levelo://app?vid=9f7df3d7-cdef-432d-8348-f495e61367c6"},"vehicle_type_id":"4","last_reported":1723745496,"current_range_meters":27200,"station_id":"ce4bgrh2rcd13ifvqc8g","pricing_plan_id":"cebpf4jnsgd1na2vs0mg"},{"bike_id":"cfc07d08-1205-4f39-a04e-2374ff6cab06","system_id":"levelo_inurba_marseille","lat":43.308012,"lon":5.381511,"is_reserved":false,"is_disabled":false,"rental_uris":{"android":"levelo://app?vid=cfc07d08-1205-4f39-a04e-2374ff6cab06","ios":"levelo://app?vid=cfc07d08-1205-4f39-a04e-2374ff6cab06"},"vehicle_type_id":"4","last_reported":1723745496,"current_range_meters":0,"station_id":"ce4bgt12rcd13ifvqce0","pricing_plan_id":"cebpf4jnsgd1na2vs0mg"},{"bike_id":"7357a1c0-3093-42c7-82ec-5fd65ad65d61","system_id":"levelo_inurba_marseille","lat":43.308012,"lon":5.381511,"is_reserved":false,"is_disabled":false,"rental_uris":{"android":"levelo://app?vid=7357a1c0-3093-42c7-82ec-5fd65ad65d61","ios":"levelo://app?vid=7357a1c0-3093-42c7-82ec-5fd65ad65d61"},"vehicle_type_id":"4","last_reported":1723745496,"current_range_meters":17600,"station_id":"ce4bgt12rcd13ifvqce0","pricing_plan_id":"cebpf4jnsgd1na2vs0mg"},{"bike_id":"50c8c3dc-3a97-4188-8ebd-1a1ddbef9cf9","system_id":"levelo_inurba_marseille","lat":43.301238,"lon":5.365612,"is_reserved":false,"is_disabled":false,"rental_uris":{"android":"levelo://app?vid=50c8c3dc-3a97-4188-8ebd-1a1ddbef9cf9","ios":"levelo://app?vid=50c8c3dc-3a97-4188-8ebd-1a1ddbef9cf9"},"vehicle_type_id":"4","last_reported":1723745496,"current_range_meters":0,"station_id":"","pricing_plan_id":"cebpf4jnsgd1na2vs0mg"},{"bike_id":"b76dbbb1-2bda-4862-9e38-2e7f5a626f90","system_id":"levelo_inurba_marseille","lat":43.308012,"lon":5.381511,"is_reserved":false,"is_disabled":false,"rental_uris":{"android":"levelo://app?vid=b76dbbb1-2bda-4862-9e38-2e7f5a626f90","ios":"levelo://app?vid=b76dbbb1-2bda-4862-9e38-2e7f5a626f90"},"vehicle_type_id":"4","last_reported":1723745496,"current_range_meters":4800,"station_id":"ce4bgt12rcd13ifvqce0","pricing_plan_id":"cebpf4jnsgd1na2vs0mg"},{"bike_id":"12529f72-e02e-46f9-b65c-c351a3bf11d5","system_id":"levelo_inurba_marseille","lat":43.308012,"lon":5.381511,"is_reserved":false,"is_disabled":false,"rental_uris":{"android":"levelo://app?vid=12529f72-e02e-46f9-b65c-c351a3bf11d5","ios":"levelo://app?vid=12529f72-e02e-46f9-b65c-c351a3bf11d5"},"vehicle_type_id":"4","last_reported":1723745496,"current_range_meters":26400,"station_id":"ce4bgt12rcd13ifvqce0","pricing_plan_id":"cebpf4jnsgd1na2vs0mg"},{"bike_id":"8fbde263-663a-4736-a10d-16053b60d086","system_id":"levelo_inurba_marseille","lat":43.304606,"lon":5.379026,"is_reserved":false,"is_disabled":false,"rental_uris":{"android":"levelo://app?vid=8fbde263-663a-4736-a10d-16053b60d086","ios":"levelo://app?vid=8fbde263-663a-4736-a10d-16053b60d086"},"vehicle_type_id":"4","last_reported":1723745496,"current_range_meters":17600,"station_id":"ce4bgup2rcd13ifvqcn0","pricing_plan_id":"cebpf4jnsgd1na2vs0mg"},{"bike_id":"0f07b1a1-3c13-49f4-92b1-cdc2167ebbbc","system_id":"levelo_inurba_marseille","lat":43.304606,"lon":5.379026,"is_reserved":false,"is_disabled":false,"rental_uris":{"android":"levelo://app?vid=0f07b1a1-3c13-49f4-92b1-cdc2167ebbbc","ios":"levelo://app?vid=0f07b1a1-3c13-49f4-92b1-cdc2167ebbbc"},"vehicle_type_id":"4","last_reported":1723745496,"current_range_meters":13600,"station_id":"ce4bgup2rcd13ifvqcn0","pricing_plan_id":"cebpf4jnsgd1na2vs0mg"},{"bike_id":"a61a23c9-b3b4-4b71-9669-7a9aabda7293","system_id":"levelo_inurba_marseille","lat":43.304606,"lon":5.379026,"is_reserved":false,"is_disabled":false,"rental_uris":{"android":"levelo://app?vid=a61a23c9-b3b4-4b71-9669-7a9aabda7293","ios":"levelo://app?vid=a61a23c9-b3b4-4b71-9669-7a9aabda7293"},"vehicle_type_id":"4","last_reported":1723745496,"current_range_meters":0,"station_id":"ce4bgup2rcd13ifvqcn0","pricing_plan_id":"cebpf4jnsgd1na2vs0mg"},{"bike_id":"b478172f-2b72-45e0-9e60-c1b561558f0e","system_id":"levelo_inurba_marseille","lat":43.304606,"lon":5.379026,"is_reserved":false,"is_disabled":false,"rental_uris":{"android":"levelo://app?vid=b478172f-2b72-45e0-9e60-c1b561558f0e","ios":"levelo://app?vid=b478172f-2b72-45e0-9e60-c1b561558f0e"},"vehicle_type_id":"4","last_reported":1723745496,"current_range_meters":31600,"station_id":"ce4bgup2rcd13ifvqcn0","pricing_plan_id":"cebpf4jnsgd1na2vs0mg"},{"bike_id":"dd5a188a-bc7a-4fda-86ed-5d2d92f7fc96","system_id":"levelo_inurba_marseille","lat":43.304606,"lon":5.379026,"is_reserved":false,"is_disabled":false,"rental_uris":{"android":"levelo://app?vid=dd5a188a-bc7a-4fda-86ed-5d2d92f7fc96","ios":"levelo://app?vid=dd5a188a-bc7a-4fda-86ed-5d2d92f7fc96"},"vehicle_type_id":"4","last_reported":1723745496,"current_range_meters":16000,"station_id":"ce4bgup2rcd13ifvqcn0","pricing_plan_id":"cebpf4jnsgd1na2vs0mg"},{"bike_id":"19ccdb1f-505d-494e-b154-4bd2f1dab73d","system_id":"levelo_inurba_marseille","lat":43.304606,"lon":5.379026,"is_reserved":false,"is_disabled":false,"rental_uris":{"android":"levelo://app?vid=19ccdb1f-505d-494e-b154-4bd2f1dab73d","ios":"levelo://app?vid=19ccdb1f-505d-494e-b154-4bd2f1dab73d"},"vehicle_type_id":"4","last_reported":1723745496,"current_range_meters":16800,"station_id":"ce4bgup2rcd13ifvqcn0","pricing_plan_id":"cebpf4jnsgd1na2vs0mg"},{"bike_id":"652db446-c6be-41c6-9ddd-d69f900fd1c4","system_id":"levelo_inurba_marseille","lat":43.3046,"lon":5.37902,"is_reserved":false,"is_disabled":false,"rental_uris":{"android":"levelo://app?vid=652db446-c6be-41c6-9ddd-d69f900fd1c4","ios":"levelo://app?vid=652db446-c6be-41c6-9ddd-d69f900fd1c4"},"vehicle_type_id":"4","last_reported":1723745496,"current_range_meters":15200,"station_id":"ce4bgup2rcd13ifvqcn0","pricing_plan_id":"cebpf4jnsgd1na2vs0mg"},{"bike_id":"75577c8f-f8df-4267-ae33-804a5dedffe0","system_id":"levelo_inurba_marseille","lat":43.3046,"lon":5.37903,"is_reserved":false,"is_disabled":false,"rental_uris":{"android":"levelo://app?vid=75577c8f-f8df-4267-ae33-804a5dedffe0","ios":"levelo://app?vid=75577c8f-f8df-4267-ae33-804a5dedffe0"},"vehicle_type_id":"4","last_reported":1723745496,"current_range_meters":23600,"station_id":"ce4bgup2rcd13ifvqcn0","pricing_plan_id":"cebpf4jnsgd1na2vs0mg"},{"bike_id":"bbfd279d-69b8-4a7a-97a9-61e7aa5ebbba","system_id":"levelo_inurba_marseille","lat":43.304606,"lon":5.379026,"is_reserved":false,"is_disabled":false,"rental_uris":{"android":"levelo://app?vid=bbfd279d-69b8-4a7a-97a9-61e7aa5ebbba","ios":"levelo://app?vid=bbfd279d-69b8-4a7a-97a9-61e7aa5ebbba"},"vehicle_type_id":"4","last_reported":1723745496,"current_range_meters":24000,"station_id":"ce4bgup2rcd13ifvqcn0","pricing_plan_id":"cebpf4jnsgd1na2vs0mg"},{"bike_id":"9916a15a-2397-4a36-9dfb-6009315d1729","system_id":"levelo_inurba_marseille","lat":43.324771,"lon":5.36557,"is_reserved":false,"is_disabled":false,"rental_uris":{"android":"levelo://app?vid=9916a15a-2397-4a36-9dfb-6009315d1729","ios":"levelo://app?vid=9916a15a-2397-4a36-9dfb-6009315d1729"},"vehicle_type_id":"4","last_reported":1723745496,"current_range_meters":27200,"station_id":"ce4bhs12rcd13ifvqhvg","pricing_plan_id":"cebpf4jnsgd1na2vs0mg"},{"bike_id":"2537a458-0791-4876-aed3-6d6e4fae2abf","system_id":"levelo_inurba_marseille","lat":43.3046,"lon":5.37905,"is_reserved":false,"is_disabled":false,"rental_uris":{"android":"levelo://app?vid=2537a458-0791-4876-aed3-6d6e4fae2abf","ios":"levelo://app?vid=2537a458-0791-4876-aed3-6d6e4fae2abf"},"vehicle_type_id":"4","last_reported":1723745496,"current_range_meters":26800,"station_id":"ce4bgup2rcd13ifvqcn0","pricing_plan_id":"cebpf4jnsgd1na2vs0mg"},{"bike_id":"a6f4d85c-bc5a-432a-a5cf-54d0eba20f33","system_id":"levelo_inurba_marseille","lat":43.304606,"lon":5.379026,"is_reserved":false,"is_disabled":false,"rental_uris":{"android":"levelo://app?vid=a6f4d85c-bc5a-432a-a5cf-54d0eba20f33","ios":"levelo://app?vid=a6f4d85c-bc5a-432a-a5cf-54d0eba20f33"},"vehicle_type_id":"4","last_reported":1723745496,"current_range_meters":3200,"station_id":"ce4bgup2rcd13ifvqcn0","pricing_plan_id":"cebpf4jnsgd1na2vs0mg"},{"bike_id":"682ca36a-a173-425b-adda-417c949a3188","system_id":"levelo_inurba_marseille","lat":43.324771,"lon":5.36557,"is_reserved":false,"is_disabled":false,"rental_uris":{"android":"levelo://app?vid=682ca36a-a173-425b-adda-417c949a3188","ios":"levelo://app?vid=682ca36a-a173-425b-adda-417c949a3188"},"vehicle_type_id":"4","last_reported":1723745496,"current_range_meters":6000,"station_id":"ce4bhs12rcd13ifvqhvg","pricing_plan_id":"cebpf4jnsgd1na2vs0mg"},{"bike_id":"b83bb2e9-52aa-4fdb-a21f-a0c2d28522b3","system_id":"levelo_inurba_marseille","lat":43.324771,"lon":5.36557,"is_reserved":false,"is_disabled":false,"rental_uris":{"android":"levelo://app?vid=b83bb2e9-52aa-4fdb-a21f-a0c2d28522b3","ios":"levelo://app?vid=b83bb2e9-52aa-4fdb-a21f-a0c2d28522b3"},"vehicle_type_id":"4","last_reported":1723745496,"current_range_meters":5600,"station_id":"ce4bhs12rcd13ifvqhvg","pricing_plan_id":"cebpf4jnsgd1na2vs0mg"},{"bike_id":"b46b1b62-4cf9-40c6-8920-ce4555f4ccf3","system_id":"levelo_inurba_marseille","lat":43.30589,"lon":5.3806,"is_reserved":false,"is_disabled":false,"rental_uris":{"android":"levelo://app?vid=b46b1b62-4cf9-40c6-8920-ce4555f4ccf3","ios":"levelo://app?vid=b46b1b62-4cf9-40c6-8920-ce4555f4ccf3"},"vehicle_type_id":"4","last_reported":1723745496,"current_range_meters":24800,"station_id":"","pricing_plan_id":"cebpf4jnsgd1na2vs0mg"},{"bike_id":"8ecc26a6-4fe1-4bfa-842c-a85f186b33f5","system_id":"levelo_inurba_marseille","lat":43.32479,"lon":5.36562,"is_reserved":false,"is_disabled":false,"rental_uris":{"android":"levelo://app?vid=8ecc26a6-4fe1-4bfa-842c-a85f186b33f5","ios":"levelo://app?vid=8ecc26a6-4fe1-4bfa-842c-a85f186b33f5"},"vehicle_type_id":"4","last_reported":1723745496,"current_range_meters":17200,"station_id":"ce4bhs12rcd13ifvqhvg","pricing_plan_id":"cebpf4jnsgd1na2vs0mg"},{"bike_id":"13e655d3-c4a9-454b-bbc7-ca10820467fa","system_id":"levelo_inurba_marseille","lat":43.32482,"lon":5.36555,"is_reserved":false,"is_disabled":false,"rental_uris":{"android":"levelo://app?vid=13e655d3-c4a9-454b-bbc7-ca10820467fa","ios":"levelo://app?vid=13e655d3-c4a9-454b-bbc7-ca10820467fa"},"vehicle_type_id":"4","last_reported":1723745496,"current_range_meters":0,"station_id":"ce4bhs12rcd13ifvqhvg","pricing_plan_id":"cebpf4jnsgd1na2vs0mg"},{"bike_id":"44680a61-b1de-4b9c-b689-2ab765a147aa","system_id":"levelo_inurba_marseille","lat":43.324771,"lon":5.36557,"is_reserved":false,"is_disabled":false,"rental_uris":{"android":"levelo://app?vid=44680a61-b1de-4b9c-b689-2ab765a147aa","ios":"levelo://app?vid=44680a61-b1de-4b9c-b689-2ab765a147aa"},"vehicle_type_id":"4","last_reported":1723745496,"current_range_meters":32000,"station_id":"ce4bhs12rcd13ifvqhvg","pricing_plan_id":"cebpf4jnsgd1na2vs0mg"},{"bike_id":"bdf61be6-6755-4df3-ae77-6b81cc7b98f5","system_id":"levelo_inurba_marseille","lat":43.324771,"lon":5.36557,"is_reserved":false,"is_disabled":false,"rental_uris":{"android":"levelo://app?vid=bdf61be6-6755-4df3-ae77-6b81cc7b98f5","ios":"levelo://app?vid=bdf61be6-6755-4df3-ae77-6b81cc7b98f5"},"vehicle_type_id":"4","last_reported":1723745496,"current_range_meters":31200,"station_id":"ce4bhs12rcd13ifvqhvg","pricing_plan_id":"cebpf4jnsgd1na2vs0mg"},{"bike_id":"2a0481dc-9b2b-4b3c-a770-3ed234f995a1","system_id":"levelo_inurba_marseille","lat":43.319935,"lon":5.381699,"is_reserved":false,"is_disabled":false,"rental_uris":{"android":"levelo://app?vid=2a0481dc-9b2b-4b3c-a770-3ed234f995a1","ios":"levelo://app?vid=2a0481dc-9b2b-4b3c-a770-3ed234f995a1"},"vehicle_type_id":"4","last_reported":1723745496,"current_range_meters":16800,"station_id":"ce4bhr12rcd13ifvqhpg","pricing_plan_id":"cebpf4jnsgd1na2vs0mg"},{"bike_id":"f9f00176-af07-4be4-8783-1ae2a2cb0322","system_id":"levelo_inurba_marseille","lat":43.310804,"lon":5.38359,"is_reserved":false,"is_disabled":false,"rental_uris":{"android":"levelo://app?vid=f9f00176-af07-4be4-8783-1ae2a2cb0322","ios":"levelo://app?vid=f9f00176-af07-4be4-8783-1ae2a2cb0322"},"vehicle_type_id":"4","last_reported":1723745496,"current_range_meters":20000,"station_id":"ce4bgv92rcd13ifvqcr0","pricing_plan_id":"cebpf4jnsgd1na2vs0mg"},{"bike_id":"25c7d75c-f535-4f12-9907-6414499e56f5","system_id":"levelo_inurba_marseille","lat":43.310804,"lon":5.38359,"is_reserved":false,"is_disabled":false,"rental_uris":{"android":"levelo://app?vid=25c7d75c-f535-4f12-9907-6414499e56f5","ios":"levelo://app?vid=25c7d75c-f535-4f12-9907-6414499e56f5"},"vehicle_type_id":"4","last_reported":1723745496,"current_range_meters":24800,"station_id":"ce4bgv92rcd13ifvqcr0","pricing_plan_id":"cebpf4jnsgd1na2vs0mg"},{"bike_id":"a52d3d15-b0f1-4d1d-8c4b-724d747f6fad","system_id":"levelo_inurba_marseille","lat":43.30143,"lon":5.37413,"is_reserved":false,"is_disabled":false,"rental_uris":{"android":"levelo://app?vid=a52d3d15-b0f1-4d1d-8c4b-724d747f6fad","ios":"levelo://app?vid=a52d3d15-b0f1-4d1d-8c4b-724d747f6fad"},"vehicle_type_id":"4","last_reported":1723745496,"current_range_meters":28400,"station_id":"ce4bgs92rcd13ifvqcc0","pricing_plan_id":"cebpf4jnsgd1na2vs0mg"},{"bike_id":"e5a3ed2e-a89a-4d03-a6e7-72a986f38d2a","system_id":"levelo_inurba_marseille","lat":43.302784,"lon":5.377158,"is_reserved":false,"is_disabled":false,"rental_uris":{"android":"levelo://app?vid=e5a3ed2e-a89a-4d03-a6e7-72a986f38d2a","ios":"levelo://app?vid=e5a3ed2e-a89a-4d03-a6e7-72a986f38d2a"},"vehicle_type_id":"4","last_reported":1723745496,"current_range_meters":5600,"station_id":"ce4bguh2rcd13ifvqcj0","pricing_plan_id":"cebpf4jnsgd1na2vs0mg"},{"bike_id":"bd9d33e1-7f09-474f-adc8-beaed7ecefce","system_id":"levelo_inurba_marseille","lat":43.302784,"lon":5.377158,"is_reserved":false,"is_disabled":false,"rental_uris":{"android":"levelo://app?vid=bd9d33e1-7f09-474f-adc8-beaed7ecefce","ios":"levelo://app?vid=bd9d33e1-7f09-474f-adc8-beaed7ecefce"},"vehicle_type_id":"4","last_reported":1723745496,"current_range_meters":14000,"station_id":"ce4bguh2rcd13ifvqcj0","pricing_plan_id":"cebpf4jnsgd1na2vs0mg"},{"bike_id":"2c20bed0-c31e-4b7e-8320-aa4652e452c6","system_id":"levelo_inurba_marseille","lat":43.30143,"lon":5.37413,"is_reserved":false,"is_disabled":false,"rental_uris":{"android":"levelo://app?vid=2c20bed0-c31e-4b7e-8320-aa4652e452c6","ios":"levelo://app?vid=2c20bed0-c31e-4b7e-8320-aa4652e452c6"},"vehicle_type_id":"4","last_reported":1723745496,"current_range_meters":1200,"station_id":"ce4bgs92rcd13ifvqcc0","pricing_plan_id":"cebpf4jnsgd1na2vs0mg"},{"bike_id":"b60c3de7-795a-41ed-aa13-a41432f0f9c7","system_id":"levelo_inurba_marseille","lat":43.30304,"lon":5.368987,"is_reserved":false,"is_disabled":false,"rental_uris":{"android":"levelo://app?vid=b60c3de7-795a-41ed-aa13-a41432f0f9c7","ios":"levelo://app?vid=b60c3de7-795a-41ed-aa13-a41432f0f9c7"},"vehicle_type_id":"4","last_reported":1723745496,"current_range_meters":22400,"station_id":"ce4bgqh2rcd13ifvqc5g","pricing_plan_id":"cebpf4jnsgd1na2vs0mg"},{"bike_id":"f2cfe0a4-0fe6-46da-a82f-d03c9b38b9fd","system_id":"levelo_inurba_marseille","lat":43.319935,"lon":5.381699,"is_reserved":false,"is_disabled":false,"rental_uris":{"android":"levelo://app?vid=f2cfe0a4-0fe6-46da-a82f-d03c9b38b9fd","ios":"levelo://app?vid=f2cfe0a4-0fe6-46da-a82f-d03c9b38b9fd"},"vehicle_type_id":"4","last_reported":1723745496,"current_range_meters":26000,"station_id":"ce4bhr12rcd13ifvqhpg","pricing_plan_id":"cebpf4jnsgd1na2vs0mg"},{"bike_id":"05a06412-04c5-4ce3-a2cd-976c65aa5b06","system_id":"levelo_inurba_marseille","lat":43.319935,"lon":5.381699,"is_reserved":false,"is_disabled":false,"rental_uris":{"android":"levelo://app?vid=05a06412-04c5-4ce3-a2cd-976c65aa5b06","ios":"levelo://app?vid=05a06412-04c5-4ce3-a2cd-976c65aa5b06"},"vehicle_type_id":"4","last_reported":1723745496,"current_range_meters":22800,"station_id":"ce4bhr12rcd13ifvqhpg","pricing_plan_id":"cebpf4jnsgd1na2vs0mg"},{"bike_id":"5b7511a3-e350-49eb-b303-6a6517490594","system_id":"levelo_inurba_marseille","lat":43.311382,"lon":5.384675,"is_reserved":false,"is_disabled":false,"rental_uris":{"android":"levelo://app?vid=5b7511a3-e350-49eb-b303-6a6517490594","ios":"levelo://app?vid=5b7511a3-e350-49eb-b303-6a6517490594"},"vehicle_type_id":"4","last_reported":1723745496,"current_range_meters":5600,"station_id":"","pricing_plan_id":"cebpf4jnsgd1na2vs0mg"},{"bike_id":"d9914c9a-4acf-4bf7-95c4-c6f57fbb7a67","system_id":"levelo_inurba_marseille","lat":43.313571,"lon":5.384829,"is_reserved":false,"is_disabled":false,"rental_uris":{"android":"levelo://app?vid=d9914c9a-4acf-4bf7-95c4-c6f57fbb7a67","ios":"levelo://app?vid=d9914c9a-4acf-4bf7-95c4-c6f57fbb7a67"},"vehicle_type_id":"4","last_reported":1723745496,"current_range_meters":14400,"station_id":"ce4bgt92rcd13ifvqcf0","pricing_plan_id":"cebpf4jnsgd1na2vs0mg"},{"bike_id":"d3cdd09f-8c64-4e37-bc07-e5c3a1fbef5a","system_id":"levelo_inurba_marseille","lat":43.313571,"lon":5.384829,"is_reserved":false,"is_disabled":false,"rental_uris":{"android":"levelo://app?vid=d3cdd09f-8c64-4e37-bc07-e5c3a1fbef5a","ios":"levelo://app?vid=d3cdd09f-8c64-4e37-bc07-e5c3a1fbef5a"},"vehicle_type_id":"4","last_reported":1723745496,"current_range_meters":14400,"station_id":"ce4bgt92rcd13ifvqcf0","pricing_plan_id":"cebpf4jnsgd1na2vs0mg"},{"bike_id":"803fe397-df3f-4d13-8436-b161cb73fbdd","system_id":"levelo_inurba_marseille","lat":43.313571,"lon":5.384829,"is_reserved":false,"is_disabled":false,"rental_uris":{"android":"levelo://app?vid=803fe397-df3f-4d13-8436-b161cb73fbdd","ios":"levelo://app?vid=803fe397-df3f-4d13-8436-b161cb73fbdd"},"vehicle_type_id":"4","last_reported":1723745496,"current_range_meters":27200,"station_id":"ce4bgt92rcd13ifvqcf0","pricing_plan_id":"cebpf4jnsgd1na2vs0mg"},{"bike_id":"2f7b5e17-946a-4c19-9af8-df6cdade8c2c","system_id":"levelo_inurba_marseille","lat":43.313571,"lon":5.384829,"is_reserved":false,"is_disabled":false,"rental_uris":{"android":"levelo://app?vid=2f7b5e17-946a-4c19-9af8-df6cdade8c2c","ios":"levelo://app?vid=2f7b5e17-946a-4c19-9af8-df6cdade8c2c"},"vehicle_type_id":"4","last_reported":1723745496,"current_range_meters":2400,"station_id":"ce4bgt92rcd13ifvqcf0","pricing_plan_id":"cebpf4jnsgd1na2vs0mg"},{"bike_id":"618b56af-4d55-4e8c-aa5a-e8d08d482b62","system_id":"levelo_inurba_marseille","lat":43.313571,"lon":5.384829,"is_reserved":false,"is_disabled":false,"rental_uris":{"android":"levelo://app?vid=618b56af-4d55-4e8c-aa5a-e8d08d482b62","ios":"levelo://app?vid=618b56af-4d55-4e8c-aa5a-e8d08d482b62"},"vehicle_type_id":"4","last_reported":1723745496,"current_range_meters":2000,"station_id":"ce4bgt92rcd13ifvqcf0","pricing_plan_id":"cebpf4jnsgd1na2vs0mg"},{"bike_id":"0724cd3f-a66e-45a0-bfd8-624b798a168d","system_id":"levelo_inurba_marseille","lat":43.299724,"lon":5.371829,"is_reserved":false,"is_disabled":false,"rental_uris":{"android":"levelo://app?vid=0724cd3f-a66e-45a0-bfd8-624b798a168d","ios":"levelo://app?vid=0724cd3f-a66e-45a0-bfd8-624b798a168d"},"vehicle_type_id":"4","last_reported":1723745496,"current_range_meters":20400,"station_id":"ce4bgr92rcd13ifvqc7g","pricing_plan_id":"cebpf4jnsgd1na2vs0mg"},{"bike_id":"0d63dbbd-8159-404c-a7dc-25968867408a","system_id":"levelo_inurba_marseille","lat":43.299243,"lon":5.37481,"is_reserved":false,"is_disabled":false,"rental_uris":{"android":"levelo://app?vid=0d63dbbd-8159-404c-a7dc-25968867408a","ios":"levelo://app?vid=0d63dbbd-8159-404c-a7dc-25968867408a"},"vehicle_type_id":"4","last_reported":1723745496,"current_range_meters":4000,"station_id":"ce4bgjh2rcd13ifvqbg0","pricing_plan_id":"cebpf4jnsgd1na2vs0mg"},{"bike_id":"6622da98-77d6-4979-84bf-64bee6e89712","system_id":"levelo_inurba_marseille","lat":43.305364,"lon":5.384119,"is_reserved":false,"is_disabled":false,"rental_uris":{"android":"levelo://app?vid=6622da98-77d6-4979-84bf-64bee6e89712","ios":"levelo://app?vid=6622da98-77d6-4979-84bf-64bee6e89712"},"vehicle_type_id":"4","last_reported":1723745496,"current_range_meters":23600,"station_id":"ce4bgg92rcd13ifvqb30","pricing_plan_id":"cebpf4jnsgd1na2vs0mg"},{"bike_id":"c7f0eeac-1716-46dd-af09-8592bd1dc3eb","system_id":"levelo_inurba_marseille","lat":43.299243,"lon":5.374807,"is_reserved":false,"is_disabled":false,"rental_uris":{"android":"levelo://app?vid=c7f0eeac-1716-46dd-af09-8592bd1dc3eb","ios":"levelo://app?vid=c7f0eeac-1716-46dd-af09-8592bd1dc3eb"},"vehicle_type_id":"4","last_reported":1723745496,"current_range_meters":16800,"station_id":"ce4bgjh2rcd13ifvqbg0","pricing_plan_id":"cebpf4jnsgd1na2vs0mg"},{"bike_id":"81be7cce-f0fe-405b-8cd8-2660327a20ae","system_id":"levelo_inurba_marseille","lat":43.305364,"lon":5.384119,"is_reserved":false,"is_disabled":false,"rental_uris":{"android":"levelo://app?vid=81be7cce-f0fe-405b-8cd8-2660327a20ae","ios":"levelo://app?vid=81be7cce-f0fe-405b-8cd8-2660327a20ae"},"vehicle_type_id":"4","last_reported":1723745496,"current_range_meters":400,"station_id":"ce4bgg92rcd13ifvqb30","pricing_plan_id":"cebpf4jnsgd1na2vs0mg"},{"bike_id":"c08dc808-5d4e-43e4-bc37-aee579e0ac73","system_id":"levelo_inurba_marseille","lat":43.29926,"lon":5.37491,"is_reserved":false,"is_disabled":false,"rental_uris":{"android":"levelo://app?vid=c08dc808-5d4e-43e4-bc37-aee579e0ac73","ios":"levelo://app?vid=c08dc808-5d4e-43e4-bc37-aee579e0ac73"},"vehicle_type_id":"4","last_reported":1723745496,"current_range_meters":22400,"station_id":"ce4bgjh2rcd13ifvqbg0","pricing_plan_id":"cebpf4jnsgd1na2vs0mg"},{"bike_id":"15e7ac0b-534d-400e-ad04-6a8ddf14000c","system_id":"levelo_inurba_marseille","lat":43.299198,"lon":5.374782,"is_reserved":false,"is_disabled":false,"rental_uris":{"android":"levelo://app?vid=15e7ac0b-534d-400e-ad04-6a8ddf14000c","ios":"levelo://app?vid=15e7ac0b-534d-400e-ad04-6a8ddf14000c"},"vehicle_type_id":"4","last_reported":1723745496,"current_range_meters":12400,"station_id":"ce4bgjh2rcd13ifvqbg0","pricing_plan_id":"cebpf4jnsgd1na2vs0mg"},{"bike_id":"a3fe6ff3-53f9-41ae-a557-86a7b0e1a29e","system_id":"levelo_inurba_marseille","lat":43.299243,"lon":5.374807,"is_reserved":false,"is_disabled":false,"rental_uris":{"android":"levelo://app?vid=a3fe6ff3-53f9-41ae-a557-86a7b0e1a29e","ios":"levelo://app?vid=a3fe6ff3-53f9-41ae-a557-86a7b0e1a29e"},"vehicle_type_id":"4","last_reported":1723745496,"current_range_meters":20800,"station_id":"ce4bgjh2rcd13ifvqbg0","pricing_plan_id":"cebpf4jnsgd1na2vs0mg"},{"bike_id":"3782859f-627a-4378-941a-fd82badcb252","system_id":"levelo_inurba_marseille","lat":43.299243,"lon":5.37481,"is_reserved":false,"is_disabled":false,"rental_uris":{"android":"levelo://app?vid=3782859f-627a-4378-941a-fd82badcb252","ios":"levelo://app?vid=3782859f-627a-4378-941a-fd82badcb252"},"vehicle_type_id":"4","last_reported":1723745496,"current_range_meters":10400,"station_id":"ce4bgjh2rcd13ifvqbg0","pricing_plan_id":"cebpf4jnsgd1na2vs0mg"},{"bike_id":"73d814fa-192f-47ab-9910-fd425348ea1c","system_id":"levelo_inurba_marseille","lat":43.311722,"lon":5.387247,"is_reserved":false,"is_disabled":false,"rental_uris":{"android":"levelo://app?vid=73d814fa-192f-47ab-9910-fd425348ea1c","ios":"levelo://app?vid=73d814fa-192f-47ab-9910-fd425348ea1c"},"vehicle_type_id":"4","last_reported":1723745496,"current_range_meters":18000,"station_id":"ce4bgv12rcd13ifvqcp0","pricing_plan_id":"cebpf4jnsgd1na2vs0mg"},{"bike_id":"2ac7c9e3-4501-4c8a-817e-ad15ca691ecf","system_id":"levelo_inurba_marseille","lat":43.311722,"lon":5.387247,"is_reserved":false,"is_disabled":false,"rental_uris":{"android":"levelo://app?vid=2ac7c9e3-4501-4c8a-817e-ad15ca691ecf","ios":"levelo://app?vid=2ac7c9e3-4501-4c8a-817e-ad15ca691ecf"},"vehicle_type_id":"4","last_reported":1723745496,"current_range_meters":6000,"station_id":"ce4bgv12rcd13ifvqcp0","pricing_plan_id":"cebpf4jnsgd1na2vs0mg"},{"bike_id":"a0c64718-67a5-4858-a4ab-5378f2820d54","system_id":"levelo_inurba_marseille","lat":43.297794,"lon":5.370888,"is_reserved":false,"is_disabled":false,"rental_uris":{"android":"levelo://app?vid=a0c64718-67a5-4858-a4ab-5378f2820d54","ios":"levelo://app?vid=a0c64718-67a5-4858-a4ab-5378f2820d54"},"vehicle_type_id":"4","last_reported":1723745496,"current_range_meters":11200,"station_id":"ce4bgop2rcd13ifvqc1g","pricing_plan_id":"cebpf4jnsgd1na2vs0mg"},{"bike_id":"a4df7db5-fba7-4725-9eb7-d81e939249bb","system_id":"levelo_inurba_marseille","lat":43.297794,"lon":5.370888,"is_reserved":false,"is_disabled":false,"rental_uris":{"android":"levelo://app?vid=a4df7db5-fba7-4725-9eb7-d81e939249bb","ios":"levelo://app?vid=a4df7db5-fba7-4725-9eb7-d81e939249bb"},"vehicle_type_id":"4","last_reported":1723745496,"current_range_meters":24000,"station_id":"ce4bgop2rcd13ifvqc1g","pricing_plan_id":"cebpf4jnsgd1na2vs0mg"},{"bike_id":"88c8a942-667b-463a-a91b-acbb0847926d","system_id":"levelo_inurba_marseille","lat":43.297859,"lon":5.370996,"is_reserved":false,"is_disabled":false,"rental_uris":{"android":"levelo://app?vid=88c8a942-667b-463a-a91b-acbb0847926d","ios":"levelo://app?vid=88c8a942-667b-463a-a91b-acbb0847926d"},"vehicle_type_id":"4","last_reported":1723745496,"current_range_meters":20000,"station_id":"","pricing_plan_id":"cebpf4jnsgd1na2vs0mg"},{"bike_id":"e010335f-0feb-4f69-bcc6-8844f6bf898a","system_id":"levelo_inurba_marseille","lat":43.297794,"lon":5.370888,"is_reserved":false,"is_disabled":false,"rental_uris":{"android":"levelo://app?vid=e010335f-0feb-4f69-bcc6-8844f6bf898a","ios":"levelo://app?vid=e010335f-0feb-4f69-bcc6-8844f6bf898a"},"vehicle_type_id":"4","last_reported":1723745496,"current_range_meters":14400,"station_id":"ce4bgop2rcd13ifvqc1g","pricing_plan_id":"cebpf4jnsgd1na2vs0mg"},{"bike_id":"93eada3b-a0ce-4689-aa08-a8093bf2a509","system_id":"levelo_inurba_marseille","lat":43.297794,"lon":5.370888,"is_reserved":false,"is_disabled":false,"rental_uris":{"android":"levelo://app?vid=93eada3b-a0ce-4689-aa08-a8093bf2a509","ios":"levelo://app?vid=93eada3b-a0ce-4689-aa08-a8093bf2a509"},"vehicle_type_id":"4","last_reported":1723745496,"current_range_meters":10400,"station_id":"ce4bgop2rcd13ifvqc1g","pricing_plan_id":"cebpf4jnsgd1na2vs0mg"},{"bike_id":"19bb504b-ca3e-473a-8611-439d16af6f5c","system_id":"levelo_inurba_marseille","lat":43.297774,"lon":5.370875,"is_reserved":false,"is_disabled":false,"rental_uris":{"android":"levelo://app?vid=19bb504b-ca3e-473a-8611-439d16af6f5c","ios":"levelo://app?vid=19bb504b-ca3e-473a-8611-439d16af6f5c"},"vehicle_type_id":"4","last_reported":1723745496,"current_range_meters":24000,"station_id":"ce4bgop2rcd13ifvqc1g","pricing_plan_id":"cebpf4jnsgd1na2vs0mg"},{"bike_id":"f8ed67c4-0164-4250-afb7-cc4df0a09476","system_id":"levelo_inurba_marseille","lat":43.297794,"lon":5.370888,"is_reserved":false,"is_disabled":false,"rental_uris":{"android":"levelo://app?vid=f8ed67c4-0164-4250-afb7-cc4df0a09476","ios":"levelo://app?vid=f8ed67c4-0164-4250-afb7-cc4df0a09476"},"vehicle_type_id":"4","last_reported":1723745496,"current_range_meters":17200,"station_id":"ce4bgop2rcd13ifvqc1g","pricing_plan_id":"cebpf4jnsgd1na2vs0mg"},{"bike_id":"1899b9a9-2917-4623-ad8d-ac9c1179a318","system_id":"levelo_inurba_marseille","lat":43.322951,"lon":5.382589,"is_reserved":false,"is_disabled":false,"rental_uris":{"android":"levelo://app?vid=1899b9a9-2917-4623-ad8d-ac9c1179a318","ios":"levelo://app?vid=1899b9a9-2917-4623-ad8d-ac9c1179a318"},"vehicle_type_id":"4","last_reported":1723745496,"current_range_meters":27600,"station_id":"ce4bhr12rcd13ifvqhqg","pricing_plan_id":"cebpf4jnsgd1na2vs0mg"},{"bike_id":"96e8e184-dca9-4791-822b-5ee5f3e47cf8","system_id":"levelo_inurba_marseille","lat":43.32291,"lon":5.38274,"is_reserved":false,"is_disabled":false,"rental_uris":{"android":"levelo://app?vid=96e8e184-dca9-4791-822b-5ee5f3e47cf8","ios":"levelo://app?vid=96e8e184-dca9-4791-822b-5ee5f3e47cf8"},"vehicle_type_id":"4","last_reported":1723745496,"current_range_meters":27200,"station_id":"ce4bhr12rcd13ifvqhqg","pricing_plan_id":"cebpf4jnsgd1na2vs0mg"},{"bike_id":"74c0cb5a-9951-4661-8039-5cf861ae0704","system_id":"levelo_inurba_marseille","lat":43.297291,"lon":5.368788,"is_reserved":false,"is_disabled":false,"rental_uris":{"android":"levelo://app?vid=74c0cb5a-9951-4661-8039-5cf861ae0704","ios":"levelo://app?vid=74c0cb5a-9951-4661-8039-5cf861ae0704"},"vehicle_type_id":"4","last_reported":1723745496,"current_range_meters":31200,"station_id":"","pricing_plan_id":"cebpf4jnsgd1na2vs0mg"},{"bike_id":"ba534199-60e8-4041-844e-9fd4d30b3eb3","system_id":"levelo_inurba_marseille","lat":43.297179,"lon":5.368754,"is_reserved":false,"is_disabled":false,"rental_uris":{"android":"levelo://app?vid=ba534199-60e8-4041-844e-9fd4d30b3eb3","ios":"levelo://app?vid=ba534199-60e8-4041-844e-9fd4d30b3eb3"},"vehicle_type_id":"4","last_reported":1723745496,"current_range_meters":23600,"station_id":"","pricing_plan_id":"cebpf4jnsgd1na2vs0mg"},{"bike_id":"91018eae-296f-473a-a1f5-69c8a2921f14","system_id":"levelo_inurba_marseille","lat":43.305364,"lon":5.384119,"is_reserved":false,"is_disabled":false,"rental_uris":{"android":"levelo://app?vid=91018eae-296f-473a-a1f5-69c8a2921f14","ios":"levelo://app?vid=91018eae-296f-473a-a1f5-69c8a2921f14"},"vehicle_type_id":"4","last_reported":1723745496,"current_range_meters":25200,"station_id":"ce4bgg92rcd13ifvqb30","pricing_plan_id":"cebpf4jnsgd1na2vs0mg"},{"bike_id":"5b4074fd-2b4c-4ac3-927d-abf92f660525","system_id":"levelo_inurba_marseille","lat":43.2968,"lon":5.37291,"is_reserved":false,"is_disabled":false,"rental_uris":{"android":"levelo://app?vid=5b4074fd-2b4c-4ac3-927d-abf92f660525","ios":"levelo://app?vid=5b4074fd-2b4c-4ac3-927d-abf92f660525"},"vehicle_type_id":"4","last_reported":1723745496,"current_range_meters":27600,"station_id":"ce4bgk12rcd13ifvqbj0","pricing_plan_id":"cebpf4jnsgd1na2vs0mg"},{"bike_id":"dfbd50d9-9890-4e96-8ef1-a1568e60a918","system_id":"levelo_inurba_marseille","lat":43.2968,"lon":5.37291,"is_reserved":false,"is_disabled":false,"rental_uris":{"android":"levelo://app?vid=dfbd50d9-9890-4e96-8ef1-a1568e60a918","ios":"levelo://app?vid=dfbd50d9-9890-4e96-8ef1-a1568e60a918"},"vehicle_type_id":"4","last_reported":1723745496,"current_range_meters":26400,"station_id":"ce4bgk12rcd13ifvqbj0","pricing_plan_id":"cebpf4jnsgd1na2vs0mg"},{"bike_id":"7da5582e-37ac-4334-9e83-fb7cb14c1aff","system_id":"levelo_inurba_marseille","lat":43.29573,"lon":5.367355,"is_reserved":false,"is_disabled":false,"rental_uris":{"android":"levelo://app?vid=7da5582e-37ac-4334-9e83-fb7cb14c1aff","ios":"levelo://app?vid=7da5582e-37ac-4334-9e83-fb7cb14c1aff"},"vehicle_type_id":"4","last_reported":1723745496,"current_range_meters":15600,"station_id":"ce4bgph2rcd13ifvqc2g","pricing_plan_id":"cebpf4jnsgd1na2vs0mg"},{"bike_id":"4861d65a-6b84-4f10-a1ae-a4e2c24323fb","system_id":"levelo_inurba_marseille","lat":43.32281,"lon":5.385643,"is_reserved":false,"is_disabled":false,"rental_uris":{"android":"levelo://app?vid=4861d65a-6b84-4f10-a1ae-a4e2c24323fb","ios":"levelo://app?vid=4861d65a-6b84-4f10-a1ae-a4e2c24323fb"},"vehicle_type_id":"4","last_reported":1723745496,"current_range_meters":24000,"station_id":"","pricing_plan_id":"cebpf4jnsgd1na2vs0mg"},{"bike_id":"56c9c0d5-bcc8-4fa7-a809-d94ba6f08e36","system_id":"levelo_inurba_marseille","lat":43.297388,"lon":5.376894,"is_reserved":false,"is_disabled":false,"rental_uris":{"android":"levelo://app?vid=56c9c0d5-bcc8-4fa7-a809-d94ba6f08e36","ios":"levelo://app?vid=56c9c0d5-bcc8-4fa7-a809-d94ba6f08e36"},"vehicle_type_id":"4","last_reported":1723745496,"current_range_meters":4000,"station_id":"ce4bgkh2rcd13ifvqbl0","pricing_plan_id":"cebpf4jnsgd1na2vs0mg"},{"bike_id":"ae8f5046-4aea-4064-b325-164e3eaa585e","system_id":"levelo_inurba_marseille","lat":43.29573,"lon":5.367355,"is_reserved":false,"is_disabled":false,"rental_uris":{"android":"levelo://app?vid=ae8f5046-4aea-4064-b325-164e3eaa585e","ios":"levelo://app?vid=ae8f5046-4aea-4064-b325-164e3eaa585e"},"vehicle_type_id":"4","last_reported":1723745496,"current_range_meters":26400,"station_id":"ce4bgph2rcd13ifvqc2g","pricing_plan_id":"cebpf4jnsgd1na2vs0mg"},{"bike_id":"209d82bf-a0a5-4fbc-ab01-bb3cf716a79a","system_id":"levelo_inurba_marseille","lat":43.32885,"lon":5.35906,"is_reserved":false,"is_disabled":false,"rental_uris":{"android":"levelo://app?vid=209d82bf-a0a5-4fbc-ab01-bb3cf716a79a","ios":"levelo://app?vid=209d82bf-a0a5-4fbc-ab01-bb3cf716a79a"},"vehicle_type_id":"4","last_reported":1723745496,"current_range_meters":19200,"station_id":"","pricing_plan_id":"cebpf4jnsgd1na2vs0mg"},{"bike_id":"299c3ed4-4f00-4b32-a02b-98c172e42c22","system_id":"levelo_inurba_marseille","lat":43.29729,"lon":5.37705,"is_reserved":false,"is_disabled":false,"rental_uris":{"android":"levelo://app?vid=299c3ed4-4f00-4b32-a02b-98c172e42c22","ios":"levelo://app?vid=299c3ed4-4f00-4b32-a02b-98c172e42c22"},"vehicle_type_id":"4","last_reported":1723745496,"current_range_meters":5600,"station_id":"ce4bgkh2rcd13ifvqbl0","pricing_plan_id":"cebpf4jnsgd1na2vs0mg"},{"bike_id":"b6d4e0b8-721d-48a3-b625-93351dd51466","system_id":"levelo_inurba_marseille","lat":43.296935,"lon":5.376544,"is_reserved":false,"is_disabled":false,"rental_uris":{"android":"levelo://app?vid=b6d4e0b8-721d-48a3-b625-93351dd51466","ios":"levelo://app?vid=b6d4e0b8-721d-48a3-b625-93351dd51466"},"vehicle_type_id":"4","last_reported":1723745496,"current_range_meters":15200,"station_id":"ce4bgkh2rcd13ifvqbl0","pricing_plan_id":"cebpf4jnsgd1na2vs0mg"},{"bike_id":"82b9fa55-2f15-4d16-8c8b-55f0d672136f","system_id":"levelo_inurba_marseille","lat":43.299028,"lon":5.381509,"is_reserved":false,"is_disabled":false,"rental_uris":{"android":"levelo://app?vid=82b9fa55-2f15-4d16-8c8b-55f0d672136f","ios":"levelo://app?vid=82b9fa55-2f15-4d16-8c8b-55f0d672136f"},"vehicle_type_id":"4","last_reported":1723745496,"current_range_meters":7200,"station_id":"ce4bgj12rcd13ifvqbc0","pricing_plan_id":"cebpf4jnsgd1na2vs0mg"},{"bike_id":"836a5817-41dd-42cd-86aa-3fa85ef4da23","system_id":"levelo_inurba_marseille","lat":43.299028,"lon":5.381509,"is_reserved":false,"is_disabled":false,"rental_uris":{"android":"levelo://app?vid=836a5817-41dd-42cd-86aa-3fa85ef4da23","ios":"levelo://app?vid=836a5817-41dd-42cd-86aa-3fa85ef4da23"},"vehicle_type_id":"4","last_reported":1723745496,"current_range_meters":0,"station_id":"ce4bgj12rcd13ifvqbc0","pricing_plan_id":"cebpf4jnsgd1na2vs0mg"},{"bike_id":"ab8e3da5-b786-415f-902e-e7d8839a3576","system_id":"levelo_inurba_marseille","lat":43.29909,"lon":5.3813,"is_reserved":false,"is_disabled":false,"rental_uris":{"android":"levelo://app?vid=ab8e3da5-b786-415f-902e-e7d8839a3576","ios":"levelo://app?vid=ab8e3da5-b786-415f-902e-e7d8839a3576"},"vehicle_type_id":"4","last_reported":1723745496,"current_range_meters":21600,"station_id":"ce4bgj12rcd13ifvqbc0","pricing_plan_id":"cebpf4jnsgd1na2vs0mg"},{"bike_id":"c3f4c9ca-910c-4601-bb7d-d9854681b846","system_id":"levelo_inurba_marseille","lat":43.299028,"lon":5.381509,"is_reserved":false,"is_disabled":false,"rental_uris":{"android":"levelo://app?vid=c3f4c9ca-910c-4601-bb7d-d9854681b846","ios":"levelo://app?vid=c3f4c9ca-910c-4601-bb7d-d9854681b846"},"vehicle_type_id":"4","last_reported":1723745496,"current_range_meters":0,"station_id":"ce4bgj12rcd13ifvqbc0","pricing_plan_id":"cebpf4jnsgd1na2vs0mg"},{"bike_id":"d6aeb76f-3a77-461c-86a8-d9c5b406df14","system_id":"levelo_inurba_marseille","lat":43.29907,"lon":5.38139,"is_reserved":false,"is_disabled":false,"rental_uris":{"android":"levelo://app?vid=d6aeb76f-3a77-461c-86a8-d9c5b406df14","ios":"levelo://app?vid=d6aeb76f-3a77-461c-86a8-d9c5b406df14"},"vehicle_type_id":"4","last_reported":1723745496,"current_range_meters":0,"station_id":"ce4bgj12rcd13ifvqbc0","pricing_plan_id":"cebpf4jnsgd1na2vs0mg"},{"bike_id":"40cb8e2e-9695-4c28-a11d-b93c8e899879","system_id":"levelo_inurba_marseille","lat":43.299028,"lon":5.381509,"is_reserved":false,"is_disabled":false,"rental_uris":{"android":"levelo://app?vid=40cb8e2e-9695-4c28-a11d-b93c8e899879","ios":"levelo://app?vid=40cb8e2e-9695-4c28-a11d-b93c8e899879"},"vehicle_type_id":"4","last_reported":1723745496,"current_range_meters":5600,"station_id":"ce4bgj12rcd13ifvqbc0","pricing_plan_id":"cebpf4jnsgd1na2vs0mg"},{"bike_id":"db054416-262c-4661-9c94-94cf0d983f9c","system_id":"levelo_inurba_marseille","lat":43.299028,"lon":5.381509,"is_reserved":false,"is_disabled":false,"rental_uris":{"android":"levelo://app?vid=db054416-262c-4661-9c94-94cf0d983f9c","ios":"levelo://app?vid=db054416-262c-4661-9c94-94cf0d983f9c"},"vehicle_type_id":"4","last_reported":1723745496,"current_range_meters":6800,"station_id":"ce4bgj12rcd13ifvqbc0","pricing_plan_id":"cebpf4jnsgd1na2vs0mg"},{"bike_id":"dd60d82e-39c0-45ca-8067-d0df336987b0","system_id":"levelo_inurba_marseille","lat":43.299028,"lon":5.381509,"is_reserved":false,"is_disabled":false,"rental_uris":{"android":"levelo://app?vid=dd60d82e-39c0-45ca-8067-d0df336987b0","ios":"levelo://app?vid=dd60d82e-39c0-45ca-8067-d0df336987b0"},"vehicle_type_id":"4","last_reported":1723745496,"current_range_meters":30000,"station_id":"ce4bgj12rcd13ifvqbc0","pricing_plan_id":"cebpf4jnsgd1na2vs0mg"},{"bike_id":"468d4b90-2058-48bb-a931-04827b3cb8f3","system_id":"levelo_inurba_marseille","lat":43.321636,"lon":5.387524,"is_reserved":false,"is_disabled":false,"rental_uris":{"android":"levelo://app?vid=468d4b90-2058-48bb-a931-04827b3cb8f3","ios":"levelo://app?vid=468d4b90-2058-48bb-a931-04827b3cb8f3"},"vehicle_type_id":"4","last_reported":1723745496,"current_range_meters":29200,"station_id":"","pricing_plan_id":"cebpf4jnsgd1na2vs0mg"},{"bike_id":"17051b0d-e844-42ce-8d09-91aa8b916288","system_id":"levelo_inurba_marseille","lat":43.317557,"lon":5.390173,"is_reserved":false,"is_disabled":false,"rental_uris":{"android":"levelo://app?vid=17051b0d-e844-42ce-8d09-91aa8b916288","ios":"levelo://app?vid=17051b0d-e844-42ce-8d09-91aa8b916288"},"vehicle_type_id":"4","last_reported":1723745496,"current_range_meters":30400,"station_id":"ce4bhqp2rcd13ifvqhng","pricing_plan_id":"cebpf4jnsgd1na2vs0mg"},{"bike_id":"864dbf84-46a8-4a39-9e14-a484ee7bed9e","system_id":"levelo_inurba_marseille","lat":43.29747,"lon":5.37937,"is_reserved":false,"is_disabled":false,"rental_uris":{"android":"levelo://app?vid=864dbf84-46a8-4a39-9e14-a484ee7bed9e","ios":"levelo://app?vid=864dbf84-46a8-4a39-9e14-a484ee7bed9e"},"vehicle_type_id":"4","last_reported":1723745496,"current_range_meters":23600,"station_id":"","pricing_plan_id":"cebpf4jnsgd1na2vs0mg"},{"bike_id":"ba1d834c-0a33-4b10-95e3-6f7d3b0f5cc4","system_id":"levelo_inurba_marseille","lat":43.298037,"lon":5.381066,"is_reserved":false,"is_disabled":false,"rental_uris":{"android":"levelo://app?vid=ba1d834c-0a33-4b10-95e3-6f7d3b0f5cc4","ios":"levelo://app?vid=ba1d834c-0a33-4b10-95e3-6f7d3b0f5cc4"},"vehicle_type_id":"4","last_reported":1723745496,"current_range_meters":27600,"station_id":"ce4bgip2rcd13ifvqbb0","pricing_plan_id":"cebpf4jnsgd1na2vs0mg"},{"bike_id":"b4adafb2-50e0-4b62-9428-ff7ff839ee0e","system_id":"levelo_inurba_marseille","lat":43.2958,"lon":5.37518,"is_reserved":false,"is_disabled":false,"rental_uris":{"android":"levelo://app?vid=b4adafb2-50e0-4b62-9428-ff7ff839ee0e","ios":"levelo://app?vid=b4adafb2-50e0-4b62-9428-ff7ff839ee0e"},"vehicle_type_id":"4","last_reported":1723745496,"current_range_meters":31200,"station_id":"ce4bgh92rcd13ifvqb50","pricing_plan_id":"cebpf4jnsgd1na2vs0mg"},{"bike_id":"fc5cd108-1d10-4679-a8b8-cea122563678","system_id":"levelo_inurba_marseille","lat":43.295748,"lon":5.374983,"is_reserved":false,"is_disabled":false,"rental_uris":{"android":"levelo://app?vid=fc5cd108-1d10-4679-a8b8-cea122563678","ios":"levelo://app?vid=fc5cd108-1d10-4679-a8b8-cea122563678"},"vehicle_type_id":"4","last_reported":1723745496,"current_range_meters":6400,"station_id":"ce4bgh92rcd13ifvqb50","pricing_plan_id":"cebpf4jnsgd1na2vs0mg"},{"bike_id":"e5071708-2fa1-4117-988d-b15a392e0c9f","system_id":"levelo_inurba_marseille","lat":43.295748,"lon":5.37522,"is_reserved":false,"is_disabled":false,"rental_uris":{"android":"levelo://app?vid=e5071708-2fa1-4117-988d-b15a392e0c9f","ios":"levelo://app?vid=e5071708-2fa1-4117-988d-b15a392e0c9f"},"vehicle_type_id":"4","last_reported":1723745496,"current_range_meters":31600,"station_id":"ce4bgh92rcd13ifvqb50","pricing_plan_id":"cebpf4jnsgd1na2vs0mg"},{"bike_id":"3c2eefc0-dba9-47ec-afc4-ac98f71f4a84","system_id":"levelo_inurba_marseille","lat":43.295748,"lon":5.37522,"is_reserved":false,"is_disabled":false,"rental_uris":{"android":"levelo://app?vid=3c2eefc0-dba9-47ec-afc4-ac98f71f4a84","ios":"levelo://app?vid=3c2eefc0-dba9-47ec-afc4-ac98f71f4a84"},"vehicle_type_id":"4","last_reported":1723745496,"current_range_meters":32000,"station_id":"ce4bgh92rcd13ifvqb50","pricing_plan_id":"cebpf4jnsgd1na2vs0mg"},{"bike_id":"5709b864-ed61-41a0-a4f2-40820cc37ac6","system_id":"levelo_inurba_marseille","lat":43.29573,"lon":5.37507,"is_reserved":false,"is_disabled":false,"rental_uris":{"android":"levelo://app?vid=5709b864-ed61-41a0-a4f2-40820cc37ac6","ios":"levelo://app?vid=5709b864-ed61-41a0-a4f2-40820cc37ac6"},"vehicle_type_id":"4","last_reported":1723745496,"current_range_meters":13600,"station_id":"ce4bgh92rcd13ifvqb50","pricing_plan_id":"cebpf4jnsgd1na2vs0mg"},{"bike_id":"ba01a37f-86fb-4ad0-8b8a-750d04176f9a","system_id":"levelo_inurba_marseille","lat":43.304278,"lon":5.388868,"is_reserved":false,"is_disabled":false,"rental_uris":{"android":"levelo://app?vid=ba01a37f-86fb-4ad0-8b8a-750d04176f9a","ios":"levelo://app?vid=ba01a37f-86fb-4ad0-8b8a-750d04176f9a"},"vehicle_type_id":"4","last_reported":1723745496,"current_range_meters":24000,"station_id":"ce4bgk12rcd13ifvqbi0","pricing_plan_id":"cebpf4jnsgd1na2vs0mg"},{"bike_id":"b8a24f88-120a-4cf5-a8d1-897e653f53d0","system_id":"levelo_inurba_marseille","lat":43.29571,"lon":5.37503,"is_reserved":false,"is_disabled":false,"rental_uris":{"android":"levelo://app?vid=b8a24f88-120a-4cf5-a8d1-897e653f53d0","ios":"levelo://app?vid=b8a24f88-120a-4cf5-a8d1-897e653f53d0"},"vehicle_type_id":"4","last_reported":1723745496,"current_range_meters":20800,"station_id":"ce4bgh92rcd13ifvqb50","pricing_plan_id":"cebpf4jnsgd1na2vs0mg"},{"bike_id":"83f7f9ac-edde-4899-8277-641438842db1","system_id":"levelo_inurba_marseille","lat":43.304278,"lon":5.388868,"is_reserved":false,"is_disabled":false,"rental_uris":{"android":"levelo://app?vid=83f7f9ac-edde-4899-8277-641438842db1","ios":"levelo://app?vid=83f7f9ac-edde-4899-8277-641438842db1"},"vehicle_type_id":"4","last_reported":1723745496,"current_range_meters":19600,"station_id":"ce4bgk12rcd13ifvqbi0","pricing_plan_id":"cebpf4jnsgd1na2vs0mg"},{"bike_id":"6fcc6daf-5618-403e-a421-4c2585b8cb73","system_id":"levelo_inurba_marseille","lat":43.30433,"lon":5.38885,"is_reserved":false,"is_disabled":false,"rental_uris":{"android":"levelo://app?vid=6fcc6daf-5618-403e-a421-4c2585b8cb73","ios":"levelo://app?vid=6fcc6daf-5618-403e-a421-4c2585b8cb73"},"vehicle_type_id":"4","last_reported":1723745496,"current_range_meters":0,"station_id":"ce4bgk12rcd13ifvqbi0","pricing_plan_id":"cebpf4jnsgd1na2vs0mg"},{"bike_id":"a7672d19-58d7-46b8-b135-c49264182db7","system_id":"levelo_inurba_marseille","lat":43.295748,"lon":5.37522,"is_reserved":false,"is_disabled":false,"rental_uris":{"android":"levelo://app?vid=a7672d19-58d7-46b8-b135-c49264182db7","ios":"levelo://app?vid=a7672d19-58d7-46b8-b135-c49264182db7"},"vehicle_type_id":"4","last_reported":1723745496,"current_range_meters":12000,"station_id":"ce4bgh92rcd13ifvqb50","pricing_plan_id":"cebpf4jnsgd1na2vs0mg"},{"bike_id":"a8f7966f-d866-44f8-8eed-0beb5f92d395","system_id":"levelo_inurba_marseille","lat":43.295748,"lon":5.37522,"is_reserved":false,"is_disabled":false,"rental_uris":{"android":"levelo://app?vid=a8f7966f-d866-44f8-8eed-0beb5f92d395","ios":"levelo://app?vid=a8f7966f-d866-44f8-8eed-0beb5f92d395"},"vehicle_type_id":"4","last_reported":1723745496,"current_range_meters":5600,"station_id":"ce4bgh92rcd13ifvqb50","pricing_plan_id":"cebpf4jnsgd1na2vs0mg"},{"bike_id":"a5fd4f8b-ef98-4cf4-8719-8ea10658654e","system_id":"levelo_inurba_marseille","lat":43.298037,"lon":5.381066,"is_reserved":false,"is_disabled":false,"rental_uris":{"android":"levelo://app?vid=a5fd4f8b-ef98-4cf4-8719-8ea10658654e","ios":"levelo://app?vid=a5fd4f8b-ef98-4cf4-8719-8ea10658654e"},"vehicle_type_id":"4","last_reported":1723745496,"current_range_meters":12800,"station_id":"ce4bgip2rcd13ifvqbb0","pricing_plan_id":"cebpf4jnsgd1na2vs0mg"},{"bike_id":"6fa2d72e-e690-409d-bc05-54f5d91f5f68","system_id":"levelo_inurba_marseille","lat":43.2957,"lon":5.37513,"is_reserved":false,"is_disabled":false,"rental_uris":{"android":"levelo://app?vid=6fa2d72e-e690-409d-bc05-54f5d91f5f68","ios":"levelo://app?vid=6fa2d72e-e690-409d-bc05-54f5d91f5f68"},"vehicle_type_id":"4","last_reported":1723745496,"current_range_meters":29200,"station_id":"ce4bgh92rcd13ifvqb50","pricing_plan_id":"cebpf4jnsgd1na2vs0mg"},{"bike_id":"c0f6f4dc-ed06-4c88-b47f-867ec1930b83","system_id":"levelo_inurba_marseille","lat":43.29568,"lon":5.37508,"is_reserved":false,"is_disabled":false,"rental_uris":{"android":"levelo://app?vid=c0f6f4dc-ed06-4c88-b47f-867ec1930b83","ios":"levelo://app?vid=c0f6f4dc-ed06-4c88-b47f-867ec1930b83"},"vehicle_type_id":"4","last_reported":1723745496,"current_range_meters":15600,"station_id":"ce4bgh92rcd13ifvqb50","pricing_plan_id":"cebpf4jnsgd1na2vs0mg"},{"bike_id":"08828d12-374a-4e1b-9d4d-986575c7daff","system_id":"levelo_inurba_marseille","lat":43.304278,"lon":5.388868,"is_reserved":false,"is_disabled":false,"rental_uris":{"android":"levelo://app?vid=08828d12-374a-4e1b-9d4d-986575c7daff","ios":"levelo://app?vid=08828d12-374a-4e1b-9d4d-986575c7daff"},"vehicle_type_id":"4","last_reported":1723745496,"current_range_meters":1600,"station_id":"ce4bgk12rcd13ifvqbi0","pricing_plan_id":"cebpf4jnsgd1na2vs0mg"},{"bike_id":"42643119-c83f-4cba-ba93-b6e0f17dc629","system_id":"levelo_inurba_marseille","lat":43.2957,"lon":5.37516,"is_reserved":false,"is_disabled":false,"rental_uris":{"android":"levelo://app?vid=42643119-c83f-4cba-ba93-b6e0f17dc629","ios":"levelo://app?vid=42643119-c83f-4cba-ba93-b6e0f17dc629"},"vehicle_type_id":"4","last_reported":1723745496,"current_range_meters":31200,"station_id":"ce4bgh92rcd13ifvqb50","pricing_plan_id":"cebpf4jnsgd1na2vs0mg"},{"bike_id":"abace55b-1d79-48c8-a16f-09536d20122e","system_id":"levelo_inurba_marseille","lat":43.297878,"lon":5.381034,"is_reserved":false,"is_disabled":false,"rental_uris":{"android":"levelo://app?vid=abace55b-1d79-48c8-a16f-09536d20122e","ios":"levelo://app?vid=abace55b-1d79-48c8-a16f-09536d20122e"},"vehicle_type_id":"4","last_reported":1723745496,"current_range_meters":18400,"station_id":"ce4bgip2rcd13ifvqbb0","pricing_plan_id":"cebpf4jnsgd1na2vs0mg"},{"bike_id":"4da14a0c-0625-4eb4-a3cd-021b9372afb8","system_id":"levelo_inurba_marseille","lat":43.29567,"lon":5.37509,"is_reserved":false,"is_disabled":false,"rental_uris":{"android":"levelo://app?vid=4da14a0c-0625-4eb4-a3cd-021b9372afb8","ios":"levelo://app?vid=4da14a0c-0625-4eb4-a3cd-021b9372afb8"},"vehicle_type_id":"4","last_reported":1723745496,"current_range_meters":24000,"station_id":"ce4bgh92rcd13ifvqb50","pricing_plan_id":"cebpf4jnsgd1na2vs0mg"},{"bike_id":"45110328-1a9b-48fd-8c68-37c06d29aeda","system_id":"levelo_inurba_marseille","lat":43.295748,"lon":5.37522,"is_reserved":false,"is_disabled":false,"rental_uris":{"android":"levelo://app?vid=45110328-1a9b-48fd-8c68-37c06d29aeda","ios":"levelo://app?vid=45110328-1a9b-48fd-8c68-37c06d29aeda"},"vehicle_type_id":"4","last_reported":1723745496,"current_range_meters":8000,"station_id":"ce4bgh92rcd13ifvqb50","pricing_plan_id":"cebpf4jnsgd1na2vs0mg"},{"bike_id":"ede07c5a-e359-4065-a0d2-83de40845320","system_id":"levelo_inurba_marseille","lat":43.29568,"lon":5.37518,"is_reserved":false,"is_disabled":false,"rental_uris":{"android":"levelo://app?vid=ede07c5a-e359-4065-a0d2-83de40845320","ios":"levelo://app?vid=ede07c5a-e359-4065-a0d2-83de40845320"},"vehicle_type_id":"4","last_reported":1723745496,"current_range_meters":17600,"station_id":"ce4bgh92rcd13ifvqb50","pricing_plan_id":"cebpf4jnsgd1na2vs0mg"},{"bike_id":"a033c9e4-8ea5-4922-be67-7744b79761c0","system_id":"levelo_inurba_marseille","lat":43.29567,"lon":5.37517,"is_reserved":false,"is_disabled":false,"rental_uris":{"android":"levelo://app?vid=a033c9e4-8ea5-4922-be67-7744b79761c0","ios":"levelo://app?vid=a033c9e4-8ea5-4922-be67-7744b79761c0"},"vehicle_type_id":"4","last_reported":1723745496,"current_range_meters":30800,"station_id":"ce4bgh92rcd13ifvqb50","pricing_plan_id":"cebpf4jnsgd1na2vs0mg"},{"bike_id":"f6222cef-0c78-48a2-9f12-7c57e023fa1a","system_id":"levelo_inurba_marseille","lat":43.304294,"lon":5.38894,"is_reserved":false,"is_disabled":false,"rental_uris":{"android":"levelo://app?vid=f6222cef-0c78-48a2-9f12-7c57e023fa1a","ios":"levelo://app?vid=f6222cef-0c78-48a2-9f12-7c57e023fa1a"},"vehicle_type_id":"4","last_reported":1723745496,"current_range_meters":1200,"station_id":"ce4bgh92rcd13ifvqb50","pricing_plan_id":"cebpf4jnsgd1na2vs0mg"},{"bike_id":"57e70915-be19-4f8c-b71e-0de29080f52f","system_id":"levelo_inurba_marseille","lat":43.29562,"lon":5.37512,"is_reserved":false,"is_disabled":false,"rental_uris":{"android":"levelo://app?vid=57e70915-be19-4f8c-b71e-0de29080f52f","ios":"levelo://app?vid=57e70915-be19-4f8c-b71e-0de29080f52f"},"vehicle_type_id":"4","last_reported":1723745496,"current_range_meters":31200,"station_id":"ce4bgh92rcd13ifvqb50","pricing_plan_id":"cebpf4jnsgd1na2vs0mg"},{"bike_id":"ed966dda-5a34-48d5-910e-2d7f57397cd2","system_id":"levelo_inurba_marseille","lat":43.29745,"lon":5.38033,"is_reserved":false,"is_disabled":false,"rental_uris":{"android":"levelo://app?vid=ed966dda-5a34-48d5-910e-2d7f57397cd2","ios":"levelo://app?vid=ed966dda-5a34-48d5-910e-2d7f57397cd2"},"vehicle_type_id":"4","last_reported":1723745496,"current_range_meters":4400,"station_id":"ce4bgpp2rcd13ifvqc3g","pricing_plan_id":"cebpf4jnsgd1na2vs0mg"},{"bike_id":"a109235e-c0b5-4aa7-a1a0-7d4245201489","system_id":"levelo_inurba_marseille","lat":43.298037,"lon":5.381066,"is_reserved":false,"is_disabled":false,"rental_uris":{"android":"levelo://app?vid=a109235e-c0b5-4aa7-a1a0-7d4245201489","ios":"levelo://app?vid=a109235e-c0b5-4aa7-a1a0-7d4245201489"},"vehicle_type_id":"4","last_reported":1723745496,"current_range_meters":0,"station_id":"ce4bgip2rcd13ifvqbb0","pricing_plan_id":"cebpf4jnsgd1na2vs0mg"},{"bike_id":"fe65dde2-c336-4194-a1fb-ca937fc2d4d9","system_id":"levelo_inurba_marseille","lat":43.296263,"lon":5.377094,"is_reserved":false,"is_disabled":false,"rental_uris":{"android":"levelo://app?vid=fe65dde2-c336-4194-a1fb-ca937fc2d4d9","ios":"levelo://app?vid=fe65dde2-c336-4194-a1fb-ca937fc2d4d9"},"vehicle_type_id":"4","last_reported":1723745496,"current_range_meters":30800,"station_id":"ce4bgi92rcd13ifvqb90","pricing_plan_id":"cebpf4jnsgd1na2vs0mg"},{"bike_id":"55e94ab5-ab04-49c7-b19b-1865a1e2fe9b","system_id":"levelo_inurba_marseille","lat":43.296263,"lon":5.377094,"is_reserved":false,"is_disabled":false,"rental_uris":{"android":"levelo://app?vid=55e94ab5-ab04-49c7-b19b-1865a1e2fe9b","ios":"levelo://app?vid=55e94ab5-ab04-49c7-b19b-1865a1e2fe9b"},"vehicle_type_id":"4","last_reported":1723745496,"current_range_meters":25600,"station_id":"ce4bgi92rcd13ifvqb90","pricing_plan_id":"cebpf4jnsgd1na2vs0mg"},{"bike_id":"dc2a7f61-aa5b-4861-ac98-1ab11559b614","system_id":"levelo_inurba_marseille","lat":43.296263,"lon":5.377094,"is_reserved":false,"is_disabled":false,"rental_uris":{"android":"levelo://app?vid=dc2a7f61-aa5b-4861-ac98-1ab11559b614","ios":"levelo://app?vid=dc2a7f61-aa5b-4861-ac98-1ab11559b614"},"vehicle_type_id":"4","last_reported":1723745496,"current_range_meters":31200,"station_id":"ce4bgi92rcd13ifvqb90","pricing_plan_id":"cebpf4jnsgd1na2vs0mg"},{"bike_id":"483d6557-7ba4-47da-80a6-59292b7edb6b","system_id":"levelo_inurba_marseille","lat":43.296263,"lon":5.377094,"is_reserved":false,"is_disabled":false,"rental_uris":{"android":"levelo://app?vid=483d6557-7ba4-47da-80a6-59292b7edb6b","ios":"levelo://app?vid=483d6557-7ba4-47da-80a6-59292b7edb6b"},"vehicle_type_id":"4","last_reported":1723745496,"current_range_meters":14000,"station_id":"ce4bgi92rcd13ifvqb90","pricing_plan_id":"cebpf4jnsgd1na2vs0mg"},{"bike_id":"a61367fe-f16c-4e06-9333-ff400cdc7aad","system_id":"levelo_inurba_marseille","lat":43.296263,"lon":5.377094,"is_reserved":false,"is_disabled":false,"rental_uris":{"android":"levelo://app?vid=a61367fe-f16c-4e06-9333-ff400cdc7aad","ios":"levelo://app?vid=a61367fe-f16c-4e06-9333-ff400cdc7aad"},"vehicle_type_id":"4","last_reported":1723745496,"current_range_meters":19200,"station_id":"ce4bgi92rcd13ifvqb90","pricing_plan_id":"cebpf4jnsgd1na2vs0mg"},{"bike_id":"dd90158d-104a-4bbb-b0ff-c470ae72f231","system_id":"levelo_inurba_marseille","lat":43.29606,"lon":5.37719,"is_reserved":false,"is_disabled":false,"rental_uris":{"android":"levelo://app?vid=dd90158d-104a-4bbb-b0ff-c470ae72f231","ios":"levelo://app?vid=dd90158d-104a-4bbb-b0ff-c470ae72f231"},"vehicle_type_id":"4","last_reported":1723745496,"current_range_meters":30800,"station_id":"ce4bgi92rcd13ifvqb90","pricing_plan_id":"cebpf4jnsgd1na2vs0mg"},{"bike_id":"038f2c50-46a6-43b0-b668-1faec322a8d1","system_id":"levelo_inurba_marseille","lat":43.299707,"lon":5.384859,"is_reserved":false,"is_disabled":false,"rental_uris":{"android":"levelo://app?vid=038f2c50-46a6-43b0-b668-1faec322a8d1","ios":"levelo://app?vid=038f2c50-46a6-43b0-b668-1faec322a8d1"},"vehicle_type_id":"4","last_reported":1723745496,"current_range_meters":10000,"station_id":"ce4bgj92rcd13ifvqbd0","pricing_plan_id":"cebpf4jnsgd1na2vs0mg"},{"bike_id":"a5736d26-24a4-4dae-8f24-1ad03f29198f","system_id":"levelo_inurba_marseille","lat":43.29539,"lon":5.37494,"is_reserved":false,"is_disabled":false,"rental_uris":{"android":"levelo://app?vid=a5736d26-24a4-4dae-8f24-1ad03f29198f","ios":"levelo://app?vid=a5736d26-24a4-4dae-8f24-1ad03f29198f"},"vehicle_type_id":"4","last_reported":1723745496,"current_range_meters":4800,"station_id":"ce4bgkp2rcd13ifvqbmg","pricing_plan_id":"cebpf4jnsgd1na2vs0mg"},{"bike_id":"2d583bf6-f12c-43d1-99e0-e933380ee72c","system_id":"levelo_inurba_marseille","lat":43.299707,"lon":5.384859,"is_reserved":false,"is_disabled":false,"rental_uris":{"android":"levelo://app?vid=2d583bf6-f12c-43d1-99e0-e933380ee72c","ios":"levelo://app?vid=2d583bf6-f12c-43d1-99e0-e933380ee72c"},"vehicle_type_id":"4","last_reported":1723745496,"current_range_meters":31200,"station_id":"ce4bgj92rcd13ifvqbd0","pricing_plan_id":"cebpf4jnsgd1na2vs0mg"},{"bike_id":"8875135f-ab58-4145-8858-6374db1d4e76","system_id":"levelo_inurba_marseille","lat":43.29598,"lon":5.37715,"is_reserved":false,"is_disabled":false,"rental_uris":{"android":"levelo://app?vid=8875135f-ab58-4145-8858-6374db1d4e76","ios":"levelo://app?vid=8875135f-ab58-4145-8858-6374db1d4e76"},"vehicle_type_id":"4","last_reported":1723745496,"current_range_meters":17600,"station_id":"ce4bgi92rcd13ifvqb90","pricing_plan_id":"cebpf4jnsgd1na2vs0mg"},{"bike_id":"5d8a0386-412f-4fc4-9b46-3dafead10027","system_id":"levelo_inurba_marseille","lat":43.299707,"lon":5.384859,"is_reserved":false,"is_disabled":false,"rental_uris":{"android":"levelo://app?vid=5d8a0386-412f-4fc4-9b46-3dafead10027","ios":"levelo://app?vid=5d8a0386-412f-4fc4-9b46-3dafead10027"},"vehicle_type_id":"4","last_reported":1723745496,"current_range_meters":15600,"station_id":"ce4bgj92rcd13ifvqbd0","pricing_plan_id":"cebpf4jnsgd1na2vs0mg"},{"bike_id":"dcd3138a-3701-4cc5-97ca-60893ad76a06","system_id":"levelo_inurba_marseille","lat":43.295279,"lon":5.375048,"is_reserved":false,"is_disabled":false,"rental_uris":{"android":"levelo://app?vid=dcd3138a-3701-4cc5-97ca-60893ad76a06","ios":"levelo://app?vid=dcd3138a-3701-4cc5-97ca-60893ad76a06"},"vehicle_type_id":"4","last_reported":1723745496,"current_range_meters":29600,"station_id":"ce4bgkp2rcd13ifvqbmg","pricing_plan_id":"cebpf4jnsgd1na2vs0mg"},{"bike_id":"59be2b0f-9b03-4e79-b232-7bac17527b3d","system_id":"levelo_inurba_marseille","lat":43.299707,"lon":5.384859,"is_reserved":false,"is_disabled":false,"rental_uris":{"android":"levelo://app?vid=59be2b0f-9b03-4e79-b232-7bac17527b3d","ios":"levelo://app?vid=59be2b0f-9b03-4e79-b232-7bac17527b3d"},"vehicle_type_id":"4","last_reported":1723745496,"current_range_meters":27200,"station_id":"ce4bgj92rcd13ifvqbd0","pricing_plan_id":"cebpf4jnsgd1na2vs0mg"},{"bike_id":"967685e3-30c1-41bc-b26f-dca4c7ad934d","system_id":"levelo_inurba_marseille","lat":43.299707,"lon":5.384859,"is_reserved":false,"is_disabled":false,"rental_uris":{"android":"levelo://app?vid=967685e3-30c1-41bc-b26f-dca4c7ad934d","ios":"levelo://app?vid=967685e3-30c1-41bc-b26f-dca4c7ad934d"},"vehicle_type_id":"4","last_reported":1723745496,"current_range_meters":16800,"station_id":"ce4bgj92rcd13ifvqbd0","pricing_plan_id":"cebpf4jnsgd1na2vs0mg"},{"bike_id":"e89e0fc9-06ab-42fa-b8f5-6e9a01b83475","system_id":"levelo_inurba_marseille","lat":43.299717,"lon":5.384845,"is_reserved":false,"is_disabled":false,"rental_uris":{"android":"levelo://app?vid=e89e0fc9-06ab-42fa-b8f5-6e9a01b83475","ios":"levelo://app?vid=e89e0fc9-06ab-42fa-b8f5-6e9a01b83475"},"vehicle_type_id":"4","last_reported":1723745496,"current_range_meters":31600,"station_id":"ce4bgj92rcd13ifvqbd0","pricing_plan_id":"cebpf4jnsgd1na2vs0mg"},{"bike_id":"36d4d0dd-a9dd-4d3a-905b-e4880b5d397e","system_id":"levelo_inurba_marseille","lat":43.299707,"lon":5.384859,"is_reserved":false,"is_disabled":false,"rental_uris":{"android":"levelo://app?vid=36d4d0dd-a9dd-4d3a-905b-e4880b5d397e","ios":"levelo://app?vid=36d4d0dd-a9dd-4d3a-905b-e4880b5d397e"},"vehicle_type_id":"4","last_reported":1723745496,"current_range_meters":800,"station_id":"ce4bgj92rcd13ifvqbd0","pricing_plan_id":"cebpf4jnsgd1na2vs0mg"},{"bike_id":"f13aff0c-7eeb-4c09-9267-bf72315253cc","system_id":"levelo_inurba_marseille","lat":43.299717,"lon":5.384845,"is_reserved":false,"is_disabled":false,"rental_uris":{"android":"levelo://app?vid=f13aff0c-7eeb-4c09-9267-bf72315253cc","ios":"levelo://app?vid=f13aff0c-7eeb-4c09-9267-bf72315253cc"},"vehicle_type_id":"4","last_reported":1723745496,"current_range_meters":0,"station_id":"ce4bgj92rcd13ifvqbd0","pricing_plan_id":"cebpf4jnsgd1na2vs0mg"},{"bike_id":"23775696-d642-47ab-90c4-eb60021de809","system_id":"levelo_inurba_marseille","lat":43.299717,"lon":5.384845,"is_reserved":false,"is_disabled":false,"rental_uris":{"android":"levelo://app?vid=23775696-d642-47ab-90c4-eb60021de809","ios":"levelo://app?vid=23775696-d642-47ab-90c4-eb60021de809"},"vehicle_type_id":"4","last_reported":1723745496,"current_range_meters":31200,"station_id":"ce4bgj92rcd13ifvqbd0","pricing_plan_id":"cebpf4jnsgd1na2vs0mg"},{"bike_id":"f440876f-6c77-4905-875f-3302c6cbe1c5","system_id":"levelo_inurba_marseille","lat":43.299717,"lon":5.384845,"is_reserved":false,"is_disabled":false,"rental_uris":{"android":"levelo://app?vid=f440876f-6c77-4905-875f-3302c6cbe1c5","ios":"levelo://app?vid=f440876f-6c77-4905-875f-3302c6cbe1c5"},"vehicle_type_id":"4","last_reported":1723745496,"current_range_meters":32000,"station_id":"ce4bgj92rcd13ifvqbd0","pricing_plan_id":"cebpf4jnsgd1na2vs0mg"},{"bike_id":"ff466b7d-4d7a-4955-90d0-f51b624290e9","system_id":"levelo_inurba_marseille","lat":43.299717,"lon":5.384845,"is_reserved":false,"is_disabled":false,"rental_uris":{"android":"levelo://app?vid=ff466b7d-4d7a-4955-90d0-f51b624290e9","ios":"levelo://app?vid=ff466b7d-4d7a-4955-90d0-f51b624290e9"},"vehicle_type_id":"4","last_reported":1723745496,"current_range_meters":12800,"station_id":"ce4bgj92rcd13ifvqbd0","pricing_plan_id":"cebpf4jnsgd1na2vs0mg"},{"bike_id":"43cbd206-f888-4af4-8d60-316bb76f52a5","system_id":"levelo_inurba_marseille","lat":43.299717,"lon":5.384845,"is_reserved":false,"is_disabled":false,"rental_uris":{"android":"levelo://app?vid=43cbd206-f888-4af4-8d60-316bb76f52a5","ios":"levelo://app?vid=43cbd206-f888-4af4-8d60-316bb76f52a5"},"vehicle_type_id":"4","last_reported":1723745496,"current_range_meters":17600,"station_id":"ce4bgj92rcd13ifvqbd0","pricing_plan_id":"cebpf4jnsgd1na2vs0mg"},{"bike_id":"c9db1efa-8716-4571-ba11-944c1c68f0d2","system_id":"levelo_inurba_marseille","lat":43.29966,"lon":5.38483,"is_reserved":false,"is_disabled":false,"rental_uris":{"android":"levelo://app?vid=c9db1efa-8716-4571-ba11-944c1c68f0d2","ios":"levelo://app?vid=c9db1efa-8716-4571-ba11-944c1c68f0d2"},"vehicle_type_id":"4","last_reported":1723745496,"current_range_meters":26000,"station_id":"ce4bgj92rcd13ifvqbd0","pricing_plan_id":"cebpf4jnsgd1na2vs0mg"},{"bike_id":"041eedcc-61e8-4a94-a965-8697a73c81a4","system_id":"levelo_inurba_marseille","lat":43.29973,"lon":5.38495,"is_reserved":false,"is_disabled":false,"rental_uris":{"android":"levelo://app?vid=041eedcc-61e8-4a94-a965-8697a73c81a4","ios":"levelo://app?vid=041eedcc-61e8-4a94-a965-8697a73c81a4"},"vehicle_type_id":"4","last_reported":1723745496,"current_range_meters":15600,"station_id":"ce4bgj92rcd13ifvqbd0","pricing_plan_id":"cebpf4jnsgd1na2vs0mg"},{"bike_id":"7b1720e6-cf15-4a37-a481-3ff7ddf6dba0","system_id":"levelo_inurba_marseille","lat":43.299673,"lon":5.384933,"is_reserved":false,"is_disabled":false,"rental_uris":{"android":"levelo://app?vid=7b1720e6-cf15-4a37-a481-3ff7ddf6dba0","ios":"levelo://app?vid=7b1720e6-cf15-4a37-a481-3ff7ddf6dba0"},"vehicle_type_id":"4","last_reported":1723745496,"current_range_meters":19200,"station_id":"ce4bgj92rcd13ifvqbd0","pricing_plan_id":"cebpf4jnsgd1na2vs0mg"},{"bike_id":"4d5b2fc5-fc86-49eb-ab47-6e481fc52b28","system_id":"levelo_inurba_marseille","lat":43.29964,"lon":5.38492,"is_reserved":false,"is_disabled":false,"rental_uris":{"android":"levelo://app?vid=4d5b2fc5-fc86-49eb-ab47-6e481fc52b28","ios":"levelo://app?vid=4d5b2fc5-fc86-49eb-ab47-6e481fc52b28"},"vehicle_type_id":"4","last_reported":1723745496,"current_range_meters":15600,"station_id":"ce4bgj92rcd13ifvqbd0","pricing_plan_id":"cebpf4jnsgd1na2vs0mg"},{"bike_id":"9dcce813-2231-4d57-9685-dcbc351062e7","system_id":"levelo_inurba_marseille","lat":43.299717,"lon":5.384845,"is_reserved":false,"is_disabled":false,"rental_uris":{"android":"levelo://app?vid=9dcce813-2231-4d57-9685-dcbc351062e7","ios":"levelo://app?vid=9dcce813-2231-4d57-9685-dcbc351062e7"},"vehicle_type_id":"4","last_reported":1723745496,"current_range_meters":4800,"station_id":"ce4bgj92rcd13ifvqbd0","pricing_plan_id":"cebpf4jnsgd1na2vs0mg"},{"bike_id":"d2b20696-8514-4439-8a66-493fc549bc95","system_id":"levelo_inurba_marseille","lat":43.299717,"lon":5.384845,"is_reserved":false,"is_disabled":false,"rental_uris":{"android":"levelo://app?vid=d2b20696-8514-4439-8a66-493fc549bc95","ios":"levelo://app?vid=d2b20696-8514-4439-8a66-493fc549bc95"},"vehicle_type_id":"4","last_reported":1723745496,"current_range_meters":22400,"station_id":"ce4bgj92rcd13ifvqbd0","pricing_plan_id":"cebpf4jnsgd1na2vs0mg"},{"bike_id":"3fa349c4-8f33-4c58-9cee-7cca972fcd89","system_id":"levelo_inurba_marseille","lat":43.299717,"lon":5.384845,"is_reserved":false,"is_disabled":false,"rental_uris":{"android":"levelo://app?vid=3fa349c4-8f33-4c58-9cee-7cca972fcd89","ios":"levelo://app?vid=3fa349c4-8f33-4c58-9cee-7cca972fcd89"},"vehicle_type_id":"4","last_reported":1723745496,"current_range_meters":5200,"station_id":"ce4bgj92rcd13ifvqbd0","pricing_plan_id":"cebpf4jnsgd1na2vs0mg"},{"bike_id":"344e7d63-aa02-48a7-b55a-c080c33d7748","system_id":"levelo_inurba_marseille","lat":43.29965,"lon":5.38497,"is_reserved":false,"is_disabled":false,"rental_uris":{"android":"levelo://app?vid=344e7d63-aa02-48a7-b55a-c080c33d7748","ios":"levelo://app?vid=344e7d63-aa02-48a7-b55a-c080c33d7748"},"vehicle_type_id":"4","last_reported":1723745496,"current_range_meters":24800,"station_id":"ce4bgj92rcd13ifvqbd0","pricing_plan_id":"cebpf4jnsgd1na2vs0mg"},{"bike_id":"6065dbcf-94f1-4358-a933-ceca44c0307a","system_id":"levelo_inurba_marseille","lat":43.299717,"lon":5.384845,"is_reserved":false,"is_disabled":false,"rental_uris":{"android":"levelo://app?vid=6065dbcf-94f1-4358-a933-ceca44c0307a","ios":"levelo://app?vid=6065dbcf-94f1-4358-a933-ceca44c0307a"},"vehicle_type_id":"4","last_reported":1723745496,"current_range_meters":29200,"station_id":"ce4bgj92rcd13ifvqbd0","pricing_plan_id":"cebpf4jnsgd1na2vs0mg"},{"bike_id":"a4a54bb1-c8f9-497c-aa96-1c054b723adc","system_id":"levelo_inurba_marseille","lat":43.29966,"lon":5.38501,"is_reserved":false,"is_disabled":false,"rental_uris":{"android":"levelo://app?vid=a4a54bb1-c8f9-497c-aa96-1c054b723adc","ios":"levelo://app?vid=a4a54bb1-c8f9-497c-aa96-1c054b723adc"},"vehicle_type_id":"4","last_reported":1723745496,"current_range_meters":400,"station_id":"ce4bgj92rcd13ifvqbd0","pricing_plan_id":"cebpf4jnsgd1na2vs0mg"},{"bike_id":"e967c9f0-da92-4d19-9037-1385fdca961e","system_id":"levelo_inurba_marseille","lat":43.301396,"lon":5.387812,"is_reserved":false,"is_disabled":false,"rental_uris":{"android":"levelo://app?vid=e967c9f0-da92-4d19-9037-1385fdca961e","ios":"levelo://app?vid=e967c9f0-da92-4d19-9037-1385fdca961e"},"vehicle_type_id":"4","last_reported":1723745496,"current_range_meters":18000,"station_id":"ce4bghh2rcd13ifvqb60","pricing_plan_id":"cebpf4jnsgd1na2vs0mg"},{"bike_id":"9c781eb3-142e-4642-b06a-8dde1c26ac3d","system_id":"levelo_inurba_marseille","lat":43.32365,"lon":5.38875,"is_reserved":false,"is_disabled":false,"rental_uris":{"android":"levelo://app?vid=9c781eb3-142e-4642-b06a-8dde1c26ac3d","ios":"levelo://app?vid=9c781eb3-142e-4642-b06a-8dde1c26ac3d"},"vehicle_type_id":"4","last_reported":1723745496,"current_range_meters":5200,"station_id":"ce4bhqp2rcd13ifvqhog","pricing_plan_id":"cebpf4jnsgd1na2vs0mg"},{"bike_id":"80d03ceb-5aaa-42c4-89fa-e7704230b5bc","system_id":"levelo_inurba_marseille","lat":43.32367,"lon":5.388836,"is_reserved":false,"is_disabled":false,"rental_uris":{"android":"levelo://app?vid=80d03ceb-5aaa-42c4-89fa-e7704230b5bc","ios":"levelo://app?vid=80d03ceb-5aaa-42c4-89fa-e7704230b5bc"},"vehicle_type_id":"4","last_reported":1723745496,"current_range_meters":3600,"station_id":"ce4bhqp2rcd13ifvqhog","pricing_plan_id":"cebpf4jnsgd1na2vs0mg"},{"bike_id":"0d595970-cc1d-441f-85df-eab93e02d00d","system_id":"levelo_inurba_marseille","lat":43.32367,"lon":5.388836,"is_reserved":false,"is_disabled":false,"rental_uris":{"android":"levelo://app?vid=0d595970-cc1d-441f-85df-eab93e02d00d","ios":"levelo://app?vid=0d595970-cc1d-441f-85df-eab93e02d00d"},"vehicle_type_id":"4","last_reported":1723745496,"current_range_meters":22800,"station_id":"ce4bhqp2rcd13ifvqhog","pricing_plan_id":"cebpf4jnsgd1na2vs0mg"},{"bike_id":"35636d50-0765-48cd-a977-06a3cf5b435d","system_id":"levelo_inurba_marseille","lat":43.296107,"lon":5.380927,"is_reserved":false,"is_disabled":false,"rental_uris":{"android":"levelo://app?vid=35636d50-0765-48cd-a977-06a3cf5b435d","ios":"levelo://app?vid=35636d50-0765-48cd-a977-06a3cf5b435d"},"vehicle_type_id":"4","last_reported":1723745496,"current_range_meters":6400,"station_id":"ce4bgl12rcd13ifvqbo0","pricing_plan_id":"cebpf4jnsgd1na2vs0mg"},{"bike_id":"63655e6e-cf00-47cb-b407-18cd3301c76b","system_id":"levelo_inurba_marseille","lat":43.296039,"lon":5.380981,"is_reserved":false,"is_disabled":false,"rental_uris":{"android":"levelo://app?vid=63655e6e-cf00-47cb-b407-18cd3301c76b","ios":"levelo://app?vid=63655e6e-cf00-47cb-b407-18cd3301c76b"},"vehicle_type_id":"4","last_reported":1723745496,"current_range_meters":12800,"station_id":"ce4bgl12rcd13ifvqbo0","pricing_plan_id":"cebpf4jnsgd1na2vs0mg"},{"bike_id":"b10f479e-c0b4-46a2-a942-03c8c2e0a5c3","system_id":"levelo_inurba_marseille","lat":43.29601,"lon":5.38098,"is_reserved":false,"is_disabled":false,"rental_uris":{"android":"levelo://app?vid=b10f479e-c0b4-46a2-a942-03c8c2e0a5c3","ios":"levelo://app?vid=b10f479e-c0b4-46a2-a942-03c8c2e0a5c3"},"vehicle_type_id":"4","last_reported":1723745496,"current_range_meters":0,"station_id":"ce4bgl12rcd13ifvqbo0","pricing_plan_id":"cebpf4jnsgd1na2vs0mg"},{"bike_id":"6ff99ece-276d-4a35-b027-43446149f2a0","system_id":"levelo_inurba_marseille","lat":43.295982,"lon":5.380979,"is_reserved":false,"is_disabled":false,"rental_uris":{"android":"levelo://app?vid=6ff99ece-276d-4a35-b027-43446149f2a0","ios":"levelo://app?vid=6ff99ece-276d-4a35-b027-43446149f2a0"},"vehicle_type_id":"4","last_reported":1723745496,"current_range_meters":26000,"station_id":"ce4bgl12rcd13ifvqbo0","pricing_plan_id":"cebpf4jnsgd1na2vs0mg"},{"bike_id":"91194db9-be2b-414f-b355-ba8ed74f883a","system_id":"levelo_inurba_marseille","lat":43.293298,"lon":5.370964,"is_reserved":false,"is_disabled":false,"rental_uris":{"android":"levelo://app?vid=91194db9-be2b-414f-b355-ba8ed74f883a","ios":"levelo://app?vid=91194db9-be2b-414f-b355-ba8ed74f883a"},"vehicle_type_id":"4","last_reported":1723745496,"current_range_meters":6400,"station_id":"","pricing_plan_id":"cebpf4jnsgd1na2vs0mg"},{"bike_id":"f87e0f22-210f-4ce0-9e5c-ca2d935647ee","system_id":"levelo_inurba_marseille","lat":43.29601,"lon":5.381084,"is_reserved":false,"is_disabled":false,"rental_uris":{"android":"levelo://app?vid=f87e0f22-210f-4ce0-9e5c-ca2d935647ee","ios":"levelo://app?vid=f87e0f22-210f-4ce0-9e5c-ca2d935647ee"},"vehicle_type_id":"4","last_reported":1723745496,"current_range_meters":15200,"station_id":"ce4bgl12rcd13ifvqbo0","pricing_plan_id":"cebpf4jnsgd1na2vs0mg"},{"bike_id":"ecc7aab3-ce7b-4aa7-840e-38b6f2b15985","system_id":"levelo_inurba_marseille","lat":43.29586,"lon":5.38094,"is_reserved":false,"is_disabled":false,"rental_uris":{"android":"levelo://app?vid=ecc7aab3-ce7b-4aa7-840e-38b6f2b15985","ios":"levelo://app?vid=ecc7aab3-ce7b-4aa7-840e-38b6f2b15985"},"vehicle_type_id":"4","last_reported":1723745496,"current_range_meters":16000,"station_id":"ce4bgl12rcd13ifvqbo0","pricing_plan_id":"cebpf4jnsgd1na2vs0mg"},{"bike_id":"5f338ff7-b1d6-474c-9d3e-faceb474eb2e","system_id":"levelo_inurba_marseille","lat":43.29589,"lon":5.38101,"is_reserved":false,"is_disabled":false,"rental_uris":{"android":"levelo://app?vid=5f338ff7-b1d6-474c-9d3e-faceb474eb2e","ios":"levelo://app?vid=5f338ff7-b1d6-474c-9d3e-faceb474eb2e"},"vehicle_type_id":"4","last_reported":1723745496,"current_range_meters":20000,"station_id":"ce4bgl12rcd13ifvqbo0","pricing_plan_id":"cebpf4jnsgd1na2vs0mg"},{"bike_id":"6622f76d-2768-4def-b5c5-6a50378a3d60","system_id":"levelo_inurba_marseille","lat":43.29591,"lon":5.38106,"is_reserved":false,"is_disabled":false,"rental_uris":{"android":"levelo://app?vid=6622f76d-2768-4def-b5c5-6a50378a3d60","ios":"levelo://app?vid=6622f76d-2768-4def-b5c5-6a50378a3d60"},"vehicle_type_id":"4","last_reported":1723745496,"current_range_meters":24800,"station_id":"ce4bgl12rcd13ifvqbo0","pricing_plan_id":"cebpf4jnsgd1na2vs0mg"},{"bike_id":"1f06946e-5115-4899-b4c0-5815c6116cf4","system_id":"levelo_inurba_marseille","lat":43.292749,"lon":5.368402,"is_reserved":false,"is_disabled":false,"rental_uris":{"android":"levelo://app?vid=1f06946e-5115-4899-b4c0-5815c6116cf4","ios":"levelo://app?vid=1f06946e-5115-4899-b4c0-5815c6116cf4"},"vehicle_type_id":"4","last_reported":1723745496,"current_range_meters":26800,"station_id":"ce4bhbp2rcd13ifvqesg","pricing_plan_id":"cebpf4jnsgd1na2vs0mg"},{"bike_id":"bf39a63a-4b3b-4f6f-97e1-ba7248e065bf","system_id":"levelo_inurba_marseille","lat":43.29307,"lon":5.37167,"is_reserved":false,"is_disabled":false,"rental_uris":{"android":"levelo://app?vid=bf39a63a-4b3b-4f6f-97e1-ba7248e065bf","ios":"levelo://app?vid=bf39a63a-4b3b-4f6f-97e1-ba7248e065bf"},"vehicle_type_id":"4","last_reported":1723745496,"current_range_meters":0,"station_id":"ce4bgh92rcd13ifvqb40","pricing_plan_id":"cebpf4jnsgd1na2vs0mg"},{"bike_id":"e31f87de-0680-4e61-af8d-3718c142fabb","system_id":"levelo_inurba_marseille","lat":43.293259,"lon":5.371586,"is_reserved":false,"is_disabled":false,"rental_uris":{"android":"levelo://app?vid=e31f87de-0680-4e61-af8d-3718c142fabb","ios":"levelo://app?vid=e31f87de-0680-4e61-af8d-3718c142fabb"},"vehicle_type_id":"4","last_reported":1723745496,"current_range_meters":9600,"station_id":"ce4bgh92rcd13ifvqb40","pricing_plan_id":"cebpf4jnsgd1na2vs0mg"},{"bike_id":"d0b236a0-94b0-47ed-8ed4-ee80e904b665","system_id":"levelo_inurba_marseille","lat":43.292749,"lon":5.368402,"is_reserved":false,"is_disabled":false,"rental_uris":{"android":"levelo://app?vid=d0b236a0-94b0-47ed-8ed4-ee80e904b665","ios":"levelo://app?vid=d0b236a0-94b0-47ed-8ed4-ee80e904b665"},"vehicle_type_id":"4","last_reported":1723745496,"current_range_meters":15600,"station_id":"ce4bhbp2rcd13ifvqesg","pricing_plan_id":"cebpf4jnsgd1na2vs0mg"},{"bike_id":"4140d889-aaf9-4b15-8a11-a581354b1510","system_id":"levelo_inurba_marseille","lat":43.293259,"lon":5.371586,"is_reserved":false,"is_disabled":false,"rental_uris":{"android":"levelo://app?vid=4140d889-aaf9-4b15-8a11-a581354b1510","ios":"levelo://app?vid=4140d889-aaf9-4b15-8a11-a581354b1510"},"vehicle_type_id":"4","last_reported":1723745496,"current_range_meters":12000,"station_id":"ce4bgh92rcd13ifvqb40","pricing_plan_id":"cebpf4jnsgd1na2vs0mg"},{"bike_id":"495cb558-c7b1-4009-bf73-1444d90dcad7","system_id":"levelo_inurba_marseille","lat":43.29307,"lon":5.37192,"is_reserved":false,"is_disabled":false,"rental_uris":{"android":"levelo://app?vid=495cb558-c7b1-4009-bf73-1444d90dcad7","ios":"levelo://app?vid=495cb558-c7b1-4009-bf73-1444d90dcad7"},"vehicle_type_id":"4","last_reported":1723745496,"current_range_meters":14000,"station_id":"ce4bgh92rcd13ifvqb40","pricing_plan_id":"cebpf4jnsgd1na2vs0mg"},{"bike_id":"f235984b-822a-4dc1-b14d-6523dc64d6e8","system_id":"levelo_inurba_marseille","lat":43.293032,"lon":5.371654,"is_reserved":false,"is_disabled":false,"rental_uris":{"android":"levelo://app?vid=f235984b-822a-4dc1-b14d-6523dc64d6e8","ios":"levelo://app?vid=f235984b-822a-4dc1-b14d-6523dc64d6e8"},"vehicle_type_id":"4","last_reported":1723745496,"current_range_meters":0,"station_id":"ce4bgh92rcd13ifvqb40","pricing_plan_id":"cebpf4jnsgd1na2vs0mg"},{"bike_id":"9ea7eca9-2e20-4fc9-bf5b-c27ed7fc585a","system_id":"levelo_inurba_marseille","lat":43.293041,"lon":5.371758,"is_reserved":false,"is_disabled":false,"rental_uris":{"android":"levelo://app?vid=9ea7eca9-2e20-4fc9-bf5b-c27ed7fc585a","ios":"levelo://app?vid=9ea7eca9-2e20-4fc9-bf5b-c27ed7fc585a"},"vehicle_type_id":"4","last_reported":1723745496,"current_range_meters":18800,"station_id":"ce4bh412rcd13ifvqds0","pricing_plan_id":"cebpf4jnsgd1na2vs0mg"},{"bike_id":"da3421fe-2898-45ef-b83d-5a1c7d38f9e1","system_id":"levelo_inurba_marseille","lat":43.292749,"lon":5.368402,"is_reserved":false,"is_disabled":false,"rental_uris":{"android":"levelo://app?vid=da3421fe-2898-45ef-b83d-5a1c7d38f9e1","ios":"levelo://app?vid=da3421fe-2898-45ef-b83d-5a1c7d38f9e1"},"vehicle_type_id":"4","last_reported":1723745496,"current_range_meters":28400,"station_id":"ce4bhbp2rcd13ifvqesg","pricing_plan_id":"cebpf4jnsgd1na2vs0mg"},{"bike_id":"cf9cb12e-80f9-4c62-a2e8-4775c3412be3","system_id":"levelo_inurba_marseille","lat":43.292749,"lon":5.368402,"is_reserved":false,"is_disabled":false,"rental_uris":{"android":"levelo://app?vid=cf9cb12e-80f9-4c62-a2e8-4775c3412be3","ios":"levelo://app?vid=cf9cb12e-80f9-4c62-a2e8-4775c3412be3"},"vehicle_type_id":"4","last_reported":1723745496,"current_range_meters":6400,"station_id":"ce4bhbp2rcd13ifvqesg","pricing_plan_id":"cebpf4jnsgd1na2vs0mg"},{"bike_id":"7f7fdc81-4277-41e1-8251-acf72142fbc5","system_id":"levelo_inurba_marseille","lat":43.293016,"lon":5.371632,"is_reserved":false,"is_disabled":false,"rental_uris":{"android":"levelo://app?vid=7f7fdc81-4277-41e1-8251-acf72142fbc5","ios":"levelo://app?vid=7f7fdc81-4277-41e1-8251-acf72142fbc5"},"vehicle_type_id":"4","last_reported":1723745496,"current_range_meters":13600,"station_id":"ce4bgh92rcd13ifvqb40","pricing_plan_id":"cebpf4jnsgd1na2vs0mg"},{"bike_id":"5a7ac43b-2a7b-4527-9da0-3bdeec71e915","system_id":"levelo_inurba_marseille","lat":43.292991,"lon":5.371694,"is_reserved":false,"is_disabled":false,"rental_uris":{"android":"levelo://app?vid=5a7ac43b-2a7b-4527-9da0-3bdeec71e915","ios":"levelo://app?vid=5a7ac43b-2a7b-4527-9da0-3bdeec71e915"},"vehicle_type_id":"4","last_reported":1723745496,"current_range_meters":16800,"station_id":"ce4bgh92rcd13ifvqb40","pricing_plan_id":"cebpf4jnsgd1na2vs0mg"},{"bike_id":"0511bfe9-f134-4ed0-866d-1ff55dce77ea","system_id":"levelo_inurba_marseille","lat":43.29294,"lon":5.37163,"is_reserved":false,"is_disabled":false,"rental_uris":{"android":"levelo://app?vid=0511bfe9-f134-4ed0-866d-1ff55dce77ea","ios":"levelo://app?vid=0511bfe9-f134-4ed0-866d-1ff55dce77ea"},"vehicle_type_id":"4","last_reported":1723745496,"current_range_meters":24800,"station_id":"ce4bgh92rcd13ifvqb40","pricing_plan_id":"cebpf4jnsgd1na2vs0mg"},{"bike_id":"11119d7c-b0b3-4186-b288-179cfbb71a5d","system_id":"levelo_inurba_marseille","lat":43.292749,"lon":5.368398,"is_reserved":false,"is_disabled":false,"rental_uris":{"android":"levelo://app?vid=11119d7c-b0b3-4186-b288-179cfbb71a5d","ios":"levelo://app?vid=11119d7c-b0b3-4186-b288-179cfbb71a5d"},"vehicle_type_id":"4","last_reported":1723745496,"current_range_meters":22400,"station_id":"ce4bhbp2rcd13ifvqesg","pricing_plan_id":"cebpf4jnsgd1na2vs0mg"},{"bike_id":"f05bdb5b-68ff-4365-99c1-d7d9d43bee95","system_id":"levelo_inurba_marseille","lat":43.305994,"lon":5.393687,"is_reserved":false,"is_disabled":false,"rental_uris":{"android":"levelo://app?vid=f05bdb5b-68ff-4365-99c1-d7d9d43bee95","ios":"levelo://app?vid=f05bdb5b-68ff-4365-99c1-d7d9d43bee95"},"vehicle_type_id":"4","last_reported":1723745496,"current_range_meters":26000,"station_id":"ce4bh0p2rcd13ifvqd80","pricing_plan_id":"cebpf4jnsgd1na2vs0mg"},{"bike_id":"186e6be9-02f1-41c4-9796-73aa57d5a352","system_id":"levelo_inurba_marseille","lat":43.293009,"lon":5.374584,"is_reserved":false,"is_disabled":false,"rental_uris":{"android":"levelo://app?vid=186e6be9-02f1-41c4-9796-73aa57d5a352","ios":"levelo://app?vid=186e6be9-02f1-41c4-9796-73aa57d5a352"},"vehicle_type_id":"4","last_reported":1723745496,"current_range_meters":19200,"station_id":"ce4bgi12rcd13ifvqb70","pricing_plan_id":"cebpf4jnsgd1na2vs0mg"},{"bike_id":"cd29e3b6-9865-47f0-905d-572ea4a8441b","system_id":"levelo_inurba_marseille","lat":43.30591,"lon":5.39357,"is_reserved":false,"is_disabled":false,"rental_uris":{"android":"levelo://app?vid=cd29e3b6-9865-47f0-905d-572ea4a8441b","ios":"levelo://app?vid=cd29e3b6-9865-47f0-905d-572ea4a8441b"},"vehicle_type_id":"4","last_reported":1723745496,"current_range_meters":10000,"station_id":"ce4bh0p2rcd13ifvqd80","pricing_plan_id":"cebpf4jnsgd1na2vs0mg"},{"bike_id":"f8aef3cc-9c68-4a4d-b034-69315bd1ccb7","system_id":"levelo_inurba_marseille","lat":43.305994,"lon":5.393687,"is_reserved":false,"is_disabled":false,"rental_uris":{"android":"levelo://app?vid=f8aef3cc-9c68-4a4d-b034-69315bd1ccb7","ios":"levelo://app?vid=f8aef3cc-9c68-4a4d-b034-69315bd1ccb7"},"vehicle_type_id":"4","last_reported":1723745496,"current_range_meters":13600,"station_id":"ce4bh0p2rcd13ifvqd80","pricing_plan_id":"cebpf4jnsgd1na2vs0mg"},{"bike_id":"4fe7f7f5-a182-46aa-8fd9-6a0cf1365493","system_id":"levelo_inurba_marseille","lat":43.303002,"lon":5.392142,"is_reserved":false,"is_disabled":false,"rental_uris":{"android":"levelo://app?vid=4fe7f7f5-a182-46aa-8fd9-6a0cf1365493","ios":"levelo://app?vid=4fe7f7f5-a182-46aa-8fd9-6a0cf1365493"},"vehicle_type_id":"4","last_reported":1723745496,"current_range_meters":5200,"station_id":"ce4bgkh2rcd13ifvqbk0","pricing_plan_id":"cebpf4jnsgd1na2vs0mg"},{"bike_id":"9e773359-877f-4a3e-8cb3-e8969eaebe50","system_id":"levelo_inurba_marseille","lat":43.2936,"lon":5.37835,"is_reserved":false,"is_disabled":false,"rental_uris":{"android":"levelo://app?vid=9e773359-877f-4a3e-8cb3-e8969eaebe50","ios":"levelo://app?vid=9e773359-877f-4a3e-8cb3-e8969eaebe50"},"vehicle_type_id":"4","last_reported":1723745496,"current_range_meters":29200,"station_id":"ce4bgjh2rcd13ifvqbf0","pricing_plan_id":"cebpf4jnsgd1na2vs0mg"},{"bike_id":"8548641c-7175-42e6-80cd-bce884a2d3b1","system_id":"levelo_inurba_marseille","lat":43.2936,"lon":5.37835,"is_reserved":false,"is_disabled":false,"rental_uris":{"android":"levelo://app?vid=8548641c-7175-42e6-80cd-bce884a2d3b1","ios":"levelo://app?vid=8548641c-7175-42e6-80cd-bce884a2d3b1"},"vehicle_type_id":"4","last_reported":1723745496,"current_range_meters":31200,"station_id":"ce4bgjh2rcd13ifvqbf0","pricing_plan_id":"cebpf4jnsgd1na2vs0mg"},{"bike_id":"9280a40a-1caa-4cc7-ba40-9ab1a35add4e","system_id":"levelo_inurba_marseille","lat":43.2936,"lon":5.37835,"is_reserved":false,"is_disabled":false,"rental_uris":{"android":"levelo://app?vid=9280a40a-1caa-4cc7-ba40-9ab1a35add4e","ios":"levelo://app?vid=9280a40a-1caa-4cc7-ba40-9ab1a35add4e"},"vehicle_type_id":"4","last_reported":1723745496,"current_range_meters":6000,"station_id":"ce4bgjh2rcd13ifvqbf0","pricing_plan_id":"cebpf4jnsgd1na2vs0mg"},{"bike_id":"61fb76a0-aa66-4569-8739-480b729d0863","system_id":"levelo_inurba_marseille","lat":43.2936,"lon":5.37835,"is_reserved":false,"is_disabled":false,"rental_uris":{"android":"levelo://app?vid=61fb76a0-aa66-4569-8739-480b729d0863","ios":"levelo://app?vid=61fb76a0-aa66-4569-8739-480b729d0863"},"vehicle_type_id":"4","last_reported":1723745496,"current_range_meters":11600,"station_id":"ce4bgjh2rcd13ifvqbf0","pricing_plan_id":"cebpf4jnsgd1na2vs0mg"},{"bike_id":"e40013c4-1ff5-4b4e-9623-58cef764f279","system_id":"levelo_inurba_marseille","lat":43.312239,"lon":5.368562,"is_reserved":false,"is_disabled":false,"rental_uris":{"android":"levelo://app?vid=e40013c4-1ff5-4b4e-9623-58cef764f279","ios":"levelo://app?vid=e40013c4-1ff5-4b4e-9623-58cef764f279"},