{"last_updated":1724173667,"ttl":30,"version":"2.2","data":{"bikes":[{"bike_id":"4e00b776-4d07-4ca2-9c75-4b2562236ab9","system_id":"levelo_inurba_marseille","lat":43.31341,"lon":5.367098,"is_reserved":false,"is_disabled":false,"rental_uris":{"android":"levelo://app?vid=4e00b776-4d07-4ca2-9c75-4b2562236ab9","ios":"levelo://app?vid=4e00b776-4d07-4ca2-9c75-4b2562236ab9"},"vehicle_type_id":"4","last_reported":1724173667,"current_range_meters":4000,"station_id":"ce4bgr92rcd13ifvqc6g","pricing_plan_id":"cebpf4jnsgd1na2vs0mg"},{"bike_id":"6700a8bd-f0be-4bd9-9a3f-c29d66516553","system_id":"levelo_inurba_marseille","lat":43.313465,"lon":5.36704,"is_reserved":false,"is_disabled":false,"rental_uris":{"android":"levelo://app?vid=6700a8bd-f0be-4bd9-9a3f-c29d66516553","ios":"levelo://app?vid=6700a8bd-f0be-4bd9-9a3f-c29d66516553"},"vehicle_type_id":"4","last_reported":1724173667,"current_range_meters":0,"station_id":"ce4bgr92rcd13ifvqc6g","pricing_plan_id":"cebpf4jnsgd1na2vs0mg"},{"bike_id":"fdffc3fb-1d57-431f-a9a7-fb503b2aa80f","system_id":"levelo_inurba_marseille","lat":43.314811,"lon":5.373103,"is_reserved":false,"is_disabled":false,"rental_uris":{"android":"levelo://app?vid=fdffc3fb-1d57-431f-a9a7-fb503b2aa80f","ios":"levelo://app?vid=fdffc3fb-1d57-431f-a9a7-fb503b2aa80f"},"vehicle_type_id":"4","last_reported":1724173667,"current_range_meters":0,"station_id":"ce4bgt12rcd13ifvqcd0","pricing_plan_id":"cebpf4jnsgd1na2vs0mg"},{"bike_id":"6e46a957-aff2-4b97-82fd-f221814ea9b5","system_id":"levelo_inurba_marseille","lat":43.314811,"lon":5.373103,"is_reserved":false,"is_disabled":false,"rental_uris":{"android":"levelo://app?vid=6e46a957-aff2-4b97-82fd-f221814ea9b5","ios":"levelo://app?vid=6e46a957-aff2-4b97-82fd-f221814ea9b5"},"vehicle_type_id":"4","last_reported":1724173667,"current_range_meters":1200,"station_id":"ce4bgt12rcd13ifvqcd0","pricing_plan_id":"cebpf4jnsgd1na2vs0mg"},{"bike_id":"a1da415e-dad4-42f5-bd09-12d6f6d0b2b2","system_id":"levelo_inurba_marseille","lat":43.314811,"lon":5.373103,"is_reserved":false,"is_disabled":false,"rental_uris":{"android":"levelo://app?vid=a1da415e-dad4-42f5-bd09-12d6f6d0b2b2","ios":"levelo://app?vid=a1da415e-dad4-42f5-bd09-12d6f6d0b2b2"},"vehicle_type_id":"4","last_reported":1724173667,"current_range_meters":800,"station_id":"ce4bgt12rcd13ifvqcd0","pricing_plan_id":"cebpf4jnsgd1na2vs0mg"},{"bike_id":"adaf2ac2-1bbe-4c3a-8bf2-935f7da34c9d","system_id":"levelo_inurba_marseille","lat":43.314811,"lon":5.373103,"is_reserved":false,"is_disabled":false,"rental_uris":{"android":"levelo://app?vid=adaf2ac2-1bbe-4c3a-8bf2-935f7da34c9d","ios":"levelo://app?vid=adaf2ac2-1bbe-4c3a-8bf2-935f7da34c9d"},"vehicle_type_id":"4","last_reported":1724173667,"current_range_meters":16000,"station_id":"ce4bgt12rcd13ifvqcd0","pricing_plan_id":"cebpf4jnsgd1na2vs0mg"},{"bike_id":"0c6db42c-5631-45d4-88f2-c2c5dbbd7776","system_id":"levelo_inurba_marseille","lat":43.305712,"lon":5.365641,"is_reserved":false,"is_disabled":false,"rental_uris":{"android":"levelo://app?vid=0c6db42c-5631-45d4-88f2-c2c5dbbd7776","ios":"levelo://app?vid=0c6db42c-5631-45d4-88f2-c2c5dbbd7776"},"vehicle_type_id":"4","last_reported":1724173667,"current_range_meters":17600,"station_id":"ce4bgs12rcd13ifvqcag","pricing_plan_id":"cebpf4jnsgd1na2vs0mg"},{"bike_id":"0fd30755-f3a1-429c-b57c-bc053569ff8b","system_id":"levelo_inurba_marseille","lat":43.305368,"lon":5.367343,"is_reserved":false,"is_disabled":false,"rental_uris":{"android":"levelo://app?vid=0fd30755-f3a1-429c-b57c-bc053569ff8b","ios":"levelo://app?vid=0fd30755-f3a1-429c-b57c-bc053569ff8b"},"vehicle_type_id":"4","last_reported":1724173667,"current_range_meters":800,"station_id":"ce4bgrp2rcd13ifvqc9g","pricing_plan_id":"cebpf4jnsgd1na2vs0mg"},{"bike_id":"37d6b62b-7138-468d-99ab-8b4233b91176","system_id":"levelo_inurba_marseille","lat":43.30511,"lon":5.36646,"is_reserved":false,"is_disabled":false,"rental_uris":{"android":"levelo://app?vid=37d6b62b-7138-468d-99ab-8b4233b91176","ios":"levelo://app?vid=37d6b62b-7138-468d-99ab-8b4233b91176"},"vehicle_type_id":"4","last_reported":1724173667,"current_range_meters":30000,"station_id":"","pricing_plan_id":"cebpf4jnsgd1na2vs0mg"},{"bike_id":"807f920b-5713-415d-82b1-9993c3f6cfc4","system_id":"levelo_inurba_marseille","lat":43.305989,"lon":5.37225,"is_reserved":false,"is_disabled":false,"rental_uris":{"android":"levelo://app?vid=807f920b-5713-415d-82b1-9993c3f6cfc4","ios":"levelo://app?vid=807f920b-5713-415d-82b1-9993c3f6cfc4"},"vehicle_type_id":"4","last_reported":1724173667,"current_range_meters":6400,"station_id":"ce4bgqh2rcd13ifvqc4g","pricing_plan_id":"cebpf4jnsgd1na2vs0mg"},{"bike_id":"95b8c567-769e-4f75-92d3-03c9ce92b12c","system_id":"levelo_inurba_marseille","lat":43.305989,"lon":5.37225,"is_reserved":false,"is_disabled":false,"rental_uris":{"android":"levelo://app?vid=95b8c567-769e-4f75-92d3-03c9ce92b12c","ios":"levelo://app?vid=95b8c567-769e-4f75-92d3-03c9ce92b12c"},"vehicle_type_id":"4","last_reported":1724173667,"current_range_meters":4000,"station_id":"ce4bgqh2rcd13ifvqc4g","pricing_plan_id":"cebpf4jnsgd1na2vs0mg"},{"bike_id":"fb10df0b-26ea-4ed6-bcec-9d2e86ee55d0","system_id":"levelo_inurba_marseille","lat":43.311131,"lon":5.377651,"is_reserved":false,"is_disabled":false,"rental_uris":{"android":"levelo://app?vid=fb10df0b-26ea-4ed6-bcec-9d2e86ee55d0","ios":"levelo://app?vid=fb10df0b-26ea-4ed6-bcec-9d2e86ee55d0"},"vehicle_type_id":"4","last_reported":1724173667,"current_range_meters":0,"station_id":"ce4bgt92rcd13ifvqcg0","pricing_plan_id":"cebpf4jnsgd1na2vs0mg"},{"bike_id":"08c533d1-1e97-4c51-91c9-d992d2d6cdec","system_id":"levelo_inurba_marseille","lat":43.307945,"lon":5.376487,"is_reserved":false,"is_disabled":false,"rental_uris":{"android":"levelo://app?vid=08c533d1-1e97-4c51-91c9-d992d2d6cdec","ios":"levelo://app?vid=08c533d1-1e97-4c51-91c9-d992d2d6cdec"},"vehicle_type_id":"4","last_reported":1724173667,"current_range_meters":24000,"station_id":"ce4bgv92rcd13ifvqcq0","pricing_plan_id":"cebpf4jnsgd1na2vs0mg"},{"bike_id":"fd54c4c9-c353-4e87-a364-26aeb598fe46","system_id":"levelo_inurba_marseille","lat":43.307945,"lon":5.376487,"is_reserved":false,"is_disabled":false,"rental_uris":{"android":"levelo://app?vid=fd54c4c9-c353-4e87-a364-26aeb598fe46","ios":"levelo://app?vid=fd54c4c9-c353-4e87-a364-26aeb598fe46"},"vehicle_type_id":"4","last_reported":1724173667,"current_range_meters":6000,"station_id":"ce4bgv92rcd13ifvqcq0","pricing_plan_id":"cebpf4jnsgd1na2vs0mg"},{"bike_id":"d8ae2300-c74e-4d83-b1a1-a5c3ed4c7bf9","system_id":"levelo_inurba_marseille","lat":43.317075,"lon":5.377367,"is_reserved":false,"is_disabled":false,"rental_uris":{"android":"levelo://app?vid=d8ae2300-c74e-4d83-b1a1-a5c3ed4c7bf9","ios":"levelo://app?vid=d8ae2300-c74e-4d83-b1a1-a5c3ed4c7bf9"},"vehicle_type_id":"4","last_reported":1724173667,"current_range_meters":23200,"station_id":"ce4bgth2rcd13ifvqch0","pricing_plan_id":"cebpf4jnsgd1na2vs0mg"},{"bike_id":"75cd5b07-e655-478f-9d12-84bf54703b08","system_id":"levelo_inurba_marseille","lat":43.31012,"lon":5.37924,"is_reserved":false,"is_disabled":false,"rental_uris":{"android":"levelo://app?vid=75cd5b07-e655-478f-9d12-84bf54703b08","ios":"levelo://app?vid=75cd5b07-e655-478f-9d12-84bf54703b08"},"vehicle_type_id":"4","last_reported":1724173667,"current_range_meters":0,"station_id":"","pricing_plan_id":"cebpf4jnsgd1na2vs0mg"},{"bike_id":"66a1eb1a-84f4-4e6a-8ef2-feafb90c8b93","system_id":"levelo_inurba_marseille","lat":43.324771,"lon":5.36557,"is_reserved":false,"is_disabled":false,"rental_uris":{"android":"levelo://app?vid=66a1eb1a-84f4-4e6a-8ef2-feafb90c8b93","ios":"levelo://app?vid=66a1eb1a-84f4-4e6a-8ef2-feafb90c8b93"},"vehicle_type_id":"4","last_reported":1724173667,"current_range_meters":0,"station_id":"ce4bhs12rcd13ifvqhvg","pricing_plan_id":"cebpf4jnsgd1na2vs0mg"},{"bike_id":"c6e0ca28-c13f-44ac-a7b0-179dd00e55be","system_id":"levelo_inurba_marseille","lat":43.324771,"lon":5.36557,"is_reserved":false,"is_disabled":false,"rental_uris":{"android":"levelo://app?vid=c6e0ca28-c13f-44ac-a7b0-179dd00e55be","ios":"levelo://app?vid=c6e0ca28-c13f-44ac-a7b0-179dd00e55be"},"vehicle_type_id":"4","last_reported":1724173667,"current_range_meters":5200,"station_id":"ce4bhs12rcd13ifvqhvg","pricing_plan_id":"cebpf4jnsgd1na2vs0mg"},{"bike_id":"dc18ef80-7b17-4500-950b-a5b475701f80","system_id":"levelo_inurba_marseille","lat":43.324771,"lon":5.36557,"is_reserved":false,"is_disabled":false,"rental_uris":{"android":"levelo://app?vid=dc18ef80-7b17-4500-950b-a5b475701f80","ios":"levelo://app?vid=dc18ef80-7b17-4500-950b-a5b475701f80"},"vehicle_type_id":"4","last_reported":1724173667,"current_range_meters":7200,"station_id":"ce4bhs12rcd13ifvqhvg","pricing_plan_id":"cebpf4jnsgd1na2vs0mg"},{"bike_id":"b08ae607-179b-4989-849b-cb108a1070fa","system_id":"levelo_inurba_marseille","lat":43.310804,"lon":5.38359,"is_reserved":false,"is_disabled":false,"rental_uris":{"android":"levelo://app?vid=b08ae607-179b-4989-849b-cb108a1070fa","ios":"levelo://app?vid=b08ae607-179b-4989-849b-cb108a1070fa"},"vehicle_type_id":"4","last_reported":1724173667,"current_range_meters":8000,"station_id":"ce4bgv92rcd13ifvqcr0","pricing_plan_id":"cebpf4jnsgd1na2vs0mg"},{"bike_id":"278b0b8d-f4d5-4d54-bea8-763ba57487ff","system_id":"levelo_inurba_marseille","lat":43.302784,"lon":5.377158,"is_reserved":false,"is_disabled":false,"rental_uris":{"android":"levelo://app?vid=278b0b8d-f4d5-4d54-bea8-763ba57487ff","ios":"levelo://app?vid=278b0b8d-f4d5-4d54-bea8-763ba57487ff"},"vehicle_type_id":"4","last_reported":1724173667,"current_range_meters":0,"station_id":"ce4bguh2rcd13ifvqcj0","pricing_plan_id":"cebpf4jnsgd1na2vs0mg"},{"bike_id":"03a742fa-1190-4c07-b6e9-54425bd42d48","system_id":"levelo_inurba_marseille","lat":43.30594,"lon":5.38132,"is_reserved":false,"is_disabled":false,"rental_uris":{"android":"levelo://app?vid=03a742fa-1190-4c07-b6e9-54425bd42d48","ios":"levelo://app?vid=03a742fa-1190-4c07-b6e9-54425bd42d48"},"vehicle_type_id":"4","last_reported":1724173667,"current_range_meters":26400,"station_id":"","pricing_plan_id":"cebpf4jnsgd1na2vs0mg"},{"bike_id":"f7600ce1-08eb-4f56-8131-3784b6845691","system_id":"levelo_inurba_marseille","lat":43.32,"lon":5.38146,"is_reserved":false,"is_disabled":false,"rental_uris":{"android":"levelo://app?vid=f7600ce1-08eb-4f56-8131-3784b6845691","ios":"levelo://app?vid=f7600ce1-08eb-4f56-8131-3784b6845691"},"vehicle_type_id":"4","last_reported":1724173667,"current_range_meters":1200,"station_id":"ce4bhr12rcd13ifvqhpg","pricing_plan_id":"cebpf4jnsgd1na2vs0mg"},{"bike_id":"77772792-5800-46b1-9175-4d375e4f5a6a","system_id":"levelo_inurba_marseille","lat":43.32005,"lon":5.38157,"is_reserved":false,"is_disabled":false,"rental_uris":{"android":"levelo://app?vid=77772792-5800-46b1-9175-4d375e4f5a6a","ios":"levelo://app?vid=77772792-5800-46b1-9175-4d375e4f5a6a"},"vehicle_type_id":"4","last_reported":1724173667,"current_range_meters":4400,"station_id":"ce4bhr12rcd13ifvqhpg","pricing_plan_id":"cebpf4jnsgd1na2vs0mg"},{"bike_id":"05a7f7ce-a370-44f8-b743-3dbe417a0b8d","system_id":"levelo_inurba_marseille","lat":43.31995,"lon":5.38168,"is_reserved":false,"is_disabled":false,"rental_uris":{"android":"levelo://app?vid=05a7f7ce-a370-44f8-b743-3dbe417a0b8d","ios":"levelo://app?vid=05a7f7ce-a370-44f8-b743-3dbe417a0b8d"},"vehicle_type_id":"4","last_reported":1724173667,"current_range_meters":12400,"station_id":"ce4bhr12rcd13ifvqhpg","pricing_plan_id":"cebpf4jnsgd1na2vs0mg"},{"bike_id":"54cc0c24-b612-40a5-9bd1-54fe13686223","system_id":"levelo_inurba_marseille","lat":43.32003,"lon":5.38168,"is_reserved":false,"is_disabled":false,"rental_uris":{"android":"levelo://app?vid=54cc0c24-b612-40a5-9bd1-54fe13686223","ios":"levelo://app?vid=54cc0c24-b612-40a5-9bd1-54fe13686223"},"vehicle_type_id":"4","last_reported":1724173667,"current_range_meters":14400,"station_id":"ce4bhr12rcd13ifvqhpg","pricing_plan_id":"cebpf4jnsgd1na2vs0mg"},{"bike_id":"3f36a8aa-5de6-46d8-b075-c7644059741e","system_id":"levelo_inurba_marseille","lat":43.313571,"lon":5.384829,"is_reserved":false,"is_disabled":false,"rental_uris":{"android":"levelo://app?vid=3f36a8aa-5de6-46d8-b075-c7644059741e","ios":"levelo://app?vid=3f36a8aa-5de6-46d8-b075-c7644059741e"},"vehicle_type_id":"4","last_reported":1724173667,"current_range_meters":0,"station_id":"ce4bgt92rcd13ifvqcf0","pricing_plan_id":"cebpf4jnsgd1na2vs0mg"},{"bike_id":"96e271da-109d-47fb-b400-abf3d5c5b1f6","system_id":"levelo_inurba_marseille","lat":43.29939,"lon":5.365372,"is_reserved":false,"is_disabled":false,"rental_uris":{"android":"levelo://app?vid=96e271da-109d-47fb-b400-abf3d5c5b1f6","ios":"levelo://app?vid=96e271da-109d-47fb-b400-abf3d5c5b1f6"},"vehicle_type_id":"4","last_reported":1724173667,"current_range_meters":20000,"station_id":"ce4bgm92rcd13ifvqbr0","pricing_plan_id":"cebpf4jnsgd1na2vs0mg"},{"bike_id":"b02fb8f0-7960-4c59-a7eb-94e00970ac21","system_id":"levelo_inurba_marseille","lat":43.299724,"lon":5.371829,"is_reserved":false,"is_disabled":false,"rental_uris":{"android":"levelo://app?vid=b02fb8f0-7960-4c59-a7eb-94e00970ac21","ios":"levelo://app?vid=b02fb8f0-7960-4c59-a7eb-94e00970ac21"},"vehicle_type_id":"4","last_reported":1724173667,"current_range_meters":29600,"station_id":"ce4bgr92rcd13ifvqc7g","pricing_plan_id":"cebpf4jnsgd1na2vs0mg"},{"bike_id":"4f395284-3b35-4a84-9236-2ecc873bce21","system_id":"levelo_inurba_marseille","lat":43.298433,"lon":5.362774,"is_reserved":false,"is_disabled":false,"rental_uris":{"android":"levelo://app?vid=4f395284-3b35-4a84-9236-2ecc873bce21","ios":"levelo://app?vid=4f395284-3b35-4a84-9236-2ecc873bce21"},"vehicle_type_id":"4","last_reported":1724173667,"current_range_meters":12000,"station_id":"ce4bgpp2rcd13ifvqc3g","pricing_plan_id":"cebpf4jnsgd1na2vs0mg"},{"bike_id":"2b8f42e6-3f5c-4989-8005-f41fc97fc25a","system_id":"levelo_inurba_marseille","lat":43.298433,"lon":5.362774,"is_reserved":false,"is_disabled":false,"rental_uris":{"android":"levelo://app?vid=2b8f42e6-3f5c-4989-8005-f41fc97fc25a","ios":"levelo://app?vid=2b8f42e6-3f5c-4989-8005-f41fc97fc25a"},"vehicle_type_id":"4","last_reported":1724173667,"current_range_meters":2800,"station_id":"ce4bgpp2rcd13ifvqc3g","pricing_plan_id":"cebpf4jnsgd1na2vs0mg"},{"bike_id":"09ff233b-c2b8-4eb2-9dc0-5ff2daea2740","system_id":"levelo_inurba_marseille","lat":43.298433,"lon":5.362774,"is_reserved":false,"is_disabled":false,"rental_uris":{"android":"levelo://app?vid=09ff233b-c2b8-4eb2-9dc0-5ff2daea2740","ios":"levelo://app?vid=09ff233b-c2b8-4eb2-9dc0-5ff2daea2740"},"vehicle_type_id":"4","last_reported":1724173667,"current_range_meters":11200,"station_id":"ce4bgpp2rcd13ifvqc3g","pricing_plan_id":"cebpf4jnsgd1na2vs0mg"},{"bike_id":"73876ec6-b7ae-4a32-b7d9-130feb98ce4b","system_id":"levelo_inurba_marseille","lat":43.299243,"lon":5.37481,"is_reserved":false,"is_disabled":false,"rental_uris":{"android":"levelo://app?vid=73876ec6-b7ae-4a32-b7d9-130feb98ce4b","ios":"levelo://app?vid=73876ec6-b7ae-4a32-b7d9-130feb98ce4b"},"vehicle_type_id":"4","last_reported":1724173667,"current_range_meters":18000,"station_id":"ce4bgjh2rcd13ifvqbg0","pricing_plan_id":"cebpf4jnsgd1na2vs0mg"},{"bike_id":"72ee5bcc-c564-4def-a85b-42a7c2e5d2fc","system_id":"levelo_inurba_marseille","lat":43.299025,"lon":5.37522,"is_reserved":false,"is_disabled":false,"rental_uris":{"android":"levelo://app?vid=72ee5bcc-c564-4def-a85b-42a7c2e5d2fc","ios":"levelo://app?vid=72ee5bcc-c564-4def-a85b-42a7c2e5d2fc"},"vehicle_type_id":"4","last_reported":1724173667,"current_range_meters":8800,"station_id":"","pricing_plan_id":"cebpf4jnsgd1na2vs0mg"},{"bike_id":"44b1c904-27d1-4062-ba62-509a893f6ca1","system_id":"levelo_inurba_marseille","lat":43.301417,"lon":5.3809,"is_reserved":false,"is_disabled":false,"rental_uris":{"android":"levelo://app?vid=44b1c904-27d1-4062-ba62-509a893f6ca1","ios":"levelo://app?vid=44b1c904-27d1-4062-ba62-509a893f6ca1"},"vehicle_type_id":"4","last_reported":1724173667,"current_range_meters":15200,"station_id":"ce4bgjp2rcd13ifvqbh0","pricing_plan_id":"cebpf4jnsgd1na2vs0mg"},{"bike_id":"3875198d-5b68-442e-b72b-fce2e32dbe8b","system_id":"levelo_inurba_marseille","lat":43.301417,"lon":5.3809,"is_reserved":false,"is_disabled":false,"rental_uris":{"android":"levelo://app?vid=3875198d-5b68-442e-b72b-fce2e32dbe8b","ios":"levelo://app?vid=3875198d-5b68-442e-b72b-fce2e32dbe8b"},"vehicle_type_id":"4","last_reported":1724173667,"current_range_meters":25600,"station_id":"ce4bgjp2rcd13ifvqbh0","pricing_plan_id":"cebpf4jnsgd1na2vs0mg"},{"bike_id":"bff38f03-7c82-43ea-b915-57226c88f753","system_id":"levelo_inurba_marseille","lat":43.301417,"lon":5.3809,"is_reserved":false,"is_disabled":false,"rental_uris":{"android":"levelo://app?vid=bff38f03-7c82-43ea-b915-57226c88f753","ios":"levelo://app?vid=bff38f03-7c82-43ea-b915-57226c88f753"},"vehicle_type_id":"4","last_reported":1724173667,"current_range_meters":24800,"station_id":"ce4bgjp2rcd13ifvqbh0","pricing_plan_id":"cebpf4jnsgd1na2vs0mg"},{"bike_id":"1e58dfcc-1dad-4d6a-855d-afc5809be43c","system_id":"levelo_inurba_marseille","lat":43.297774,"lon":5.370875,"is_reserved":false,"is_disabled":false,"rental_uris":{"android":"levelo://app?vid=1e58dfcc-1dad-4d6a-855d-afc5809be43c","ios":"levelo://app?vid=1e58dfcc-1dad-4d6a-855d-afc5809be43c"},"vehicle_type_id":"4","last_reported":1724173667,"current_range_meters":19200,"station_id":"ce4bgop2rcd13ifvqc1g","pricing_plan_id":"cebpf4jnsgd1na2vs0mg"},{"bike_id":"48897008-dc07-4e0b-9c85-43e40fa09638","system_id":"levelo_inurba_marseille","lat":43.322872,"lon":5.382756,"is_reserved":false,"is_disabled":false,"rental_uris":{"android":"levelo://app?vid=48897008-dc07-4e0b-9c85-43e40fa09638","ios":"levelo://app?vid=48897008-dc07-4e0b-9c85-43e40fa09638"},"vehicle_type_id":"4","last_reported":1724173667,"current_range_meters":4400,"station_id":"ce4bhr12rcd13ifvqhqg","pricing_plan_id":"cebpf4jnsgd1na2vs0mg"},{"bike_id":"53566745-9b61-431f-b913-c5bb368ecedb","system_id":"levelo_inurba_marseille","lat":43.297794,"lon":5.370888,"is_reserved":false,"is_disabled":false,"rental_uris":{"android":"levelo://app?vid=53566745-9b61-431f-b913-c5bb368ecedb","ios":"levelo://app?vid=53566745-9b61-431f-b913-c5bb368ecedb"},"vehicle_type_id":"4","last_reported":1724173667,"current_range_meters":8000,"station_id":"ce4bgop2rcd13ifvqc1g","pricing_plan_id":"cebpf4jnsgd1na2vs0mg"},{"bike_id":"ff8c4849-ae6c-4898-be4c-c54175453382","system_id":"levelo_inurba_marseille","lat":43.322872,"lon":5.382756,"is_reserved":false,"is_disabled":false,"rental_uris":{"android":"levelo://app?vid=ff8c4849-ae6c-4898-be4c-c54175453382","ios":"levelo://app?vid=ff8c4849-ae6c-4898-be4c-c54175453382"},"vehicle_type_id":"4","last_reported":1724173667,"current_range_meters":27200,"station_id":"ce4bhr12rcd13ifvqhqg","pricing_plan_id":"cebpf4jnsgd1na2vs0mg"},{"bike_id":"f5756eed-ea1c-4ab7-b4f2-8ac9473fed35","system_id":"levelo_inurba_marseille","lat":43.322925,"lon":5.382717,"is_reserved":false,"is_disabled":false,"rental_uris":{"android":"levelo://app?vid=f5756eed-ea1c-4ab7-b4f2-8ac9473fed35","ios":"levelo://app?vid=f5756eed-ea1c-4ab7-b4f2-8ac9473fed35"},"vehicle_type_id":"4","last_reported":1724173667,"current_range_meters":22000,"station_id":"ce4bhr12rcd13ifvqhqg","pricing_plan_id":"cebpf4jnsgd1na2vs0mg"},{"bike_id":"d23dc055-0ef5-43b2-8317-3d673ff89058","system_id":"levelo_inurba_marseille","lat":43.29716,"lon":5.36618,"is_reserved":false,"is_disabled":false,"rental_uris":{"android":"levelo://app?vid=d23dc055-0ef5-43b2-8317-3d673ff89058","ios":"levelo://app?vid=d23dc055-0ef5-43b2-8317-3d673ff89058"},"vehicle_type_id":"4","last_reported":1724173667,"current_range_meters":12800,"station_id":"ce4bgn12rcd13ifvqbt0","pricing_plan_id":"cebpf4jnsgd1na2vs0mg"},{"bike_id":"04c8893d-513c-48d7-a982-c576ff61c563","system_id":"levelo_inurba_marseille","lat":43.297163,"lon":5.365866,"is_reserved":false,"is_disabled":false,"rental_uris":{"android":"levelo://app?vid=04c8893d-513c-48d7-a982-c576ff61c563","ios":"levelo://app?vid=04c8893d-513c-48d7-a982-c576ff61c563"},"vehicle_type_id":"4","last_reported":1724173667,"current_range_meters":25600,"station_id":"ce4bgn12rcd13ifvqbt0","pricing_plan_id":"cebpf4jnsgd1na2vs0mg"},{"bike_id":"70f5badd-dafa-489a-9f62-636a3d012094","system_id":"levelo_inurba_marseille","lat":43.297163,"lon":5.365866,"is_reserved":false,"is_disabled":false,"rental_uris":{"android":"levelo://app?vid=70f5badd-dafa-489a-9f62-636a3d012094","ios":"levelo://app?vid=70f5badd-dafa-489a-9f62-636a3d012094"},"vehicle_type_id":"4","last_reported":1724173667,"current_range_meters":15600,"station_id":"ce4bgn12rcd13ifvqbt0","pricing_plan_id":"cebpf4jnsgd1na2vs0mg"},{"bike_id":"c4995323-13df-4ee2-94a5-ed025fa9cda7","system_id":"levelo_inurba_marseille","lat":43.302183,"lon":5.38325,"is_reserved":false,"is_disabled":false,"rental_uris":{"android":"levelo://app?vid=c4995323-13df-4ee2-94a5-ed025fa9cda7","ios":"levelo://app?vid=c4995323-13df-4ee2-94a5-ed025fa9cda7"},"vehicle_type_id":"4","last_reported":1724173667,"current_range_meters":18800,"station_id":"","pricing_plan_id":"cebpf4jnsgd1na2vs0mg"},{"bike_id":"173c87e2-330e-4e49-92a9-1f77ef590222","system_id":"levelo_inurba_marseille","lat":43.29672,"lon":5.36435,"is_reserved":false,"is_disabled":false,"rental_uris":{"android":"levelo://app?vid=173c87e2-330e-4e49-92a9-1f77ef590222","ios":"levelo://app?vid=173c87e2-330e-4e49-92a9-1f77ef590222"},"vehicle_type_id":"4","last_reported":1724173667,"current_range_meters":26400,"station_id":"","pricing_plan_id":"cebpf4jnsgd1na2vs0mg"},{"bike_id":"62847c7c-7d63-4766-99db-94105e6a9eb4","system_id":"levelo_inurba_marseille","lat":43.29626,"lon":5.37153,"is_reserved":false,"is_disabled":false,"rental_uris":{"android":"levelo://app?vid=62847c7c-7d63-4766-99db-94105e6a9eb4","ios":"levelo://app?vid=62847c7c-7d63-4766-99db-94105e6a9eb4"},"vehicle_type_id":"4","last_reported":1724173667,"current_range_meters":31200,"station_id":"ce4bgnh2rcd13ifvqc0g","pricing_plan_id":"cebpf4jnsgd1na2vs0mg"},{"bike_id":"c0bc0780-b0cd-410d-9524-f4a699db3e9a","system_id":"levelo_inurba_marseille","lat":43.296131,"lon":5.370791,"is_reserved":false,"is_disabled":false,"rental_uris":{"android":"levelo://app?vid=c0bc0780-b0cd-410d-9524-f4a699db3e9a","ios":"levelo://app?vid=c0bc0780-b0cd-410d-9524-f4a699db3e9a"},"vehicle_type_id":"4","last_reported":1724173667,"current_range_meters":25200,"station_id":"ce4bgnh2rcd13ifvqc0g","pricing_plan_id":"cebpf4jnsgd1na2vs0mg"},{"bike_id":"ac501019-ea8e-4325-bb4a-6398eacf6818","system_id":"levelo_inurba_marseille","lat":43.298934,"lon":5.380229,"is_reserved":false,"is_disabled":false,"rental_uris":{"android":"levelo://app?vid=ac501019-ea8e-4325-bb4a-6398eacf6818","ios":"levelo://app?vid=ac501019-ea8e-4325-bb4a-6398eacf6818"},"vehicle_type_id":"4","last_reported":1724173667,"current_range_meters":30400,"station_id":"","pricing_plan_id":"cebpf4jnsgd1na2vs0mg"},{"bike_id":"2ff32304-f09a-4c8b-8741-461b07638f32","system_id":"levelo_inurba_marseille","lat":43.296131,"lon":5.370791,"is_reserved":false,"is_disabled":false,"rental_uris":{"android":"levelo://app?vid=2ff32304-f09a-4c8b-8741-461b07638f32","ios":"levelo://app?vid=2ff32304-f09a-4c8b-8741-461b07638f32"},"vehicle_type_id":"4","last_reported":1724173667,"current_range_meters":11200,"station_id":"ce4bgnh2rcd13ifvqc0g","pricing_plan_id":"cebpf4jnsgd1na2vs0mg"},{"bike_id":"4eaef758-5773-4c05-904b-307287454990","system_id":"levelo_inurba_marseille","lat":43.299028,"lon":5.381509,"is_reserved":false,"is_disabled":false,"rental_uris":{"android":"levelo://app?vid=4eaef758-5773-4c05-904b-307287454990","ios":"levelo://app?vid=4eaef758-5773-4c05-904b-307287454990"},"vehicle_type_id":"4","last_reported":1724173667,"current_range_meters":12400,"station_id":"ce4bgj12rcd13ifvqbc0","pricing_plan_id":"cebpf4jnsgd1na2vs0mg"},{"bike_id":"337d6302-89a6-42d5-a2eb-0181cbb2991e","system_id":"levelo_inurba_marseille","lat":43.299028,"lon":5.381509,"is_reserved":false,"is_disabled":false,"rental_uris":{"android":"levelo://app?vid=337d6302-89a6-42d5-a2eb-0181cbb2991e","ios":"levelo://app?vid=337d6302-89a6-42d5-a2eb-0181cbb2991e"},"vehicle_type_id":"4","last_reported":1724173667,"current_range_meters":4400,"station_id":"ce4bgj12rcd13ifvqbc0","pricing_plan_id":"cebpf4jnsgd1na2vs0mg"},{"bike_id":"ab90eeaa-a1a6-4980-a6e4-23b06b9b4e0b","system_id":"levelo_inurba_marseille","lat":43.296921,"lon":5.376579,"is_reserved":false,"is_disabled":false,"rental_uris":{"android":"levelo://app?vid=ab90eeaa-a1a6-4980-a6e4-23b06b9b4e0b","ios":"levelo://app?vid=ab90eeaa-a1a6-4980-a6e4-23b06b9b4e0b"},"vehicle_type_id":"4","last_reported":1724173667,"current_range_meters":5200,"station_id":"ce4bgkh2rcd13ifvqbl0","pricing_plan_id":"cebpf4jnsgd1na2vs0mg"},{"bike_id":"6ffe83a9-08c4-49b2-a203-8feabbf17003","system_id":"levelo_inurba_marseille","lat":43.317557,"lon":5.390173,"is_reserved":false,"is_disabled":false,"rental_uris":{"android":"levelo://app?vid=6ffe83a9-08c4-49b2-a203-8feabbf17003","ios":"levelo://app?vid=6ffe83a9-08c4-49b2-a203-8feabbf17003"},"vehicle_type_id":"4","last_reported":1724173667,"current_range_meters":4000,"station_id":"ce4bhqp2rcd13ifvqhng","pricing_plan_id":"cebpf4jnsgd1na2vs0mg"},{"bike_id":"0c4ca6ac-57c9-4f53-afa4-9a3f47a9a16f","system_id":"levelo_inurba_marseille","lat":43.298037,"lon":5.381066,"is_reserved":false,"is_disabled":false,"rental_uris":{"android":"levelo://app?vid=0c4ca6ac-57c9-4f53-afa4-9a3f47a9a16f","ios":"levelo://app?vid=0c4ca6ac-57c9-4f53-afa4-9a3f47a9a16f"},"vehicle_type_id":"4","last_reported":1724173667,"current_range_meters":0,"station_id":"ce4bgip2rcd13ifvqbb0","pricing_plan_id":"cebpf4jnsgd1na2vs0mg"},{"bike_id":"fc483159-aa12-47c6-a87b-22b61ce48962","system_id":"levelo_inurba_marseille","lat":43.298037,"lon":5.381066,"is_reserved":false,"is_disabled":false,"rental_uris":{"android":"levelo://app?vid=fc483159-aa12-47c6-a87b-22b61ce48962","ios":"levelo://app?vid=fc483159-aa12-47c6-a87b-22b61ce48962"},"vehicle_type_id":"4","last_reported":1724173667,"current_range_meters":9600,"station_id":"ce4bgip2rcd13ifvqbb0","pricing_plan_id":"cebpf4jnsgd1na2vs0mg"},{"bike_id":"8ad43051-27c6-456f-b032-06ef8cf21d07","system_id":"levelo_inurba_marseille","lat":43.298037,"lon":5.381066,"is_reserved":false,"is_disabled":false,"rental_uris":{"android":"levelo://app?vid=8ad43051-27c6-456f-b032-06ef8cf21d07","ios":"levelo://app?vid=8ad43051-27c6-456f-b032-06ef8cf21d07"},"vehicle_type_id":"4","last_reported":1724173667,"current_range_meters":2000,"station_id":"ce4bgip2rcd13ifvqbb0","pricing_plan_id":"cebpf4jnsgd1na2vs0mg"},{"bike_id":"b41d41f7-520b-48af-b03f-507883d47b72","system_id":"levelo_inurba_marseille","lat":43.298037,"lon":5.381066,"is_reserved":false,"is_disabled":false,"rental_uris":{"android":"levelo://app?vid=b41d41f7-520b-48af-b03f-507883d47b72","ios":"levelo://app?vid=b41d41f7-520b-48af-b03f-507883d47b72"},"vehicle_type_id":"4","last_reported":1724173667,"current_range_meters":4400,"station_id":"ce4bgip2rcd13ifvqbb0","pricing_plan_id":"cebpf4jnsgd1na2vs0mg"},{"bike_id":"ec23bcfe-48f0-4fd2-b082-e4af0ab3dd86","system_id":"levelo_inurba_marseille","lat":43.296277,"lon":5.377108,"is_reserved":false,"is_disabled":false,"rental_uris":{"android":"levelo://app?vid=ec23bcfe-48f0-4fd2-b082-e4af0ab3dd86","ios":"levelo://app?vid=ec23bcfe-48f0-4fd2-b082-e4af0ab3dd86"},"vehicle_type_id":"4","last_reported":1724173667,"current_range_meters":19200,"station_id":"ce4bgi92rcd13ifvqb90","pricing_plan_id":"cebpf4jnsgd1na2vs0mg"},{"bike_id":"4d680a11-fc11-4930-9c0c-acdedde73b14","system_id":"levelo_inurba_marseille","lat":43.296277,"lon":5.377108,"is_reserved":false,"is_disabled":false,"rental_uris":{"android":"levelo://app?vid=4d680a11-fc11-4930-9c0c-acdedde73b14","ios":"levelo://app?vid=4d680a11-fc11-4930-9c0c-acdedde73b14"},"vehicle_type_id":"4","last_reported":1724173667,"current_range_meters":31600,"station_id":"ce4bgi92rcd13ifvqb90","pricing_plan_id":"cebpf4jnsgd1na2vs0mg"},{"bike_id":"11118a6c-1b72-4dfb-b471-0e12e027b56c","system_id":"levelo_inurba_marseille","lat":43.297558,"lon":5.380867,"is_reserved":false,"is_disabled":false,"rental_uris":{"android":"levelo://app?vid=11118a6c-1b72-4dfb-b471-0e12e027b56c","ios":"levelo://app?vid=11118a6c-1b72-4dfb-b471-0e12e027b56c"},"vehicle_type_id":"4","last_reported":1724173667,"current_range_meters":4800,"station_id":"","pricing_plan_id":"cebpf4jnsgd1na2vs0mg"},{"bike_id":"73662366-0288-4a6d-92d2-89e67cbd3ddb","system_id":"levelo_inurba_marseille","lat":43.299707,"lon":5.384859,"is_reserved":false,"is_disabled":false,"rental_uris":{"android":"levelo://app?vid=73662366-0288-4a6d-92d2-89e67cbd3ddb","ios":"levelo://app?vid=73662366-0288-4a6d-92d2-89e67cbd3ddb"},"vehicle_type_id":"4","last_reported":1724173667,"current_range_meters":13600,"station_id":"ce4bgj92rcd13ifvqbd0","pricing_plan_id":"cebpf4jnsgd1na2vs0mg"},{"bike_id":"8b3b0db8-ffe3-4fb3-a19c-17cc3d5504f4","system_id":"levelo_inurba_marseille","lat":43.299707,"lon":5.384859,"is_reserved":false,"is_disabled":false,"rental_uris":{"android":"levelo://app?vid=8b3b0db8-ffe3-4fb3-a19c-17cc3d5504f4","ios":"levelo://app?vid=8b3b0db8-ffe3-4fb3-a19c-17cc3d5504f4"},"vehicle_type_id":"4","last_reported":1724173667,"current_range_meters":0,"station_id":"ce4bgj92rcd13ifvqbd0","pricing_plan_id":"cebpf4jnsgd1na2vs0mg"},{"bike_id":"2bb5fc74-f678-4ed7-8249-eb28c1215588","system_id":"levelo_inurba_marseille","lat":43.29972,"lon":5.3849,"is_reserved":false,"is_disabled":false,"rental_uris":{"android":"levelo://app?vid=2bb5fc74-f678-4ed7-8249-eb28c1215588","ios":"levelo://app?vid=2bb5fc74-f678-4ed7-8249-eb28c1215588"},"vehicle_type_id":"4","last_reported":1724173667,"current_range_meters":0,"station_id":"ce4bgj92rcd13ifvqbd0","pricing_plan_id":"cebpf4jnsgd1na2vs0mg"},{"bike_id":"07390bb9-063e-4a3a-8b1f-77e217effcb3","system_id":"levelo_inurba_marseille","lat":43.2997,"lon":5.38494,"is_reserved":false,"is_disabled":false,"rental_uris":{"android":"levelo://app?vid=07390bb9-063e-4a3a-8b1f-77e217effcb3","ios":"levelo://app?vid=07390bb9-063e-4a3a-8b1f-77e217effcb3"},"vehicle_type_id":"4","last_reported":1724173667,"current_range_meters":16800,"station_id":"ce4bgj92rcd13ifvqbd0","pricing_plan_id":"cebpf4jnsgd1na2vs0mg"},{"bike_id":"dfa3bc47-d842-4591-8a4f-6bf2fcbc3149","system_id":"levelo_inurba_marseille","lat":43.29964,"lon":5.38497,"is_reserved":false,"is_disabled":false,"rental_uris":{"android":"levelo://app?vid=dfa3bc47-d842-4591-8a4f-6bf2fcbc3149","ios":"levelo://app?vid=dfa3bc47-d842-4591-8a4f-6bf2fcbc3149"},"vehicle_type_id":"4","last_reported":1724173667,"current_range_meters":22800,"station_id":"ce4bgj92rcd13ifvqbd0","pricing_plan_id":"cebpf4jnsgd1na2vs0mg"},{"bike_id":"fd52b20b-42dd-4174-ae46-da1867ab6729","system_id":"levelo_inurba_marseille","lat":43.29965,"lon":5.38499,"is_reserved":false,"is_disabled":false,"rental_uris":{"android":"levelo://app?vid=fd52b20b-42dd-4174-ae46-da1867ab6729","ios":"levelo://app?vid=fd52b20b-42dd-4174-ae46-da1867ab6729"},"vehicle_type_id":"4","last_reported":1724173667,"current_range_meters":16400,"station_id":"ce4bgj92rcd13ifvqbd0","pricing_plan_id":"cebpf4jnsgd1na2vs0mg"},{"bike_id":"9e52a983-2dea-4c31-96cc-f63993455883","system_id":"levelo_inurba_marseille","lat":43.29965,"lon":5.385,"is_reserved":false,"is_disabled":false,"rental_uris":{"android":"levelo://app?vid=9e52a983-2dea-4c31-96cc-f63993455883","ios":"levelo://app?vid=9e52a983-2dea-4c31-96cc-f63993455883"},"vehicle_type_id":"4","last_reported":1724173667,"current_range_meters":0,"station_id":"ce4bgj92rcd13ifvqbd0","pricing_plan_id":"cebpf4jnsgd1na2vs0mg"},{"bike_id":"c7285ec0-bc3b-4776-a821-4fe5ca5100f3","system_id":"levelo_inurba_marseille","lat":43.30132,"lon":5.38779,"is_reserved":false,"is_disabled":false,"rental_uris":{"android":"levelo://app?vid=c7285ec0-bc3b-4776-a821-4fe5ca5100f3","ios":"levelo://app?vid=c7285ec0-bc3b-4776-a821-4fe5ca5100f3"},"vehicle_type_id":"4","last_reported":1724173667,"current_range_meters":20400,"station_id":"ce4bghh2rcd13ifvqb60","pricing_plan_id":"cebpf4jnsgd1na2vs0mg"},{"bike_id":"7d00275e-6661-4e69-b00f-0fa5ca76531b","system_id":"levelo_inurba_marseille","lat":43.301396,"lon":5.387812,"is_reserved":false,"is_disabled":false,"rental_uris":{"android":"levelo://app?vid=7d00275e-6661-4e69-b00f-0fa5ca76531b","ios":"levelo://app?vid=7d00275e-6661-4e69-b00f-0fa5ca76531b"},"vehicle_type_id":"4","last_reported":1724173667,"current_range_meters":0,"station_id":"ce4bghh2rcd13ifvqb60","pricing_plan_id":"cebpf4jnsgd1na2vs0mg"},{"bike_id":"6bea9c93-8d6e-48ee-860b-a64659c70646","system_id":"levelo_inurba_marseille","lat":43.301396,"lon":5.387812,"is_reserved":false,"is_disabled":false,"rental_uris":{"android":"levelo://app?vid=6bea9c93-8d6e-48ee-860b-a64659c70646","ios":"levelo://app?vid=6bea9c93-8d6e-48ee-860b-a64659c70646"},"vehicle_type_id":"4","last_reported":1724173667,"current_range_meters":0,"station_id":"ce4bghh2rcd13ifvqb60","pricing_plan_id":"cebpf4jnsgd1na2vs0mg"},{"bike_id":"46218d21-34c5-4bba-9bb7-7f304601420a","system_id":"levelo_inurba_marseille","lat":43.301396,"lon":5.387812,"is_reserved":false,"is_disabled":false,"rental_uris":{"android":"levelo://app?vid=46218d21-34c5-4bba-9bb7-7f304601420a","ios":"levelo://app?vid=46218d21-34c5-4bba-9bb7-7f304601420a"},"vehicle_type_id":"4","last_reported":1724173667,"current_range_meters":0,"station_id":"ce4bghh2rcd13ifvqb60","pricing_plan_id":"cebpf4jnsgd1na2vs0mg"},{"bike_id":"6d898f86-3205-4658-8729-f6a07642d2a6","system_id":"levelo_inurba_marseille","lat":43.29601,"lon":5.381084,"is_reserved":false,"is_disabled":false,"rental_uris":{"android":"levelo://app?vid=6d898f86-3205-4658-8729-f6a07642d2a6","ios":"levelo://app?vid=6d898f86-3205-4658-8729-f6a07642d2a6"},"vehicle_type_id":"4","last_reported":1724173667,"current_range_meters":8800,"station_id":"ce4bgl12rcd13ifvqbo0","pricing_plan_id":"cebpf4jnsgd1na2vs0mg"},{"bike_id":"9462d2dc-6d5e-4f0d-b0d0-1739d0061f21","system_id":"levelo_inurba_marseille","lat":43.29601,"lon":5.381084,"is_reserved":false,"is_disabled":false,"rental_uris":{"android":"levelo://app?vid=9462d2dc-6d5e-4f0d-b0d0-1739d0061f21","ios":"levelo://app?vid=9462d2dc-6d5e-4f0d-b0d0-1739d0061f21"},"vehicle_type_id":"4","last_reported":1724173667,"current_range_meters":28000,"station_id":"ce4bgl12rcd13ifvqbo0","pricing_plan_id":"cebpf4jnsgd1na2vs0mg"},{"bike_id":"6c6781fa-3a4e-4306-83c3-9e3fc0efce37","system_id":"levelo_inurba_marseille","lat":43.29326,"lon":5.37154,"is_reserved":false,"is_disabled":false,"rental_uris":{"android":"levelo://app?vid=6c6781fa-3a4e-4306-83c3-9e3fc0efce37","ios":"levelo://app?vid=6c6781fa-3a4e-4306-83c3-9e3fc0efce37"},"vehicle_type_id":"4","last_reported":1724173667,"current_range_meters":0,"station_id":"ce4bgh92rcd13ifvqb40","pricing_plan_id":"cebpf4jnsgd1na2vs0mg"},{"bike_id":"483b4076-8104-48d9-90ab-8a105382915f","system_id":"levelo_inurba_marseille","lat":43.292749,"lon":5.368402,"is_reserved":false,"is_disabled":false,"rental_uris":{"android":"levelo://app?vid=483b4076-8104-48d9-90ab-8a105382915f","ios":"levelo://app?vid=483b4076-8104-48d9-90ab-8a105382915f"},"vehicle_type_id":"4","last_reported":1724173667,"current_range_meters":0,"station_id":"ce4bhbp2rcd13ifvqesg","pricing_plan_id":"cebpf4jnsgd1na2vs0mg"},{"bike_id":"afed36c1-8735-4db8-83ab-2edd467dfabe","system_id":"levelo_inurba_marseille","lat":43.29301,"lon":5.37169,"is_reserved":false,"is_disabled":false,"rental_uris":{"android":"levelo://app?vid=afed36c1-8735-4db8-83ab-2edd467dfabe","ios":"levelo://app?vid=afed36c1-8735-4db8-83ab-2edd467dfabe"},"vehicle_type_id":"4","last_reported":1724173667,"current_range_meters":0,"station_id":"ce4bgh92rcd13ifvqb40","pricing_plan_id":"cebpf4jnsgd1na2vs0mg"},{"bike_id":"8828d8af-7130-4fc2-8474-e22ecf70a723","system_id":"levelo_inurba_marseille","lat":43.29229,"lon":5.36632,"is_reserved":false,"is_disabled":false,"rental_uris":{"android":"levelo://app?vid=8828d8af-7130-4fc2-8474-e22ecf70a723","ios":"levelo://app?vid=8828d8af-7130-4fc2-8474-e22ecf70a723"},"vehicle_type_id":"4","last_reported":1724173667,"current_range_meters":17600,"station_id":"ce4bha92rcd13ifvqeh0","pricing_plan_id":"cebpf4jnsgd1na2vs0mg"},{"bike_id":"631b7dcc-b3a3-47c6-8add-992a3d3d8b64","system_id":"levelo_inurba_marseille","lat":43.29306,"lon":5.3746,"is_reserved":false,"is_disabled":false,"rental_uris":{"android":"levelo://app?vid=631b7dcc-b3a3-47c6-8add-992a3d3d8b64","ios":"levelo://app?vid=631b7dcc-b3a3-47c6-8add-992a3d3d8b64"},"vehicle_type_id":"4","last_reported":1724173667,"current_range_meters":28800,"station_id":"ce4bgi12rcd13ifvqb70","pricing_plan_id":"cebpf4jnsgd1na2vs0mg"},{"bike_id":"76896e1d-2533-482c-972d-b601ca2ebcfd","system_id":"levelo_inurba_marseille","lat":43.29301,"lon":5.374563,"is_reserved":false,"is_disabled":false,"rental_uris":{"android":"levelo://app?vid=76896e1d-2533-482c-972d-b601ca2ebcfd","ios":"levelo://app?vid=76896e1d-2533-482c-972d-b601ca2ebcfd"},"vehicle_type_id":"4","last_reported":1724173667,"current_range_meters":0,"station_id":"ce4bgi12rcd13ifvqb70","pricing_plan_id":"cebpf4jnsgd1na2vs0mg"},{"bike_id":"e1e06653-16ea-482d-80e5-cf086d93b774","system_id":"levelo_inurba_marseille","lat":43.29294,"lon":5.37449,"is_reserved":false,"is_disabled":false,"rental_uris":{"android":"levelo://app?vid=e1e06653-16ea-482d-80e5-cf086d93b774","ios":"levelo://app?vid=e1e06653-16ea-482d-80e5-cf086d93b774"},"vehicle_type_id":"4","last_reported":1724173667,"current_range_meters":0,"station_id":"ce4bgi12rcd13ifvqb70","pricing_plan_id":"cebpf4jnsgd1na2vs0mg"},{"bike_id":"4faac643-4e05-45b8-b076-cda30f0b5344","system_id":"levelo_inurba_marseille","lat":43.29295,"lon":5.37458,"is_reserved":false,"is_disabled":false,"rental_uris":{"android":"levelo://app?vid=4faac643-4e05-45b8-b076-cda30f0b5344","ios":"levelo://app?vid=4faac643-4e05-45b8-b076-cda30f0b5344"},"vehicle_type_id":"4","last_reported":1724173667,"current_range_meters":0,"station_id":"ce4bgi12rcd13ifvqb70","pricing_plan_id":"cebpf4jnsgd1na2vs0mg"},{"bike_id":"531cf42a-0a77-4e48-a591-1bab2164d154","system_id":"levelo_inurba_marseille","lat":43.2936,"lon":5.37835,"is_reserved":false,"is_disabled":false,"rental_uris":{"android":"levelo://app?vid=531cf42a-0a77-4e48-a591-1bab2164d154","ios":"levelo://app?vid=531cf42a-0a77-4e48-a591-1bab2164d154"},"vehicle_type_id":"4","last_reported":1724173667,"current_range_meters":0,"station_id":"ce4bgjh2rcd13ifvqbf0","pricing_plan_id":"cebpf4jnsgd1na2vs0mg"},{"bike_id":"3de8401a-1053-49d2-924f-e77ba97800d2","system_id":"levelo_inurba_marseille","lat":43.2936,"lon":5.37835,"is_reserved":false,"is_disabled":false,"rental_uris":{"android":"levelo://app?vid=3de8401a-1053-49d2-924f-e77ba97800d2","ios":"levelo://app?vid=3de8401a-1053-49d2-924f-e77ba97800d2"},"vehicle_type_id":"4","last_reported":1724173667,"current_range_meters":1600,"station_id":"ce4bgjh2rcd13ifvqbf0","pricing_plan_id":"cebpf4jnsgd1na2vs0mg"},{"bike_id":"2500b13c-b82f-493b-8d26-3258e2cf3087","system_id":"levelo_inurba_marseille","lat":43.302992,"lon":5.392136,"is_reserved":false,"is_disabled":false,"rental_uris":{"android":"levelo://app?vid=2500b13c-b82f-493b-8d26-3258e2cf3087","ios":"levelo://app?vid=2500b13c-b82f-493b-8d26-3258e2cf3087"},"vehicle_type_id":"4","last_reported":1724173667,"current_range_meters":800,"station_id":"ce4bgkh2rcd13ifvqbk0","pricing_plan_id":"cebpf4jnsgd1na2vs0mg"},{"bike_id":"80d36767-58c4-43f9-a2ca-79fd71d23adb","system_id":"levelo_inurba_marseille","lat":43.293009,"lon":5.374584,"is_reserved":false,"is_disabled":false,"rental_uris":{"android":"levelo://app?vid=80d36767-58c4-43f9-a2ca-79fd71d23adb","ios":"levelo://app?vid=80d36767-58c4-43f9-a2ca-79fd71d23adb"},"vehicle_type_id":"4","last_reported":1724173667,"current_range_meters":2000,"station_id":"ce4bgi12rcd13ifvqb70","pricing_plan_id":"cebpf4jnsgd1na2vs0mg"},{"bike_id":"9e2ce6af-4e3d-44c8-84de-5bb9f9995bb8","system_id":"levelo_inurba_marseille","lat":43.301,"lon":5.39073,"is_reserved":false,"is_disabled":false,"rental_uris":{"android":"levelo://app?vid=9e2ce6af-4e3d-44c8-84de-5bb9f9995bb8","ios":"levelo://app?vid=9e2ce6af-4e3d-44c8-84de-5bb9f9995bb8"},"vehicle_type_id":"4","last_reported":1724173667,"current_range_meters":0,"station_id":"ce4bh192rcd13ifvqdb0","pricing_plan_id":"cebpf4jnsgd1na2vs0mg"},{"bike_id":"1a385141-b26a-4c25-a5f7-dd377b007afa","system_id":"levelo_inurba_marseille","lat":43.30085,"lon":5.390856,"is_reserved":false,"is_disabled":false,"rental_uris":{"android":"levelo://app?vid=1a385141-b26a-4c25-a5f7-dd377b007afa","ios":"levelo://app?vid=1a385141-b26a-4c25-a5f7-dd377b007afa"},"vehicle_type_id":"4","last_reported":1724173667,"current_range_meters":25200,"station_id":"ce4bh192rcd13ifvqdb0","pricing_plan_id":"cebpf4jnsgd1na2vs0mg"},{"bike_id":"67af4f5a-cc99-4a58-9728-8106061bb2d0","system_id":"levelo_inurba_marseille","lat":43.30085,"lon":5.390856,"is_reserved":false,"is_disabled":false,"rental_uris":{"android":"levelo://app?vid=67af4f5a-cc99-4a58-9728-8106061bb2d0","ios":"levelo://app?vid=67af4f5a-cc99-4a58-9728-8106061bb2d0"},"vehicle_type_id":"4","last_reported":1724173667,"current_range_meters":0,"station_id":"ce4bh192rcd13ifvqdb0","pricing_plan_id":"cebpf4jnsgd1na2vs0mg"},{"bike_id":"a71480d2-18f7-4b2c-bf54-b7afc29b422e","system_id":"levelo_inurba_marseille","lat":43.29222,"lon":5.36068,"is_reserved":false,"is_disabled":false,"rental_uris":{"android":"levelo://app?vid=a71480d2-18f7-4b2c-bf54-b7afc29b422e","ios":"levelo://app?vid=a71480d2-18f7-4b2c-bf54-b7afc29b422e"},"vehicle_type_id":"4","last_reported":1724173667,"current_range_meters":4000,"station_id":"ce4bhbh2rcd13ifvqeqg","pricing_plan_id":"cebpf4jnsgd1na2vs0mg"},{"bike_id":"226e6584-f64b-4def-9cc1-a8a9064cdc8f","system_id":"levelo_inurba_marseille","lat":43.292311,"lon":5.360731,"is_reserved":false,"is_disabled":false,"rental_uris":{"android":"levelo://app?vid=226e6584-f64b-4def-9cc1-a8a9064cdc8f","ios":"levelo://app?vid=226e6584-f64b-4def-9cc1-a8a9064cdc8f"},"vehicle_type_id":"4","last_reported":1724173667,"current_range_meters":26800,"station_id":"ce4bhbh2rcd13ifvqeqg","pricing_plan_id":"cebpf4jnsgd1na2vs0mg"},{"bike_id":"f52139e8-f160-405a-a111-528c3635bdca","system_id":"levelo_inurba_marseille","lat":43.292311,"lon":5.360731,"is_reserved":false,"is_disabled":false,"rental_uris":{"android":"levelo://app?vid=f52139e8-f160-405a-a111-528c3635bdca","ios":"levelo://app?vid=f52139e8-f160-405a-a111-528c3635bdca"},"vehicle_type_id":"4","last_reported":1724173667,"current_range_meters":31200,"station_id":"ce4bhbh2rcd13ifvqeqg","pricing_plan_id":"cebpf4jnsgd1na2vs0mg"},{"bike_id":"595bc2aa-2bca-416f-854b-63d2df82cdee","system_id":"levelo_inurba_marseille","lat":43.292218,"lon":5.360507,"is_reserved":false,"is_disabled":false,"rental_uris":{"android":"levelo://app?vid=595bc2aa-2bca-416f-854b-63d2df82cdee","ios":"levelo://app?vid=595bc2aa-2bca-416f-854b-63d2df82cdee"},"vehicle_type_id":"4","last_reported":1724173667,"current_range_meters":28800,"station_id":"ce4bhbh2rcd13ifvqeqg","pricing_plan_id":"cebpf4jnsgd1na2vs0mg"},{"bike_id":"921e1ab7-1bbe-4f3d-a92a-173ebe9ea6f5","system_id":"levelo_inurba_marseille","lat":43.292311,"lon":5.360731,"is_reserved":false,"is_disabled":false,"rental_uris":{"android":"levelo://app?vid=921e1ab7-1bbe-4f3d-a92a-173ebe9ea6f5","ios":"levelo://app?vid=921e1ab7-1bbe-4f3d-a92a-173ebe9ea6f5"},"vehicle_type_id":"4","last_reported":1724173667,"current_range_meters":28400,"station_id":"ce4bhbh2rcd13ifvqeqg","pricing_plan_id":"cebpf4jnsgd1na2vs0mg"},{"bike_id":"97e025a6-dbb7-4a13-9255-9882f6fb59ee","system_id":"levelo_inurba_marseille","lat":43.292311,"lon":5.360731,"is_reserved":false,"is_disabled":false,"rental_uris":{"android":"levelo://app?vid=97e025a6-dbb7-4a13-9255-9882f6fb59ee","ios":"levelo://app?vid=97e025a6-dbb7-4a13-9255-9882f6fb59ee"},"vehicle_type_id":"4","last_reported":1724173667,"current_range_meters":31200,"station_id":"ce4bhbh2rcd13ifvqeqg","pricing_plan_id":"cebpf4jnsgd1na2vs0mg"},{"bike_id":"18159d30-6e6f-44ac-bd54-3a7dff721633","system_id":"levelo_inurba_marseille","lat":43.292311,"lon":5.360731,"is_reserved":false,"is_disabled":false,"rental_uris":{"android":"levelo://app?vid=18159d30-6e6f-44ac-bd54-3a7dff721633","ios":"levelo://app?vid=18159d30-6e6f-44ac-bd54-3a7dff721633"},"vehicle_type_id":"4","last_reported":1724173667,"current_range_meters":24400,"station_id":"ce4bhbh2rcd13ifvqeqg","pricing_plan_id":"cebpf4jnsgd1na2vs0mg"},{"bike_id":"f7227fee-f95b-48ce-84a6-7de850bb4de4","system_id":"levelo_inurba_marseille","lat":43.30085,"lon":5.390856,"is_reserved":false,"is_disabled":false,"rental_uris":{"android":"levelo://app?vid=f7227fee-f95b-48ce-84a6-7de850bb4de4","ios":"levelo://app?vid=f7227fee-f95b-48ce-84a6-7de850bb4de4"},"vehicle_type_id":"4","last_reported":1724173667,"current_range_meters":13600,"station_id":"ce4bh192rcd13ifvqdb0","pricing_plan_id":"cebpf4jnsgd1na2vs0mg"},{"bike_id":"78f249d6-c906-475d-8e32-2c299a20e082","system_id":"levelo_inurba_marseille","lat":43.292311,"lon":5.360731,"is_reserved":false,"is_disabled":false,"rental_uris":{"android":"levelo://app?vid=78f249d6-c906-475d-8e32-2c299a20e082","ios":"levelo://app?vid=78f249d6-c906-475d-8e32-2c299a20e082"},"vehicle_type_id":"4","last_reported":1724173667,"current_range_meters":27200,"station_id":"ce4bhbh2rcd13ifvqeqg","pricing_plan_id":"cebpf4jnsgd1na2vs0mg"},{"bike_id":"f7d5c580-02ba-42a7-aabd-e6e06c398498","system_id":"levelo_inurba_marseille","lat":43.313746,"lon":5.39597,"is_reserved":false,"is_disabled":false,"rental_uris":{"android":"levelo://app?vid=f7d5c580-02ba-42a7-aabd-e6e06c398498","ios":"levelo://app?vid=f7d5c580-02ba-42a7-aabd-e6e06c398498"},"vehicle_type_id":"4","last_reported":1724173667,"current_range_meters":19200,"station_id":"","pricing_plan_id":"cebpf4jnsgd1na2vs0mg"},{"bike_id":"80bac5c4-bba5-432d-a69f-f1478240c138","system_id":"levelo_inurba_marseille","lat":43.298764,"lon":5.388973,"is_reserved":false,"is_disabled":false,"rental_uris":{"android":"levelo://app?vid=80bac5c4-bba5-432d-a69f-f1478240c138","ios":"levelo://app?vid=80bac5c4-bba5-432d-a69f-f1478240c138"},"vehicle_type_id":"4","last_reported":1724173667,"current_range_meters":2400,"station_id":"ce4bh392rcd13ifvqdl0","pricing_plan_id":"cebpf4jnsgd1na2vs0mg"},{"bike_id":"9a06afba-47d1-43c2-9cc9-9b4d9c429a85","system_id":"levelo_inurba_marseille","lat":43.298764,"lon":5.388973,"is_reserved":false,"is_disabled":false,"rental_uris":{"android":"levelo://app?vid=9a06afba-47d1-43c2-9cc9-9b4d9c429a85","ios":"levelo://app?vid=9a06afba-47d1-43c2-9cc9-9b4d9c429a85"},"vehicle_type_id":"4","last_reported":1724173667,"current_range_meters":12000,"station_id":"ce4bh392rcd13ifvqdl0","pricing_plan_id":"cebpf4jnsgd1na2vs0mg"},{"bike_id":"ac30b9ae-6584-4846-a309-28ed20fd72ef","system_id":"levelo_inurba_marseille","lat":43.298764,"lon":5.388973,"is_reserved":false,"is_disabled":false,"rental_uris":{"android":"levelo://app?vid=ac30b9ae-6584-4846-a309-28ed20fd72ef","ios":"levelo://app?vid=ac30b9ae-6584-4846-a309-28ed20fd72ef"},"vehicle_type_id":"4","last_reported":1724173667,"current_range_meters":6400,"station_id":"ce4bh392rcd13ifvqdl0","pricing_plan_id":"cebpf4jnsgd1na2vs0mg"},{"bike_id":"03a3b2e2-13c3-45b5-b0e4-6554c149d38b","system_id":"levelo_inurba_marseille","lat":43.292005,"lon":5.357875,"is_reserved":false,"is_disabled":false,"rental_uris":{"android":"levelo://app?vid=03a3b2e2-13c3-45b5-b0e4-6554c149d38b","ios":"levelo://app?vid=03a3b2e2-13c3-45b5-b0e4-6554c149d38b"},"vehicle_type_id":"4","last_reported":1724173667,"current_range_meters":8800,"station_id":"ce4bhb12rcd13ifvqel0","pricing_plan_id":"cebpf4jnsgd1na2vs0mg"},{"bike_id":"b55f5e4f-e70e-4574-a9ff-d2508dbe9619","system_id":"levelo_inurba_marseille","lat":43.292005,"lon":5.357875,"is_reserved":false,"is_disabled":false,"rental_uris":{"android":"levelo://app?vid=b55f5e4f-e70e-4574-a9ff-d2508dbe9619","ios":"levelo://app?vid=b55f5e4f-e70e-4574-a9ff-d2508dbe9619"},"vehicle_type_id":"4","last_reported":1724173667,"current_range_meters":0,"station_id":"ce4bhb12rcd13ifvqel0","pricing_plan_id":"cebpf4jnsgd1na2vs0mg"},{"bike_id":"bc570ac7-5d35-4d86-bfb6-10bc52b2b625","system_id":"levelo_inurba_marseille","lat":43.309038,"lon":5.396546,"is_reserved":false,"is_disabled":false,"rental_uris":{"android":"levelo://app?vid=bc570ac7-5d35-4d86-bfb6-10bc52b2b625","ios":"levelo://app?vid=bc570ac7-5d35-4d86-bfb6-10bc52b2b625"},"vehicle_type_id":"4","last_reported":1724173667,"current_range_meters":12400,"station_id":"ce4bh012rcd13ifvqcv0","pricing_plan_id":"cebpf4jnsgd1na2vs0mg"},{"bike_id":"87580afc-5ccc-4de2-84e6-75bea960affc","system_id":"levelo_inurba_marseille","lat":43.292005,"lon":5.357875,"is_reserved":false,"is_disabled":false,"rental_uris":{"android":"levelo://app?vid=87580afc-5ccc-4de2-84e6-75bea960affc","ios":"levelo://app?vid=87580afc-5ccc-4de2-84e6-75bea960affc"},"vehicle_type_id":"4","last_reported":1724173667,"current_range_meters":6000,"station_id":"ce4bhb12rcd13ifvqel0","pricing_plan_id":"cebpf4jnsgd1na2vs0mg"},{"bike_id":"821c250d-3002-4d33-86b8-3dba8776a861","system_id":"levelo_inurba_marseille","lat":43.292005,"lon":5.357875,"is_reserved":false,"is_disabled":false,"rental_uris":{"android":"levelo://app?vid=821c250d-3002-4d33-86b8-3dba8776a861","ios":"levelo://app?vid=821c250d-3002-4d33-86b8-3dba8776a861"},"vehicle_type_id":"4","last_reported":1724173667,"current_range_meters":30400,"station_id":"ce4bhb12rcd13ifvqel0","pricing_plan_id":"cebpf4jnsgd1na2vs0mg"},{"bike_id":"169a5d6e-835c-4588-a779-8a22555dd573","system_id":"levelo_inurba_marseille","lat":43.29193,"lon":5.35802,"is_reserved":false,"is_disabled":false,"rental_uris":{"android":"levelo://app?vid=169a5d6e-835c-4588-a779-8a22555dd573","ios":"levelo://app?vid=169a5d6e-835c-4588-a779-8a22555dd573"},"vehicle_type_id":"4","last_reported":1724173667,"current_range_meters":16800,"station_id":"ce4bhb12rcd13ifvqel0","pricing_plan_id":"cebpf4jnsgd1na2vs0mg"},{"bike_id":"6d5d5690-30dc-4636-b9aa-0213ad4d814a","system_id":"levelo_inurba_marseille","lat":43.313291,"lon":5.396838,"is_reserved":false,"is_disabled":false,"rental_uris":{"android":"levelo://app?vid=6d5d5690-30dc-4636-b9aa-0213ad4d814a","ios":"levelo://app?vid=6d5d5690-30dc-4636-b9aa-0213ad4d814a"},"vehicle_type_id":"4","last_reported":1724173667,"current_range_meters":3200,"station_id":"ce4bgvp2rcd13ifvqcu0","pricing_plan_id":"cebpf4jnsgd1na2vs0mg"},{"bike_id":"6879f29c-2eef-46bc-9c78-d72ab930ee93","system_id":"levelo_inurba_marseille","lat":43.292005,"lon":5.357875,"is_reserved":false,"is_disabled":false,"rental_uris":{"android":"levelo://app?vid=6879f29c-2eef-46bc-9c78-d72ab930ee93","ios":"levelo://app?vid=6879f29c-2eef-46bc-9c78-d72ab930ee93"},"vehicle_type_id":"4","last_reported":1724173667,"current_range_meters":2000,"station_id":"ce4bhb12rcd13ifvqel0","pricing_plan_id":"cebpf4jnsgd1na2vs0mg"},{"bike_id":"b108fb84-cd14-48cb-88d9-1e92b41b2397","system_id":"levelo_inurba_marseille","lat":43.292005,"lon":5.357875,"is_reserved":false,"is_disabled":false,"rental_uris":{"android":"levelo://app?vid=b108fb84-cd14-48cb-88d9-1e92b41b2397","ios":"levelo://app?vid=b108fb84-cd14-48cb-88d9-1e92b41b2397"},"vehicle_type_id":"4","last_reported":1724173667,"current_range_meters":31200,"station_id":"ce4bhb12rcd13ifvqel0","pricing_plan_id":"cebpf4jnsgd1na2vs0mg"},{"bike_id":"5e06b87f-c5a6-4623-9134-430a8458de51","system_id":"levelo_inurba_marseille","lat":43.313291,"lon":5.396838,"is_reserved":false,"is_disabled":false,"rental_uris":{"android":"levelo://app?vid=5e06b87f-c5a6-4623-9134-430a8458de51","ios":"levelo://app?vid=5e06b87f-c5a6-4623-9134-430a8458de51"},"vehicle_type_id":"4","last_reported":1724173667,"current_range_meters":22400,"station_id":"ce4bgvp2rcd13ifvqcu0","pricing_plan_id":"cebpf4jnsgd1na2vs0mg"},{"bike_id":"f0ddc124-1c57-42de-804f-7bae52238591","system_id":"levelo_inurba_marseille","lat":43.313291,"lon":5.396838,"is_reserved":false,"is_disabled":false,"rental_uris":{"android":"levelo://app?vid=f0ddc124-1c57-42de-804f-7bae52238591","ios":"levelo://app?vid=f0ddc124-1c57-42de-804f-7bae52238591"},"vehicle_type_id":"4","last_reported":1724173667,"current_range_meters":8400,"station_id":"ce4bgvp2rcd13ifvqcu0","pricing_plan_id":"cebpf4jnsgd1na2vs0mg"},{"bike_id":"7ebac5c7-d4e3-4759-8225-9f72ef7a3e6e","system_id":"levelo_inurba_marseille","lat":43.29185,"lon":5.35803,"is_reserved":false,"is_disabled":false,"rental_uris":{"android":"levelo://app?vid=7ebac5c7-d4e3-4759-8225-9f72ef7a3e6e","ios":"levelo://app?vid=7ebac5c7-d4e3-4759-8225-9f72ef7a3e6e"},"vehicle_type_id":"4","last_reported":1724173667,"current_range_meters":22000,"station_id":"ce4bhb12rcd13ifvqel0","pricing_plan_id":"cebpf4jnsgd1na2vs0mg"},{"bike_id":"e04cd4d2-83c2-4e67-984b-bc8b86fed65a","system_id":"levelo_inurba_marseille","lat":43.309038,"lon":5.396546,"is_reserved":false,"is_disabled":false,"rental_uris":{"android":"levelo://app?vid=e04cd4d2-83c2-4e67-984b-bc8b86fed65a","ios":"levelo://app?vid=e04cd4d2-83c2-4e67-984b-bc8b86fed65a"},"vehicle_type_id":"4","last_reported":1724173667,"current_range_meters":2000,"station_id":"ce4bh012rcd13ifvqcv0","pricing_plan_id":"cebpf4jnsgd1na2vs0mg"},{"bike_id":"941e7661-9236-45c8-be8e-f0062a2d00ee","system_id":"levelo_inurba_marseille","lat":43.309038,"lon":5.396546,"is_reserved":false,"is_disabled":false,"rental_uris":{"android":"levelo://app?vid=941e7661-9236-45c8-be8e-f0062a2d00ee","ios":"levelo://app?vid=941e7661-9236-45c8-be8e-f0062a2d00ee"},"vehicle_type_id":"4","last_reported":1724173667,"current_range_meters":8400,"station_id":"ce4bh012rcd13ifvqcv0","pricing_plan_id":"cebpf4jnsgd1na2vs0mg"},{"bike_id":"77c1a214-979a-417b-94a3-d13f023004db","system_id":"levelo_inurba_marseille","lat":43.290779,"lon":5.371482,"is_reserved":false,"is_disabled":false,"rental_uris":{"android":"levelo://app?vid=77c1a214-979a-417b-94a3-d13f023004db","ios":"levelo://app?vid=77c1a214-979a-417b-94a3-d13f023004db"},"vehicle_type_id":"4","last_reported":1724173667,"current_range_meters":22800,"station_id":"ce4bh5p2rcd13ifvqe4g","pricing_plan_id":"cebpf4jnsgd1na2vs0mg"},{"bike_id":"64c27aaa-45a4-4556-8567-7db2e0a69e0e","system_id":"levelo_inurba_marseille","lat":43.30204,"lon":5.39454,"is_reserved":false,"is_disabled":false,"rental_uris":{"android":"levelo://app?vid=64c27aaa-45a4-4556-8567-7db2e0a69e0e","ios":"levelo://app?vid=64c27aaa-45a4-4556-8567-7db2e0a69e0e"},"vehicle_type_id":"4","last_reported":1724173667,"current_range_meters":0,"station_id":"ce4bh0p2rcd13ifvqd70","pricing_plan_id":"cebpf4jnsgd1na2vs0mg"},{"bike_id":"b46b73f8-87f6-4702-b571-4d25ea2bc045","system_id":"levelo_inurba_marseille","lat":43.290624,"lon":5.359245,"is_reserved":false,"is_disabled":false,"rental_uris":{"android":"levelo://app?vid=b46b73f8-87f6-4702-b571-4d25ea2bc045","ios":"levelo://app?vid=b46b73f8-87f6-4702-b571-4d25ea2bc045"},"vehicle_type_id":"4","last_reported":1724173667,"current_range_meters":8800,"station_id":"ce4bha92rcd13ifvqeg0","pricing_plan_id":"cebpf4jnsgd1na2vs0mg"},{"bike_id":"eb782ab7-2792-4f82-abba-19becdd8dbec","system_id":"levelo_inurba_marseille","lat":43.302008,"lon":5.394694,"is_reserved":false,"is_disabled":false,"rental_uris":{"android":"levelo://app?vid=eb782ab7-2792-4f82-abba-19becdd8dbec","ios":"levelo://app?vid=eb782ab7-2792-4f82-abba-19becdd8dbec"},"vehicle_type_id":"4","last_reported":1724173667,"current_range_meters":0,"station_id":"ce4bh0p2rcd13ifvqd70","pricing_plan_id":"cebpf4jnsgd1na2vs0mg"},{"bike_id":"00f2651e-a683-4197-b293-6b1856e59dfc","system_id":"levelo_inurba_marseille","lat":43.290624,"lon":5.359245,"is_reserved":false,"is_disabled":false,"rental_uris":{"android":"levelo://app?vid=00f2651e-a683-4197-b293-6b1856e59dfc","ios":"levelo://app?vid=00f2651e-a683-4197-b293-6b1856e59dfc"},"vehicle_type_id":"4","last_reported":1724173667,"current_range_meters":2000,"station_id":"ce4bha92rcd13ifvqeg0","pricing_plan_id":"cebpf4jnsgd1na2vs0mg"},{"bike_id":"785c1638-1c90-4191-8fc6-ad23fc2a82f2","system_id":"levelo_inurba_marseille","lat":43.290624,"lon":5.359245,"is_reserved":false,"is_disabled":false,"rental_uris":{"android":"levelo://app?vid=785c1638-1c90-4191-8fc6-ad23fc2a82f2","ios":"levelo://app?vid=785c1638-1c90-4191-8fc6-ad23fc2a82f2"},"vehicle_type_id":"4","last_reported":1724173667,"current_range_meters":6400,"station_id":"ce4bha92rcd13ifvqeg0","pricing_plan_id":"cebpf4jnsgd1na2vs0mg"},{"bike_id":"32e8aa45-4867-47da-aaea-cb81f0725a85","system_id":"levelo_inurba_marseille","lat":43.290631,"lon":5.359244,"is_reserved":false,"is_disabled":false,"rental_uris":{"android":"levelo://app?vid=32e8aa45-4867-47da-aaea-cb81f0725a85","ios":"levelo://app?vid=32e8aa45-4867-47da-aaea-cb81f0725a85"},"vehicle_type_id":"4","last_reported":1724173667,"current_range_meters":20000,"station_id":"ce4bha92rcd13ifvqeg0","pricing_plan_id":"cebpf4jnsgd1na2vs0mg"},{"bike_id":"fa8a5a35-bcab-43ae-bb47-5fb76b84c163","system_id":"levelo_inurba_marseille","lat":43.29417,"lon":5.38624,"is_reserved":false,"is_disabled":false,"rental_uris":{"android":"levelo://app?vid=fa8a5a35-bcab-43ae-bb47-5fb76b84c163","ios":"levelo://app?vid=fa8a5a35-bcab-43ae-bb47-5fb76b84c163"},"vehicle_type_id":"4","last_reported":1724173667,"current_range_meters":0,"station_id":"ce4bh2h2rcd13ifvqdh0","pricing_plan_id":"cebpf4jnsgd1na2vs0mg"},{"bike_id":"f12a722b-f24e-4cc8-8263-8d78276a7c44","system_id":"levelo_inurba_marseille","lat":43.294153,"lon":5.386305,"is_reserved":false,"is_disabled":false,"rental_uris":{"android":"levelo://app?vid=f12a722b-f24e-4cc8-8263-8d78276a7c44","ios":"levelo://app?vid=f12a722b-f24e-4cc8-8263-8d78276a7c44"},"vehicle_type_id":"4","last_reported":1724173667,"current_range_meters":3200,"station_id":"ce4bh2h2rcd13ifvqdh0","pricing_plan_id":"cebpf4jnsgd1na2vs0mg"},{"bike_id":"34309fa6-71cc-4993-a990-e8a4c293577a","system_id":"levelo_inurba_marseille","lat":43.294162,"lon":5.386292,"is_reserved":false,"is_disabled":false,"rental_uris":{"android":"levelo://app?vid=34309fa6-71cc-4993-a990-e8a4c293577a","ios":"levelo://app?vid=34309fa6-71cc-4993-a990-e8a4c293577a"},"vehicle_type_id":"4","last_reported":1724173667,"current_range_meters":0,"station_id":"ce4bh2h2rcd13ifvqdh0","pricing_plan_id":"cebpf4jnsgd1na2vs0mg"},{"bike_id":"07cafd11-774e-43e9-99bd-666841f7625e","system_id":"levelo_inurba_marseille","lat":43.294153,"lon":5.386305,"is_reserved":false,"is_disabled":false,"rental_uris":{"android":"levelo://app?vid=07cafd11-774e-43e9-99bd-666841f7625e","ios":"levelo://app?vid=07cafd11-774e-43e9-99bd-666841f7625e"},"vehicle_type_id":"4","last_reported":1724173667,"current_range_meters":5200,"station_id":"ce4bh2h2rcd13ifvqdh0","pricing_plan_id":"cebpf4jnsgd1na2vs0mg"},{"bike_id":"18be4c99-81ab-40c1-99ef-30b71420b453","system_id":"levelo_inurba_marseille","lat":43.290319,"lon":5.375732,"is_reserved":false,"is_disabled":false,"rental_uris":{"android":"levelo://app?vid=18be4c99-81ab-40c1-99ef-30b71420b453","ios":"levelo://app?vid=18be4c99-81ab-40c1-99ef-30b71420b453"},"vehicle_type_id":"4","last_reported":1724173667,"current_range_meters":1200,"station_id":"ce4bh692rcd13ifvqe90","pricing_plan_id":"cebpf4jnsgd1na2vs0mg"},{"bike_id":"bc203ff7-9bae-49f3-a821-1c0866d625bb","system_id":"levelo_inurba_marseille","lat":43.289468,"lon":5.363719,"is_reserved":false,"is_disabled":false,"rental_uris":{"android":"levelo://app?vid=bc203ff7-9bae-49f3-a821-1c0866d625bb","ios":"levelo://app?vid=bc203ff7-9bae-49f3-a821-1c0866d625bb"},"vehicle_type_id":"4","last_reported":1724173667,"current_range_meters":0,"station_id":"ce4bhc92rcd13ifvqetg","pricing_plan_id":"cebpf4jnsgd1na2vs0mg"},{"bike_id":"5352b110-d231-4105-af31-0171ceacd0d7","system_id":"levelo_inurba_marseille","lat":43.289293,"lon":5.363957,"is_reserved":false,"is_disabled":false,"rental_uris":{"android":"levelo://app?vid=5352b110-d231-4105-af31-0171ceacd0d7","ios":"levelo://app?vid=5352b110-d231-4105-af31-0171ceacd0d7"},"vehicle_type_id":"4","last_reported":1724173667,"current_range_meters":0,"station_id":"ce4bhc92rcd13ifvqetg","pricing_plan_id":"cebpf4jnsgd1na2vs0mg"},{"bike_id":"79674d15-936e-4459-8759-0e4765bee7c7","system_id":"levelo_inurba_marseille","lat":43.292657,"lon":5.384237,"is_reserved":false,"is_disabled":false,"rental_uris":{"android":"levelo://app?vid=79674d15-936e-4459-8759-0e4765bee7c7","ios":"levelo://app?vid=79674d15-936e-4459-8759-0e4765bee7c7"},"vehicle_type_id":"4","last_reported":1724173667,"current_range_meters":23600,"station_id":"","pricing_plan_id":"cebpf4jnsgd1na2vs0mg"},{"bike_id":"a86d4470-5586-4359-83dc-2a4d4aef61cd","system_id":"levelo_inurba_marseille","lat":43.29272,"lon":5.38441,"is_reserved":false,"is_disabled":false,"rental_uris":{"android":"levelo://app?vid=a86d4470-5586-4359-83dc-2a4d4aef61cd","ios":"levelo://app?vid=a86d4470-5586-4359-83dc-2a4d4aef61cd"},"vehicle_type_id":"4","last_reported":1724173667,"current_range_meters":13200,"station_id":"ce4bh692rcd13ifvqea0","pricing_plan_id":"cebpf4jnsgd1na2vs0mg"},{"bike_id":"b4a8daeb-feb9-4442-ad61-c7d25abd9f3c","system_id":"levelo_inurba_marseille","lat":43.29268,"lon":5.38435,"is_reserved":false,"is_disabled":false,"rental_uris":{"android":"levelo://app?vid=b4a8daeb-feb9-4442-ad61-c7d25abd9f3c","ios":"levelo://app?vid=b4a8daeb-feb9-4442-ad61-c7d25abd9f3c"},"vehicle_type_id":"4","last_reported":1724173667,"current_range_meters":11600,"station_id":"ce4bh692rcd13ifvqea0","pricing_plan_id":"cebpf4jnsgd1na2vs0mg"},{"bike_id":"341a639b-c58e-4afd-9e4e-0536fd47cdfc","system_id":"levelo_inurba_marseille","lat":43.29269,"lon":5.38438,"is_reserved":false,"is_disabled":false,"rental_uris":{"android":"levelo://app?vid=341a639b-c58e-4afd-9e4e-0536fd47cdfc","ios":"levelo://app?vid=341a639b-c58e-4afd-9e4e-0536fd47cdfc"},"vehicle_type_id":"4","last_reported":1724173667,"current_range_meters":1600,"station_id":"ce4bh692rcd13ifvqea0","pricing_plan_id":"cebpf4jnsgd1na2vs0mg"},{"bike_id":"b5081410-f9a0-451c-a666-28b69fb17118","system_id":"levelo_inurba_marseille","lat":43.292644,"lon":5.384257,"is_reserved":false,"is_disabled":false,"rental_uris":{"android":"levelo://app?vid=b5081410-f9a0-451c-a666-28b69fb17118","ios":"levelo://app?vid=b5081410-f9a0-451c-a666-28b69fb17118"},"vehicle_type_id":"4","last_reported":1724173667,"current_range_meters":21600,"station_id":"ce4bh692rcd13ifvqea0","pricing_plan_id":"cebpf4jnsgd1na2vs0mg"},{"bike_id":"131eea41-9686-4144-b462-b08bcb34fd52","system_id":"levelo_inurba_marseille","lat":43.29268,"lon":5.38438,"is_reserved":false,"is_disabled":false,"rental_uris":{"android":"levelo://app?vid=131eea41-9686-4144-b462-b08bcb34fd52","ios":"levelo://app?vid=131eea41-9686-4144-b462-b08bcb34fd52"},"vehicle_type_id":"4","last_reported":1724173667,"current_range_meters":1600,"station_id":"ce4bh692rcd13ifvqea0","pricing_plan_id":"cebpf4jnsgd1na2vs0mg"},{"bike_id":"d8a15e4e-a099-443d-aa86-b35120c3b9df","system_id":"levelo_inurba_marseille","lat":43.292642,"lon":5.384254,"is_reserved":false,"is_disabled":false,"rental_uris":{"android":"levelo://app?vid=d8a15e4e-a099-443d-aa86-b35120c3b9df","ios":"levelo://app?vid=d8a15e4e-a099-443d-aa86-b35120c3b9df"},"vehicle_type_id":"4","last_reported":1724173667,"current_range_meters":26800,"station_id":"ce4bh692rcd13ifvqea0","pricing_plan_id":"cebpf4jnsgd1na2vs0mg"},{"bike_id":"9ae94464-7cd3-4152-b784-2502e2ef4a2b","system_id":"levelo_inurba_marseille","lat":43.29265,"lon":5.38439,"is_reserved":false,"is_disabled":false,"rental_uris":{"android":"levelo://app?vid=9ae94464-7cd3-4152-b784-2502e2ef4a2b","ios":"levelo://app?vid=9ae94464-7cd3-4152-b784-2502e2ef4a2b"},"vehicle_type_id":"4","last_reported":1724173667,"current_range_meters":11600,"station_id":"ce4bh692rcd13ifvqea0","pricing_plan_id":"cebpf4jnsgd1na2vs0mg"},{"bike_id":"6588dd0f-ebfd-41ff-8a47-3500c422ed5b","system_id":"levelo_inurba_marseille","lat":43.29262,"lon":5.38438,"is_reserved":false,"is_disabled":false,"rental_uris":{"android":"levelo://app?vid=6588dd0f-ebfd-41ff-8a47-3500c422ed5b","ios":"levelo://app?vid=6588dd0f-ebfd-41ff-8a47-3500c422ed5b"},"vehicle_type_id":"4","last_reported":1724173667,"current_range_meters":0,"station_id":"ce4bh692rcd13ifvqea0","pricing_plan_id":"cebpf4jnsgd1na2vs0mg"},{"bike_id":"c1faaa12-6d2a-4e1f-864d-972d151ebce9","system_id":"levelo_inurba_marseille","lat":43.292605,"lon":5.384417,"is_reserved":false,"is_disabled":false,"rental_uris":{"android":"levelo://app?vid=c1faaa12-6d2a-4e1f-864d-972d151ebce9","ios":"levelo://app?vid=c1faaa12-6d2a-4e1f-864d-972d151ebce9"},"vehicle_type_id":"4","last_reported":1724173667,"current_range_meters":0,"station_id":"ce4bh692rcd13ifvqea0","pricing_plan_id":"cebpf4jnsgd1na2vs0mg"},{"bike_id":"125da57d-09ba-4bb8-9111-382254681a82","system_id":"levelo_inurba_marseille","lat":43.2926,"lon":5.38444,"is_reserved":false,"is_disabled":false,"rental_uris":{"android":"levelo://app?vid=125da57d-09ba-4bb8-9111-382254681a82","ios":"levelo://app?vid=125da57d-09ba-4bb8-9111-382254681a82"},"vehicle_type_id":"4","last_reported":1724173667,"current_range_meters":0,"station_id":"ce4bh692rcd13ifvqea0","pricing_plan_id":"cebpf4jnsgd1na2vs0mg"},{"bike_id":"76b74f68-34c8-45e2-8612-59f43e06728f","system_id":"levelo_inurba_marseille","lat":43.290319,"lon":5.375732,"is_reserved":false,"is_disabled":false,"rental_uris":{"android":"levelo://app?vid=76b74f68-34c8-45e2-8612-59f43e06728f","ios":"levelo://app?vid=76b74f68-34c8-45e2-8612-59f43e06728f"},"vehicle_type_id":"4","last_reported":1724173667,"current_range_meters":0,"station_id":"ce4bh692rcd13ifvqe90","pricing_plan_id":"cebpf4jnsgd1na2vs0mg"},{"bike_id":"94c8019c-2f1d-4912-9de7-a84bd8c87712","system_id":"levelo_inurba_marseille","lat":43.290103,"lon":5.356114,"is_reserved":false,"is_disabled":false,"rental_uris":{"android":"levelo://app?vid=94c8019c-2f1d-4912-9de7-a84bd8c87712","ios":"levelo://app?vid=94c8019c-2f1d-4912-9de7-a84bd8c87712"},"vehicle_type_id":"4","last_reported":1724173667,"current_range_meters":32000,"station_id":"ce4bhb92rcd13ifvqen0","pricing_plan_id":"cebpf4jnsgd1na2vs0mg"},{"bike_id":"91e3de1e-20fd-464f-8c72-5b4b6d7c0d40","system_id":"levelo_inurba_marseille","lat":43.290103,"lon":5.356114,"is_reserved":false,"is_disabled":false,"rental_uris":{"android":"levelo://app?vid=91e3de1e-20fd-464f-8c72-5b4b6d7c0d40","ios":"levelo://app?vid=91e3de1e-20fd-464f-8c72-5b4b6d7c0d40"},"vehicle_type_id":"4","last_reported":1724173667,"current_range_meters":0,"station_id":"ce4bhb92rcd13ifvqen0","pricing_plan_id":"cebpf4jnsgd1na2vs0mg"},{"bike_id":"db523c07-4df7-4c70-8609-87836d310583","system_id":"levelo_inurba_marseille","lat":43.290104,"lon":5.356111,"is_reserved":false,"is_disabled":false,"rental_uris":{"android":"levelo://app?vid=db523c07-4df7-4c70-8609-87836d310583","ios":"levelo://app?vid=db523c07-4df7-4c70-8609-87836d310583"},"vehicle_type_id":"4","last_reported":1724173667,"current_range_meters":12400,"station_id":"ce4bhb92rcd13ifvqen0","pricing_plan_id":"cebpf4jnsgd1na2vs0mg"},{"bike_id":"7da336a7-aa12-4e20-a460-8c0aaf7ca125","system_id":"levelo_inurba_marseille","lat":43.290104,"lon":5.356111,"is_reserved":false,"is_disabled":false,"rental_uris":{"android":"levelo://app?vid=7da336a7-aa12-4e20-a460-8c0aaf7ca125","ios":"levelo://app?vid=7da336a7-aa12-4e20-a460-8c0aaf7ca125"},"vehicle_type_id":"4","last_reported":1724173667,"current_range_meters":13600,"station_id":"ce4bhb92rcd13ifvqen0","pricing_plan_id":"cebpf4jnsgd1na2vs0mg"},{"bike_id":"aea5aad1-a9c1-4d27-8445-11fdb19d7bae","system_id":"levelo_inurba_marseille","lat":43.290104,"lon":5.356111,"is_reserved":false,"is_disabled":false,"rental_uris":{"android":"levelo://app?vid=aea5aad1-a9c1-4d27-8445-11fdb19d7bae","ios":"levelo://app?vid=aea5aad1-a9c1-4d27-8445-11fdb19d7bae"},"vehicle_type_id":"4","last_reported":1724173667,"current_range_meters":11600,"station_id":"ce4bhb92rcd13ifvqen0","pricing_plan_id":"cebpf4jnsgd1na2vs0mg"},{"bike_id":"73b5178e-9c47-4c57-af5a-cbcbfc0c1c1b","system_id":"levelo_inurba_marseille","lat":43.290104,"lon":5.356111,"is_reserved":false,"is_disabled":false,"rental_uris":{"android":"levelo://app?vid=73b5178e-9c47-4c57-af5a-cbcbfc0c1c1b","ios":"levelo://app?vid=73b5178e-9c47-4c57-af5a-cbcbfc0c1c1b"},"vehicle_type_id":"4","last_reported":1724173667,"current_range_meters":20800,"station_id":"ce4bhb92rcd13ifvqen0","pricing_plan_id":"cebpf4jnsgd1na2vs0mg"},{"bike_id":"8a4d6798-476d-429a-a02c-baad821d1a95","system_id":"levelo_inurba_marseille","lat":43.290103,"lon":5.356114,"is_reserved":false,"is_disabled":false,"rental_uris":{"android":"levelo://app?vid=8a4d6798-476d-429a-a02c-baad821d1a95","ios":"levelo://app?vid=8a4d6798-476d-429a-a02c-baad821d1a95"},"vehicle_type_id":"4","last_reported":1724173667,"current_range_meters":26800,"station_id":"ce4bhb92rcd13ifvqen0","pricing_plan_id":"cebpf4jnsgd1na2vs0mg"},{"bike_id":"61245fbb-88a9-4920-929e-634dfe038952","system_id":"levelo_inurba_marseille","lat":43.290104,"lon":5.356111,"is_reserved":false,"is_disabled":false,"rental_uris":{"android":"levelo://app?vid=61245fbb-88a9-4920-929e-634dfe038952","ios":"levelo://app?vid=61245fbb-88a9-4920-929e-634dfe038952"},"vehicle_type_id":"4","last_reported":1724173667,"current_range_meters":21200,"station_id":"ce4bhb92rcd13ifvqen0","pricing_plan_id":"cebpf4jnsgd1na2vs0mg"},{"bike_id":"38a3c2da-6375-431b-a71e-3681bcfd816f","system_id":"levelo_inurba_marseille","lat":43.290104,"lon":5.356111,"is_reserved":false,"is_disabled":false,"rental_uris":{"android":"levelo://app?vid=38a3c2da-6375-431b-a71e-3681bcfd816f","ios":"levelo://app?vid=38a3c2da-6375-431b-a71e-3681bcfd816f"},"vehicle_type_id":"4","last_reported":1724173667,"current_range_meters":14400,"station_id":"ce4bhb92rcd13ifvqen0","pricing_plan_id":"cebpf4jnsgd1na2vs0mg"},{"bike_id":"91e7e2cb-5649-430e-aeac-849f1be42ddc","system_id":"levelo_inurba_marseille","lat":43.290104,"lon":5.356111,"is_reserved":false,"is_disabled":false,"rental_uris":{"android":"levelo://app?vid=91e7e2cb-5649-430e-aeac-849f1be42ddc","ios":"levelo://app?vid=91e7e2cb-5649-430e-aeac-849f1be42ddc"},"vehicle_type_id":"4","last_reported":1724173667,"current_range_meters":32000,"station_id":"ce4bhb92rcd13ifvqen0","pricing_plan_id":"cebpf4jnsgd1na2vs0mg"},{"bike_id":"bef7662b-f3ba-4733-9364-bcfcfc9df7ff","system_id":"levelo_inurba_marseille","lat":43.29007,"lon":5.35613,"is_reserved":false,"is_disabled":false,"rental_uris":{"android":"levelo://app?vid=bef7662b-f3ba-4733-9364-bcfcfc9df7ff","ios":"levelo://app?vid=bef7662b-f3ba-4733-9364-bcfcfc9df7ff"},"vehicle_type_id":"4","last_reported":1724173667,"current_range_meters":0,"station_id":"ce4bhb92rcd13ifvqen0","pricing_plan_id":"cebpf4jnsgd1na2vs0mg"},{"bike_id":"0307666e-dea7-4bf5-a949-3a3fed25fe5d","system_id":"levelo_inurba_marseille","lat":43.290104,"lon":5.356111,"is_reserved":false,"is_disabled":false,"rental_uris":{"android":"levelo://app?vid=0307666e-dea7-4bf5-a949-3a3fed25fe5d","ios":"levelo://app?vid=0307666e-dea7-4bf5-a949-3a3fed25fe5d"},"vehicle_type_id":"4","last_reported":1724173667,"current_range_meters":31600,"station_id":"ce4bhb92rcd13ifvqen0","pricing_plan_id":"cebpf4jnsgd1na2vs0mg"},{"bike_id":"2cd72167-6050-4df2-b4cf-0101a4ef4efb","system_id":"levelo_inurba_marseille","lat":43.290103,"lon":5.356114,"is_reserved":false,"is_disabled":false,"rental_uris":{"android":"levelo://app?vid=2cd72167-6050-4df2-b4cf-0101a4ef4efb","ios":"levelo://app?vid=2cd72167-6050-4df2-b4cf-0101a4ef4efb"},"vehicle_type_id":"4","last_reported":1724173667,"current_range_meters":12400,"station_id":"ce4bhb92rcd13ifvqen0","pricing_plan_id":"cebpf4jnsgd1na2vs0mg"},{"bike_id":"10311e75-e69e-4330-9725-d88ea25de515","system_id":"levelo_inurba_marseille","lat":43.290103,"lon":5.356114,"is_reserved":false,"is_disabled":false,"rental_uris":{"android":"levelo://app?vid=10311e75-e69e-4330-9725-d88ea25de515","ios":"levelo://app?vid=10311e75-e69e-4330-9725-d88ea25de515"},"vehicle_type_id":"4","last_reported":1724173667,"current_range_meters":28400,"station_id":"ce4bhb92rcd13ifvqen0","pricing_plan_id":"cebpf4jnsgd1na2vs0mg"},{"bike_id":"57a13db7-4e1e-47f5-ba07-1abe15a3387c","system_id":"levelo_inurba_marseille","lat":43.290104,"lon":5.356111,"is_reserved":false,"is_disabled":false,"rental_uris":{"android":"levelo://app?vid=57a13db7-4e1e-47f5-ba07-1abe15a3387c","ios":"levelo://app?vid=57a13db7-4e1e-47f5-ba07-1abe15a3387c"},"vehicle_type_id":"4","last_reported":1724173667,"current_range_meters":18000,"station_id":"ce4bhb92rcd13ifvqen0","pricing_plan_id":"cebpf4jnsgd1na2vs0mg"},{"bike_id":"ffd693be-4333-407d-a479-a5fe186d6223","system_id":"levelo_inurba_marseille","lat":43.290103,"lon":5.356114,"is_reserved":false,"is_disabled":false,"rental_uris":{"android":"levelo://app?vid=ffd693be-4333-407d-a479-a5fe186d6223","ios":"levelo://app?vid=ffd693be-4333-407d-a479-a5fe186d6223"},"vehicle_type_id":"4","last_reported":1724173667,"current_range_meters":24400,"station_id":"ce4bhb92rcd13ifvqen0","pricing_plan_id":"cebpf4jnsgd1na2vs0mg"},{"bike_id":"ebf2ad67-4f88-4baa-b22d-c5d292d43a9b","system_id":"levelo_inurba_marseille","lat":43.290042,"lon":5.356114,"is_reserved":false,"is_disabled":false,"rental_uris":{"android":"levelo://app?vid=ebf2ad67-4f88-4baa-b22d-c5d292d43a9b","ios":"levelo://app?vid=ebf2ad67-4f88-4baa-b22d-c5d292d43a9b"},"vehicle_type_id":"4","last_reported":1724173667,"current_range_meters":5600,"station_id":"ce4bhb92rcd13ifvqen0","pricing_plan_id":"cebpf4jnsgd1na2vs0mg"},{"bike_id":"01ef1292-1eec-426d-9930-985111110ee9","system_id":"levelo_inurba_marseille","lat":43.29004,"lon":5.35611,"is_reserved":false,"is_disabled":false,"rental_uris":{"android":"levelo://app?vid=01ef1292-1eec-426d-9930-985111110ee9","ios":"levelo://app?vid=01ef1292-1eec-426d-9930-985111110ee9"},"vehicle_type_id":"4","last_reported":1724173667,"current_range_meters":0,"station_id":"ce4bhb92rcd13ifvqen0","pricing_plan_id":"cebpf4jnsgd1na2vs0mg"},{"bike_id":"f656febb-b75f-4973-8cd3-f98ccdff0cb6","system_id":"levelo_inurba_marseille","lat":43.290023,"lon":5.356139,"is_reserved":false,"is_disabled":false,"rental_uris":{"android":"levelo://app?vid=f656febb-b75f-4973-8cd3-f98ccdff0cb6","ios":"levelo://app?vid=f656febb-b75f-4973-8cd3-f98ccdff0cb6"},"vehicle_type_id":"4","last_reported":1724173667,"current_range_meters":14800,"station_id":"ce4bhb92rcd13ifvqen0","pricing_plan_id":"cebpf4jnsgd1na2vs0mg"},{"bike_id":"0742d7ff-ad13-48b9-be96-f32e54e4e9fc","system_id":"levelo_inurba_marseille","lat":43.290104,"lon":5.356111,"is_reserved":false,"is_disabled":false,"rental_uris":{"android":"levelo://app?vid=0742d7ff-ad13-48b9-be96-f32e54e4e9fc","ios":"levelo://app?vid=0742d7ff-ad13-48b9-be96-f32e54e4e9fc"},"vehicle_type_id":"4","last_reported":1724173667,"current_range_meters":1600,"station_id":"ce4bhb92rcd13ifvqen0","pricing_plan_id":"cebpf4jnsgd1na2vs0mg"},{"bike_id":"efd8425b-1aa6-4177-bda7-3b0d0eacac54","system_id":"levelo_inurba_marseille","lat":43.290104,"lon":5.356111,"is_reserved":false,"is_disabled":false,"rental_uris":{"android":"levelo://app?vid=efd8425b-1aa6-4177-bda7-3b0d0eacac54","ios":"levelo://app?vid=efd8425b-1aa6-4177-bda7-3b0d0eacac54"},"vehicle_type_id":"4","last_reported":1724173667,"current_range_meters":16000,"station_id":"ce4bhb92rcd13ifvqen0","pricing_plan_id":"cebpf4jnsgd1na2vs0mg"},{"bike_id":"70bb40a3-8673-4103-98cb-5e14703d298c","system_id":"levelo_inurba_marseille","lat":43.290103,"lon":5.356114,"is_reserved":false,"is_disabled":false,"rental_uris":{"android":"levelo://app?vid=70bb40a3-8673-4103-98cb-5e14703d298c","ios":"levelo://app?vid=70bb40a3-8673-4103-98cb-5e14703d298c"},"vehicle_type_id":"4","last_reported":1724173667,"current_range_meters":21600,"station_id":"ce4bhb92rcd13ifvqen0","pricing_plan_id":"cebpf4jnsgd1na2vs0mg"},{"bike_id":"75022aea-c701-4036-affc-3a007ce7fcf5","system_id":"levelo_inurba_marseille","lat":43.29002,"lon":5.3561,"is_reserved":false,"is_disabled":false,"rental_uris":{"android":"levelo://app?vid=75022aea-c701-4036-affc-3a007ce7fcf5","ios":"levelo://app?vid=75022aea-c701-4036-affc-3a007ce7fcf5"},"vehicle_type_id":"4","last_reported":1724173667,"current_range_meters":4800,"station_id":"ce4bhb92rcd13ifvqen0","pricing_plan_id":"cebpf4jnsgd1na2vs0mg"},{"bike_id":"d8344b96-a823-4858-8098-d0a1ed2399e4","system_id":"levelo_inurba_marseille","lat":43.290103,"lon":5.356114,"is_reserved":false,"is_disabled":false,"rental_uris":{"android":"levelo://app?vid=d8344b96-a823-4858-8098-d0a1ed2399e4","ios":"levelo://app?vid=d8344b96-a823-4858-8098-d0a1ed2399e4"},"vehicle_type_id":"4","last_reported":1724173667,"current_range_meters":28800,"station_id":"ce4bhb92rcd13ifvqen0","pricing_plan_id":"cebpf4jnsgd1na2vs0mg"},{"bike_id":"93a53360-fd42-404d-b1f3-d4daab446d5c","system_id":"levelo_inurba_marseille","lat":43.290103,"lon":5.356114,"is_reserved":false,"is_disabled":false,"rental_uris":{"android":"levelo://app?vid=93a53360-fd42-404d-b1f3-d4daab446d5c","ios":"levelo://app?vid=93a53360-fd42-404d-b1f3-d4daab446d5c"},"vehicle_type_id":"4","last_reported":1724173667,"current_range_meters":15600,"station_id":"ce4bhb92rcd13ifvqen0","pricing_plan_id":"cebpf4jnsgd1na2vs0mg"},{"bike_id":"f1179e3c-1b36-4575-a7a6-deaaa66b2896","system_id":"levelo_inurba_marseille","lat":43.29002,"lon":5.35604,"is_reserved":false,"is_disabled":false,"rental_uris":{"android":"levelo://app?vid=f1179e3c-1b36-4575-a7a6-deaaa66b2896","ios":"levelo://app?vid=f1179e3c-1b36-4575-a7a6-deaaa66b2896"},"vehicle_type_id":"4","last_reported":1724173667,"current_range_meters":28800,"station_id":"ce4bhb92rcd13ifvqen0","pricing_plan_id":"cebpf4jnsgd1na2vs0mg"},{"bike_id":"ca71b538-3e40-48c8-aa9e-3159f0aa8545","system_id":"levelo_inurba_marseille","lat":43.292643,"lon":5.385453,"is_reserved":false,"is_disabled":false,"rental_uris":{"android":"levelo://app?vid=ca71b538-3e40-48c8-aa9e-3159f0aa8545","ios":"levelo://app?vid=ca71b538-3e40-48c8-aa9e-3159f0aa8545"},"vehicle_type_id":"4","last_reported":1724173667,"current_range_meters":2800,"station_id":"ce4bh2h2rcd13ifvqdh0","pricing_plan_id":"cebpf4jnsgd1na2vs0mg"},{"bike_id":"ea3cd257-2fce-465f-9705-c88d268aa8c7","system_id":"levelo_inurba_marseille","lat":43.295169,"lon":5.390426,"is_reserved":false,"is_disabled":false,"rental_uris":{"android":"levelo://app?vid=ea3cd257-2fce-465f-9705-c88d268aa8c7","ios":"levelo://app?vid=ea3cd257-2fce-465f-9705-c88d268aa8c7"},"vehicle_type_id":"4","last_reported":1724173667,"current_range_meters":30000,"station_id":"ce4bh3p2rcd13ifvqdp0","pricing_plan_id":"cebpf4jnsgd1na2vs0mg"},{"bike_id":"e1b02bac-4f91-4c87-8778-8645383b0efa","system_id":"levelo_inurba_marseille","lat":43.290995,"lon":5.381361,"is_reserved":false,"is_disabled":false,"rental_uris":{"android":"levelo://app?vid=e1b02bac-4f91-4c87-8778-8645383b0efa","ios":"levelo://app?vid=e1b02bac-4f91-4c87-8778-8645383b0efa"},"vehicle_type_id":"4","last_reported":1724173667,"current_range_meters":16000,"station_id":"ce4bh512rcd13ifvqe2g","pricing_plan_id":"cebpf4jnsgd1na2vs0mg"},{"bike_id":"65cf6a5a-9a22-4acb-81fc-c8d94ca3b653","system_id":"levelo_inurba_marseille","lat":43.297815,"lon":5.393548,"is_reserved":false,"is_disabled":false,"rental_uris":{"android":"levelo://app?vid=65cf6a5a-9a22-4acb-81fc-c8d94ca3b653","ios":"levelo://app?vid=65cf6a5a-9a22-4acb-81fc-c8d94ca3b653"},"vehicle_type_id":"4","last_reported":1724173667,"current_range_meters":1200,"station_id":"chh1huq6cuj3fo74tm60","pricing_plan_id":"cebpf4jnsgd1na2vs0mg"},{"bike_id":"6cf748a9-0335-49b7-9fee-6dea8b62f816","system_id":"levelo_inurba_marseille","lat":43.297807,"lon":5.393533,"is_reserved":false,"is_disabled":false,"rental_uris":{"android":"levelo://app?vid=6cf748a9-0335-49b7-9fee-6dea8b62f816","ios":"levelo://app?vid=6cf748a9-0335-49b7-9fee-6dea8b62f816"},"vehicle_type_id":"4","last_reported":1724173667,"current_range_meters":25200,"station_id":"chh1huq6cuj3fo74tm60","pricing_plan_id":"cebpf4jnsgd1na2vs0mg"},{"bike_id":"e1f04f09-7960-4406-82cd-ce69278dc4a8","system_id":"levelo_inurba_marseille","lat":43.295169,"lon":5.390426,"is_reserved":false,"is_disabled":false,"rental_uris":{"android":"levelo://app?vid=e1f04f09-7960-4406-82cd-ce69278dc4a8","ios":"levelo://app?vid=e1f04f09-7960-4406-82cd-ce69278dc4a8"},"vehicle_type_id":"4","last_reported":1724173667,"current_range_meters":0,"station_id":"ce4bh3p2rcd13ifvqdp0","pricing_plan_id":"cebpf4jnsgd1na2vs0mg"},{"bike_id":"e43af8a0-df23-4f40-8f5b-ade43032b391","system_id":"levelo_inurba_marseille","lat":43.330213,"lon":5.390383,"is_reserved":false,"is_disabled":false,"rental_uris":{"android":"levelo://app?vid=e43af8a0-df23-4f40-8f5b-ade43032b391","ios":"levelo://app?vid=e43af8a0-df23-4f40-8f5b-ade43032b391"},"vehicle_type_id":"4","last_reported":1724173667,"current_range_meters":13200,"station_id":"ce4bhr92rcd13ifvqhrg","pricing_plan_id":"cebpf4jnsgd1na2vs0mg"},{"bike_id":"eac3dc24-3885-454a-9429-d9d72f90a314","system_id":"levelo_inurba_marseille","lat":43.33024,"lon":5.39035,"is_reserved":false,"is_disabled":false,"rental_uris":{"android":"levelo://app?vid=eac3dc24-3885-454a-9429-d9d72f90a314","ios":"levelo://app?vid=eac3dc24-3885-454a-9429-d9d72f90a314"},"vehicle_type_id":"4","last_reported":1724173667,"current_range_meters":6000,"station_id":"ce4bhr92rcd13ifvqhrg","pricing_plan_id":"cebpf4jnsgd1na2vs0mg"},{"bike_id":"23a2dbd8-ac17-4805-98bf-497b37d6c45a","system_id":"levelo_inurba_marseille","lat":43.330442,"lon":5.389148,"is_reserved":false,"is_disabled":false,"rental_uris":{"android":"levelo://app?vid=23a2dbd8-ac17-4805-98bf-497b37d6c45a","ios":"levelo://app?vid=23a2dbd8-ac17-4805-98bf-497b37d6c45a"},"vehicle_type_id":"4","last_reported":1724173667,"current_range_meters":31600,"station_id":"ce4bhr92rcd13ifvqhrg","pricing_plan_id":"cebpf4jnsgd1na2vs0mg"},{"bike_id":"799e924e-0a54-4209-8eae-eb9a5353ce0b","system_id":"levelo_inurba_marseille","lat":43.330442,"lon":5.389148,"is_reserved":false,"is_disabled":false,"rental_uris":{"android":"levelo://app?vid=799e924e-0a54-4209-8eae-eb9a5353ce0b","ios":"levelo://app?vid=799e924e-0a54-4209-8eae-eb9a5353ce0b"},"vehicle_type_id":"4","last_reported":1724173667,"current_range_meters":30000,"station_id":"ce4bhr92rcd13ifvqhrg","pricing_plan_id":"cebpf4jnsgd1na2vs0mg"},{"bike_id":"f55c0c62-44de-4598-867e-f4c3b1e15739","system_id":"levelo_inurba_marseille","lat":43.330442,"lon":5.389148,"is_reserved":false,"is_disabled":false,"rental_uris":{"android":"levelo://app?vid=f55c0c62-44de-4598-867e-f4c3b1e15739","ios":"levelo://app?vid=f55c0c62-44de-4598-867e-f4c3b1e15739"},"vehicle_type_id":"4","last_reported":1724173667,"current_range_meters":8000,"station_id":"ce4bhr92rcd13ifvqhrg","pricing_plan_id":"cebpf4jnsgd1na2vs0mg"},{"bike_id":"f8c881df-3d60-4edd-acff-87f8049ea2fb","system_id":"levelo_inurba_marseille","lat":43.33027,"lon":5.39044,"is_reserved":false,"is_disabled":false,"rental_uris":{"android":"levelo://app?vid=f8c881df-3d60-4edd-acff-87f8049ea2fb","ios":"levelo://app?vid=f8c881df-3d60-4edd-acff-87f8049ea2fb"},"vehicle_type_id":"4","last_reported":1724173667,"current_range_meters":800,"station_id":"ce4bhr92rcd13ifvqhrg","pricing_plan_id":"cebpf4jnsgd1na2vs0mg"},{"bike_id":"834b0da3-1470-4fd8-b625-ecf24c23b1b0","system_id":"levelo_inurba_marseille","lat":43.295169,"lon":5.390426,"is_reserved":false,"is_disabled":false,"rental_uris":{"android":"levelo://app?vid=834b0da3-1470-4fd8-b625-ecf24c23b1b0","ios":"levelo://app?vid=834b0da3-1470-4fd8-b625-ecf24c23b1b0"},"vehicle_type_id":"4","last_reported":1724173667,"current_range_meters":14000,"station_id":"ce4bh3p2rcd13ifvqdp0","pricing_plan_id":"cebpf4jnsgd1na2vs0mg"},{"bike_id":"70fa8353-508a-4597-88ef-5bef81202d68","system_id":"levelo_inurba_marseille","lat":43.297815,"lon":5.393548,"is_reserved":false,"is_disabled":false,"rental_uris":{"android":"levelo://app?vid=70fa8353-508a-4597-88ef-5bef81202d68","ios":"levelo://app?vid=70fa8353-508a-4597-88ef-5bef81202d68"},"vehicle_type_id":"4","last_reported":1724173667,"current_range_meters":22000,"station_id":"chh1huq6cuj3fo74tm60","pricing_plan_id":"cebpf4jnsgd1na2vs0mg"},{"bike_id":"c651c81a-d83a-484b-932c-fe4d02f0f0a1","system_id":"levelo_inurba_marseille","lat":43.330442,"lon":5.389148,"is_reserved":false,"is_disabled":false,"rental_uris":{"android":"levelo://app?vid=c651c81a-d83a-484b-932c-fe4d02f0f0a1","ios":"levelo://app?vid=c651c81a-d83a-484b-932c-fe4d02f0f0a1"},"vehicle_type_id":"4","last_reported":1724173667,"current_range_meters":7600,"station_id":"ce4bhr92rcd13ifvqhrg","pricing_plan_id":"cebpf4jnsgd1na2vs0mg"},{"bike_id":"a2ba4d21-57ed-4b76-9a88-a343bd0aff59","system_id":"levelo_inurba_marseille","lat":43.2901,"lon":5.381269,"is_reserved":false,"is_disabled":false,"rental_uris":{"android":"levelo://app?vid=a2ba4d21-57ed-4b76-9a88-a343bd0aff59","ios":"levelo://app?vid=a2ba4d21-57ed-4b76-9a88-a343bd0aff59"},"vehicle_type_id":"4","last_reported":1724173667,"current_range_meters":14800,"station_id":"ce4bh4p2rcd13ifvqe1g","pricing_plan_id":"cebpf4jnsgd1na2vs0mg"},{"bike_id":"cbb88ae1-81c8-4565-98fc-b9eb562f06de","system_id":"levelo_inurba_marseille","lat":43.290094,"lon":5.381264,"is_reserved":false,"is_disabled":false,"rental_uris":{"android":"levelo://app?vid=cbb88ae1-81c8-4565-98fc-b9eb562f06de","ios":"levelo://app?vid=cbb88ae1-81c8-4565-98fc-b9eb562f06de"},"vehicle_type_id":"4","last_reported":1724173667,"current_range_meters":0,"station_id":"ce4bh4p2rcd13ifvqe1g","pricing_plan_id":"cebpf4jnsgd1na2vs0mg"},{"bike_id":"98a4f985-bd1f-4549-97d0-dbcf40e9db1b","system_id":"levelo_inurba_marseille","lat":43.31152,"lon":5.401,"is_reserved":false,"is_disabled":false,"rental_uris":{"android":"levelo://app?vid=98a4f985-bd1f-4549-97d0-dbcf40e9db1b","ios":"levelo://app?vid=98a4f985-bd1f-4549-97d0-dbcf40e9db1b"},"vehicle_type_id":"4","last_reported":1724173667,"current_range_meters":15200,"station_id":"","pricing_plan_id":"cebpf4jnsgd1na2vs0mg"},{"bike_id":"9be44133-2e87-477e-a2d3-a164d4a5485a","system_id":"levelo_inurba_marseille","lat":43.310717,"lon":5.400983,"is_reserved":false,"is_disabled":false,"rental_uris":{"android":"levelo://app?vid=9be44133-2e87-477e-a2d3-a164d4a5485a","ios":"levelo://app?vid=9be44133-2e87-477e-a2d3-a164d4a5485a"},"vehicle_type_id":"4","last_reported":1724173667,"current_range_meters":25600,"station_id":"","pricing_plan_id":"cebpf4jnsgd1na2vs0mg"},{"bike_id":"b217e19f-f8af-47a5-b839-dbb87c28c0e3","system_id":"levelo_inurba_marseille","lat":43.28856,"lon":5.358371,"is_reserved":false,"is_disabled":false,"rental_uris":{"android":"levelo://app?vid=b217e19f-f8af-47a5-b839-dbb87c28c0e3","ios":"levelo://app?vid=b217e19f-f8af-47a5-b839-dbb87c28c0e3"},"vehicle_type_id":"4","last_reported":1724173667,"current_range_meters":0,"station_id":"ce4bhb12rcd13ifvqem0","pricing_plan_id":"cebpf4jnsgd1na2vs0mg"},{"bike_id":"ec4e460e-00ba-4c5a-942e-442f3d7c49ff","system_id":"levelo_inurba_marseille","lat":43.2886,"lon":5.3586,"is_reserved":false,"is_disabled":false,"rental_uris":{"android":"levelo://app?vid=ec4e460e-00ba-4c5a-942e-442f3d7c49ff","ios":"levelo://app?vid=ec4e460e-00ba-4c5a-942e-442f3d7c49ff"},"vehicle_type_id":"4","last_reported":1724173667,"current_range_meters":0,"station_id":"ce4bhb12rcd13ifvqem0","pricing_plan_id":"cebpf4jnsgd1na2vs0mg"},{"bike_id":"f501bbc0-2fa0-4e98-94eb-81027c4cb5ce","system_id":"levelo_inurba_marseille","lat":43.28856,"lon":5.35855,"is_reserved":false,"is_disabled":false,"rental_uris":{"android":"levelo://app?vid=f501bbc0-2fa0-4e98-94eb-81027c4cb5ce","ios":"levelo://app?vid=f501bbc0-2fa0-4e98-94eb-81027c4cb5ce"},"vehicle_type_id":"4","last_reported":1724173667,"current_range_meters":18000,"station_id":"ce4bhb12rcd13ifvqem0","pricing_plan_id":"cebpf4jnsgd1na2vs0mg"},{"bike_id":"24aa5de5-b7a8-41e8-ad01-fab689efdfff","system_id":"levelo_inurba_marseille","lat":43.288539,"lon":5.35848,"is_reserved":false,"is_disabled":false,"rental_uris":{"android":"levelo://app?vid=24aa5de5-b7a8-41e8-ad01-fab689efdfff","ios":"levelo://app?vid=24aa5de5-b7a8-41e8-ad01-fab689efdfff"},"vehicle_type_id":"4","last_reported":1724173667,"current_range_meters":1200,"station_id":"","pricing_plan_id":"cebpf4jnsgd1na2vs0mg"},{"bike_id":"ecbbf04f-f3d9-4c9d-b3f5-d6bdcaa69a07","system_id":"levelo_inurba_marseille","lat":43.28852,"lon":5.35842,"is_reserved":false,"is_disabled":false,"rental_uris":{"android":"levelo://app?vid=ecbbf04f-f3d9-4c9d-b3f5-d6bdcaa69a07","ios":"levelo://app?vid=ecbbf04f-f3d9-4c9d-b3f5-d6bdcaa69a07"},"vehicle_type_id":"4","last_reported":1724173667,"current_range_meters":4800,"station_id":"ce4bhb12rcd13ifvqem0","pricing_plan_id":"cebpf4jnsgd1na2vs0mg"},{"bike_id":"416d049e-823f-4153-8888-cf7bb8bfc662","system_id":"levelo_inurba_marseille","lat":43.2885,"lon":5.35852,"is_reserved":false,"is_disabled":false,"rental_uris":{"android":"levelo://app?vid=416d049e-823f-4153-8888-cf7bb8bfc662","ios":"levelo://app?vid=416d049e-823f-4153-8888-cf7bb8bfc662"},"vehicle_type_id":"4","last_reported":1724173667,"current_range_meters":15200,"station_id":"ce4bhb12rcd13ifvqem0","pricing_plan_id":"cebpf4jnsgd1na2vs0mg"},{"bike_id":"85488a84-9aa2-463e-ad7b-774d926562f0","system_id":"levelo_inurba_marseille","lat":43.28856,"lon":5.358371,"is_reserved":false,"is_disabled":false,"rental_uris":{"android":"levelo://app?vid=85488a84-9aa2-463e-ad7b-774d926562f0","ios":"levelo://app?vid=85488a84-9aa2-463e-ad7b-774d926562f0"},"vehicle_type_id":"4","last_reported":1724173667,"current_range_meters":11600,"station_id":"ce4bhb12rcd13ifvqem0","pricing_plan_id":"cebpf4jnsgd1na2vs0mg"},{"bike_id":"526c7533-3d34-48d5-a822-a3bdfbbd1cf2","system_id":"levelo_inurba_marseille","lat":43.28847,"lon":5.35854,"is_reserved":false,"is_disabled":false,"rental_uris":{"android":"levelo://app?vid=526c7533-3d34-48d5-a822-a3bdfbbd1cf2","ios":"levelo://app?vid=526c7533-3d34-48d5-a822-a3bdfbbd1cf2"},"vehicle_type_id":"4","last_reported":1724173667,"current_range_meters":13200,"station_id":"ce4bhb12rcd13ifvqem0","pricing_plan_id":"cebpf4jnsgd1na2vs0mg"},{"bike_id":"fb5c46aa-0567-4827-8b90-1ea150c6edd4","system_id":"levelo_inurba_marseille","lat":43.28847,"lon":5.35852,"is_reserved":false,"is_disabled":false,"rental_uris":{"android":"levelo://app?vid=fb5c46aa-0567-4827-8b90-1ea150c6edd4","ios":"levelo://app?vid=fb5c46aa-0567-4827-8b90-1ea150c6edd4"},"vehicle_type_id":"4","last_reported":1724173667,"current_range_meters":3600,"station_id":"ce4bhb12rcd13ifvqem0","pricing_plan_id":"cebpf4jnsgd1na2vs0mg"},{"bike_id":"b6593b0b-a66b-4b53-bdee-edfa4450c338","system_id":"levelo_inurba_marseille","lat":43.28845,"lon":5.35846,"is_reserved":false,"is_disabled":false,"rental_uris":{"android":"levelo://app?vid=b6593b0b-a66b-4b53-bdee-edfa4450c338","ios":"levelo://app?vid=b6593b0b-a66b-4b53-bdee-edfa4450c338"},"vehicle_type_id":"4","last_reported":1724173667,"current_range_meters":8000,"station_id":"ce4bhb12rcd13ifvqem0","pricing_plan_id":"cebpf4jnsgd1na2vs0mg"},{"bike_id":"d5c9d12a-eac9-4c3b-9d95-ea4ff1f0d883","system_id":"levelo_inurba_marseille","lat":43.28843,"lon":5.35856,"is_reserved":false,"is_disabled":false,"rental_uris":{"android":"levelo://app?vid=d5c9d12a-eac9-4c3b-9d95-ea4ff1f0d883","ios":"levelo://app?vid=d5c9d12a-eac9-4c3b-9d95-ea4ff1f0d883"},"vehicle_type_id":"4","last_reported":1724173667,"current_range_meters":14000,"station_id":"ce4bhb12rcd13ifvqem0","pricing_plan_id":"cebpf4jnsgd1na2vs0mg"},{"bike_id":"7c8dd1cd-388b-4b2a-bedc-8c6e98b7f0ff","system_id":"levelo_inurba_marseille","lat":43.28856,"lon":5.358371,"is_reserved":false,"is_disabled":false,"rental_uris":{"android":"levelo://app?vid=7c8dd1cd-388b-4b2a-bedc-8c6e98b7f0ff","ios":"levelo://app?vid=7c8dd1cd-388b-4b2a-bedc-8c6e98b7f0ff"},"vehicle_type_id":"4","last_reported":1724173667,"current_range_meters":10800,"station_id":"ce4bhb12rcd13ifvqem0","pricing_plan_id":"cebpf4jnsgd1na2vs0mg"},{"bike_id":"7c05dabf-81a3-440e-84ce-86aa4e266c4e","system_id":"levelo_inurba_marseille","lat":43.28856,"lon":5.358371,"is_reserved":false,"is_disabled":false,"rental_uris":{"android":"levelo://app?vid=7c05dabf-81a3-440e-84ce-86aa4e266c4e","ios":"levelo://app?vid=7c05dabf-81a3-440e-84ce-86aa4e266c4e"},"vehicle_type_id":"4","last_reported":1724173667,"current_range_meters":16400,"station_id":"ce4bhb12rcd13ifvqem0","pricing_plan_id":"cebpf4jnsgd1na2vs0mg"},{"bike_id":"a28fa02a-7e7a-49b3-a8f0-eabff517a560","system_id":"levelo_inurba_marseille","lat":43.28839,"lon":5.35844,"is_reserved":false,"is_disabled":false,"rental_uris":{"android":"levelo://app?vid=a28fa02a-7e7a-49b3-a8f0-eabff517a560","ios":"levelo://app?vid=a28fa02a-7e7a-49b3-a8f0-eabff517a560"},"vehicle_type_id":"4","last_reported":1724173667,"current_range_meters":0,"station_id":"ce4bhb12rcd13ifvqem0","pricing_plan_id":"cebpf4jnsgd1na2vs0mg"},{"bike_id":"5d65beae-7574-4054-bb46-90c33743da83","system_id":"levelo_inurba_marseille","lat":43.312609,"lon":5.401662,"is_reserved":false,"is_disabled":false,"rental_uris":{"android":"levelo://app?vid=5d65beae-7574-4054-bb46-90c33743da83","ios":"levelo://app?vid=5d65beae-7574-4054-bb46-90c33743da83"},"vehicle_type_id":"4","last_reported":1724173667,"current_range_meters":26800,"station_id":"ce4bh092rcd13ifvqd30","pricing_plan_id":"cebpf4jnsgd1na2vs0mg"},{"bike_id":"fa51321d-b50b-48fe-8370-dec8585ba970","system_id":"levelo_inurba_marseille","lat":43.309371,"lon":5.401449,"is_reserved":false,"is_disabled":false,"rental_uris":{"android":"levelo://app?vid=fa51321d-b50b-48fe-8370-dec8585ba970","ios":"levelo://app?vid=fa51321d-b50b-48fe-8370-dec8585ba970"},"vehicle_type_id":"4","last_reported":1724173667,"current_range_meters":8400,"station_id":"ce4bgvp2rcd13ifvqct0","pricing_plan_id":"cebpf4jnsgd1na2vs0mg"},{"bike_id":"a1aceb42-0343-4c91-8bfc-56cd12609b9b","system_id":"levelo_inurba_marseille","lat":43.309371,"lon":5.401449,"is_reserved":false,"is_disabled":false,"rental_uris":{"android":"levelo://app?vid=a1aceb42-0343-4c91-8bfc-56cd12609b9b","ios":"levelo://app?vid=a1aceb42-0343-4c91-8bfc-56cd12609b9b"},"vehicle_type_id":"4","last_reported":1724173667,"current_range_meters":4800,"station_id":"ce4bgvp2rcd13ifvqct0","pricing_plan_id":"cebpf4jnsgd1na2vs0mg"},{"bike_id":"9c458164-51ba-4896-bcd9-0fc7c92cf6af","system_id":"levelo_inurba_marseille","lat":43.30934,"lon":5.40148,"is_reserved":false,"is_disabled":false,"rental_uris":{"android":"levelo://app?vid=9c458164-51ba-4896-bcd9-0fc7c92cf6af","ios":"levelo://app?vid=9c458164-51ba-4896-bcd9-0fc7c92cf6af"},"vehicle_type_id":"4","last_reported":1724173667,"current_range_meters":3600,"station_id":"ce4bgvp2rcd13ifvqct0","pricing_plan_id":"cebpf4jnsgd1na2vs0mg"},{"bike_id":"5dbf9634-ff0f-4171-98ba-8cfafadde31c","system_id":"levelo_inurba_marseille","lat":43.309371,"lon":5.401449,"is_reserved":false,"is_disabled":false,"rental_uris":{"android":"levelo://app?vid=5dbf9634-ff0f-4171-98ba-8cfafadde31c","ios":"levelo://app?vid=5dbf9634-ff0f-4171-98ba-8cfafadde31c"},"vehicle_type_id":"4","last_reported":1724173667,"current_range_meters":5600,"station_id":"ce4bgvp2rcd13ifvqct0","pricing_plan_id":"cebpf4jnsgd1na2vs0mg"},{"bike_id":"cef9c644-b09b-422f-815c-40a8cf53b361","system_id":"levelo_inurba_marseille","lat":43.301285,"lon":5.398235,"is_reserved":false,"is_disabled":false,"rental_uris":{"android":"levelo://app?vid=cef9c644-b09b-422f-815c-40a8cf53b361","ios":"levelo://app?vid=cef9c644-b09b-422f-815c-40a8cf53b361"},"vehicle_type_id":"4","last_reported":1724173667,"current_range_meters":0,"station_id":"ce4bh0h2rcd13ifvqd40","pricing_plan_id":"cebpf4jnsgd1na2vs0mg"},{"bike_id":"4e92732a-e45c-4f5b-a688-55c2e9f8f861","system_id":"levelo_inurba_marseille","lat":43.30642,"lon":5.401031,"is_reserved":false,"is_disabled":false,"rental_uris":{"android":"levelo://app?vid=4e92732a-e45c-4f5b-a688-55c2e9f8f861","ios":"levelo://app?vid=4e92732a-e45c-4f5b-a688-55c2e9f8f861"},"vehicle_type_id":"4","last_reported":1724173667,"current_range_meters":9200,"station_id":"ce4bh112rcd13ifvqda0","pricing_plan_id":"cebpf4jnsgd1na2vs0mg"},{"bike_id":"ba5a839b-1c51-4c9e-9479-85615ce4b7ce","system_id":"levelo_inurba_marseille","lat":43.306412,"lon":5.401035,"is_reserved":false,"is_disabled":false,"rental_uris":{"android":"levelo://app?vid=ba5a839b-1c51-4c9e-9479-85615ce4b7ce","ios":"levelo://app?vid=ba5a839b-1c51-4c9e-9479-85615ce4b7ce"},"vehicle_type_id":"4","last_reported":1724173667,"current_range_meters":8400,"station_id":"ce4bh112rcd13ifvqda0","pricing_plan_id":"cebpf4jnsgd1na2vs0mg"},{"bike_id":"1b249db9-d6c3-4198-9607-e8bf575b76f6","system_id":"levelo_inurba_marseille","lat":43.30642,"lon":5.401031,"is_reserved":false,"is_disabled":false,"rental_uris":{"android":"levelo://app?vid=1b249db9-d6c3-4198-9607-e8bf575b76f6","ios":"levelo://app?vid=1b249db9-d6c3-4198-9607-e8bf575b76f6"},"vehicle_type_id":"4","last_reported":1724173667,"current_range_meters":2400,"station_id":"ce4bh112rcd13ifvqda0","pricing_plan_id":"cebpf4jnsgd1na2vs0mg"},{"bike_id":"91d0a867-e126-4114-b9d7-b3628eec4a60","system_id":"levelo_inurba_marseille","lat":43.30642,"lon":5.401031,"is_reserved":false,"is_disabled":false,"rental_uris":{"android":"levelo://app?vid=91d0a867-e126-4114-b9d7-b3628eec4a60","ios":"levelo://app?vid=91d0a867-e126-4114-b9d7-b3628eec4a60"},"vehicle_type_id":"4","last_reported":1724173667,"current_range_meters":17600,"station_id":"ce4bh112rcd13ifvqda0","pricing_plan_id":"cebpf4jnsgd1na2vs0mg"},{"bike_id":"f46d551b-b24c-4054-9b3e-da8db2db6d62","system_id":"levelo_inurba_marseille","lat":43.30135,"lon":5.39864,"is_reserved":false,"is_disabled":false,"rental_uris":{"android":"levelo://app?vid=f46d551b-b24c-4054-9b3e-da8db2db6d62","ios":"levelo://app?vid=f46d551b-b24c-4054-9b3e-da8db2db6d62"},"vehicle_type_id":"4","last_reported":1724173667,"current_range_meters":0,"station_id":"ce4bh0h2rcd13ifvqd40","pricing_plan_id":"cebpf4jnsgd1na2vs0mg"},{"bike_id":"a0788642-d861-42cd-8c7a-e03b12e4e0f1","system_id":"levelo_inurba_marseille","lat":43.30131,"lon":5.39867,"is_reserved":false,"is_disabled":false,"rental_uris":{"android":"levelo://app?vid=a0788642-d861-42cd-8c7a-e03b12e4e0f1","ios":"levelo://app?vid=a0788642-d861-42cd-8c7a-e03b12e4e0f1"},"vehicle_type_id":"4","last_reported":1724173667,"current_range_meters":6000,"station_id":"ce4bh0h2rcd13ifvqd40","pricing_plan_id":"cebpf4jnsgd1na2vs0mg"},{"bike_id":"e6f7814e-e172-4e29-9d19-ad60045143f2","system_id":"levelo_inurba_marseille","lat":43.30134,"lon":5.3987,"is_reserved":false,"is_disabled":false,"rental_uris":{"android":"levelo://app?vid=e6f7814e-e172-4e29-9d19-ad60045143f2","ios":"levelo://app?vid=e6f7814e-e172-4e29-9d19-ad60045143f2"},"vehicle_type_id":"4","last_reported":1724173667,"current_range_meters":0,"station_id":"ce4bh0h2rcd13ifvqd40","pricing_plan_id":"cebpf4jnsgd1na2vs0mg"},{"bike_id":"ec7047e7-34fa-475b-846a-7d1a2571950d","system_id":"levelo_inurba_marseille","lat":43.30132,"lon":5.39876,"is_reserved":false,"is_disabled":false,"rental_uris":{"android":"levelo://app?vid=ec7047e7-34fa-475b-846a-7d1a2571950d","ios":"levelo://app?vid=ec7047e7-34fa-475b-846a-7d1a2571950d"},"vehicle_type_id":"4","last_reported":1724173667,"current_range_meters":0,"station_id":"ce4bh0h2rcd13ifvqd40","pricing_plan_id":"cebpf4jnsgd1na2vs0mg"},{"bike_id":"e326fc4a-1ff2-48aa-b82b-5ef67fecbf3d","system_id":"levelo_inurba_marseille","lat":43.298681,"lon":5.397225,"is_reserved":false,"is_disabled":false,"rental_uris":{"android":"levelo://app?vid=e326fc4a-1ff2-48aa-b82b-5ef67fecbf3d","ios":"levelo://app?vid=e326fc4a-1ff2-48aa-b82b-5ef67fecbf3d"},"vehicle_type_id":"4","last_reported":1724173667,"current_range_meters":26400,"station_id":"ce4bh0h2rcd13ifvqd50","pricing_plan_id":"cebpf4jnsgd1na2vs0mg"},{"bike_id":"2e6898da-2571-4260-881f-4bc6cc90f32f","system_id":"levelo_inurba_marseille","lat":43.286591,"lon":5.363346,"is_reserved":false,"is_disabled":false,"rental_uris":{"android":"levelo://app?vid=2e6898da-2571-4260-881f-4bc6cc90f32f","ios":"levelo://app?vid=2e6898da-2571-4260-881f-4bc6cc90f32f"},"vehicle_type_id":"4","last_reported":1724173667,"current_range_meters":400,"station_id":"ce4bhah2rcd13ifvqej0","pricing_plan_id":"cebpf4jnsgd1na2vs0mg"},{"bike_id":"ddb519ed-8ce2-4c08-8fd9-38779114893f","system_id":"levelo_inurba_marseille","lat":43.286593,"lon":5.363346,"is_reserved":false,"is_disabled":false,"rental_uris":{"android":"levelo://app?vid=ddb519ed-8ce2-4c08-8fd9-38779114893f","ios":"levelo://app?vid=ddb519ed-8ce2-4c08-8fd9-38779114893f"},"vehicle_type_id":"4","last_reported":1724173667,"current_range_meters":19200,"station_id":"ce4bhah2rcd13ifvqej0","pricing_plan_id":"cebpf4jnsgd1na2vs0mg"},