{"last_updated":1741385209,"ttl":60,"version":"2.2","data":{"bikes":[{"bike_id":"84fd8a9d-d33c-4402-bbe4-001e62a7f660","system_id":"levelo_inurba_marseille","lat":43.26645,"lon":5.39883,"is_reserved":false,"is_disabled":false,"rental_uris":{"android":"levelo://app?vid=84fd8a9d-d33c-4402-bbe4-001e62a7f660","ios":"levelo://app?vid=84fd8a9d-d33c-4402-bbe4-001e62a7f660"},"vehicle_type_id":"4","last_reported":1741385209,"current_range_meters":2800,"station_id":"","pricing_plan_id":"cebpf4jnsgd1na2vs0mg"},{"bike_id":"3bd80eb0-a983-4a0f-8be1-ea51e16e3356","system_id":"levelo_inurba_marseille","lat":43.26225,"lon":5.40444,"is_reserved":false,"is_disabled":false,"rental_uris":{"android":"levelo://app?vid=3bd80eb0-a983-4a0f-8be1-ea51e16e3356","ios":"levelo://app?vid=3bd80eb0-a983-4a0f-8be1-ea51e16e3356"},"vehicle_type_id":"4","last_reported":1741385209,"current_range_meters":2800,"station_id":"ce4bhmh2rcd13ifvqgmg","pricing_plan_id":"cebpf4jnsgd1na2vs0mg"},{"bike_id":"c2a8d3f6-815a-4b43-8583-521545be73db","system_id":"levelo_inurba_marseille","lat":43.25574,"lon":5.38229,"is_reserved":false,"is_disabled":false,"rental_uris":{"android":"levelo://app?vid=c2a8d3f6-815a-4b43-8583-521545be73db","ios":"levelo://app?vid=c2a8d3f6-815a-4b43-8583-521545be73db"},"vehicle_type_id":"4","last_reported":1741385209,"current_range_meters":3200,"station_id":"ce4bhih2rcd13ifvqfs0","pricing_plan_id":"cebpf4jnsgd1na2vs0mg"},{"bike_id":"d572b633-d5af-4df0-87b8-0a5b1819b02b","system_id":"levelo_inurba_marseille","lat":43.24177,"lon":5.39734,"is_reserved":false,"is_disabled":true,"rental_uris":{"android":"levelo://app?vid=d572b633-d5af-4df0-87b8-0a5b1819b02b","ios":"levelo://app?vid=d572b633-d5af-4df0-87b8-0a5b1819b02b"},"vehicle_type_id":"4","last_reported":1741385209,"current_range_meters":3200,"station_id":"ce4bhn12rcd13ifvqgpg","pricing_plan_id":"cebpf4jnsgd1na2vs0mg"},{"bike_id":"20d4a8f5-db36-4f59-aca3-ceecf7ec512e","system_id":"levelo_inurba_marseille","lat":43.28672,"lon":5.38552,"is_reserved":false,"is_disabled":false,"rental_uris":{"android":"levelo://app?vid=20d4a8f5-db36-4f59-aca3-ceecf7ec512e","ios":"levelo://app?vid=20d4a8f5-db36-4f59-aca3-ceecf7ec512e"},"vehicle_type_id":"4","last_reported":1741385209,"current_range_meters":3600,"station_id":"","pricing_plan_id":"cebpf4jnsgd1na2vs0mg"},{"bike_id":"b53e9f16-5927-45e7-8046-218d7fdf68eb","system_id":"levelo_inurba_marseille","lat":43.290194,"lon":5.386339,"is_reserved":false,"is_disabled":false,"rental_uris":{"android":"levelo://app?vid=b53e9f16-5927-45e7-8046-218d7fdf68eb","ios":"levelo://app?vid=b53e9f16-5927-45e7-8046-218d7fdf68eb"},"vehicle_type_id":"4","last_reported":1741385209,"current_range_meters":3600,"station_id":"ce4bh4p2rcd13ifvqe0g","pricing_plan_id":"cebpf4jnsgd1na2vs0mg"},{"bike_id":"de10dad3-cc48-400a-922c-cca5bf1a3a20","system_id":"levelo_inurba_marseille","lat":43.29938,"lon":5.38831,"is_reserved":false,"is_disabled":true,"rental_uris":{"android":"levelo://app?vid=de10dad3-cc48-400a-922c-cca5bf1a3a20","ios":"levelo://app?vid=de10dad3-cc48-400a-922c-cca5bf1a3a20"},"vehicle_type_id":"4","last_reported":1741385209,"current_range_meters":4000,"station_id":"","pricing_plan_id":"cebpf4jnsgd1na2vs0mg"},{"bike_id":"74cae0c1-8d28-4bef-8967-85173913b919","system_id":"levelo_inurba_marseille","lat":43.31358,"lon":5.38494,"is_reserved":false,"is_disabled":false,"rental_uris":{"android":"levelo://app?vid=74cae0c1-8d28-4bef-8967-85173913b919","ios":"levelo://app?vid=74cae0c1-8d28-4bef-8967-85173913b919"},"vehicle_type_id":"4","last_reported":1741385209,"current_range_meters":4000,"station_id":"ce4bgt92rcd13ifvqcf0","pricing_plan_id":"cebpf4jnsgd1na2vs0mg"},{"bike_id":"87df5373-6bc1-4336-a118-33ca3e27b872","system_id":"levelo_inurba_marseille","lat":43.299675,"lon":5.384903,"is_reserved":false,"is_disabled":false,"rental_uris":{"android":"levelo://app?vid=87df5373-6bc1-4336-a118-33ca3e27b872","ios":"levelo://app?vid=87df5373-6bc1-4336-a118-33ca3e27b872"},"vehicle_type_id":"4","last_reported":1741385209,"current_range_meters":4400,"station_id":"ce4bh3h2rcd13ifvqdo0","pricing_plan_id":"cebpf4jnsgd1na2vs0mg"},{"bike_id":"6146386b-0f18-4a26-80df-aa88006c1b07","system_id":"levelo_inurba_marseille","lat":43.29556,"lon":5.42291,"is_reserved":false,"is_disabled":false,"rental_uris":{"android":"levelo://app?vid=6146386b-0f18-4a26-80df-aa88006c1b07","ios":"levelo://app?vid=6146386b-0f18-4a26-80df-aa88006c1b07"},"vehicle_type_id":"4","last_reported":1741385209,"current_range_meters":4800,"station_id":"ce4bhph2rcd13ifvqhdg","pricing_plan_id":"cebpf4jnsgd1na2vs0mg"},{"bike_id":"6a2cba80-c390-45cb-a386-17b5eb2ff411","system_id":"levelo_inurba_marseille","lat":43.23314,"lon":5.36161,"is_reserved":false,"is_disabled":false,"rental_uris":{"android":"levelo://app?vid=6a2cba80-c390-45cb-a386-17b5eb2ff411","ios":"levelo://app?vid=6a2cba80-c390-45cb-a386-17b5eb2ff411"},"vehicle_type_id":"4","last_reported":1741385209,"current_range_meters":4800,"station_id":"","pricing_plan_id":"cebpf4jnsgd1na2vs0mg"},{"bike_id":"d93bdeca-d0ff-402c-a1ae-de5375476d11","system_id":"levelo_inurba_marseille","lat":43.28216,"lon":5.40289,"is_reserved":false,"is_disabled":true,"rental_uris":{"android":"levelo://app?vid=d93bdeca-d0ff-402c-a1ae-de5375476d11","ios":"levelo://app?vid=d93bdeca-d0ff-402c-a1ae-de5375476d11"},"vehicle_type_id":"4","last_reported":1741385209,"current_range_meters":4800,"station_id":"","pricing_plan_id":"cebpf4jnsgd1na2vs0mg"},{"bike_id":"7f1905bf-da4d-4f13-af14-c5d46804e585","system_id":"levelo_inurba_marseille","lat":43.23195,"lon":5.35551,"is_reserved":false,"is_disabled":false,"rental_uris":{"android":"levelo://app?vid=7f1905bf-da4d-4f13-af14-c5d46804e585","ios":"levelo://app?vid=7f1905bf-da4d-4f13-af14-c5d46804e585"},"vehicle_type_id":"4","last_reported":1741385209,"current_range_meters":4800,"station_id":"ce4bhu92rcd13ifvqi70","pricing_plan_id":"cebpf4jnsgd1na2vs0mg"},{"bike_id":"d97b34a5-4a9d-4d9c-b55f-b72c9be6ca47","system_id":"levelo_inurba_marseille","lat":43.251,"lon":5.40315,"is_reserved":false,"is_disabled":true,"rental_uris":{"android":"levelo://app?vid=d97b34a5-4a9d-4d9c-b55f-b72c9be6ca47","ios":"levelo://app?vid=d97b34a5-4a9d-4d9c-b55f-b72c9be6ca47"},"vehicle_type_id":"4","last_reported":1741385209,"current_range_meters":4800,"station_id":"ce4bhlh2rcd13ifvqgig","pricing_plan_id":"cebpf4jnsgd1na2vs0mg"},{"bike_id":"922965ec-ad3d-4bcd-8626-3511bd86109a","system_id":"levelo_inurba_marseille","lat":43.23187,"lon":5.39995,"is_reserved":false,"is_disabled":false,"rental_uris":{"android":"levelo://app?vid=922965ec-ad3d-4bcd-8626-3511bd86109a","ios":"levelo://app?vid=922965ec-ad3d-4bcd-8626-3511bd86109a"},"vehicle_type_id":"4","last_reported":1741385209,"current_range_meters":4800,"station_id":"ce4bhn12rcd13ifvqgqg","pricing_plan_id":"cebpf4jnsgd1na2vs0mg"},{"bike_id":"fc4d4463-1740-4792-8883-016d2470c4fc","system_id":"levelo_inurba_marseille","lat":43.27996,"lon":5.40007,"is_reserved":false,"is_disabled":false,"rental_uris":{"android":"levelo://app?vid=fc4d4463-1740-4792-8883-016d2470c4fc","ios":"levelo://app?vid=fc4d4463-1740-4792-8883-016d2470c4fc"},"vehicle_type_id":"4","last_reported":1741385209,"current_range_meters":5600,"station_id":"ce4bho92rcd13ifvqh4g","pricing_plan_id":"cebpf4jnsgd1na2vs0mg"},{"bike_id":"973394dd-337e-4787-8f11-645d62f59efb","system_id":"levelo_inurba_marseille","lat":43.29039,"lon":5.35907,"is_reserved":false,"is_disabled":true,"rental_uris":{"android":"levelo://app?vid=973394dd-337e-4787-8f11-645d62f59efb","ios":"levelo://app?vid=973394dd-337e-4787-8f11-645d62f59efb"},"vehicle_type_id":"4","last_reported":1741385209,"current_range_meters":5600,"station_id":"ce4bha92rcd13ifvqeg0","pricing_plan_id":"cebpf4jnsgd1na2vs0mg"},{"bike_id":"8e47c787-1359-4721-b0a6-7accf68a880e","system_id":"levelo_inurba_marseille","lat":43.303,"lon":5.39221,"is_reserved":false,"is_disabled":false,"rental_uris":{"android":"levelo://app?vid=8e47c787-1359-4721-b0a6-7accf68a880e","ios":"levelo://app?vid=8e47c787-1359-4721-b0a6-7accf68a880e"},"vehicle_type_id":"4","last_reported":1741385209,"current_range_meters":5600,"station_id":"ce4bgkh2rcd13ifvqbk0","pricing_plan_id":"cebpf4jnsgd1na2vs0mg"},{"bike_id":"cb47043e-2b36-4398-963d-22088496551a","system_id":"levelo_inurba_marseille","lat":43.3176,"lon":5.39026,"is_reserved":false,"is_disabled":true,"rental_uris":{"android":"levelo://app?vid=cb47043e-2b36-4398-963d-22088496551a","ios":"levelo://app?vid=cb47043e-2b36-4398-963d-22088496551a"},"vehicle_type_id":"4","last_reported":1741385209,"current_range_meters":5600,"station_id":"ce4bhqp2rcd13ifvqhng","pricing_plan_id":"cebpf4jnsgd1na2vs0mg"},{"bike_id":"9bfe4e82-241b-4620-b471-d226beb88b23","system_id":"levelo_inurba_marseille","lat":43.2293,"lon":5.35373,"is_reserved":false,"is_disabled":false,"rental_uris":{"android":"levelo://app?vid=9bfe4e82-241b-4620-b471-d226beb88b23","ios":"levelo://app?vid=9bfe4e82-241b-4620-b471-d226beb88b23"},"vehicle_type_id":"4","last_reported":1741385209,"current_range_meters":5600,"station_id":"cpo3532slgdg3j2ikp40","pricing_plan_id":"cebpf4jnsgd1na2vs0mg"},{"bike_id":"03ff2bbd-3cf8-4b1b-8d20-a4cb636c3c41","system_id":"levelo_inurba_marseille","lat":43.29254,"lon":5.4089,"is_reserved":false,"is_disabled":false,"rental_uris":{"android":"levelo://app?vid=03ff2bbd-3cf8-4b1b-8d20-a4cb636c3c41","ios":"levelo://app?vid=03ff2bbd-3cf8-4b1b-8d20-a4cb636c3c41"},"vehicle_type_id":"4","last_reported":1741385209,"current_range_meters":5600,"station_id":"ce4bh192rcd13ifvqdc0","pricing_plan_id":"cebpf4jnsgd1na2vs0mg"},{"bike_id":"77932506-a232-4d46-b36d-352ef01eaf03","system_id":"levelo_inurba_marseille","lat":43.280002,"lon":5.400199,"is_reserved":false,"is_disabled":false,"rental_uris":{"android":"levelo://app?vid=77932506-a232-4d46-b36d-352ef01eaf03","ios":"levelo://app?vid=77932506-a232-4d46-b36d-352ef01eaf03"},"vehicle_type_id":"4","last_reported":1741385209,"current_range_meters":6000,"station_id":"ce4bho92rcd13ifvqh4g","pricing_plan_id":"cebpf4jnsgd1na2vs0mg"},{"bike_id":"f88a6cd9-f001-46b4-8023-0ed8105ce083","system_id":"levelo_inurba_marseille","lat":43.28046,"lon":5.36924,"is_reserved":false,"is_disabled":false,"rental_uris":{"android":"levelo://app?vid=f88a6cd9-f001-46b4-8023-0ed8105ce083","ios":"levelo://app?vid=f88a6cd9-f001-46b4-8023-0ed8105ce083"},"vehicle_type_id":"4","last_reported":1741385209,"current_range_meters":6000,"station_id":"ce4bha12rcd13ifvqef0","pricing_plan_id":"cebpf4jnsgd1na2vs0mg"},{"bike_id":"edd0d7a2-9ea6-4e38-8ad3-a07f495da954","system_id":"levelo_inurba_marseille","lat":43.26195,"lon":5.37449,"is_reserved":false,"is_disabled":false,"rental_uris":{"android":"levelo://app?vid=edd0d7a2-9ea6-4e38-8ad3-a07f495da954","ios":"levelo://app?vid=edd0d7a2-9ea6-4e38-8ad3-a07f495da954"},"vehicle_type_id":"4","last_reported":1741385209,"current_range_meters":6000,"station_id":"ce4bhgp2rcd13ifvqfc0","pricing_plan_id":"cebpf4jnsgd1na2vs0mg"},{"bike_id":"39f29d20-8a35-4526-b9c8-23d9916e23e7","system_id":"levelo_inurba_marseille","lat":43.28073,"lon":5.39652,"is_reserved":false,"is_disabled":false,"rental_uris":{"android":"levelo://app?vid=39f29d20-8a35-4526-b9c8-23d9916e23e7","ios":"levelo://app?vid=39f29d20-8a35-4526-b9c8-23d9916e23e7"},"vehicle_type_id":"4","last_reported":1741385209,"current_range_meters":6000,"station_id":"ce4bho12rcd13ifvqh2g","pricing_plan_id":"cebpf4jnsgd1na2vs0mg"},{"bike_id":"f7a85f1b-5528-4bd4-98d9-a65f1b6b8628","system_id":"levelo_inurba_marseille","lat":43.28921,"lon":5.35441,"is_reserved":false,"is_disabled":false,"rental_uris":{"android":"levelo://app?vid=f7a85f1b-5528-4bd4-98d9-a65f1b6b8628","ios":"levelo://app?vid=f7a85f1b-5528-4bd4-98d9-a65f1b6b8628"},"vehicle_type_id":"4","last_reported":1741385209,"current_range_meters":6000,"station_id":"","pricing_plan_id":"cebpf4jnsgd1na2vs0mg"},{"bike_id":"01fd6840-d8be-4b5e-9ba7-0ed0dbe54f06","system_id":"levelo_inurba_marseille","lat":43.23197,"lon":5.35549,"is_reserved":false,"is_disabled":false,"rental_uris":{"android":"levelo://app?vid=01fd6840-d8be-4b5e-9ba7-0ed0dbe54f06","ios":"levelo://app?vid=01fd6840-d8be-4b5e-9ba7-0ed0dbe54f06"},"vehicle_type_id":"4","last_reported":1741385209,"current_range_meters":6000,"station_id":"ce4bhu92rcd13ifvqi70","pricing_plan_id":"cebpf4jnsgd1na2vs0mg"},{"bike_id":"e1a3d094-fd5a-4b0e-b3fd-06c39e7f4f48","system_id":"levelo_inurba_marseille","lat":43.32864,"lon":5.39099,"is_reserved":false,"is_disabled":false,"rental_uris":{"android":"levelo://app?vid=e1a3d094-fd5a-4b0e-b3fd-06c39e7f4f48","ios":"levelo://app?vid=e1a3d094-fd5a-4b0e-b3fd-06c39e7f4f48"},"vehicle_type_id":"4","last_reported":1741385209,"current_range_meters":6000,"station_id":"","pricing_plan_id":"cebpf4jnsgd1na2vs0mg"},{"bike_id":"c5d9a748-fb84-4751-9008-dc4467d9ed9a","system_id":"levelo_inurba_marseille","lat":43.23181,"lon":5.35545,"is_reserved":false,"is_disabled":false,"rental_uris":{"android":"levelo://app?vid=c5d9a748-fb84-4751-9008-dc4467d9ed9a","ios":"levelo://app?vid=c5d9a748-fb84-4751-9008-dc4467d9ed9a"},"vehicle_type_id":"4","last_reported":1741385209,"current_range_meters":6000,"station_id":"ce4bhu92rcd13ifvqi70","pricing_plan_id":"cebpf4jnsgd1na2vs0mg"},{"bike_id":"3047e59d-f1cb-465b-b6cd-b5c66d974104","system_id":"levelo_inurba_marseille","lat":43.26074,"lon":5.39387,"is_reserved":false,"is_disabled":false,"rental_uris":{"android":"levelo://app?vid=3047e59d-f1cb-465b-b6cd-b5c66d974104","ios":"levelo://app?vid=3047e59d-f1cb-465b-b6cd-b5c66d974104"},"vehicle_type_id":"4","last_reported":1741385209,"current_range_meters":6000,"station_id":"ce4bhh92rcd13ifvqfj0","pricing_plan_id":"cebpf4jnsgd1na2vs0mg"},{"bike_id":"1b34c58c-f011-43f3-baac-47c6cf7523c0","system_id":"levelo_inurba_marseille","lat":43.29901,"lon":5.43664,"is_reserved":false,"is_disabled":false,"rental_uris":{"android":"levelo://app?vid=1b34c58c-f011-43f3-baac-47c6cf7523c0","ios":"levelo://app?vid=1b34c58c-f011-43f3-baac-47c6cf7523c0"},"vehicle_type_id":"4","last_reported":1741385209,"current_range_meters":6400,"station_id":"ce4bhpp2rcd13ifvqhfg","pricing_plan_id":"cebpf4jnsgd1na2vs0mg"},{"bike_id":"0af30f24-954a-46d7-b033-51d52f807b8c","system_id":"levelo_inurba_marseille","lat":43.2501,"lon":5.38912,"is_reserved":false,"is_disabled":false,"rental_uris":{"android":"levelo://app?vid=0af30f24-954a-46d7-b033-51d52f807b8c","ios":"levelo://app?vid=0af30f24-954a-46d7-b033-51d52f807b8c"},"vehicle_type_id":"4","last_reported":1741385209,"current_range_meters":6400,"station_id":"ce4bhgp2rcd13ifvqfd0","pricing_plan_id":"cebpf4jnsgd1na2vs0mg"},{"bike_id":"24df224d-ffa5-472e-acc0-380979001d96","system_id":"levelo_inurba_marseille","lat":43.25717,"lon":5.41108,"is_reserved":false,"is_disabled":false,"rental_uris":{"android":"levelo://app?vid=24df224d-ffa5-472e-acc0-380979001d96","ios":"levelo://app?vid=24df224d-ffa5-472e-acc0-380979001d96"},"vehicle_type_id":"4","last_reported":1741385209,"current_range_meters":6400,"station_id":"ce4bhkp2rcd13ifvqgd0","pricing_plan_id":"cebpf4jnsgd1na2vs0mg"},{"bike_id":"914bbafb-3768-41ed-9924-1947bd4ab869","system_id":"levelo_inurba_marseille","lat":43.30149,"lon":5.38369,"is_reserved":false,"is_disabled":false,"rental_uris":{"android":"levelo://app?vid=914bbafb-3768-41ed-9924-1947bd4ab869","ios":"levelo://app?vid=914bbafb-3768-41ed-9924-1947bd4ab869"},"vehicle_type_id":"4","last_reported":1741385209,"current_range_meters":6400,"station_id":"","pricing_plan_id":"cebpf4jnsgd1na2vs0mg"},{"bike_id":"d8c22869-c5a3-4fa2-9dd7-72f9623d1f03","system_id":"levelo_inurba_marseille","lat":43.31076,"lon":5.38348,"is_reserved":false,"is_disabled":false,"rental_uris":{"android":"levelo://app?vid=d8c22869-c5a3-4fa2-9dd7-72f9623d1f03","ios":"levelo://app?vid=d8c22869-c5a3-4fa2-9dd7-72f9623d1f03"},"vehicle_type_id":"4","last_reported":1741385209,"current_range_meters":6400,"station_id":"ce4bgv92rcd13ifvqcr0","pricing_plan_id":"cebpf4jnsgd1na2vs0mg"},{"bike_id":"40e17261-a0f2-4df5-b7d2-2bbbc04da151","system_id":"levelo_inurba_marseille","lat":43.243904,"lon":5.370605,"is_reserved":false,"is_disabled":false,"rental_uris":{"android":"levelo://app?vid=40e17261-a0f2-4df5-b7d2-2bbbc04da151","ios":"levelo://app?vid=40e17261-a0f2-4df5-b7d2-2bbbc04da151"},"vehicle_type_id":"4","last_reported":1741385209,"current_range_meters":6800,"station_id":"ce4bguh2rcd13ifvqckg","pricing_plan_id":"cebpf4jnsgd1na2vs0mg"},{"bike_id":"e0862a4c-1ac9-4de1-9beb-ae484a52b446","system_id":"levelo_inurba_marseille","lat":43.24439,"lon":5.41022,"is_reserved":false,"is_disabled":false,"rental_uris":{"android":"levelo://app?vid=e0862a4c-1ac9-4de1-9beb-ae484a52b446","ios":"levelo://app?vid=e0862a4c-1ac9-4de1-9beb-ae484a52b446"},"vehicle_type_id":"4","last_reported":1741385209,"current_range_meters":6800,"station_id":"","pricing_plan_id":"cebpf4jnsgd1na2vs0mg"},{"bike_id":"a3560d29-35f6-419b-99b7-0ee0a1ad99df","system_id":"levelo_inurba_marseille","lat":43.31174,"lon":5.36905,"is_reserved":false,"is_disabled":false,"rental_uris":{"android":"levelo://app?vid=a3560d29-35f6-419b-99b7-0ee0a1ad99df","ios":"levelo://app?vid=a3560d29-35f6-419b-99b7-0ee0a1ad99df"},"vehicle_type_id":"4","last_reported":1741385209,"current_range_meters":6800,"station_id":"","pricing_plan_id":"cebpf4jnsgd1na2vs0mg"},{"bike_id":"bb05f23e-14b8-454c-8b5f-3dfc96887b02","system_id":"levelo_inurba_marseille","lat":43.26227,"lon":5.40449,"is_reserved":false,"is_disabled":false,"rental_uris":{"android":"levelo://app?vid=bb05f23e-14b8-454c-8b5f-3dfc96887b02","ios":"levelo://app?vid=bb05f23e-14b8-454c-8b5f-3dfc96887b02"},"vehicle_type_id":"4","last_reported":1741385209,"current_range_meters":6800,"station_id":"ce4bhmh2rcd13ifvqgmg","pricing_plan_id":"cebpf4jnsgd1na2vs0mg"},{"bike_id":"55f1a346-655d-4ceb-961f-e11c032b07e0","system_id":"levelo_inurba_marseille","lat":43.32737,"lon":5.40285,"is_reserved":false,"is_disabled":false,"rental_uris":{"android":"levelo://app?vid=55f1a346-655d-4ceb-961f-e11c032b07e0","ios":"levelo://app?vid=55f1a346-655d-4ceb-961f-e11c032b07e0"},"vehicle_type_id":"4","last_reported":1741385209,"current_range_meters":6800,"station_id":"","pricing_plan_id":"cebpf4jnsgd1na2vs0mg"},{"bike_id":"215a01e2-9c1c-45bf-a69c-7a5458c1fe75","system_id":"levelo_inurba_marseille","lat":43.2807,"lon":5.39653,"is_reserved":false,"is_disabled":false,"rental_uris":{"android":"levelo://app?vid=215a01e2-9c1c-45bf-a69c-7a5458c1fe75","ios":"levelo://app?vid=215a01e2-9c1c-45bf-a69c-7a5458c1fe75"},"vehicle_type_id":"4","last_reported":1741385209,"current_range_meters":6800,"station_id":"ce4bho12rcd13ifvqh2g","pricing_plan_id":"cebpf4jnsgd1na2vs0mg"},{"bike_id":"b3efa482-ba88-41b4-9fa2-130aeb426a3b","system_id":"levelo_inurba_marseille","lat":43.2803,"lon":5.36939,"is_reserved":false,"is_disabled":false,"rental_uris":{"android":"levelo://app?vid=b3efa482-ba88-41b4-9fa2-130aeb426a3b","ios":"levelo://app?vid=b3efa482-ba88-41b4-9fa2-130aeb426a3b"},"vehicle_type_id":"4","last_reported":1741385209,"current_range_meters":6800,"station_id":"ce4bha12rcd13ifvqef0","pricing_plan_id":"cebpf4jnsgd1na2vs0mg"},{"bike_id":"eabf976e-0b7f-43aa-bc68-31bb983ef3da","system_id":"levelo_inurba_marseille","lat":43.2963,"lon":5.37133,"is_reserved":false,"is_disabled":false,"rental_uris":{"android":"levelo://app?vid=eabf976e-0b7f-43aa-bc68-31bb983ef3da","ios":"levelo://app?vid=eabf976e-0b7f-43aa-bc68-31bb983ef3da"},"vehicle_type_id":"4","last_reported":1741385209,"current_range_meters":2000,"station_id":"ce4bgnh2rcd13ifvqc0g","pricing_plan_id":"cebpf4jnsgd1na2vs0mg"},{"bike_id":"e82b73a7-d1ae-43c3-a107-e0b413d5ff48","system_id":"levelo_inurba_marseille","lat":43.32657,"lon":5.40992,"is_reserved":false,"is_disabled":false,"rental_uris":{"android":"levelo://app?vid=e82b73a7-d1ae-43c3-a107-e0b413d5ff48","ios":"levelo://app?vid=e82b73a7-d1ae-43c3-a107-e0b413d5ff48"},"vehicle_type_id":"4","last_reported":1741385209,"current_range_meters":6800,"station_id":"ce4bhpp2rcd13ifvqhgg","pricing_plan_id":"cebpf4jnsgd1na2vs0mg"},{"bike_id":"5ece6216-c140-461a-8332-f5b985568faf","system_id":"levelo_inurba_marseille","lat":43.27986,"lon":5.38759,"is_reserved":false,"is_disabled":true,"rental_uris":{"android":"levelo://app?vid=5ece6216-c140-461a-8332-f5b985568faf","ios":"levelo://app?vid=5ece6216-c140-461a-8332-f5b985568faf"},"vehicle_type_id":"4","last_reported":1741385209,"current_range_meters":6800,"station_id":"ce4bhg12rcd13ifvqf80","pricing_plan_id":"cebpf4jnsgd1na2vs0mg"},{"bike_id":"a8412a7a-010e-484a-b42c-cb34a76c7697","system_id":"levelo_inurba_marseille","lat":43.32663,"lon":5.40976,"is_reserved":false,"is_disabled":false,"rental_uris":{"android":"levelo://app?vid=a8412a7a-010e-484a-b42c-cb34a76c7697","ios":"levelo://app?vid=a8412a7a-010e-484a-b42c-cb34a76c7697"},"vehicle_type_id":"4","last_reported":1741385209,"current_range_meters":7200,"station_id":"ce4bhpp2rcd13ifvqhgg","pricing_plan_id":"cebpf4jnsgd1na2vs0mg"},{"bike_id":"72ad35d5-229e-4395-b775-8a505aad1b5e","system_id":"levelo_inurba_marseille","lat":43.27607,"lon":5.36121,"is_reserved":false,"is_disabled":false,"rental_uris":{"android":"levelo://app?vid=72ad35d5-229e-4395-b775-8a505aad1b5e","ios":"levelo://app?vid=72ad35d5-229e-4395-b775-8a505aad1b5e"},"vehicle_type_id":"4","last_reported":1741385209,"current_range_meters":7200,"station_id":"ce4bgj92rcd13ifvqbe0","pricing_plan_id":"cebpf4jnsgd1na2vs0mg"},{"bike_id":"143b74fc-ab7b-4910-8495-ffc1ad22971d","system_id":"levelo_inurba_marseille","lat":43.25012,"lon":5.38928,"is_reserved":false,"is_disabled":true,"rental_uris":{"android":"levelo://app?vid=143b74fc-ab7b-4910-8495-ffc1ad22971d","ios":"levelo://app?vid=143b74fc-ab7b-4910-8495-ffc1ad22971d"},"vehicle_type_id":"4","last_reported":1741385209,"current_range_meters":7200,"station_id":"ce4bhgp2rcd13ifvqfd0","pricing_plan_id":"cebpf4jnsgd1na2vs0mg"},{"bike_id":"357f6b0d-7429-4870-b5b1-c540923d954d","system_id":"levelo_inurba_marseille","lat":43.23074,"lon":5.35492,"is_reserved":false,"is_disabled":false,"rental_uris":{"android":"levelo://app?vid=357f6b0d-7429-4870-b5b1-c540923d954d","ios":"levelo://app?vid=357f6b0d-7429-4870-b5b1-c540923d954d"},"vehicle_type_id":"4","last_reported":1741385209,"current_range_meters":7200,"station_id":"cpo3342slgdg3j2ifvpg","pricing_plan_id":"cebpf4jnsgd1na2vs0mg"},{"bike_id":"08fb73d4-d548-4bbf-a3e3-a2ca4f04a051","system_id":"levelo_inurba_marseille","lat":43.30094,"lon":5.40035,"is_reserved":false,"is_disabled":false,"rental_uris":{"android":"levelo://app?vid=08fb73d4-d548-4bbf-a3e3-a2ca4f04a051","ios":"levelo://app?vid=08fb73d4-d548-4bbf-a3e3-a2ca4f04a051"},"vehicle_type_id":"4","last_reported":1741385209,"current_range_meters":7200,"station_id":"","pricing_plan_id":"cebpf4jnsgd1na2vs0mg"},{"bike_id":"904a8371-ebed-45e5-8cc3-b64b65860481","system_id":"levelo_inurba_marseille","lat":43.3171,"lon":5.37764,"is_reserved":false,"is_disabled":false,"rental_uris":{"android":"levelo://app?vid=904a8371-ebed-45e5-8cc3-b64b65860481","ios":"levelo://app?vid=904a8371-ebed-45e5-8cc3-b64b65860481"},"vehicle_type_id":"4","last_reported":1741385209,"current_range_meters":7200,"station_id":"ce4bgth2rcd13ifvqch0","pricing_plan_id":"cebpf4jnsgd1na2vs0mg"},{"bike_id":"d6d8f87b-25ab-4e84-9c2a-1348cf230730","system_id":"levelo_inurba_marseille","lat":43.281538,"lon":5.402184,"is_reserved":false,"is_disabled":false,"rental_uris":{"android":"levelo://app?vid=d6d8f87b-25ab-4e84-9c2a-1348cf230730","ios":"levelo://app?vid=d6d8f87b-25ab-4e84-9c2a-1348cf230730"},"vehicle_type_id":"4","last_reported":1741385209,"current_range_meters":7200,"station_id":"","pricing_plan_id":"cebpf4jnsgd1na2vs0mg"},{"bike_id":"49bb524d-911e-4e57-a25a-4f733aad7f1d","system_id":"levelo_inurba_marseille","lat":43.30376,"lon":5.37061,"is_reserved":false,"is_disabled":false,"rental_uris":{"android":"levelo://app?vid=49bb524d-911e-4e57-a25a-4f733aad7f1d","ios":"levelo://app?vid=49bb524d-911e-4e57-a25a-4f733aad7f1d"},"vehicle_type_id":"4","last_reported":1741385209,"current_range_meters":7200,"station_id":"","pricing_plan_id":"cebpf4jnsgd1na2vs0mg"},{"bike_id":"a45eda30-93db-4cd6-bc29-df6c0e7b5378","system_id":"levelo_inurba_marseille","lat":43.23962,"lon":5.36623,"is_reserved":false,"is_disabled":false,"rental_uris":{"android":"levelo://app?vid=a45eda30-93db-4cd6-bc29-df6c0e7b5378","ios":"levelo://app?vid=a45eda30-93db-4cd6-bc29-df6c0e7b5378"},"vehicle_type_id":"4","last_reported":1741385209,"current_range_meters":8000,"station_id":"ce4bhi12rcd13ifvqfp0","pricing_plan_id":"cebpf4jnsgd1na2vs0mg"},{"bike_id":"93ef08eb-88b2-44cd-a96f-6d22ce2a4fc0","system_id":"levelo_inurba_marseille","lat":43.33001,"lon":5.39048,"is_reserved":false,"is_disabled":false,"rental_uris":{"android":"levelo://app?vid=93ef08eb-88b2-44cd-a96f-6d22ce2a4fc0","ios":"levelo://app?vid=93ef08eb-88b2-44cd-a96f-6d22ce2a4fc0"},"vehicle_type_id":"4","last_reported":1741385209,"current_range_meters":8000,"station_id":"ce4bhr92rcd13ifvqhrg","pricing_plan_id":"cebpf4jnsgd1na2vs0mg"},{"bike_id":"35130f87-b313-43ca-86df-0e44026654c1","system_id":"levelo_inurba_marseille","lat":43.30821,"lon":5.38031,"is_reserved":false,"is_disabled":false,"rental_uris":{"android":"levelo://app?vid=35130f87-b313-43ca-86df-0e44026654c1","ios":"levelo://app?vid=35130f87-b313-43ca-86df-0e44026654c1"},"vehicle_type_id":"4","last_reported":1741385209,"current_range_meters":8000,"station_id":"","pricing_plan_id":"cebpf4jnsgd1na2vs0mg"},{"bike_id":"1b8cc84a-28ec-4cc7-9d85-8844eddb6543","system_id":"levelo_inurba_marseille","lat":43.30605,"lon":5.37223,"is_reserved":false,"is_disabled":false,"rental_uris":{"android":"levelo://app?vid=1b8cc84a-28ec-4cc7-9d85-8844eddb6543","ios":"levelo://app?vid=1b8cc84a-28ec-4cc7-9d85-8844eddb6543"},"vehicle_type_id":"4","last_reported":1741385209,"current_range_meters":7200,"station_id":"ce4bgqh2rcd13ifvqc4g","pricing_plan_id":"cebpf4jnsgd1na2vs0mg"},{"bike_id":"1a1e8c33-294c-4503-a001-da7a23122d4d","system_id":"levelo_inurba_marseille","lat":43.31757,"lon":5.39018,"is_reserved":false,"is_disabled":false,"rental_uris":{"android":"levelo://app?vid=1a1e8c33-294c-4503-a001-da7a23122d4d","ios":"levelo://app?vid=1a1e8c33-294c-4503-a001-da7a23122d4d"},"vehicle_type_id":"4","last_reported":1741385209,"current_range_meters":8000,"station_id":"ce4bhqp2rcd13ifvqhng","pricing_plan_id":"cebpf4jnsgd1na2vs0mg"},{"bike_id":"81aba683-fa7a-4275-b5eb-4d3d9e8f53d9","system_id":"levelo_inurba_marseille","lat":43.27571,"lon":5.38447,"is_reserved":false,"is_disabled":false,"rental_uris":{"android":"levelo://app?vid=81aba683-fa7a-4275-b5eb-4d3d9e8f53d9","ios":"levelo://app?vid=81aba683-fa7a-4275-b5eb-4d3d9e8f53d9"},"vehicle_type_id":"4","last_reported":1741385209,"current_range_meters":8000,"station_id":"ce4bhh92rcd13ifvqfi0","pricing_plan_id":"cebpf4jnsgd1na2vs0mg"},{"bike_id":"62391f34-3130-43d3-9ff9-87e80b4db075","system_id":"levelo_inurba_marseille","lat":43.32117,"lon":5.36783,"is_reserved":false,"is_disabled":false,"rental_uris":{"android":"levelo://app?vid=62391f34-3130-43d3-9ff9-87e80b4db075","ios":"levelo://app?vid=62391f34-3130-43d3-9ff9-87e80b4db075"},"vehicle_type_id":"4","last_reported":1741385209,"current_range_meters":8400,"station_id":"ce4bhrh2rcd13ifvqhug","pricing_plan_id":"cebpf4jnsgd1na2vs0mg"},{"bike_id":"51510a95-54e3-4b84-9b22-bfa3391426f3","system_id":"levelo_inurba_marseille","lat":43.231973,"lon":5.355429,"is_reserved":false,"is_disabled":false,"rental_uris":{"android":"levelo://app?vid=51510a95-54e3-4b84-9b22-bfa3391426f3","ios":"levelo://app?vid=51510a95-54e3-4b84-9b22-bfa3391426f3"},"vehicle_type_id":"4","last_reported":1741385209,"current_range_meters":8400,"station_id":"ce4bhu92rcd13ifvqi70","pricing_plan_id":"cebpf4jnsgd1na2vs0mg"},{"bike_id":"1f1b69c5-067d-4677-a02d-6299a5fc1bb9","system_id":"levelo_inurba_marseille","lat":43.23986,"lon":5.36617,"is_reserved":false,"is_disabled":false,"rental_uris":{"android":"levelo://app?vid=1f1b69c5-067d-4677-a02d-6299a5fc1bb9","ios":"levelo://app?vid=1f1b69c5-067d-4677-a02d-6299a5fc1bb9"},"vehicle_type_id":"4","last_reported":1741385209,"current_range_meters":8400,"station_id":"ce4bhi12rcd13ifvqfp0","pricing_plan_id":"cebpf4jnsgd1na2vs0mg"},{"bike_id":"b2cada68-d22d-4962-a15a-eab832155af1","system_id":"levelo_inurba_marseille","lat":43.31325,"lon":5.39722,"is_reserved":false,"is_disabled":false,"rental_uris":{"android":"levelo://app?vid=b2cada68-d22d-4962-a15a-eab832155af1","ios":"levelo://app?vid=b2cada68-d22d-4962-a15a-eab832155af1"},"vehicle_type_id":"4","last_reported":1741385209,"current_range_meters":8400,"station_id":"ce4bgvp2rcd13ifvqcu0","pricing_plan_id":"cebpf4jnsgd1na2vs0mg"},{"bike_id":"1bedb229-6f2a-4c14-ada9-51c6ae760653","system_id":"levelo_inurba_marseille","lat":43.30924,"lon":5.4015,"is_reserved":false,"is_disabled":false,"rental_uris":{"android":"levelo://app?vid=1bedb229-6f2a-4c14-ada9-51c6ae760653","ios":"levelo://app?vid=1bedb229-6f2a-4c14-ada9-51c6ae760653"},"vehicle_type_id":"4","last_reported":1741385209,"current_range_meters":8000,"station_id":"ce4bgvp2rcd13ifvqct0","pricing_plan_id":"cebpf4jnsgd1na2vs0mg"},{"bike_id":"c9151ceb-fd35-4b40-9877-b7757062111e","system_id":"levelo_inurba_marseille","lat":43.27819,"lon":5.40704,"is_reserved":false,"is_disabled":false,"rental_uris":{"android":"levelo://app?vid=c9151ceb-fd35-4b40-9877-b7757062111e","ios":"levelo://app?vid=c9151ceb-fd35-4b40-9877-b7757062111e"},"vehicle_type_id":"4","last_reported":1741385209,"current_range_meters":8400,"station_id":"ce4bhnh2rcd13ifvqgtg","pricing_plan_id":"cebpf4jnsgd1na2vs0mg"},{"bike_id":"c98475e8-153b-4fc6-bc83-2e37238edc8a","system_id":"levelo_inurba_marseille","lat":43.27209,"lon":5.39176,"is_reserved":false,"is_disabled":false,"rental_uris":{"android":"levelo://app?vid=c98475e8-153b-4fc6-bc83-2e37238edc8a","ios":"levelo://app?vid=c98475e8-153b-4fc6-bc83-2e37238edc8a"},"vehicle_type_id":"4","last_reported":1741385209,"current_range_meters":8400,"station_id":"ce4bhhp2rcd13ifvqfm0","pricing_plan_id":"cebpf4jnsgd1na2vs0mg"},{"bike_id":"67e94c61-e7ab-42f6-adc4-4f5482dd7f96","system_id":"levelo_inurba_marseille","lat":43.23192,"lon":5.39983,"is_reserved":false,"is_disabled":false,"rental_uris":{"android":"levelo://app?vid=67e94c61-e7ab-42f6-adc4-4f5482dd7f96","ios":"levelo://app?vid=67e94c61-e7ab-42f6-adc4-4f5482dd7f96"},"vehicle_type_id":"4","last_reported":1741385209,"current_range_meters":8400,"station_id":"ce4bhn12rcd13ifvqgqg","pricing_plan_id":"cebpf4jnsgd1na2vs0mg"},{"bike_id":"e3057739-689d-412d-99fb-acef7a4e734f","system_id":"levelo_inurba_marseille","lat":43.26556,"lon":5.37285,"is_reserved":false,"is_disabled":false,"rental_uris":{"android":"levelo://app?vid=e3057739-689d-412d-99fb-acef7a4e734f","ios":"levelo://app?vid=e3057739-689d-412d-99fb-acef7a4e734f"},"vehicle_type_id":"4","last_reported":1741385209,"current_range_meters":8800,"station_id":"ce4bhg12rcd13ifvqf70","pricing_plan_id":"cebpf4jnsgd1na2vs0mg"},{"bike_id":"1111d054-a4da-43e5-b1ef-b2b5866de597","system_id":"levelo_inurba_marseille","lat":43.24805,"lon":5.37453,"is_reserved":false,"is_disabled":false,"rental_uris":{"android":"levelo://app?vid=1111d054-a4da-43e5-b1ef-b2b5866de597","ios":"levelo://app?vid=1111d054-a4da-43e5-b1ef-b2b5866de597"},"vehicle_type_id":"4","last_reported":1741385209,"current_range_meters":8800,"station_id":"ce4bhgh2rcd13ifvqfb0","pricing_plan_id":"cebpf4jnsgd1na2vs0mg"},{"bike_id":"cf4aa9bf-3f4e-465c-9c60-c681966d2021","system_id":"levelo_inurba_marseille","lat":43.29843,"lon":5.36271,"is_reserved":false,"is_disabled":false,"rental_uris":{"android":"levelo://app?vid=cf4aa9bf-3f4e-465c-9c60-c681966d2021","ios":"levelo://app?vid=cf4aa9bf-3f4e-465c-9c60-c681966d2021"},"vehicle_type_id":"4","last_reported":1741385209,"current_range_meters":8800,"station_id":"ce4bgpp2rcd13ifvqc3g","pricing_plan_id":"cebpf4jnsgd1na2vs0mg"},{"bike_id":"48ce40c1-0299-44b6-af4d-acc32ba2f0c2","system_id":"levelo_inurba_marseille","lat":43.23971,"lon":5.36624,"is_reserved":false,"is_disabled":false,"rental_uris":{"android":"levelo://app?vid=48ce40c1-0299-44b6-af4d-acc32ba2f0c2","ios":"levelo://app?vid=48ce40c1-0299-44b6-af4d-acc32ba2f0c2"},"vehicle_type_id":"4","last_reported":1741385209,"current_range_meters":8800,"station_id":"ce4bhi12rcd13ifvqfp0","pricing_plan_id":"cebpf4jnsgd1na2vs0mg"},{"bike_id":"ee531ea4-07f5-4e6b-8cf3-533a03d17ab6","system_id":"levelo_inurba_marseille","lat":43.25871,"lon":5.39898,"is_reserved":false,"is_disabled":false,"rental_uris":{"android":"levelo://app?vid=ee531ea4-07f5-4e6b-8cf3-533a03d17ab6","ios":"levelo://app?vid=ee531ea4-07f5-4e6b-8cf3-533a03d17ab6"},"vehicle_type_id":"4","last_reported":1741385209,"current_range_meters":8800,"station_id":"ce4bhl92rcd13ifvqghg","pricing_plan_id":"cebpf4jnsgd1na2vs0mg"},{"bike_id":"45e14e50-2223-4f93-82bc-fb83a4bfdc86","system_id":"levelo_inurba_marseille","lat":43.29538,"lon":5.39387,"is_reserved":false,"is_disabled":false,"rental_uris":{"android":"levelo://app?vid=45e14e50-2223-4f93-82bc-fb83a4bfdc86","ios":"levelo://app?vid=45e14e50-2223-4f93-82bc-fb83a4bfdc86"},"vehicle_type_id":"4","last_reported":1741385209,"current_range_meters":9200,"station_id":"ce4bh292rcd13ifvqdf0","pricing_plan_id":"cebpf4jnsgd1na2vs0mg"},{"bike_id":"59ef7ab1-f072-4315-9e2a-a3482cc569d5","system_id":"levelo_inurba_marseille","lat":43.29894,"lon":5.43645,"is_reserved":false,"is_disabled":false,"rental_uris":{"android":"levelo://app?vid=59ef7ab1-f072-4315-9e2a-a3482cc569d5","ios":"levelo://app?vid=59ef7ab1-f072-4315-9e2a-a3482cc569d5"},"vehicle_type_id":"4","last_reported":1741385209,"current_range_meters":9200,"station_id":"ce4bhpp2rcd13ifvqhfg","pricing_plan_id":"cebpf4jnsgd1na2vs0mg"},{"bike_id":"276af856-4234-4b89-bd31-86c6fb074953","system_id":"levelo_inurba_marseille","lat":43.28732,"lon":5.3608,"is_reserved":false,"is_disabled":false,"rental_uris":{"android":"levelo://app?vid=276af856-4234-4b89-bd31-86c6fb074953","ios":"levelo://app?vid=276af856-4234-4b89-bd31-86c6fb074953"},"vehicle_type_id":"4","last_reported":1741385209,"current_range_meters":9200,"station_id":"cki0cbj6b192h4jlfktg","pricing_plan_id":"cebpf4jnsgd1na2vs0mg"},{"bike_id":"431037b5-a5d3-4f7c-a082-acb5bd2f7940","system_id":"levelo_inurba_marseille","lat":43.23089,"lon":5.35492,"is_reserved":false,"is_disabled":false,"rental_uris":{"android":"levelo://app?vid=431037b5-a5d3-4f7c-a082-acb5bd2f7940","ios":"levelo://app?vid=431037b5-a5d3-4f7c-a082-acb5bd2f7940"},"vehicle_type_id":"4","last_reported":1741385209,"current_range_meters":9200,"station_id":"cpo3342slgdg3j2ifvpg","pricing_plan_id":"cebpf4jnsgd1na2vs0mg"},{"bike_id":"086d469f-dff5-4ec5-8e53-42a42c799cc9","system_id":"levelo_inurba_marseille","lat":43.29558,"lon":5.42293,"is_reserved":false,"is_disabled":false,"rental_uris":{"android":"levelo://app?vid=086d469f-dff5-4ec5-8e53-42a42c799cc9","ios":"levelo://app?vid=086d469f-dff5-4ec5-8e53-42a42c799cc9"},"vehicle_type_id":"4","last_reported":1741385209,"current_range_meters":9200,"station_id":"ce4bhph2rcd13ifvqhdg","pricing_plan_id":"cebpf4jnsgd1na2vs0mg"},{"bike_id":"67784991-66c0-4723-9d55-6d81392fdb35","system_id":"levelo_inurba_marseille","lat":43.293307,"lon":5.386052,"is_reserved":false,"is_disabled":false,"rental_uris":{"android":"levelo://app?vid=67784991-66c0-4723-9d55-6d81392fdb35","ios":"levelo://app?vid=67784991-66c0-4723-9d55-6d81392fdb35"},"vehicle_type_id":"4","last_reported":1741385209,"current_range_meters":8800,"station_id":"ce4bh0h2rcd13ifvqd40","pricing_plan_id":"cebpf4jnsgd1na2vs0mg"},{"bike_id":"42323b44-4776-4993-88db-08c90d643018","system_id":"levelo_inurba_marseille","lat":43.301,"lon":5.37653,"is_reserved":false,"is_disabled":false,"rental_uris":{"android":"levelo://app?vid=42323b44-4776-4993-88db-08c90d643018","ios":"levelo://app?vid=42323b44-4776-4993-88db-08c90d643018"},"vehicle_type_id":"4","last_reported":1741385209,"current_range_meters":9200,"station_id":"","pricing_plan_id":"cebpf4jnsgd1na2vs0mg"},{"bike_id":"ce75e4fa-fb21-4f7b-8d9f-adc038cdc158","system_id":"levelo_inurba_marseille","lat":43.29936,"lon":5.36553,"is_reserved":false,"is_disabled":false,"rental_uris":{"android":"levelo://app?vid=ce75e4fa-fb21-4f7b-8d9f-adc038cdc158","ios":"levelo://app?vid=ce75e4fa-fb21-4f7b-8d9f-adc038cdc158"},"vehicle_type_id":"4","last_reported":1741385209,"current_range_meters":9600,"station_id":"ce4bgm92rcd13ifvqbr0","pricing_plan_id":"cebpf4jnsgd1na2vs0mg"},{"bike_id":"aa7a2b69-a3e8-498a-a7ef-3f79ed4cdbf5","system_id":"levelo_inurba_marseille","lat":43.29258,"lon":5.37622,"is_reserved":false,"is_disabled":false,"rental_uris":{"android":"levelo://app?vid=aa7a2b69-a3e8-498a-a7ef-3f79ed4cdbf5","ios":"levelo://app?vid=aa7a2b69-a3e8-498a-a7ef-3f79ed4cdbf5"},"vehicle_type_id":"4","last_reported":1741385209,"current_range_meters":9600,"station_id":"ce4bgi12rcd13ifvqb80","pricing_plan_id":"cebpf4jnsgd1na2vs0mg"},{"bike_id":"9da935d0-0941-44db-bb4f-7f7e582bd3d3","system_id":"levelo_inurba_marseille","lat":43.24164,"lon":5.36411,"is_reserved":false,"is_disabled":false,"rental_uris":{"android":"levelo://app?vid=9da935d0-0941-44db-bb4f-7f7e582bd3d3","ios":"levelo://app?vid=9da935d0-0941-44db-bb4f-7f7e582bd3d3"},"vehicle_type_id":"4","last_reported":1741385209,"current_range_meters":9600,"station_id":"cpo36qri1sfpv3e86is0","pricing_plan_id":"cebpf4jnsgd1na2vs0mg"},{"bike_id":"920ff55d-e722-45ea-b645-85ea1685a342","system_id":"levelo_inurba_marseille","lat":43.29264,"lon":5.38434,"is_reserved":false,"is_disabled":false,"rental_uris":{"android":"levelo://app?vid=920ff55d-e722-45ea-b645-85ea1685a342","ios":"levelo://app?vid=920ff55d-e722-45ea-b645-85ea1685a342"},"vehicle_type_id":"4","last_reported":1741385209,"current_range_meters":9600,"station_id":"ce4bh692rcd13ifvqea0","pricing_plan_id":"cebpf4jnsgd1na2vs0mg"},{"bike_id":"979987e2-dfc4-42fc-8f32-b517c3f9a62d","system_id":"levelo_inurba_marseille","lat":43.28437,"lon":5.39205,"is_reserved":false,"is_disabled":false,"rental_uris":{"android":"levelo://app?vid=979987e2-dfc4-42fc-8f32-b517c3f9a62d","ios":"levelo://app?vid=979987e2-dfc4-42fc-8f32-b517c3f9a62d"},"vehicle_type_id":"4","last_reported":1741385209,"current_range_meters":9600,"station_id":"ce4bhoh2rcd13ifvqh5g","pricing_plan_id":"cebpf4jnsgd1na2vs0mg"},{"bike_id":"6c7a401e-1c96-4123-a39f-c7c47d7ca636","system_id":"levelo_inurba_marseille","lat":43.303074,"lon":5.369088,"is_reserved":false,"is_disabled":false,"rental_uris":{"android":"levelo://app?vid=6c7a401e-1c96-4123-a39f-c7c47d7ca636","ios":"levelo://app?vid=6c7a401e-1c96-4123-a39f-c7c47d7ca636"},"vehicle_type_id":"4","last_reported":1741385209,"current_range_meters":9600,"station_id":"ce4bgqh2rcd13ifvqc5g","pricing_plan_id":"cebpf4jnsgd1na2vs0mg"},{"bike_id":"daa48c53-c5de-46aa-94fc-655cbd710c8c","system_id":"levelo_inurba_marseille","lat":43.22933,"lon":5.35381,"is_reserved":false,"is_disabled":false,"rental_uris":{"android":"levelo://app?vid=daa48c53-c5de-46aa-94fc-655cbd710c8c","ios":"levelo://app?vid=daa48c53-c5de-46aa-94fc-655cbd710c8c"},"vehicle_type_id":"4","last_reported":1741385209,"current_range_meters":9600,"station_id":"cpo3532slgdg3j2ikp40","pricing_plan_id":"cebpf4jnsgd1na2vs0mg"},{"bike_id":"153123e8-090d-4fdf-a76f-c1dde8b77727","system_id":"levelo_inurba_marseille","lat":43.281473,"lon":5.426423,"is_reserved":false,"is_disabled":false,"rental_uris":{"android":"levelo://app?vid=153123e8-090d-4fdf-a76f-c1dde8b77727","ios":"levelo://app?vid=153123e8-090d-4fdf-a76f-c1dde8b77727"},"vehicle_type_id":"4","last_reported":1741385209,"current_range_meters":10000,"station_id":"ce4bhnh2rcd13ifvqgug","pricing_plan_id":"cebpf4jnsgd1na2vs0mg"},{"bike_id":"3949e300-2dbd-4203-aa58-eef0b1b0c774","system_id":"levelo_inurba_marseille","lat":43.33794,"lon":5.37448,"is_reserved":false,"is_disabled":false,"rental_uris":{"android":"levelo://app?vid=3949e300-2dbd-4203-aa58-eef0b1b0c774","ios":"levelo://app?vid=3949e300-2dbd-4203-aa58-eef0b1b0c774"},"vehicle_type_id":"4","last_reported":1741385209,"current_range_meters":10000,"station_id":"","pricing_plan_id":"cebpf4jnsgd1na2vs0mg"},{"bike_id":"7b62c62b-d961-49e1-afe1-b0b21a291801","system_id":"levelo_inurba_marseille","lat":43.2786,"lon":5.41747,"is_reserved":false,"is_disabled":true,"rental_uris":{"android":"levelo://app?vid=7b62c62b-d961-49e1-afe1-b0b21a291801","ios":"levelo://app?vid=7b62c62b-d961-49e1-afe1-b0b21a291801"},"vehicle_type_id":"4","last_reported":1741385209,"current_range_meters":10000,"station_id":"","pricing_plan_id":"cebpf4jnsgd1na2vs0mg"},{"bike_id":"74752c54-4241-40de-a210-b14fe641a2d7","system_id":"levelo_inurba_marseille","lat":43.27557,"lon":5.38427,"is_reserved":false,"is_disabled":false,"rental_uris":{"android":"levelo://app?vid=74752c54-4241-40de-a210-b14fe641a2d7","ios":"levelo://app?vid=74752c54-4241-40de-a210-b14fe641a2d7"},"vehicle_type_id":"4","last_reported":1741385209,"current_range_meters":10000,"station_id":"ce4bhh92rcd13ifvqfi0","pricing_plan_id":"cebpf4jnsgd1na2vs0mg"},{"bike_id":"01a6afe2-d645-4130-8890-22799000c76a","system_id":"levelo_inurba_marseille","lat":43.279982,"lon":5.40011,"is_reserved":false,"is_disabled":false,"rental_uris":{"android":"levelo://app?vid=01a6afe2-d645-4130-8890-22799000c76a","ios":"levelo://app?vid=01a6afe2-d645-4130-8890-22799000c76a"},"vehicle_type_id":"4","last_reported":1741385209,"current_range_meters":10000,"station_id":"ce4bho92rcd13ifvqh4g","pricing_plan_id":"cebpf4jnsgd1na2vs0mg"},{"bike_id":"85398f7b-18ff-486a-8c65-c11b667b5545","system_id":"levelo_inurba_marseille","lat":43.23965,"lon":5.36631,"is_reserved":false,"is_disabled":false,"rental_uris":{"android":"levelo://app?vid=85398f7b-18ff-486a-8c65-c11b667b5545","ios":"levelo://app?vid=85398f7b-18ff-486a-8c65-c11b667b5545"},"vehicle_type_id":"4","last_reported":1741385209,"current_range_meters":10000,"station_id":"ce4bhi12rcd13ifvqfp0","pricing_plan_id":"cebpf4jnsgd1na2vs0mg"},{"bike_id":"17776595-04d7-46c0-b335-66ce9b5b19dc","system_id":"levelo_inurba_marseille","lat":43.30538,"lon":5.38434,"is_reserved":false,"is_disabled":false,"rental_uris":{"android":"levelo://app?vid=17776595-04d7-46c0-b335-66ce9b5b19dc","ios":"levelo://app?vid=17776595-04d7-46c0-b335-66ce9b5b19dc"},"vehicle_type_id":"4","last_reported":1741385209,"current_range_meters":10800,"station_id":"ce4bgg92rcd13ifvqb30","pricing_plan_id":"cebpf4jnsgd1na2vs0mg"},{"bike_id":"757562e5-3df4-40c3-a432-85dfc2faeb3d","system_id":"levelo_inurba_marseille","lat":43.23963,"lon":5.36623,"is_reserved":false,"is_disabled":false,"rental_uris":{"android":"levelo://app?vid=757562e5-3df4-40c3-a432-85dfc2faeb3d","ios":"levelo://app?vid=757562e5-3df4-40c3-a432-85dfc2faeb3d"},"vehicle_type_id":"4","last_reported":1741385209,"current_range_meters":10800,"station_id":"ce4bhi12rcd13ifvqfp0","pricing_plan_id":"cebpf4jnsgd1na2vs0mg"},{"bike_id":"3d70b87e-07bb-4ea5-8923-03de5a7a92a0","system_id":"levelo_inurba_marseille","lat":43.29883,"lon":5.38909,"is_reserved":false,"is_disabled":false,"rental_uris":{"android":"levelo://app?vid=3d70b87e-07bb-4ea5-8923-03de5a7a92a0","ios":"levelo://app?vid=3d70b87e-07bb-4ea5-8923-03de5a7a92a0"},"vehicle_type_id":"4","last_reported":1741385209,"current_range_meters":10800,"station_id":"ce4bh392rcd13ifvqdl0","pricing_plan_id":"cebpf4jnsgd1na2vs0mg"},{"bike_id":"9264e387-c957-49d4-8999-58cebdd193d8","system_id":"levelo_inurba_marseille","lat":43.29294,"lon":5.37462,"is_reserved":false,"is_disabled":false,"rental_uris":{"android":"levelo://app?vid=9264e387-c957-49d4-8999-58cebdd193d8","ios":"levelo://app?vid=9264e387-c957-49d4-8999-58cebdd193d8"},"vehicle_type_id":"4","last_reported":1741385209,"current_range_meters":10800,"station_id":"ce4bgi12rcd13ifvqb70","pricing_plan_id":"cebpf4jnsgd1na2vs0mg"},{"bike_id":"db7cd95b-0159-457d-aa08-f78ad0493427","system_id":"levelo_inurba_marseille","lat":43.32363,"lon":5.38903,"is_reserved":false,"is_disabled":false,"rental_uris":{"android":"levelo://app?vid=db7cd95b-0159-457d-aa08-f78ad0493427","ios":"levelo://app?vid=db7cd95b-0159-457d-aa08-f78ad0493427"},"vehicle_type_id":"4","last_reported":1741385209,"current_range_meters":10800,"station_id":"ce4bhqp2rcd13ifvqhog","pricing_plan_id":"cebpf4jnsgd1na2vs0mg"},{"bike_id":"60fba7df-4520-4d63-9c5b-9a7a002cedfb","system_id":"levelo_inurba_marseille","lat":43.28029,"lon":5.39153,"is_reserved":false,"is_disabled":false,"rental_uris":{"android":"levelo://app?vid=60fba7df-4520-4d63-9c5b-9a7a002cedfb","ios":"levelo://app?vid=60fba7df-4520-4d63-9c5b-9a7a002cedfb"},"vehicle_type_id":"4","last_reported":1741385209,"current_range_meters":10800,"station_id":"","pricing_plan_id":"cebpf4jnsgd1na2vs0mg"},{"bike_id":"b63fd082-5781-49bc-8066-49a9528e01ba","system_id":"levelo_inurba_marseille","lat":43.265,"lon":5.39542,"is_reserved":false,"is_disabled":false,"rental_uris":{"android":"levelo://app?vid=b63fd082-5781-49bc-8066-49a9528e01ba","ios":"levelo://app?vid=b63fd082-5781-49bc-8066-49a9528e01ba"},"vehicle_type_id":"4","last_reported":1741385209,"current_range_meters":10800,"station_id":"ce4bhi12rcd13ifvqfq0","pricing_plan_id":"cebpf4jnsgd1na2vs0mg"},{"bike_id":"a7d87b7e-1251-45e4-8a55-8f8a7d87b0e2","system_id":"levelo_inurba_marseille","lat":43.26552,"lon":5.37284,"is_reserved":false,"is_disabled":false,"rental_uris":{"android":"levelo://app?vid=a7d87b7e-1251-45e4-8a55-8f8a7d87b0e2","ios":"levelo://app?vid=a7d87b7e-1251-45e4-8a55-8f8a7d87b0e2"},"vehicle_type_id":"4","last_reported":1741385209,"current_range_meters":10800,"station_id":"ce4bhg12rcd13ifvqf70","pricing_plan_id":"cebpf4jnsgd1na2vs0mg"},{"bike_id":"07e6b3c8-ec47-4966-8c16-a4233c439ebf","system_id":"levelo_inurba_marseille","lat":43.29282,"lon":5.40112,"is_reserved":false,"is_disabled":false,"rental_uris":{"android":"levelo://app?vid=07e6b3c8-ec47-4966-8c16-a4233c439ebf","ios":"levelo://app?vid=07e6b3c8-ec47-4966-8c16-a4233c439ebf"},"vehicle_type_id":"4","last_reported":1741385209,"current_range_meters":10800,"station_id":"ce4bh312rcd13ifvqdk0","pricing_plan_id":"cebpf4jnsgd1na2vs0mg"},{"bike_id":"b1e189d2-cc2d-4bbc-9210-3d18e5683801","system_id":"levelo_inurba_marseille","lat":43.27031,"lon":5.40205,"is_reserved":false,"is_disabled":true,"rental_uris":{"android":"levelo://app?vid=b1e189d2-cc2d-4bbc-9210-3d18e5683801","ios":"levelo://app?vid=b1e189d2-cc2d-4bbc-9210-3d18e5683801"},"vehicle_type_id":"4","last_reported":1741385209,"current_range_meters":11200,"station_id":"ce4bhk92rcd13ifvqgc0","pricing_plan_id":"cebpf4jnsgd1na2vs0mg"},{"bike_id":"ae99eef4-0d01-432b-b9f3-30beda5f0e73","system_id":"levelo_inurba_marseille","lat":43.29899,"lon":5.43663,"is_reserved":false,"is_disabled":false,"rental_uris":{"android":"levelo://app?vid=ae99eef4-0d01-432b-b9f3-30beda5f0e73","ios":"levelo://app?vid=ae99eef4-0d01-432b-b9f3-30beda5f0e73"},"vehicle_type_id":"4","last_reported":1741385209,"current_range_meters":11200,"station_id":"ce4bhpp2rcd13ifvqhfg","pricing_plan_id":"cebpf4jnsgd1na2vs0mg"},{"bike_id":"c28d7cc9-dfb0-47a6-a4b3-76719615c718","system_id":"levelo_inurba_marseille","lat":43.29035,"lon":5.38645,"is_reserved":false,"is_disabled":false,"rental_uris":{"android":"levelo://app?vid=c28d7cc9-dfb0-47a6-a4b3-76719615c718","ios":"levelo://app?vid=c28d7cc9-dfb0-47a6-a4b3-76719615c718"},"vehicle_type_id":"4","last_reported":1741385209,"current_range_meters":11200,"station_id":"ce4bh4p2rcd13ifvqe0g","pricing_plan_id":"cebpf4jnsgd1na2vs0mg"},{"bike_id":"9e78d4d1-9b06-43cc-a076-04916442e1d5","system_id":"levelo_inurba_marseille","lat":43.29876,"lon":5.38917,"is_reserved":false,"is_disabled":false,"rental_uris":{"android":"levelo://app?vid=9e78d4d1-9b06-43cc-a076-04916442e1d5","ios":"levelo://app?vid=9e78d4d1-9b06-43cc-a076-04916442e1d5"},"vehicle_type_id":"4","last_reported":1741385209,"current_range_meters":11200,"station_id":"ce4bh392rcd13ifvqdl0","pricing_plan_id":"cebpf4jnsgd1na2vs0mg"},{"bike_id":"0d69526c-0636-45e2-8b3d-8165db0f2267","system_id":"levelo_inurba_marseille","lat":43.28464,"lon":5.35874,"is_reserved":false,"is_disabled":false,"rental_uris":{"android":"levelo://app?vid=0d69526c-0636-45e2-8b3d-8165db0f2267","ios":"levelo://app?vid=0d69526c-0636-45e2-8b3d-8165db0f2267"},"vehicle_type_id":"4","last_reported":1741385209,"current_range_meters":11200,"station_id":"ce4bhah2rcd13ifvqei0","pricing_plan_id":"cebpf4jnsgd1na2vs0mg"},{"bike_id":"0e674cb4-f37d-4bd5-aaff-7ec953d386c6","system_id":"levelo_inurba_marseille","lat":43.2417,"lon":5.36389,"is_reserved":false,"is_disabled":false,"rental_uris":{"android":"levelo://app?vid=0e674cb4-f37d-4bd5-aaff-7ec953d386c6","ios":"levelo://app?vid=0e674cb4-f37d-4bd5-aaff-7ec953d386c6"},"vehicle_type_id":"4","last_reported":1741385209,"current_range_meters":11200,"station_id":"cpo36qri1sfpv3e86is0","pricing_plan_id":"cebpf4jnsgd1na2vs0mg"},{"bike_id":"eefe66a8-9b10-4ded-8e0a-619e66601e02","system_id":"levelo_inurba_marseille","lat":43.29617,"lon":5.4261,"is_reserved":false,"is_disabled":false,"rental_uris":{"android":"levelo://app?vid=eefe66a8-9b10-4ded-8e0a-619e66601e02","ios":"levelo://app?vid=eefe66a8-9b10-4ded-8e0a-619e66601e02"},"vehicle_type_id":"4","last_reported":1741385209,"current_range_meters":11200,"station_id":"","pricing_plan_id":"cebpf4jnsgd1na2vs0mg"},{"bike_id":"423add57-00cd-498e-bc4d-4eba30111386","system_id":"levelo_inurba_marseille","lat":43.28929,"lon":5.36632,"is_reserved":false,"is_disabled":false,"rental_uris":{"android":"levelo://app?vid=423add57-00cd-498e-bc4d-4eba30111386","ios":"levelo://app?vid=423add57-00cd-498e-bc4d-4eba30111386"},"vehicle_type_id":"4","last_reported":1741385209,"current_range_meters":11200,"station_id":"ce4bhap2rcd13ifvqek0","pricing_plan_id":"cebpf4jnsgd1na2vs0mg"},{"bike_id":"81de7748-b1b5-421f-9e0b-234976ce22d5","system_id":"levelo_inurba_marseille","lat":43.29433,"lon":5.38612,"is_reserved":false,"is_disabled":false,"rental_uris":{"android":"levelo://app?vid=81de7748-b1b5-421f-9e0b-234976ce22d5","ios":"levelo://app?vid=81de7748-b1b5-421f-9e0b-234976ce22d5"},"vehicle_type_id":"4","last_reported":1741385209,"current_range_meters":11600,"station_id":"ce4bh2h2rcd13ifvqdh0","pricing_plan_id":"cebpf4jnsgd1na2vs0mg"},{"bike_id":"522cd76d-4fe4-410f-9d3a-eb63cb8f5a65","system_id":"levelo_inurba_marseille","lat":43.29402,"lon":5.38623,"is_reserved":false,"is_disabled":false,"rental_uris":{"android":"levelo://app?vid=522cd76d-4fe4-410f-9d3a-eb63cb8f5a65","ios":"levelo://app?vid=522cd76d-4fe4-410f-9d3a-eb63cb8f5a65"},"vehicle_type_id":"4","last_reported":1741385209,"current_range_meters":11600,"station_id":"ce4bh2h2rcd13ifvqdh0","pricing_plan_id":"cebpf4jnsgd1na2vs0mg"},{"bike_id":"f0f073b8-3a3a-4841-a660-7c86c96fde81","system_id":"levelo_inurba_marseille","lat":43.31317,"lon":5.37344,"is_reserved":false,"is_disabled":false,"rental_uris":{"android":"levelo://app?vid=f0f073b8-3a3a-4841-a660-7c86c96fde81","ios":"levelo://app?vid=f0f073b8-3a3a-4841-a660-7c86c96fde81"},"vehicle_type_id":"4","last_reported":1741385209,"current_range_meters":11600,"station_id":"","pricing_plan_id":"cebpf4jnsgd1na2vs0mg"},{"bike_id":"42168c6f-35a5-43f2-8ef8-61a75051262d","system_id":"levelo_inurba_marseille","lat":43.2814,"lon":5.42661,"is_reserved":false,"is_disabled":true,"rental_uris":{"android":"levelo://app?vid=42168c6f-35a5-43f2-8ef8-61a75051262d","ios":"levelo://app?vid=42168c6f-35a5-43f2-8ef8-61a75051262d"},"vehicle_type_id":"4","last_reported":1741385209,"current_range_meters":11600,"station_id":"ce4bhnh2rcd13ifvqgug","pricing_plan_id":"cebpf4jnsgd1na2vs0mg"},{"bike_id":"dac09d9e-9ab6-4c54-8fe2-7fcfc9203869","system_id":"levelo_inurba_marseille","lat":43.26542,"lon":5.37334,"is_reserved":false,"is_disabled":true,"rental_uris":{"android":"levelo://app?vid=dac09d9e-9ab6-4c54-8fe2-7fcfc9203869","ios":"levelo://app?vid=dac09d9e-9ab6-4c54-8fe2-7fcfc9203869"},"vehicle_type_id":"4","last_reported":1741385209,"current_range_meters":11600,"station_id":"ce4bhg12rcd13ifvqf70","pricing_plan_id":"cebpf4jnsgd1na2vs0mg"},{"bike_id":"083000c3-2cc1-47a1-b65c-c110cc7811d6","system_id":"levelo_inurba_marseille","lat":43.29529,"lon":5.3854,"is_reserved":false,"is_disabled":false,"rental_uris":{"android":"levelo://app?vid=083000c3-2cc1-47a1-b65c-c110cc7811d6","ios":"levelo://app?vid=083000c3-2cc1-47a1-b65c-c110cc7811d6"},"vehicle_type_id":"4","last_reported":1741385209,"current_range_meters":11600,"station_id":"ce4bgih2rcd13ifvqba0","pricing_plan_id":"cebpf4jnsgd1na2vs0mg"},{"bike_id":"ac269663-43a8-4f28-8118-be61d0478060","system_id":"levelo_inurba_marseille","lat":43.28714,"lon":5.40736,"is_reserved":false,"is_disabled":false,"rental_uris":{"android":"levelo://app?vid=ac269663-43a8-4f28-8118-be61d0478060","ios":"levelo://app?vid=ac269663-43a8-4f28-8118-be61d0478060"},"vehicle_type_id":"4","last_reported":1741385209,"current_range_meters":11600,"station_id":"","pricing_plan_id":"cebpf4jnsgd1na2vs0mg"},{"bike_id":"7372ba19-4949-453e-a20c-490c28817add","system_id":"levelo_inurba_marseille","lat":43.33781,"lon":5.37437,"is_reserved":false,"is_disabled":false,"rental_uris":{"android":"levelo://app?vid=7372ba19-4949-453e-a20c-490c28817add","ios":"levelo://app?vid=7372ba19-4949-453e-a20c-490c28817add"},"vehicle_type_id":"4","last_reported":1741385209,"current_range_meters":12000,"station_id":"","pricing_plan_id":"cebpf4jnsgd1na2vs0mg"},{"bike_id":"84a7bf9b-de64-4e0b-ab59-21f7de9b944a","system_id":"levelo_inurba_marseille","lat":43.29409,"lon":5.38636,"is_reserved":false,"is_disabled":false,"rental_uris":{"android":"levelo://app?vid=84a7bf9b-de64-4e0b-ab59-21f7de9b944a","ios":"levelo://app?vid=84a7bf9b-de64-4e0b-ab59-21f7de9b944a"},"vehicle_type_id":"4","last_reported":1741385209,"current_range_meters":12000,"station_id":"ce4bh2h2rcd13ifvqdh0","pricing_plan_id":"cebpf4jnsgd1na2vs0mg"},{"bike_id":"507fb14d-5f78-4a34-8678-0596f56d0f24","system_id":"levelo_inurba_marseille","lat":43.25114,"lon":5.40329,"is_reserved":false,"is_disabled":false,"rental_uris":{"android":"levelo://app?vid=507fb14d-5f78-4a34-8678-0596f56d0f24","ios":"levelo://app?vid=507fb14d-5f78-4a34-8678-0596f56d0f24"},"vehicle_type_id":"4","last_reported":1741385209,"current_range_meters":12000,"station_id":"ce4bhlh2rcd13ifvqgig","pricing_plan_id":"cebpf4jnsgd1na2vs0mg"},{"bike_id":"50c27f90-c60b-414c-8977-a509fb566bc9","system_id":"levelo_inurba_marseille","lat":43.30801,"lon":5.38149,"is_reserved":false,"is_disabled":false,"rental_uris":{"android":"levelo://app?vid=50c27f90-c60b-414c-8977-a509fb566bc9","ios":"levelo://app?vid=50c27f90-c60b-414c-8977-a509fb566bc9"},"vehicle_type_id":"4","last_reported":1741385209,"current_range_meters":11600,"station_id":"ce4bgt12rcd13ifvqce0","pricing_plan_id":"cebpf4jnsgd1na2vs0mg"},{"bike_id":"e524bcef-a391-41b2-bad2-673eae53ea51","system_id":"levelo_inurba_marseille","lat":43.31711,"lon":5.43706,"is_reserved":false,"is_disabled":false,"rental_uris":{"android":"levelo://app?vid=e524bcef-a391-41b2-bad2-673eae53ea51","ios":"levelo://app?vid=e524bcef-a391-41b2-bad2-673eae53ea51"},"vehicle_type_id":"4","last_reported":1741385209,"current_range_meters":12000,"station_id":"ce4bhp92rcd13ifvqhcg","pricing_plan_id":"cebpf4jnsgd1na2vs0mg"},{"bike_id":"af727367-3bb1-4e28-bf7e-f3b81de5470f","system_id":"levelo_inurba_marseille","lat":43.29536,"lon":5.38535,"is_reserved":false,"is_disabled":false,"rental_uris":{"android":"levelo://app?vid=af727367-3bb1-4e28-bf7e-f3b81de5470f","ios":"levelo://app?vid=af727367-3bb1-4e28-bf7e-f3b81de5470f"},"vehicle_type_id":"4","last_reported":1741385209,"current_range_meters":12000,"station_id":"ce4bgih2rcd13ifvqba0","pricing_plan_id":"cebpf4jnsgd1na2vs0mg"},{"bike_id":"4048f4cb-c79a-4e84-a8e6-068b2a53463d","system_id":"levelo_inurba_marseille","lat":43.2973,"lon":5.39397,"is_reserved":false,"is_disabled":false,"rental_uris":{"android":"levelo://app?vid=4048f4cb-c79a-4e84-a8e6-068b2a53463d","ios":"levelo://app?vid=4048f4cb-c79a-4e84-a8e6-068b2a53463d"},"vehicle_type_id":"4","last_reported":1741385209,"current_range_meters":12000,"station_id":"","pricing_plan_id":"cebpf4jnsgd1na2vs0mg"},{"bike_id":"3462b964-84b5-4c72-82e2-aa196cbeb215","system_id":"levelo_inurba_marseille","lat":43.30799,"lon":5.38164,"is_reserved":false,"is_disabled":false,"rental_uris":{"android":"levelo://app?vid=3462b964-84b5-4c72-82e2-aa196cbeb215","ios":"levelo://app?vid=3462b964-84b5-4c72-82e2-aa196cbeb215"},"vehicle_type_id":"4","last_reported":1741385209,"current_range_meters":12000,"station_id":"ce4bgt12rcd13ifvqce0","pricing_plan_id":"cebpf4jnsgd1na2vs0mg"},{"bike_id":"7358a4f6-0e4f-4a5f-99d4-1b172ce4de71","system_id":"levelo_inurba_marseille","lat":43.301416,"lon":5.398819,"is_reserved":false,"is_disabled":false,"rental_uris":{"android":"levelo://app?vid=7358a4f6-0e4f-4a5f-99d4-1b172ce4de71","ios":"levelo://app?vid=7358a4f6-0e4f-4a5f-99d4-1b172ce4de71"},"vehicle_type_id":"4","last_reported":1741385209,"current_range_meters":12400,"station_id":"ce4bh0h2rcd13ifvqd40","pricing_plan_id":"cebpf4jnsgd1na2vs0mg"},{"bike_id":"69ee786d-580d-43d3-af33-fb79760094d6","system_id":"levelo_inurba_marseille","lat":43.27606,"lon":5.36131,"is_reserved":false,"is_disabled":false,"rental_uris":{"android":"levelo://app?vid=69ee786d-580d-43d3-af33-fb79760094d6","ios":"levelo://app?vid=69ee786d-580d-43d3-af33-fb79760094d6"},"vehicle_type_id":"4","last_reported":1741385209,"current_range_meters":12400,"station_id":"ce4bgj92rcd13ifvqbe0","pricing_plan_id":"cebpf4jnsgd1na2vs0mg"},{"bike_id":"072e189d-9ef4-4f8a-bd37-b86f12f46751","system_id":"levelo_inurba_marseille","lat":43.31707,"lon":5.37727,"is_reserved":false,"is_disabled":false,"rental_uris":{"android":"levelo://app?vid=072e189d-9ef4-4f8a-bd37-b86f12f46751","ios":"levelo://app?vid=072e189d-9ef4-4f8a-bd37-b86f12f46751"},"vehicle_type_id":"4","last_reported":1741385209,"current_range_meters":12000,"station_id":"ce4bgth2rcd13ifvqch0","pricing_plan_id":"cebpf4jnsgd1na2vs0mg"},{"bike_id":"7939c606-ea6d-4b17-9e10-bdbd5f7d5861","system_id":"levelo_inurba_marseille","lat":43.32436,"lon":5.36593,"is_reserved":false,"is_disabled":false,"rental_uris":{"android":"levelo://app?vid=7939c606-ea6d-4b17-9e10-bdbd5f7d5861","ios":"levelo://app?vid=7939c606-ea6d-4b17-9e10-bdbd5f7d5861"},"vehicle_type_id":"4","last_reported":1741385209,"current_range_meters":12400,"station_id":"ce4bhs12rcd13ifvqhvg","pricing_plan_id":"cebpf4jnsgd1na2vs0mg"},{"bike_id":"ba1993c2-4a65-43bb-a1cc-36e375788125","system_id":"levelo_inurba_marseille","lat":43.28006,"lon":5.40005,"is_reserved":false,"is_disabled":false,"rental_uris":{"android":"levelo://app?vid=ba1993c2-4a65-43bb-a1cc-36e375788125","ios":"levelo://app?vid=ba1993c2-4a65-43bb-a1cc-36e375788125"},"vehicle_type_id":"4","last_reported":1741385209,"current_range_meters":12400,"station_id":"ce4bho92rcd13ifvqh4g","pricing_plan_id":"cebpf4jnsgd1na2vs0mg"},{"bike_id":"7a6390d5-30f1-42a9-81f6-77c4114cf172","system_id":"levelo_inurba_marseille","lat":43.278153,"lon":5.407086,"is_reserved":false,"is_disabled":false,"rental_uris":{"android":"levelo://app?vid=7a6390d5-30f1-42a9-81f6-77c4114cf172","ios":"levelo://app?vid=7a6390d5-30f1-42a9-81f6-77c4114cf172"},"vehicle_type_id":"4","last_reported":1741385209,"current_range_meters":12400,"station_id":"ce4bhnh2rcd13ifvqgtg","pricing_plan_id":"cebpf4jnsgd1na2vs0mg"},{"bike_id":"2722d816-5447-4469-a413-653f3f27b554","system_id":"levelo_inurba_marseille","lat":43.29279,"lon":5.38435,"is_reserved":false,"is_disabled":false,"rental_uris":{"android":"levelo://app?vid=2722d816-5447-4469-a413-653f3f27b554","ios":"levelo://app?vid=2722d816-5447-4469-a413-653f3f27b554"},"vehicle_type_id":"4","last_reported":1741385209,"current_range_meters":12400,"station_id":"ce4bh692rcd13ifvqea0","pricing_plan_id":"cebpf4jnsgd1na2vs0mg"},{"bike_id":"b9876437-5323-42b3-bbc9-af08b04085db","system_id":"levelo_inurba_marseille","lat":43.29293,"lon":5.39047,"is_reserved":false,"is_disabled":false,"rental_uris":{"android":"levelo://app?vid=b9876437-5323-42b3-bbc9-af08b04085db","ios":"levelo://app?vid=b9876437-5323-42b3-bbc9-af08b04085db"},"vehicle_type_id":"4","last_reported":1741385209,"current_range_meters":12400,"station_id":"","pricing_plan_id":"cebpf4jnsgd1na2vs0mg"},{"bike_id":"b54292f7-ba5a-4ca2-851d-b34190bdf4a8","system_id":"levelo_inurba_marseille","lat":43.33027,"lon":5.39037,"is_reserved":false,"is_disabled":false,"rental_uris":{"android":"levelo://app?vid=b54292f7-ba5a-4ca2-851d-b34190bdf4a8","ios":"levelo://app?vid=b54292f7-ba5a-4ca2-851d-b34190bdf4a8"},"vehicle_type_id":"4","last_reported":1741385209,"current_range_meters":12400,"station_id":"ce4bhr92rcd13ifvqhrg","pricing_plan_id":"cebpf4jnsgd1na2vs0mg"},{"bike_id":"d47b3569-7f92-439b-94f1-38239ac778f1","system_id":"levelo_inurba_marseille","lat":43.29417,"lon":5.38636,"is_reserved":false,"is_disabled":false,"rental_uris":{"android":"levelo://app?vid=d47b3569-7f92-439b-94f1-38239ac778f1","ios":"levelo://app?vid=d47b3569-7f92-439b-94f1-38239ac778f1"},"vehicle_type_id":"4","last_reported":1741385209,"current_range_meters":12400,"station_id":"ce4bh2h2rcd13ifvqdh0","pricing_plan_id":"cebpf4jnsgd1na2vs0mg"},{"bike_id":"bef8b1e1-1f3f-4f03-8b78-608ec9a93267","system_id":"levelo_inurba_marseille","lat":43.23948,"lon":5.3669,"is_reserved":false,"is_disabled":false,"rental_uris":{"android":"levelo://app?vid=bef8b1e1-1f3f-4f03-8b78-608ec9a93267","ios":"levelo://app?vid=bef8b1e1-1f3f-4f03-8b78-608ec9a93267"},"vehicle_type_id":"4","last_reported":1741385209,"current_range_meters":12400,"station_id":"","pricing_plan_id":"cebpf4jnsgd1na2vs0mg"},{"bike_id":"67a39e92-0eec-49d5-8a46-d0a8fd44fd64","system_id":"levelo_inurba_marseille","lat":43.25827,"lon":5.39437,"is_reserved":false,"is_disabled":false,"rental_uris":{"android":"levelo://app?vid=67a39e92-0eec-49d5-8a46-d0a8fd44fd64","ios":"levelo://app?vid=67a39e92-0eec-49d5-8a46-d0a8fd44fd64"},"vehicle_type_id":"4","last_reported":1741385209,"current_range_meters":12000,"station_id":"ce4bhip2rcd13ifvqft0","pricing_plan_id":"cebpf4jnsgd1na2vs0mg"},{"bike_id":"ca139617-9374-4268-888c-8db46d229f2d","system_id":"levelo_inurba_marseille","lat":43.32361,"lon":5.3888,"is_reserved":false,"is_disabled":false,"rental_uris":{"android":"levelo://app?vid=ca139617-9374-4268-888c-8db46d229f2d","ios":"levelo://app?vid=ca139617-9374-4268-888c-8db46d229f2d"},"vehicle_type_id":"4","last_reported":1741385209,"current_range_meters":12800,"station_id":"ce4bhqp2rcd13ifvqhog","pricing_plan_id":"cebpf4jnsgd1na2vs0mg"},{"bike_id":"4f508b50-1e3d-40c5-be77-1e6495edbe07","system_id":"levelo_inurba_marseille","lat":43.2574,"lon":5.41098,"is_reserved":false,"is_disabled":false,"rental_uris":{"android":"levelo://app?vid=4f508b50-1e3d-40c5-be77-1e6495edbe07","ios":"levelo://app?vid=4f508b50-1e3d-40c5-be77-1e6495edbe07"},"vehicle_type_id":"4","last_reported":1741385209,"current_range_meters":12800,"station_id":"ce4bhkp2rcd13ifvqgd0","pricing_plan_id":"cebpf4jnsgd1na2vs0mg"},{"bike_id":"117576de-ea7a-4e20-89ce-191a1398e64d","system_id":"levelo_inurba_marseille","lat":43.2319,"lon":5.39978,"is_reserved":false,"is_disabled":false,"rental_uris":{"android":"levelo://app?vid=117576de-ea7a-4e20-89ce-191a1398e64d","ios":"levelo://app?vid=117576de-ea7a-4e20-89ce-191a1398e64d"},"vehicle_type_id":"4","last_reported":1741385209,"current_range_meters":12800,"station_id":"ce4bhn12rcd13ifvqgqg","pricing_plan_id":"cebpf4jnsgd1na2vs0mg"},{"bike_id":"7e60b09d-959c-4d55-a820-f3270555724f","system_id":"levelo_inurba_marseille","lat":43.28623,"lon":5.35103,"is_reserved":false,"is_disabled":false,"rental_uris":{"android":"levelo://app?vid=7e60b09d-959c-4d55-a820-f3270555724f","ios":"levelo://app?vid=7e60b09d-959c-4d55-a820-f3270555724f"},"vehicle_type_id":"4","last_reported":1741385209,"current_range_meters":12800,"station_id":"ce4bhch2rcd13ifvqeug","pricing_plan_id":"cebpf4jnsgd1na2vs0mg"},{"bike_id":"b533f38f-df9a-4e01-86fb-08f4b9bfcdfb","system_id":"levelo_inurba_marseille","lat":43.26234,"lon":5.42122,"is_reserved":false,"is_disabled":false,"rental_uris":{"android":"levelo://app?vid=b533f38f-df9a-4e01-86fb-08f4b9bfcdfb","ios":"levelo://app?vid=b533f38f-df9a-4e01-86fb-08f4b9bfcdfb"},"vehicle_type_id":"4","last_reported":1741385209,"current_range_meters":12800,"station_id":"","pricing_plan_id":"cebpf4jnsgd1na2vs0mg"},{"bike_id":"201e16e9-1f9c-45a3-8dec-2d516ef1efcb","system_id":"levelo_inurba_marseille","lat":43.23964,"lon":5.36632,"is_reserved":false,"is_disabled":false,"rental_uris":{"android":"levelo://app?vid=201e16e9-1f9c-45a3-8dec-2d516ef1efcb","ios":"levelo://app?vid=201e16e9-1f9c-45a3-8dec-2d516ef1efcb"},"vehicle_type_id":"4","last_reported":1741385209,"current_range_meters":12800,"station_id":"ce4bhi12rcd13ifvqfp0","pricing_plan_id":"cebpf4jnsgd1na2vs0mg"},{"bike_id":"f479a6d1-3cb4-4f96-b97e-51428b8374e3","system_id":"levelo_inurba_marseille","lat":43.284628,"lon":5.358858,"is_reserved":false,"is_disabled":false,"rental_uris":{"android":"levelo://app?vid=f479a6d1-3cb4-4f96-b97e-51428b8374e3","ios":"levelo://app?vid=f479a6d1-3cb4-4f96-b97e-51428b8374e3"},"vehicle_type_id":"4","last_reported":1741385209,"current_range_meters":12800,"station_id":"ce4bhah2rcd13ifvqei0","pricing_plan_id":"cebpf4jnsgd1na2vs0mg"},{"bike_id":"d6479751-91ce-4618-9bb1-c8c9b62c03f5","system_id":"levelo_inurba_marseille","lat":43.29251,"lon":5.40902,"is_reserved":false,"is_disabled":false,"rental_uris":{"android":"levelo://app?vid=d6479751-91ce-4618-9bb1-c8c9b62c03f5","ios":"levelo://app?vid=d6479751-91ce-4618-9bb1-c8c9b62c03f5"},"vehicle_type_id":"4","last_reported":1741385209,"current_range_meters":12800,"station_id":"ce4bh192rcd13ifvqdc0","pricing_plan_id":"cebpf4jnsgd1na2vs0mg"},{"bike_id":"a16691ac-f72c-4093-abd2-e5e5f8c4da53","system_id":"levelo_inurba_marseille","lat":43.28119,"lon":5.44216,"is_reserved":false,"is_disabled":false,"rental_uris":{"android":"levelo://app?vid=a16691ac-f72c-4093-abd2-e5e5f8c4da53","ios":"levelo://app?vid=a16691ac-f72c-4093-abd2-e5e5f8c4da53"},"vehicle_type_id":"4","last_reported":1741385209,"current_range_meters":12800,"station_id":"","pricing_plan_id":"cebpf4jnsgd1na2vs0mg"},{"bike_id":"9b8789be-c150-4679-b8ba-e1d5e4639da2","system_id":"levelo_inurba_marseille","lat":43.25702,"lon":5.41137,"is_reserved":false,"is_disabled":false,"rental_uris":{"android":"levelo://app?vid=9b8789be-c150-4679-b8ba-e1d5e4639da2","ios":"levelo://app?vid=9b8789be-c150-4679-b8ba-e1d5e4639da2"},"vehicle_type_id":"4","last_reported":1741385209,"current_range_meters":12800,"station_id":"ce4bhkp2rcd13ifvqgd0","pricing_plan_id":"cebpf4jnsgd1na2vs0mg"},{"bike_id":"11e7fc3b-ed5a-4401-a0af-6e80583f87e8","system_id":"levelo_inurba_marseille","lat":43.27837,"lon":5.40646,"is_reserved":false,"is_disabled":false,"rental_uris":{"android":"levelo://app?vid=11e7fc3b-ed5a-4401-a0af-6e80583f87e8","ios":"levelo://app?vid=11e7fc3b-ed5a-4401-a0af-6e80583f87e8"},"vehicle_type_id":"4","last_reported":1741385209,"current_range_meters":12800,"station_id":"","pricing_plan_id":"cebpf4jnsgd1na2vs0mg"},{"bike_id":"0318e75b-6f26-4f9a-ba6f-536be91cb4da","system_id":"levelo_inurba_marseille","lat":43.29783,"lon":5.39335,"is_reserved":false,"is_disabled":false,"rental_uris":{"android":"levelo://app?vid=0318e75b-6f26-4f9a-ba6f-536be91cb4da","ios":"levelo://app?vid=0318e75b-6f26-4f9a-ba6f-536be91cb4da"},"vehicle_type_id":"4","last_reported":1741385209,"current_range_meters":12800,"station_id":"chh1huq6cuj3fo74tm60","pricing_plan_id":"cebpf4jnsgd1na2vs0mg"},{"bike_id":"28516e47-b2b6-41de-8bb8-d6649b6b1c7b","system_id":"levelo_inurba_marseille","lat":43.29027,"lon":5.3864,"is_reserved":false,"is_disabled":false,"rental_uris":{"android":"levelo://app?vid=28516e47-b2b6-41de-8bb8-d6649b6b1c7b","ios":"levelo://app?vid=28516e47-b2b6-41de-8bb8-d6649b6b1c7b"},"vehicle_type_id":"4","last_reported":1741385209,"current_range_meters":13600,"station_id":"ce4bh4p2rcd13ifvqe0g","pricing_plan_id":"cebpf4jnsgd1na2vs0mg"},{"bike_id":"cd5ebb7d-ddac-4b54-bcfc-ec85e7effd91","system_id":"levelo_inurba_marseille","lat":43.29968,"lon":5.38498,"is_reserved":false,"is_disabled":false,"rental_uris":{"android":"levelo://app?vid=cd5ebb7d-ddac-4b54-bcfc-ec85e7effd91","ios":"levelo://app?vid=cd5ebb7d-ddac-4b54-bcfc-ec85e7effd91"},"vehicle_type_id":"4","last_reported":1741385209,"current_range_meters":13600,"station_id":"ce4bgj92rcd13ifvqbd0","pricing_plan_id":"cebpf4jnsgd1na2vs0mg"},{"bike_id":"4d42262a-e1e1-4b14-914e-44a2d0167e84","system_id":"levelo_inurba_marseille","lat":43.28945,"lon":5.36633,"is_reserved":false,"is_disabled":false,"rental_uris":{"android":"levelo://app?vid=4d42262a-e1e1-4b14-914e-44a2d0167e84","ios":"levelo://app?vid=4d42262a-e1e1-4b14-914e-44a2d0167e84"},"vehicle_type_id":"4","last_reported":1741385209,"current_range_meters":12800,"station_id":"ce4bhap2rcd13ifvqek0","pricing_plan_id":"cebpf4jnsgd1na2vs0mg"},{"bike_id":"1faa81a2-a8bc-4577-98dd-3b0ba35543ad","system_id":"levelo_inurba_marseille","lat":43.29235,"lon":5.40917,"is_reserved":false,"is_disabled":false,"rental_uris":{"android":"levelo://app?vid=1faa81a2-a8bc-4577-98dd-3b0ba35543ad","ios":"levelo://app?vid=1faa81a2-a8bc-4577-98dd-3b0ba35543ad"},"vehicle_type_id":"4","last_reported":1741385209,"current_range_meters":13600,"station_id":"ce4bh192rcd13ifvqdc0","pricing_plan_id":"cebpf4jnsgd1na2vs0mg"},{"bike_id":"7b67bc2f-3a0e-4975-a763-28e44cad944c","system_id":"levelo_inurba_marseille","lat":43.2902,"lon":5.38642,"is_reserved":false,"is_disabled":false,"rental_uris":{"android":"levelo://app?vid=7b67bc2f-3a0e-4975-a763-28e44cad944c","ios":"levelo://app?vid=7b67bc2f-3a0e-4975-a763-28e44cad944c"},"vehicle_type_id":"4","last_reported":1741385209,"current_range_meters":14000,"station_id":"ce4bh4p2rcd13ifvqe0g","pricing_plan_id":"cebpf4jnsgd1na2vs0mg"},{"bike_id":"5832083a-af6c-455b-9dbd-d8b68bd79a1e","system_id":"levelo_inurba_marseille","lat":43.29908,"lon":5.43668,"is_reserved":false,"is_disabled":false,"rental_uris":{"android":"levelo://app?vid=5832083a-af6c-455b-9dbd-d8b68bd79a1e","ios":"levelo://app?vid=5832083a-af6c-455b-9dbd-d8b68bd79a1e"},"vehicle_type_id":"4","last_reported":1741385209,"current_range_meters":14000,"station_id":"ce4bhpp2rcd13ifvqhfg","pricing_plan_id":"cebpf4jnsgd1na2vs0mg"},{"bike_id":"afd3745f-2980-403a-a6ef-0c035551bdb9","system_id":"levelo_inurba_marseille","lat":43.32829,"lon":5.38765,"is_reserved":false,"is_disabled":false,"rental_uris":{"android":"levelo://app?vid=afd3745f-2980-403a-a6ef-0c035551bdb9","ios":"levelo://app?vid=afd3745f-2980-403a-a6ef-0c035551bdb9"},"vehicle_type_id":"4","last_reported":1741385209,"current_range_meters":14000,"station_id":"","pricing_plan_id":"cebpf4jnsgd1na2vs0mg"},{"bike_id":"e1df5967-8400-4d75-a43d-c994bfc39aae","system_id":"levelo_inurba_marseille","lat":43.28712,"lon":5.39982,"is_reserved":false,"is_disabled":false,"rental_uris":{"android":"levelo://app?vid=e1df5967-8400-4d75-a43d-c994bfc39aae","ios":"levelo://app?vid=e1df5967-8400-4d75-a43d-c994bfc39aae"},"vehicle_type_id":"4","last_reported":1741385209,"current_range_meters":14000,"station_id":"ce4bho92rcd13ifvqh3g","pricing_plan_id":"cebpf4jnsgd1na2vs0mg"},{"bike_id":"d15888b3-84cd-42f5-8973-07174fa936f9","system_id":"levelo_inurba_marseille","lat":43.3145,"lon":5.37392,"is_reserved":false,"is_disabled":false,"rental_uris":{"android":"levelo://app?vid=d15888b3-84cd-42f5-8973-07174fa936f9","ios":"levelo://app?vid=d15888b3-84cd-42f5-8973-07174fa936f9"},"vehicle_type_id":"4","last_reported":1741385209,"current_range_meters":14000,"station_id":"","pricing_plan_id":"cebpf4jnsgd1na2vs0mg"},{"bike_id":"1aad46e9-e3a3-4467-8990-0d3c29128203","system_id":"levelo_inurba_marseille","lat":43.24994,"lon":5.38929,"is_reserved":false,"is_disabled":false,"rental_uris":{"android":"levelo://app?vid=1aad46e9-e3a3-4467-8990-0d3c29128203","ios":"levelo://app?vid=1aad46e9-e3a3-4467-8990-0d3c29128203"},"vehicle_type_id":"4","last_reported":1741385209,"current_range_meters":13600,"station_id":"ce4bhgp2rcd13ifvqfd0","pricing_plan_id":"cebpf4jnsgd1na2vs0mg"},{"bike_id":"47162960-ec0e-4429-9619-06f37c3ae3b1","system_id":"levelo_inurba_marseille","lat":43.28699,"lon":5.37395,"is_reserved":false,"is_disabled":false,"rental_uris":{"android":"levelo://app?vid=47162960-ec0e-4429-9619-06f37c3ae3b1","ios":"levelo://app?vid=47162960-ec0e-4429-9619-06f37c3ae3b1"},"vehicle_type_id":"4","last_reported":1741385209,"current_range_meters":13600,"station_id":"ce4bh3p2rcd13ifvqdq0","pricing_plan_id":"cebpf4jnsgd1na2vs0mg"},{"bike_id":"58f7a9db-7c71-41d2-9a53-017240dd0f34","system_id":"levelo_inurba_marseille","lat":43.2963,"lon":5.40596,"is_reserved":false,"is_disabled":false,"rental_uris":{"android":"levelo://app?vid=58f7a9db-7c71-41d2-9a53-017240dd0f34","ios":"levelo://app?vid=58f7a9db-7c71-41d2-9a53-017240dd0f34"},"vehicle_type_id":"4","last_reported":1741385209,"current_range_meters":14000,"station_id":"ce4bh0h2rcd13ifvqd60","pricing_plan_id":"cebpf4jnsgd1na2vs0mg"},{"bike_id":"9b9912a1-cda6-4b6e-8236-6c79e235b387","system_id":"levelo_inurba_marseille","lat":43.32362,"lon":5.38875,"is_reserved":false,"is_disabled":false,"rental_uris":{"android":"levelo://app?vid=9b9912a1-cda6-4b6e-8236-6c79e235b387","ios":"levelo://app?vid=9b9912a1-cda6-4b6e-8236-6c79e235b387"},"vehicle_type_id":"4","last_reported":1741385209,"current_range_meters":14400,"station_id":"ce4bhqp2rcd13ifvqhog","pricing_plan_id":"cebpf4jnsgd1na2vs0mg"},{"bike_id":"7a8959cf-cba4-472b-a67f-21d9d3e5e3a1","system_id":"levelo_inurba_marseille","lat":43.2439,"lon":5.43794,"is_reserved":false,"is_disabled":false,"rental_uris":{"android":"levelo://app?vid=7a8959cf-cba4-472b-a67f-21d9d3e5e3a1","ios":"levelo://app?vid=7a8959cf-cba4-472b-a67f-21d9d3e5e3a1"},"vehicle_type_id":"4","last_reported":1741385209,"current_range_meters":14400,"station_id":"","pricing_plan_id":"cebpf4jnsgd1na2vs0mg"},{"bike_id":"44c0f9a1-99ba-41cb-8f36-0e033c5e16cc","system_id":"levelo_inurba_marseille","lat":43.26202,"lon":5.37438,"is_reserved":false,"is_disabled":false,"rental_uris":{"android":"levelo://app?vid=44c0f9a1-99ba-41cb-8f36-0e033c5e16cc","ios":"levelo://app?vid=44c0f9a1-99ba-41cb-8f36-0e033c5e16cc"},"vehicle_type_id":"4","last_reported":1741385209,"current_range_meters":14400,"station_id":"ce4bhgp2rcd13ifvqfc0","pricing_plan_id":"cebpf4jnsgd1na2vs0mg"},{"bike_id":"1e1f77c5-0eef-47bb-b0c8-d60c1ef11d97","system_id":"levelo_inurba_marseille","lat":43.28353,"lon":5.38105,"is_reserved":false,"is_disabled":false,"rental_uris":{"android":"levelo://app?vid=1e1f77c5-0eef-47bb-b0c8-d60c1ef11d97","ios":"levelo://app?vid=1e1f77c5-0eef-47bb-b0c8-d60c1ef11d97"},"vehicle_type_id":"4","last_reported":1741385209,"current_range_meters":13600,"station_id":"ce4bh412rcd13ifvqdr0","pricing_plan_id":"cebpf4jnsgd1na2vs0mg"},{"bike_id":"83944feb-c762-4dcd-b641-23ebfec11256","system_id":"levelo_inurba_marseille","lat":43.29586,"lon":5.36737,"is_reserved":false,"is_disabled":false,"rental_uris":{"android":"levelo://app?vid=83944feb-c762-4dcd-b641-23ebfec11256","ios":"levelo://app?vid=83944feb-c762-4dcd-b641-23ebfec11256"},"vehicle_type_id":"4","last_reported":1741385209,"current_range_meters":14000,"station_id":"ce4bgph2rcd13ifvqc2g","pricing_plan_id":"cebpf4jnsgd1na2vs0mg"},{"bike_id":"d1af1c64-45b6-4d17-9d6d-0f29e2231eaa","system_id":"levelo_inurba_marseille","lat":43.23956,"lon":5.36633,"is_reserved":false,"is_disabled":false,"rental_uris":{"android":"levelo://app?vid=d1af1c64-45b6-4d17-9d6d-0f29e2231eaa","ios":"levelo://app?vid=d1af1c64-45b6-4d17-9d6d-0f29e2231eaa"},"vehicle_type_id":"4","last_reported":1741385209,"current_range_meters":14800,"station_id":"ce4bhi12rcd13ifvqfp0","pricing_plan_id":"cebpf4jnsgd1na2vs0mg"},{"bike_id":"b2c2514d-58df-4080-9acc-0a3325c87525","system_id":"levelo_inurba_marseille","lat":43.32365,"lon":5.3659,"is_reserved":false,"is_disabled":false,"rental_uris":{"android":"levelo://app?vid=b2c2514d-58df-4080-9acc-0a3325c87525","ios":"levelo://app?vid=b2c2514d-58df-4080-9acc-0a3325c87525"},"vehicle_type_id":"4","last_reported":1741385209,"current_range_meters":14800,"station_id":"ce4bhs12rcd13ifvqhvg","pricing_plan_id":"cebpf4jnsgd1na2vs0mg"},{"bike_id":"e724698f-32c5-42c6-bc5e-bb276b8a2513","system_id":"levelo_inurba_marseille","lat":43.272637,"lon":5.400939,"is_reserved":false,"is_disabled":false,"rental_uris":{"android":"levelo://app?vid=e724698f-32c5-42c6-bc5e-bb276b8a2513","ios":"levelo://app?vid=e724698f-32c5-42c6-bc5e-bb276b8a2513"},"vehicle_type_id":"4","last_reported":1741385209,"current_range_meters":14800,"station_id":"ce4bhk92rcd13ifvqgb0","pricing_plan_id":"cebpf4jnsgd1na2vs0mg"},{"bike_id":"6ff812c0-0589-4e57-bcce-fb72a0a09985","system_id":"levelo_inurba_marseille","lat":43.29303,"lon":5.37167,"is_reserved":false,"is_disabled":false,"rental_uris":{"android":"levelo://app?vid=6ff812c0-0589-4e57-bcce-fb72a0a09985","ios":"levelo://app?vid=6ff812c0-0589-4e57-bcce-fb72a0a09985"},"vehicle_type_id":"4","last_reported":1741385209,"current_range_meters":14800,"station_id":"ce4bgh92rcd13ifvqb40","pricing_plan_id":"cebpf4jnsgd1na2vs0mg"},{"bike_id":"f76c7c48-d13a-435b-8cb8-5b58804e04d0","system_id":"levelo_inurba_marseille","lat":43.29198,"lon":5.3933,"is_reserved":false,"is_disabled":false,"rental_uris":{"android":"levelo://app?vid=f76c7c48-d13a-435b-8cb8-5b58804e04d0","ios":"levelo://app?vid=f76c7c48-d13a-435b-8cb8-5b58804e04d0"},"vehicle_type_id":"4","last_reported":1741385209,"current_range_meters":14800,"station_id":"ce4bh192rcd13ifvqdd0","pricing_plan_id":"cebpf4jnsgd1na2vs0mg"},{"bike_id":"03f4b916-1662-4212-a844-6b18f5a62a27","system_id":"levelo_inurba_marseille","lat":43.28709,"lon":5.39986,"is_reserved":false,"is_disabled":false,"rental_uris":{"android":"levelo://app?vid=03f4b916-1662-4212-a844-6b18f5a62a27","ios":"levelo://app?vid=03f4b916-1662-4212-a844-6b18f5a62a27"},"vehicle_type_id":"4","last_reported":1741385209,"current_range_meters":15200,"station_id":"ce4bho92rcd13ifvqh3g","pricing_plan_id":"cebpf4jnsgd1na2vs0mg"},{"bike_id":"8e43052e-86ee-431c-a3c5-7b2cafc0c661","system_id":"levelo_inurba_marseille","lat":43.27315,"lon":5.39109,"is_reserved":false,"is_disabled":true,"rental_uris":{"android":"levelo://app?vid=8e43052e-86ee-431c-a3c5-7b2cafc0c661","ios":"levelo://app?vid=8e43052e-86ee-431c-a3c5-7b2cafc0c661"},"vehicle_type_id":"4","last_reported":1741385209,"current_range_meters":15200,"station_id":"ce4bhgp2rcd13ifvqfe0","pricing_plan_id":"cebpf4jnsgd1na2vs0mg"},{"bike_id":"976044b2-6c39-4029-b0bf-0814a0d0e543","system_id":"levelo_inurba_marseille","lat":43.28833,"lon":5.35837,"is_reserved":false,"is_disabled":false,"rental_uris":{"android":"levelo://app?vid=976044b2-6c39-4029-b0bf-0814a0d0e543","ios":"levelo://app?vid=976044b2-6c39-4029-b0bf-0814a0d0e543"},"vehicle_type_id":"4","last_reported":1741385209,"current_range_meters":15200,"station_id":"ce4bhb12rcd13ifvqem0","pricing_plan_id":"cebpf4jnsgd1na2vs0mg"},{"bike_id":"388ea826-f5fa-4632-a530-45d13cc0a769","system_id":"levelo_inurba_marseille","lat":43.23187,"lon":5.3999,"is_reserved":false,"is_disabled":false,"rental_uris":{"android":"levelo://app?vid=388ea826-f5fa-4632-a530-45d13cc0a769","ios":"levelo://app?vid=388ea826-f5fa-4632-a530-45d13cc0a769"},"vehicle_type_id":"4","last_reported":1741385209,"current_range_meters":15200,"station_id":"ce4bhn12rcd13ifvqgqg","pricing_plan_id":"cebpf4jnsgd1na2vs0mg"},{"bike_id":"b2bbddf7-568c-45d5-b609-6b1bc29f61e9","system_id":"levelo_inurba_marseille","lat":43.2926,"lon":5.38454,"is_reserved":false,"is_disabled":false,"rental_uris":{"android":"levelo://app?vid=b2bbddf7-568c-45d5-b609-6b1bc29f61e9","ios":"levelo://app?vid=b2bbddf7-568c-45d5-b609-6b1bc29f61e9"},"vehicle_type_id":"4","last_reported":1741385209,"current_range_meters":15200,"station_id":"ce4bh692rcd13ifvqea0","pricing_plan_id":"cebpf4jnsgd1na2vs0mg"},{"bike_id":"1ff664cb-f378-4a6c-b3c1-b47ee25a2174","system_id":"levelo_inurba_marseille","lat":43.32357,"lon":5.38882,"is_reserved":false,"is_disabled":false,"rental_uris":{"android":"levelo://app?vid=1ff664cb-f378-4a6c-b3c1-b47ee25a2174","ios":"levelo://app?vid=1ff664cb-f378-4a6c-b3c1-b47ee25a2174"},"vehicle_type_id":"4","last_reported":1741385209,"current_range_meters":15200,"station_id":"ce4bhqp2rcd13ifvqhog","pricing_plan_id":"cebpf4jnsgd1na2vs0mg"},{"bike_id":"f2c5ce91-f8f8-4daf-8416-88830d4b8cdb","system_id":"levelo_inurba_marseille","lat":43.30949,"lon":5.39023,"is_reserved":false,"is_disabled":false,"rental_uris":{"android":"levelo://app?vid=f2c5ce91-f8f8-4daf-8416-88830d4b8cdb","ios":"levelo://app?vid=f2c5ce91-f8f8-4daf-8416-88830d4b8cdb"},"vehicle_type_id":"4","last_reported":1741385209,"current_range_meters":15200,"station_id":"ce4bgup2rcd13ifvqco0","pricing_plan_id":"cebpf4jnsgd1na2vs0mg"},{"bike_id":"c3821921-6f0e-4522-ac7a-982a8ffe12d7","system_id":"levelo_inurba_marseille","lat":43.288471,"lon":5.358831,"is_reserved":false,"is_disabled":false,"rental_uris":{"android":"levelo://app?vid=c3821921-6f0e-4522-ac7a-982a8ffe12d7","ios":"levelo://app?vid=c3821921-6f0e-4522-ac7a-982a8ffe12d7"},"vehicle_type_id":"4","last_reported":1741385209,"current_range_meters":15200,"station_id":"ce4bhb12rcd13ifvqem0","pricing_plan_id":"cebpf4jnsgd1na2vs0mg"},{"bike_id":"cbc52a4d-b1a3-4bdf-8ed7-d851e16ba8f2","system_id":"levelo_inurba_marseille","lat":43.27672,"lon":5.389,"is_reserved":false,"is_disabled":true,"rental_uris":{"android":"levelo://app?vid=cbc52a4d-b1a3-4bdf-8ed7-d851e16ba8f2","ios":"levelo://app?vid=cbc52a4d-b1a3-4bdf-8ed7-d851e16ba8f2"},"vehicle_type_id":"4","last_reported":1741385209,"current_range_meters":16000,"station_id":"ce4bhi12rcd13ifvqfo0","pricing_plan_id":"cebpf4jnsgd1na2vs0mg"},{"bike_id":"9c995d6a-3738-4861-a214-1e4e79cf0ba7","system_id":"levelo_inurba_marseille","lat":43.29975,"lon":5.37177,"is_reserved":false,"is_disabled":false,"rental_uris":{"android":"levelo://app?vid=9c995d6a-3738-4861-a214-1e4e79cf0ba7","ios":"levelo://app?vid=9c995d6a-3738-4861-a214-1e4e79cf0ba7"},"vehicle_type_id":"4","last_reported":1741385209,"current_range_meters":16000,"station_id":"ce4bgr92rcd13ifvqc7g","pricing_plan_id":"cebpf4jnsgd1na2vs0mg"},{"bike_id":"fbf804d7-6c73-46e9-abdb-acb74deb6dc4","system_id":"levelo_inurba_marseille","lat":43.23065,"lon":5.35509,"is_reserved":false,"is_disabled":false,"rental_uris":{"android":"levelo://app?vid=fbf804d7-6c73-46e9-abdb-acb74deb6dc4","ios":"levelo://app?vid=fbf804d7-6c73-46e9-abdb-acb74deb6dc4"},"vehicle_type_id":"4","last_reported":1741385209,"current_range_meters":16000,"station_id":"cpo3342slgdg3j2ifvpg","pricing_plan_id":"cebpf4jnsgd1na2vs0mg"},{"bike_id":"cad50f92-ade3-4d44-854f-ce870686a5ae","system_id":"levelo_inurba_marseille","lat":43.32674,"lon":5.40994,"is_reserved":false,"is_disabled":false,"rental_uris":{"android":"levelo://app?vid=cad50f92-ade3-4d44-854f-ce870686a5ae","ios":"levelo://app?vid=cad50f92-ade3-4d44-854f-ce870686a5ae"},"vehicle_type_id":"4","last_reported":1741385209,"current_range_meters":16000,"station_id":"ce4bhpp2rcd13ifvqhgg","pricing_plan_id":"cebpf4jnsgd1na2vs0mg"},{"bike_id":"c4440271-3fcf-4ba1-a76e-05e2a3eefe6d","system_id":"levelo_inurba_marseille","lat":43.29918,"lon":5.38123,"is_reserved":false,"is_disabled":true,"rental_uris":{"android":"levelo://app?vid=c4440271-3fcf-4ba1-a76e-05e2a3eefe6d","ios":"levelo://app?vid=c4440271-3fcf-4ba1-a76e-05e2a3eefe6d"},"vehicle_type_id":"4","last_reported":1741385209,"current_range_meters":16000,"station_id":"ce4bgj12rcd13ifvqbc0","pricing_plan_id":"cebpf4jnsgd1na2vs0mg"},{"bike_id":"65d2271a-97b5-4913-95aa-cf77a293f0eb","system_id":"levelo_inurba_marseille","lat":43.26051,"lon":5.37546,"is_reserved":false,"is_disabled":false,"rental_uris":{"android":"levelo://app?vid=65d2271a-97b5-4913-95aa-cf77a293f0eb","ios":"levelo://app?vid=65d2271a-97b5-4913-95aa-cf77a293f0eb"},"vehicle_type_id":"4","last_reported":1741385209,"current_range_meters":16000,"station_id":"ce4bhgh2rcd13ifvqfa0","pricing_plan_id":"cebpf4jnsgd1na2vs0mg"},{"bike_id":"c1c412b3-ae23-45ab-894a-fe5b494cc9e6","system_id":"levelo_inurba_marseille","lat":43.23192,"lon":5.35564,"is_reserved":false,"is_disabled":false,"rental_uris":{"android":"levelo://app?vid=c1c412b3-ae23-45ab-894a-fe5b494cc9e6","ios":"levelo://app?vid=c1c412b3-ae23-45ab-894a-fe5b494cc9e6"},"vehicle_type_id":"4","last_reported":1741385209,"current_range_meters":16000,"station_id":"ce4bhu92rcd13ifvqi70","pricing_plan_id":"cebpf4jnsgd1na2vs0mg"},{"bike_id":"b7cc588a-a217-48f3-9e50-40033e8ce22d","system_id":"levelo_inurba_marseille","lat":43.27377,"lon":5.36254,"is_reserved":false,"is_disabled":false,"rental_uris":{"android":"levelo://app?vid=b7cc588a-a217-48f3-9e50-40033e8ce22d","ios":"levelo://app?vid=b7cc588a-a217-48f3-9e50-40033e8ce22d"},"vehicle_type_id":"4","last_reported":1741385209,"current_range_meters":16000,"station_id":"ce4bhbh2rcd13ifvqeo0","pricing_plan_id":"cebpf4jnsgd1na2vs0mg"},{"bike_id":"372a04b9-e9d9-431b-b119-7252baf191db","system_id":"levelo_inurba_marseille","lat":43.295285,"lon":5.39394,"is_reserved":false,"is_disabled":false,"rental_uris":{"android":"levelo://app?vid=372a04b9-e9d9-431b-b119-7252baf191db","ios":"levelo://app?vid=372a04b9-e9d9-431b-b119-7252baf191db"},"vehicle_type_id":"4","last_reported":1741385209,"current_range_meters":16400,"station_id":"ce4bh292rcd13ifvqdf0","pricing_plan_id":"cebpf4jnsgd1na2vs0mg"},{"bike_id":"e2f16603-98dc-4c4a-9645-a66753ea9bdb","system_id":"levelo_inurba_marseille","lat":43.28709,"lon":5.39992,"is_reserved":false,"is_disabled":false,"rental_uris":{"android":"levelo://app?vid=e2f16603-98dc-4c4a-9645-a66753ea9bdb","ios":"levelo://app?vid=e2f16603-98dc-4c4a-9645-a66753ea9bdb"},"vehicle_type_id":"4","last_reported":1741385209,"current_range_meters":16400,"station_id":"ce4bho92rcd13ifvqh3g","pricing_plan_id":"cebpf4jnsgd1na2vs0mg"},{"bike_id":"4a0da1c5-4791-4a16-b579-4fc7233883a6","system_id":"levelo_inurba_marseille","lat":43.27209,"lon":5.39179,"is_reserved":false,"is_disabled":false,"rental_uris":{"android":"levelo://app?vid=4a0da1c5-4791-4a16-b579-4fc7233883a6","ios":"levelo://app?vid=4a0da1c5-4791-4a16-b579-4fc7233883a6"},"vehicle_type_id":"4","last_reported":1741385209,"current_range_meters":16400,"station_id":"ce4bhhp2rcd13ifvqfm0","pricing_plan_id":"cebpf4jnsgd1na2vs0mg"},{"bike_id":"28c160a0-d9d5-45ac-9574-7e60dde4a477","system_id":"levelo_inurba_marseille","lat":43.27962,"lon":5.38728,"is_reserved":false,"is_disabled":false,"rental_uris":{"android":"levelo://app?vid=28c160a0-d9d5-45ac-9574-7e60dde4a477","ios":"levelo://app?vid=28c160a0-d9d5-45ac-9574-7e60dde4a477"},"vehicle_type_id":"4","last_reported":1741385209,"current_range_meters":16400,"station_id":"ce4bhg12rcd13ifvqf80","pricing_plan_id":"cebpf4jnsgd1na2vs0mg"},{"bike_id":"ca1ac6f9-8304-441d-b17f-201bcc008dae","system_id":"levelo_inurba_marseille","lat":43.34359,"lon":5.39942,"is_reserved":false,"is_disabled":false,"rental_uris":{"android":"levelo://app?vid=ca1ac6f9-8304-441d-b17f-201bcc008dae","ios":"levelo://app?vid=ca1ac6f9-8304-441d-b17f-201bcc008dae"},"vehicle_type_id":"4","last_reported":1741385209,"current_range_meters":16400,"station_id":"","pricing_plan_id":"cebpf4jnsgd1na2vs0mg"},{"bike_id":"cdc6fa71-b8c0-46e7-902c-4e18b52385d2","system_id":"levelo_inurba_marseille","lat":43.28848,"lon":5.4001,"is_reserved":false,"is_disabled":false,"rental_uris":{"android":"levelo://app?vid=cdc6fa71-b8c0-46e7-902c-4e18b52385d2","ios":"levelo://app?vid=cdc6fa71-b8c0-46e7-902c-4e18b52385d2"},"vehicle_type_id":"4","last_reported":1741385209,"current_range_meters":16400,"station_id":"","pricing_plan_id":"cebpf4jnsgd1na2vs0mg"},{"bike_id":"fe8b789c-82c7-4eb5-8e57-7e075108a2ff","system_id":"levelo_inurba_marseille","lat":43.240692,"lon":5.377619,"is_reserved":false,"is_disabled":false,"rental_uris":{"android":"levelo://app?vid=fe8b789c-82c7-4eb5-8e57-7e075108a2ff","ios":"levelo://app?vid=fe8b789c-82c7-4eb5-8e57-7e075108a2ff"},"vehicle_type_id":"4","last_reported":1741385209,"current_range_meters":16400,"station_id":"ce4bhnp2rcd13ifvqgvg","pricing_plan_id":"cebpf4jnsgd1na2vs0mg"},{"bike_id":"8a17f1eb-77b6-4176-9a0b-34b4860df9c1","system_id":"levelo_inurba_marseille","lat":43.29253,"lon":5.40904,"is_reserved":false,"is_disabled":false,"rental_uris":{"android":"levelo://app?vid=8a17f1eb-77b6-4176-9a0b-34b4860df9c1","ios":"levelo://app?vid=8a17f1eb-77b6-4176-9a0b-34b4860df9c1"},"vehicle_type_id":"4","last_reported":1741385209,"current_range_meters":16400,"station_id":"ce4bh192rcd13ifvqdc0","pricing_plan_id":"cebpf4jnsgd1na2vs0mg"},{"bike_id":"21a97c5e-42a1-42dc-8f0b-c09a56ace1b8","system_id":"levelo_inurba_marseille","lat":43.30371,"lon":5.42501,"is_reserved":false,"is_disabled":true,"rental_uris":{"android":"levelo://app?vid=21a97c5e-42a1-42dc-8f0b-c09a56ace1b8","ios":"levelo://app?vid=21a97c5e-42a1-42dc-8f0b-c09a56ace1b8"},"vehicle_type_id":"4","last_reported":1741385209,"current_range_meters":16400,"station_id":"","pricing_plan_id":"cebpf4jnsgd1na2vs0mg"},{"bike_id":"7470f053-99e0-4222-a436-e5ac7880f722","system_id":"levelo_inurba_marseille","lat":43.22925,"lon":5.35376,"is_reserved":false,"is_disabled":false,"rental_uris":{"android":"levelo://app?vid=7470f053-99e0-4222-a436-e5ac7880f722","ios":"levelo://app?vid=7470f053-99e0-4222-a436-e5ac7880f722"},"vehicle_type_id":"4","last_reported":1741385209,"current_range_meters":16400,"station_id":"cpo3532slgdg3j2ikp40","pricing_plan_id":"cebpf4jnsgd1na2vs0mg"},{"bike_id":"95936caa-1f4e-46e1-af83-370d03622e59","system_id":"levelo_inurba_marseille","lat":43.30091,"lon":5.39085,"is_reserved":false,"is_disabled":true,"rental_uris":{"android":"levelo://app?vid=95936caa-1f4e-46e1-af83-370d03622e59","ios":"levelo://app?vid=95936caa-1f4e-46e1-af83-370d03622e59"},"vehicle_type_id":"4","last_reported":1741385209,"current_range_meters":16400,"station_id":"ce4bh192rcd13ifvqdb0","pricing_plan_id":"cebpf4jnsgd1na2vs0mg"},{"bike_id":"97d95439-94cf-421a-af98-a49a3db92d1a","system_id":"levelo_inurba_marseille","lat":43.24783,"lon":5.41733,"is_reserved":false,"is_disabled":false,"rental_uris":{"android":"levelo://app?vid=97d95439-94cf-421a-af98-a49a3db92d1a","ios":"levelo://app?vid=97d95439-94cf-421a-af98-a49a3db92d1a"},"vehicle_type_id":"4","last_reported":1741385209,"current_range_meters":16800,"station_id":"","pricing_plan_id":"cebpf4jnsgd1na2vs0mg"},{"bike_id":"0465dcf9-c8cf-40e3-b249-e78308fcd28f","system_id":"levelo_inurba_marseille","lat":43.31209,"lon":5.3691,"is_reserved":false,"is_disabled":false,"rental_uris":{"android":"levelo://app?vid=0465dcf9-c8cf-40e3-b249-e78308fcd28f","ios":"levelo://app?vid=0465dcf9-c8cf-40e3-b249-e78308fcd28f"},"vehicle_type_id":"4","last_reported":1741385209,"current_range_meters":16800,"station_id":"ce4bgl92rcd13ifvqbq0","pricing_plan_id":"cebpf4jnsgd1na2vs0mg"},{"bike_id":"ca1ba0b8-b8b8-4138-9a53-150b46de62cf","system_id":"levelo_inurba_marseille","lat":43.29307,"lon":5.371567,"is_reserved":false,"is_disabled":false,"rental_uris":{"android":"levelo://app?vid=ca1ba0b8-b8b8-4138-9a53-150b46de62cf","ios":"levelo://app?vid=ca1ba0b8-b8b8-4138-9a53-150b46de62cf"},"vehicle_type_id":"4","last_reported":1741385209,"current_range_meters":16800,"station_id":"ce4bgh92rcd13ifvqb40","pricing_plan_id":"cebpf4jnsgd1na2vs0mg"},{"bike_id":"bfbfb8b2-951b-41e3-9abb-8ec2115a8df8","system_id":"levelo_inurba_marseille","lat":43.28478,"lon":5.35872,"is_reserved":false,"is_disabled":false,"rental_uris":{"android":"levelo://app?vid=bfbfb8b2-951b-41e3-9abb-8ec2115a8df8","ios":"levelo://app?vid=bfbfb8b2-951b-41e3-9abb-8ec2115a8df8"},"vehicle_type_id":"4","last_reported":1741385209,"current_range_meters":16800,"station_id":"ce4bhah2rcd13ifvqei0","pricing_plan_id":"cebpf4jnsgd1na2vs0mg"},{"bike_id":"bb28e1a5-f346-4ea6-aced-14ee9ec77e95","system_id":"levelo_inurba_marseille","lat":43.29262,"lon":5.38418,"is_reserved":false,"is_disabled":false,"rental_uris":{"android":"levelo://app?vid=bb28e1a5-f346-4ea6-aced-14ee9ec77e95","ios":"levelo://app?vid=bb28e1a5-f346-4ea6-aced-14ee9ec77e95"},"vehicle_type_id":"4","last_reported":1741385209,"current_range_meters":16800,"station_id":"ce4bh692rcd13ifvqea0","pricing_plan_id":"cebpf4jnsgd1na2vs0mg"},{"bike_id":"3cce2763-0100-4700-95f7-eaa0ffbc4c8e","system_id":"levelo_inurba_marseille","lat":43.27427,"lon":5.39363,"is_reserved":false,"is_disabled":false,"rental_uris":{"android":"levelo://app?vid=3cce2763-0100-4700-95f7-eaa0ffbc4c8e","ios":"levelo://app?vid=3cce2763-0100-4700-95f7-eaa0ffbc4c8e"},"vehicle_type_id":"4","last_reported":1741385209,"current_range_meters":16800,"station_id":"ce4bhdp2rcd13ifvqf20","pricing_plan_id":"cebpf4jnsgd1na2vs0mg"},{"bike_id":"0a9bc1bd-e305-40d4-8852-5005300b12a0","system_id":"levelo_inurba_marseille","lat":43.2294,"lon":5.35372,"is_reserved":false,"is_disabled":false,"rental_uris":{"android":"levelo://app?vid=0a9bc1bd-e305-40d4-8852-5005300b12a0","ios":"levelo://app?vid=0a9bc1bd-e305-40d4-8852-5005300b12a0"},"vehicle_type_id":"4","last_reported":1741385209,"current_range_meters":17200,"station_id":"cpo3532slgdg3j2ikp40","pricing_plan_id":"cebpf4jnsgd1na2vs0mg"},{"bike_id":"b3cfeb93-fc2b-493d-89d0-15b3342a099e","system_id":"levelo_inurba_marseille","lat":43.29252,"lon":5.38448,"is_reserved":false,"is_disabled":false,"rental_uris":{"android":"levelo://app?vid=b3cfeb93-fc2b-493d-89d0-15b3342a099e","ios":"levelo://app?vid=b3cfeb93-fc2b-493d-89d0-15b3342a099e"},"vehicle_type_id":"4","last_reported":1741385209,"current_range_meters":17200,"station_id":"ce4bh692rcd13ifvqea0","pricing_plan_id":"cebpf4jnsgd1na2vs0mg"},{"bike_id":"44ab9849-2715-4bf7-a365-b5f0f4bb6da0","system_id":"levelo_inurba_marseille","lat":43.29614,"lon":5.37138,"is_reserved":false,"is_disabled":false,"rental_uris":{"android":"levelo://app?vid=44ab9849-2715-4bf7-a365-b5f0f4bb6da0","ios":"levelo://app?vid=44ab9849-2715-4bf7-a365-b5f0f4bb6da0"},"vehicle_type_id":"4","last_reported":1741385209,"current_range_meters":17200,"station_id":"ce4bgnh2rcd13ifvqc0g","pricing_plan_id":"cebpf4jnsgd1na2vs0mg"},{"bike_id":"0da4b025-c2c9-4c92-8128-932f98eb7ed9","system_id":"levelo_inurba_marseille","lat":43.32367,"lon":5.38886,"is_reserved":false,"is_disabled":false,"rental_uris":{"android":"levelo://app?vid=0da4b025-c2c9-4c92-8128-932f98eb7ed9","ios":"levelo://app?vid=0da4b025-c2c9-4c92-8128-932f98eb7ed9"},"vehicle_type_id":"4","last_reported":1741385209,"current_range_meters":17200,"station_id":"ce4bhqp2rcd13ifvqhog","pricing_plan_id":"cebpf4jnsgd1na2vs0mg"},{"bike_id":"693aa05e-bbe4-470a-abe8-33a8db86ff65","system_id":"levelo_inurba_marseille","lat":43.29632,"lon":5.40588,"is_reserved":false,"is_disabled":false,"rental_uris":{"android":"levelo://app?vid=693aa05e-bbe4-470a-abe8-33a8db86ff65","ios":"levelo://app?vid=693aa05e-bbe4-470a-abe8-33a8db86ff65"},"vehicle_type_id":"4","last_reported":1741385209,"current_range_meters":17600,"station_id":"ce4bh0h2rcd13ifvqd60","pricing_plan_id":"cebpf4jnsgd1na2vs0mg"},{"bike_id":"d10ed6c0-6bb7-4d92-a175-686986ec0df1","system_id":"levelo_inurba_marseille","lat":43.29296,"lon":5.37459,"is_reserved":false,"is_disabled":false,"rental_uris":{"android":"levelo://app?vid=d10ed6c0-6bb7-4d92-a175-686986ec0df1","ios":"levelo://app?vid=d10ed6c0-6bb7-4d92-a175-686986ec0df1"},"vehicle_type_id":"4","last_reported":1741385209,"current_range_meters":17600,"station_id":"ce4bgi12rcd13ifvqb70","pricing_plan_id":"cebpf4jnsgd1na2vs0mg"},{"bike_id":"48e6a237-4f39-43d6-a57e-bdc6516d5383","system_id":"levelo_inurba_marseille","lat":43.29315,"lon":5.37154,"is_reserved":false,"is_disabled":false,"rental_uris":{"android":"levelo://app?vid=48e6a237-4f39-43d6-a57e-bdc6516d5383","ios":"levelo://app?vid=48e6a237-4f39-43d6-a57e-bdc6516d5383"},"vehicle_type_id":"4","last_reported":1741385209,"current_range_meters":17600,"station_id":"ce4bgh92rcd13ifvqb40","pricing_plan_id":"cebpf4jnsgd1na2vs0mg"},{"bike_id":"fde65d0e-62ed-4926-a6b0-2ca76c6d86e9","system_id":"levelo_inurba_marseille","lat":43.29268,"lon":5.38432,"is_reserved":false,"is_disabled":false,"rental_uris":{"android":"levelo://app?vid=fde65d0e-62ed-4926-a6b0-2ca76c6d86e9","ios":"levelo://app?vid=fde65d0e-62ed-4926-a6b0-2ca76c6d86e9"},"vehicle_type_id":"4","last_reported":1741385209,"current_range_meters":17600,"station_id":"ce4bh692rcd13ifvqea0","pricing_plan_id":"cebpf4jnsgd1na2vs0mg"},{"bike_id":"971882c7-adea-4510-b584-a476be330ce4","system_id":"levelo_inurba_marseille","lat":43.2961,"lon":5.38093,"is_reserved":false,"is_disabled":true,"rental_uris":{"android":"levelo://app?vid=971882c7-adea-4510-b584-a476be330ce4","ios":"levelo://app?vid=971882c7-adea-4510-b584-a476be330ce4"},"vehicle_type_id":"4","last_reported":1741385209,"current_range_meters":17600,"station_id":"ce4bgl12rcd13ifvqbo0","pricing_plan_id":"cebpf4jnsgd1na2vs0mg"},{"bike_id":"ba3cab05-da73-480c-a123-6382d1db2e48","system_id":"levelo_inurba_marseille","lat":43.30538,"lon":5.38423,"is_reserved":false,"is_disabled":false,"rental_uris":{"android":"levelo://app?vid=ba3cab05-da73-480c-a123-6382d1db2e48","ios":"levelo://app?vid=ba3cab05-da73-480c-a123-6382d1db2e48"},"vehicle_type_id":"4","last_reported":1741385209,"current_range_meters":17600,"station_id":"ce4bgg92rcd13ifvqb30","pricing_plan_id":"cebpf4jnsgd1na2vs0mg"},{"bike_id":"fcdee4e4-775f-40a5-af36-ebe37031a563","system_id":"levelo_inurba_marseille","lat":43.274896,"lon":5.434872,"is_reserved":false,"is_disabled":false,"rental_uris":{"android":"levelo://app?vid=fcdee4e4-775f-40a5-af36-ebe37031a563","ios":"levelo://app?vid=fcdee4e4-775f-40a5-af36-ebe37031a563"},"vehicle_type_id":"4","last_reported":1741385209,"current_range_meters":17600,"station_id":"","pricing_plan_id":"cebpf4jnsgd1na2vs0mg"},{"bike_id":"7639f453-e1c6-49e1-812f-7cbea6b497c1","system_id":"levelo_inurba_marseille","lat":43.32476,"lon":5.36563,"is_reserved":false,"is_disabled":false,"rental_uris":{"android":"levelo://app?vid=7639f453-e1c6-49e1-812f-7cbea6b497c1","ios":"levelo://app?vid=7639f453-e1c6-49e1-812f-7cbea6b497c1"},"vehicle_type_id":"4","last_reported":1741385209,"current_range_meters":17200,"station_id":"ce4bhs12rcd13ifvqhvg","pricing_plan_id":"cebpf4jnsgd1na2vs0mg"},{"bike_id":"f4fd8e2c-01f1-4bdd-af3d-cbf610e13636","system_id":"levelo_inurba_marseille","lat":43.2862,"lon":5.35111,"is_reserved":false,"is_disabled":false,"rental_uris":{"android":"levelo://app?vid=f4fd8e2c-01f1-4bdd-af3d-cbf610e13636","ios":"levelo://app?vid=f4fd8e2c-01f1-4bdd-af3d-cbf610e13636"},"vehicle_type_id":"4","last_reported":1741385209,"current_range_meters":17600,"station_id":"ce4bhch2rcd13ifvqeug","pricing_plan_id":"cebpf4jnsgd1na2vs0mg"},{"bike_id":"511dbf5d-1630-4f56-80c3-a7f48e34b345","system_id":"levelo_inurba_marseille","lat":43.26804,"lon":5.40254,"is_reserved":false,"is_disabled":false,"rental_uris":{"android":"levelo://app?vid=511dbf5d-1630-4f56-80c3-a7f48e34b345","ios":"levelo://app?vid=511dbf5d-1630-4f56-80c3-a7f48e34b345"},"vehicle_type_id":"4","last_reported":1741385209,"current_range_meters":18000,"station_id":"ce501612rcd8frsf0b60","pricing_plan_id":"cebpf4jnsgd1na2vs0mg"},{"bike_id":"0347d370-bcbc-4444-9e08-e99619b6baa3","system_id":"levelo_inurba_marseille","lat":43.2926,"lon":5.38438,"is_reserved":false,"is_disabled":false,"rental_uris":{"android":"levelo://app?vid=0347d370-bcbc-4444-9e08-e99619b6baa3","ios":"levelo://app?vid=0347d370-bcbc-4444-9e08-e99619b6baa3"},"vehicle_type_id":"4","last_reported":1741385209,"current_range_meters":18000,"station_id":"ce4bh692rcd13ifvqea0","pricing_plan_id":"cebpf4jnsgd1na2vs0mg"},{"bike_id":"e392d3fd-925c-43ce-bf40-51b5037fd1e5","system_id":"levelo_inurba_marseille","lat":43.32372,"lon":5.38886,"is_reserved":false,"is_disabled":false,"rental_uris":{"android":"levelo://app?vid=e392d3fd-925c-43ce-bf40-51b5037fd1e5","ios":"levelo://app?vid=e392d3fd-925c-43ce-bf40-51b5037fd1e5"},"vehicle_type_id":"4","last_reported":1741385209,"current_range_meters":18000,"station_id":"ce4bhqp2rcd13ifvqhog","pricing_plan_id":"cebpf4jnsgd1na2vs0mg"},{"bike_id":"38658853-0b6c-4a3b-81b7-60d240a2ea16","system_id":"levelo_inurba_marseille","lat":43.31143,"lon":5.38428,"is_reserved":false,"is_disabled":false,"rental_uris":{"android":"levelo://app?vid=38658853-0b6c-4a3b-81b7-60d240a2ea16","ios":"levelo://app?vid=38658853-0b6c-4a3b-81b7-60d240a2ea16"},"vehicle_type_id":"4","last_reported":1741385209,"current_range_meters":18000,"station_id":"","pricing_plan_id":"cebpf4jnsgd1na2vs0mg"},