{"last_updated":1731845756,"ttl":60,"version":"2.2","data":{"bikes":[{"bike_id":"73806b4b-3409-4fe7-9bac-cc9da7355bda","system_id":"levelo_inurba_marseille","lat":43.31043,"lon":5.39992,"is_reserved":false,"is_disabled":false,"rental_uris":{"android":"levelo://app?vid=73806b4b-3409-4fe7-9bac-cc9da7355bda","ios":"levelo://app?vid=73806b4b-3409-4fe7-9bac-cc9da7355bda"},"vehicle_type_id":"4","last_reported":1731845756,"current_range_meters":29600,"station_id":"","pricing_plan_id":"cebpf4jnsgd1na2vs0mg"},{"bike_id":"9c319bd8-1c7c-46bb-824e-2a1d218223bc","system_id":"levelo_inurba_marseille","lat":43.30252,"lon":5.36972,"is_reserved":false,"is_disabled":false,"rental_uris":{"android":"levelo://app?vid=9c319bd8-1c7c-46bb-824e-2a1d218223bc","ios":"levelo://app?vid=9c319bd8-1c7c-46bb-824e-2a1d218223bc"},"vehicle_type_id":"4","last_reported":1731845756,"current_range_meters":31200,"station_id":"","pricing_plan_id":"cebpf4jnsgd1na2vs0mg"},{"bike_id":"8f64f783-a592-44e3-bbda-2c129afa1260","system_id":"levelo_inurba_marseille","lat":43.24653,"lon":5.38895,"is_reserved":false,"is_disabled":false,"rental_uris":{"android":"levelo://app?vid=8f64f783-a592-44e3-bbda-2c129afa1260","ios":"levelo://app?vid=8f64f783-a592-44e3-bbda-2c129afa1260"},"vehicle_type_id":"4","last_reported":1731845756,"current_range_meters":38800,"station_id":"ce4bhg12rcd13ifvqf60","pricing_plan_id":"cebpf4jnsgd1na2vs0mg"},{"bike_id":"dac332cc-bb32-4dfa-915c-ec064c042e44","system_id":"levelo_inurba_marseille","lat":43.23195,"lon":5.40001,"is_reserved":false,"is_disabled":false,"rental_uris":{"android":"levelo://app?vid=dac332cc-bb32-4dfa-915c-ec064c042e44","ios":"levelo://app?vid=dac332cc-bb32-4dfa-915c-ec064c042e44"},"vehicle_type_id":"4","last_reported":1731845756,"current_range_meters":14000,"station_id":"ce4bhn12rcd13ifvqgqg","pricing_plan_id":"cebpf4jnsgd1na2vs0mg"},{"bike_id":"5fc65484-ca9d-4d04-abb0-59c0c73b1826","system_id":"levelo_inurba_marseille","lat":43.29552,"lon":5.4228,"is_reserved":false,"is_disabled":false,"rental_uris":{"android":"levelo://app?vid=5fc65484-ca9d-4d04-abb0-59c0c73b1826","ios":"levelo://app?vid=5fc65484-ca9d-4d04-abb0-59c0c73b1826"},"vehicle_type_id":"4","last_reported":1731845756,"current_range_meters":5600,"station_id":"ce4bhph2rcd13ifvqhdg","pricing_plan_id":"cebpf4jnsgd1na2vs0mg"},{"bike_id":"acc0ed86-7e47-47d3-ba7a-22e5877f289c","system_id":"levelo_inurba_marseille","lat":43.30885,"lon":5.39661,"is_reserved":false,"is_disabled":false,"rental_uris":{"android":"levelo://app?vid=acc0ed86-7e47-47d3-ba7a-22e5877f289c","ios":"levelo://app?vid=acc0ed86-7e47-47d3-ba7a-22e5877f289c"},"vehicle_type_id":"4","last_reported":1731845756,"current_range_meters":32400,"station_id":"ce4bh012rcd13ifvqcv0","pricing_plan_id":"cebpf4jnsgd1na2vs0mg"},{"bike_id":"0672d165-d197-4474-bbec-2df95543fd2f","system_id":"levelo_inurba_marseille","lat":43.29906,"lon":5.43653,"is_reserved":false,"is_disabled":false,"rental_uris":{"android":"levelo://app?vid=0672d165-d197-4474-bbec-2df95543fd2f","ios":"levelo://app?vid=0672d165-d197-4474-bbec-2df95543fd2f"},"vehicle_type_id":"4","last_reported":1731845756,"current_range_meters":8000,"station_id":"ce4bhpp2rcd13ifvqhfg","pricing_plan_id":"cebpf4jnsgd1na2vs0mg"},{"bike_id":"d9d8a7d9-cde4-4fab-ab69-fcee8fe6a6da","system_id":"levelo_inurba_marseille","lat":43.25007,"lon":5.38925,"is_reserved":false,"is_disabled":false,"rental_uris":{"android":"levelo://app?vid=d9d8a7d9-cde4-4fab-ab69-fcee8fe6a6da","ios":"levelo://app?vid=d9d8a7d9-cde4-4fab-ab69-fcee8fe6a6da"},"vehicle_type_id":"4","last_reported":1731845756,"current_range_meters":8800,"station_id":"ce4bhgp2rcd13ifvqfd0","pricing_plan_id":"cebpf4jnsgd1na2vs0mg"},{"bike_id":"083dbee0-0e04-4a5e-93ff-4f8789a778b7","system_id":"levelo_inurba_marseille","lat":43.22928,"lon":5.35394,"is_reserved":false,"is_disabled":false,"rental_uris":{"android":"levelo://app?vid=083dbee0-0e04-4a5e-93ff-4f8789a778b7","ios":"levelo://app?vid=083dbee0-0e04-4a5e-93ff-4f8789a778b7"},"vehicle_type_id":"4","last_reported":1731845756,"current_range_meters":38800,"station_id":"cpo3532slgdg3j2ikp40","pricing_plan_id":"cebpf4jnsgd1na2vs0mg"},{"bike_id":"f547009a-1ebd-490b-84bf-8b2ff68b358d","system_id":"levelo_inurba_marseille","lat":43.26555,"lon":5.37283,"is_reserved":false,"is_disabled":false,"rental_uris":{"android":"levelo://app?vid=f547009a-1ebd-490b-84bf-8b2ff68b358d","ios":"levelo://app?vid=f547009a-1ebd-490b-84bf-8b2ff68b358d"},"vehicle_type_id":"4","last_reported":1731845756,"current_range_meters":31200,"station_id":"ce4bhg12rcd13ifvqf70","pricing_plan_id":"cebpf4jnsgd1na2vs0mg"},{"bike_id":"b361c1fc-f63b-4883-ac7d-1a695da9acca","system_id":"levelo_inurba_marseille","lat":43.2418,"lon":5.39728,"is_reserved":false,"is_disabled":false,"rental_uris":{"android":"levelo://app?vid=b361c1fc-f63b-4883-ac7d-1a695da9acca","ios":"levelo://app?vid=b361c1fc-f63b-4883-ac7d-1a695da9acca"},"vehicle_type_id":"4","last_reported":1731845756,"current_range_meters":32800,"station_id":"ce4bhn12rcd13ifvqgpg","pricing_plan_id":"cebpf4jnsgd1na2vs0mg"},{"bike_id":"313dfc76-e5ff-4fdb-a6ce-11cb6d4ff689","system_id":"levelo_inurba_marseille","lat":43.22927,"lon":5.35372,"is_reserved":false,"is_disabled":false,"rental_uris":{"android":"levelo://app?vid=313dfc76-e5ff-4fdb-a6ce-11cb6d4ff689","ios":"levelo://app?vid=313dfc76-e5ff-4fdb-a6ce-11cb6d4ff689"},"vehicle_type_id":"4","last_reported":1731845756,"current_range_meters":6800,"station_id":"cpo3532slgdg3j2ikp40","pricing_plan_id":"cebpf4jnsgd1na2vs0mg"},{"bike_id":"4c167bc3-2964-4625-adc0-c92e539ad80f","system_id":"levelo_inurba_marseille","lat":43.28282,"lon":5.408037,"is_reserved":false,"is_disabled":false,"rental_uris":{"android":"levelo://app?vid=4c167bc3-2964-4625-adc0-c92e539ad80f","ios":"levelo://app?vid=4c167bc3-2964-4625-adc0-c92e539ad80f"},"vehicle_type_id":"4","last_reported":1731845756,"current_range_meters":35200,"station_id":"","pricing_plan_id":"cebpf4jnsgd1na2vs0mg"},{"bike_id":"ebece2e7-cd1b-4190-b52a-8a13152f9205","system_id":"levelo_inurba_marseille","lat":43.28614,"lon":5.37066,"is_reserved":false,"is_disabled":false,"rental_uris":{"android":"levelo://app?vid=ebece2e7-cd1b-4190-b52a-8a13152f9205","ios":"levelo://app?vid=ebece2e7-cd1b-4190-b52a-8a13152f9205"},"vehicle_type_id":"4","last_reported":1731845756,"current_range_meters":24400,"station_id":"ce4bht12rcd13ifvqi60","pricing_plan_id":"cebpf4jnsgd1na2vs0mg"},{"bike_id":"c60ffa22-30dc-48e5-8d8c-98756616aeb3","system_id":"levelo_inurba_marseille","lat":43.2762,"lon":5.36103,"is_reserved":false,"is_disabled":false,"rental_uris":{"android":"levelo://app?vid=c60ffa22-30dc-48e5-8d8c-98756616aeb3","ios":"levelo://app?vid=c60ffa22-30dc-48e5-8d8c-98756616aeb3"},"vehicle_type_id":"4","last_reported":1731845756,"current_range_meters":32000,"station_id":"ce4bgj92rcd13ifvqbe0","pricing_plan_id":"cebpf4jnsgd1na2vs0mg"},{"bike_id":"44a253fe-0c31-4482-bf7d-eed3349505cd","system_id":"levelo_inurba_marseille","lat":43.27496,"lon":5.4245,"is_reserved":false,"is_disabled":false,"rental_uris":{"android":"levelo://app?vid=44a253fe-0c31-4482-bf7d-eed3349505cd","ios":"levelo://app?vid=44a253fe-0c31-4482-bf7d-eed3349505cd"},"vehicle_type_id":"4","last_reported":1731845756,"current_range_meters":6800,"station_id":"ce4bhn92rcd13ifvqgrg","pricing_plan_id":"cebpf4jnsgd1na2vs0mg"},{"bike_id":"6b0ea79e-cb12-4a50-9845-e4686b3cacc8","system_id":"levelo_inurba_marseille","lat":43.295751,"lon":5.399791,"is_reserved":false,"is_disabled":false,"rental_uris":{"android":"levelo://app?vid=6b0ea79e-cb12-4a50-9845-e4686b3cacc8","ios":"levelo://app?vid=6b0ea79e-cb12-4a50-9845-e4686b3cacc8"},"vehicle_type_id":"4","last_reported":1731845756,"current_range_meters":9600,"station_id":"","pricing_plan_id":"cebpf4jnsgd1na2vs0mg"},{"bike_id":"ab1e2336-b4d1-4295-8ba5-67ecc35322d1","system_id":"levelo_inurba_marseille","lat":43.25001,"lon":5.38934,"is_reserved":false,"is_disabled":false,"rental_uris":{"android":"levelo://app?vid=ab1e2336-b4d1-4295-8ba5-67ecc35322d1","ios":"levelo://app?vid=ab1e2336-b4d1-4295-8ba5-67ecc35322d1"},"vehicle_type_id":"4","last_reported":1731845756,"current_range_meters":10000,"station_id":"ce4bhgp2rcd13ifvqfd0","pricing_plan_id":"cebpf4jnsgd1na2vs0mg"},{"bike_id":"72499688-a320-4333-843e-c093213a74e4","system_id":"levelo_inurba_marseille","lat":43.23057,"lon":5.35493,"is_reserved":false,"is_disabled":false,"rental_uris":{"android":"levelo://app?vid=72499688-a320-4333-843e-c093213a74e4","ios":"levelo://app?vid=72499688-a320-4333-843e-c093213a74e4"},"vehicle_type_id":"4","last_reported":1731845756,"current_range_meters":4000,"station_id":"cpo3342slgdg3j2ifvpg","pricing_plan_id":"cebpf4jnsgd1na2vs0mg"},{"bike_id":"393845a5-e569-4f31-a806-85dc3585b5d3","system_id":"levelo_inurba_marseille","lat":43.24815,"lon":5.37455,"is_reserved":false,"is_disabled":false,"rental_uris":{"android":"levelo://app?vid=393845a5-e569-4f31-a806-85dc3585b5d3","ios":"levelo://app?vid=393845a5-e569-4f31-a806-85dc3585b5d3"},"vehicle_type_id":"4","last_reported":1731845756,"current_range_meters":24000,"station_id":"ce4bhgh2rcd13ifvqfb0","pricing_plan_id":"cebpf4jnsgd1na2vs0mg"},{"bike_id":"c20877d6-0919-4929-8018-ba1d277246fd","system_id":"levelo_inurba_marseille","lat":43.25493,"lon":5.37652,"is_reserved":false,"is_disabled":false,"rental_uris":{"android":"levelo://app?vid=c20877d6-0919-4929-8018-ba1d277246fd","ios":"levelo://app?vid=c20877d6-0919-4929-8018-ba1d277246fd"},"vehicle_type_id":"4","last_reported":1731845756,"current_range_meters":26800,"station_id":"ce4bhh12rcd13ifvqff0","pricing_plan_id":"cebpf4jnsgd1na2vs0mg"},{"bike_id":"772e9036-c56e-447d-a4fb-1edce29ea38f","system_id":"levelo_inurba_marseille","lat":43.316317,"lon":5.404025,"is_reserved":false,"is_disabled":false,"rental_uris":{"android":"levelo://app?vid=772e9036-c56e-447d-a4fb-1edce29ea38f","ios":"levelo://app?vid=772e9036-c56e-447d-a4fb-1edce29ea38f"},"vehicle_type_id":"4","last_reported":1731845756,"current_range_meters":35600,"station_id":"ce4bhl12rcd13ifvqgf0","pricing_plan_id":"cebpf4jnsgd1na2vs0mg"},{"bike_id":"0e1d2e7a-8318-45fe-af1b-31857eb1aac8","system_id":"levelo_inurba_marseille","lat":43.23954,"lon":5.36628,"is_reserved":false,"is_disabled":false,"rental_uris":{"android":"levelo://app?vid=0e1d2e7a-8318-45fe-af1b-31857eb1aac8","ios":"levelo://app?vid=0e1d2e7a-8318-45fe-af1b-31857eb1aac8"},"vehicle_type_id":"4","last_reported":1731845756,"current_range_meters":24400,"station_id":"ce4bhi12rcd13ifvqfp0","pricing_plan_id":"cebpf4jnsgd1na2vs0mg"},{"bike_id":"96a1e210-c58d-4d4a-9d52-27a4b3a50ccf","system_id":"levelo_inurba_marseille","lat":43.279053,"lon":5.410219,"is_reserved":false,"is_disabled":false,"rental_uris":{"android":"levelo://app?vid=96a1e210-c58d-4d4a-9d52-27a4b3a50ccf","ios":"levelo://app?vid=96a1e210-c58d-4d4a-9d52-27a4b3a50ccf"},"vehicle_type_id":"4","last_reported":1731845756,"current_range_meters":34000,"station_id":"ce4bhnp2rcd13ifvqh0g","pricing_plan_id":"cebpf4jnsgd1na2vs0mg"},{"bike_id":"2bd3ae1c-22d2-4b0f-9fd7-42d6b84fc3a3","system_id":"levelo_inurba_marseille","lat":43.33599,"lon":5.41016,"is_reserved":false,"is_disabled":false,"rental_uris":{"android":"levelo://app?vid=2bd3ae1c-22d2-4b0f-9fd7-42d6b84fc3a3","ios":"levelo://app?vid=2bd3ae1c-22d2-4b0f-9fd7-42d6b84fc3a3"},"vehicle_type_id":"4","last_reported":1731845756,"current_range_meters":18800,"station_id":"ce4bhqh2rcd13ifvqhmg","pricing_plan_id":"cebpf4jnsgd1na2vs0mg"},{"bike_id":"79b76398-f4aa-422b-b325-2360d07a8784","system_id":"levelo_inurba_marseille","lat":43.33722,"lon":5.39181,"is_reserved":false,"is_disabled":false,"rental_uris":{"android":"levelo://app?vid=79b76398-f4aa-422b-b325-2360d07a8784","ios":"levelo://app?vid=79b76398-f4aa-422b-b325-2360d07a8784"},"vehicle_type_id":"4","last_reported":1731845756,"current_range_meters":38800,"station_id":"ce4bhr92rcd13ifvqhsg","pricing_plan_id":"cebpf4jnsgd1na2vs0mg"},{"bike_id":"9c601093-fd04-4d74-8d86-a54aa07b1baf","system_id":"levelo_inurba_marseille","lat":43.22932,"lon":5.35376,"is_reserved":false,"is_disabled":false,"rental_uris":{"android":"levelo://app?vid=9c601093-fd04-4d74-8d86-a54aa07b1baf","ios":"levelo://app?vid=9c601093-fd04-4d74-8d86-a54aa07b1baf"},"vehicle_type_id":"4","last_reported":1731845756,"current_range_meters":12400,"station_id":"cpo3532slgdg3j2ikp40","pricing_plan_id":"cebpf4jnsgd1na2vs0mg"},{"bike_id":"b4d7bec5-ccd8-4225-a5ad-79a0f7ac8c52","system_id":"levelo_inurba_marseille","lat":43.29586,"lon":5.36741,"is_reserved":false,"is_disabled":false,"rental_uris":{"android":"levelo://app?vid=b4d7bec5-ccd8-4225-a5ad-79a0f7ac8c52","ios":"levelo://app?vid=b4d7bec5-ccd8-4225-a5ad-79a0f7ac8c52"},"vehicle_type_id":"4","last_reported":1731845756,"current_range_meters":33200,"station_id":"ce4bgph2rcd13ifvqc2g","pricing_plan_id":"cebpf4jnsgd1na2vs0mg"},{"bike_id":"3fcbe528-45e3-439d-80db-ce667e24fe73","system_id":"levelo_inurba_marseille","lat":43.23059,"lon":5.35492,"is_reserved":false,"is_disabled":false,"rental_uris":{"android":"levelo://app?vid=3fcbe528-45e3-439d-80db-ce667e24fe73","ios":"levelo://app?vid=3fcbe528-45e3-439d-80db-ce667e24fe73"},"vehicle_type_id":"4","last_reported":1731845756,"current_range_meters":16400,"station_id":"cpo3342slgdg3j2ifvpg","pricing_plan_id":"cebpf4jnsgd1na2vs0mg"},{"bike_id":"74ca7cb2-dace-45bb-835b-97356417138e","system_id":"levelo_inurba_marseille","lat":43.26681,"lon":5.38268,"is_reserved":false,"is_disabled":false,"rental_uris":{"android":"levelo://app?vid=74ca7cb2-dace-45bb-835b-97356417138e","ios":"levelo://app?vid=74ca7cb2-dace-45bb-835b-97356417138e"},"vehicle_type_id":"4","last_reported":1731845756,"current_range_meters":38800,"station_id":"ce4bhg92rcd13ifvqf90","pricing_plan_id":"cebpf4jnsgd1na2vs0mg"},{"bike_id":"b2f45d15-d036-4f36-a361-a492e289342e","system_id":"levelo_inurba_marseille","lat":43.229286,"lon":5.353739,"is_reserved":false,"is_disabled":false,"rental_uris":{"android":"levelo://app?vid=b2f45d15-d036-4f36-a361-a492e289342e","ios":"levelo://app?vid=b2f45d15-d036-4f36-a361-a492e289342e"},"vehicle_type_id":"4","last_reported":1731845756,"current_range_meters":35600,"station_id":"cpo3532slgdg3j2ikp40","pricing_plan_id":"cebpf4jnsgd1na2vs0mg"},{"bike_id":"b4c800fc-c954-45c7-a98d-14436c535dfe","system_id":"levelo_inurba_marseille","lat":43.27377,"lon":5.36257,"is_reserved":false,"is_disabled":false,"rental_uris":{"android":"levelo://app?vid=b4c800fc-c954-45c7-a98d-14436c535dfe","ios":"levelo://app?vid=b4c800fc-c954-45c7-a98d-14436c535dfe"},"vehicle_type_id":"4","last_reported":1731845756,"current_range_meters":33200,"station_id":"ce4bhbh2rcd13ifvqeo0","pricing_plan_id":"cebpf4jnsgd1na2vs0mg"},{"bike_id":"a14fa574-a22c-4737-8303-cf5d536f7e4a","system_id":"levelo_inurba_marseille","lat":43.31892,"lon":5.4074,"is_reserved":false,"is_disabled":false,"rental_uris":{"android":"levelo://app?vid=a14fa574-a22c-4737-8303-cf5d536f7e4a","ios":"levelo://app?vid=a14fa574-a22c-4737-8303-cf5d536f7e4a"},"vehicle_type_id":"4","last_reported":1731845756,"current_range_meters":14400,"station_id":"ce4bhq12rcd13ifvqhig","pricing_plan_id":"cebpf4jnsgd1na2vs0mg"},{"bike_id":"eae6f113-1325-4c17-9854-d67ac4af4598","system_id":"levelo_inurba_marseille","lat":43.24666,"lon":5.38155,"is_reserved":false,"is_disabled":false,"rental_uris":{"android":"levelo://app?vid=eae6f113-1325-4c17-9854-d67ac4af4598","ios":"levelo://app?vid=eae6f113-1325-4c17-9854-d67ac4af4598"},"vehicle_type_id":"4","last_reported":1731845756,"current_range_meters":24400,"station_id":"ce4bhih2rcd13ifvqfr0","pricing_plan_id":"cebpf4jnsgd1na2vs0mg"},{"bike_id":"40c222bb-fcc0-4dc1-9b8b-a6d4c398c7f0","system_id":"levelo_inurba_marseille","lat":43.302817,"lon":5.384503,"is_reserved":false,"is_disabled":false,"rental_uris":{"android":"levelo://app?vid=40c222bb-fcc0-4dc1-9b8b-a6d4c398c7f0","ios":"levelo://app?vid=40c222bb-fcc0-4dc1-9b8b-a6d4c398c7f0"},"vehicle_type_id":"4","last_reported":1731845756,"current_range_meters":38800,"station_id":"","pricing_plan_id":"cebpf4jnsgd1na2vs0mg"},{"bike_id":"703bb2fc-3ffe-458e-a631-4b90e0551d8e","system_id":"levelo_inurba_marseille","lat":43.28615,"lon":5.35105,"is_reserved":false,"is_disabled":false,"rental_uris":{"android":"levelo://app?vid=703bb2fc-3ffe-458e-a631-4b90e0551d8e","ios":"levelo://app?vid=703bb2fc-3ffe-458e-a631-4b90e0551d8e"},"vehicle_type_id":"4","last_reported":1731845756,"current_range_meters":31200,"station_id":"ce4bhch2rcd13ifvqeug","pricing_plan_id":"cebpf4jnsgd1na2vs0mg"},{"bike_id":"0334d327-edfb-4a81-8b6f-7b2efc8fa241","system_id":"levelo_inurba_marseille","lat":43.28417,"lon":5.34995,"is_reserved":false,"is_disabled":false,"rental_uris":{"android":"levelo://app?vid=0334d327-edfb-4a81-8b6f-7b2efc8fa241","ios":"levelo://app?vid=0334d327-edfb-4a81-8b6f-7b2efc8fa241"},"vehicle_type_id":"4","last_reported":1731845756,"current_range_meters":16800,"station_id":"ce4bhbh2rcd13ifvqepg","pricing_plan_id":"cebpf4jnsgd1na2vs0mg"},{"bike_id":"0854a172-46c1-4b86-af41-c471ef4d0070","system_id":"levelo_inurba_marseille","lat":43.30147,"lon":5.38093,"is_reserved":false,"is_disabled":false,"rental_uris":{"android":"levelo://app?vid=0854a172-46c1-4b86-af41-c471ef4d0070","ios":"levelo://app?vid=0854a172-46c1-4b86-af41-c471ef4d0070"},"vehicle_type_id":"4","last_reported":1731845756,"current_range_meters":4800,"station_id":"ce4bgjp2rcd13ifvqbh0","pricing_plan_id":"cebpf4jnsgd1na2vs0mg"},{"bike_id":"ef70b705-45b3-4614-b7cc-8482f398b820","system_id":"levelo_inurba_marseille","lat":43.27371,"lon":5.3626,"is_reserved":false,"is_disabled":false,"rental_uris":{"android":"levelo://app?vid=ef70b705-45b3-4614-b7cc-8482f398b820","ios":"levelo://app?vid=ef70b705-45b3-4614-b7cc-8482f398b820"},"vehicle_type_id":"4","last_reported":1731845756,"current_range_meters":18800,"station_id":"ce4bhbh2rcd13ifvqeo0","pricing_plan_id":"cebpf4jnsgd1na2vs0mg"},{"bike_id":"38ca004d-2baf-4fce-a2cd-8feb344aba8a","system_id":"levelo_inurba_marseille","lat":43.26562,"lon":5.3728,"is_reserved":false,"is_disabled":false,"rental_uris":{"android":"levelo://app?vid=38ca004d-2baf-4fce-a2cd-8feb344aba8a","ios":"levelo://app?vid=38ca004d-2baf-4fce-a2cd-8feb344aba8a"},"vehicle_type_id":"4","last_reported":1731845756,"current_range_meters":31200,"station_id":"ce4bhg12rcd13ifvqf70","pricing_plan_id":"cebpf4jnsgd1na2vs0mg"},{"bike_id":"8b23ad92-448b-480b-ada7-2b80410a3724","system_id":"levelo_inurba_marseille","lat":43.28425,"lon":5.34988,"is_reserved":false,"is_disabled":false,"rental_uris":{"android":"levelo://app?vid=8b23ad92-448b-480b-ada7-2b80410a3724","ios":"levelo://app?vid=8b23ad92-448b-480b-ada7-2b80410a3724"},"vehicle_type_id":"4","last_reported":1731845756,"current_range_meters":19200,"station_id":"ce4bhbh2rcd13ifvqepg","pricing_plan_id":"cebpf4jnsgd1na2vs0mg"},{"bike_id":"b128a8d7-7942-4d37-9966-cfc17584ff0d","system_id":"levelo_inurba_marseille","lat":43.280655,"lon":5.407777,"is_reserved":false,"is_disabled":false,"rental_uris":{"android":"levelo://app?vid=b128a8d7-7942-4d37-9966-cfc17584ff0d","ios":"levelo://app?vid=b128a8d7-7942-4d37-9966-cfc17584ff0d"},"vehicle_type_id":"4","last_reported":1731845756,"current_range_meters":14000,"station_id":"","pricing_plan_id":"cebpf4jnsgd1na2vs0mg"},{"bike_id":"78f7063c-01cd-4514-96f5-e9c548d4aba9","system_id":"levelo_inurba_marseille","lat":43.25585,"lon":5.3823,"is_reserved":false,"is_disabled":false,"rental_uris":{"android":"levelo://app?vid=78f7063c-01cd-4514-96f5-e9c548d4aba9","ios":"levelo://app?vid=78f7063c-01cd-4514-96f5-e9c548d4aba9"},"vehicle_type_id":"4","last_reported":1731845756,"current_range_meters":30000,"station_id":"ce4bhih2rcd13ifvqfs0","pricing_plan_id":"cebpf4jnsgd1na2vs0mg"},{"bike_id":"98e8f116-8e6d-44de-aa8d-307238c5688c","system_id":"levelo_inurba_marseille","lat":43.30797,"lon":5.4352,"is_reserved":false,"is_disabled":false,"rental_uris":{"android":"levelo://app?vid=98e8f116-8e6d-44de-aa8d-307238c5688c","ios":"levelo://app?vid=98e8f116-8e6d-44de-aa8d-307238c5688c"},"vehicle_type_id":"4","last_reported":1731845756,"current_range_meters":38800,"station_id":"ce4bhph2rcd13ifvqheg","pricing_plan_id":"cebpf4jnsgd1na2vs0mg"},{"bike_id":"8b8091d9-8831-4b6c-ad12-201ff8e72ec6","system_id":"levelo_inurba_marseille","lat":43.27912,"lon":5.41429,"is_reserved":false,"is_disabled":false,"rental_uris":{"android":"levelo://app?vid=8b8091d9-8831-4b6c-ad12-201ff8e72ec6","ios":"levelo://app?vid=8b8091d9-8831-4b6c-ad12-201ff8e72ec6"},"vehicle_type_id":"4","last_reported":1731845756,"current_range_meters":33600,"station_id":"","pricing_plan_id":"cebpf4jnsgd1na2vs0mg"},{"bike_id":"75920a68-20af-4e25-8f9a-eebdafdde0c1","system_id":"levelo_inurba_marseille","lat":43.32344,"lon":5.40626,"is_reserved":false,"is_disabled":false,"rental_uris":{"android":"levelo://app?vid=75920a68-20af-4e25-8f9a-eebdafdde0c1","ios":"levelo://app?vid=75920a68-20af-4e25-8f9a-eebdafdde0c1"},"vehicle_type_id":"4","last_reported":1731845756,"current_range_meters":38000,"station_id":"ce4bhq92rcd13ifvqhjg","pricing_plan_id":"cebpf4jnsgd1na2vs0mg"},{"bike_id":"23e5e119-83f6-4211-ade1-a250a82ab7db","system_id":"levelo_inurba_marseille","lat":43.22934,"lon":5.35371,"is_reserved":false,"is_disabled":false,"rental_uris":{"android":"levelo://app?vid=23e5e119-83f6-4211-ade1-a250a82ab7db","ios":"levelo://app?vid=23e5e119-83f6-4211-ade1-a250a82ab7db"},"vehicle_type_id":"4","last_reported":1731845756,"current_range_meters":16800,"station_id":"cpo3532slgdg3j2ikp40","pricing_plan_id":"cebpf4jnsgd1na2vs0mg"},{"bike_id":"0b580216-b07f-4821-a19d-686462be0488","system_id":"levelo_inurba_marseille","lat":43.22935,"lon":5.35378,"is_reserved":false,"is_disabled":false,"rental_uris":{"android":"levelo://app?vid=0b580216-b07f-4821-a19d-686462be0488","ios":"levelo://app?vid=0b580216-b07f-4821-a19d-686462be0488"},"vehicle_type_id":"4","last_reported":1731845756,"current_range_meters":36000,"station_id":"cpo3532slgdg3j2ikp40","pricing_plan_id":"cebpf4jnsgd1na2vs0mg"},{"bike_id":"01272bd5-a2c0-44b6-b76e-87cd305d9451","system_id":"levelo_inurba_marseille","lat":43.33023,"lon":5.39047,"is_reserved":false,"is_disabled":false,"rental_uris":{"android":"levelo://app?vid=01272bd5-a2c0-44b6-b76e-87cd305d9451","ios":"levelo://app?vid=01272bd5-a2c0-44b6-b76e-87cd305d9451"},"vehicle_type_id":"4","last_reported":1731845756,"current_range_meters":16400,"station_id":"ce4bhr92rcd13ifvqhrg","pricing_plan_id":"cebpf4jnsgd1na2vs0mg"},{"bike_id":"6c09764b-b705-4bff-8274-3ff08e7b8ec5","system_id":"levelo_inurba_marseille","lat":43.25581,"lon":5.38237,"is_reserved":false,"is_disabled":false,"rental_uris":{"android":"levelo://app?vid=6c09764b-b705-4bff-8274-3ff08e7b8ec5","ios":"levelo://app?vid=6c09764b-b705-4bff-8274-3ff08e7b8ec5"},"vehicle_type_id":"4","last_reported":1731845756,"current_range_meters":38000,"station_id":"ce4bhih2rcd13ifvqfs0","pricing_plan_id":"cebpf4jnsgd1na2vs0mg"},{"bike_id":"4138345b-cc1d-40b0-8916-e8013770729a","system_id":"levelo_inurba_marseille","lat":43.24644,"lon":5.3889,"is_reserved":false,"is_disabled":false,"rental_uris":{"android":"levelo://app?vid=4138345b-cc1d-40b0-8916-e8013770729a","ios":"levelo://app?vid=4138345b-cc1d-40b0-8916-e8013770729a"},"vehicle_type_id":"4","last_reported":1731845756,"current_range_meters":36800,"station_id":"ce4bhg12rcd13ifvqf60","pricing_plan_id":"cebpf4jnsgd1na2vs0mg"},{"bike_id":"37143744-6610-4090-ac27-3028f290f9b8","system_id":"levelo_inurba_marseille","lat":43.28277,"lon":5.35086,"is_reserved":false,"is_disabled":false,"rental_uris":{"android":"levelo://app?vid=37143744-6610-4090-ac27-3028f290f9b8","ios":"levelo://app?vid=37143744-6610-4090-ac27-3028f290f9b8"},"vehicle_type_id":"4","last_reported":1731845756,"current_range_meters":38800,"station_id":"ce4bhbp2rcd13ifvqerg","pricing_plan_id":"cebpf4jnsgd1na2vs0mg"},{"bike_id":"d332e933-cded-40f1-a449-8f27d433e53d","system_id":"levelo_inurba_marseille","lat":43.28426,"lon":5.3499,"is_reserved":false,"is_disabled":false,"rental_uris":{"android":"levelo://app?vid=d332e933-cded-40f1-a449-8f27d433e53d","ios":"levelo://app?vid=d332e933-cded-40f1-a449-8f27d433e53d"},"vehicle_type_id":"4","last_reported":1731845756,"current_range_meters":39200,"station_id":"ce4bhbh2rcd13ifvqepg","pricing_plan_id":"cebpf4jnsgd1na2vs0mg"},{"bike_id":"10473ae9-343a-42a2-916b-9f1475a0a3bc","system_id":"levelo_inurba_marseille","lat":43.2396,"lon":5.36639,"is_reserved":false,"is_disabled":false,"rental_uris":{"android":"levelo://app?vid=10473ae9-343a-42a2-916b-9f1475a0a3bc","ios":"levelo://app?vid=10473ae9-343a-42a2-916b-9f1475a0a3bc"},"vehicle_type_id":"4","last_reported":1731845756,"current_range_meters":28000,"station_id":"ce4bhi12rcd13ifvqfp0","pricing_plan_id":"cebpf4jnsgd1na2vs0mg"},{"bike_id":"87119aad-ad8b-4504-8d03-d8d8d5751481","system_id":"levelo_inurba_marseille","lat":43.27919,"lon":5.41223,"is_reserved":false,"is_disabled":false,"rental_uris":{"android":"levelo://app?vid=87119aad-ad8b-4504-8d03-d8d8d5751481","ios":"levelo://app?vid=87119aad-ad8b-4504-8d03-d8d8d5751481"},"vehicle_type_id":"4","last_reported":1731845756,"current_range_meters":24000,"station_id":"","pricing_plan_id":"cebpf4jnsgd1na2vs0mg"},{"bike_id":"e46885b8-a6d7-44d2-85c2-281015e687a1","system_id":"levelo_inurba_marseille","lat":43.28616,"lon":5.35113,"is_reserved":false,"is_disabled":false,"rental_uris":{"android":"levelo://app?vid=e46885b8-a6d7-44d2-85c2-281015e687a1","ios":"levelo://app?vid=e46885b8-a6d7-44d2-85c2-281015e687a1"},"vehicle_type_id":"4","last_reported":1731845756,"current_range_meters":28800,"station_id":"","pricing_plan_id":"cebpf4jnsgd1na2vs0mg"},{"bike_id":"ba57f1ef-3fbb-4816-9e62-2e0737689f5e","system_id":"levelo_inurba_marseille","lat":43.33608,"lon":5.41019,"is_reserved":false,"is_disabled":false,"rental_uris":{"android":"levelo://app?vid=ba57f1ef-3fbb-4816-9e62-2e0737689f5e","ios":"levelo://app?vid=ba57f1ef-3fbb-4816-9e62-2e0737689f5e"},"vehicle_type_id":"4","last_reported":1731845756,"current_range_meters":39200,"station_id":"ce4bhqh2rcd13ifvqhmg","pricing_plan_id":"cebpf4jnsgd1na2vs0mg"},{"bike_id":"f6581368-4249-458a-90a9-1cdbb4819b73","system_id":"levelo_inurba_marseille","lat":43.286185,"lon":5.351068,"is_reserved":false,"is_disabled":false,"rental_uris":{"android":"levelo://app?vid=f6581368-4249-458a-90a9-1cdbb4819b73","ios":"levelo://app?vid=f6581368-4249-458a-90a9-1cdbb4819b73"},"vehicle_type_id":"4","last_reported":1731845756,"current_range_meters":24800,"station_id":"ce4bhch2rcd13ifvqeug","pricing_plan_id":"cebpf4jnsgd1na2vs0mg"},{"bike_id":"6da298a1-b1e6-4ba8-a57a-5400211d4b87","system_id":"levelo_inurba_marseille","lat":43.27985,"lon":5.41654,"is_reserved":false,"is_disabled":false,"rental_uris":{"android":"levelo://app?vid=6da298a1-b1e6-4ba8-a57a-5400211d4b87","ios":"levelo://app?vid=6da298a1-b1e6-4ba8-a57a-5400211d4b87"},"vehicle_type_id":"4","last_reported":1731845756,"current_range_meters":28400,"station_id":"ce4bho12rcd13ifvqh1g","pricing_plan_id":"cebpf4jnsgd1na2vs0mg"},{"bike_id":"db8f4ac6-fe2e-4e4a-9624-3e1abce0303f","system_id":"levelo_inurba_marseille","lat":43.23151,"lon":5.43714,"is_reserved":false,"is_disabled":false,"rental_uris":{"android":"levelo://app?vid=db8f4ac6-fe2e-4e4a-9624-3e1abce0303f","ios":"levelo://app?vid=db8f4ac6-fe2e-4e4a-9624-3e1abce0303f"},"vehicle_type_id":"4","last_reported":1731845756,"current_range_meters":23200,"station_id":"ce4bhmp2rcd13ifvqgog","pricing_plan_id":"cebpf4jnsgd1na2vs0mg"},{"bike_id":"65f5fc28-b4d5-45b2-8d39-7757b215f8c8","system_id":"levelo_inurba_marseille","lat":43.23181,"lon":5.39985,"is_reserved":false,"is_disabled":false,"rental_uris":{"android":"levelo://app?vid=65f5fc28-b4d5-45b2-8d39-7757b215f8c8","ios":"levelo://app?vid=65f5fc28-b4d5-45b2-8d39-7757b215f8c8"},"vehicle_type_id":"4","last_reported":1731845756,"current_range_meters":20400,"station_id":"ce4bhn12rcd13ifvqgqg","pricing_plan_id":"cebpf4jnsgd1na2vs0mg"},{"bike_id":"12867844-fa2a-41b2-8d74-706d4ef15909","system_id":"levelo_inurba_marseille","lat":43.3377,"lon":5.37436,"is_reserved":false,"is_disabled":false,"rental_uris":{"android":"levelo://app?vid=12867844-fa2a-41b2-8d74-706d4ef15909","ios":"levelo://app?vid=12867844-fa2a-41b2-8d74-706d4ef15909"},"vehicle_type_id":"4","last_reported":1731845756,"current_range_meters":33600,"station_id":"","pricing_plan_id":"cebpf4jnsgd1na2vs0mg"},{"bike_id":"3455c789-2e35-4152-8de0-fa613ba872df","system_id":"levelo_inurba_marseille","lat":43.32363,"lon":5.3888,"is_reserved":false,"is_disabled":false,"rental_uris":{"android":"levelo://app?vid=3455c789-2e35-4152-8de0-fa613ba872df","ios":"levelo://app?vid=3455c789-2e35-4152-8de0-fa613ba872df"},"vehicle_type_id":"4","last_reported":1731845756,"current_range_meters":33200,"station_id":"ce4bhqp2rcd13ifvqhog","pricing_plan_id":"cebpf4jnsgd1na2vs0mg"},{"bike_id":"54285122-6848-4a83-b51c-60074ddf050b","system_id":"levelo_inurba_marseille","lat":43.272639,"lon":5.389922,"is_reserved":false,"is_disabled":false,"rental_uris":{"android":"levelo://app?vid=54285122-6848-4a83-b51c-60074ddf050b","ios":"levelo://app?vid=54285122-6848-4a83-b51c-60074ddf050b"},"vehicle_type_id":"4","last_reported":1731845756,"current_range_meters":8000,"station_id":"","pricing_plan_id":"cebpf4jnsgd1na2vs0mg"},{"bike_id":"08556236-18aa-48b5-821c-02152b23fea2","system_id":"levelo_inurba_marseille","lat":43.27066,"lon":5.42275,"is_reserved":false,"is_disabled":false,"rental_uris":{"android":"levelo://app?vid=08556236-18aa-48b5-821c-02152b23fea2","ios":"levelo://app?vid=08556236-18aa-48b5-821c-02152b23fea2"},"vehicle_type_id":"4","last_reported":1731845756,"current_range_meters":16000,"station_id":"ce4bhk92rcd13ifvqgb0","pricing_plan_id":"cebpf4jnsgd1na2vs0mg"},{"bike_id":"0d9b3d38-e46b-4de7-836f-660967b168b7","system_id":"levelo_inurba_marseille","lat":43.27368,"lon":5.36258,"is_reserved":false,"is_disabled":false,"rental_uris":{"android":"levelo://app?vid=0d9b3d38-e46b-4de7-836f-660967b168b7","ios":"levelo://app?vid=0d9b3d38-e46b-4de7-836f-660967b168b7"},"vehicle_type_id":"4","last_reported":1731845756,"current_range_meters":2800,"station_id":"ce4bhbh2rcd13ifvqeo0","pricing_plan_id":"cebpf4jnsgd1na2vs0mg"},{"bike_id":"28b79275-ade8-45ee-b25a-14126dd5c2bf","system_id":"levelo_inurba_marseille","lat":43.24813,"lon":5.3746,"is_reserved":false,"is_disabled":false,"rental_uris":{"android":"levelo://app?vid=28b79275-ade8-45ee-b25a-14126dd5c2bf","ios":"levelo://app?vid=28b79275-ade8-45ee-b25a-14126dd5c2bf"},"vehicle_type_id":"4","last_reported":1731845756,"current_range_meters":36800,"station_id":"ce4bhgh2rcd13ifvqfb0","pricing_plan_id":"cebpf4jnsgd1na2vs0mg"},{"bike_id":"10808265-c82e-4663-ad34-00454e769817","system_id":"levelo_inurba_marseille","lat":43.23181,"lon":5.39998,"is_reserved":false,"is_disabled":false,"rental_uris":{"android":"levelo://app?vid=10808265-c82e-4663-ad34-00454e769817","ios":"levelo://app?vid=10808265-c82e-4663-ad34-00454e769817"},"vehicle_type_id":"4","last_reported":1731845756,"current_range_meters":30400,"station_id":"ce4bhn12rcd13ifvqgqg","pricing_plan_id":"cebpf4jnsgd1na2vs0mg"},{"bike_id":"e0b8236a-d455-4873-9536-d5c40653def1","system_id":"levelo_inurba_marseille","lat":43.30646,"lon":5.40095,"is_reserved":false,"is_disabled":false,"rental_uris":{"android":"levelo://app?vid=e0b8236a-d455-4873-9536-d5c40653def1","ios":"levelo://app?vid=e0b8236a-d455-4873-9536-d5c40653def1"},"vehicle_type_id":"4","last_reported":1731845756,"current_range_meters":35200,"station_id":"ce4bh112rcd13ifvqda0","pricing_plan_id":"cebpf4jnsgd1na2vs0mg"},{"bike_id":"46d2ac71-87ae-422e-9f39-9e790b0d3d29","system_id":"levelo_inurba_marseille","lat":43.2768,"lon":5.38869,"is_reserved":false,"is_disabled":false,"rental_uris":{"android":"levelo://app?vid=46d2ac71-87ae-422e-9f39-9e790b0d3d29","ios":"levelo://app?vid=46d2ac71-87ae-422e-9f39-9e790b0d3d29"},"vehicle_type_id":"4","last_reported":1731845756,"current_range_meters":28800,"station_id":"ce4bhi12rcd13ifvqfo0","pricing_plan_id":"cebpf4jnsgd1na2vs0mg"},{"bike_id":"92b70b63-9f66-4c95-94f3-3cec1871b5d3","system_id":"levelo_inurba_marseille","lat":43.23153,"lon":5.43715,"is_reserved":false,"is_disabled":false,"rental_uris":{"android":"levelo://app?vid=92b70b63-9f66-4c95-94f3-3cec1871b5d3","ios":"levelo://app?vid=92b70b63-9f66-4c95-94f3-3cec1871b5d3"},"vehicle_type_id":"4","last_reported":1731845756,"current_range_meters":16400,"station_id":"ce4bhmp2rcd13ifvqgog","pricing_plan_id":"cebpf4jnsgd1na2vs0mg"},{"bike_id":"9bc1f562-856a-443a-97a1-b572441ea463","system_id":"levelo_inurba_marseille","lat":43.30541,"lon":5.36554,"is_reserved":false,"is_disabled":false,"rental_uris":{"android":"levelo://app?vid=9bc1f562-856a-443a-97a1-b572441ea463","ios":"levelo://app?vid=9bc1f562-856a-443a-97a1-b572441ea463"},"vehicle_type_id":"4","last_reported":1731845756,"current_range_meters":17600,"station_id":"ce4bgs12rcd13ifvqcag","pricing_plan_id":"cebpf4jnsgd1na2vs0mg"},{"bike_id":"1352e806-cfb3-4a8c-97a0-8044857d29c3","system_id":"levelo_inurba_marseille","lat":43.278369,"lon":5.392056,"is_reserved":false,"is_disabled":false,"rental_uris":{"android":"levelo://app?vid=1352e806-cfb3-4a8c-97a0-8044857d29c3","ios":"levelo://app?vid=1352e806-cfb3-4a8c-97a0-8044857d29c3"},"vehicle_type_id":"4","last_reported":1731845756,"current_range_meters":5600,"station_id":"ce4bhjp2rcd13ifvqga0","pricing_plan_id":"cebpf4jnsgd1na2vs0mg"},{"bike_id":"391a21ac-5999-4383-9daa-1ed2a66acc40","system_id":"levelo_inurba_marseille","lat":43.25727,"lon":5.41107,"is_reserved":false,"is_disabled":false,"rental_uris":{"android":"levelo://app?vid=391a21ac-5999-4383-9daa-1ed2a66acc40","ios":"levelo://app?vid=391a21ac-5999-4383-9daa-1ed2a66acc40"},"vehicle_type_id":"4","last_reported":1731845756,"current_range_meters":33200,"station_id":"ce4bhkp2rcd13ifvqgd0","pricing_plan_id":"cebpf4jnsgd1na2vs0mg"},{"bike_id":"ef14df2e-76a6-4463-9e17-7726d237e6a7","system_id":"levelo_inurba_marseille","lat":43.33609,"lon":5.41016,"is_reserved":false,"is_disabled":false,"rental_uris":{"android":"levelo://app?vid=ef14df2e-76a6-4463-9e17-7726d237e6a7","ios":"levelo://app?vid=ef14df2e-76a6-4463-9e17-7726d237e6a7"},"vehicle_type_id":"4","last_reported":1731845756,"current_range_meters":39200,"station_id":"ce4bhqh2rcd13ifvqhmg","pricing_plan_id":"cebpf4jnsgd1na2vs0mg"},{"bike_id":"d19bbd7c-673f-4ee0-ab8c-9882f30f2ec9","system_id":"levelo_inurba_marseille","lat":43.24804,"lon":5.37454,"is_reserved":false,"is_disabled":false,"rental_uris":{"android":"levelo://app?vid=d19bbd7c-673f-4ee0-ab8c-9882f30f2ec9","ios":"levelo://app?vid=d19bbd7c-673f-4ee0-ab8c-9882f30f2ec9"},"vehicle_type_id":"4","last_reported":1731845756,"current_range_meters":38800,"station_id":"ce4bhgh2rcd13ifvqfb0","pricing_plan_id":"cebpf4jnsgd1na2vs0mg"},{"bike_id":"993343aa-e73c-48de-b7e9-d56262a76d1d","system_id":"levelo_inurba_marseille","lat":43.29898,"lon":5.43663,"is_reserved":false,"is_disabled":false,"rental_uris":{"android":"levelo://app?vid=993343aa-e73c-48de-b7e9-d56262a76d1d","ios":"levelo://app?vid=993343aa-e73c-48de-b7e9-d56262a76d1d"},"vehicle_type_id":"4","last_reported":1731845756,"current_range_meters":32400,"station_id":"ce4bhpp2rcd13ifvqhfg","pricing_plan_id":"cebpf4jnsgd1na2vs0mg"},{"bike_id":"16e3de90-cdab-40a0-975d-f264f65e738c","system_id":"levelo_inurba_marseille","lat":43.28155,"lon":5.42641,"is_reserved":false,"is_disabled":false,"rental_uris":{"android":"levelo://app?vid=16e3de90-cdab-40a0-975d-f264f65e738c","ios":"levelo://app?vid=16e3de90-cdab-40a0-975d-f264f65e738c"},"vehicle_type_id":"4","last_reported":1731845756,"current_range_meters":33200,"station_id":"ce4bhnh2rcd13ifvqgug","pricing_plan_id":"cebpf4jnsgd1na2vs0mg"},{"bike_id":"f3c2c3fe-2caa-4c62-a831-2cfeca2e0124","system_id":"levelo_inurba_marseille","lat":43.22926,"lon":5.35388,"is_reserved":false,"is_disabled":false,"rental_uris":{"android":"levelo://app?vid=f3c2c3fe-2caa-4c62-a831-2cfeca2e0124","ios":"levelo://app?vid=f3c2c3fe-2caa-4c62-a831-2cfeca2e0124"},"vehicle_type_id":"4","last_reported":1731845756,"current_range_meters":14400,"station_id":"cpo3532slgdg3j2ikp40","pricing_plan_id":"cebpf4jnsgd1na2vs0mg"},{"bike_id":"fb57d9bb-1957-4b85-8a8a-26c173215a7c","system_id":"levelo_inurba_marseille","lat":43.303046,"lon":5.392109,"is_reserved":false,"is_disabled":false,"rental_uris":{"android":"levelo://app?vid=fb57d9bb-1957-4b85-8a8a-26c173215a7c","ios":"levelo://app?vid=fb57d9bb-1957-4b85-8a8a-26c173215a7c"},"vehicle_type_id":"4","last_reported":1731845756,"current_range_meters":19200,"station_id":"ce4bgkh2rcd13ifvqbk0","pricing_plan_id":"cebpf4jnsgd1na2vs0mg"},{"bike_id":"38e33bd0-0e14-412a-a4d9-b42be319fb38","system_id":"levelo_inurba_marseille","lat":43.23956,"lon":5.3663,"is_reserved":false,"is_disabled":false,"rental_uris":{"android":"levelo://app?vid=38e33bd0-0e14-412a-a4d9-b42be319fb38","ios":"levelo://app?vid=38e33bd0-0e14-412a-a4d9-b42be319fb38"},"vehicle_type_id":"4","last_reported":1731845756,"current_range_meters":38000,"station_id":"ce4bhi12rcd13ifvqfp0","pricing_plan_id":"cebpf4jnsgd1na2vs0mg"},{"bike_id":"6a00dd81-f496-4486-aae9-67ff1cc715bf","system_id":"levelo_inurba_marseille","lat":43.28433,"lon":5.34998,"is_reserved":false,"is_disabled":false,"rental_uris":{"android":"levelo://app?vid=6a00dd81-f496-4486-aae9-67ff1cc715bf","ios":"levelo://app?vid=6a00dd81-f496-4486-aae9-67ff1cc715bf"},"vehicle_type_id":"4","last_reported":1731845756,"current_range_meters":30000,"station_id":"ce4bhbh2rcd13ifvqepg","pricing_plan_id":"cebpf4jnsgd1na2vs0mg"},{"bike_id":"d3d1a021-8d34-46bf-991f-81a9d4ee1d5f","system_id":"levelo_inurba_marseille","lat":43.2828,"lon":5.35084,"is_reserved":false,"is_disabled":false,"rental_uris":{"android":"levelo://app?vid=d3d1a021-8d34-46bf-991f-81a9d4ee1d5f","ios":"levelo://app?vid=d3d1a021-8d34-46bf-991f-81a9d4ee1d5f"},"vehicle_type_id":"4","last_reported":1731845756,"current_range_meters":16000,"station_id":"ce4bhbp2rcd13ifvqerg","pricing_plan_id":"cebpf4jnsgd1na2vs0mg"},{"bike_id":"ce0f228d-a4da-48a6-93ab-46fa78376d09","system_id":"levelo_inurba_marseille","lat":43.26942,"lon":5.38628,"is_reserved":false,"is_disabled":false,"rental_uris":{"android":"levelo://app?vid=ce0f228d-a4da-48a6-93ab-46fa78376d09","ios":"levelo://app?vid=ce0f228d-a4da-48a6-93ab-46fa78376d09"},"vehicle_type_id":"4","last_reported":1731845756,"current_range_meters":5600,"station_id":"ce4bhh92rcd13ifvqfh0","pricing_plan_id":"cebpf4jnsgd1na2vs0mg"},{"bike_id":"a9a382fd-691a-4d8a-9ca2-6feaa8c32cb9","system_id":"levelo_inurba_marseille","lat":43.2762,"lon":5.36106,"is_reserved":false,"is_disabled":false,"rental_uris":{"android":"levelo://app?vid=a9a382fd-691a-4d8a-9ca2-6feaa8c32cb9","ios":"levelo://app?vid=a9a382fd-691a-4d8a-9ca2-6feaa8c32cb9"},"vehicle_type_id":"4","last_reported":1731845756,"current_range_meters":14400,"station_id":"ce4bgj92rcd13ifvqbe0","pricing_plan_id":"cebpf4jnsgd1na2vs0mg"},{"bike_id":"5b3faca4-d3aa-4f9a-a2df-bca962917db3","system_id":"levelo_inurba_marseille","lat":43.23964,"lon":5.3663,"is_reserved":false,"is_disabled":false,"rental_uris":{"android":"levelo://app?vid=5b3faca4-d3aa-4f9a-a2df-bca962917db3","ios":"levelo://app?vid=5b3faca4-d3aa-4f9a-a2df-bca962917db3"},"vehicle_type_id":"4","last_reported":1731845756,"current_range_meters":18800,"station_id":"ce4bhi12rcd13ifvqfp0","pricing_plan_id":"cebpf4jnsgd1na2vs0mg"},{"bike_id":"da510949-3fab-4748-9c86-243b588791a3","system_id":"levelo_inurba_marseille","lat":43.28429,"lon":5.34997,"is_reserved":false,"is_disabled":false,"rental_uris":{"android":"levelo://app?vid=da510949-3fab-4748-9c86-243b588791a3","ios":"levelo://app?vid=da510949-3fab-4748-9c86-243b588791a3"},"vehicle_type_id":"4","last_reported":1731845756,"current_range_meters":38800,"station_id":"ce4bhbh2rcd13ifvqepg","pricing_plan_id":"cebpf4jnsgd1na2vs0mg"},{"bike_id":"9f92a7ac-738d-40f9-93b9-933c1f0ff525","system_id":"levelo_inurba_marseille","lat":43.32361,"lon":5.38885,"is_reserved":false,"is_disabled":false,"rental_uris":{"android":"levelo://app?vid=9f92a7ac-738d-40f9-93b9-933c1f0ff525","ios":"levelo://app?vid=9f92a7ac-738d-40f9-93b9-933c1f0ff525"},"vehicle_type_id":"4","last_reported":1731845756,"current_range_meters":19600,"station_id":"ce4bhqp2rcd13ifvqhog","pricing_plan_id":"cebpf4jnsgd1na2vs0mg"},{"bike_id":"069d9d33-0801-4e32-a284-0fb9e2ca0aae","system_id":"levelo_inurba_marseille","lat":43.28269,"lon":5.35069,"is_reserved":false,"is_disabled":false,"rental_uris":{"android":"levelo://app?vid=069d9d33-0801-4e32-a284-0fb9e2ca0aae","ios":"levelo://app?vid=069d9d33-0801-4e32-a284-0fb9e2ca0aae"},"vehicle_type_id":"4","last_reported":1731845756,"current_range_meters":24800,"station_id":"ce4bhbp2rcd13ifvqerg","pricing_plan_id":"cebpf4jnsgd1na2vs0mg"},{"bike_id":"4b65d93a-a2e2-4e4e-a517-b94c00e506f8","system_id":"levelo_inurba_marseille","lat":43.30801,"lon":5.43524,"is_reserved":false,"is_disabled":false,"rental_uris":{"android":"levelo://app?vid=4b65d93a-a2e2-4e4e-a517-b94c00e506f8","ios":"levelo://app?vid=4b65d93a-a2e2-4e4e-a517-b94c00e506f8"},"vehicle_type_id":"4","last_reported":1731845756,"current_range_meters":6400,"station_id":"ce4bhph2rcd13ifvqheg","pricing_plan_id":"cebpf4jnsgd1na2vs0mg"},{"bike_id":"b117ce81-ae91-4466-bc7d-09a9b54c6f00","system_id":"levelo_inurba_marseille","lat":43.23185,"lon":5.39984,"is_reserved":false,"is_disabled":false,"rental_uris":{"android":"levelo://app?vid=b117ce81-ae91-4466-bc7d-09a9b54c6f00","ios":"levelo://app?vid=b117ce81-ae91-4466-bc7d-09a9b54c6f00"},"vehicle_type_id":"4","last_reported":1731845756,"current_range_meters":11600,"station_id":"ce4bhn12rcd13ifvqgqg","pricing_plan_id":"cebpf4jnsgd1na2vs0mg"},{"bike_id":"045653a8-c6fa-46ea-8e61-dd2aa7e11e12","system_id":"levelo_inurba_marseille","lat":43.28423,"lon":5.3499,"is_reserved":false,"is_disabled":false,"rental_uris":{"android":"levelo://app?vid=045653a8-c6fa-46ea-8e61-dd2aa7e11e12","ios":"levelo://app?vid=045653a8-c6fa-46ea-8e61-dd2aa7e11e12"},"vehicle_type_id":"4","last_reported":1731845756,"current_range_meters":38800,"station_id":"ce4bhbh2rcd13ifvqepg","pricing_plan_id":"cebpf4jnsgd1na2vs0mg"},{"bike_id":"1f696e9a-c05c-43a3-a8cb-d18b7be00d9b","system_id":"levelo_inurba_marseille","lat":43.24547,"lon":5.39518,"is_reserved":false,"is_disabled":false,"rental_uris":{"android":"levelo://app?vid=1f696e9a-c05c-43a3-a8cb-d18b7be00d9b","ios":"levelo://app?vid=1f696e9a-c05c-43a3-a8cb-d18b7be00d9b"},"vehicle_type_id":"4","last_reported":1731845756,"current_range_meters":16800,"station_id":"ce4bhlp2rcd13ifvqgjg","pricing_plan_id":"cebpf4jnsgd1na2vs0mg"},{"bike_id":"8ececd69-9dd7-4454-8800-2ed6cafdfac6","system_id":"levelo_inurba_marseille","lat":43.28424,"lon":5.34991,"is_reserved":false,"is_disabled":false,"rental_uris":{"android":"levelo://app?vid=8ececd69-9dd7-4454-8800-2ed6cafdfac6","ios":"levelo://app?vid=8ececd69-9dd7-4454-8800-2ed6cafdfac6"},"vehicle_type_id":"4","last_reported":1731845756,"current_range_meters":33200,"station_id":"ce4bhbh2rcd13ifvqepg","pricing_plan_id":"cebpf4jnsgd1na2vs0mg"},{"bike_id":"40131c97-5534-4979-8808-2f9e4d317ef9","system_id":"levelo_inurba_marseille","lat":43.3234,"lon":5.40624,"is_reserved":false,"is_disabled":false,"rental_uris":{"android":"levelo://app?vid=40131c97-5534-4979-8808-2f9e4d317ef9","ios":"levelo://app?vid=40131c97-5534-4979-8808-2f9e4d317ef9"},"vehicle_type_id":"4","last_reported":1731845756,"current_range_meters":8400,"station_id":"ce4bhq92rcd13ifvqhjg","pricing_plan_id":"cebpf4jnsgd1na2vs0mg"},{"bike_id":"4f01fa73-c9c0-4fc0-986b-b2a94d270e4a","system_id":"levelo_inurba_marseille","lat":43.302519,"lon":5.400883,"is_reserved":false,"is_disabled":false,"rental_uris":{"android":"levelo://app?vid=4f01fa73-c9c0-4fc0-986b-b2a94d270e4a","ios":"levelo://app?vid=4f01fa73-c9c0-4fc0-986b-b2a94d270e4a"},"vehicle_type_id":"4","last_reported":1731845756,"current_range_meters":10000,"station_id":"ce4bgvh2rcd13ifvqcs0","pricing_plan_id":"cebpf4jnsgd1na2vs0mg"},{"bike_id":"6d757fef-4f26-43f9-ac2c-ffab39bf7dae","system_id":"levelo_inurba_marseille","lat":43.32249,"lon":5.36901,"is_reserved":false,"is_disabled":false,"rental_uris":{"android":"levelo://app?vid=6d757fef-4f26-43f9-ac2c-ffab39bf7dae","ios":"levelo://app?vid=6d757fef-4f26-43f9-ac2c-ffab39bf7dae"},"vehicle_type_id":"4","last_reported":1731845756,"current_range_meters":15200,"station_id":"","pricing_plan_id":"cebpf4jnsgd1na2vs0mg"},{"bike_id":"baa2c15b-a930-4c06-8a2a-efb858f1b5de","system_id":"levelo_inurba_marseille","lat":43.2955,"lon":5.42276,"is_reserved":false,"is_disabled":false,"rental_uris":{"android":"levelo://app?vid=baa2c15b-a930-4c06-8a2a-efb858f1b5de","ios":"levelo://app?vid=baa2c15b-a930-4c06-8a2a-efb858f1b5de"},"vehicle_type_id":"4","last_reported":1731845756,"current_range_meters":38800,"station_id":"ce4bhph2rcd13ifvqhdg","pricing_plan_id":"cebpf4jnsgd1na2vs0mg"},{"bike_id":"714946d8-c55b-43da-bca7-7fe6c4b9a169","system_id":"levelo_inurba_marseille","lat":43.28266,"lon":5.35067,"is_reserved":false,"is_disabled":false,"rental_uris":{"android":"levelo://app?vid=714946d8-c55b-43da-bca7-7fe6c4b9a169","ios":"levelo://app?vid=714946d8-c55b-43da-bca7-7fe6c4b9a169"},"vehicle_type_id":"4","last_reported":1731845756,"current_range_meters":23200,"station_id":"ce4bhbp2rcd13ifvqerg","pricing_plan_id":"cebpf4jnsgd1na2vs0mg"},{"bike_id":"9019691b-44d5-45db-bab4-7844df315a59","system_id":"levelo_inurba_marseille","lat":43.31082,"lon":5.4243,"is_reserved":false,"is_disabled":false,"rental_uris":{"android":"levelo://app?vid=9019691b-44d5-45db-bab4-7844df315a59","ios":"levelo://app?vid=9019691b-44d5-45db-bab4-7844df315a59"},"vehicle_type_id":"4","last_reported":1731845756,"current_range_meters":16400,"station_id":"ce4bhp92rcd13ifvqhag","pricing_plan_id":"cebpf4jnsgd1na2vs0mg"},{"bike_id":"dd493984-4813-4f0b-9837-6d865171cc69","system_id":"levelo_inurba_marseille","lat":43.32366,"lon":5.3888,"is_reserved":false,"is_disabled":false,"rental_uris":{"android":"levelo://app?vid=dd493984-4813-4f0b-9837-6d865171cc69","ios":"levelo://app?vid=dd493984-4813-4f0b-9837-6d865171cc69"},"vehicle_type_id":"4","last_reported":1731845756,"current_range_meters":20400,"station_id":"ce4bhqp2rcd13ifvqhog","pricing_plan_id":"cebpf4jnsgd1na2vs0mg"},{"bike_id":"176dfcf1-dbb1-46ba-bb5a-0e8c5c06d0fe","system_id":"levelo_inurba_marseille","lat":43.23958,"lon":5.3663,"is_reserved":false,"is_disabled":false,"rental_uris":{"android":"levelo://app?vid=176dfcf1-dbb1-46ba-bb5a-0e8c5c06d0fe","ios":"levelo://app?vid=176dfcf1-dbb1-46ba-bb5a-0e8c5c06d0fe"},"vehicle_type_id":"4","last_reported":1731845756,"current_range_meters":6800,"station_id":"ce4bhi12rcd13ifvqfp0","pricing_plan_id":"cebpf4jnsgd1na2vs0mg"},{"bike_id":"40d121e6-9cf1-43d1-983d-e175482cb771","system_id":"levelo_inurba_marseille","lat":43.28001,"lon":5.40013,"is_reserved":false,"is_disabled":false,"rental_uris":{"android":"levelo://app?vid=40d121e6-9cf1-43d1-983d-e175482cb771","ios":"levelo://app?vid=40d121e6-9cf1-43d1-983d-e175482cb771"},"vehicle_type_id":"4","last_reported":1731845756,"current_range_meters":17200,"station_id":"ce4bho92rcd13ifvqh4g","pricing_plan_id":"cebpf4jnsgd1na2vs0mg"},{"bike_id":"a7f9b1ff-073c-4bb9-865b-47d795a80a25","system_id":"levelo_inurba_marseille","lat":43.27999,"lon":5.41662,"is_reserved":false,"is_disabled":false,"rental_uris":{"android":"levelo://app?vid=a7f9b1ff-073c-4bb9-865b-47d795a80a25","ios":"levelo://app?vid=a7f9b1ff-073c-4bb9-865b-47d795a80a25"},"vehicle_type_id":"4","last_reported":1731845756,"current_range_meters":39200,"station_id":"ce4bho12rcd13ifvqh1g","pricing_plan_id":"cebpf4jnsgd1na2vs0mg"},{"bike_id":"16814d94-632a-433a-8823-e428f8c7db44","system_id":"levelo_inurba_marseille","lat":43.33027,"lon":5.39035,"is_reserved":false,"is_disabled":false,"rental_uris":{"android":"levelo://app?vid=16814d94-632a-433a-8823-e428f8c7db44","ios":"levelo://app?vid=16814d94-632a-433a-8823-e428f8c7db44"},"vehicle_type_id":"4","last_reported":1731845756,"current_range_meters":17600,"station_id":"ce4bhr92rcd13ifvqhrg","pricing_plan_id":"cebpf4jnsgd1na2vs0mg"},{"bike_id":"9b255d94-ee94-41ce-968c-16898d9f52f3","system_id":"levelo_inurba_marseille","lat":43.23962,"lon":5.36632,"is_reserved":false,"is_disabled":false,"rental_uris":{"android":"levelo://app?vid=9b255d94-ee94-41ce-968c-16898d9f52f3","ios":"levelo://app?vid=9b255d94-ee94-41ce-968c-16898d9f52f3"},"vehicle_type_id":"4","last_reported":1731845756,"current_range_meters":38400,"station_id":"ce4bhi12rcd13ifvqfp0","pricing_plan_id":"cebpf4jnsgd1na2vs0mg"},{"bike_id":"ba45d46a-85c1-487f-835b-4e382d515b9d","system_id":"levelo_inurba_marseille","lat":43.28601,"lon":5.37054,"is_reserved":false,"is_disabled":false,"rental_uris":{"android":"levelo://app?vid=ba45d46a-85c1-487f-835b-4e382d515b9d","ios":"levelo://app?vid=ba45d46a-85c1-487f-835b-4e382d515b9d"},"vehicle_type_id":"4","last_reported":1731845756,"current_range_meters":27600,"station_id":"ce4bht12rcd13ifvqi60","pricing_plan_id":"cebpf4jnsgd1na2vs0mg"},{"bike_id":"e71534c5-e937-41b4-81f3-4d7c6197ead1","system_id":"levelo_inurba_marseille","lat":43.33611,"lon":5.41033,"is_reserved":false,"is_disabled":false,"rental_uris":{"android":"levelo://app?vid=e71534c5-e937-41b4-81f3-4d7c6197ead1","ios":"levelo://app?vid=e71534c5-e937-41b4-81f3-4d7c6197ead1"},"vehicle_type_id":"4","last_reported":1731845756,"current_range_meters":32000,"station_id":"ce4bhqh2rcd13ifvqhmg","pricing_plan_id":"cebpf4jnsgd1na2vs0mg"},{"bike_id":"ae335726-259a-4375-8971-887bdf305583","system_id":"levelo_inurba_marseille","lat":43.27497,"lon":5.42456,"is_reserved":false,"is_disabled":false,"rental_uris":{"android":"levelo://app?vid=ae335726-259a-4375-8971-887bdf305583","ios":"levelo://app?vid=ae335726-259a-4375-8971-887bdf305583"},"vehicle_type_id":"4","last_reported":1731845756,"current_range_meters":28800,"station_id":"ce4bhn92rcd13ifvqgrg","pricing_plan_id":"cebpf4jnsgd1na2vs0mg"},{"bike_id":"d4cf1962-c4fc-4987-82ad-e066e34a5012","system_id":"levelo_inurba_marseille","lat":43.34138,"lon":5.40905,"is_reserved":false,"is_disabled":false,"rental_uris":{"android":"levelo://app?vid=d4cf1962-c4fc-4987-82ad-e066e34a5012","ios":"levelo://app?vid=d4cf1962-c4fc-4987-82ad-e066e34a5012"},"vehicle_type_id":"4","last_reported":1731845756,"current_range_meters":38800,"station_id":"ce4bhqh2rcd13ifvqhlg","pricing_plan_id":"cebpf4jnsgd1na2vs0mg"},{"bike_id":"55de28cf-e37c-4724-b81f-8a648780c5b9","system_id":"levelo_inurba_marseille","lat":43.23192,"lon":5.35555,"is_reserved":false,"is_disabled":false,"rental_uris":{"android":"levelo://app?vid=55de28cf-e37c-4724-b81f-8a648780c5b9","ios":"levelo://app?vid=55de28cf-e37c-4724-b81f-8a648780c5b9"},"vehicle_type_id":"4","last_reported":1731845756,"current_range_meters":36000,"station_id":"ce4bhu92rcd13ifvqi70","pricing_plan_id":"cebpf4jnsgd1na2vs0mg"},{"bike_id":"b40c0a67-109a-422e-9ff4-f91f4af918b6","system_id":"levelo_inurba_marseille","lat":43.31074,"lon":5.38356,"is_reserved":false,"is_disabled":false,"rental_uris":{"android":"levelo://app?vid=b40c0a67-109a-422e-9ff4-f91f4af918b6","ios":"levelo://app?vid=b40c0a67-109a-422e-9ff4-f91f4af918b6"},"vehicle_type_id":"4","last_reported":1731845756,"current_range_meters":31200,"station_id":"ce4bgv92rcd13ifvqcr0","pricing_plan_id":"cebpf4jnsgd1na2vs0mg"},{"bike_id":"7245d2c8-9d9b-4dd8-8250-17f59054ed97","system_id":"levelo_inurba_marseille","lat":43.29895,"lon":5.43666,"is_reserved":false,"is_disabled":false,"rental_uris":{"android":"levelo://app?vid=7245d2c8-9d9b-4dd8-8250-17f59054ed97","ios":"levelo://app?vid=7245d2c8-9d9b-4dd8-8250-17f59054ed97"},"vehicle_type_id":"4","last_reported":1731845756,"current_range_meters":37600,"station_id":"ce4bhpp2rcd13ifvqhfg","pricing_plan_id":"cebpf4jnsgd1na2vs0mg"},{"bike_id":"648ecdef-dc06-4468-86d2-1bb62f40e2c9","system_id":"levelo_inurba_marseille","lat":43.28264,"lon":5.35057,"is_reserved":false,"is_disabled":false,"rental_uris":{"android":"levelo://app?vid=648ecdef-dc06-4468-86d2-1bb62f40e2c9","ios":"levelo://app?vid=648ecdef-dc06-4468-86d2-1bb62f40e2c9"},"vehicle_type_id":"4","last_reported":1731845756,"current_range_meters":16000,"station_id":"ce4bhbp2rcd13ifvqerg","pricing_plan_id":"cebpf4jnsgd1na2vs0mg"},{"bike_id":"d38dfc2d-cadc-472a-8185-849d08b5b43d","system_id":"levelo_inurba_marseille","lat":43.32658,"lon":5.40988,"is_reserved":false,"is_disabled":false,"rental_uris":{"android":"levelo://app?vid=d38dfc2d-cadc-472a-8185-849d08b5b43d","ios":"levelo://app?vid=d38dfc2d-cadc-472a-8185-849d08b5b43d"},"vehicle_type_id":"4","last_reported":1731845756,"current_range_meters":39200,"station_id":"ce4bhpp2rcd13ifvqhgg","pricing_plan_id":"cebpf4jnsgd1na2vs0mg"},{"bike_id":"57502f56-aada-409a-bfbb-4a3326e81e1f","system_id":"levelo_inurba_marseille","lat":43.24067,"lon":5.37765,"is_reserved":false,"is_disabled":false,"rental_uris":{"android":"levelo://app?vid=57502f56-aada-409a-bfbb-4a3326e81e1f","ios":"levelo://app?vid=57502f56-aada-409a-bfbb-4a3326e81e1f"},"vehicle_type_id":"4","last_reported":1731845756,"current_range_meters":38000,"station_id":"ce4bhnp2rcd13ifvqgvg","pricing_plan_id":"cebpf4jnsgd1na2vs0mg"},{"bike_id":"eff533c6-cb04-492d-bdb1-a2fd7e805724","system_id":"levelo_inurba_marseille","lat":43.27373,"lon":5.36257,"is_reserved":false,"is_disabled":false,"rental_uris":{"android":"levelo://app?vid=eff533c6-cb04-492d-bdb1-a2fd7e805724","ios":"levelo://app?vid=eff533c6-cb04-492d-bdb1-a2fd7e805724"},"vehicle_type_id":"4","last_reported":1731845756,"current_range_meters":35600,"station_id":"ce4bhbh2rcd13ifvqeo0","pricing_plan_id":"cebpf4jnsgd1na2vs0mg"},{"bike_id":"eb9a84f5-6092-4dc4-a3c0-a07efb437c77","system_id":"levelo_inurba_marseille","lat":43.33767,"lon":5.37441,"is_reserved":false,"is_disabled":false,"rental_uris":{"android":"levelo://app?vid=eb9a84f5-6092-4dc4-a3c0-a07efb437c77","ios":"levelo://app?vid=eb9a84f5-6092-4dc4-a3c0-a07efb437c77"},"vehicle_type_id":"4","last_reported":1731845756,"current_range_meters":6400,"station_id":"","pricing_plan_id":"cebpf4jnsgd1na2vs0mg"},{"bike_id":"662fd6e0-ae3d-4e13-9ca2-7a5a37a1e102","system_id":"levelo_inurba_marseille","lat":43.27071,"lon":5.42277,"is_reserved":false,"is_disabled":false,"rental_uris":{"android":"levelo://app?vid=662fd6e0-ae3d-4e13-9ca2-7a5a37a1e102","ios":"levelo://app?vid=662fd6e0-ae3d-4e13-9ca2-7a5a37a1e102"},"vehicle_type_id":"4","last_reported":1731845756,"current_range_meters":21600,"station_id":"ce4bhk92rcd13ifvqgb0","pricing_plan_id":"cebpf4jnsgd1na2vs0mg"},{"bike_id":"96827665-f69f-433c-a2c6-a4be4724e012","system_id":"levelo_inurba_marseille","lat":43.27368,"lon":5.36255,"is_reserved":false,"is_disabled":false,"rental_uris":{"android":"levelo://app?vid=96827665-f69f-433c-a2c6-a4be4724e012","ios":"levelo://app?vid=96827665-f69f-433c-a2c6-a4be4724e012"},"vehicle_type_id":"4","last_reported":1731845756,"current_range_meters":12000,"station_id":"ce4bhbh2rcd13ifvqeo0","pricing_plan_id":"cebpf4jnsgd1na2vs0mg"},{"bike_id":"22ea48db-755d-43c3-a7d2-0beff01815d8","system_id":"levelo_inurba_marseille","lat":43.33768,"lon":5.37451,"is_reserved":false,"is_disabled":false,"rental_uris":{"android":"levelo://app?vid=22ea48db-755d-43c3-a7d2-0beff01815d8","ios":"levelo://app?vid=22ea48db-755d-43c3-a7d2-0beff01815d8"},"vehicle_type_id":"4","last_reported":1731845756,"current_range_meters":8400,"station_id":"","pricing_plan_id":"cebpf4jnsgd1na2vs0mg"},{"bike_id":"e572c8c8-2c29-468a-9de9-47bf2d2e9b00","system_id":"levelo_inurba_marseille","lat":43.27489,"lon":5.42458,"is_reserved":false,"is_disabled":false,"rental_uris":{"android":"levelo://app?vid=e572c8c8-2c29-468a-9de9-47bf2d2e9b00","ios":"levelo://app?vid=e572c8c8-2c29-468a-9de9-47bf2d2e9b00"},"vehicle_type_id":"4","last_reported":1731845756,"current_range_meters":28400,"station_id":"ce4bhn92rcd13ifvqgrg","pricing_plan_id":"cebpf4jnsgd1na2vs0mg"},{"bike_id":"eacd9ebb-691f-4a83-85ee-81beefc74253","system_id":"levelo_inurba_marseille","lat":43.33728,"lon":5.39184,"is_reserved":false,"is_disabled":false,"rental_uris":{"android":"levelo://app?vid=eacd9ebb-691f-4a83-85ee-81beefc74253","ios":"levelo://app?vid=eacd9ebb-691f-4a83-85ee-81beefc74253"},"vehicle_type_id":"4","last_reported":1731845756,"current_range_meters":37600,"station_id":"ce4bhr92rcd13ifvqhsg","pricing_plan_id":"cebpf4jnsgd1na2vs0mg"},{"bike_id":"a1862017-f597-4949-a306-4d7c53cc8b86","system_id":"levelo_inurba_marseille","lat":43.2417,"lon":5.364,"is_reserved":false,"is_disabled":false,"rental_uris":{"android":"levelo://app?vid=a1862017-f597-4949-a306-4d7c53cc8b86","ios":"levelo://app?vid=a1862017-f597-4949-a306-4d7c53cc8b86"},"vehicle_type_id":"4","last_reported":1731845756,"current_range_meters":8400,"station_id":"cpo36qri1sfpv3e86is0","pricing_plan_id":"cebpf4jnsgd1na2vs0mg"},{"bike_id":"93d2376b-d24b-4c4a-bf7c-d9d7da5c25f0","system_id":"levelo_inurba_marseille","lat":43.2306,"lon":5.35489,"is_reserved":false,"is_disabled":false,"rental_uris":{"android":"levelo://app?vid=93d2376b-d24b-4c4a-bf7c-d9d7da5c25f0","ios":"levelo://app?vid=93d2376b-d24b-4c4a-bf7c-d9d7da5c25f0"},"vehicle_type_id":"4","last_reported":1731845756,"current_range_meters":9200,"station_id":"cpo3342slgdg3j2ifvpg","pricing_plan_id":"cebpf4jnsgd1na2vs0mg"},{"bike_id":"4c8ba54b-83f7-4da2-8c74-61ccc6e803f5","system_id":"levelo_inurba_marseille","lat":43.284178,"lon":5.349786,"is_reserved":false,"is_disabled":false,"rental_uris":{"android":"levelo://app?vid=4c8ba54b-83f7-4da2-8c74-61ccc6e803f5","ios":"levelo://app?vid=4c8ba54b-83f7-4da2-8c74-61ccc6e803f5"},"vehicle_type_id":"4","last_reported":1731845756,"current_range_meters":17600,"station_id":"ce4bhbh2rcd13ifvqepg","pricing_plan_id":"cebpf4jnsgd1na2vs0mg"},{"bike_id":"eb0b6258-25b5-4174-825d-16bccd206154","system_id":"levelo_inurba_marseille","lat":43.33026,"lon":5.39039,"is_reserved":false,"is_disabled":false,"rental_uris":{"android":"levelo://app?vid=eb0b6258-25b5-4174-825d-16bccd206154","ios":"levelo://app?vid=eb0b6258-25b5-4174-825d-16bccd206154"},"vehicle_type_id":"4","last_reported":1731845756,"current_range_meters":8000,"station_id":"ce4bhr92rcd13ifvqhrg","pricing_plan_id":"cebpf4jnsgd1na2vs0mg"},{"bike_id":"ca655f3b-8380-4045-b3f8-8acaa0e83ede","system_id":"levelo_inurba_marseille","lat":43.33739,"lon":5.37423,"is_reserved":false,"is_disabled":false,"rental_uris":{"android":"levelo://app?vid=ca655f3b-8380-4045-b3f8-8acaa0e83ede","ios":"levelo://app?vid=ca655f3b-8380-4045-b3f8-8acaa0e83ede"},"vehicle_type_id":"4","last_reported":1731845756,"current_range_meters":33200,"station_id":"","pricing_plan_id":"cebpf4jnsgd1na2vs0mg"},{"bike_id":"99291df8-3675-42a3-986f-d9532c98948d","system_id":"levelo_inurba_marseille","lat":43.276174,"lon":5.361029,"is_reserved":false,"is_disabled":false,"rental_uris":{"android":"levelo://app?vid=99291df8-3675-42a3-986f-d9532c98948d","ios":"levelo://app?vid=99291df8-3675-42a3-986f-d9532c98948d"},"vehicle_type_id":"4","last_reported":1731845756,"current_range_meters":20800,"station_id":"ce4bgj92rcd13ifvqbe0","pricing_plan_id":"cebpf4jnsgd1na2vs0mg"},{"bike_id":"a6b8c285-acc9-4039-9531-1aae39136a33","system_id":"levelo_inurba_marseille","lat":43.312042,"lon":5.367348,"is_reserved":false,"is_disabled":false,"rental_uris":{"android":"levelo://app?vid=a6b8c285-acc9-4039-9531-1aae39136a33","ios":"levelo://app?vid=a6b8c285-acc9-4039-9531-1aae39136a33"},"vehicle_type_id":"4","last_reported":1731845756,"current_range_meters":10800,"station_id":"","pricing_plan_id":"cebpf4jnsgd1na2vs0mg"},{"bike_id":"04e579be-d930-46e5-bb29-40fdc45896e1","system_id":"levelo_inurba_marseille","lat":43.326461,"lon":5.362202,"is_reserved":false,"is_disabled":false,"rental_uris":{"android":"levelo://app?vid=04e579be-d930-46e5-bb29-40fdc45896e1","ios":"levelo://app?vid=04e579be-d930-46e5-bb29-40fdc45896e1"},"vehicle_type_id":"4","last_reported":1731845756,"current_range_meters":6400,"station_id":"","pricing_plan_id":"cebpf4jnsgd1na2vs0mg"},{"bike_id":"37b940f2-53f1-40b3-bcdc-a092eab2c248","system_id":"levelo_inurba_marseille","lat":43.23958,"lon":5.36623,"is_reserved":false,"is_disabled":false,"rental_uris":{"android":"levelo://app?vid=37b940f2-53f1-40b3-bcdc-a092eab2c248","ios":"levelo://app?vid=37b940f2-53f1-40b3-bcdc-a092eab2c248"},"vehicle_type_id":"4","last_reported":1731845756,"current_range_meters":20000,"station_id":"ce4bhi12rcd13ifvqfp0","pricing_plan_id":"cebpf4jnsgd1na2vs0mg"},{"bike_id":"dd4d2ea5-18eb-49aa-95a3-885417d89267","system_id":"levelo_inurba_marseille","lat":43.24168,"lon":5.3639,"is_reserved":false,"is_disabled":false,"rental_uris":{"android":"levelo://app?vid=dd4d2ea5-18eb-49aa-95a3-885417d89267","ios":"levelo://app?vid=dd4d2ea5-18eb-49aa-95a3-885417d89267"},"vehicle_type_id":"4","last_reported":1731845756,"current_range_meters":4400,"station_id":"cpo36qri1sfpv3e86is0","pricing_plan_id":"cebpf4jnsgd1na2vs0mg"},{"bike_id":"900707cc-26f2-4ea2-8fed-9690c6b8ed62","system_id":"levelo_inurba_marseille","lat":43.25582,"lon":5.38236,"is_reserved":false,"is_disabled":false,"rental_uris":{"android":"levelo://app?vid=900707cc-26f2-4ea2-8fed-9690c6b8ed62","ios":"levelo://app?vid=900707cc-26f2-4ea2-8fed-9690c6b8ed62"},"vehicle_type_id":"4","last_reported":1731845756,"current_range_meters":17600,"station_id":"ce4bhih2rcd13ifvqfs0","pricing_plan_id":"cebpf4jnsgd1na2vs0mg"},{"bike_id":"44b33471-9680-42e2-a35a-c90f16800d4f","system_id":"levelo_inurba_marseille","lat":43.26568,"lon":5.39009,"is_reserved":false,"is_disabled":false,"rental_uris":{"android":"levelo://app?vid=44b33471-9680-42e2-a35a-c90f16800d4f","ios":"levelo://app?vid=44b33471-9680-42e2-a35a-c90f16800d4f"},"vehicle_type_id":"4","last_reported":1731845756,"current_range_meters":32800,"station_id":"ce4bhe12rcd13ifvqf30","pricing_plan_id":"cebpf4jnsgd1na2vs0mg"},{"bike_id":"c103217f-6405-46be-99c6-8dc1b284f31f","system_id":"levelo_inurba_marseille","lat":43.299331,"lon":5.365656,"is_reserved":false,"is_disabled":false,"rental_uris":{"android":"levelo://app?vid=c103217f-6405-46be-99c6-8dc1b284f31f","ios":"levelo://app?vid=c103217f-6405-46be-99c6-8dc1b284f31f"},"vehicle_type_id":"4","last_reported":1731845756,"current_range_meters":27200,"station_id":"ce4bgm92rcd13ifvqbr0","pricing_plan_id":"cebpf4jnsgd1na2vs0mg"},{"bike_id":"776c19bb-9271-4d1b-b450-71b28ade05f5","system_id":"levelo_inurba_marseille","lat":43.23192,"lon":5.35558,"is_reserved":false,"is_disabled":false,"rental_uris":{"android":"levelo://app?vid=776c19bb-9271-4d1b-b450-71b28ade05f5","ios":"levelo://app?vid=776c19bb-9271-4d1b-b450-71b28ade05f5"},"vehicle_type_id":"4","last_reported":1731845756,"current_range_meters":36000,"station_id":"ce4bhu92rcd13ifvqi70","pricing_plan_id":"cebpf4jnsgd1na2vs0mg"},{"bike_id":"3731846e-2218-45f1-ac96-76a41185ff9d","system_id":"levelo_inurba_marseille","lat":43.24167,"lon":5.36396,"is_reserved":false,"is_disabled":false,"rental_uris":{"android":"levelo://app?vid=3731846e-2218-45f1-ac96-76a41185ff9d","ios":"levelo://app?vid=3731846e-2218-45f1-ac96-76a41185ff9d"},"vehicle_type_id":"4","last_reported":1731845756,"current_range_meters":36800,"station_id":"cpo36qri1sfpv3e86is0","pricing_plan_id":"cebpf4jnsgd1na2vs0mg"},{"bike_id":"14471b0b-f241-446d-ba5b-8a94d9ac3b68","system_id":"levelo_inurba_marseille","lat":43.22932,"lon":5.35375,"is_reserved":false,"is_disabled":false,"rental_uris":{"android":"levelo://app?vid=14471b0b-f241-446d-ba5b-8a94d9ac3b68","ios":"levelo://app?vid=14471b0b-f241-446d-ba5b-8a94d9ac3b68"},"vehicle_type_id":"4","last_reported":1731845756,"current_range_meters":27600,"station_id":"cpo3532slgdg3j2ikp40","pricing_plan_id":"cebpf4jnsgd1na2vs0mg"},{"bike_id":"92ac4858-87d6-4ceb-8f6e-004635a816a8","system_id":"levelo_inurba_marseille","lat":43.27793,"lon":5.40729,"is_reserved":false,"is_disabled":false,"rental_uris":{"android":"levelo://app?vid=92ac4858-87d6-4ceb-8f6e-004635a816a8","ios":"levelo://app?vid=92ac4858-87d6-4ceb-8f6e-004635a816a8"},"vehicle_type_id":"4","last_reported":1731845756,"current_range_meters":27200,"station_id":"ce4bhnh2rcd13ifvqgtg","pricing_plan_id":"cebpf4jnsgd1na2vs0mg"},{"bike_id":"6fec559a-2b3b-4f1a-9c20-1a2347d89940","system_id":"levelo_inurba_marseille","lat":43.28748,"lon":5.43309,"is_reserved":false,"is_disabled":false,"rental_uris":{"android":"levelo://app?vid=6fec559a-2b3b-4f1a-9c20-1a2347d89940","ios":"levelo://app?vid=6fec559a-2b3b-4f1a-9c20-1a2347d89940"},"vehicle_type_id":"4","last_reported":1731845756,"current_range_meters":4800,"station_id":"","pricing_plan_id":"cebpf4jnsgd1na2vs0mg"},{"bike_id":"1396ab55-0e44-4ee6-a17e-86cf36813da1","system_id":"levelo_inurba_marseille","lat":43.24178,"lon":5.39735,"is_reserved":false,"is_disabled":false,"rental_uris":{"android":"levelo://app?vid=1396ab55-0e44-4ee6-a17e-86cf36813da1","ios":"levelo://app?vid=1396ab55-0e44-4ee6-a17e-86cf36813da1"},"vehicle_type_id":"4","last_reported":1731845756,"current_range_meters":28000,"station_id":"ce4bhn12rcd13ifvqgpg","pricing_plan_id":"cebpf4jnsgd1na2vs0mg"},{"bike_id":"73bb5904-c606-4d8d-ae27-7338b207a664","system_id":"levelo_inurba_marseille","lat":43.280365,"lon":5.378461,"is_reserved":false,"is_disabled":false,"rental_uris":{"android":"levelo://app?vid=73bb5904-c606-4d8d-ae27-7338b207a664","ios":"levelo://app?vid=73bb5904-c606-4d8d-ae27-7338b207a664"},"vehicle_type_id":"4","last_reported":1731845756,"current_range_meters":15200,"station_id":"ce4bha12rcd13ifvqee0","pricing_plan_id":"cebpf4jnsgd1na2vs0mg"},{"bike_id":"dcf9e95a-57e8-4f13-bcb4-b6db074c04a0","system_id":"levelo_inurba_marseille","lat":43.31356,"lon":5.36714,"is_reserved":false,"is_disabled":false,"rental_uris":{"android":"levelo://app?vid=dcf9e95a-57e8-4f13-bcb4-b6db074c04a0","ios":"levelo://app?vid=dcf9e95a-57e8-4f13-bcb4-b6db074c04a0"},"vehicle_type_id":"4","last_reported":1731845756,"current_range_meters":6800,"station_id":"ce4bgr92rcd13ifvqc6g","pricing_plan_id":"cebpf4jnsgd1na2vs0mg"},{"bike_id":"2412fd48-7071-4437-8fb4-820ded7fd014","system_id":"levelo_inurba_marseille","lat":43.22929,"lon":5.35374,"is_reserved":false,"is_disabled":false,"rental_uris":{"android":"levelo://app?vid=2412fd48-7071-4437-8fb4-820ded7fd014","ios":"levelo://app?vid=2412fd48-7071-4437-8fb4-820ded7fd014"},"vehicle_type_id":"4","last_reported":1731845756,"current_range_meters":17600,"station_id":"cpo3532slgdg3j2ikp40","pricing_plan_id":"cebpf4jnsgd1na2vs0mg"},{"bike_id":"58b880ee-ba7b-4c7c-a799-0696aaf6e3d9","system_id":"levelo_inurba_marseille","lat":43.23967,"lon":5.3663,"is_reserved":false,"is_disabled":false,"rental_uris":{"android":"levelo://app?vid=58b880ee-ba7b-4c7c-a799-0696aaf6e3d9","ios":"levelo://app?vid=58b880ee-ba7b-4c7c-a799-0696aaf6e3d9"},"vehicle_type_id":"4","last_reported":1731845756,"current_range_meters":32800,"station_id":"ce4bhi12rcd13ifvqfp0","pricing_plan_id":"cebpf4jnsgd1na2vs0mg"},{"bike_id":"a84f5389-258d-4508-9c0f-32ee5d326b43","system_id":"levelo_inurba_marseille","lat":43.33767,"lon":5.37475,"is_reserved":false,"is_disabled":false,"rental_uris":{"android":"levelo://app?vid=a84f5389-258d-4508-9c0f-32ee5d326b43","ios":"levelo://app?vid=a84f5389-258d-4508-9c0f-32ee5d326b43"},"vehicle_type_id":"4","last_reported":1731845756,"current_range_meters":30000,"station_id":"","pricing_plan_id":"cebpf4jnsgd1na2vs0mg"},{"bike_id":"c5897b2b-ddc5-46af-85a8-230191e43355","system_id":"levelo_inurba_marseille","lat":43.29056,"lon":5.40549,"is_reserved":false,"is_disabled":false,"rental_uris":{"android":"levelo://app?vid=c5897b2b-ddc5-46af-85a8-230191e43355","ios":"levelo://app?vid=c5897b2b-ddc5-46af-85a8-230191e43355"},"vehicle_type_id":"4","last_reported":1731845756,"current_range_meters":2800,"station_id":"ce4bh492rcd13ifvqdug","pricing_plan_id":"cebpf4jnsgd1na2vs0mg"},{"bike_id":"ed8cfcce-fcd3-4866-b7bb-3032e5fedbfd","system_id":"levelo_inurba_marseille","lat":43.3234,"lon":5.40628,"is_reserved":false,"is_disabled":false,"rental_uris":{"android":"levelo://app?vid=ed8cfcce-fcd3-4866-b7bb-3032e5fedbfd","ios":"levelo://app?vid=ed8cfcce-fcd3-4866-b7bb-3032e5fedbfd"},"vehicle_type_id":"4","last_reported":1731845756,"current_range_meters":27200,"station_id":"ce4bhq92rcd13ifvqhjg","pricing_plan_id":"cebpf4jnsgd1na2vs0mg"},{"bike_id":"22288cc9-c61e-4476-a3cd-ef28a104def5","system_id":"levelo_inurba_marseille","lat":43.309,"lon":5.37194,"is_reserved":false,"is_disabled":false,"rental_uris":{"android":"levelo://app?vid=22288cc9-c61e-4476-a3cd-ef28a104def5","ios":"levelo://app?vid=22288cc9-c61e-4476-a3cd-ef28a104def5"},"vehicle_type_id":"4","last_reported":1731845756,"current_range_meters":27600,"station_id":"ce4bguh2rcd13ifvqckg","pricing_plan_id":"cebpf4jnsgd1na2vs0mg"},{"bike_id":"d6ea0d18-09c5-4a16-8d92-16497ecc1e85","system_id":"levelo_inurba_marseille","lat":43.27495,"lon":5.42452,"is_reserved":false,"is_disabled":false,"rental_uris":{"android":"levelo://app?vid=d6ea0d18-09c5-4a16-8d92-16497ecc1e85","ios":"levelo://app?vid=d6ea0d18-09c5-4a16-8d92-16497ecc1e85"},"vehicle_type_id":"4","last_reported":1731845756,"current_range_meters":9200,"station_id":"ce4bhn92rcd13ifvqgrg","pricing_plan_id":"cebpf4jnsgd1na2vs0mg"},{"bike_id":"3c21ec9a-2532-43e3-b0dc-31fab1491259","system_id":"levelo_inurba_marseille","lat":43.24806,"lon":5.37452,"is_reserved":false,"is_disabled":false,"rental_uris":{"android":"levelo://app?vid=3c21ec9a-2532-43e3-b0dc-31fab1491259","ios":"levelo://app?vid=3c21ec9a-2532-43e3-b0dc-31fab1491259"},"vehicle_type_id":"4","last_reported":1731845756,"current_range_meters":4400,"station_id":"ce4bhgh2rcd13ifvqfb0","pricing_plan_id":"cebpf4jnsgd1na2vs0mg"},{"bike_id":"ae7aa9df-9b30-4ca1-9d8c-301e689f0c14","system_id":"levelo_inurba_marseille","lat":43.33726,"lon":5.39183,"is_reserved":false,"is_disabled":false,"rental_uris":{"android":"levelo://app?vid=ae7aa9df-9b30-4ca1-9d8c-301e689f0c14","ios":"levelo://app?vid=ae7aa9df-9b30-4ca1-9d8c-301e689f0c14"},"vehicle_type_id":"4","last_reported":1731845756,"current_range_meters":37600,"station_id":"ce4bhr92rcd13ifvqhsg","pricing_plan_id":"cebpf4jnsgd1na2vs0mg"},{"bike_id":"6d6992bf-ade3-4a22-a168-306dafdc4544","system_id":"levelo_inurba_marseille","lat":43.24169,"lon":5.36402,"is_reserved":false,"is_disabled":false,"rental_uris":{"android":"levelo://app?vid=6d6992bf-ade3-4a22-a168-306dafdc4544","ios":"levelo://app?vid=6d6992bf-ade3-4a22-a168-306dafdc4544"},"vehicle_type_id":"4","last_reported":1731845756,"current_range_meters":28800,"station_id":"cpo36qri1sfpv3e86is0","pricing_plan_id":"cebpf4jnsgd1na2vs0mg"},{"bike_id":"4c893280-d9aa-4a10-acac-46930aeeb70f","system_id":"levelo_inurba_marseille","lat":43.24536,"lon":5.39518,"is_reserved":false,"is_disabled":false,"rental_uris":{"android":"levelo://app?vid=4c893280-d9aa-4a10-acac-46930aeeb70f","ios":"levelo://app?vid=4c893280-d9aa-4a10-acac-46930aeeb70f"},"vehicle_type_id":"4","last_reported":1731845756,"current_range_meters":28400,"station_id":"ce4bhlp2rcd13ifvqgjg","pricing_plan_id":"cebpf4jnsgd1na2vs0mg"},{"bike_id":"fca868f5-9fd0-45d8-90bd-4e6ce3d8eb68","system_id":"levelo_inurba_marseille","lat":43.23188,"lon":5.39979,"is_reserved":false,"is_disabled":false,"rental_uris":{"android":"levelo://app?vid=fca868f5-9fd0-45d8-90bd-4e6ce3d8eb68","ios":"levelo://app?vid=fca868f5-9fd0-45d8-90bd-4e6ce3d8eb68"},"vehicle_type_id":"4","last_reported":1731845756,"current_range_meters":16800,"station_id":"ce4bhn12rcd13ifvqgqg","pricing_plan_id":"cebpf4jnsgd1na2vs0mg"},{"bike_id":"caa21753-2c51-41ce-9adb-91323c16cc24","system_id":"levelo_inurba_marseille","lat":43.29035,"lon":5.35591,"is_reserved":false,"is_disabled":false,"rental_uris":{"android":"levelo://app?vid=caa21753-2c51-41ce-9adb-91323c16cc24","ios":"levelo://app?vid=caa21753-2c51-41ce-9adb-91323c16cc24"},"vehicle_type_id":"4","last_reported":1731845756,"current_range_meters":31200,"station_id":"ce4bhb92rcd13ifvqen0","pricing_plan_id":"cebpf4jnsgd1na2vs0mg"},{"bike_id":"4ee4605c-22f2-4532-b44d-f5fb03fd5142","system_id":"levelo_inurba_marseille","lat":43.30796,"lon":5.43527,"is_reserved":false,"is_disabled":false,"rental_uris":{"android":"levelo://app?vid=4ee4605c-22f2-4532-b44d-f5fb03fd5142","ios":"levelo://app?vid=4ee4605c-22f2-4532-b44d-f5fb03fd5142"},"vehicle_type_id":"4","last_reported":1731845756,"current_range_meters":8400,"station_id":"ce4bhph2rcd13ifvqheg","pricing_plan_id":"cebpf4jnsgd1na2vs0mg"},{"bike_id":"87c6772f-5c88-4d20-99e7-0fab985857cc","system_id":"levelo_inurba_marseille","lat":43.28159,"lon":5.4264,"is_reserved":false,"is_disabled":false,"rental_uris":{"android":"levelo://app?vid=87c6772f-5c88-4d20-99e7-0fab985857cc","ios":"levelo://app?vid=87c6772f-5c88-4d20-99e7-0fab985857cc"},"vehicle_type_id":"4","last_reported":1731845756,"current_range_meters":25600,"station_id":"ce4bhnh2rcd13ifvqgug","pricing_plan_id":"cebpf4jnsgd1na2vs0mg"},{"bike_id":"5cea8c25-8c06-4ac5-8995-5d255bcf6758","system_id":"levelo_inurba_marseille","lat":43.29896,"lon":5.43671,"is_reserved":false,"is_disabled":false,"rental_uris":{"android":"levelo://app?vid=5cea8c25-8c06-4ac5-8995-5d255bcf6758","ios":"levelo://app?vid=5cea8c25-8c06-4ac5-8995-5d255bcf6758"},"vehicle_type_id":"4","last_reported":1731845756,"current_range_meters":32000,"station_id":"ce4bhpp2rcd13ifvqhfg","pricing_plan_id":"cebpf4jnsgd1na2vs0mg"},{"bike_id":"255b2b33-d4fd-485a-b9a5-1b135fcbcc0b","system_id":"levelo_inurba_marseille","lat":43.30227,"lon":5.394573,"is_reserved":false,"is_disabled":false,"rental_uris":{"android":"levelo://app?vid=255b2b33-d4fd-485a-b9a5-1b135fcbcc0b","ios":"levelo://app?vid=255b2b33-d4fd-485a-b9a5-1b135fcbcc0b"},"vehicle_type_id":"4","last_reported":1731845756,"current_range_meters":4400,"station_id":"ce4bh0p2rcd13ifvqd70","pricing_plan_id":"cebpf4jnsgd1na2vs0mg"},{"bike_id":"91f1c44f-3790-4ba5-8d3d-4b0e6663ab00","system_id":"levelo_inurba_marseille","lat":43.33619,"lon":5.41103,"is_reserved":false,"is_disabled":false,"rental_uris":{"android":"levelo://app?vid=91f1c44f-3790-4ba5-8d3d-4b0e6663ab00","ios":"levelo://app?vid=91f1c44f-3790-4ba5-8d3d-4b0e6663ab00"},"vehicle_type_id":"4","last_reported":1731845756,"current_range_meters":24400,"station_id":"ce4bhqh2rcd13ifvqhmg","pricing_plan_id":"cebpf4jnsgd1na2vs0mg"},{"bike_id":"1e730ee4-2d8d-4021-979d-8e8d2bbc3bcb","system_id":"levelo_inurba_marseille","lat":43.27075,"lon":5.42277,"is_reserved":false,"is_disabled":false,"rental_uris":{"android":"levelo://app?vid=1e730ee4-2d8d-4021-979d-8e8d2bbc3bcb","ios":"levelo://app?vid=1e730ee4-2d8d-4021-979d-8e8d2bbc3bcb"},"vehicle_type_id":"4","last_reported":1731845756,"current_range_meters":16000,"station_id":"ce4bhk92rcd13ifvqgb0","pricing_plan_id":"cebpf4jnsgd1na2vs0mg"},{"bike_id":"022f478e-da93-4eda-9d1b-2d0e36905c07","system_id":"levelo_inurba_marseille","lat":43.33745,"lon":5.37426,"is_reserved":false,"is_disabled":false,"rental_uris":{"android":"levelo://app?vid=022f478e-da93-4eda-9d1b-2d0e36905c07","ios":"levelo://app?vid=022f478e-da93-4eda-9d1b-2d0e36905c07"},"vehicle_type_id":"4","last_reported":1731845756,"current_range_meters":10800,"station_id":"","pricing_plan_id":"cebpf4jnsgd1na2vs0mg"},{"bike_id":"3c7108fb-85fe-43b6-95ce-e6a5e6d34b1a","system_id":"levelo_inurba_marseille","lat":43.3372,"lon":5.39182,"is_reserved":false,"is_disabled":false,"rental_uris":{"android":"levelo://app?vid=3c7108fb-85fe-43b6-95ce-e6a5e6d34b1a","ios":"levelo://app?vid=3c7108fb-85fe-43b6-95ce-e6a5e6d34b1a"},"vehicle_type_id":"4","last_reported":1731845756,"current_range_meters":28000,"station_id":"ce4bhr92rcd13ifvqhsg","pricing_plan_id":"cebpf4jnsgd1na2vs0mg"},{"bike_id":"b8045429-8045-4f41-9417-0ac86ebeba95","system_id":"levelo_inurba_marseille","lat":43.28261,"lon":5.35059,"is_reserved":false,"is_disabled":false,"rental_uris":{"android":"levelo://app?vid=b8045429-8045-4f41-9417-0ac86ebeba95","ios":"levelo://app?vid=b8045429-8045-4f41-9417-0ac86ebeba95"},"vehicle_type_id":"4","last_reported":1731845756,"current_range_meters":20800,"station_id":"ce4bhbp2rcd13ifvqerg","pricing_plan_id":"cebpf4jnsgd1na2vs0mg"},{"bike_id":"6517221b-e690-42de-bb35-d122359ace79","system_id":"levelo_inurba_marseille","lat":43.24654,"lon":5.38894,"is_reserved":false,"is_disabled":false,"rental_uris":{"android":"levelo://app?vid=6517221b-e690-42de-bb35-d122359ace79","ios":"levelo://app?vid=6517221b-e690-42de-bb35-d122359ace79"},"vehicle_type_id":"4","last_reported":1731845756,"current_range_meters":24400,"station_id":"ce4bhg12rcd13ifvqf60","pricing_plan_id":"cebpf4jnsgd1na2vs0mg"},{"bike_id":"251d8918-1250-4853-9293-89ee39d3be92","system_id":"levelo_inurba_marseille","lat":43.33021,"lon":5.39036,"is_reserved":false,"is_disabled":false,"rental_uris":{"android":"levelo://app?vid=251d8918-1250-4853-9293-89ee39d3be92","ios":"levelo://app?vid=251d8918-1250-4853-9293-89ee39d3be92"},"vehicle_type_id":"4","last_reported":1731845756,"current_range_meters":30800,"station_id":"ce4bhr92rcd13ifvqhrg","pricing_plan_id":"cebpf4jnsgd1na2vs0mg"},{"bike_id":"809471e3-ec39-4f2b-b271-49c8263623d6","system_id":"levelo_inurba_marseille","lat":43.25013,"lon":5.38923,"is_reserved":false,"is_disabled":false,"rental_uris":{"android":"levelo://app?vid=809471e3-ec39-4f2b-b271-49c8263623d6","ios":"levelo://app?vid=809471e3-ec39-4f2b-b271-49c8263623d6"},"vehicle_type_id":"4","last_reported":1731845756,"current_range_meters":38800,"station_id":"ce4bhgp2rcd13ifvqfd0","pricing_plan_id":"cebpf4jnsgd1na2vs0mg"},{"bike_id":"0e586110-7274-4bcd-9754-b59c8d331cb2","system_id":"levelo_inurba_marseille","lat":43.29005,"lon":5.35601,"is_reserved":false,"is_disabled":false,"rental_uris":{"android":"levelo://app?vid=0e586110-7274-4bcd-9754-b59c8d331cb2","ios":"levelo://app?vid=0e586110-7274-4bcd-9754-b59c8d331cb2"},"vehicle_type_id":"4","last_reported":1731845756,"current_range_meters":38800,"station_id":"ce4bhb92rcd13ifvqen0","pricing_plan_id":"cebpf4jnsgd1na2vs0mg"},{"bike_id":"bb83ca96-b8e6-4d38-8da0-61243a06413f","system_id":"levelo_inurba_marseille","lat":43.23196,"lon":5.35539,"is_reserved":false,"is_disabled":false,"rental_uris":{"android":"levelo://app?vid=bb83ca96-b8e6-4d38-8da0-61243a06413f","ios":"levelo://app?vid=bb83ca96-b8e6-4d38-8da0-61243a06413f"},"vehicle_type_id":"4","last_reported":1731845756,"current_range_meters":30000,"station_id":"ce4bhu92rcd13ifvqi70","pricing_plan_id":"cebpf4jnsgd1na2vs0mg"},{"bike_id":"47da7cbd-921e-4b28-81ff-bff159f06f3d","system_id":"levelo_inurba_marseille","lat":43.26065,"lon":5.39392,"is_reserved":false,"is_disabled":false,"rental_uris":{"android":"levelo://app?vid=47da7cbd-921e-4b28-81ff-bff159f06f3d","ios":"levelo://app?vid=47da7cbd-921e-4b28-81ff-bff159f06f3d"},"vehicle_type_id":"4","last_reported":1731845756,"current_range_meters":28000,"station_id":"ce4bhh92rcd13ifvqfj0","pricing_plan_id":"cebpf4jnsgd1na2vs0mg"},{"bike_id":"21e2fd91-3d80-45d4-ac73-31285a7d24ac","system_id":"levelo_inurba_marseille","lat":43.27377,"lon":5.36254,"is_reserved":false,"is_disabled":false,"rental_uris":{"android":"levelo://app?vid=21e2fd91-3d80-45d4-ac73-31285a7d24ac","ios":"levelo://app?vid=21e2fd91-3d80-45d4-ac73-31285a7d24ac"},"vehicle_type_id":"4","last_reported":1731845756,"current_range_meters":18800,"station_id":"ce4bhbh2rcd13ifvqeo0","pricing_plan_id":"cebpf4jnsgd1na2vs0mg"},{"bike_id":"c094cbab-fa29-4df1-b5b6-77a86950c3e4","system_id":"levelo_inurba_marseille","lat":43.2843,"lon":5.34985,"is_reserved":false,"is_disabled":false,"rental_uris":{"android":"levelo://app?vid=c094cbab-fa29-4df1-b5b6-77a86950c3e4","ios":"levelo://app?vid=c094cbab-fa29-4df1-b5b6-77a86950c3e4"},"vehicle_type_id":"4","last_reported":1731845756,"current_range_meters":38800,"station_id":"ce4bhbh2rcd13ifvqepg","pricing_plan_id":"cebpf4jnsgd1na2vs0mg"},{"bike_id":"2acd141a-7460-4f22-95cb-e681abde3857","system_id":"levelo_inurba_marseille","lat":43.29005,"lon":5.35615,"is_reserved":false,"is_disabled":false,"rental_uris":{"android":"levelo://app?vid=2acd141a-7460-4f22-95cb-e681abde3857","ios":"levelo://app?vid=2acd141a-7460-4f22-95cb-e681abde3857"},"vehicle_type_id":"4","last_reported":1731845756,"current_range_meters":17600,"station_id":"ce4bhb92rcd13ifvqen0","pricing_plan_id":"cebpf4jnsgd1na2vs0mg"},{"bike_id":"8a748c3d-3434-4735-835a-42bc53777dc0","system_id":"levelo_inurba_marseille","lat":43.31722,"lon":5.42402,"is_reserved":false,"is_disabled":false,"rental_uris":{"android":"levelo://app?vid=8a748c3d-3434-4735-835a-42bc53777dc0","ios":"levelo://app?vid=8a748c3d-3434-4735-835a-42bc53777dc0"},"vehicle_type_id":"4","last_reported":1731845756,"current_range_meters":38000,"station_id":"ce4bhp92rcd13ifvqhbg","pricing_plan_id":"cebpf4jnsgd1na2vs0mg"},{"bike_id":"442c0903-f40e-4bdf-be0d-6587cc076f59","system_id":"levelo_inurba_marseille","lat":43.23191,"lon":5.3555,"is_reserved":false,"is_disabled":false,"rental_uris":{"android":"levelo://app?vid=442c0903-f40e-4bdf-be0d-6587cc076f59","ios":"levelo://app?vid=442c0903-f40e-4bdf-be0d-6587cc076f59"},"vehicle_type_id":"4","last_reported":1731845756,"current_range_meters":36000,"station_id":"ce4bhu92rcd13ifvqi70","pricing_plan_id":"cebpf4jnsgd1na2vs0mg"},{"bike_id":"2c80e31d-2bb8-41ae-ba44-3e7368b895f5","system_id":"levelo_inurba_marseille","lat":43.28426,"lon":5.34991,"is_reserved":false,"is_disabled":false,"rental_uris":{"android":"levelo://app?vid=2c80e31d-2bb8-41ae-ba44-3e7368b895f5","ios":"levelo://app?vid=2c80e31d-2bb8-41ae-ba44-3e7368b895f5"},"vehicle_type_id":"4","last_reported":1731845756,"current_range_meters":28400,"station_id":"ce4bhbh2rcd13ifvqepg","pricing_plan_id":"cebpf4jnsgd1na2vs0mg"},{"bike_id":"1c4774a7-a2d4-4020-9a1a-c36e307e75d8","system_id":"levelo_inurba_marseille","lat":43.32366,"lon":5.38881,"is_reserved":false,"is_disabled":false,"rental_uris":{"android":"levelo://app?vid=1c4774a7-a2d4-4020-9a1a-c36e307e75d8","ios":"levelo://app?vid=1c4774a7-a2d4-4020-9a1a-c36e307e75d8"},"vehicle_type_id":"4","last_reported":1731845756,"current_range_meters":22800,"station_id":"ce4bhqp2rcd13ifvqhog","pricing_plan_id":"cebpf4jnsgd1na2vs0mg"},{"bike_id":"24972e1d-5f67-41ae-af8c-16425a8849bc","system_id":"levelo_inurba_marseille","lat":43.31358,"lon":5.36712,"is_reserved":false,"is_disabled":false,"rental_uris":{"android":"levelo://app?vid=24972e1d-5f67-41ae-af8c-16425a8849bc","ios":"levelo://app?vid=24972e1d-5f67-41ae-af8c-16425a8849bc"},"vehicle_type_id":"4","last_reported":1731845756,"current_range_meters":28800,"station_id":"ce4bgr92rcd13ifvqc6g","pricing_plan_id":"cebpf4jnsgd1na2vs0mg"},{"bike_id":"09f437b1-93f6-44ee-a17d-bac073b5aa1a","system_id":"levelo_inurba_marseille","lat":43.23963,"lon":5.36633,"is_reserved":false,"is_disabled":false,"rental_uris":{"android":"levelo://app?vid=09f437b1-93f6-44ee-a17d-bac073b5aa1a","ios":"levelo://app?vid=09f437b1-93f6-44ee-a17d-bac073b5aa1a"},"vehicle_type_id":"4","last_reported":1731845756,"current_range_meters":16000,"station_id":"ce4bhi12rcd13ifvqfp0","pricing_plan_id":"cebpf4jnsgd1na2vs0mg"},{"bike_id":"90bb2cae-4339-46de-973d-1d239b082c40","system_id":"levelo_inurba_marseille","lat":43.23185,"lon":5.39997,"is_reserved":false,"is_disabled":false,"rental_uris":{"android":"levelo://app?vid=90bb2cae-4339-46de-973d-1d239b082c40","ios":"levelo://app?vid=90bb2cae-4339-46de-973d-1d239b082c40"},"vehicle_type_id":"4","last_reported":1731845756,"current_range_meters":19200,"station_id":"ce4bhn12rcd13ifvqgqg","pricing_plan_id":"cebpf4jnsgd1na2vs0mg"},{"bike_id":"de0abab2-f77e-4b2d-b3ac-0bfbd0bcc18e","system_id":"levelo_inurba_marseille","lat":43.26069,"lon":5.39393,"is_reserved":false,"is_disabled":false,"rental_uris":{"android":"levelo://app?vid=de0abab2-f77e-4b2d-b3ac-0bfbd0bcc18e","ios":"levelo://app?vid=de0abab2-f77e-4b2d-b3ac-0bfbd0bcc18e"},"vehicle_type_id":"4","last_reported":1731845756,"current_range_meters":33200,"station_id":"ce4bhh92rcd13ifvqfj0","pricing_plan_id":"cebpf4jnsgd1na2vs0mg"},{"bike_id":"d37453dc-579c-4f2c-8202-d745f1e705a8","system_id":"levelo_inurba_marseille","lat":43.25937,"lon":5.40907,"is_reserved":false,"is_disabled":false,"rental_uris":{"android":"levelo://app?vid=d37453dc-579c-4f2c-8202-d745f1e705a8","ios":"levelo://app?vid=d37453dc-579c-4f2c-8202-d745f1e705a8"},"vehicle_type_id":"4","last_reported":1731845756,"current_range_meters":8800,"station_id":"ce4bhm92rcd13ifvqglg","pricing_plan_id":"cebpf4jnsgd1na2vs0mg"},{"bike_id":"f99b8f87-b1c6-4ef1-828d-d82783f73fde","system_id":"levelo_inurba_marseille","lat":43.27495,"lon":5.42453,"is_reserved":false,"is_disabled":false,"rental_uris":{"android":"levelo://app?vid=f99b8f87-b1c6-4ef1-828d-d82783f73fde","ios":"levelo://app?vid=f99b8f87-b1c6-4ef1-828d-d82783f73fde"},"vehicle_type_id":"4","last_reported":1731845756,"current_range_meters":32800,"station_id":"ce4bhn92rcd13ifvqgrg","pricing_plan_id":"cebpf4jnsgd1na2vs0mg"},{"bike_id":"2fc8f02c-e5f3-4e56-9038-45f0a5217743","system_id":"levelo_inurba_marseille","lat":43.27075,"lon":5.42273,"is_reserved":false,"is_disabled":false,"rental_uris":{"android":"levelo://app?vid=2fc8f02c-e5f3-4e56-9038-45f0a5217743","ios":"levelo://app?vid=2fc8f02c-e5f3-4e56-9038-45f0a5217743"},"vehicle_type_id":"4","last_reported":1731845756,"current_range_meters":8400,"station_id":"ce4bhk92rcd13ifvqgb0","pricing_plan_id":"cebpf4jnsgd1na2vs0mg"},{"bike_id":"4c4a13a7-cd09-400c-9dd6-9bcb25be4ec9","system_id":"levelo_inurba_marseille","lat":43.24809,"lon":5.37456,"is_reserved":false,"is_disabled":false,"rental_uris":{"android":"levelo://app?vid=4c4a13a7-cd09-400c-9dd6-9bcb25be4ec9","ios":"levelo://app?vid=4c4a13a7-cd09-400c-9dd6-9bcb25be4ec9"},"vehicle_type_id":"4","last_reported":1731845756,"current_range_meters":3600,"station_id":"ce4bhgh2rcd13ifvqfb0","pricing_plan_id":"cebpf4jnsgd1na2vs0mg"},{"bike_id":"777648c3-1b2d-44c7-bcb4-db60230c797f","system_id":"levelo_inurba_marseille","lat":43.28261,"lon":5.3506,"is_reserved":false,"is_disabled":false,"rental_uris":{"android":"levelo://app?vid=777648c3-1b2d-44c7-bcb4-db60230c797f","ios":"levelo://app?vid=777648c3-1b2d-44c7-bcb4-db60230c797f"},"vehicle_type_id":"4","last_reported":1731845756,"current_range_meters":13600,"station_id":"ce4bhbp2rcd13ifvqerg","pricing_plan_id":"cebpf4jnsgd1na2vs0mg"},{"bike_id":"88643d61-d7b7-4e13-b5c4-2b6d7fcffea7","system_id":"levelo_inurba_marseille","lat":43.31333,"lon":5.39697,"is_reserved":false,"is_disabled":false,"rental_uris":{"android":"levelo://app?vid=88643d61-d7b7-4e13-b5c4-2b6d7fcffea7","ios":"levelo://app?vid=88643d61-d7b7-4e13-b5c4-2b6d7fcffea7"},"vehicle_type_id":"4","last_reported":1731845756,"current_range_meters":8800,"station_id":"ce4bgvp2rcd13ifvqcu0","pricing_plan_id":"cebpf4jnsgd1na2vs0mg"},{"bike_id":"8ca14fad-3429-41cb-b5ce-543921a167af","system_id":"levelo_inurba_marseille","lat":43.23181,"lon":5.39952,"is_reserved":false,"is_disabled":false,"rental_uris":{"android":"levelo://app?vid=8ca14fad-3429-41cb-b5ce-543921a167af","ios":"levelo://app?vid=8ca14fad-3429-41cb-b5ce-543921a167af"},"vehicle_type_id":"4","last_reported":1731845756,"current_range_meters":16000,"station_id":"ce4bhn12rcd13ifvqgqg","pricing_plan_id":"cebpf4jnsgd1na2vs0mg"},{"bike_id":"968e4fd0-483a-48d3-8102-c167991502be","system_id":"levelo_inurba_marseille","lat":43.24995,"lon":5.38933,"is_reserved":false,"is_disabled":false,"rental_uris":{"android":"levelo://app?vid=968e4fd0-483a-48d3-8102-c167991502be","ios":"levelo://app?vid=968e4fd0-483a-48d3-8102-c167991502be"},"vehicle_type_id":"4","last_reported":1731845756,"current_range_meters":22000,"station_id":"ce4bhgp2rcd13ifvqfd0","pricing_plan_id":"cebpf4jnsgd1na2vs0mg"},{"bike_id":"62012020-0bdb-4e2e-9987-a6dd714f8796","system_id":"levelo_inurba_marseille","lat":43.22928,"lon":5.35373,"is_reserved":false,"is_disabled":false,"rental_uris":{"android":"levelo://app?vid=62012020-0bdb-4e2e-9987-a6dd714f8796","ios":"levelo://app?vid=62012020-0bdb-4e2e-9987-a6dd714f8796"},"vehicle_type_id":"4","last_reported":1731845756,"current_range_meters":24800,"station_id":"cpo3532slgdg3j2ikp40","pricing_plan_id":"cebpf4jnsgd1na2vs0mg"},{"bike_id":"cbd063e8-9d4f-409c-b0f5-a388846ed74a","system_id":"levelo_inurba_marseille","lat":43.24179,"lon":5.39724,"is_reserved":false,"is_disabled":false,"rental_uris":{"android":"levelo://app?vid=cbd063e8-9d4f-409c-b0f5-a388846ed74a","ios":"levelo://app?vid=cbd063e8-9d4f-409c-b0f5-a388846ed74a"},"vehicle_type_id":"4","last_reported":1731845756,"current_range_meters":6000,"station_id":"ce4bhn12rcd13ifvqgpg","pricing_plan_id":"cebpf4jnsgd1na2vs0mg"},{"bike_id":"7e019ba9-7766-4341-a662-8c5e5c665c28","system_id":"levelo_inurba_marseille","lat":43.27075,"lon":5.42277,"is_reserved":false,"is_disabled":false,"rental_uris":{"android":"levelo://app?vid=7e019ba9-7766-4341-a662-8c5e5c665c28","ios":"levelo://app?vid=7e019ba9-7766-4341-a662-8c5e5c665c28"},"vehicle_type_id":"4","last_reported":1731845756,"current_range_meters":32000,"station_id":"ce4bhk92rcd13ifvqgb0","pricing_plan_id":"cebpf4jnsgd1na2vs0mg"},{"bike_id":"7b76f7eb-5990-4745-bfda-68fbe5b47b7f","system_id":"levelo_inurba_marseille","lat":43.24175,"lon":5.3973,"is_reserved":false,"is_disabled":false,"rental_uris":{"android":"levelo://app?vid=7b76f7eb-5990-4745-bfda-68fbe5b47b7f","ios":"levelo://app?vid=7b76f7eb-5990-4745-bfda-68fbe5b47b7f"},"vehicle_type_id":"4","last_reported":1731845756,"current_range_meters":12400,"station_id":"ce4bhn12rcd13ifvqgpg","pricing_plan_id":"cebpf4jnsgd1na2vs0mg"},{"bike_id":"63cfe210-b1b7-4369-81a4-d305c4e3ae51","system_id":"levelo_inurba_marseille","lat":43.23187,"lon":5.39979,"is_reserved":false,"is_disabled":false,"rental_uris":{"android":"levelo://app?vid=63cfe210-b1b7-4369-81a4-d305c4e3ae51","ios":"levelo://app?vid=63cfe210-b1b7-4369-81a4-d305c4e3ae51"},"vehicle_type_id":"4","last_reported":1731845756,"current_range_meters":33600,"station_id":"ce4bhn12rcd13ifvqgqg","pricing_plan_id":"cebpf4jnsgd1na2vs0mg"},{"bike_id":"a91f23f7-f251-46d3-97a2-effb836fb255","system_id":"levelo_inurba_marseille","lat":43.24165,"lon":5.36395,"is_reserved":false,"is_disabled":false,"rental_uris":{"android":"levelo://app?vid=a91f23f7-f251-46d3-97a2-effb836fb255","ios":"levelo://app?vid=a91f23f7-f251-46d3-97a2-effb836fb255"},"vehicle_type_id":"4","last_reported":1731845756,"current_range_meters":16000,"station_id":"cpo36qri1sfpv3e86is0","pricing_plan_id":"cebpf4jnsgd1na2vs0mg"},{"bike_id":"13dbb6ea-23a9-4308-b5c7-3b8a29c67d38","system_id":"levelo_inurba_marseille","lat":43.32637,"lon":5.41011,"is_reserved":false,"is_disabled":false,"rental_uris":{"android":"levelo://app?vid=13dbb6ea-23a9-4308-b5c7-3b8a29c67d38","ios":"levelo://app?vid=13dbb6ea-23a9-4308-b5c7-3b8a29c67d38"},"vehicle_type_id":"4","last_reported":1731845756,"current_range_meters":22400,"station_id":"ce4bhpp2rcd13ifvqhgg","pricing_plan_id":"cebpf4jnsgd1na2vs0mg"},{"bike_id":"a9b024ea-19cd-4c75-80ad-29a80616d84d","system_id":"levelo_inurba_marseille","lat":43.27379,"lon":5.3626,"is_reserved":false,"is_disabled":false,"rental_uris":{"android":"levelo://app?vid=a9b024ea-19cd-4c75-80ad-29a80616d84d","ios":"levelo://app?vid=a9b024ea-19cd-4c75-80ad-29a80616d84d"},"vehicle_type_id":"4","last_reported":1731845756,"current_range_meters":16000,"station_id":"ce4bhbh2rcd13ifvqeo0","pricing_plan_id":"cebpf4jnsgd1na2vs0mg"},{"bike_id":"9ff2ac33-0fc6-4db8-b7fe-0ed5c30694da","system_id":"levelo_inurba_marseille","lat":43.25084,"lon":5.39522,"is_reserved":false,"is_disabled":false,"rental_uris":{"android":"levelo://app?vid=9ff2ac33-0fc6-4db8-b7fe-0ed5c30694da","ios":"levelo://app?vid=9ff2ac33-0fc6-4db8-b7fe-0ed5c30694da"},"vehicle_type_id":"4","last_reported":1731845756,"current_range_meters":32800,"station_id":"ce4bhm12rcd13ifvqgkg","pricing_plan_id":"cebpf4jnsgd1na2vs0mg"},{"bike_id":"00eaae91-4de2-4404-ba1d-34b7f5272f26","system_id":"levelo_inurba_marseille","lat":43.29783,"lon":5.39339,"is_reserved":false,"is_disabled":false,"rental_uris":{"android":"levelo://app?vid=00eaae91-4de2-4404-ba1d-34b7f5272f26","ios":"levelo://app?vid=00eaae91-4de2-4404-ba1d-34b7f5272f26"},"vehicle_type_id":"4","last_reported":1731845756,"current_range_meters":3600,"station_id":"chh1huq6cuj3fo74tm60","pricing_plan_id":"cebpf4jnsgd1na2vs0mg"},{"bike_id":"3e0559a2-ab28-4130-8c3b-ed8e9d0ac1df","system_id":"levelo_inurba_marseille","lat":43.23151,"lon":5.43717,"is_reserved":false,"is_disabled":false,"rental_uris":{"android":"levelo://app?vid=3e0559a2-ab28-4130-8c3b-ed8e9d0ac1df","ios":"levelo://app?vid=3e0559a2-ab28-4130-8c3b-ed8e9d0ac1df"},"vehicle_type_id":"4","last_reported":1731845756,"current_range_meters":19600,"station_id":"ce4bhmp2rcd13ifvqgog","pricing_plan_id":"cebpf4jnsgd1na2vs0mg"},{"bike_id":"25a2dc1e-2186-40e2-a7aa-c8fc57eb61da","system_id":"levelo_inurba_marseille","lat":43.23055,"lon":5.35488,"is_reserved":false,"is_disabled":false,"rental_uris":{"android":"levelo://app?vid=25a2dc1e-2186-40e2-a7aa-c8fc57eb61da","ios":"levelo://app?vid=25a2dc1e-2186-40e2-a7aa-c8fc57eb61da"},"vehicle_type_id":"4","last_reported":1731845756,"current_range_meters":24000,"station_id":"","pricing_plan_id":"cebpf4jnsgd1na2vs0mg"},{"bike_id":"fa4639a1-63b5-4626-a5c2-1622b8abab6b","system_id":"levelo_inurba_marseille","lat":43.23055,"lon":5.35494,"is_reserved":false,"is_disabled":false,"rental_uris":{"android":"levelo://app?vid=fa4639a1-63b5-4626-a5c2-1622b8abab6b","ios":"levelo://app?vid=fa4639a1-63b5-4626-a5c2-1622b8abab6b"},"vehicle_type_id":"4","last_reported":1731845756,"current_range_meters":17200,"station_id":"cpo3342slgdg3j2ifvpg","pricing_plan_id":"cebpf4jnsgd1na2vs0mg"},{"bike_id":"e0f97405-687a-47d5-9f85-0e2ea6fafff8","system_id":"levelo_inurba_marseille","lat":43.28426,"lon":5.34991,"is_reserved":false,"is_disabled":false,"rental_uris":{"android":"levelo://app?vid=e0f97405-687a-47d5-9f85-0e2ea6fafff8","ios":"levelo://app?vid=e0f97405-687a-47d5-9f85-0e2ea6fafff8"},"vehicle_type_id":"4","last_reported":1731845756,"current_range_meters":26800,"station_id":"ce4bhbh2rcd13ifvqepg","pricing_plan_id":"cebpf4jnsgd1na2vs0mg"},{"bike_id":"48a5b796-299b-484c-993c-bfdf550001fa","system_id":"levelo_inurba_marseille","lat":43.28613,"lon":5.351,"is_reserved":false,"is_disabled":false,"rental_uris":{"android":"levelo://app?vid=48a5b796-299b-484c-993c-bfdf550001fa","ios":"levelo://app?vid=48a5b796-299b-484c-993c-bfdf550001fa"},"vehicle_type_id":"4","last_reported":1731845756,"current_range_meters":32000,"station_id":"ce4bhch2rcd13ifvqeug","pricing_plan_id":"cebpf4jnsgd1na2vs0mg"},{"bike_id":"0d84feb5-1b95-49ab-bf91-c474041a34ca","system_id":"levelo_inurba_marseille","lat":43.33025,"lon":5.39034,"is_reserved":false,"is_disabled":false,"rental_uris":{"android":"levelo://app?vid=0d84feb5-1b95-49ab-bf91-c474041a34ca","ios":"levelo://app?vid=0d84feb5-1b95-49ab-bf91-c474041a34ca"},"vehicle_type_id":"4","last_reported":1731845756,"current_range_meters":24800,"station_id":"ce4bhr92rcd13ifvqhrg","pricing_plan_id":"cebpf4jnsgd1na2vs0mg"},{"bike_id":"1a078fe6-bbcd-434f-8ae7-d2181bac8801","system_id":"levelo_inurba_marseille","lat":43.28611,"lon":5.35107,"is_reserved":false,"is_disabled":false,"rental_uris":{"android":"levelo://app?vid=1a078fe6-bbcd-434f-8ae7-d2181bac8801","ios":"levelo://app?vid=1a078fe6-bbcd-434f-8ae7-d2181bac8801"},"vehicle_type_id":"4","last_reported":1731845756,"current_range_meters":36800,"station_id":"ce4bhch2rcd13ifvqeug","pricing_plan_id":"cebpf4jnsgd1na2vs0mg"},{"bike_id":"3463e504-7a7c-4e0c-9c9f-278ebebb8c52","system_id":"levelo_inurba_marseille","lat":43.22932,"lon":5.35378,"is_reserved":false,"is_disabled":false,"rental_uris":{"android":"levelo://app?vid=3463e504-7a7c-4e0c-9c9f-278ebebb8c52","ios":"levelo://app?vid=3463e504-7a7c-4e0c-9c9f-278ebebb8c52"},"vehicle_type_id":"4","last_reported":1731845756,"current_range_meters":33600,"station_id":"cpo3532slgdg3j2ikp40","pricing_plan_id":"cebpf4jnsgd1na2vs0mg"},{"bike_id":"211e51e8-dbf7-4d22-b6f1-8020f0c8fa6e","system_id":"levelo_inurba_marseille","lat":43.24174,"lon":5.36403,"is_reserved":false,"is_disabled":false,"rental_uris":{"android":"levelo://app?vid=211e51e8-dbf7-4d22-b6f1-8020f0c8fa6e","ios":"levelo://app?vid=211e51e8-dbf7-4d22-b6f1-8020f0c8fa6e"},"vehicle_type_id":"4","last_reported":1731845756,"current_range_meters":20400,"station_id":"cpo36qri1sfpv3e86is0","pricing_plan_id":"cebpf4jnsgd1na2vs0mg"},{"bike_id":"cfad4742-00c4-4138-8194-06d53912534b","system_id":"levelo_inurba_marseille","lat":43.292692,"lon":5.367889,"is_reserved":false,"is_disabled":false,"rental_uris":{"android":"levelo://app?vid=cfad4742-00c4-4138-8194-06d53912534b","ios":"levelo://app?vid=cfad4742-00c4-4138-8194-06d53912534b"},"vehicle_type_id":"4","last_reported":1731845756,"current_range_meters":10800,"station_id":"ce4bhbp2rcd13ifvqesg","pricing_plan_id":"cebpf4jnsgd1na2vs0mg"},{"bike_id":"14b0dd5d-fb7f-4337-812d-2efd5b171e81","system_id":"levelo_inurba_marseille","lat":43.230563,"lon":5.354881,"is_reserved":false,"is_disabled":false,"rental_uris":{"android":"levelo://app?vid=14b0dd5d-fb7f-4337-812d-2efd5b171e81","ios":"levelo://app?vid=14b0dd5d-fb7f-4337-812d-2efd5b171e81"},"vehicle_type_id":"4","last_reported":1731845756,"current_range_meters":37600,"station_id":"cpo3342slgdg3j2ifvpg","pricing_plan_id":"cebpf4jnsgd1na2vs0mg"},{"bike_id":"cc627df2-995e-4b02-a84a-3151c9b9c4a7","system_id":"levelo_inurba_marseille","lat":43.29578,"lon":5.36739,"is_reserved":false,"is_disabled":false,"rental_uris":{"android":"levelo://app?vid=cc627df2-995e-4b02-a84a-3151c9b9c4a7","ios":"levelo://app?vid=cc627df2-995e-4b02-a84a-3151c9b9c4a7"},"vehicle_type_id":"4","last_reported":1731845756,"current_range_meters":32400,"station_id":"ce4bgph2rcd13ifvqc2g","pricing_plan_id":"cebpf4jnsgd1na2vs0mg"},{"bike_id":"8480c881-29f6-4c41-a071-042f78980519","system_id":"levelo_inurba_marseille","lat":43.2862,"lon":5.35104,"is_reserved":false,"is_disabled":false,"rental_uris":{"android":"levelo://app?vid=8480c881-29f6-4c41-a071-042f78980519","ios":"levelo://app?vid=8480c881-29f6-4c41-a071-042f78980519"},"vehicle_type_id":"4","last_reported":1731845756,"current_range_meters":0,"station_id":"ce4bhch2rcd13ifvqeug","pricing_plan_id":"cebpf4jnsgd1na2vs0mg"},{"bike_id":"9aad864c-4d14-4cec-88ea-0a75419699e9","system_id":"levelo_inurba_marseille","lat":43.28613,"lon":5.35098,"is_reserved":false,"is_disabled":false,"rental_uris":{"android":"levelo://app?vid=9aad864c-4d14-4cec-88ea-0a75419699e9","ios":"levelo://app?vid=9aad864c-4d14-4cec-88ea-0a75419699e9"},"vehicle_type_id":"4","last_reported":1731845756,"current_range_meters":12800,"station_id":"ce4bhch2rcd13ifvqeug","pricing_plan_id":"cebpf4jnsgd1na2vs0mg"},{"bike_id":"01278896-bcc3-4115-9488-dd4acb3e5847","system_id":"levelo_inurba_marseille","lat":43.23196,"lon":5.35549,"is_reserved":false,"is_disabled":false,"rental_uris":{"android":"levelo://app?vid=01278896-bcc3-4115-9488-dd4acb3e5847","ios":"levelo://app?vid=01278896-bcc3-4115-9488-dd4acb3e5847"},"vehicle_type_id":"4","last_reported":1731845756,"current_range_meters":38800,"station_id":"ce4bhu92rcd13ifvqi70","pricing_plan_id":"cebpf4jnsgd1na2vs0mg"},{"bike_id":"41975fed-4f1c-44bf-9a3c-4e2efb2e8769","system_id":"levelo_inurba_marseille","lat":43.25564,"lon":5.38244,"is_reserved":false,"is_disabled":false,"rental_uris":{"android":"levelo://app?vid=41975fed-4f1c-44bf-9a3c-4e2efb2e8769","ios":"levelo://app?vid=41975fed-4f1c-44bf-9a3c-4e2efb2e8769"},"vehicle_type_id":"4","last_reported":1731845756,"current_range_meters":23200,"station_id":"ce4bhih2rcd13ifvqfs0","pricing_plan_id":"cebpf4jnsgd1na2vs0mg"},{"bike_id":"2df1fc99-67d3-4962-a043-2d989720685b","system_id":"levelo_inurba_marseille","lat":43.24542,"lon":5.39524,"is_reserved":false,"is_disabled":false,"rental_uris":{"android":"levelo://app?vid=2df1fc99-67d3-4962-a043-2d989720685b","ios":"levelo://app?vid=2df1fc99-67d3-4962-a043-2d989720685b"},"vehicle_type_id":"4","last_reported":1731845756,"current_range_meters":13600,"station_id":"ce4bhlp2rcd13ifvqgjg","pricing_plan_id":"cebpf4jnsgd1na2vs0mg"},{"bike_id":"5bbb81c5-6b74-41e3-bf2a-091bbcb4cd5f","system_id":"levelo_inurba_marseille","lat":43.23195,"lon":5.35547,"is_reserved":false,"is_disabled":false,"rental_uris":{"android":"levelo://app?vid=5bbb81c5-6b74-41e3-bf2a-091bbcb4cd5f","ios":"levelo://app?vid=5bbb81c5-6b74-41e3-bf2a-091bbcb4cd5f"},"vehicle_type_id":"4","last_reported":1731845756,"current_range_meters":2000,"station_id":"ce4bhu92rcd13ifvqi70","pricing_plan_id":"cebpf4jnsgd1na2vs0mg"},{"bike_id":"a3229b15-6f18-4060-a91e-8aef8d22b3fa","system_id":"levelo_inurba_marseille","lat":43.22927,"lon":5.35373,"is_reserved":false,"is_disabled":false,"rental_uris":{"android":"levelo://app?vid=a3229b15-6f18-4060-a91e-8aef8d22b3fa","ios":"levelo://app?vid=a3229b15-6f18-4060-a91e-8aef8d22b3fa"},