{"last_updated":1716826130,"ttl":30,"version":"2.2","data":{"bikes":[{"bike_id":"629e68a2-e629-4684-9535-e14000eb9900","system_id":"levelo_inurba_marseille","lat":43.31223,"lon":5.36819,"is_reserved":false,"is_disabled":false,"rental_uris":{"android":"levelo://app?vid=629e68a2-e629-4684-9535-e14000eb9900","ios":"levelo://app?vid=629e68a2-e629-4684-9535-e14000eb9900"},"vehicle_type_id":"4","last_reported":1716826131,"current_range_meters":22800,"station_id":"ce4bgl92rcd13ifvqbq0","pricing_plan_id":"cebpf4jnsgd1na2vs0mg"},{"bike_id":"fbb99441-b954-43e5-bf81-eb5ea6d95189","system_id":"levelo_inurba_marseille","lat":43.309076,"lon":5.368465,"is_reserved":false,"is_disabled":false,"rental_uris":{"android":"levelo://app?vid=fbb99441-b954-43e5-bf81-eb5ea6d95189","ios":"levelo://app?vid=fbb99441-b954-43e5-bf81-eb5ea6d95189"},"vehicle_type_id":"4","last_reported":1716826131,"current_range_meters":0,"station_id":"ce4bgn92rcd13ifvqbvg","pricing_plan_id":"cebpf4jnsgd1na2vs0mg"},{"bike_id":"801237c7-061c-4277-811b-f5f9eb361437","system_id":"levelo_inurba_marseille","lat":43.30861,"lon":5.3669,"is_reserved":false,"is_disabled":false,"rental_uris":{"android":"levelo://app?vid=801237c7-061c-4277-811b-f5f9eb361437","ios":"levelo://app?vid=801237c7-061c-4277-811b-f5f9eb361437"},"vehicle_type_id":"4","last_reported":1716826131,"current_range_meters":8400,"station_id":"","pricing_plan_id":"cebpf4jnsgd1na2vs0mg"},{"bike_id":"fbf7fbd5-2fa0-4635-b2ce-05a71c64b711","system_id":"levelo_inurba_marseille","lat":43.314811,"lon":5.373103,"is_reserved":false,"is_disabled":false,"rental_uris":{"android":"levelo://app?vid=fbf7fbd5-2fa0-4635-b2ce-05a71c64b711","ios":"levelo://app?vid=fbf7fbd5-2fa0-4635-b2ce-05a71c64b711"},"vehicle_type_id":"4","last_reported":1716826131,"current_range_meters":29200,"station_id":"ce4bgt12rcd13ifvqcd0","pricing_plan_id":"cebpf4jnsgd1na2vs0mg"},{"bike_id":"eb4b7852-5315-42c5-9968-36372cbccfeb","system_id":"levelo_inurba_marseille","lat":43.314811,"lon":5.373103,"is_reserved":false,"is_disabled":false,"rental_uris":{"android":"levelo://app?vid=eb4b7852-5315-42c5-9968-36372cbccfeb","ios":"levelo://app?vid=eb4b7852-5315-42c5-9968-36372cbccfeb"},"vehicle_type_id":"4","last_reported":1716826131,"current_range_meters":3200,"station_id":"ce4bgt12rcd13ifvqcd0","pricing_plan_id":"cebpf4jnsgd1na2vs0mg"},{"bike_id":"31f8c2c7-9541-45fe-bcf7-5ca345ff5a4e","system_id":"levelo_inurba_marseille","lat":43.314811,"lon":5.373104,"is_reserved":false,"is_disabled":false,"rental_uris":{"android":"levelo://app?vid=31f8c2c7-9541-45fe-bcf7-5ca345ff5a4e","ios":"levelo://app?vid=31f8c2c7-9541-45fe-bcf7-5ca345ff5a4e"},"vehicle_type_id":"4","last_reported":1716826131,"current_range_meters":2800,"station_id":"ce4bgt12rcd13ifvqcd0","pricing_plan_id":"cebpf4jnsgd1na2vs0mg"},{"bike_id":"3cd302e8-fd02-4deb-ace6-cff41f947cfd","system_id":"levelo_inurba_marseille","lat":43.31505,"lon":5.37301,"is_reserved":false,"is_disabled":false,"rental_uris":{"android":"levelo://app?vid=3cd302e8-fd02-4deb-ace6-cff41f947cfd","ios":"levelo://app?vid=3cd302e8-fd02-4deb-ace6-cff41f947cfd"},"vehicle_type_id":"4","last_reported":1716826131,"current_range_meters":26000,"station_id":"ce4bgt12rcd13ifvqcd0","pricing_plan_id":"cebpf4jnsgd1na2vs0mg"},{"bike_id":"b3e25ce3-4097-4165-a6c5-54fe21e26897","system_id":"levelo_inurba_marseille","lat":43.3151,"lon":5.373,"is_reserved":false,"is_disabled":false,"rental_uris":{"android":"levelo://app?vid=b3e25ce3-4097-4165-a6c5-54fe21e26897","ios":"levelo://app?vid=b3e25ce3-4097-4165-a6c5-54fe21e26897"},"vehicle_type_id":"4","last_reported":1716826131,"current_range_meters":21600,"station_id":"ce4bgt12rcd13ifvqcd0","pricing_plan_id":"cebpf4jnsgd1na2vs0mg"},{"bike_id":"55e3ef52-961a-495b-b6e7-1f68674dfbc9","system_id":"levelo_inurba_marseille","lat":43.31501,"lon":5.3731,"is_reserved":false,"is_disabled":false,"rental_uris":{"android":"levelo://app?vid=55e3ef52-961a-495b-b6e7-1f68674dfbc9","ios":"levelo://app?vid=55e3ef52-961a-495b-b6e7-1f68674dfbc9"},"vehicle_type_id":"4","last_reported":1716826131,"current_range_meters":31200,"station_id":"ce4bgt12rcd13ifvqcd0","pricing_plan_id":"cebpf4jnsgd1na2vs0mg"},{"bike_id":"3dc94fd6-d94a-4261-84f3-32ca7fb5522c","system_id":"levelo_inurba_marseille","lat":43.31432,"lon":5.373686,"is_reserved":false,"is_disabled":false,"rental_uris":{"android":"levelo://app?vid=3dc94fd6-d94a-4261-84f3-32ca7fb5522c","ios":"levelo://app?vid=3dc94fd6-d94a-4261-84f3-32ca7fb5522c"},"vehicle_type_id":"4","last_reported":1716826131,"current_range_meters":18400,"station_id":"ce4bgt12rcd13ifvqcd0","pricing_plan_id":"cebpf4jnsgd1na2vs0mg"},{"bike_id":"f668aee6-3f35-4b79-84d9-fae9ee74d6f0","system_id":"levelo_inurba_marseille","lat":43.30537,"lon":5.367345,"is_reserved":false,"is_disabled":false,"rental_uris":{"android":"levelo://app?vid=f668aee6-3f35-4b79-84d9-fae9ee74d6f0","ios":"levelo://app?vid=f668aee6-3f35-4b79-84d9-fae9ee74d6f0"},"vehicle_type_id":"4","last_reported":1716826131,"current_range_meters":16800,"station_id":"ce4bgrp2rcd13ifvqc9g","pricing_plan_id":"cebpf4jnsgd1na2vs0mg"},{"bike_id":"c53524c6-b4f0-465d-aba1-6d0c05f0fefb","system_id":"levelo_inurba_marseille","lat":43.305706,"lon":5.365654,"is_reserved":false,"is_disabled":false,"rental_uris":{"android":"levelo://app?vid=c53524c6-b4f0-465d-aba1-6d0c05f0fefb","ios":"levelo://app?vid=c53524c6-b4f0-465d-aba1-6d0c05f0fefb"},"vehicle_type_id":"4","last_reported":1716826131,"current_range_meters":8800,"station_id":"ce4bgs12rcd13ifvqcag","pricing_plan_id":"cebpf4jnsgd1na2vs0mg"},{"bike_id":"0f821fe0-685a-4403-80c8-1e3be7b0f67a","system_id":"levelo_inurba_marseille","lat":43.305989,"lon":5.37225,"is_reserved":false,"is_disabled":false,"rental_uris":{"android":"levelo://app?vid=0f821fe0-685a-4403-80c8-1e3be7b0f67a","ios":"levelo://app?vid=0f821fe0-685a-4403-80c8-1e3be7b0f67a"},"vehicle_type_id":"4","last_reported":1716826131,"current_range_meters":400,"station_id":"ce4bgqh2rcd13ifvqc4g","pricing_plan_id":"cebpf4jnsgd1na2vs0mg"},{"bike_id":"5df64e06-8600-44ce-bc77-1cbc2e8d07b2","system_id":"levelo_inurba_marseille","lat":43.305989,"lon":5.37225,"is_reserved":false,"is_disabled":false,"rental_uris":{"android":"levelo://app?vid=5df64e06-8600-44ce-bc77-1cbc2e8d07b2","ios":"levelo://app?vid=5df64e06-8600-44ce-bc77-1cbc2e8d07b2"},"vehicle_type_id":"4","last_reported":1716826131,"current_range_meters":18400,"station_id":"ce4bgqh2rcd13ifvqc4g","pricing_plan_id":"cebpf4jnsgd1na2vs0mg"},{"bike_id":"05587051-ff1a-4ce7-aeb8-18d6581c5bfe","system_id":"levelo_inurba_marseille","lat":43.30602,"lon":5.37232,"is_reserved":false,"is_disabled":false,"rental_uris":{"android":"levelo://app?vid=05587051-ff1a-4ce7-aeb8-18d6581c5bfe","ios":"levelo://app?vid=05587051-ff1a-4ce7-aeb8-18d6581c5bfe"},"vehicle_type_id":"4","last_reported":1716826131,"current_range_meters":15600,"station_id":"ce4bgqh2rcd13ifvqc4g","pricing_plan_id":"cebpf4jnsgd1na2vs0mg"},{"bike_id":"822d9ad1-9440-485c-97e8-5e2611f79f15","system_id":"levelo_inurba_marseille","lat":43.305989,"lon":5.37225,"is_reserved":false,"is_disabled":false,"rental_uris":{"android":"levelo://app?vid=822d9ad1-9440-485c-97e8-5e2611f79f15","ios":"levelo://app?vid=822d9ad1-9440-485c-97e8-5e2611f79f15"},"vehicle_type_id":"4","last_reported":1716826131,"current_range_meters":27200,"station_id":"ce4bgqh2rcd13ifvqc4g","pricing_plan_id":"cebpf4jnsgd1na2vs0mg"},{"bike_id":"bdc99289-c05c-4d21-a69e-5ed5302ac825","system_id":"levelo_inurba_marseille","lat":43.311243,"lon":5.377686,"is_reserved":false,"is_disabled":false,"rental_uris":{"android":"levelo://app?vid=bdc99289-c05c-4d21-a69e-5ed5302ac825","ios":"levelo://app?vid=bdc99289-c05c-4d21-a69e-5ed5302ac825"},"vehicle_type_id":"4","last_reported":1716826131,"current_range_meters":23200,"station_id":"ce4bgt92rcd13ifvqcg0","pricing_plan_id":"cebpf4jnsgd1na2vs0mg"},{"bike_id":"a51a8070-1136-457a-99a8-34af55a45ec8","system_id":"levelo_inurba_marseille","lat":43.317075,"lon":5.377367,"is_reserved":false,"is_disabled":false,"rental_uris":{"android":"levelo://app?vid=a51a8070-1136-457a-99a8-34af55a45ec8","ios":"levelo://app?vid=a51a8070-1136-457a-99a8-34af55a45ec8"},"vehicle_type_id":"4","last_reported":1716826131,"current_range_meters":400,"station_id":"ce4bgth2rcd13ifvqch0","pricing_plan_id":"cebpf4jnsgd1na2vs0mg"},{"bike_id":"a4f4e373-e84d-4b1d-816e-c38a70215d40","system_id":"levelo_inurba_marseille","lat":43.307945,"lon":5.376487,"is_reserved":false,"is_disabled":false,"rental_uris":{"android":"levelo://app?vid=a4f4e373-e84d-4b1d-816e-c38a70215d40","ios":"levelo://app?vid=a4f4e373-e84d-4b1d-816e-c38a70215d40"},"vehicle_type_id":"4","last_reported":1716826131,"current_range_meters":22800,"station_id":"ce4bgv92rcd13ifvqcq0","pricing_plan_id":"cebpf4jnsgd1na2vs0mg"},{"bike_id":"14cb0a9f-fe4a-4aef-b472-927906f20285","system_id":"levelo_inurba_marseille","lat":43.307945,"lon":5.376487,"is_reserved":false,"is_disabled":false,"rental_uris":{"android":"levelo://app?vid=14cb0a9f-fe4a-4aef-b472-927906f20285","ios":"levelo://app?vid=14cb0a9f-fe4a-4aef-b472-927906f20285"},"vehicle_type_id":"4","last_reported":1716826131,"current_range_meters":29600,"station_id":"ce4bgv92rcd13ifvqcq0","pricing_plan_id":"cebpf4jnsgd1na2vs0mg"},{"bike_id":"16a20054-a64c-4e47-a5f2-3791e0ea05f5","system_id":"levelo_inurba_marseille","lat":43.317075,"lon":5.377367,"is_reserved":false,"is_disabled":false,"rental_uris":{"android":"levelo://app?vid=16a20054-a64c-4e47-a5f2-3791e0ea05f5","ios":"levelo://app?vid=16a20054-a64c-4e47-a5f2-3791e0ea05f5"},"vehicle_type_id":"4","last_reported":1716826131,"current_range_meters":21200,"station_id":"ce4bgth2rcd13ifvqch0","pricing_plan_id":"cebpf4jnsgd1na2vs0mg"},{"bike_id":"fe166ecf-5594-4454-8448-96eb6a404c36","system_id":"levelo_inurba_marseille","lat":43.317075,"lon":5.377367,"is_reserved":false,"is_disabled":false,"rental_uris":{"android":"levelo://app?vid=fe166ecf-5594-4454-8448-96eb6a404c36","ios":"levelo://app?vid=fe166ecf-5594-4454-8448-96eb6a404c36"},"vehicle_type_id":"4","last_reported":1716826131,"current_range_meters":25600,"station_id":"ce4bgth2rcd13ifvqch0","pricing_plan_id":"cebpf4jnsgd1na2vs0mg"},{"bike_id":"7d6a4488-699e-4b35-abf9-ac85f4eafa0c","system_id":"levelo_inurba_marseille","lat":43.317075,"lon":5.377367,"is_reserved":false,"is_disabled":false,"rental_uris":{"android":"levelo://app?vid=7d6a4488-699e-4b35-abf9-ac85f4eafa0c","ios":"levelo://app?vid=7d6a4488-699e-4b35-abf9-ac85f4eafa0c"},"vehicle_type_id":"4","last_reported":1716826131,"current_range_meters":12400,"station_id":"ce4bgth2rcd13ifvqch0","pricing_plan_id":"cebpf4jnsgd1na2vs0mg"},{"bike_id":"5f6b848d-e45a-42f4-b8ef-077208617ce9","system_id":"levelo_inurba_marseille","lat":43.317075,"lon":5.377367,"is_reserved":false,"is_disabled":false,"rental_uris":{"android":"levelo://app?vid=5f6b848d-e45a-42f4-b8ef-077208617ce9","ios":"levelo://app?vid=5f6b848d-e45a-42f4-b8ef-077208617ce9"},"vehicle_type_id":"4","last_reported":1716826131,"current_range_meters":16800,"station_id":"ce4bgth2rcd13ifvqch0","pricing_plan_id":"cebpf4jnsgd1na2vs0mg"},{"bike_id":"a70c6ba4-dae6-4ec9-b593-488895f785d8","system_id":"levelo_inurba_marseille","lat":43.317075,"lon":5.377367,"is_reserved":false,"is_disabled":false,"rental_uris":{"android":"levelo://app?vid=a70c6ba4-dae6-4ec9-b593-488895f785d8","ios":"levelo://app?vid=a70c6ba4-dae6-4ec9-b593-488895f785d8"},"vehicle_type_id":"4","last_reported":1716826131,"current_range_meters":30000,"station_id":"ce4bgth2rcd13ifvqch0","pricing_plan_id":"cebpf4jnsgd1na2vs0mg"},{"bike_id":"f842178a-2a4f-4ab8-a3b3-9a7e70aa4555","system_id":"levelo_inurba_marseille","lat":43.3171,"lon":5.37762,"is_reserved":false,"is_disabled":false,"rental_uris":{"android":"levelo://app?vid=f842178a-2a4f-4ab8-a3b3-9a7e70aa4555","ios":"levelo://app?vid=f842178a-2a4f-4ab8-a3b3-9a7e70aa4555"},"vehicle_type_id":"4","last_reported":1716826131,"current_range_meters":10000,"station_id":"ce4bgth2rcd13ifvqch0","pricing_plan_id":"cebpf4jnsgd1na2vs0mg"},{"bike_id":"1e08f41b-4cce-4194-bded-e9cf700db0d5","system_id":"levelo_inurba_marseille","lat":43.317075,"lon":5.377367,"is_reserved":false,"is_disabled":false,"rental_uris":{"android":"levelo://app?vid=1e08f41b-4cce-4194-bded-e9cf700db0d5","ios":"levelo://app?vid=1e08f41b-4cce-4194-bded-e9cf700db0d5"},"vehicle_type_id":"4","last_reported":1716826131,"current_range_meters":4400,"station_id":"ce4bgth2rcd13ifvqch0","pricing_plan_id":"cebpf4jnsgd1na2vs0mg"},{"bike_id":"31e0da1e-4f62-4ce7-8fb9-2ba82abc53f5","system_id":"levelo_inurba_marseille","lat":43.303046,"lon":5.368981,"is_reserved":false,"is_disabled":false,"rental_uris":{"android":"levelo://app?vid=31e0da1e-4f62-4ce7-8fb9-2ba82abc53f5","ios":"levelo://app?vid=31e0da1e-4f62-4ce7-8fb9-2ba82abc53f5"},"vehicle_type_id":"4","last_reported":1716826131,"current_range_meters":8800,"station_id":"ce4bgqh2rcd13ifvqc5g","pricing_plan_id":"cebpf4jnsgd1na2vs0mg"},{"bike_id":"bcff10eb-d37c-4f9d-a870-72b72e4ec28f","system_id":"levelo_inurba_marseille","lat":43.303046,"lon":5.368981,"is_reserved":false,"is_disabled":false,"rental_uris":{"android":"levelo://app?vid=bcff10eb-d37c-4f9d-a870-72b72e4ec28f","ios":"levelo://app?vid=bcff10eb-d37c-4f9d-a870-72b72e4ec28f"},"vehicle_type_id":"4","last_reported":1716826131,"current_range_meters":28000,"station_id":"ce4bgqh2rcd13ifvqc5g","pricing_plan_id":"cebpf4jnsgd1na2vs0mg"},{"bike_id":"49c40076-32b1-4782-8bbe-db1f0f0a2d48","system_id":"levelo_inurba_marseille","lat":43.30304,"lon":5.368987,"is_reserved":false,"is_disabled":false,"rental_uris":{"android":"levelo://app?vid=49c40076-32b1-4782-8bbe-db1f0f0a2d48","ios":"levelo://app?vid=49c40076-32b1-4782-8bbe-db1f0f0a2d48"},"vehicle_type_id":"4","last_reported":1716826131,"current_range_meters":26800,"station_id":"ce4bgqh2rcd13ifvqc5g","pricing_plan_id":"cebpf4jnsgd1na2vs0mg"},{"bike_id":"cded3166-1bdd-4925-996d-e116302e1f4d","system_id":"levelo_inurba_marseille","lat":43.315289,"lon":5.380349,"is_reserved":false,"is_disabled":false,"rental_uris":{"android":"levelo://app?vid=cded3166-1bdd-4925-996d-e116302e1f4d","ios":"levelo://app?vid=cded3166-1bdd-4925-996d-e116302e1f4d"},"vehicle_type_id":"4","last_reported":1716826131,"current_range_meters":3200,"station_id":"ce4bhsp2rcd13ifvqi50","pricing_plan_id":"cebpf4jnsgd1na2vs0mg"},{"bike_id":"780c947b-be5f-411c-995d-265cab552e3f","system_id":"levelo_inurba_marseille","lat":43.315293,"lon":5.380349,"is_reserved":false,"is_disabled":false,"rental_uris":{"android":"levelo://app?vid=780c947b-be5f-411c-995d-265cab552e3f","ios":"levelo://app?vid=780c947b-be5f-411c-995d-265cab552e3f"},"vehicle_type_id":"4","last_reported":1716826131,"current_range_meters":3600,"station_id":"ce4bhsp2rcd13ifvqi50","pricing_plan_id":"cebpf4jnsgd1na2vs0mg"},{"bike_id":"5879532c-40b5-4b15-9cf5-c95a6953eaa7","system_id":"levelo_inurba_marseille","lat":43.315289,"lon":5.380349,"is_reserved":false,"is_disabled":false,"rental_uris":{"android":"levelo://app?vid=5879532c-40b5-4b15-9cf5-c95a6953eaa7","ios":"levelo://app?vid=5879532c-40b5-4b15-9cf5-c95a6953eaa7"},"vehicle_type_id":"4","last_reported":1716826131,"current_range_meters":10400,"station_id":"ce4bhsp2rcd13ifvqi50","pricing_plan_id":"cebpf4jnsgd1na2vs0mg"},{"bike_id":"d818f5f5-d355-4775-bab7-30d09bba0d94","system_id":"levelo_inurba_marseille","lat":43.315293,"lon":5.380349,"is_reserved":false,"is_disabled":false,"rental_uris":{"android":"levelo://app?vid=d818f5f5-d355-4775-bab7-30d09bba0d94","ios":"levelo://app?vid=d818f5f5-d355-4775-bab7-30d09bba0d94"},"vehicle_type_id":"4","last_reported":1716826131,"current_range_meters":25600,"station_id":"ce4bhsp2rcd13ifvqi50","pricing_plan_id":"cebpf4jnsgd1na2vs0mg"},{"bike_id":"d49b8119-0b61-4f4f-aa47-7f5d9bf3829b","system_id":"levelo_inurba_marseille","lat":43.301939,"lon":5.366286,"is_reserved":false,"is_disabled":false,"rental_uris":{"android":"levelo://app?vid=d49b8119-0b61-4f4f-aa47-7f5d9bf3829b","ios":"levelo://app?vid=d49b8119-0b61-4f4f-aa47-7f5d9bf3829b"},"vehicle_type_id":"4","last_reported":1716826131,"current_range_meters":6000,"station_id":"ce4bgrh2rcd13ifvqc8g","pricing_plan_id":"cebpf4jnsgd1na2vs0mg"},{"bike_id":"b06483e5-14c5-4d7d-952d-58fa139dddf6","system_id":"levelo_inurba_marseille","lat":43.30817,"lon":5.3815,"is_reserved":false,"is_disabled":false,"rental_uris":{"android":"levelo://app?vid=b06483e5-14c5-4d7d-952d-58fa139dddf6","ios":"levelo://app?vid=b06483e5-14c5-4d7d-952d-58fa139dddf6"},"vehicle_type_id":"4","last_reported":1716826131,"current_range_meters":20000,"station_id":"ce4bgt12rcd13ifvqce0","pricing_plan_id":"cebpf4jnsgd1na2vs0mg"},{"bike_id":"87fef1ff-324f-4283-9fc0-87568b124a8a","system_id":"levelo_inurba_marseille","lat":43.30474,"lon":5.37891,"is_reserved":false,"is_disabled":false,"rental_uris":{"android":"levelo://app?vid=87fef1ff-324f-4283-9fc0-87568b124a8a","ios":"levelo://app?vid=87fef1ff-324f-4283-9fc0-87568b124a8a"},"vehicle_type_id":"4","last_reported":1716826131,"current_range_meters":0,"station_id":"ce4bgup2rcd13ifvqcn0","pricing_plan_id":"cebpf4jnsgd1na2vs0mg"},{"bike_id":"136ebebf-34c9-410f-af40-24028567b4e0","system_id":"levelo_inurba_marseille","lat":43.30476,"lon":5.37898,"is_reserved":false,"is_disabled":false,"rental_uris":{"android":"levelo://app?vid=136ebebf-34c9-410f-af40-24028567b4e0","ios":"levelo://app?vid=136ebebf-34c9-410f-af40-24028567b4e0"},"vehicle_type_id":"4","last_reported":1716826131,"current_range_meters":0,"station_id":"ce4bgup2rcd13ifvqcn0","pricing_plan_id":"cebpf4jnsgd1na2vs0mg"},{"bike_id":"29ddead4-9c01-4bb4-b901-641331c6024e","system_id":"levelo_inurba_marseille","lat":43.3047,"lon":5.379,"is_reserved":false,"is_disabled":false,"rental_uris":{"android":"levelo://app?vid=29ddead4-9c01-4bb4-b901-641331c6024e","ios":"levelo://app?vid=29ddead4-9c01-4bb4-b901-641331c6024e"},"vehicle_type_id":"4","last_reported":1716826131,"current_range_meters":12800,"station_id":"ce4bgup2rcd13ifvqcn0","pricing_plan_id":"cebpf4jnsgd1na2vs0mg"},{"bike_id":"a110de59-f87f-45ba-9be8-73cef6eac67a","system_id":"levelo_inurba_marseille","lat":43.324771,"lon":5.36557,"is_reserved":false,"is_disabled":false,"rental_uris":{"android":"levelo://app?vid=a110de59-f87f-45ba-9be8-73cef6eac67a","ios":"levelo://app?vid=a110de59-f87f-45ba-9be8-73cef6eac67a"},"vehicle_type_id":"4","last_reported":1716826131,"current_range_meters":26800,"station_id":"ce4bhs12rcd13ifvqhvg","pricing_plan_id":"cebpf4jnsgd1na2vs0mg"},{"bike_id":"5c69a74d-6766-47dc-92d4-edf0f298aedd","system_id":"levelo_inurba_marseille","lat":43.324818,"lon":5.365599,"is_reserved":false,"is_disabled":false,"rental_uris":{"android":"levelo://app?vid=5c69a74d-6766-47dc-92d4-edf0f298aedd","ios":"levelo://app?vid=5c69a74d-6766-47dc-92d4-edf0f298aedd"},"vehicle_type_id":"4","last_reported":1716826131,"current_range_meters":11600,"station_id":"ce4bhs12rcd13ifvqhvg","pricing_plan_id":"cebpf4jnsgd1na2vs0mg"},{"bike_id":"c001d6c8-45ce-4241-a940-821f62965994","system_id":"levelo_inurba_marseille","lat":43.31075,"lon":5.38357,"is_reserved":false,"is_disabled":false,"rental_uris":{"android":"levelo://app?vid=c001d6c8-45ce-4241-a940-821f62965994","ios":"levelo://app?vid=c001d6c8-45ce-4241-a940-821f62965994"},"vehicle_type_id":"4","last_reported":1716826131,"current_range_meters":10800,"station_id":"ce4bgv92rcd13ifvqcr0","pricing_plan_id":"cebpf4jnsgd1na2vs0mg"},{"bike_id":"00dca3e5-3589-4f22-98f8-4aaba76c78b3","system_id":"levelo_inurba_marseille","lat":43.31078,"lon":5.38358,"is_reserved":false,"is_disabled":false,"rental_uris":{"android":"levelo://app?vid=00dca3e5-3589-4f22-98f8-4aaba76c78b3","ios":"levelo://app?vid=00dca3e5-3589-4f22-98f8-4aaba76c78b3"},"vehicle_type_id":"4","last_reported":1716826131,"current_range_meters":8400,"station_id":"ce4bgv92rcd13ifvqcr0","pricing_plan_id":"cebpf4jnsgd1na2vs0mg"},{"bike_id":"0aee1cbf-c017-4b67-b391-13e7675c59a6","system_id":"levelo_inurba_marseille","lat":43.310804,"lon":5.38359,"is_reserved":false,"is_disabled":false,"rental_uris":{"android":"levelo://app?vid=0aee1cbf-c017-4b67-b391-13e7675c59a6","ios":"levelo://app?vid=0aee1cbf-c017-4b67-b391-13e7675c59a6"},"vehicle_type_id":"4","last_reported":1716826131,"current_range_meters":23600,"station_id":"ce4bgv92rcd13ifvqcr0","pricing_plan_id":"cebpf4jnsgd1na2vs0mg"},{"bike_id":"a41f7279-a74a-4e49-a508-2c2959c906ed","system_id":"levelo_inurba_marseille","lat":43.306374,"lon":5.381438,"is_reserved":false,"is_disabled":false,"rental_uris":{"android":"levelo://app?vid=a41f7279-a74a-4e49-a508-2c2959c906ed","ios":"levelo://app?vid=a41f7279-a74a-4e49-a508-2c2959c906ed"},"vehicle_type_id":"4","last_reported":1716826131,"current_range_meters":2400,"station_id":"","pricing_plan_id":"cebpf4jnsgd1na2vs0mg"},{"bike_id":"03cf8753-69b5-46ff-9a60-21358d97bb66","system_id":"levelo_inurba_marseille","lat":43.31074,"lon":5.38371,"is_reserved":false,"is_disabled":false,"rental_uris":{"android":"levelo://app?vid=03cf8753-69b5-46ff-9a60-21358d97bb66","ios":"levelo://app?vid=03cf8753-69b5-46ff-9a60-21358d97bb66"},"vehicle_type_id":"4","last_reported":1716826131,"current_range_meters":0,"station_id":"ce4bgv92rcd13ifvqcr0","pricing_plan_id":"cebpf4jnsgd1na2vs0mg"},{"bike_id":"476c610c-6af9-4110-bc3e-4094188c4dc0","system_id":"levelo_inurba_marseille","lat":43.301429,"lon":5.37413,"is_reserved":false,"is_disabled":false,"rental_uris":{"android":"levelo://app?vid=476c610c-6af9-4110-bc3e-4094188c4dc0","ios":"levelo://app?vid=476c610c-6af9-4110-bc3e-4094188c4dc0"},"vehicle_type_id":"4","last_reported":1716826131,"current_range_meters":22000,"station_id":"ce4bgs92rcd13ifvqcc0","pricing_plan_id":"cebpf4jnsgd1na2vs0mg"},{"bike_id":"b861192c-84a9-497d-80ca-3451d841f6f6","system_id":"levelo_inurba_marseille","lat":43.30143,"lon":5.37413,"is_reserved":false,"is_disabled":false,"rental_uris":{"android":"levelo://app?vid=b861192c-84a9-497d-80ca-3451d841f6f6","ios":"levelo://app?vid=b861192c-84a9-497d-80ca-3451d841f6f6"},"vehicle_type_id":"4","last_reported":1716826131,"current_range_meters":16800,"station_id":"ce4bgs92rcd13ifvqcc0","pricing_plan_id":"cebpf4jnsgd1na2vs0mg"},{"bike_id":"987f7639-69a8-4572-b11a-4db6b0e24abf","system_id":"levelo_inurba_marseille","lat":43.302784,"lon":5.377158,"is_reserved":false,"is_disabled":false,"rental_uris":{"android":"levelo://app?vid=987f7639-69a8-4572-b11a-4db6b0e24abf","ios":"levelo://app?vid=987f7639-69a8-4572-b11a-4db6b0e24abf"},"vehicle_type_id":"4","last_reported":1716826131,"current_range_meters":0,"station_id":"ce4bguh2rcd13ifvqcj0","pricing_plan_id":"cebpf4jnsgd1na2vs0mg"},{"bike_id":"4ea0acae-e986-4d4e-b34c-5fc8e0145c3d","system_id":"levelo_inurba_marseille","lat":43.299579,"lon":5.413255,"is_reserved":false,"is_disabled":false,"rental_uris":{"android":"levelo://app?vid=4ea0acae-e986-4d4e-b34c-5fc8e0145c3d","ios":"levelo://app?vid=4ea0acae-e986-4d4e-b34c-5fc8e0145c3d"},"vehicle_type_id":"4","last_reported":1716826131,"current_range_meters":23200,"station_id":"ce4bhp12rcd13ifvqh9g","pricing_plan_id":"cebpf4jnsgd1na2vs0mg"},{"bike_id":"739f3093-9d1d-4818-9bc9-81dd2b0a92d1","system_id":"levelo_inurba_marseille","lat":43.319935,"lon":5.381699,"is_reserved":false,"is_disabled":false,"rental_uris":{"android":"levelo://app?vid=739f3093-9d1d-4818-9bc9-81dd2b0a92d1","ios":"levelo://app?vid=739f3093-9d1d-4818-9bc9-81dd2b0a92d1"},"vehicle_type_id":"4","last_reported":1716826131,"current_range_meters":6000,"station_id":"ce4bhr12rcd13ifvqhpg","pricing_plan_id":"cebpf4jnsgd1na2vs0mg"},{"bike_id":"2e27f0ea-2374-4a41-a431-d4a659e1a4c8","system_id":"levelo_inurba_marseille","lat":43.319935,"lon":5.381699,"is_reserved":false,"is_disabled":false,"rental_uris":{"android":"levelo://app?vid=2e27f0ea-2374-4a41-a431-d4a659e1a4c8","ios":"levelo://app?vid=2e27f0ea-2374-4a41-a431-d4a659e1a4c8"},"vehicle_type_id":"4","last_reported":1716826131,"current_range_meters":2000,"station_id":"ce4bhr12rcd13ifvqhpg","pricing_plan_id":"cebpf4jnsgd1na2vs0mg"},{"bike_id":"a1badf69-f4a4-4cc2-9200-293783b5b76a","system_id":"levelo_inurba_marseille","lat":43.319935,"lon":5.381699,"is_reserved":false,"is_disabled":false,"rental_uris":{"android":"levelo://app?vid=a1badf69-f4a4-4cc2-9200-293783b5b76a","ios":"levelo://app?vid=a1badf69-f4a4-4cc2-9200-293783b5b76a"},"vehicle_type_id":"4","last_reported":1716826131,"current_range_meters":0,"station_id":"ce4bhr12rcd13ifvqhpg","pricing_plan_id":"cebpf4jnsgd1na2vs0mg"},{"bike_id":"93d22fc2-a3fa-4827-877e-01fc381275a3","system_id":"levelo_inurba_marseille","lat":43.319935,"lon":5.381699,"is_reserved":false,"is_disabled":false,"rental_uris":{"android":"levelo://app?vid=93d22fc2-a3fa-4827-877e-01fc381275a3","ios":"levelo://app?vid=93d22fc2-a3fa-4827-877e-01fc381275a3"},"vehicle_type_id":"4","last_reported":1716826131,"current_range_meters":0,"station_id":"ce4bhr12rcd13ifvqhpg","pricing_plan_id":"cebpf4jnsgd1na2vs0mg"},{"bike_id":"3a5f013a-9b7d-4a93-aace-47fa4ff23433","system_id":"levelo_inurba_marseille","lat":43.31366,"lon":5.38495,"is_reserved":false,"is_disabled":false,"rental_uris":{"android":"levelo://app?vid=3a5f013a-9b7d-4a93-aace-47fa4ff23433","ios":"levelo://app?vid=3a5f013a-9b7d-4a93-aace-47fa4ff23433"},"vehicle_type_id":"4","last_reported":1716826131,"current_range_meters":11600,"station_id":"ce4bgt92rcd13ifvqcf0","pricing_plan_id":"cebpf4jnsgd1na2vs0mg"},{"bike_id":"a733e7c6-8ebc-430e-88af-0f9b6a7f1a44","system_id":"levelo_inurba_marseille","lat":43.312376,"lon":5.386776,"is_reserved":false,"is_disabled":false,"rental_uris":{"android":"levelo://app?vid=a733e7c6-8ebc-430e-88af-0f9b6a7f1a44","ios":"levelo://app?vid=a733e7c6-8ebc-430e-88af-0f9b6a7f1a44"},"vehicle_type_id":"4","last_reported":1716826131,"current_range_meters":0,"station_id":"ce4bgv12rcd13ifvqcp0","pricing_plan_id":"cebpf4jnsgd1na2vs0mg"},{"bike_id":"7c0279c4-785e-41cc-9875-11b1aa5697b0","system_id":"levelo_inurba_marseille","lat":43.298433,"lon":5.362774,"is_reserved":false,"is_disabled":false,"rental_uris":{"android":"levelo://app?vid=7c0279c4-785e-41cc-9875-11b1aa5697b0","ios":"levelo://app?vid=7c0279c4-785e-41cc-9875-11b1aa5697b0"},"vehicle_type_id":"4","last_reported":1716826131,"current_range_meters":30800,"station_id":"ce4bgpp2rcd13ifvqc3g","pricing_plan_id":"cebpf4jnsgd1na2vs0mg"},{"bike_id":"1a8f9aea-2c0e-4632-aaba-e1dab52189fa","system_id":"levelo_inurba_marseille","lat":43.305364,"lon":5.384119,"is_reserved":false,"is_disabled":false,"rental_uris":{"android":"levelo://app?vid=1a8f9aea-2c0e-4632-aaba-e1dab52189fa","ios":"levelo://app?vid=1a8f9aea-2c0e-4632-aaba-e1dab52189fa"},"vehicle_type_id":"4","last_reported":1716826131,"current_range_meters":4800,"station_id":"ce4bgg92rcd13ifvqb30","pricing_plan_id":"cebpf4jnsgd1na2vs0mg"},{"bike_id":"5529e8fc-c3dc-45d4-b358-f484d8847028","system_id":"levelo_inurba_marseille","lat":43.305364,"lon":5.384119,"is_reserved":false,"is_disabled":false,"rental_uris":{"android":"levelo://app?vid=5529e8fc-c3dc-45d4-b358-f484d8847028","ios":"levelo://app?vid=5529e8fc-c3dc-45d4-b358-f484d8847028"},"vehicle_type_id":"4","last_reported":1716826131,"current_range_meters":26000,"station_id":"ce4bgg92rcd13ifvqb30","pricing_plan_id":"cebpf4jnsgd1na2vs0mg"},{"bike_id":"b1197bea-3b93-4eaa-a8bc-3e44b2f6c92b","system_id":"levelo_inurba_marseille","lat":43.298433,"lon":5.362774,"is_reserved":false,"is_disabled":false,"rental_uris":{"android":"levelo://app?vid=b1197bea-3b93-4eaa-a8bc-3e44b2f6c92b","ios":"levelo://app?vid=b1197bea-3b93-4eaa-a8bc-3e44b2f6c92b"},"vehicle_type_id":"4","last_reported":1716826131,"current_range_meters":31200,"station_id":"ce4bgpp2rcd13ifvqc3g","pricing_plan_id":"cebpf4jnsgd1na2vs0mg"},{"bike_id":"4898309d-2e1f-40bb-b453-06fd0d1b9731","system_id":"levelo_inurba_marseille","lat":43.305364,"lon":5.384119,"is_reserved":false,"is_disabled":false,"rental_uris":{"android":"levelo://app?vid=4898309d-2e1f-40bb-b453-06fd0d1b9731","ios":"levelo://app?vid=4898309d-2e1f-40bb-b453-06fd0d1b9731"},"vehicle_type_id":"4","last_reported":1716826131,"current_range_meters":26000,"station_id":"ce4bgg92rcd13ifvqb30","pricing_plan_id":"cebpf4jnsgd1na2vs0mg"},{"bike_id":"419c0f67-c7c6-4276-9f58-47b1c44318df","system_id":"levelo_inurba_marseille","lat":43.311722,"lon":5.387247,"is_reserved":false,"is_disabled":false,"rental_uris":{"android":"levelo://app?vid=419c0f67-c7c6-4276-9f58-47b1c44318df","ios":"levelo://app?vid=419c0f67-c7c6-4276-9f58-47b1c44318df"},"vehicle_type_id":"4","last_reported":1716826131,"current_range_meters":7200,"station_id":"ce4bgv12rcd13ifvqcp0","pricing_plan_id":"cebpf4jnsgd1na2vs0mg"},{"bike_id":"3e5ffe10-2df6-49a0-9ac8-2f0cf1cfc2fb","system_id":"levelo_inurba_marseille","lat":43.311722,"lon":5.387247,"is_reserved":false,"is_disabled":false,"rental_uris":{"android":"levelo://app?vid=3e5ffe10-2df6-49a0-9ac8-2f0cf1cfc2fb","ios":"levelo://app?vid=3e5ffe10-2df6-49a0-9ac8-2f0cf1cfc2fb"},"vehicle_type_id":"4","last_reported":1716826131,"current_range_meters":6800,"station_id":"ce4bgv12rcd13ifvqcp0","pricing_plan_id":"cebpf4jnsgd1na2vs0mg"},{"bike_id":"323352c8-6a7f-4b68-9f41-f54f658be3ce","system_id":"levelo_inurba_marseille","lat":43.311722,"lon":5.387247,"is_reserved":false,"is_disabled":false,"rental_uris":{"android":"levelo://app?vid=323352c8-6a7f-4b68-9f41-f54f658be3ce","ios":"levelo://app?vid=323352c8-6a7f-4b68-9f41-f54f658be3ce"},"vehicle_type_id":"4","last_reported":1716826131,"current_range_meters":20000,"station_id":"ce4bgv12rcd13ifvqcp0","pricing_plan_id":"cebpf4jnsgd1na2vs0mg"},{"bike_id":"97df5f93-0a8d-4235-a6b0-3acddb0eda26","system_id":"levelo_inurba_marseille","lat":43.311722,"lon":5.387247,"is_reserved":false,"is_disabled":false,"rental_uris":{"android":"levelo://app?vid=97df5f93-0a8d-4235-a6b0-3acddb0eda26","ios":"levelo://app?vid=97df5f93-0a8d-4235-a6b0-3acddb0eda26"},"vehicle_type_id":"4","last_reported":1716826131,"current_range_meters":2000,"station_id":"ce4bgv12rcd13ifvqcp0","pricing_plan_id":"cebpf4jnsgd1na2vs0mg"},{"bike_id":"d35941f5-2d2f-4a8b-8ea6-20106551c6c2","system_id":"levelo_inurba_marseille","lat":43.311722,"lon":5.387247,"is_reserved":false,"is_disabled":false,"rental_uris":{"android":"levelo://app?vid=d35941f5-2d2f-4a8b-8ea6-20106551c6c2","ios":"levelo://app?vid=d35941f5-2d2f-4a8b-8ea6-20106551c6c2"},"vehicle_type_id":"4","last_reported":1716826131,"current_range_meters":8800,"station_id":"ce4bgv12rcd13ifvqcp0","pricing_plan_id":"cebpf4jnsgd1na2vs0mg"},{"bike_id":"ed492a4e-944e-43b3-bd26-4581a8e6f7a8","system_id":"levelo_inurba_marseille","lat":43.297774,"lon":5.370875,"is_reserved":false,"is_disabled":false,"rental_uris":{"android":"levelo://app?vid=ed492a4e-944e-43b3-bd26-4581a8e6f7a8","ios":"levelo://app?vid=ed492a4e-944e-43b3-bd26-4581a8e6f7a8"},"vehicle_type_id":"4","last_reported":1716826131,"current_range_meters":30000,"station_id":"ce4bgop2rcd13ifvqc1g","pricing_plan_id":"cebpf4jnsgd1na2vs0mg"},{"bike_id":"98a3c4a4-1399-4085-9471-f08d01903d1f","system_id":"levelo_inurba_marseille","lat":43.32287,"lon":5.38264,"is_reserved":false,"is_disabled":false,"rental_uris":{"android":"levelo://app?vid=98a3c4a4-1399-4085-9471-f08d01903d1f","ios":"levelo://app?vid=98a3c4a4-1399-4085-9471-f08d01903d1f"},"vehicle_type_id":"4","last_reported":1716826131,"current_range_meters":7200,"station_id":"ce4bhr12rcd13ifvqhqg","pricing_plan_id":"cebpf4jnsgd1na2vs0mg"},{"bike_id":"7bfc25be-19f3-416c-af54-eeef7a7443a0","system_id":"levelo_inurba_marseille","lat":43.322872,"lon":5.382756,"is_reserved":false,"is_disabled":false,"rental_uris":{"android":"levelo://app?vid=7bfc25be-19f3-416c-af54-eeef7a7443a0","ios":"levelo://app?vid=7bfc25be-19f3-416c-af54-eeef7a7443a0"},"vehicle_type_id":"4","last_reported":1716826131,"current_range_meters":0,"station_id":"ce4bhr12rcd13ifvqhqg","pricing_plan_id":"cebpf4jnsgd1na2vs0mg"},{"bike_id":"9f5fc843-4d63-4200-b164-fd69ca8a887d","system_id":"levelo_inurba_marseille","lat":43.322872,"lon":5.382756,"is_reserved":false,"is_disabled":false,"rental_uris":{"android":"levelo://app?vid=9f5fc843-4d63-4200-b164-fd69ca8a887d","ios":"levelo://app?vid=9f5fc843-4d63-4200-b164-fd69ca8a887d"},"vehicle_type_id":"4","last_reported":1716826131,"current_range_meters":12400,"station_id":"ce4bhr12rcd13ifvqhqg","pricing_plan_id":"cebpf4jnsgd1na2vs0mg"},{"bike_id":"52d09dd4-5151-430f-9b5f-2767b9b8fb68","system_id":"levelo_inurba_marseille","lat":43.322872,"lon":5.382756,"is_reserved":false,"is_disabled":false,"rental_uris":{"android":"levelo://app?vid=52d09dd4-5151-430f-9b5f-2767b9b8fb68","ios":"levelo://app?vid=52d09dd4-5151-430f-9b5f-2767b9b8fb68"},"vehicle_type_id":"4","last_reported":1716826131,"current_range_meters":22400,"station_id":"ce4bhr12rcd13ifvqhqg","pricing_plan_id":"cebpf4jnsgd1na2vs0mg"},{"bike_id":"8bb424a2-a062-465c-afa5-173ae4d6d4f7","system_id":"levelo_inurba_marseille","lat":43.322872,"lon":5.382756,"is_reserved":false,"is_disabled":false,"rental_uris":{"android":"levelo://app?vid=8bb424a2-a062-465c-afa5-173ae4d6d4f7","ios":"levelo://app?vid=8bb424a2-a062-465c-afa5-173ae4d6d4f7"},"vehicle_type_id":"4","last_reported":1716826131,"current_range_meters":13600,"station_id":"ce4bhr12rcd13ifvqhqg","pricing_plan_id":"cebpf4jnsgd1na2vs0mg"},{"bike_id":"ea0aa6cd-74f3-4053-a212-05642e95cd9c","system_id":"levelo_inurba_marseille","lat":43.322872,"lon":5.382756,"is_reserved":false,"is_disabled":false,"rental_uris":{"android":"levelo://app?vid=ea0aa6cd-74f3-4053-a212-05642e95cd9c","ios":"levelo://app?vid=ea0aa6cd-74f3-4053-a212-05642e95cd9c"},"vehicle_type_id":"4","last_reported":1716826131,"current_range_meters":8800,"station_id":"ce4bhr12rcd13ifvqhqg","pricing_plan_id":"cebpf4jnsgd1na2vs0mg"},{"bike_id":"aeb1718d-3113-4a0b-995a-121fc40f6cc3","system_id":"levelo_inurba_marseille","lat":43.322872,"lon":5.382756,"is_reserved":false,"is_disabled":false,"rental_uris":{"android":"levelo://app?vid=aeb1718d-3113-4a0b-995a-121fc40f6cc3","ios":"levelo://app?vid=aeb1718d-3113-4a0b-995a-121fc40f6cc3"},"vehicle_type_id":"4","last_reported":1716826131,"current_range_meters":31200,"station_id":"ce4bhr12rcd13ifvqhqg","pricing_plan_id":"cebpf4jnsgd1na2vs0mg"},{"bike_id":"46d40a63-3333-4af2-b25d-f772e1cb94fb","system_id":"levelo_inurba_marseille","lat":43.297163,"lon":5.365866,"is_reserved":false,"is_disabled":false,"rental_uris":{"android":"levelo://app?vid=46d40a63-3333-4af2-b25d-f772e1cb94fb","ios":"levelo://app?vid=46d40a63-3333-4af2-b25d-f772e1cb94fb"},"vehicle_type_id":"4","last_reported":1716826131,"current_range_meters":4800,"station_id":"ce4bgn12rcd13ifvqbt0","pricing_plan_id":"cebpf4jnsgd1na2vs0mg"},{"bike_id":"e0bf28a5-60a7-4217-884d-fa5bab3746d0","system_id":"levelo_inurba_marseille","lat":43.297163,"lon":5.365866,"is_reserved":false,"is_disabled":false,"rental_uris":{"android":"levelo://app?vid=e0bf28a5-60a7-4217-884d-fa5bab3746d0","ios":"levelo://app?vid=e0bf28a5-60a7-4217-884d-fa5bab3746d0"},"vehicle_type_id":"4","last_reported":1716826131,"current_range_meters":8400,"station_id":"ce4bgn12rcd13ifvqbt0","pricing_plan_id":"cebpf4jnsgd1na2vs0mg"},{"bike_id":"f7319ae4-484d-476e-80e0-1c176237ea05","system_id":"levelo_inurba_marseille","lat":43.297163,"lon":5.365866,"is_reserved":false,"is_disabled":false,"rental_uris":{"android":"levelo://app?vid=f7319ae4-484d-476e-80e0-1c176237ea05","ios":"levelo://app?vid=f7319ae4-484d-476e-80e0-1c176237ea05"},"vehicle_type_id":"4","last_reported":1716826131,"current_range_meters":6400,"station_id":"ce4bgn12rcd13ifvqbt0","pricing_plan_id":"cebpf4jnsgd1na2vs0mg"},{"bike_id":"42e9c853-4226-4e9a-a264-af6fe206de4b","system_id":"levelo_inurba_marseille","lat":43.297163,"lon":5.365866,"is_reserved":false,"is_disabled":false,"rental_uris":{"android":"levelo://app?vid=42e9c853-4226-4e9a-a264-af6fe206de4b","ios":"levelo://app?vid=42e9c853-4226-4e9a-a264-af6fe206de4b"},"vehicle_type_id":"4","last_reported":1716826131,"current_range_meters":6400,"station_id":"ce4bgn12rcd13ifvqbt0","pricing_plan_id":"cebpf4jnsgd1na2vs0mg"},{"bike_id":"154ad6ef-fca4-4a47-a263-05d5d033e6bf","system_id":"levelo_inurba_marseille","lat":43.297163,"lon":5.365866,"is_reserved":false,"is_disabled":false,"rental_uris":{"android":"levelo://app?vid=154ad6ef-fca4-4a47-a263-05d5d033e6bf","ios":"levelo://app?vid=154ad6ef-fca4-4a47-a263-05d5d033e6bf"},"vehicle_type_id":"4","last_reported":1716826131,"current_range_meters":800,"station_id":"ce4bgn12rcd13ifvqbt0","pricing_plan_id":"cebpf4jnsgd1na2vs0mg"},{"bike_id":"abf5e492-d6e1-4b2b-8537-f8a2ea8b0b00","system_id":"levelo_inurba_marseille","lat":43.297163,"lon":5.365866,"is_reserved":false,"is_disabled":false,"rental_uris":{"android":"levelo://app?vid=abf5e492-d6e1-4b2b-8537-f8a2ea8b0b00","ios":"levelo://app?vid=abf5e492-d6e1-4b2b-8537-f8a2ea8b0b00"},"vehicle_type_id":"4","last_reported":1716826131,"current_range_meters":28000,"station_id":"ce4bgn12rcd13ifvqbt0","pricing_plan_id":"cebpf4jnsgd1na2vs0mg"},{"bike_id":"21e2bb6b-6a31-4156-b041-645a39120f09","system_id":"levelo_inurba_marseille","lat":43.297163,"lon":5.365866,"is_reserved":false,"is_disabled":false,"rental_uris":{"android":"levelo://app?vid=21e2bb6b-6a31-4156-b041-645a39120f09","ios":"levelo://app?vid=21e2bb6b-6a31-4156-b041-645a39120f09"},"vehicle_type_id":"4","last_reported":1716826131,"current_range_meters":17200,"station_id":"ce4bgn12rcd13ifvqbt0","pricing_plan_id":"cebpf4jnsgd1na2vs0mg"},{"bike_id":"1902351c-24df-403e-a4e4-0883845c1cd0","system_id":"levelo_inurba_marseille","lat":43.297163,"lon":5.365866,"is_reserved":false,"is_disabled":false,"rental_uris":{"android":"levelo://app?vid=1902351c-24df-403e-a4e4-0883845c1cd0","ios":"levelo://app?vid=1902351c-24df-403e-a4e4-0883845c1cd0"},"vehicle_type_id":"4","last_reported":1716826131,"current_range_meters":400,"station_id":"ce4bgn12rcd13ifvqbt0","pricing_plan_id":"cebpf4jnsgd1na2vs0mg"},{"bike_id":"97c65e80-7c1f-472e-96c4-25b4721b4725","system_id":"levelo_inurba_marseille","lat":43.297163,"lon":5.365866,"is_reserved":false,"is_disabled":false,"rental_uris":{"android":"levelo://app?vid=97c65e80-7c1f-472e-96c4-25b4721b4725","ios":"levelo://app?vid=97c65e80-7c1f-472e-96c4-25b4721b4725"},"vehicle_type_id":"4","last_reported":1716826131,"current_range_meters":11200,"station_id":"ce4bgn12rcd13ifvqbt0","pricing_plan_id":"cebpf4jnsgd1na2vs0mg"},{"bike_id":"0b96cab1-e447-470e-bb0e-297e039d74e6","system_id":"levelo_inurba_marseille","lat":43.302759,"lon":5.400793,"is_reserved":false,"is_disabled":false,"rental_uris":{"android":"levelo://app?vid=0b96cab1-e447-470e-bb0e-297e039d74e6","ios":"levelo://app?vid=0b96cab1-e447-470e-bb0e-297e039d74e6"},"vehicle_type_id":"4","last_reported":1716826131,"current_range_meters":28800,"station_id":"ce4bgvh2rcd13ifvqcs0","pricing_plan_id":"cebpf4jnsgd1na2vs0mg"},{"bike_id":"22326cdf-0886-4b40-addd-d537aac187f0","system_id":"levelo_inurba_marseille","lat":43.30014,"lon":5.38151,"is_reserved":false,"is_disabled":false,"rental_uris":{"android":"levelo://app?vid=22326cdf-0886-4b40-addd-d537aac187f0","ios":"levelo://app?vid=22326cdf-0886-4b40-addd-d537aac187f0"},"vehicle_type_id":"4","last_reported":1716826131,"current_range_meters":27600,"station_id":"","pricing_plan_id":"cebpf4jnsgd1na2vs0mg"},{"bike_id":"b0181dbd-d16d-4347-9382-b450da867146","system_id":"levelo_inurba_marseille","lat":43.29657,"lon":5.36162,"is_reserved":false,"is_disabled":false,"rental_uris":{"android":"levelo://app?vid=b0181dbd-d16d-4347-9382-b450da867146","ios":"levelo://app?vid=b0181dbd-d16d-4347-9382-b450da867146"},"vehicle_type_id":"4","last_reported":1716826131,"current_range_meters":400,"station_id":"","pricing_plan_id":"cebpf4jnsgd1na2vs0mg"},{"bike_id":"cb2974ba-096d-4d35-ae75-01e4d533353f","system_id":"levelo_inurba_marseille","lat":43.29631,"lon":5.371871,"is_reserved":false,"is_disabled":false,"rental_uris":{"android":"levelo://app?vid=cb2974ba-096d-4d35-ae75-01e4d533353f","ios":"levelo://app?vid=cb2974ba-096d-4d35-ae75-01e4d533353f"},"vehicle_type_id":"4","last_reported":1716826131,"current_range_meters":14000,"station_id":"ce4bgnh2rcd13ifvqc0g","pricing_plan_id":"cebpf4jnsgd1na2vs0mg"},{"bike_id":"21dc9fc3-1707-4e88-a5ea-80958189a0f2","system_id":"levelo_inurba_marseille","lat":43.296131,"lon":5.370773,"is_reserved":false,"is_disabled":false,"rental_uris":{"android":"levelo://app?vid=21dc9fc3-1707-4e88-a5ea-80958189a0f2","ios":"levelo://app?vid=21dc9fc3-1707-4e88-a5ea-80958189a0f2"},"vehicle_type_id":"4","last_reported":1716826131,"current_range_meters":20000,"station_id":"ce4bgnh2rcd13ifvqc0g","pricing_plan_id":"cebpf4jnsgd1na2vs0mg"},{"bike_id":"1ceb729e-2ec7-4889-87d8-77c7aac2493d","system_id":"levelo_inurba_marseille","lat":43.29625,"lon":5.37168,"is_reserved":false,"is_disabled":false,"rental_uris":{"android":"levelo://app?vid=1ceb729e-2ec7-4889-87d8-77c7aac2493d","ios":"levelo://app?vid=1ceb729e-2ec7-4889-87d8-77c7aac2493d"},"vehicle_type_id":"4","last_reported":1716826131,"current_range_meters":14000,"station_id":"ce4bgnh2rcd13ifvqc0g","pricing_plan_id":"cebpf4jnsgd1na2vs0mg"},{"bike_id":"0d2a6e38-625f-43db-b61c-92230362e59e","system_id":"levelo_inurba_marseille","lat":43.29573,"lon":5.367355,"is_reserved":false,"is_disabled":false,"rental_uris":{"android":"levelo://app?vid=0d2a6e38-625f-43db-b61c-92230362e59e","ios":"levelo://app?vid=0d2a6e38-625f-43db-b61c-92230362e59e"},"vehicle_type_id":"4","last_reported":1716826131,"current_range_meters":0,"station_id":"ce4bgph2rcd13ifvqc2g","pricing_plan_id":"cebpf4jnsgd1na2vs0mg"},{"bike_id":"9884b815-07bb-4077-b9d9-a7b4ee49a41a","system_id":"levelo_inurba_marseille","lat":43.29573,"lon":5.367355,"is_reserved":false,"is_disabled":false,"rental_uris":{"android":"levelo://app?vid=9884b815-07bb-4077-b9d9-a7b4ee49a41a","ios":"levelo://app?vid=9884b815-07bb-4077-b9d9-a7b4ee49a41a"},"vehicle_type_id":"4","last_reported":1716826131,"current_range_meters":31200,"station_id":"ce4bgph2rcd13ifvqc2g","pricing_plan_id":"cebpf4jnsgd1na2vs0mg"},{"bike_id":"a8e1662d-5136-42a6-b316-5516f8e80381","system_id":"levelo_inurba_marseille","lat":43.29573,"lon":5.367355,"is_reserved":false,"is_disabled":false,"rental_uris":{"android":"levelo://app?vid=a8e1662d-5136-42a6-b316-5516f8e80381","ios":"levelo://app?vid=a8e1662d-5136-42a6-b316-5516f8e80381"},"vehicle_type_id":"4","last_reported":1716826131,"current_range_meters":10000,"station_id":"ce4bgph2rcd13ifvqc2g","pricing_plan_id":"cebpf4jnsgd1na2vs0mg"},{"bike_id":"4129740b-14c5-43d3-9382-e4ec11993201","system_id":"levelo_inurba_marseille","lat":43.29573,"lon":5.367355,"is_reserved":false,"is_disabled":false,"rental_uris":{"android":"levelo://app?vid=4129740b-14c5-43d3-9382-e4ec11993201","ios":"levelo://app?vid=4129740b-14c5-43d3-9382-e4ec11993201"},"vehicle_type_id":"4","last_reported":1716826131,"current_range_meters":18400,"station_id":"ce4bgph2rcd13ifvqc2g","pricing_plan_id":"cebpf4jnsgd1na2vs0mg"},{"bike_id":"16db068a-a021-4795-a155-a36eb07e14dd","system_id":"levelo_inurba_marseille","lat":43.296131,"lon":5.370773,"is_reserved":false,"is_disabled":false,"rental_uris":{"android":"levelo://app?vid=16db068a-a021-4795-a155-a36eb07e14dd","ios":"levelo://app?vid=16db068a-a021-4795-a155-a36eb07e14dd"},"vehicle_type_id":"4","last_reported":1716826131,"current_range_meters":5200,"station_id":"ce4bgnh2rcd13ifvqc0g","pricing_plan_id":"cebpf4jnsgd1na2vs0mg"},{"bike_id":"deab53d9-a2df-4910-9847-02ba45a3529a","system_id":"levelo_inurba_marseille","lat":43.323464,"lon":5.406297,"is_reserved":false,"is_disabled":false,"rental_uris":{"android":"levelo://app?vid=deab53d9-a2df-4910-9847-02ba45a3529a","ios":"levelo://app?vid=deab53d9-a2df-4910-9847-02ba45a3529a"},"vehicle_type_id":"4","last_reported":1716826131,"current_range_meters":8800,"station_id":"ce4bhq92rcd13ifvqhjg","pricing_plan_id":"cebpf4jnsgd1na2vs0mg"},{"bike_id":"085f8808-1d82-4a31-a42a-8e58df7e3717","system_id":"levelo_inurba_marseille","lat":43.29631,"lon":5.36019,"is_reserved":false,"is_disabled":false,"rental_uris":{"android":"levelo://app?vid=085f8808-1d82-4a31-a42a-8e58df7e3717","ios":"levelo://app?vid=085f8808-1d82-4a31-a42a-8e58df7e3717"},"vehicle_type_id":"4","last_reported":1716826131,"current_range_meters":27200,"station_id":"","pricing_plan_id":"cebpf4jnsgd1na2vs0mg"},{"bike_id":"507b91ab-be83-4bfc-9860-d3ee245de856","system_id":"levelo_inurba_marseille","lat":43.299028,"lon":5.381509,"is_reserved":false,"is_disabled":false,"rental_uris":{"android":"levelo://app?vid=507b91ab-be83-4bfc-9860-d3ee245de856","ios":"levelo://app?vid=507b91ab-be83-4bfc-9860-d3ee245de856"},"vehicle_type_id":"4","last_reported":1716826131,"current_range_meters":0,"station_id":"ce4bgj12rcd13ifvqbc0","pricing_plan_id":"cebpf4jnsgd1na2vs0mg"},{"bike_id":"93ff9053-2f44-4ac9-9c61-9b85ef131e65","system_id":"levelo_inurba_marseille","lat":43.299028,"lon":5.381509,"is_reserved":false,"is_disabled":false,"rental_uris":{"android":"levelo://app?vid=93ff9053-2f44-4ac9-9c61-9b85ef131e65","ios":"levelo://app?vid=93ff9053-2f44-4ac9-9c61-9b85ef131e65"},"vehicle_type_id":"4","last_reported":1716826131,"current_range_meters":10800,"station_id":"ce4bgj12rcd13ifvqbc0","pricing_plan_id":"cebpf4jnsgd1na2vs0mg"},{"bike_id":"a3b3013b-732f-4596-a052-aedc9cf3e7de","system_id":"levelo_inurba_marseille","lat":43.309525,"lon":5.390344,"is_reserved":false,"is_disabled":false,"rental_uris":{"android":"levelo://app?vid=a3b3013b-732f-4596-a052-aedc9cf3e7de","ios":"levelo://app?vid=a3b3013b-732f-4596-a052-aedc9cf3e7de"},"vehicle_type_id":"4","last_reported":1716826131,"current_range_meters":0,"station_id":"ce4bgup2rcd13ifvqco0","pricing_plan_id":"cebpf4jnsgd1na2vs0mg"},{"bike_id":"0486ac3d-6379-4493-ac19-c2da7fee7914","system_id":"levelo_inurba_marseille","lat":43.317557,"lon":5.390173,"is_reserved":false,"is_disabled":false,"rental_uris":{"android":"levelo://app?vid=0486ac3d-6379-4493-ac19-c2da7fee7914","ios":"levelo://app?vid=0486ac3d-6379-4493-ac19-c2da7fee7914"},"vehicle_type_id":"4","last_reported":1716826131,"current_range_meters":4800,"station_id":"ce4bhqp2rcd13ifvqhng","pricing_plan_id":"cebpf4jnsgd1na2vs0mg"},{"bike_id":"fe9f3e4a-060b-49b2-ad35-84bcf45fba2c","system_id":"levelo_inurba_marseille","lat":43.317557,"lon":5.390173,"is_reserved":false,"is_disabled":false,"rental_uris":{"android":"levelo://app?vid=fe9f3e4a-060b-49b2-ad35-84bcf45fba2c","ios":"levelo://app?vid=fe9f3e4a-060b-49b2-ad35-84bcf45fba2c"},"vehicle_type_id":"4","last_reported":1716826131,"current_range_meters":28000,"station_id":"ce4bhqp2rcd13ifvqhng","pricing_plan_id":"cebpf4jnsgd1na2vs0mg"},{"bike_id":"5f7f4af4-c820-4867-89af-44130f83b35f","system_id":"levelo_inurba_marseille","lat":43.317557,"lon":5.390173,"is_reserved":false,"is_disabled":false,"rental_uris":{"android":"levelo://app?vid=5f7f4af4-c820-4867-89af-44130f83b35f","ios":"levelo://app?vid=5f7f4af4-c820-4867-89af-44130f83b35f"},"vehicle_type_id":"4","last_reported":1716826131,"current_range_meters":24000,"station_id":"ce4bhqp2rcd13ifvqhng","pricing_plan_id":"cebpf4jnsgd1na2vs0mg"},{"bike_id":"6950e146-2cca-4d2d-9fa6-51c1ffa282f5","system_id":"levelo_inurba_marseille","lat":43.317557,"lon":5.390173,"is_reserved":false,"is_disabled":false,"rental_uris":{"android":"levelo://app?vid=6950e146-2cca-4d2d-9fa6-51c1ffa282f5","ios":"levelo://app?vid=6950e146-2cca-4d2d-9fa6-51c1ffa282f5"},"vehicle_type_id":"4","last_reported":1716826131,"current_range_meters":400,"station_id":"ce4bhqp2rcd13ifvqhng","pricing_plan_id":"cebpf4jnsgd1na2vs0mg"},{"bike_id":"50edb496-6526-413f-997a-282b5226de08","system_id":"levelo_inurba_marseille","lat":43.317557,"lon":5.390173,"is_reserved":false,"is_disabled":false,"rental_uris":{"android":"levelo://app?vid=50edb496-6526-413f-997a-282b5226de08","ios":"levelo://app?vid=50edb496-6526-413f-997a-282b5226de08"},"vehicle_type_id":"4","last_reported":1716826131,"current_range_meters":27200,"station_id":"ce4bhqp2rcd13ifvqhng","pricing_plan_id":"cebpf4jnsgd1na2vs0mg"},{"bike_id":"bdeff865-7875-40bd-8027-0d3ea62fc48a","system_id":"levelo_inurba_marseille","lat":43.317557,"lon":5.390173,"is_reserved":false,"is_disabled":false,"rental_uris":{"android":"levelo://app?vid=bdeff865-7875-40bd-8027-0d3ea62fc48a","ios":"levelo://app?vid=bdeff865-7875-40bd-8027-0d3ea62fc48a"},"vehicle_type_id":"4","last_reported":1716826131,"current_range_meters":10000,"station_id":"ce4bhqp2rcd13ifvqhng","pricing_plan_id":"cebpf4jnsgd1na2vs0mg"},{"bike_id":"a9c95a6a-75da-4af0-b30f-fc97431a1376","system_id":"levelo_inurba_marseille","lat":43.295748,"lon":5.37522,"is_reserved":false,"is_disabled":false,"rental_uris":{"android":"levelo://app?vid=a9c95a6a-75da-4af0-b30f-fc97431a1376","ios":"levelo://app?vid=a9c95a6a-75da-4af0-b30f-fc97431a1376"},"vehicle_type_id":"4","last_reported":1716826131,"current_range_meters":30000,"station_id":"ce4bgh92rcd13ifvqb50","pricing_plan_id":"cebpf4jnsgd1na2vs0mg"},{"bike_id":"6d71b82b-046a-48c3-9916-42980e83c701","system_id":"levelo_inurba_marseille","lat":43.296277,"lon":5.377108,"is_reserved":false,"is_disabled":false,"rental_uris":{"android":"levelo://app?vid=6d71b82b-046a-48c3-9916-42980e83c701","ios":"levelo://app?vid=6d71b82b-046a-48c3-9916-42980e83c701"},"vehicle_type_id":"4","last_reported":1716826131,"current_range_meters":30800,"station_id":"ce4bgi92rcd13ifvqb90","pricing_plan_id":"cebpf4jnsgd1na2vs0mg"},{"bike_id":"3c714cca-3fe2-4f0e-955c-fe34d272f258","system_id":"levelo_inurba_marseille","lat":43.296277,"lon":5.377108,"is_reserved":false,"is_disabled":false,"rental_uris":{"android":"levelo://app?vid=3c714cca-3fe2-4f0e-955c-fe34d272f258","ios":"levelo://app?vid=3c714cca-3fe2-4f0e-955c-fe34d272f258"},"vehicle_type_id":"4","last_reported":1716826131,"current_range_meters":9600,"station_id":"ce4bgi92rcd13ifvqb90","pricing_plan_id":"cebpf4jnsgd1na2vs0mg"},{"bike_id":"b06a3709-c3be-41e6-a223-51717f283604","system_id":"levelo_inurba_marseille","lat":43.296277,"lon":5.377108,"is_reserved":false,"is_disabled":false,"rental_uris":{"android":"levelo://app?vid=b06a3709-c3be-41e6-a223-51717f283604","ios":"levelo://app?vid=b06a3709-c3be-41e6-a223-51717f283604"},"vehicle_type_id":"4","last_reported":1716826131,"current_range_meters":7200,"station_id":"ce4bgi92rcd13ifvqb90","pricing_plan_id":"cebpf4jnsgd1na2vs0mg"},{"bike_id":"8c8eca90-bbb1-454d-aef1-58f12c02cef0","system_id":"levelo_inurba_marseille","lat":43.296277,"lon":5.377108,"is_reserved":false,"is_disabled":false,"rental_uris":{"android":"levelo://app?vid=8c8eca90-bbb1-454d-aef1-58f12c02cef0","ios":"levelo://app?vid=8c8eca90-bbb1-454d-aef1-58f12c02cef0"},"vehicle_type_id":"4","last_reported":1716826131,"current_range_meters":6000,"station_id":"ce4bgi92rcd13ifvqb90","pricing_plan_id":"cebpf4jnsgd1na2vs0mg"},{"bike_id":"e6736d10-3eb0-44b4-a2fb-cd6c9a9a3a66","system_id":"levelo_inurba_marseille","lat":43.296277,"lon":5.377108,"is_reserved":false,"is_disabled":false,"rental_uris":{"android":"levelo://app?vid=e6736d10-3eb0-44b4-a2fb-cd6c9a9a3a66","ios":"levelo://app?vid=e6736d10-3eb0-44b4-a2fb-cd6c9a9a3a66"},"vehicle_type_id":"4","last_reported":1716826131,"current_range_meters":1200,"station_id":"ce4bgi92rcd13ifvqb90","pricing_plan_id":"cebpf4jnsgd1na2vs0mg"},{"bike_id":"7532b1c3-73c7-4ec8-82f9-4fd164e49300","system_id":"levelo_inurba_marseille","lat":43.299717,"lon":5.384845,"is_reserved":false,"is_disabled":false,"rental_uris":{"android":"levelo://app?vid=7532b1c3-73c7-4ec8-82f9-4fd164e49300","ios":"levelo://app?vid=7532b1c3-73c7-4ec8-82f9-4fd164e49300"},"vehicle_type_id":"4","last_reported":1716826131,"current_range_meters":25600,"station_id":"ce4bgj92rcd13ifvqbd0","pricing_plan_id":"cebpf4jnsgd1na2vs0mg"},{"bike_id":"24f5f3ba-f3c8-425a-9796-fa77d2b2c756","system_id":"levelo_inurba_marseille","lat":43.29529,"lon":5.385581,"is_reserved":false,"is_disabled":false,"rental_uris":{"android":"levelo://app?vid=24f5f3ba-f3c8-425a-9796-fa77d2b2c756","ios":"levelo://app?vid=24f5f3ba-f3c8-425a-9796-fa77d2b2c756"},"vehicle_type_id":"4","last_reported":1716826131,"current_range_meters":400,"station_id":"ce4bgih2rcd13ifvqba0","pricing_plan_id":"cebpf4jnsgd1na2vs0mg"},{"bike_id":"9951efd9-1317-4a62-bbad-f0e026597d0a","system_id":"levelo_inurba_marseille","lat":43.297153,"lon":5.382423,"is_reserved":false,"is_disabled":false,"rental_uris":{"android":"levelo://app?vid=9951efd9-1317-4a62-bbad-f0e026597d0a","ios":"levelo://app?vid=9951efd9-1317-4a62-bbad-f0e026597d0a"},"vehicle_type_id":"4","last_reported":1716826131,"current_range_meters":18000,"station_id":"","pricing_plan_id":"cebpf4jnsgd1na2vs0mg"},{"bike_id":"f8be2c7b-eac4-4303-8687-99694b706884","system_id":"levelo_inurba_marseille","lat":43.32362,"lon":5.38882,"is_reserved":false,"is_disabled":false,"rental_uris":{"android":"levelo://app?vid=f8be2c7b-eac4-4303-8687-99694b706884","ios":"levelo://app?vid=f8be2c7b-eac4-4303-8687-99694b706884"},"vehicle_type_id":"4","last_reported":1716826131,"current_range_meters":11600,"station_id":"ce4bhqp2rcd13ifvqhog","pricing_plan_id":"cebpf4jnsgd1na2vs0mg"},{"bike_id":"6b5efc99-0449-49da-b8f1-63ebbfe36115","system_id":"levelo_inurba_marseille","lat":43.32362,"lon":5.3889,"is_reserved":false,"is_disabled":false,"rental_uris":{"android":"levelo://app?vid=6b5efc99-0449-49da-b8f1-63ebbfe36115","ios":"levelo://app?vid=6b5efc99-0449-49da-b8f1-63ebbfe36115"},"vehicle_type_id":"4","last_reported":1716826131,"current_range_meters":14800,"station_id":"ce4bhqp2rcd13ifvqhog","pricing_plan_id":"cebpf4jnsgd1na2vs0mg"},{"bike_id":"882f352e-a843-41d0-8e73-a063af5a5f8b","system_id":"levelo_inurba_marseille","lat":43.32367,"lon":5.388836,"is_reserved":false,"is_disabled":false,"rental_uris":{"android":"levelo://app?vid=882f352e-a843-41d0-8e73-a063af5a5f8b","ios":"levelo://app?vid=882f352e-a843-41d0-8e73-a063af5a5f8b"},"vehicle_type_id":"4","last_reported":1716826131,"current_range_meters":14400,"station_id":"ce4bhqp2rcd13ifvqhog","pricing_plan_id":"cebpf4jnsgd1na2vs0mg"},{"bike_id":"b5afcbca-d930-498f-928e-972a28b906ea","system_id":"levelo_inurba_marseille","lat":43.32367,"lon":5.388836,"is_reserved":false,"is_disabled":false,"rental_uris":{"android":"levelo://app?vid=b5afcbca-d930-498f-928e-972a28b906ea","ios":"levelo://app?vid=b5afcbca-d930-498f-928e-972a28b906ea"},"vehicle_type_id":"4","last_reported":1716826131,"current_range_meters":13600,"station_id":"ce4bhqp2rcd13ifvqhog","pricing_plan_id":"cebpf4jnsgd1na2vs0mg"},{"bike_id":"8eb2c5af-8572-4547-a3d7-3b3f87aaf363","system_id":"levelo_inurba_marseille","lat":43.292749,"lon":5.368402,"is_reserved":false,"is_disabled":false,"rental_uris":{"android":"levelo://app?vid=8eb2c5af-8572-4547-a3d7-3b3f87aaf363","ios":"levelo://app?vid=8eb2c5af-8572-4547-a3d7-3b3f87aaf363"},"vehicle_type_id":"4","last_reported":1716826131,"current_range_meters":26000,"station_id":"ce4bhbp2rcd13ifvqesg","pricing_plan_id":"cebpf4jnsgd1na2vs0mg"},{"bike_id":"acd6e61a-ece2-45c0-972b-6e4299cc45bc","system_id":"levelo_inurba_marseille","lat":43.293259,"lon":5.371586,"is_reserved":false,"is_disabled":false,"rental_uris":{"android":"levelo://app?vid=acd6e61a-ece2-45c0-972b-6e4299cc45bc","ios":"levelo://app?vid=acd6e61a-ece2-45c0-972b-6e4299cc45bc"},"vehicle_type_id":"4","last_reported":1716826131,"current_range_meters":26000,"station_id":"ce4bgh92rcd13ifvqb40","pricing_plan_id":"cebpf4jnsgd1na2vs0mg"},{"bike_id":"08ad1fc3-17e1-4208-946d-ddef699ddc2e","system_id":"levelo_inurba_marseille","lat":43.313291,"lon":5.396838,"is_reserved":false,"is_disabled":false,"rental_uris":{"android":"levelo://app?vid=08ad1fc3-17e1-4208-946d-ddef699ddc2e","ios":"levelo://app?vid=08ad1fc3-17e1-4208-946d-ddef699ddc2e"},"vehicle_type_id":"4","last_reported":1716826131,"current_range_meters":800,"station_id":"ce4bgvp2rcd13ifvqcu0","pricing_plan_id":"cebpf4jnsgd1na2vs0mg"},{"bike_id":"ac5fe448-e56d-4888-825e-51c8699b9709","system_id":"levelo_inurba_marseille","lat":43.292749,"lon":5.368402,"is_reserved":false,"is_disabled":false,"rental_uris":{"android":"levelo://app?vid=ac5fe448-e56d-4888-825e-51c8699b9709","ios":"levelo://app?vid=ac5fe448-e56d-4888-825e-51c8699b9709"},"vehicle_type_id":"4","last_reported":1716826131,"current_range_meters":30800,"station_id":"ce4bhbp2rcd13ifvqesg","pricing_plan_id":"cebpf4jnsgd1na2vs0mg"},{"bike_id":"e0ed8842-18de-4deb-9ff2-99ef8fbcc6c0","system_id":"levelo_inurba_marseille","lat":43.292749,"lon":5.368402,"is_reserved":false,"is_disabled":false,"rental_uris":{"android":"levelo://app?vid=e0ed8842-18de-4deb-9ff2-99ef8fbcc6c0","ios":"levelo://app?vid=e0ed8842-18de-4deb-9ff2-99ef8fbcc6c0"},"vehicle_type_id":"4","last_reported":1716826131,"current_range_meters":13600,"station_id":"ce4bhbp2rcd13ifvqesg","pricing_plan_id":"cebpf4jnsgd1na2vs0mg"},{"bike_id":"dab63a90-771a-4994-a552-955692f76758","system_id":"levelo_inurba_marseille","lat":43.293009,"lon":5.374584,"is_reserved":false,"is_disabled":false,"rental_uris":{"android":"levelo://app?vid=dab63a90-771a-4994-a552-955692f76758","ios":"levelo://app?vid=dab63a90-771a-4994-a552-955692f76758"},"vehicle_type_id":"4","last_reported":1716826131,"current_range_meters":10400,"station_id":"ce4bgi12rcd13ifvqb70","pricing_plan_id":"cebpf4jnsgd1na2vs0mg"},{"bike_id":"117c603c-68e6-4862-bd69-8eca8fa22c9b","system_id":"levelo_inurba_marseille","lat":43.293259,"lon":5.371586,"is_reserved":false,"is_disabled":false,"rental_uris":{"android":"levelo://app?vid=117c603c-68e6-4862-bd69-8eca8fa22c9b","ios":"levelo://app?vid=117c603c-68e6-4862-bd69-8eca8fa22c9b"},"vehicle_type_id":"4","last_reported":1716826131,"current_range_meters":19600,"station_id":"ce4bgh92rcd13ifvqb40","pricing_plan_id":"cebpf4jnsgd1na2vs0mg"},{"bike_id":"150cc464-0b60-4cb9-9f20-ffb0bd8a56a7","system_id":"levelo_inurba_marseille","lat":43.29304,"lon":5.37178,"is_reserved":false,"is_disabled":false,"rental_uris":{"android":"levelo://app?vid=150cc464-0b60-4cb9-9f20-ffb0bd8a56a7","ios":"levelo://app?vid=150cc464-0b60-4cb9-9f20-ffb0bd8a56a7"},"vehicle_type_id":"4","last_reported":1716826131,"current_range_meters":23600,"station_id":"ce4bgh92rcd13ifvqb40","pricing_plan_id":"cebpf4jnsgd1na2vs0mg"},{"bike_id":"ff4e930c-5685-4107-a4ff-1bfe56ecaa25","system_id":"levelo_inurba_marseille","lat":43.305994,"lon":5.393687,"is_reserved":false,"is_disabled":false,"rental_uris":{"android":"levelo://app?vid=ff4e930c-5685-4107-a4ff-1bfe56ecaa25","ios":"levelo://app?vid=ff4e930c-5685-4107-a4ff-1bfe56ecaa25"},"vehicle_type_id":"4","last_reported":1716826131,"current_range_meters":13600,"station_id":"ce4bh0p2rcd13ifvqd80","pricing_plan_id":"cebpf4jnsgd1na2vs0mg"},{"bike_id":"da97c0bd-49d3-4a63-93d0-35a79b7249fe","system_id":"levelo_inurba_marseille","lat":43.30595,"lon":5.39359,"is_reserved":false,"is_disabled":false,"rental_uris":{"android":"levelo://app?vid=da97c0bd-49d3-4a63-93d0-35a79b7249fe","ios":"levelo://app?vid=da97c0bd-49d3-4a63-93d0-35a79b7249fe"},"vehicle_type_id":"4","last_reported":1716826131,"current_range_meters":0,"station_id":"ce4bh0p2rcd13ifvqd80","pricing_plan_id":"cebpf4jnsgd1na2vs0mg"},{"bike_id":"6e9b5501-bee1-4af9-a963-79844a95202d","system_id":"levelo_inurba_marseille","lat":43.292311,"lon":5.360731,"is_reserved":false,"is_disabled":false,"rental_uris":{"android":"levelo://app?vid=6e9b5501-bee1-4af9-a963-79844a95202d","ios":"levelo://app?vid=6e9b5501-bee1-4af9-a963-79844a95202d"},"vehicle_type_id":"4","last_reported":1716826131,"current_range_meters":14800,"station_id":"ce4bhbh2rcd13ifvqeqg","pricing_plan_id":"cebpf4jnsgd1na2vs0mg"},{"bike_id":"a0739d19-0b5d-4ea3-9968-6cd3ca6d98a5","system_id":"levelo_inurba_marseille","lat":43.2936,"lon":5.37835,"is_reserved":false,"is_disabled":false,"rental_uris":{"android":"levelo://app?vid=a0739d19-0b5d-4ea3-9968-6cd3ca6d98a5","ios":"levelo://app?vid=a0739d19-0b5d-4ea3-9968-6cd3ca6d98a5"},"vehicle_type_id":"4","last_reported":1716826131,"current_range_meters":23200,"station_id":"ce4bgjh2rcd13ifvqbf0","pricing_plan_id":"cebpf4jnsgd1na2vs0mg"},{"bike_id":"4f90d086-2f6a-4619-a96f-2ce059408b51","system_id":"levelo_inurba_marseille","lat":43.298764,"lon":5.388973,"is_reserved":false,"is_disabled":false,"rental_uris":{"android":"levelo://app?vid=4f90d086-2f6a-4619-a96f-2ce059408b51","ios":"levelo://app?vid=4f90d086-2f6a-4619-a96f-2ce059408b51"},"vehicle_type_id":"4","last_reported":1716826131,"current_range_meters":25600,"station_id":"ce4bh392rcd13ifvqdl0","pricing_plan_id":"cebpf4jnsgd1na2vs0mg"},{"bike_id":"b7584c66-58d2-4ece-80d5-90e650bea2cb","system_id":"levelo_inurba_marseille","lat":43.292311,"lon":5.360731,"is_reserved":false,"is_disabled":false,"rental_uris":{"android":"levelo://app?vid=b7584c66-58d2-4ece-80d5-90e650bea2cb","ios":"levelo://app?vid=b7584c66-58d2-4ece-80d5-90e650bea2cb"},"vehicle_type_id":"4","last_reported":1716826131,"current_range_meters":0,"station_id":"ce4bhbh2rcd13ifvqeqg","pricing_plan_id":"cebpf4jnsgd1na2vs0mg"},{"bike_id":"d3bf557a-341f-4dfc-8b04-79e2f8a4ddf5","system_id":"levelo_inurba_marseille","lat":43.30085,"lon":5.390856,"is_reserved":false,"is_disabled":false,"rental_uris":{"android":"levelo://app?vid=d3bf557a-341f-4dfc-8b04-79e2f8a4ddf5","ios":"levelo://app?vid=d3bf557a-341f-4dfc-8b04-79e2f8a4ddf5"},"vehicle_type_id":"4","last_reported":1716826131,"current_range_meters":18400,"station_id":"ce4bh192rcd13ifvqdb0","pricing_plan_id":"cebpf4jnsgd1na2vs0mg"},{"bike_id":"09c9c9e6-dc9b-49a2-a6e4-90c077d34df8","system_id":"levelo_inurba_marseille","lat":43.30085,"lon":5.390856,"is_reserved":false,"is_disabled":false,"rental_uris":{"android":"levelo://app?vid=09c9c9e6-dc9b-49a2-a6e4-90c077d34df8","ios":"levelo://app?vid=09c9c9e6-dc9b-49a2-a6e4-90c077d34df8"},"vehicle_type_id":"4","last_reported":1716826131,"current_range_meters":18400,"station_id":"ce4bh192rcd13ifvqdb0","pricing_plan_id":"cebpf4jnsgd1na2vs0mg"},{"bike_id":"5cbb419e-047f-4a35-b156-c34762b0001b","system_id":"levelo_inurba_marseille","lat":43.30085,"lon":5.390856,"is_reserved":false,"is_disabled":false,"rental_uris":{"android":"levelo://app?vid=5cbb419e-047f-4a35-b156-c34762b0001b","ios":"levelo://app?vid=5cbb419e-047f-4a35-b156-c34762b0001b"},"vehicle_type_id":"4","last_reported":1716826131,"current_range_meters":23600,"station_id":"ce4bh192rcd13ifvqdb0","pricing_plan_id":"cebpf4jnsgd1na2vs0mg"},{"bike_id":"d506d144-4f07-4370-a8a9-45ea9bac0918","system_id":"levelo_inurba_marseille","lat":43.30085,"lon":5.390856,"is_reserved":false,"is_disabled":false,"rental_uris":{"android":"levelo://app?vid=d506d144-4f07-4370-a8a9-45ea9bac0918","ios":"levelo://app?vid=d506d144-4f07-4370-a8a9-45ea9bac0918"},"vehicle_type_id":"4","last_reported":1716826131,"current_range_meters":4800,"station_id":"ce4bh192rcd13ifvqdb0","pricing_plan_id":"cebpf4jnsgd1na2vs0mg"},{"bike_id":"919accd2-0879-421d-90ef-1f73f90ab030","system_id":"levelo_inurba_marseille","lat":43.2936,"lon":5.37835,"is_reserved":false,"is_disabled":false,"rental_uris":{"android":"levelo://app?vid=919accd2-0879-421d-90ef-1f73f90ab030","ios":"levelo://app?vid=919accd2-0879-421d-90ef-1f73f90ab030"},"vehicle_type_id":"4","last_reported":1716826131,"current_range_meters":2400,"station_id":"ce4bgjh2rcd13ifvqbf0","pricing_plan_id":"cebpf4jnsgd1na2vs0mg"},{"bike_id":"7d44556d-3382-4467-b888-2da3327fba1b","system_id":"levelo_inurba_marseille","lat":43.298764,"lon":5.388973,"is_reserved":false,"is_disabled":false,"rental_uris":{"android":"levelo://app?vid=7d44556d-3382-4467-b888-2da3327fba1b","ios":"levelo://app?vid=7d44556d-3382-4467-b888-2da3327fba1b"},"vehicle_type_id":"4","last_reported":1716826131,"current_range_meters":800,"station_id":"ce4bh392rcd13ifvqdl0","pricing_plan_id":"cebpf4jnsgd1na2vs0mg"},{"bike_id":"0975d9cc-30da-4c0d-af42-bdf5ace8061d","system_id":"levelo_inurba_marseille","lat":43.298868,"lon":5.38905,"is_reserved":false,"is_disabled":false,"rental_uris":{"android":"levelo://app?vid=0975d9cc-30da-4c0d-af42-bdf5ace8061d","ios":"levelo://app?vid=0975d9cc-30da-4c0d-af42-bdf5ace8061d"},"vehicle_type_id":"4","last_reported":1716826131,"current_range_meters":0,"station_id":"ce4bh392rcd13ifvqdl0","pricing_plan_id":"cebpf4jnsgd1na2vs0mg"},{"bike_id":"6b27fe53-169e-4dff-9124-610448bb3222","system_id":"levelo_inurba_marseille","lat":43.298764,"lon":5.388973,"is_reserved":false,"is_disabled":false,"rental_uris":{"android":"levelo://app?vid=6b27fe53-169e-4dff-9124-610448bb3222","ios":"levelo://app?vid=6b27fe53-169e-4dff-9124-610448bb3222"},"vehicle_type_id":"4","last_reported":1716826131,"current_range_meters":1600,"station_id":"ce4bh392rcd13ifvqdl0","pricing_plan_id":"cebpf4jnsgd1na2vs0mg"},{"bike_id":"4c99f885-238f-41c2-a246-235edc95ed91","system_id":"levelo_inurba_marseille","lat":43.298764,"lon":5.388973,"is_reserved":false,"is_disabled":false,"rental_uris":{"android":"levelo://app?vid=4c99f885-238f-41c2-a246-235edc95ed91","ios":"levelo://app?vid=4c99f885-238f-41c2-a246-235edc95ed91"},"vehicle_type_id":"4","last_reported":1716826131,"current_range_meters":20800,"station_id":"ce4bh392rcd13ifvqdl0","pricing_plan_id":"cebpf4jnsgd1na2vs0mg"},{"bike_id":"8c63a824-85fe-456f-91a0-aba3b9a1778d","system_id":"levelo_inurba_marseille","lat":43.313291,"lon":5.396838,"is_reserved":false,"is_disabled":false,"rental_uris":{"android":"levelo://app?vid=8c63a824-85fe-456f-91a0-aba3b9a1778d","ios":"levelo://app?vid=8c63a824-85fe-456f-91a0-aba3b9a1778d"},"vehicle_type_id":"4","last_reported":1716826131,"current_range_meters":5600,"station_id":"ce4bgvp2rcd13ifvqcu0","pricing_plan_id":"cebpf4jnsgd1na2vs0mg"},{"bike_id":"3f8b6353-3bd9-46cc-b4c4-0a80da6a6e9f","system_id":"levelo_inurba_marseille","lat":43.291994,"lon":5.357886,"is_reserved":false,"is_disabled":false,"rental_uris":{"android":"levelo://app?vid=3f8b6353-3bd9-46cc-b4c4-0a80da6a6e9f","ios":"levelo://app?vid=3f8b6353-3bd9-46cc-b4c4-0a80da6a6e9f"},"vehicle_type_id":"4","last_reported":1716826131,"current_range_meters":21200,"station_id":"ce4bhb12rcd13ifvqel0","pricing_plan_id":"cebpf4jnsgd1na2vs0mg"},{"bike_id":"0cf3cd56-4874-434f-b5c6-fb988175037a","system_id":"levelo_inurba_marseille","lat":43.313291,"lon":5.396838,"is_reserved":false,"is_disabled":false,"rental_uris":{"android":"levelo://app?vid=0cf3cd56-4874-434f-b5c6-fb988175037a","ios":"levelo://app?vid=0cf3cd56-4874-434f-b5c6-fb988175037a"},"vehicle_type_id":"4","last_reported":1716826131,"current_range_meters":16000,"station_id":"ce4bgvp2rcd13ifvqcu0","pricing_plan_id":"cebpf4jnsgd1na2vs0mg"},{"bike_id":"978691fa-db34-4467-9ca6-116895b254f3","system_id":"levelo_inurba_marseille","lat":43.291994,"lon":5.357886,"is_reserved":false,"is_disabled":false,"rental_uris":{"android":"levelo://app?vid=978691fa-db34-4467-9ca6-116895b254f3","ios":"levelo://app?vid=978691fa-db34-4467-9ca6-116895b254f3"},"vehicle_type_id":"4","last_reported":1716826131,"current_range_meters":0,"station_id":"ce4bhb12rcd13ifvqel0","pricing_plan_id":"cebpf4jnsgd1na2vs0mg"},{"bike_id":"77385ce0-cf0a-422a-ab8f-8f90a103b5a7","system_id":"levelo_inurba_marseille","lat":43.291994,"lon":5.357886,"is_reserved":false,"is_disabled":false,"rental_uris":{"android":"levelo://app?vid=77385ce0-cf0a-422a-ab8f-8f90a103b5a7","ios":"levelo://app?vid=77385ce0-cf0a-422a-ab8f-8f90a103b5a7"},"vehicle_type_id":"4","last_reported":1716826131,"current_range_meters":22400,"station_id":"ce4bhb12rcd13ifvqel0","pricing_plan_id":"cebpf4jnsgd1na2vs0mg"},{"bike_id":"0ac1c7d3-8fdd-4abd-9d7c-8e617f959db8","system_id":"levelo_inurba_marseille","lat":43.291994,"lon":5.357886,"is_reserved":false,"is_disabled":false,"rental_uris":{"android":"levelo://app?vid=0ac1c7d3-8fdd-4abd-9d7c-8e617f959db8","ios":"levelo://app?vid=0ac1c7d3-8fdd-4abd-9d7c-8e617f959db8"},"vehicle_type_id":"4","last_reported":1716826131,"current_range_meters":26400,"station_id":"ce4bhb12rcd13ifvqel0","pricing_plan_id":"cebpf4jnsgd1na2vs0mg"},{"bike_id":"375a8cee-8730-4a24-8689-55f451196b86","system_id":"levelo_inurba_marseille","lat":43.313291,"lon":5.396838,"is_reserved":false,"is_disabled":false,"rental_uris":{"android":"levelo://app?vid=375a8cee-8730-4a24-8689-55f451196b86","ios":"levelo://app?vid=375a8cee-8730-4a24-8689-55f451196b86"},"vehicle_type_id":"4","last_reported":1716826131,"current_range_meters":3200,"station_id":"ce4bgvp2rcd13ifvqcu0","pricing_plan_id":"cebpf4jnsgd1na2vs0mg"},{"bike_id":"65760105-0ef8-43d8-b491-b14aed27373f","system_id":"levelo_inurba_marseille","lat":43.313291,"lon":5.396838,"is_reserved":false,"is_disabled":false,"rental_uris":{"android":"levelo://app?vid=65760105-0ef8-43d8-b491-b14aed27373f","ios":"levelo://app?vid=65760105-0ef8-43d8-b491-b14aed27373f"},"vehicle_type_id":"4","last_reported":1716826131,"current_range_meters":30400,"station_id":"ce4bgvp2rcd13ifvqcu0","pricing_plan_id":"cebpf4jnsgd1na2vs0mg"},{"bike_id":"bc4a1b68-aba3-4712-adea-66641b5f3237","system_id":"levelo_inurba_marseille","lat":43.313291,"lon":5.396838,"is_reserved":false,"is_disabled":false,"rental_uris":{"android":"levelo://app?vid=bc4a1b68-aba3-4712-adea-66641b5f3237","ios":"levelo://app?vid=bc4a1b68-aba3-4712-adea-66641b5f3237"},"vehicle_type_id":"4","last_reported":1716826131,"current_range_meters":16000,"station_id":"ce4bgvp2rcd13ifvqcu0","pricing_plan_id":"cebpf4jnsgd1na2vs0mg"},{"bike_id":"d8fdb116-6437-42d5-a985-870592bffe44","system_id":"levelo_inurba_marseille","lat":43.313291,"lon":5.396838,"is_reserved":false,"is_disabled":false,"rental_uris":{"android":"levelo://app?vid=d8fdb116-6437-42d5-a985-870592bffe44","ios":"levelo://app?vid=d8fdb116-6437-42d5-a985-870592bffe44"},"vehicle_type_id":"4","last_reported":1716826131,"current_range_meters":16800,"station_id":"ce4bgvp2rcd13ifvqcu0","pricing_plan_id":"cebpf4jnsgd1na2vs0mg"},{"bike_id":"8864bb29-426e-4137-b4c4-23ef7c448e7d","system_id":"levelo_inurba_marseille","lat":43.313291,"lon":5.396838,"is_reserved":false,"is_disabled":false,"rental_uris":{"android":"levelo://app?vid=8864bb29-426e-4137-b4c4-23ef7c448e7d","ios":"levelo://app?vid=8864bb29-426e-4137-b4c4-23ef7c448e7d"},"vehicle_type_id":"4","last_reported":1716826131,"current_range_meters":2800,"station_id":"ce4bgvp2rcd13ifvqcu0","pricing_plan_id":"cebpf4jnsgd1na2vs0mg"},{"bike_id":"19c56c30-f66f-44a6-ad47-dc5a3323b280","system_id":"levelo_inurba_marseille","lat":43.313291,"lon":5.396838,"is_reserved":false,"is_disabled":false,"rental_uris":{"android":"levelo://app?vid=19c56c30-f66f-44a6-ad47-dc5a3323b280","ios":"levelo://app?vid=19c56c30-f66f-44a6-ad47-dc5a3323b280"},"vehicle_type_id":"4","last_reported":1716826131,"current_range_meters":31600,"station_id":"ce4bgvp2rcd13ifvqcu0","pricing_plan_id":"cebpf4jnsgd1na2vs0mg"},{"bike_id":"5238b5bc-9b99-4c58-9d2d-0234a10806c0","system_id":"levelo_inurba_marseille","lat":43.29529,"lon":5.385581,"is_reserved":false,"is_disabled":false,"rental_uris":{"android":"levelo://app?vid=5238b5bc-9b99-4c58-9d2d-0234a10806c0","ios":"levelo://app?vid=5238b5bc-9b99-4c58-9d2d-0234a10806c0"},"vehicle_type_id":"4","last_reported":1716826131,"current_range_meters":14800,"station_id":"ce4bgih2rcd13ifvqba0","pricing_plan_id":"cebpf4jnsgd1na2vs0mg"},{"bike_id":"740cc4d3-ece7-4376-9f9b-92c2c486e654","system_id":"levelo_inurba_marseille","lat":43.29529,"lon":5.385581,"is_reserved":false,"is_disabled":false,"rental_uris":{"android":"levelo://app?vid=740cc4d3-ece7-4376-9f9b-92c2c486e654","ios":"levelo://app?vid=740cc4d3-ece7-4376-9f9b-92c2c486e654"},"vehicle_type_id":"4","last_reported":1716826131,"current_range_meters":800,"station_id":"ce4bgih2rcd13ifvqba0","pricing_plan_id":"cebpf4jnsgd1na2vs0mg"},{"bike_id":"f74a090d-de89-4b6c-a8f2-3a375b6b60e8","system_id":"levelo_inurba_marseille","lat":43.29529,"lon":5.385581,"is_reserved":false,"is_disabled":false,"rental_uris":{"android":"levelo://app?vid=f74a090d-de89-4b6c-a8f2-3a375b6b60e8","ios":"levelo://app?vid=f74a090d-de89-4b6c-a8f2-3a375b6b60e8"},"vehicle_type_id":"4","last_reported":1716826131,"current_range_meters":18800,"station_id":"ce4bgih2rcd13ifvqba0","pricing_plan_id":"cebpf4jnsgd1na2vs0mg"},{"bike_id":"617ccd2b-c78e-45d7-93b3-e4df61639c09","system_id":"levelo_inurba_marseille","lat":43.29529,"lon":5.385581,"is_reserved":false,"is_disabled":false,"rental_uris":{"android":"levelo://app?vid=617ccd2b-c78e-45d7-93b3-e4df61639c09","ios":"levelo://app?vid=617ccd2b-c78e-45d7-93b3-e4df61639c09"},"vehicle_type_id":"4","last_reported":1716826131,"current_range_meters":26800,"station_id":"ce4bgih2rcd13ifvqba0","pricing_plan_id":"cebpf4jnsgd1na2vs0mg"},{"bike_id":"fcca32d5-df5d-49ec-973a-02dd16a6bb8b","system_id":"levelo_inurba_marseille","lat":43.302008,"lon":5.394694,"is_reserved":false,"is_disabled":false,"rental_uris":{"android":"levelo://app?vid=fcca32d5-df5d-49ec-973a-02dd16a6bb8b","ios":"levelo://app?vid=fcca32d5-df5d-49ec-973a-02dd16a6bb8b"},"vehicle_type_id":"4","last_reported":1716826131,"current_range_meters":10000,"station_id":"ce4bh0p2rcd13ifvqd70","pricing_plan_id":"cebpf4jnsgd1na2vs0mg"},{"bike_id":"30667892-7763-4a58-9141-93e3ba6b3a27","system_id":"levelo_inurba_marseille","lat":43.302008,"lon":5.394694,"is_reserved":false,"is_disabled":false,"rental_uris":{"android":"levelo://app?vid=30667892-7763-4a58-9141-93e3ba6b3a27","ios":"levelo://app?vid=30667892-7763-4a58-9141-93e3ba6b3a27"},"vehicle_type_id":"4","last_reported":1716826131,"current_range_meters":3600,"station_id":"ce4bh0p2rcd13ifvqd70","pricing_plan_id":"cebpf4jnsgd1na2vs0mg"},{"bike_id":"d5b30a76-9ca7-46ec-a342-72ac65ba08ad","system_id":"levelo_inurba_marseille","lat":43.305994,"lon":5.393687,"is_reserved":false,"is_disabled":false,"rental_uris":{"android":"levelo://app?vid=d5b30a76-9ca7-46ec-a342-72ac65ba08ad","ios":"levelo://app?vid=d5b30a76-9ca7-46ec-a342-72ac65ba08ad"},"vehicle_type_id":"4","last_reported":1716826131,"current_range_meters":400,"station_id":"ce4bh0p2rcd13ifvqd80","pricing_plan_id":"cebpf4jnsgd1na2vs0mg"},{"bike_id":"30f18d23-bbf2-4c03-8f09-2691891a377e","system_id":"levelo_inurba_marseille","lat":43.289608,"lon":5.364238,"is_reserved":false,"is_disabled":false,"rental_uris":{"android":"levelo://app?vid=30f18d23-bbf2-4c03-8f09-2691891a377e","ios":"levelo://app?vid=30f18d23-bbf2-4c03-8f09-2691891a377e"},"vehicle_type_id":"4","last_reported":1716826131,"current_range_meters":1200,"station_id":"","pricing_plan_id":"cebpf4jnsgd1na2vs0mg"},{"bike_id":"81b1ba06-4f09-4448-bf2e-f4bacfb55d03","system_id":"levelo_inurba_marseille","lat":43.290327,"lon":5.375711,"is_reserved":false,"is_disabled":false,"rental_uris":{"android":"levelo://app?vid=81b1ba06-4f09-4448-bf2e-f4bacfb55d03","ios":"levelo://app?vid=81b1ba06-4f09-4448-bf2e-f4bacfb55d03"},"vehicle_type_id":"4","last_reported":1716826131,"current_range_meters":0,"station_id":"ce4bh692rcd13ifvqe90","pricing_plan_id":"cebpf4jnsgd1na2vs0mg"},{"bike_id":"abe9c4cf-9682-4846-b036-e20ddce44669","system_id":"levelo_inurba_marseille","lat":43.290327,"lon":5.375711,"is_reserved":false,"is_disabled":false,"rental_uris":{"android":"levelo://app?vid=abe9c4cf-9682-4846-b036-e20ddce44669","ios":"levelo://app?vid=abe9c4cf-9682-4846-b036-e20ddce44669"},"vehicle_type_id":"4","last_reported":1716826131,"current_range_meters":800,"station_id":"ce4bh692rcd13ifvqe90","pricing_plan_id":"cebpf4jnsgd1na2vs0mg"},{"bike_id":"7f82f821-ee89-4710-b5d9-ca3bd109b01f","system_id":"levelo_inurba_marseille","lat":43.290404,"lon":5.375841,"is_reserved":false,"is_disabled":false,"rental_uris":{"android":"levelo://app?vid=7f82f821-ee89-4710-b5d9-ca3bd109b01f","ios":"levelo://app?vid=7f82f821-ee89-4710-b5d9-ca3bd109b01f"},"vehicle_type_id":"4","last_reported":1716826131,"current_range_meters":0,"station_id":"ce4bh692rcd13ifvqe90","pricing_plan_id":"cebpf4jnsgd1na2vs0mg"},{"bike_id":"c20fb5a1-136c-438f-aa3c-ea1fdd87e7ed","system_id":"levelo_inurba_marseille","lat":43.29418,"lon":5.3862,"is_reserved":false,"is_disabled":false,"rental_uris":{"android":"levelo://app?vid=c20fb5a1-136c-438f-aa3c-ea1fdd87e7ed","ios":"levelo://app?vid=c20fb5a1-136c-438f-aa3c-ea1fdd87e7ed"},"vehicle_type_id":"4","last_reported":1716826131,"current_range_meters":17600,"station_id":"ce4bh2h2rcd13ifvqdh0","pricing_plan_id":"cebpf4jnsgd1na2vs0mg"},{"bike_id":"6d6e1f5b-a054-4545-859a-f05d64cc54c8","system_id":"levelo_inurba_marseille","lat":43.29421,"lon":5.38626,"is_reserved":false,"is_disabled":false,"rental_uris":{"android":"levelo://app?vid=6d6e1f5b-a054-4545-859a-f05d64cc54c8","ios":"levelo://app?vid=6d6e1f5b-a054-4545-859a-f05d64cc54c8"},"vehicle_type_id":"4","last_reported":1716826131,"current_range_meters":0,"station_id":"ce4bh2h2rcd13ifvqdh0","pricing_plan_id":"cebpf4jnsgd1na2vs0mg"},{"bike_id":"45df8686-af4a-44be-a330-daf2464a8cbf","system_id":"levelo_inurba_marseille","lat":43.29416,"lon":5.38618,"is_reserved":false,"is_disabled":false,"rental_uris":{"android":"levelo://app?vid=45df8686-af4a-44be-a330-daf2464a8cbf","ios":"levelo://app?vid=45df8686-af4a-44be-a330-daf2464a8cbf"},"vehicle_type_id":"4","last_reported":1716826131,"current_range_meters":17600,"station_id":"ce4bh2h2rcd13ifvqdh0","pricing_plan_id":"cebpf4jnsgd1na2vs0mg"},{"bike_id":"7f0a238d-6c66-4f7d-893e-5b4276f2253f","system_id":"levelo_inurba_marseille","lat":43.29414,"lon":5.38624,"is_reserved":false,"is_disabled":false,"rental_uris":{"android":"levelo://app?vid=7f0a238d-6c66-4f7d-893e-5b4276f2253f","ios":"levelo://app?vid=7f0a238d-6c66-4f7d-893e-5b4276f2253f"},"vehicle_type_id":"4","last_reported":1716826131,"current_range_meters":12400,"station_id":"ce4bh2h2rcd13ifvqdh0","pricing_plan_id":"cebpf4jnsgd1na2vs0mg"},{"bike_id":"e5d83c1d-9e35-4334-b9be-93a567ddcea8","system_id":"levelo_inurba_marseille","lat":43.289468,"lon":5.363719,"is_reserved":false,"is_disabled":false,"rental_uris":{"android":"levelo://app?vid=e5d83c1d-9e35-4334-b9be-93a567ddcea8","ios":"levelo://app?vid=e5d83c1d-9e35-4334-b9be-93a567ddcea8"},"vehicle_type_id":"4","last_reported":1716826131,"current_range_meters":15200,"station_id":"ce4bhc92rcd13ifvqetg","pricing_plan_id":"cebpf4jnsgd1na2vs0mg"},{"bike_id":"50906065-2186-46ea-acab-a0b2a5cd9d69","system_id":"levelo_inurba_marseille","lat":43.290319,"lon":5.375732,"is_reserved":false,"is_disabled":false,"rental_uris":{"android":"levelo://app?vid=50906065-2186-46ea-acab-a0b2a5cd9d69","ios":"levelo://app?vid=50906065-2186-46ea-acab-a0b2a5cd9d69"},"vehicle_type_id":"4","last_reported":1716826131,"current_range_meters":24000,"station_id":"ce4bh692rcd13ifvqe90","pricing_plan_id":"cebpf4jnsgd1na2vs0mg"},{"bike_id":"c401d318-c9a0-463d-a3d3-48a5d6688431","system_id":"levelo_inurba_marseille","lat":43.289497,"lon":5.364059,"is_reserved":false,"is_disabled":false,"rental_uris":{"android":"levelo://app?vid=c401d318-c9a0-463d-a3d3-48a5d6688431","ios":"levelo://app?vid=c401d318-c9a0-463d-a3d3-48a5d6688431"},"vehicle_type_id":"4","last_reported":1716826131,"current_range_meters":0,"station_id":"ce4bhc92rcd13ifvqetg","pricing_plan_id":"cebpf4jnsgd1na2vs0mg"},{"bike_id":"92a60bbc-1b84-4b9b-9c0e-00302fafb25e","system_id":"levelo_inurba_marseille","lat":43.289468,"lon":5.363719,"is_reserved":false,"is_disabled":false,"rental_uris":{"android":"levelo://app?vid=92a60bbc-1b84-4b9b-9c0e-00302fafb25e","ios":"levelo://app?vid=92a60bbc-1b84-4b9b-9c0e-00302fafb25e"},"vehicle_type_id":"4","last_reported":1716826131,"current_range_meters":0,"station_id":"ce4bhc92rcd13ifvqetg","pricing_plan_id":"cebpf4jnsgd1na2vs0mg"},{"bike_id":"0e90d0ff-cb8b-4b37-a14f-2992d9904298","system_id":"levelo_inurba_marseille","lat":43.29529,"lon":5.385581,"is_reserved":false,"is_disabled":false,"rental_uris":{"android":"levelo://app?vid=0e90d0ff-cb8b-4b37-a14f-2992d9904298","ios":"levelo://app?vid=0e90d0ff-cb8b-4b37-a14f-2992d9904298"},"vehicle_type_id":"4","last_reported":1716826131,"current_range_meters":18000,"station_id":"ce4bgih2rcd13ifvqba0","pricing_plan_id":"cebpf4jnsgd1na2vs0mg"},{"bike_id":"cca0ae77-c96f-41e5-99c3-5c0516c3d7de","system_id":"levelo_inurba_marseille","lat":43.304296,"lon":5.397513,"is_reserved":false,"is_disabled":false,"rental_uris":{"android":"levelo://app?vid=cca0ae77-c96f-41e5-99c3-5c0516c3d7de","ios":"levelo://app?vid=cca0ae77-c96f-41e5-99c3-5c0516c3d7de"},"vehicle_type_id":"4","last_reported":1716826131,"current_range_meters":18400,"station_id":"ce4bh092rcd13ifvqd20","pricing_plan_id":"cebpf4jnsgd1na2vs0mg"},{"bike_id":"785f4dd3-303a-45e0-81c1-c186fe0ca071","system_id":"levelo_inurba_marseille","lat":43.319935,"lon":5.381699,"is_reserved":false,"is_disabled":false,"rental_uris":{"android":"levelo://app?vid=785f4dd3-303a-45e0-81c1-c186fe0ca071","ios":"levelo://app?vid=785f4dd3-303a-45e0-81c1-c186fe0ca071"},"vehicle_type_id":"4","last_reported":1716826131,"current_range_meters":7200,"station_id":"ce4bhr12rcd13ifvqhpg","pricing_plan_id":"cebpf4jnsgd1na2vs0mg"},{"bike_id":"7d596b8b-f7e5-4fea-8476-6208b16b9e79","system_id":"levelo_inurba_marseille","lat":43.292642,"lon":5.384254,"is_reserved":false,"is_disabled":false,"rental_uris":{"android":"levelo://app?vid=7d596b8b-f7e5-4fea-8476-6208b16b9e79","ios":"levelo://app?vid=7d596b8b-f7e5-4fea-8476-6208b16b9e79"},"vehicle_type_id":"4","last_reported":1716826131,"current_range_meters":10400,"station_id":"ce4bh692rcd13ifvqea0","pricing_plan_id":"cebpf4jnsgd1na2vs0mg"},{"bike_id":"5b5f85c2-d110-44b3-9505-07b6075c171f","system_id":"levelo_inurba_marseille","lat":43.290104,"lon":5.356111,"is_reserved":false,"is_disabled":false,"rental_uris":{"android":"levelo://app?vid=5b5f85c2-d110-44b3-9505-07b6075c171f","ios":"levelo://app?vid=5b5f85c2-d110-44b3-9505-07b6075c171f"},"vehicle_type_id":"4","last_reported":1716826131,"current_range_meters":6800,"station_id":"ce4bhb92rcd13ifvqen0","pricing_plan_id":"cebpf4jnsgd1na2vs0mg"},{"bike_id":"9885e766-ab16-473e-b105-e88e788e67d6","system_id":"levelo_inurba_marseille","lat":43.330442,"lon":5.389148,"is_reserved":false,"is_disabled":false,"rental_uris":{"android":"levelo://app?vid=9885e766-ab16-473e-b105-e88e788e67d6","ios":"levelo://app?vid=9885e766-ab16-473e-b105-e88e788e67d6"},"vehicle_type_id":"4","last_reported":1716826131,"current_range_meters":16000,"station_id":"ce4bhr92rcd13ifvqhrg","pricing_plan_id":"cebpf4jnsgd1na2vs0mg"},{"bike_id":"db78a010-96f9-417e-8bcf-6fb1aeffc585","system_id":"levelo_inurba_marseille","lat":43.290995,"lon":5.381361,"is_reserved":false,"is_disabled":false,"rental_uris":{"android":"levelo://app?vid=db78a010-96f9-417e-8bcf-6fb1aeffc585","ios":"levelo://app?vid=db78a010-96f9-417e-8bcf-6fb1aeffc585"},"vehicle_type_id":"4","last_reported":1716826131,"current_range_meters":5200,"station_id":"ce4bh512rcd13ifvqe2g","pricing_plan_id":"cebpf4jnsgd1na2vs0mg"},{"bike_id":"ab613b1a-5f35-4474-9016-45b89654f530","system_id":"levelo_inurba_marseille","lat":43.289743,"lon":5.378304,"is_reserved":false,"is_disabled":false,"rental_uris":{"android":"levelo://app?vid=ab613b1a-5f35-4474-9016-45b89654f530","ios":"levelo://app?vid=ab613b1a-5f35-4474-9016-45b89654f530"},"vehicle_type_id":"4","last_reported":1716826131,"current_range_meters":15200,"station_id":"ce4bh9p2rcd13ifvqed0","pricing_plan_id":"cebpf4jnsgd1na2vs0mg"},{"bike_id":"6f723052-3136-42e4-86c6-77a60dd36c7d","system_id":"levelo_inurba_marseille","lat":43.289743,"lon":5.378304,"is_reserved":false,"is_disabled":false,"rental_uris":{"android":"levelo://app?vid=6f723052-3136-42e4-86c6-77a60dd36c7d","ios":"levelo://app?vid=6f723052-3136-42e4-86c6-77a60dd36c7d"},"vehicle_type_id":"4","last_reported":1716826131,"current_range_meters":0,"station_id":"ce4bh9p2rcd13ifvqed0","pricing_plan_id":"cebpf4jnsgd1na2vs0mg"},{"bike_id":"1f83cfa2-6617-4d56-9f24-dfa69fe4b959","system_id":"levelo_inurba_marseille","lat":43.295169,"lon":5.390426,"is_reserved":false,"is_disabled":false,"rental_uris":{"android":"levelo://app?vid=1f83cfa2-6617-4d56-9f24-dfa69fe4b959","ios":"levelo://app?vid=1f83cfa2-6617-4d56-9f24-dfa69fe4b959"},"vehicle_type_id":"4","last_reported":1716826131,"current_range_meters":24400,"station_id":"ce4bh3p2rcd13ifvqdp0","pricing_plan_id":"cebpf4jnsgd1na2vs0mg"},{"bike_id":"e4771e1a-b60f-47b8-a3cc-97ea66dd4a5e","system_id":"levelo_inurba_marseille","lat":43.295169,"lon":5.390426,"is_reserved":false,"is_disabled":false,"rental_uris":{"android":"levelo://app?vid=e4771e1a-b60f-47b8-a3cc-97ea66dd4a5e","ios":"levelo://app?vid=e4771e1a-b60f-47b8-a3cc-97ea66dd4a5e"},"vehicle_type_id":"4","last_reported":1716826131,"current_range_meters":18400,"station_id":"ce4bh3p2rcd13ifvqdp0","pricing_plan_id":"cebpf4jnsgd1na2vs0mg"},{"bike_id":"ca2274a1-48bf-4d11-adda-7079530b2046","system_id":"levelo_inurba_marseille","lat":43.330442,"lon":5.389148,"is_reserved":false,"is_disabled":false,"rental_uris":{"android":"levelo://app?vid=ca2274a1-48bf-4d11-adda-7079530b2046","ios":"levelo://app?vid=ca2274a1-48bf-4d11-adda-7079530b2046"},"vehicle_type_id":"4","last_reported":1716826131,"current_range_meters":21200,"station_id":"ce4bhr92rcd13ifvqhrg","pricing_plan_id":"cebpf4jnsgd1na2vs0mg"},{"bike_id":"b17982e7-e2bd-427e-b7fd-304fe7be85cc","system_id":"levelo_inurba_marseille","lat":43.295169,"lon":5.390426,"is_reserved":false,"is_disabled":false,"rental_uris":{"android":"levelo://app?vid=b17982e7-e2bd-427e-b7fd-304fe7be85cc","ios":"levelo://app?vid=b17982e7-e2bd-427e-b7fd-304fe7be85cc"},"vehicle_type_id":"4","last_reported":1716826131,"current_range_meters":7200,"station_id":"ce4bh3p2rcd13ifvqdp0","pricing_plan_id":"cebpf4jnsgd1na2vs0mg"},{"bike_id":"da79e517-8b2f-4a82-a256-ab2e254ec4f9","system_id":"levelo_inurba_marseille","lat":43.330442,"lon":5.389148,"is_reserved":false,"is_disabled":false,"rental_uris":{"android":"levelo://app?vid=da79e517-8b2f-4a82-a256-ab2e254ec4f9","ios":"levelo://app?vid=da79e517-8b2f-4a82-a256-ab2e254ec4f9"},"vehicle_type_id":"4","last_reported":1716826131,"current_range_meters":8800,"station_id":"ce4bhr92rcd13ifvqhrg","pricing_plan_id":"cebpf4jnsgd1na2vs0mg"},{"bike_id":"50516afc-b5d5-42f8-a633-ec279901186d","system_id":"levelo_inurba_marseille","lat":43.295169,"lon":5.390426,"is_reserved":false,"is_disabled":false,"rental_uris":{"android":"levelo://app?vid=50516afc-b5d5-42f8-a633-ec279901186d","ios":"levelo://app?vid=50516afc-b5d5-42f8-a633-ec279901186d"},"vehicle_type_id":"4","last_reported":1716826131,"current_range_meters":24800,"station_id":"ce4bh3p2rcd13ifvqdp0","pricing_plan_id":"cebpf4jnsgd1na2vs0mg"},{"bike_id":"06609689-11e1-4dcd-9015-4028ab0384ad","system_id":"levelo_inurba_marseille","lat":43.330442,"lon":5.389148,"is_reserved":false,"is_disabled":false,"rental_uris":{"android":"levelo://app?vid=06609689-11e1-4dcd-9015-4028ab0384ad","ios":"levelo://app?vid=06609689-11e1-4dcd-9015-4028ab0384ad"},"vehicle_type_id":"4","last_reported":1716826131,"current_range_meters":14400,"station_id":"ce4bhr92rcd13ifvqhrg","pricing_plan_id":"cebpf4jnsgd1na2vs0mg"},{"bike_id":"d4f72ce2-4a37-47e3-819d-7c21d06d8657","system_id":"levelo_inurba_marseille","lat":43.2901,"lon":5.381269,"is_reserved":false,"is_disabled":false,"rental_uris":{"android":"levelo://app?vid=d4f72ce2-4a37-47e3-819d-7c21d06d8657","ios":"levelo://app?vid=d4f72ce2-4a37-47e3-819d-7c21d06d8657"},"vehicle_type_id":"4","last_reported":1716826131,"current_range_meters":0,"station_id":"ce4bh4p2rcd13ifvqe1g","pricing_plan_id":"cebpf4jnsgd1na2vs0mg"},{"bike_id":"05f71bd8-c1d4-4c76-8ad2-2163f3065631","system_id":"levelo_inurba_marseille","lat":43.28856,"lon":5.358371,"is_reserved":false,"is_disabled":false,"rental_uris":{"android":"levelo://app?vid=05f71bd8-c1d4-4c76-8ad2-2163f3065631","ios":"levelo://app?vid=05f71bd8-c1d4-4c76-8ad2-2163f3065631"},"vehicle_type_id":"4","last_reported":1716826131,"current_range_meters":20000,"station_id":"ce4bhb12rcd13ifvqem0","pricing_plan_id":"cebpf4jnsgd1na2vs0mg"},{"bike_id":"eba7fe01-c9d7-4332-8650-e0212eea5660","system_id":"levelo_inurba_marseille","lat":43.28856,"lon":5.358371,"is_reserved":false,"is_disabled":false,"rental_uris":{"android":"levelo://app?vid=eba7fe01-c9d7-4332-8650-e0212eea5660","ios":"levelo://app?vid=eba7fe01-c9d7-4332-8650-e0212eea5660"},"vehicle_type_id":"4","last_reported":1716826131,"current_range_meters":23200,"station_id":"ce4bhb12rcd13ifvqem0","pricing_plan_id":"cebpf4jnsgd1na2vs0mg"},{"bike_id":"50e7c8da-1b51-4bfb-910b-b12345edc592","system_id":"levelo_inurba_marseille","lat":43.28856,"lon":5.358371,"is_reserved":false,"is_disabled":false,"rental_uris":{"android":"levelo://app?vid=50e7c8da-1b51-4bfb-910b-b12345edc592","ios":"levelo://app?vid=50e7c8da-1b51-4bfb-910b-b12345edc592"},"vehicle_type_id":"4","last_reported":1716826131,"current_range_meters":12800,"station_id":"ce4bhb12rcd13ifvqem0","pricing_plan_id":"cebpf4jnsgd1na2vs0mg"},{"bike_id":"8564257d-6928-4aa2-abb1-20cb5670c7cd","system_id":"levelo_inurba_marseille","lat":43.312609,"lon":5.401662,"is_reserved":false,"is_disabled":false,"rental_uris":{"android":"levelo://app?vid=8564257d-6928-4aa2-abb1-20cb5670c7cd","ios":"levelo://app?vid=8564257d-6928-4aa2-abb1-20cb5670c7cd"},"vehicle_type_id":"4","last_reported":1716826131,"current_range_meters":4400,"station_id":"ce4bh092rcd13ifvqd30","pricing_plan_id":"cebpf4jnsgd1na2vs0mg"},{"bike_id":"c210d337-75e5-49ea-86f3-96f53b9ab4c9","system_id":"levelo_inurba_marseille","lat":43.290345,"lon":5.38646,"is_reserved":false,"is_disabled":false,"rental_uris":{"android":"levelo://app?vid=c210d337-75e5-49ea-86f3-96f53b9ab4c9","ios":"levelo://app?vid=c210d337-75e5-49ea-86f3-96f53b9ab4c9"},"vehicle_type_id":"4","last_reported":1716826131,"current_range_meters":0,"station_id":"ce4bh4p2rcd13ifvqe0g","pricing_plan_id":"cebpf4jnsgd1na2vs0mg"},{"bike_id":"2fcba6e8-2ff9-405b-805f-827169604f5b","system_id":"levelo_inurba_marseille","lat":43.290094,"lon":5.381264,"is_reserved":false,"is_disabled":false,"rental_uris":{"android":"levelo://app?vid=2fcba6e8-2ff9-405b-805f-827169604f5b","ios":"levelo://app?vid=2fcba6e8-2ff9-405b-805f-827169604f5b"},"vehicle_type_id":"4","last_reported":1716826131,"current_range_meters":22400,"station_id":"ce4bh4p2rcd13ifvqe1g","pricing_plan_id":"cebpf4jnsgd1na2vs0mg"},{"bike_id":"c817be8a-4d3f-428e-9e83-fb97be659edc","system_id":"levelo_inurba_marseille","lat":43.33739,"lon":5.37443,"is_reserved":false,"is_disabled":false,"rental_uris":{"android":"levelo://app?vid=c817be8a-4d3f-428e-9e83-fb97be659edc","ios":"levelo://app?vid=c817be8a-4d3f-428e-9e83-fb97be659edc"},"vehicle_type_id":"4","last_reported":1716826131,"current_range_meters":16800,"station_id":"","pricing_plan_id":"cebpf4jnsgd1na2vs0mg"},{"bike_id":"692ca19f-0574-4a95-a62a-6faaf8808531","system_id":"levelo_inurba_marseille","lat":43.312609,"lon":5.401662,"is_reserved":false,"is_disabled":false,"rental_uris":{"android":"levelo://app?vid=692ca19f-0574-4a95-a62a-6faaf8808531","ios":"levelo://app?vid=692ca19f-0574-4a95-a62a-6faaf8808531"},"vehicle_type_id":"4","last_reported":1716826131,"current_range_meters":17200,"station_id":"ce4bh092rcd13ifvqd30","pricing_plan_id":"cebpf4jnsgd1na2vs0mg"},{"bike_id":"442823c7-4ed6-46e3-a9c7-693cf82845f9","system_id":"levelo_inurba_marseille","lat":43.306457,"lon":5.400567,"is_reserved":false,"is_disabled":false,"rental_uris":{"android":"levelo://app?vid=442823c7-4ed6-46e3-a9c7-693cf82845f9","ios":"levelo://app?vid=442823c7-4ed6-46e3-a9c7-693cf82845f9"},"vehicle_type_id":"4","last_reported":1716826131,"current_range_meters":18400,"station_id":"","pricing_plan_id":"cebpf4jnsgd1na2vs0mg"},{"bike_id":"e7470d04-1bf2-4ee8-9675-6d33bc9b431a","system_id":"levelo_inurba_marseille","lat":43.312609,"lon":5.401662,"is_reserved":false,"is_disabled":false,"rental_uris":{"android":"levelo://app?vid=e7470d04-1bf2-4ee8-9675-6d33bc9b431a","ios":"levelo://app?vid=e7470d04-1bf2-4ee8-9675-6d33bc9b431a"},"vehicle_type_id":"4","last_reported":1716826131,"current_range_meters":3600,"station_id":"ce4bh092rcd13ifvqd30","pricing_plan_id":"cebpf4jnsgd1na2vs0mg"},{"bike_id":"4a062409-595e-4997-aed3-7ecece806351","system_id":"levelo_inurba_marseille","lat":43.312609,"lon":5.401662,"is_reserved":false,"is_disabled":false,"rental_uris":{"android":"levelo://app?vid=4a062409-595e-4997-aed3-7ecece806351","ios":"levelo://app?vid=4a062409-595e-4997-aed3-7ecece806351"},"vehicle_type_id":"4","last_reported":1716826131,"current_range_meters":15600,"station_id":"ce4bh092rcd13ifvqd30","pricing_plan_id":"cebpf4jnsgd1na2vs0mg"},{"bike_id":"44151997-db3b-4a86-9e13-604761924ae3","system_id":"levelo_inurba_marseille","lat":43.312609,"lon":5.401662,"is_reserved":false,"is_disabled":false,"rental_uris":{"android":"levelo://app?vid=44151997-db3b-4a86-9e13-604761924ae3","ios":"levelo://app?vid=44151997-db3b-4a86-9e13-604761924ae3"},"vehicle_type_id":"4","last_reported":1716826131,"current_range_meters":8800,"station_id":"ce4bh092rcd13ifvqd30","pricing_plan_id":"cebpf4jnsgd1na2vs0mg"},{"bike_id":"986d7762-fcb8-4013-a6bf-27ab738a8666","system_id":"levelo_inurba_marseille","lat":43.30642,"lon":5.401031,"is_reserved":false,"is_disabled":false,"rental_uris":{"android":"levelo://app?vid=986d7762-fcb8-4013-a6bf-27ab738a8666","ios":"levelo://app?vid=986d7762-fcb8-4013-a6bf-27ab738a8666"},"vehicle_type_id":"4","last_reported":1716826131,"current_range_meters":0,"station_id":"ce4bh112rcd13ifvqda0","pricing_plan_id":"cebpf4jnsgd1na2vs0mg"},{"bike_id":"18f04b42-6d52-44b5-bce1-06a5ec01fc6c","system_id":"levelo_inurba_marseille","lat":43.309371,"lon":5.401449,"is_reserved":false,"is_disabled":false,"rental_uris":{"android":"levelo://app?vid=18f04b42-6d52-44b5-bce1-06a5ec01fc6c","ios":"levelo://app?vid=18f04b42-6d52-44b5-bce1-06a5ec01fc6c"},"vehicle_type_id":"4","last_reported":1716826131,"current_range_meters":20000,"station_id":"ce4bgvp2rcd13ifvqct0","pricing_plan_id":"cebpf4jnsgd1na2vs0mg"},{"bike_id":"a0290373-2b89-417e-82c5-596d70ed6d04","system_id":"levelo_inurba_marseille","lat":43.312609,"lon":5.401662,"is_reserved":false,"is_disabled":false,"rental_uris":{"android":"levelo://app?vid=a0290373-2b89-417e-82c5-596d70ed6d04","ios":"levelo://app?vid=a0290373-2b89-417e-82c5-596d70ed6d04"},"vehicle_type_id":"4","last_reported":1716826131,"current_range_meters":29200,"station_id":"ce4bh092rcd13ifvqd30","pricing_plan_id":"cebpf4jnsgd1na2vs0mg"},{"bike_id":"714e7ae6-b5fb-4235-a482-af5aac653ccb","system_id":"levelo_inurba_marseille","lat":43.312609,"lon":5.401662,"is_reserved":false,"is_disabled":false,"rental_uris":{"android":"levelo://app?vid=714e7ae6-b5fb-4235-a482-af5aac653ccb","ios":"levelo://app?vid=714e7ae6-b5fb-4235-a482-af5aac653ccb"},"vehicle_type_id":"4","last_reported":1716826131,"current_range_meters":17200,"station_id":"ce4bh092rcd13ifvqd30","pricing_plan_id":"cebpf4jnsgd1na2vs0mg"},{"bike_id":"a17cfedf-6adb-4ae3-8515-0929afcbc158","system_id":"levelo_inurba_marseille","lat":43.30938,"lon":5.4014,"is_reserved":false,"is_disabled":false,"rental_uris":{"android":"levelo://app?vid=a17cfedf-6adb-4ae3-8515-0929afcbc158","ios":"levelo://app?vid=a17cfedf-6adb-4ae3-8515-0929afcbc158"},"vehicle_type_id":"4","last_reported":1716826131,"current_range_meters":5200,"station_id":"ce4bgvp2rcd13ifvqct0","pricing_plan_id":"cebpf4jnsgd1na2vs0mg"},{"bike_id":"582db8a1-bfad-449b-871f-6b45daad6194","system_id":"levelo_inurba_marseille","lat":43.312609,"lon":5.401662,"is_reserved":false,"is_disabled":false,"rental_uris":{"android":"levelo://app?vid=582db8a1-bfad-449b-871f-6b45daad6194","ios":"levelo://app?vid=582db8a1-bfad-449b-871f-6b45daad6194"},"vehicle_type_id":"4","last_reported":1716826131,"current_range_meters":16800,"station_id":"ce4bh092rcd13ifvqd30","pricing_plan_id":"cebpf4jnsgd1na2vs0mg"},{"bike_id":"27a3f751-9d7b-4728-ac00-27988c686c91","system_id":"levelo_inurba_marseille","lat":43.29166,"lon":5.38622,"is_reserved":false,"is_disabled":false,"rental_uris":{"android":"levelo://app?vid=27a3f751-9d7b-4728-ac00-27988c686c91","ios":"levelo://app?vid=27a3f751-9d7b-4728-ac00-27988c686c91"},"vehicle_type_id":"4","last_reported":1716826131,"current_range_meters":17600,"station_id":"","pricing_plan_id":"cebpf4jnsgd1na2vs0mg"},{"bike_id":"d7fa5727-33fb-4872-9f66-7df54ca919ee","system_id":"levelo_inurba_marseille","lat":43.30944,"lon":5.40144,"is_reserved":false,"is_disabled":false,"rental_uris":{"android":"levelo://app?vid=d7fa5727-33fb-4872-9f66-7df54ca919ee","ios":"levelo://app?vid=d7fa5727-33fb-4872-9f66-7df54ca919ee"},"vehicle_type_id":"4","last_reported":1716826131,"current_range_meters":2800,"station_id":"ce4bgvp2rcd13ifvqct0","pricing_plan_id":"cebpf4jnsgd1na2vs0mg"},{"bike_id":"62549f73-9b25-4612-a2c5-608d5cb20473","system_id":"levelo_inurba_marseille","lat":43.309371,"lon":5.401449,"is_reserved":false,"is_disabled":false,"rental_uris":{"android":"levelo://app?vid=62549f73-9b25-4612-a2c5-608d5cb20473","ios":"levelo://app?vid=62549f73-9b25-4612-a2c5-608d5cb20473"},"vehicle_type_id":"4","last_reported":1716826131,"current_range_meters":31200,"station_id":"ce4bgvp2rcd13ifvqct0","pricing_plan_id":"cebpf4jnsgd1na2vs0mg"},{"bike_id":"e4301d34-13c2-4a24-a8e6-1ead8661417c","system_id":"levelo_inurba_marseille","lat":43.312609,"lon":5.401662,"is_reserved":false,"is_disabled":false,"rental_uris":{"android":"levelo://app?vid=e4301d34-13c2-4a24-a8e6-1ead8661417c","ios":"levelo://app?vid=e4301d34-13c2-4a24-a8e6-1ead8661417c"},"vehicle_type_id":"4","last_reported":1716826131,"current_range_meters":1600,"station_id":"ce4bh092rcd13ifvqd30","pricing_plan_id":"cebpf4jnsgd1na2vs0mg"},{"bike_id":"03d55c9e-e7e4-46b8-89d8-b1177d404865","system_id":"levelo_inurba_marseille","lat":43.309371,"lon":5.401449,"is_reserved":false,"is_disabled":false,"rental_uris":{"android":"levelo://app?vid=03d55c9e-e7e4-46b8-89d8-b1177d404865","ios":"levelo://app?vid=03d55c9e-e7e4-46b8-89d8-b1177d404865"},"vehicle_type_id":"4","last_reported":1716826131,"current_range_meters":17600,"station_id":"ce4bgvp2rcd13ifvqct0","pricing_plan_id":"cebpf4jnsgd1na2vs0mg"},{"bike_id":"d3492fff-3e8e-4049-bf5d-2399d5a945c5","system_id":"levelo_inurba_marseille","lat":43.309371,"lon":5.401449,"is_reserved":false,"is_disabled":false,"rental_uris":{"android":"levelo://app?vid=d3492fff-3e8e-4049-bf5d-2399d5a945c5","ios":"levelo://app?vid=d3492fff-3e8e-4049-bf5d-2399d5a945c5"},"vehicle_type_id":"4","last_reported":1716826131,"current_range_meters":13200,"station_id":"ce4bgvp2rcd13ifvqct0","pricing_plan_id":"cebpf4jnsgd1na2vs0mg"},{"bike_id":"745ea6ea-9d57-4a59-afa2-cce6fc0ce110","system_id":"levelo_inurba_marseille","lat":43.312609,"lon":5.401662,"is_reserved":false,"is_disabled":false,"rental_uris":{"android":"levelo://app?vid=745ea6ea-9d57-4a59-afa2-cce6fc0ce110","ios":"levelo://app?vid=745ea6ea-9d57-4a59-afa2-cce6fc0ce110"},"vehicle_type_id":"4","last_reported":1716826131,"current_range_meters":3200,"station_id":"ce4bh092rcd13ifvqd30","pricing_plan_id":"cebpf4jnsgd1na2vs0mg"},{"bike_id":"01bf7cde-d9cc-443c-b69e-5105f900839a","system_id":"levelo_inurba_marseille","lat":43.312609,"lon":5.401662,"is_reserved":false,"is_disabled":false,"rental_uris":{"android":"levelo://app?vid=01bf7cde-d9cc-443c-b69e-5105f900839a","ios":"levelo://app?vid=01bf7cde-d9cc-443c-b69e-5105f900839a"},"vehicle_type_id":"4","last_reported":1716826131,"current_range_meters":27200,"station_id":"ce4bh092rcd13ifvqd30","pricing_plan_id":"cebpf4jnsgd1na2vs0mg"},{"bike_id":"c8b53954-3d3c-4dfb-8fb7-e02fe1d32e73","system_id":"levelo_inurba_marseille","lat":43.309371,"lon":5.401449,"is_reserved":false,"is_disabled":false,"rental_uris":{"android":"levelo://app?vid=c8b53954-3d3c-4dfb-8fb7-e02fe1d32e73","ios":"levelo://app?vid=c8b53954-3d3c-4dfb-8fb7-e02fe1d32e73"},"vehicle_type_id":"4","last_reported":1716826131,"current_range_meters":31200,"station_id":"ce4bgvp2rcd13ifvqct0","pricing_plan_id":"cebpf4jnsgd1na2vs0mg"},{"bike_id":"baccf936-f14a-4353-883b-6ad7863ac28d","system_id":"levelo_inurba_marseille","lat":43.309371,"lon":5.401449,"is_reserved":false,"is_disabled":false,"rental_uris":{"android":"levelo://app?vid=baccf936-f14a-4353-883b-6ad7863ac28d","ios":"levelo://app?vid=baccf936-f14a-4353-883b-6ad7863ac28d"},"vehicle_type_id":"4","last_reported":1716826131,"current_range_meters":29600,"station_id":"ce4bgvp2rcd13ifvqct0","pricing_plan_id":"cebpf4jnsgd1na2vs0mg"},{"bike_id":"85816717-ab73-46d9-873e-2d3f2b531686","system_id":"levelo_inurba_marseille","lat":43.33752,"lon":5.3745,"is_reserved":false,"is_disabled":false,"rental_uris":{"android":"levelo://app?vid=85816717-ab73-46d9-873e-2d3f2b531686","ios":"levelo://app?vid=85816717-ab73-46d9-873e-2d3f2b531686"},"vehicle_type_id":"4","last_reported":1716826131,"current_range_meters":28400,"station_id":"","pricing_plan_id":"cebpf4jnsgd1na2vs0mg"},{"bike_id":"78643f8b-6b77-4ccb-b576-0cdd24a17f3d","system_id":"levelo_inurba_marseille","lat":43.309371,"lon":5.401449,"is_reserved":false,"is_disabled":false,"rental_uris":{"android":"levelo://app?vid=78643f8b-6b77-4ccb-b576-0cdd24a17f3d","ios":"levelo://app?vid=78643f8b-6b77-4ccb-b576-0cdd24a17f3d"},