{"last_updated":1738555916,"ttl":60,"version":"2.2","data":{"bikes":[{"bike_id":"ef1b25f8-6252-4d08-81d1-202f52136b43","system_id":"levelo_inurba_marseille","lat":43.25114,"lon":5.40325,"is_reserved":false,"is_disabled":false,"rental_uris":{"android":"levelo://app?vid=ef1b25f8-6252-4d08-81d1-202f52136b43","ios":"levelo://app?vid=ef1b25f8-6252-4d08-81d1-202f52136b43"},"vehicle_type_id":"4","last_reported":1738555916,"current_range_meters":38800,"station_id":"ce4bhlh2rcd13ifvqgig","pricing_plan_id":"cebpf4jnsgd1na2vs0mg"},{"bike_id":"7ac6de87-4cb5-4d58-adc2-a7c162322d3f","system_id":"levelo_inurba_marseille","lat":43.284745,"lon":5.384304,"is_reserved":false,"is_disabled":true,"rental_uris":{"android":"levelo://app?vid=7ac6de87-4cb5-4d58-adc2-a7c162322d3f","ios":"levelo://app?vid=7ac6de87-4cb5-4d58-adc2-a7c162322d3f"},"vehicle_type_id":"4","last_reported":1738555916,"current_range_meters":16400,"station_id":"ce4bh512rcd13ifvqe3g","pricing_plan_id":"cebpf4jnsgd1na2vs0mg"},{"bike_id":"8c87bd3f-67b7-4bf9-b37a-a227f22789fd","system_id":"levelo_inurba_marseille","lat":43.33599,"lon":5.40998,"is_reserved":false,"is_disabled":false,"rental_uris":{"android":"levelo://app?vid=8c87bd3f-67b7-4bf9-b37a-a227f22789fd","ios":"levelo://app?vid=8c87bd3f-67b7-4bf9-b37a-a227f22789fd"},"vehicle_type_id":"4","last_reported":1738555916,"current_range_meters":38800,"station_id":"ce4bhqh2rcd13ifvqhmg","pricing_plan_id":"cebpf4jnsgd1na2vs0mg"},{"bike_id":"28f2ee39-c342-4264-9aba-b44edbff64ff","system_id":"levelo_inurba_marseille","lat":43.240679,"lon":5.377449,"is_reserved":false,"is_disabled":false,"rental_uris":{"android":"levelo://app?vid=28f2ee39-c342-4264-9aba-b44edbff64ff","ios":"levelo://app?vid=28f2ee39-c342-4264-9aba-b44edbff64ff"},"vehicle_type_id":"4","last_reported":1738555916,"current_range_meters":38800,"station_id":"ce4bhnp2rcd13ifvqgvg","pricing_plan_id":"cebpf4jnsgd1na2vs0mg"},{"bike_id":"7cf39901-4fde-4dbe-b6a7-9c05d8e7becf","system_id":"levelo_inurba_marseille","lat":43.301425,"lon":5.388347,"is_reserved":false,"is_disabled":false,"rental_uris":{"android":"levelo://app?vid=7cf39901-4fde-4dbe-b6a7-9c05d8e7becf","ios":"levelo://app?vid=7cf39901-4fde-4dbe-b6a7-9c05d8e7becf"},"vehicle_type_id":"4","last_reported":1738555916,"current_range_meters":32800,"station_id":"ce4bh0h2rcd13ifvqd40","pricing_plan_id":"cebpf4jnsgd1na2vs0mg"},{"bike_id":"21ce7c90-ecf1-4c2b-ae39-e9d88703c00b","system_id":"levelo_inurba_marseille","lat":43.27201,"lon":5.39152,"is_reserved":false,"is_disabled":true,"rental_uris":{"android":"levelo://app?vid=21ce7c90-ecf1-4c2b-ae39-e9d88703c00b","ios":"levelo://app?vid=21ce7c90-ecf1-4c2b-ae39-e9d88703c00b"},"vehicle_type_id":"4","last_reported":1738555916,"current_range_meters":28400,"station_id":"ce4bhhp2rcd13ifvqfm0","pricing_plan_id":"cebpf4jnsgd1na2vs0mg"},{"bike_id":"68ec889f-fbad-4ec7-bbe1-dbda6b88a3f5","system_id":"levelo_inurba_marseille","lat":43.29027,"lon":5.38627,"is_reserved":false,"is_disabled":true,"rental_uris":{"android":"levelo://app?vid=68ec889f-fbad-4ec7-bbe1-dbda6b88a3f5","ios":"levelo://app?vid=68ec889f-fbad-4ec7-bbe1-dbda6b88a3f5"},"vehicle_type_id":"4","last_reported":1738555916,"current_range_meters":20400,"station_id":"ce4bh4p2rcd13ifvqe0g","pricing_plan_id":"cebpf4jnsgd1na2vs0mg"},{"bike_id":"19508e03-fa05-4c91-87a7-0a29ac898a81","system_id":"levelo_inurba_marseille","lat":43.2586,"lon":5.39422,"is_reserved":false,"is_disabled":false,"rental_uris":{"android":"levelo://app?vid=19508e03-fa05-4c91-87a7-0a29ac898a81","ios":"levelo://app?vid=19508e03-fa05-4c91-87a7-0a29ac898a81"},"vehicle_type_id":"4","last_reported":1738555916,"current_range_meters":16000,"station_id":"ce4bhip2rcd13ifvqft0","pricing_plan_id":"cebpf4jnsgd1na2vs0mg"},{"bike_id":"7e740250-bf93-41f3-8432-28ab58a780b3","system_id":"levelo_inurba_marseille","lat":43.30419,"lon":5.38855,"is_reserved":false,"is_disabled":false,"rental_uris":{"android":"levelo://app?vid=7e740250-bf93-41f3-8432-28ab58a780b3","ios":"levelo://app?vid=7e740250-bf93-41f3-8432-28ab58a780b3"},"vehicle_type_id":"4","last_reported":1738555916,"current_range_meters":14000,"station_id":"ce4bgk12rcd13ifvqbi0","pricing_plan_id":"cebpf4jnsgd1na2vs0mg"},{"bike_id":"62a9a0d8-18b1-4ebb-9853-eb4133e14713","system_id":"levelo_inurba_marseille","lat":43.281043,"lon":5.378438,"is_reserved":false,"is_disabled":false,"rental_uris":{"android":"levelo://app?vid=62a9a0d8-18b1-4ebb-9853-eb4133e14713","ios":"levelo://app?vid=62a9a0d8-18b1-4ebb-9853-eb4133e14713"},"vehicle_type_id":"4","last_reported":1738555916,"current_range_meters":19200,"station_id":"ce4bha12rcd13ifvqee0","pricing_plan_id":"cebpf4jnsgd1na2vs0mg"},{"bike_id":"5b4ad7df-c1f9-4dba-90ec-634b3a063554","system_id":"levelo_inurba_marseille","lat":43.31362,"lon":5.3851,"is_reserved":false,"is_disabled":false,"rental_uris":{"android":"levelo://app?vid=5b4ad7df-c1f9-4dba-90ec-634b3a063554","ios":"levelo://app?vid=5b4ad7df-c1f9-4dba-90ec-634b3a063554"},"vehicle_type_id":"4","last_reported":1738555916,"current_range_meters":36400,"station_id":"ce4bgt92rcd13ifvqcf0","pricing_plan_id":"cebpf4jnsgd1na2vs0mg"},{"bike_id":"940dcd0d-4fa5-41d2-ac6c-49ec663b7a44","system_id":"levelo_inurba_marseille","lat":43.29264,"lon":5.36858,"is_reserved":false,"is_disabled":false,"rental_uris":{"android":"levelo://app?vid=940dcd0d-4fa5-41d2-ac6c-49ec663b7a44","ios":"levelo://app?vid=940dcd0d-4fa5-41d2-ac6c-49ec663b7a44"},"vehicle_type_id":"4","last_reported":1738555916,"current_range_meters":29600,"station_id":"ce4bhbp2rcd13ifvqesg","pricing_plan_id":"cebpf4jnsgd1na2vs0mg"},{"bike_id":"fb982a78-e4ef-4837-8ef3-ee9b9509ec0c","system_id":"levelo_inurba_marseille","lat":43.295624,"lon":5.422783,"is_reserved":false,"is_disabled":false,"rental_uris":{"android":"levelo://app?vid=fb982a78-e4ef-4837-8ef3-ee9b9509ec0c","ios":"levelo://app?vid=fb982a78-e4ef-4837-8ef3-ee9b9509ec0c"},"vehicle_type_id":"4","last_reported":1738555916,"current_range_meters":38400,"station_id":"ce4bhph2rcd13ifvqhdg","pricing_plan_id":"cebpf4jnsgd1na2vs0mg"},{"bike_id":"e4ea5a29-07fb-4262-8283-b278e7a33772","system_id":"levelo_inurba_marseille","lat":43.25149,"lon":5.40363,"is_reserved":false,"is_disabled":false,"rental_uris":{"android":"levelo://app?vid=e4ea5a29-07fb-4262-8283-b278e7a33772","ios":"levelo://app?vid=e4ea5a29-07fb-4262-8283-b278e7a33772"},"vehicle_type_id":"4","last_reported":1738555916,"current_range_meters":30400,"station_id":"","pricing_plan_id":"cebpf4jnsgd1na2vs0mg"},{"bike_id":"5d48a61d-cf22-4c98-83c4-85b6c901eb8b","system_id":"levelo_inurba_marseille","lat":43.3176,"lon":5.39015,"is_reserved":false,"is_disabled":false,"rental_uris":{"android":"levelo://app?vid=5d48a61d-cf22-4c98-83c4-85b6c901eb8b","ios":"levelo://app?vid=5d48a61d-cf22-4c98-83c4-85b6c901eb8b"},"vehicle_type_id":"4","last_reported":1738555916,"current_range_meters":36400,"station_id":"ce4bhqp2rcd13ifvqhng","pricing_plan_id":"cebpf4jnsgd1na2vs0mg"},{"bike_id":"24538bde-34cb-4612-a125-4fc0f2803389","system_id":"levelo_inurba_marseille","lat":43.251059,"lon":5.403276,"is_reserved":false,"is_disabled":false,"rental_uris":{"android":"levelo://app?vid=24538bde-34cb-4612-a125-4fc0f2803389","ios":"levelo://app?vid=24538bde-34cb-4612-a125-4fc0f2803389"},"vehicle_type_id":"4","last_reported":1738555916,"current_range_meters":28800,"station_id":"ce4bhlh2rcd13ifvqgig","pricing_plan_id":"cebpf4jnsgd1na2vs0mg"},{"bike_id":"c26284e6-53ee-4b35-a0cc-ee8d0a2119d1","system_id":"levelo_inurba_marseille","lat":43.287229,"lon":5.379468,"is_reserved":false,"is_disabled":true,"rental_uris":{"android":"levelo://app?vid=c26284e6-53ee-4b35-a0cc-ee8d0a2119d1","ios":"levelo://app?vid=c26284e6-53ee-4b35-a0cc-ee8d0a2119d1"},"vehicle_type_id":"4","last_reported":1738555916,"current_range_meters":8400,"station_id":"ce4bh9p2rcd13ifvqec0","pricing_plan_id":"cebpf4jnsgd1na2vs0mg"},{"bike_id":"ad860956-64c7-422f-aea1-14604af28381","system_id":"levelo_inurba_marseille","lat":43.30791,"lon":5.38161,"is_reserved":false,"is_disabled":false,"rental_uris":{"android":"levelo://app?vid=ad860956-64c7-422f-aea1-14604af28381","ios":"levelo://app?vid=ad860956-64c7-422f-aea1-14604af28381"},"vehicle_type_id":"4","last_reported":1738555916,"current_range_meters":38800,"station_id":"ce4bgt12rcd13ifvqce0","pricing_plan_id":"cebpf4jnsgd1na2vs0mg"},{"bike_id":"c1fbf002-c448-42e6-8168-8beaa00f06c7","system_id":"levelo_inurba_marseille","lat":43.28849,"lon":5.35856,"is_reserved":false,"is_disabled":false,"rental_uris":{"android":"levelo://app?vid=c1fbf002-c448-42e6-8168-8beaa00f06c7","ios":"levelo://app?vid=c1fbf002-c448-42e6-8168-8beaa00f06c7"},"vehicle_type_id":"4","last_reported":1738555916,"current_range_meters":26800,"station_id":"ce4bhb12rcd13ifvqem0","pricing_plan_id":"cebpf4jnsgd1na2vs0mg"},{"bike_id":"40c853c0-44e5-4a47-a5e8-961c1c63a92a","system_id":"levelo_inurba_marseille","lat":43.27067,"lon":5.42279,"is_reserved":false,"is_disabled":false,"rental_uris":{"android":"levelo://app?vid=40c853c0-44e5-4a47-a5e8-961c1c63a92a","ios":"levelo://app?vid=40c853c0-44e5-4a47-a5e8-961c1c63a92a"},"vehicle_type_id":"4","last_reported":1738555916,"current_range_meters":38800,"station_id":"ce4bhk92rcd13ifvqgb0","pricing_plan_id":"cebpf4jnsgd1na2vs0mg"},{"bike_id":"e7e0bae0-ab4c-4497-97e9-026bb881f331","system_id":"levelo_inurba_marseille","lat":43.29285,"lon":5.40124,"is_reserved":false,"is_disabled":false,"rental_uris":{"android":"levelo://app?vid=e7e0bae0-ab4c-4497-97e9-026bb881f331","ios":"levelo://app?vid=e7e0bae0-ab4c-4497-97e9-026bb881f331"},"vehicle_type_id":"4","last_reported":1738555916,"current_range_meters":36800,"station_id":"ce4bh312rcd13ifvqdk0","pricing_plan_id":"cebpf4jnsgd1na2vs0mg"},{"bike_id":"c076181b-29f7-408b-a44f-e24c57139925","system_id":"levelo_inurba_marseille","lat":43.30256,"lon":5.40079,"is_reserved":false,"is_disabled":false,"rental_uris":{"android":"levelo://app?vid=c076181b-29f7-408b-a44f-e24c57139925","ios":"levelo://app?vid=c076181b-29f7-408b-a44f-e24c57139925"},"vehicle_type_id":"4","last_reported":1738555916,"current_range_meters":32000,"station_id":"ce4bgvh2rcd13ifvqcs0","pricing_plan_id":"cebpf4jnsgd1na2vs0mg"},{"bike_id":"0875f546-71ae-4892-b7f1-948adedf9f98","system_id":"levelo_inurba_marseille","lat":43.31285,"lon":5.4017,"is_reserved":false,"is_disabled":false,"rental_uris":{"android":"levelo://app?vid=0875f546-71ae-4892-b7f1-948adedf9f98","ios":"levelo://app?vid=0875f546-71ae-4892-b7f1-948adedf9f98"},"vehicle_type_id":"4","last_reported":1738555916,"current_range_meters":38800,"station_id":"ce4bh092rcd13ifvqd30","pricing_plan_id":"cebpf4jnsgd1na2vs0mg"},{"bike_id":"85101c84-9999-45b6-903a-edab62a1c8ef","system_id":"levelo_inurba_marseille","lat":43.28279,"lon":5.35081,"is_reserved":false,"is_disabled":false,"rental_uris":{"android":"levelo://app?vid=85101c84-9999-45b6-903a-edab62a1c8ef","ios":"levelo://app?vid=85101c84-9999-45b6-903a-edab62a1c8ef"},"vehicle_type_id":"4","last_reported":1738555916,"current_range_meters":36400,"station_id":"ce4bhbp2rcd13ifvqerg","pricing_plan_id":"cebpf4jnsgd1na2vs0mg"},{"bike_id":"b53cf432-0e47-4b61-a305-952377a64c88","system_id":"levelo_inurba_marseille","lat":43.308121,"lon":5.381571,"is_reserved":false,"is_disabled":true,"rental_uris":{"android":"levelo://app?vid=b53cf432-0e47-4b61-a305-952377a64c88","ios":"levelo://app?vid=b53cf432-0e47-4b61-a305-952377a64c88"},"vehicle_type_id":"4","last_reported":1738555916,"current_range_meters":35200,"station_id":"ce4bgt12rcd13ifvqce0","pricing_plan_id":"cebpf4jnsgd1na2vs0mg"},{"bike_id":"c9f00705-9681-4f51-9484-af5120db3699","system_id":"levelo_inurba_marseille","lat":43.27959,"lon":5.41035,"is_reserved":false,"is_disabled":false,"rental_uris":{"android":"levelo://app?vid=c9f00705-9681-4f51-9484-af5120db3699","ios":"levelo://app?vid=c9f00705-9681-4f51-9484-af5120db3699"},"vehicle_type_id":"4","last_reported":1738555916,"current_range_meters":16000,"station_id":"ce4bhnp2rcd13ifvqh0g","pricing_plan_id":"cebpf4jnsgd1na2vs0mg"},{"bike_id":"13a71ca0-af90-4e61-a6f2-18a028732efe","system_id":"levelo_inurba_marseille","lat":43.25093,"lon":5.39516,"is_reserved":false,"is_disabled":false,"rental_uris":{"android":"levelo://app?vid=13a71ca0-af90-4e61-a6f2-18a028732efe","ios":"levelo://app?vid=13a71ca0-af90-4e61-a6f2-18a028732efe"},"vehicle_type_id":"4","last_reported":1738555916,"current_range_meters":25200,"station_id":"ce4bhm12rcd13ifvqgkg","pricing_plan_id":"cebpf4jnsgd1na2vs0mg"},{"bike_id":"b9fb3d2d-81d5-43a8-89dc-d204f4ce4ab1","system_id":"levelo_inurba_marseille","lat":43.30786,"lon":5.4353,"is_reserved":false,"is_disabled":true,"rental_uris":{"android":"levelo://app?vid=b9fb3d2d-81d5-43a8-89dc-d204f4ce4ab1","ios":"levelo://app?vid=b9fb3d2d-81d5-43a8-89dc-d204f4ce4ab1"},"vehicle_type_id":"4","last_reported":1738555916,"current_range_meters":0,"station_id":"ce4bhph2rcd13ifvqheg","pricing_plan_id":"cebpf4jnsgd1na2vs0mg"},{"bike_id":"ac435b7a-3cbe-439d-966f-9ad227b0ea53","system_id":"levelo_inurba_marseille","lat":43.29219,"lon":5.3606,"is_reserved":false,"is_disabled":true,"rental_uris":{"android":"levelo://app?vid=ac435b7a-3cbe-439d-966f-9ad227b0ea53","ios":"levelo://app?vid=ac435b7a-3cbe-439d-966f-9ad227b0ea53"},"vehicle_type_id":"4","last_reported":1738555916,"current_range_meters":38400,"station_id":"ce4bhbh2rcd13ifvqeqg","pricing_plan_id":"cebpf4jnsgd1na2vs0mg"},{"bike_id":"478e4f7b-8fe0-4b88-be47-0f06be19b712","system_id":"levelo_inurba_marseille","lat":43.28439,"lon":5.39189,"is_reserved":false,"is_disabled":false,"rental_uris":{"android":"levelo://app?vid=478e4f7b-8fe0-4b88-be47-0f06be19b712","ios":"levelo://app?vid=478e4f7b-8fe0-4b88-be47-0f06be19b712"},"vehicle_type_id":"4","last_reported":1738555916,"current_range_meters":37600,"station_id":"ce4bhoh2rcd13ifvqh5g","pricing_plan_id":"cebpf4jnsgd1na2vs0mg"},{"bike_id":"05e6967f-52b4-4d89-933e-b74089631b53","system_id":"levelo_inurba_marseille","lat":43.32476,"lon":5.36566,"is_reserved":false,"is_disabled":false,"rental_uris":{"android":"levelo://app?vid=05e6967f-52b4-4d89-933e-b74089631b53","ios":"levelo://app?vid=05e6967f-52b4-4d89-933e-b74089631b53"},"vehicle_type_id":"4","last_reported":1738555916,"current_range_meters":23200,"station_id":"ce4bhs12rcd13ifvqhvg","pricing_plan_id":"cebpf4jnsgd1na2vs0mg"},{"bike_id":"a1361b83-7dfc-447a-91a0-ca180866041b","system_id":"levelo_inurba_marseille","lat":43.323619,"lon":5.367694,"is_reserved":false,"is_disabled":false,"rental_uris":{"android":"levelo://app?vid=a1361b83-7dfc-447a-91a0-ca180866041b","ios":"levelo://app?vid=a1361b83-7dfc-447a-91a0-ca180866041b"},"vehicle_type_id":"4","last_reported":1738555916,"current_range_meters":24800,"station_id":"ce4bhsh2rcd13ifvqi2g","pricing_plan_id":"cebpf4jnsgd1na2vs0mg"},{"bike_id":"ddb9c7e9-65ef-4267-9499-9c9d26630482","system_id":"levelo_inurba_marseille","lat":43.32475,"lon":5.3657,"is_reserved":false,"is_disabled":false,"rental_uris":{"android":"levelo://app?vid=ddb9c7e9-65ef-4267-9499-9c9d26630482","ios":"levelo://app?vid=ddb9c7e9-65ef-4267-9499-9c9d26630482"},"vehicle_type_id":"4","last_reported":1738555916,"current_range_meters":28400,"station_id":"ce4bhs12rcd13ifvqhvg","pricing_plan_id":"cebpf4jnsgd1na2vs0mg"},{"bike_id":"6f5f9008-4ec8-4324-9439-2f5658e1e170","system_id":"levelo_inurba_marseille","lat":43.24385,"lon":5.37064,"is_reserved":false,"is_disabled":false,"rental_uris":{"android":"levelo://app?vid=6f5f9008-4ec8-4324-9439-2f5658e1e170","ios":"levelo://app?vid=6f5f9008-4ec8-4324-9439-2f5658e1e170"},"vehicle_type_id":"4","last_reported":1738555916,"current_range_meters":38800,"station_id":"ce4bhhh2rcd13ifvqfk0","pricing_plan_id":"cebpf4jnsgd1na2vs0mg"},{"bike_id":"2bd84fa3-17d1-4c60-a194-91eef67aa1a3","system_id":"levelo_inurba_marseille","lat":43.22933,"lon":5.35381,"is_reserved":false,"is_disabled":false,"rental_uris":{"android":"levelo://app?vid=2bd84fa3-17d1-4c60-a194-91eef67aa1a3","ios":"levelo://app?vid=2bd84fa3-17d1-4c60-a194-91eef67aa1a3"},"vehicle_type_id":"4","last_reported":1738555916,"current_range_meters":32000,"station_id":"cpo3532slgdg3j2ikp40","pricing_plan_id":"cebpf4jnsgd1na2vs0mg"},{"bike_id":"0a50d89c-af17-4468-9de3-8f5574cfc288","system_id":"levelo_inurba_marseille","lat":43.2756,"lon":5.38419,"is_reserved":false,"is_disabled":false,"rental_uris":{"android":"levelo://app?vid=0a50d89c-af17-4468-9de3-8f5574cfc288","ios":"levelo://app?vid=0a50d89c-af17-4468-9de3-8f5574cfc288"},"vehicle_type_id":"4","last_reported":1738555916,"current_range_meters":38000,"station_id":"ce4bhh92rcd13ifvqfi0","pricing_plan_id":"cebpf4jnsgd1na2vs0mg"},{"bike_id":"eccf3e1b-479c-430a-81d9-b77c081460ec","system_id":"levelo_inurba_marseille","lat":43.317631,"lon":5.390165,"is_reserved":false,"is_disabled":true,"rental_uris":{"android":"levelo://app?vid=eccf3e1b-479c-430a-81d9-b77c081460ec","ios":"levelo://app?vid=eccf3e1b-479c-430a-81d9-b77c081460ec"},"vehicle_type_id":"4","last_reported":1738555916,"current_range_meters":7200,"station_id":"ce4bhqp2rcd13ifvqhng","pricing_plan_id":"cebpf4jnsgd1na2vs0mg"},{"bike_id":"66f12879-ca10-4093-b3b0-021be141522a","system_id":"levelo_inurba_marseille","lat":43.280255,"lon":5.36949,"is_reserved":false,"is_disabled":false,"rental_uris":{"android":"levelo://app?vid=66f12879-ca10-4093-b3b0-021be141522a","ios":"levelo://app?vid=66f12879-ca10-4093-b3b0-021be141522a"},"vehicle_type_id":"4","last_reported":1738555916,"current_range_meters":27200,"station_id":"ce4bha12rcd13ifvqef0","pricing_plan_id":"cebpf4jnsgd1na2vs0mg"},{"bike_id":"88769796-cc26-4829-a6b8-263383824347","system_id":"levelo_inurba_marseille","lat":43.2782,"lon":5.40704,"is_reserved":false,"is_disabled":false,"rental_uris":{"android":"levelo://app?vid=88769796-cc26-4829-a6b8-263383824347","ios":"levelo://app?vid=88769796-cc26-4829-a6b8-263383824347"},"vehicle_type_id":"4","last_reported":1738555916,"current_range_meters":28400,"station_id":"ce4bhnh2rcd13ifvqgtg","pricing_plan_id":"cebpf4jnsgd1na2vs0mg"},{"bike_id":"0edaa840-e8b0-4f2c-ad98-c123355c590c","system_id":"levelo_inurba_marseille","lat":43.26063,"lon":5.39393,"is_reserved":false,"is_disabled":true,"rental_uris":{"android":"levelo://app?vid=0edaa840-e8b0-4f2c-ad98-c123355c590c","ios":"levelo://app?vid=0edaa840-e8b0-4f2c-ad98-c123355c590c"},"vehicle_type_id":"4","last_reported":1738555916,"current_range_meters":27600,"station_id":"ce4bhh92rcd13ifvqfj0","pricing_plan_id":"cebpf4jnsgd1na2vs0mg"},{"bike_id":"428af571-a138-4b31-ac0f-fafe4061000e","system_id":"levelo_inurba_marseille","lat":43.25106,"lon":5.39514,"is_reserved":false,"is_disabled":false,"rental_uris":{"android":"levelo://app?vid=428af571-a138-4b31-ac0f-fafe4061000e","ios":"levelo://app?vid=428af571-a138-4b31-ac0f-fafe4061000e"},"vehicle_type_id":"4","last_reported":1738555916,"current_range_meters":35200,"station_id":"ce4bhm12rcd13ifvqgkg","pricing_plan_id":"cebpf4jnsgd1na2vs0mg"},{"bike_id":"a87c8dd6-4ed1-4fd2-a6d7-2e4139c707ed","system_id":"levelo_inurba_marseille","lat":43.25005,"lon":5.38935,"is_reserved":false,"is_disabled":false,"rental_uris":{"android":"levelo://app?vid=a87c8dd6-4ed1-4fd2-a6d7-2e4139c707ed","ios":"levelo://app?vid=a87c8dd6-4ed1-4fd2-a6d7-2e4139c707ed"},"vehicle_type_id":"4","last_reported":1738555916,"current_range_meters":38000,"station_id":"ce4bhgp2rcd13ifvqfd0","pricing_plan_id":"cebpf4jnsgd1na2vs0mg"},{"bike_id":"67bcb4db-531e-437c-b3d8-2dbd0c343644","system_id":"levelo_inurba_marseille","lat":43.30445,"lon":5.38889,"is_reserved":false,"is_disabled":false,"rental_uris":{"android":"levelo://app?vid=67bcb4db-531e-437c-b3d8-2dbd0c343644","ios":"levelo://app?vid=67bcb4db-531e-437c-b3d8-2dbd0c343644"},"vehicle_type_id":"4","last_reported":1738555916,"current_range_meters":12800,"station_id":"ce4bgk12rcd13ifvqbi0","pricing_plan_id":"cebpf4jnsgd1na2vs0mg"},{"bike_id":"8b23552f-b7c0-40c8-9d4f-37ff82774c67","system_id":"levelo_inurba_marseille","lat":43.25578,"lon":5.38242,"is_reserved":false,"is_disabled":false,"rental_uris":{"android":"levelo://app?vid=8b23552f-b7c0-40c8-9d4f-37ff82774c67","ios":"levelo://app?vid=8b23552f-b7c0-40c8-9d4f-37ff82774c67"},"vehicle_type_id":"4","last_reported":1738555916,"current_range_meters":25600,"station_id":"ce4bhih2rcd13ifvqfs0","pricing_plan_id":"cebpf4jnsgd1na2vs0mg"},{"bike_id":"637e7848-7b84-4e1d-9cee-355c6601f7c3","system_id":"levelo_inurba_marseille","lat":43.279961,"lon":5.41658,"is_reserved":false,"is_disabled":true,"rental_uris":{"android":"levelo://app?vid=637e7848-7b84-4e1d-9cee-355c6601f7c3","ios":"levelo://app?vid=637e7848-7b84-4e1d-9cee-355c6601f7c3"},"vehicle_type_id":"4","last_reported":1738555916,"current_range_meters":0,"station_id":"ce4bho12rcd13ifvqh1g","pricing_plan_id":"cebpf4jnsgd1na2vs0mg"},{"bike_id":"4291c738-6cd9-4bae-9b4d-d5728eb13d24","system_id":"levelo_inurba_marseille","lat":43.28279,"lon":5.35076,"is_reserved":false,"is_disabled":false,"rental_uris":{"android":"levelo://app?vid=4291c738-6cd9-4bae-9b4d-d5728eb13d24","ios":"levelo://app?vid=4291c738-6cd9-4bae-9b4d-d5728eb13d24"},"vehicle_type_id":"4","last_reported":1738555916,"current_range_meters":30000,"station_id":"ce4bhbp2rcd13ifvqerg","pricing_plan_id":"cebpf4jnsgd1na2vs0mg"},{"bike_id":"2139aa37-3e6d-49e0-adc6-0003f039b7a5","system_id":"levelo_inurba_marseille","lat":43.29044,"lon":5.359284,"is_reserved":false,"is_disabled":false,"rental_uris":{"android":"levelo://app?vid=2139aa37-3e6d-49e0-adc6-0003f039b7a5","ios":"levelo://app?vid=2139aa37-3e6d-49e0-adc6-0003f039b7a5"},"vehicle_type_id":"4","last_reported":1738555916,"current_range_meters":38800,"station_id":"ce4bha92rcd13ifvqeg0","pricing_plan_id":"cebpf4jnsgd1na2vs0mg"},{"bike_id":"63f34b3f-18af-44ff-9fc2-c755268d1ea0","system_id":"levelo_inurba_marseille","lat":43.31692,"lon":5.37763,"is_reserved":false,"is_disabled":false,"rental_uris":{"android":"levelo://app?vid=63f34b3f-18af-44ff-9fc2-c755268d1ea0","ios":"levelo://app?vid=63f34b3f-18af-44ff-9fc2-c755268d1ea0"},"vehicle_type_id":"4","last_reported":1738555916,"current_range_meters":35600,"station_id":"ce4bgth2rcd13ifvqch0","pricing_plan_id":"cebpf4jnsgd1na2vs0mg"},{"bike_id":"766807e2-5dd5-4f9d-8a99-3eada8bf4811","system_id":"levelo_inurba_marseille","lat":43.34629,"lon":5.38095,"is_reserved":false,"is_disabled":false,"rental_uris":{"android":"levelo://app?vid=766807e2-5dd5-4f9d-8a99-3eada8bf4811","ios":"levelo://app?vid=766807e2-5dd5-4f9d-8a99-3eada8bf4811"},"vehicle_type_id":"4","last_reported":1738555916,"current_range_meters":20000,"station_id":"","pricing_plan_id":"cebpf4jnsgd1na2vs0mg"},{"bike_id":"4164000a-3575-41b2-8242-cb2eaaa11f6b","system_id":"levelo_inurba_marseille","lat":43.27973,"lon":5.38725,"is_reserved":false,"is_disabled":true,"rental_uris":{"android":"levelo://app?vid=4164000a-3575-41b2-8242-cb2eaaa11f6b","ios":"levelo://app?vid=4164000a-3575-41b2-8242-cb2eaaa11f6b"},"vehicle_type_id":"4","last_reported":1738555916,"current_range_meters":34800,"station_id":"ce4bhg12rcd13ifvqf80","pricing_plan_id":"cebpf4jnsgd1na2vs0mg"},{"bike_id":"32e5f4af-c3e2-4e2b-9428-5595e9b70920","system_id":"levelo_inurba_marseille","lat":43.29779,"lon":5.37075,"is_reserved":false,"is_disabled":true,"rental_uris":{"android":"levelo://app?vid=32e5f4af-c3e2-4e2b-9428-5595e9b70920","ios":"levelo://app?vid=32e5f4af-c3e2-4e2b-9428-5595e9b70920"},"vehicle_type_id":"4","last_reported":1738555916,"current_range_meters":35600,"station_id":"ce4bgop2rcd13ifvqc1g","pricing_plan_id":"cebpf4jnsgd1na2vs0mg"},{"bike_id":"81ac34d9-952f-412a-85a4-b101975f8266","system_id":"levelo_inurba_marseille","lat":43.28852,"lon":5.35835,"is_reserved":false,"is_disabled":false,"rental_uris":{"android":"levelo://app?vid=81ac34d9-952f-412a-85a4-b101975f8266","ios":"levelo://app?vid=81ac34d9-952f-412a-85a4-b101975f8266"},"vehicle_type_id":"4","last_reported":1738555916,"current_range_meters":22800,"station_id":"ce4bhb12rcd13ifvqem0","pricing_plan_id":"cebpf4jnsgd1na2vs0mg"},{"bike_id":"2759ce27-3951-4de9-ba5e-023c45353256","system_id":"levelo_inurba_marseille","lat":43.28828,"lon":5.39322,"is_reserved":false,"is_disabled":false,"rental_uris":{"android":"levelo://app?vid=2759ce27-3951-4de9-ba5e-023c45353256","ios":"levelo://app?vid=2759ce27-3951-4de9-ba5e-023c45353256"},"vehicle_type_id":"4","last_reported":1738555916,"current_range_meters":29600,"station_id":"ce4bh2p2rcd13ifvqdi0","pricing_plan_id":"cebpf4jnsgd1na2vs0mg"},{"bike_id":"392cffe7-eaf7-47c9-956d-7ae47705d8b2","system_id":"levelo_inurba_marseille","lat":43.25575,"lon":5.38244,"is_reserved":false,"is_disabled":false,"rental_uris":{"android":"levelo://app?vid=392cffe7-eaf7-47c9-956d-7ae47705d8b2","ios":"levelo://app?vid=392cffe7-eaf7-47c9-956d-7ae47705d8b2"},"vehicle_type_id":"4","last_reported":1738555916,"current_range_meters":38000,"station_id":"ce4bhih2rcd13ifvqfs0","pricing_plan_id":"cebpf4jnsgd1na2vs0mg"},{"bike_id":"095e5291-f842-4478-bc34-3769cd441c0c","system_id":"levelo_inurba_marseille","lat":43.28154,"lon":5.42641,"is_reserved":false,"is_disabled":false,"rental_uris":{"android":"levelo://app?vid=095e5291-f842-4478-bc34-3769cd441c0c","ios":"levelo://app?vid=095e5291-f842-4478-bc34-3769cd441c0c"},"vehicle_type_id":"4","last_reported":1738555916,"current_range_meters":10000,"station_id":"ce4bhnh2rcd13ifvqgug","pricing_plan_id":"cebpf4jnsgd1na2vs0mg"},{"bike_id":"19ccc093-786b-4a36-b96d-6e1a9fb02f18","system_id":"levelo_inurba_marseille","lat":43.28943,"lon":5.38548,"is_reserved":false,"is_disabled":true,"rental_uris":{"android":"levelo://app?vid=19ccc093-786b-4a36-b96d-6e1a9fb02f18","ios":"levelo://app?vid=19ccc093-786b-4a36-b96d-6e1a9fb02f18"},"vehicle_type_id":"4","last_reported":1738555916,"current_range_meters":18000,"station_id":"ce4bh612rcd13ifvqe6g","pricing_plan_id":"cebpf4jnsgd1na2vs0mg"},{"bike_id":"9f7cbc3c-6e0b-4442-8c70-64c0b2a1452e","system_id":"levelo_inurba_marseille","lat":43.230583,"lon":5.354923,"is_reserved":false,"is_disabled":false,"rental_uris":{"android":"levelo://app?vid=9f7cbc3c-6e0b-4442-8c70-64c0b2a1452e","ios":"levelo://app?vid=9f7cbc3c-6e0b-4442-8c70-64c0b2a1452e"},"vehicle_type_id":"4","last_reported":1738555916,"current_range_meters":29600,"station_id":"cpo3342slgdg3j2ifvpg","pricing_plan_id":"cebpf4jnsgd1na2vs0mg"},{"bike_id":"1fb2cc5b-f611-4791-9100-5672bb358bcd","system_id":"levelo_inurba_marseille","lat":43.29802,"lon":5.40405,"is_reserved":false,"is_disabled":false,"rental_uris":{"android":"levelo://app?vid=1fb2cc5b-f611-4791-9100-5672bb358bcd","ios":"levelo://app?vid=1fb2cc5b-f611-4791-9100-5672bb358bcd"},"vehicle_type_id":"4","last_reported":1738555916,"current_range_meters":38000,"station_id":"ce4bh112rcd13ifvqd90","pricing_plan_id":"cebpf4jnsgd1na2vs0mg"},{"bike_id":"983b19a2-34ef-44c9-9414-abab5be1eeec","system_id":"levelo_inurba_marseille","lat":43.292774,"lon":5.401351,"is_reserved":false,"is_disabled":false,"rental_uris":{"android":"levelo://app?vid=983b19a2-34ef-44c9-9414-abab5be1eeec","ios":"levelo://app?vid=983b19a2-34ef-44c9-9414-abab5be1eeec"},"vehicle_type_id":"4","last_reported":1738555916,"current_range_meters":38800,"station_id":"ce4bh312rcd13ifvqdk0","pricing_plan_id":"cebpf4jnsgd1na2vs0mg"},{"bike_id":"9191983c-f500-4e34-800a-5c4da4f130cb","system_id":"levelo_inurba_marseille","lat":43.27935,"lon":5.41042,"is_reserved":false,"is_disabled":false,"rental_uris":{"android":"levelo://app?vid=9191983c-f500-4e34-800a-5c4da4f130cb","ios":"levelo://app?vid=9191983c-f500-4e34-800a-5c4da4f130cb"},"vehicle_type_id":"4","last_reported":1738555916,"current_range_meters":29600,"station_id":"ce4bhnp2rcd13ifvqh0g","pricing_plan_id":"cebpf4jnsgd1na2vs0mg"},{"bike_id":"7641f6f7-5789-4ada-aa28-ef549475b41d","system_id":"levelo_inurba_marseille","lat":43.30895,"lon":5.3686,"is_reserved":false,"is_disabled":false,"rental_uris":{"android":"levelo://app?vid=7641f6f7-5789-4ada-aa28-ef549475b41d","ios":"levelo://app?vid=7641f6f7-5789-4ada-aa28-ef549475b41d"},"vehicle_type_id":"4","last_reported":1738555916,"current_range_meters":19200,"station_id":"ce4bgn92rcd13ifvqbvg","pricing_plan_id":"cebpf4jnsgd1na2vs0mg"},{"bike_id":"fc599354-138c-4ffb-aa06-bbebd6ffed1f","system_id":"levelo_inurba_marseille","lat":43.28929,"lon":5.36625,"is_reserved":false,"is_disabled":false,"rental_uris":{"android":"levelo://app?vid=fc599354-138c-4ffb-aa06-bbebd6ffed1f","ios":"levelo://app?vid=fc599354-138c-4ffb-aa06-bbebd6ffed1f"},"vehicle_type_id":"4","last_reported":1738555916,"current_range_meters":20000,"station_id":"ce4bhap2rcd13ifvqek0","pricing_plan_id":"cebpf4jnsgd1na2vs0mg"},{"bike_id":"40c28d79-aeeb-4a16-b1d9-e1d8818bf3d3","system_id":"levelo_inurba_marseille","lat":43.288384,"lon":5.358576,"is_reserved":false,"is_disabled":false,"rental_uris":{"android":"levelo://app?vid=40c28d79-aeeb-4a16-b1d9-e1d8818bf3d3","ios":"levelo://app?vid=40c28d79-aeeb-4a16-b1d9-e1d8818bf3d3"},"vehicle_type_id":"4","last_reported":1738555916,"current_range_meters":27200,"station_id":"ce4bhb12rcd13ifvqem0","pricing_plan_id":"cebpf4jnsgd1na2vs0mg"},{"bike_id":"16cd8015-4e41-4069-a8e2-ef6d6b8a8411","system_id":"levelo_inurba_marseille","lat":43.29884,"lon":5.38908,"is_reserved":false,"is_disabled":false,"rental_uris":{"android":"levelo://app?vid=16cd8015-4e41-4069-a8e2-ef6d6b8a8411","ios":"levelo://app?vid=16cd8015-4e41-4069-a8e2-ef6d6b8a8411"},"vehicle_type_id":"4","last_reported":1738555916,"current_range_meters":20400,"station_id":"ce4bh392rcd13ifvqdl0","pricing_plan_id":"cebpf4jnsgd1na2vs0mg"},{"bike_id":"cf8d5ee6-e246-49cb-a25f-c80699da9055","system_id":"levelo_inurba_marseille","lat":43.30932,"lon":5.40145,"is_reserved":false,"is_disabled":false,"rental_uris":{"android":"levelo://app?vid=cf8d5ee6-e246-49cb-a25f-c80699da9055","ios":"levelo://app?vid=cf8d5ee6-e246-49cb-a25f-c80699da9055"},"vehicle_type_id":"4","last_reported":1738555916,"current_range_meters":24800,"station_id":"ce4bgvp2rcd13ifvqct0","pricing_plan_id":"cebpf4jnsgd1na2vs0mg"},{"bike_id":"4ce0c14b-de3f-4e94-bda0-a25e3fbe5d01","system_id":"levelo_inurba_marseille","lat":43.2407,"lon":5.37773,"is_reserved":false,"is_disabled":false,"rental_uris":{"android":"levelo://app?vid=4ce0c14b-de3f-4e94-bda0-a25e3fbe5d01","ios":"levelo://app?vid=4ce0c14b-de3f-4e94-bda0-a25e3fbe5d01"},"vehicle_type_id":"4","last_reported":1738555916,"current_range_meters":38800,"station_id":"ce4bhnp2rcd13ifvqgvg","pricing_plan_id":"cebpf4jnsgd1na2vs0mg"},{"bike_id":"1b3c0e17-2319-42ae-a0ea-b70f969a0464","system_id":"levelo_inurba_marseille","lat":43.280862,"lon":5.396595,"is_reserved":false,"is_disabled":false,"rental_uris":{"android":"levelo://app?vid=1b3c0e17-2319-42ae-a0ea-b70f969a0464","ios":"levelo://app?vid=1b3c0e17-2319-42ae-a0ea-b70f969a0464"},"vehicle_type_id":"4","last_reported":1738555916,"current_range_meters":25200,"station_id":"ce4bho12rcd13ifvqh2g","pricing_plan_id":"cebpf4jnsgd1na2vs0mg"},{"bike_id":"6b4638ba-a3ce-42a4-ba87-2ecdc4e32afd","system_id":"levelo_inurba_marseille","lat":43.30602,"lon":5.39353,"is_reserved":false,"is_disabled":false,"rental_uris":{"android":"levelo://app?vid=6b4638ba-a3ce-42a4-ba87-2ecdc4e32afd","ios":"levelo://app?vid=6b4638ba-a3ce-42a4-ba87-2ecdc4e32afd"},"vehicle_type_id":"4","last_reported":1738555916,"current_range_meters":12400,"station_id":"ce4bh0p2rcd13ifvqd80","pricing_plan_id":"cebpf4jnsgd1na2vs0mg"},{"bike_id":"e8fdc9db-2610-44e4-8f72-73869d126f4c","system_id":"levelo_inurba_marseille","lat":43.30799,"lon":5.38155,"is_reserved":false,"is_disabled":false,"rental_uris":{"android":"levelo://app?vid=e8fdc9db-2610-44e4-8f72-73869d126f4c","ios":"levelo://app?vid=e8fdc9db-2610-44e4-8f72-73869d126f4c"},"vehicle_type_id":"4","last_reported":1738555916,"current_range_meters":19600,"station_id":"ce4bgt12rcd13ifvqce0","pricing_plan_id":"cebpf4jnsgd1na2vs0mg"},{"bike_id":"ad82b953-766d-43fe-8267-b56879c820d1","system_id":"levelo_inurba_marseille","lat":43.24544,"lon":5.39532,"is_reserved":false,"is_disabled":false,"rental_uris":{"android":"levelo://app?vid=ad82b953-766d-43fe-8267-b56879c820d1","ios":"levelo://app?vid=ad82b953-766d-43fe-8267-b56879c820d1"},"vehicle_type_id":"4","last_reported":1738555916,"current_range_meters":38800,"station_id":"ce4bhlp2rcd13ifvqgjg","pricing_plan_id":"cebpf4jnsgd1na2vs0mg"},{"bike_id":"c537f746-287c-425a-aaa6-10d8e5019a6d","system_id":"levelo_inurba_marseille","lat":43.34159,"lon":5.409,"is_reserved":false,"is_disabled":false,"rental_uris":{"android":"levelo://app?vid=c537f746-287c-425a-aaa6-10d8e5019a6d","ios":"levelo://app?vid=c537f746-287c-425a-aaa6-10d8e5019a6d"},"vehicle_type_id":"4","last_reported":1738555916,"current_range_meters":38000,"station_id":"ce4bhqh2rcd13ifvqhlg","pricing_plan_id":"cebpf4jnsgd1na2vs0mg"},{"bike_id":"9fd1d072-3a8b-4482-b70f-62cd25efe66f","system_id":"levelo_inurba_marseille","lat":43.28148,"lon":5.42642,"is_reserved":false,"is_disabled":false,"rental_uris":{"android":"levelo://app?vid=9fd1d072-3a8b-4482-b70f-62cd25efe66f","ios":"levelo://app?vid=9fd1d072-3a8b-4482-b70f-62cd25efe66f"},"vehicle_type_id":"4","last_reported":1738555916,"current_range_meters":30800,"station_id":"ce4bhnh2rcd13ifvqgug","pricing_plan_id":"cebpf4jnsgd1na2vs0mg"},{"bike_id":"ad8a6327-a9f2-4f3d-94b8-de56457cc33b","system_id":"levelo_inurba_marseille","lat":43.308814,"lon":5.396353,"is_reserved":false,"is_disabled":false,"rental_uris":{"android":"levelo://app?vid=ad8a6327-a9f2-4f3d-94b8-de56457cc33b","ios":"levelo://app?vid=ad8a6327-a9f2-4f3d-94b8-de56457cc33b"},"vehicle_type_id":"4","last_reported":1738555916,"current_range_meters":8000,"station_id":"ce4bh012rcd13ifvqcv0","pricing_plan_id":"cebpf4jnsgd1na2vs0mg"},{"bike_id":"635f2b06-b908-464b-a12b-e7917f7fef77","system_id":"levelo_inurba_marseille","lat":43.28276,"lon":5.35082,"is_reserved":false,"is_disabled":false,"rental_uris":{"android":"levelo://app?vid=635f2b06-b908-464b-a12b-e7917f7fef77","ios":"levelo://app?vid=635f2b06-b908-464b-a12b-e7917f7fef77"},"vehicle_type_id":"4","last_reported":1738555916,"current_range_meters":36800,"station_id":"ce4bhbp2rcd13ifvqerg","pricing_plan_id":"cebpf4jnsgd1na2vs0mg"},{"bike_id":"17296d3c-de23-4082-b7cb-6d15cb3f16ef","system_id":"levelo_inurba_marseille","lat":43.336138,"lon":5.410148,"is_reserved":false,"is_disabled":false,"rental_uris":{"android":"levelo://app?vid=17296d3c-de23-4082-b7cb-6d15cb3f16ef","ios":"levelo://app?vid=17296d3c-de23-4082-b7cb-6d15cb3f16ef"},"vehicle_type_id":"4","last_reported":1738555916,"current_range_meters":19200,"station_id":"ce4bhqh2rcd13ifvqhmg","pricing_plan_id":"cebpf4jnsgd1na2vs0mg"},{"bike_id":"eb7adffc-4f15-4c7c-897d-463c148ed83f","system_id":"levelo_inurba_marseille","lat":43.24086,"lon":5.37758,"is_reserved":false,"is_disabled":false,"rental_uris":{"android":"levelo://app?vid=eb7adffc-4f15-4c7c-897d-463c148ed83f","ios":"levelo://app?vid=eb7adffc-4f15-4c7c-897d-463c148ed83f"},"vehicle_type_id":"4","last_reported":1738555916,"current_range_meters":38800,"station_id":"ce4bhnp2rcd13ifvqgvg","pricing_plan_id":"cebpf4jnsgd1na2vs0mg"},{"bike_id":"5a270969-07d4-4cc7-8572-3c1cac0a5ac6","system_id":"levelo_inurba_marseille","lat":43.31247,"lon":5.37943,"is_reserved":false,"is_disabled":false,"rental_uris":{"android":"levelo://app?vid=5a270969-07d4-4cc7-8572-3c1cac0a5ac6","ios":"levelo://app?vid=5a270969-07d4-4cc7-8572-3c1cac0a5ac6"},"vehicle_type_id":"4","last_reported":1738555916,"current_range_meters":25200,"station_id":"","pricing_plan_id":"cebpf4jnsgd1na2vs0mg"},{"bike_id":"7a38dcdc-5d9e-43ee-9f68-0ac26e180460","system_id":"levelo_inurba_marseille","lat":43.323519,"lon":5.388836,"is_reserved":false,"is_disabled":false,"rental_uris":{"android":"levelo://app?vid=7a38dcdc-5d9e-43ee-9f68-0ac26e180460","ios":"levelo://app?vid=7a38dcdc-5d9e-43ee-9f68-0ac26e180460"},"vehicle_type_id":"4","last_reported":1738555916,"current_range_meters":17200,"station_id":"ce4bhqp2rcd13ifvqhog","pricing_plan_id":"cebpf4jnsgd1na2vs0mg"},{"bike_id":"e67151be-040a-4c39-9f5e-9a6e81664acc","system_id":"levelo_inurba_marseille","lat":43.26056,"lon":5.39396,"is_reserved":false,"is_disabled":false,"rental_uris":{"android":"levelo://app?vid=e67151be-040a-4c39-9f5e-9a6e81664acc","ios":"levelo://app?vid=e67151be-040a-4c39-9f5e-9a6e81664acc"},"vehicle_type_id":"4","last_reported":1738555916,"current_range_meters":3200,"station_id":"ce4bhh92rcd13ifvqfj0","pricing_plan_id":"cebpf4jnsgd1na2vs0mg"},{"bike_id":"07d1d985-af2a-4639-bc01-5419ea2b7b91","system_id":"levelo_inurba_marseille","lat":43.30678,"lon":5.40101,"is_reserved":false,"is_disabled":false,"rental_uris":{"android":"levelo://app?vid=07d1d985-af2a-4639-bc01-5419ea2b7b91","ios":"levelo://app?vid=07d1d985-af2a-4639-bc01-5419ea2b7b91"},"vehicle_type_id":"4","last_reported":1738555916,"current_range_meters":18000,"station_id":"ce4bh112rcd13ifvqda0","pricing_plan_id":"cebpf4jnsgd1na2vs0mg"},{"bike_id":"3e242f84-d04b-4d88-98ae-b0eb705c06e7","system_id":"levelo_inurba_marseille","lat":43.2898,"lon":5.37826,"is_reserved":false,"is_disabled":true,"rental_uris":{"android":"levelo://app?vid=3e242f84-d04b-4d88-98ae-b0eb705c06e7","ios":"levelo://app?vid=3e242f84-d04b-4d88-98ae-b0eb705c06e7"},"vehicle_type_id":"4","last_reported":1738555916,"current_range_meters":38800,"station_id":"ce4bh9p2rcd13ifvqed0","pricing_plan_id":"cebpf4jnsgd1na2vs0mg"},{"bike_id":"c51ba98b-9484-4d66-a893-40418f1c41b6","system_id":"levelo_inurba_marseille","lat":43.29052,"lon":5.35916,"is_reserved":false,"is_disabled":false,"rental_uris":{"android":"levelo://app?vid=c51ba98b-9484-4d66-a893-40418f1c41b6","ios":"levelo://app?vid=c51ba98b-9484-4d66-a893-40418f1c41b6"},"vehicle_type_id":"4","last_reported":1738555916,"current_range_meters":38800,"station_id":"ce4bha92rcd13ifvqeg0","pricing_plan_id":"cebpf4jnsgd1na2vs0mg"},{"bike_id":"5da1e538-a09c-450d-87c5-27f28dd03c7a","system_id":"levelo_inurba_marseille","lat":43.306483,"lon":5.400924,"is_reserved":false,"is_disabled":false,"rental_uris":{"android":"levelo://app?vid=5da1e538-a09c-450d-87c5-27f28dd03c7a","ios":"levelo://app?vid=5da1e538-a09c-450d-87c5-27f28dd03c7a"},"vehicle_type_id":"4","last_reported":1738555916,"current_range_meters":24800,"station_id":"ce4bh112rcd13ifvqda0","pricing_plan_id":"cebpf4jnsgd1na2vs0mg"},{"bike_id":"9178cdc5-a4f7-4604-8548-68c648dce4e8","system_id":"levelo_inurba_marseille","lat":43.2902,"lon":5.39978,"is_reserved":false,"is_disabled":false,"rental_uris":{"android":"levelo://app?vid=9178cdc5-a4f7-4604-8548-68c648dce4e8","ios":"levelo://app?vid=9178cdc5-a4f7-4604-8548-68c648dce4e8"},"vehicle_type_id":"4","last_reported":1738555916,"current_range_meters":38800,"station_id":"ce4bh392rcd13ifvqdm0","pricing_plan_id":"cebpf4jnsgd1na2vs0mg"},{"bike_id":"29e433c5-f86e-40bf-8cf3-374b024916b0","system_id":"levelo_inurba_marseille","lat":43.32288,"lon":5.3827,"is_reserved":false,"is_disabled":false,"rental_uris":{"android":"levelo://app?vid=29e433c5-f86e-40bf-8cf3-374b024916b0","ios":"levelo://app?vid=29e433c5-f86e-40bf-8cf3-374b024916b0"},"vehicle_type_id":"4","last_reported":1738555916,"current_range_meters":36800,"station_id":"ce4bhr12rcd13ifvqhqg","pricing_plan_id":"cebpf4jnsgd1na2vs0mg"},{"bike_id":"479bb601-c987-463b-8a8a-641097e77c23","system_id":"levelo_inurba_marseille","lat":43.28454,"lon":5.3589,"is_reserved":false,"is_disabled":false,"rental_uris":{"android":"levelo://app?vid=479bb601-c987-463b-8a8a-641097e77c23","ios":"levelo://app?vid=479bb601-c987-463b-8a8a-641097e77c23"},"vehicle_type_id":"4","last_reported":1738555916,"current_range_meters":39200,"station_id":"ce4bhah2rcd13ifvqei0","pricing_plan_id":"cebpf4jnsgd1na2vs0mg"},{"bike_id":"ccf74bb0-77b5-47a3-91cd-199ac433dec4","system_id":"levelo_inurba_marseille","lat":43.30804,"lon":5.381422,"is_reserved":false,"is_disabled":false,"rental_uris":{"android":"levelo://app?vid=ccf74bb0-77b5-47a3-91cd-199ac433dec4","ios":"levelo://app?vid=ccf74bb0-77b5-47a3-91cd-199ac433dec4"},"vehicle_type_id":"4","last_reported":1738555916,"current_range_meters":36400,"station_id":"ce4bgt12rcd13ifvqce0","pricing_plan_id":"cebpf4jnsgd1na2vs0mg"},{"bike_id":"dd6947e1-5efd-41c6-9dad-bc275e89bb22","system_id":"levelo_inurba_marseille","lat":43.30292,"lon":5.40032,"is_reserved":false,"is_disabled":false,"rental_uris":{"android":"levelo://app?vid=dd6947e1-5efd-41c6-9dad-bc275e89bb22","ios":"levelo://app?vid=dd6947e1-5efd-41c6-9dad-bc275e89bb22"},"vehicle_type_id":"4","last_reported":1738555916,"current_range_meters":14800,"station_id":"ce4bgvh2rcd13ifvqcs0","pricing_plan_id":"cebpf4jnsgd1na2vs0mg"},{"bike_id":"84fe84b0-3c78-4909-b6ea-2c4d9b766026","system_id":"levelo_inurba_marseille","lat":43.29536,"lon":5.3854,"is_reserved":false,"is_disabled":true,"rental_uris":{"android":"levelo://app?vid=84fe84b0-3c78-4909-b6ea-2c4d9b766026","ios":"levelo://app?vid=84fe84b0-3c78-4909-b6ea-2c4d9b766026"},"vehicle_type_id":"4","last_reported":1738555916,"current_range_meters":17200,"station_id":"ce4bgih2rcd13ifvqba0","pricing_plan_id":"cebpf4jnsgd1na2vs0mg"},{"bike_id":"a561aae7-6369-4c00-9d68-e8c23562735d","system_id":"levelo_inurba_marseille","lat":43.26586,"lon":5.39032,"is_reserved":false,"is_disabled":true,"rental_uris":{"android":"levelo://app?vid=a561aae7-6369-4c00-9d68-e8c23562735d","ios":"levelo://app?vid=a561aae7-6369-4c00-9d68-e8c23562735d"},"vehicle_type_id":"4","last_reported":1738555916,"current_range_meters":12000,"station_id":"ce4bhe12rcd13ifvqf30","pricing_plan_id":"cebpf4jnsgd1na2vs0mg"},{"bike_id":"9c676631-a9c1-479c-8c70-11fb1946546e","system_id":"levelo_inurba_marseille","lat":43.29988,"lon":5.38534,"is_reserved":false,"is_disabled":false,"rental_uris":{"android":"levelo://app?vid=9c676631-a9c1-479c-8c70-11fb1946546e","ios":"levelo://app?vid=9c676631-a9c1-479c-8c70-11fb1946546e"},"vehicle_type_id":"4","last_reported":1738555916,"current_range_meters":36400,"station_id":"ce4bgj92rcd13ifvqbd0","pricing_plan_id":"cebpf4jnsgd1na2vs0mg"},{"bike_id":"61b9bc9c-89cb-4f33-a107-e1d46889ee3d","system_id":"levelo_inurba_marseille","lat":43.28166,"lon":5.42616,"is_reserved":false,"is_disabled":false,"rental_uris":{"android":"levelo://app?vid=61b9bc9c-89cb-4f33-a107-e1d46889ee3d","ios":"levelo://app?vid=61b9bc9c-89cb-4f33-a107-e1d46889ee3d"},"vehicle_type_id":"4","last_reported":1738555916,"current_range_meters":33600,"station_id":"ce4bhnh2rcd13ifvqgug","pricing_plan_id":"cebpf4jnsgd1na2vs0mg"},{"bike_id":"1d3c0a30-0621-46ad-b7c1-d02c6c83e414","system_id":"levelo_inurba_marseille","lat":43.29596,"lon":5.36738,"is_reserved":false,"is_disabled":false,"rental_uris":{"android":"levelo://app?vid=1d3c0a30-0621-46ad-b7c1-d02c6c83e414","ios":"levelo://app?vid=1d3c0a30-0621-46ad-b7c1-d02c6c83e414"},"vehicle_type_id":"4","last_reported":1738555916,"current_range_meters":38800,"station_id":"ce4bgph2rcd13ifvqc2g","pricing_plan_id":"cebpf4jnsgd1na2vs0mg"},{"bike_id":"e4cb5dc9-3cbb-4a89-98bc-e7dcbf41a425","system_id":"levelo_inurba_marseille","lat":43.294726,"lon":5.438329,"is_reserved":false,"is_disabled":false,"rental_uris":{"android":"levelo://app?vid=e4cb5dc9-3cbb-4a89-98bc-e7dcbf41a425","ios":"levelo://app?vid=e4cb5dc9-3cbb-4a89-98bc-e7dcbf41a425"},"vehicle_type_id":"4","last_reported":1738555916,"current_range_meters":18000,"station_id":"","pricing_plan_id":"cebpf4jnsgd1na2vs0mg"},{"bike_id":"82c6eebf-0519-4b18-a727-88dc1d4c976d","system_id":"levelo_inurba_marseille","lat":43.28283,"lon":5.350764,"is_reserved":false,"is_disabled":true,"rental_uris":{"android":"levelo://app?vid=82c6eebf-0519-4b18-a727-88dc1d4c976d","ios":"levelo://app?vid=82c6eebf-0519-4b18-a727-88dc1d4c976d"},"vehicle_type_id":"4","last_reported":1738555916,"current_range_meters":38400,"station_id":"ce4bhbp2rcd13ifvqerg","pricing_plan_id":"cebpf4jnsgd1na2vs0mg"},{"bike_id":"6da60d9c-131b-4c89-a230-acdf22550cc0","system_id":"levelo_inurba_marseille","lat":43.31164,"lon":5.38715,"is_reserved":false,"is_disabled":false,"rental_uris":{"android":"levelo://app?vid=6da60d9c-131b-4c89-a230-acdf22550cc0","ios":"levelo://app?vid=6da60d9c-131b-4c89-a230-acdf22550cc0"},"vehicle_type_id":"4","last_reported":1738555916,"current_range_meters":38800,"station_id":"ce4bgv12rcd13ifvqcp0","pricing_plan_id":"cebpf4jnsgd1na2vs0mg"},{"bike_id":"3ccd196e-cddd-41f1-8a25-97e7f22947f7","system_id":"levelo_inurba_marseille","lat":43.25115,"lon":5.40317,"is_reserved":false,"is_disabled":true,"rental_uris":{"android":"levelo://app?vid=3ccd196e-cddd-41f1-8a25-97e7f22947f7","ios":"levelo://app?vid=3ccd196e-cddd-41f1-8a25-97e7f22947f7"},"vehicle_type_id":"4","last_reported":1738555916,"current_range_meters":37600,"station_id":"ce4bhlh2rcd13ifvqgig","pricing_plan_id":"cebpf4jnsgd1na2vs0mg"},{"bike_id":"3ebcd610-230f-4d5b-837e-30a830f0f624","system_id":"levelo_inurba_marseille","lat":43.3046,"lon":5.37901,"is_reserved":false,"is_disabled":false,"rental_uris":{"android":"levelo://app?vid=3ebcd610-230f-4d5b-837e-30a830f0f624","ios":"levelo://app?vid=3ebcd610-230f-4d5b-837e-30a830f0f624"},"vehicle_type_id":"4","last_reported":1738555916,"current_range_meters":33600,"station_id":"ce4bgup2rcd13ifvqcn0","pricing_plan_id":"cebpf4jnsgd1na2vs0mg"},{"bike_id":"0ebf4f58-26e3-4307-bdb9-850eabafe38f","system_id":"levelo_inurba_marseille","lat":43.30258,"lon":5.4007,"is_reserved":false,"is_disabled":false,"rental_uris":{"android":"levelo://app?vid=0ebf4f58-26e3-4307-bdb9-850eabafe38f","ios":"levelo://app?vid=0ebf4f58-26e3-4307-bdb9-850eabafe38f"},"vehicle_type_id":"4","last_reported":1738555916,"current_range_meters":24000,"station_id":"ce4bgvh2rcd13ifvqcs0","pricing_plan_id":"cebpf4jnsgd1na2vs0mg"},{"bike_id":"14eb7a59-9b20-4e76-b93d-5c9f392068a1","system_id":"levelo_inurba_marseille","lat":43.28181,"lon":5.42632,"is_reserved":false,"is_disabled":false,"rental_uris":{"android":"levelo://app?vid=14eb7a59-9b20-4e76-b93d-5c9f392068a1","ios":"levelo://app?vid=14eb7a59-9b20-4e76-b93d-5c9f392068a1"},"vehicle_type_id":"4","last_reported":1738555916,"current_range_meters":11600,"station_id":"ce4bhnh2rcd13ifvqgug","pricing_plan_id":"cebpf4jnsgd1na2vs0mg"},{"bike_id":"d04d969a-9d62-4d40-b3e1-46b8510df428","system_id":"levelo_inurba_marseille","lat":43.29872,"lon":5.39758,"is_reserved":false,"is_disabled":false,"rental_uris":{"android":"levelo://app?vid=d04d969a-9d62-4d40-b3e1-46b8510df428","ios":"levelo://app?vid=d04d969a-9d62-4d40-b3e1-46b8510df428"},"vehicle_type_id":"4","last_reported":1738555916,"current_range_meters":22000,"station_id":"ce4bh0h2rcd13ifvqd50","pricing_plan_id":"cebpf4jnsgd1na2vs0mg"},{"bike_id":"f99e91c4-2330-4795-bfe7-3495ca9ba92c","system_id":"levelo_inurba_marseille","lat":43.28938,"lon":5.366304,"is_reserved":false,"is_disabled":true,"rental_uris":{"android":"levelo://app?vid=f99e91c4-2330-4795-bfe7-3495ca9ba92c","ios":"levelo://app?vid=f99e91c4-2330-4795-bfe7-3495ca9ba92c"},"vehicle_type_id":"4","last_reported":1738555916,"current_range_meters":26800,"station_id":"ce4bhap2rcd13ifvqek0","pricing_plan_id":"cebpf4jnsgd1na2vs0mg"},{"bike_id":"0f0beca1-cf2c-470b-a1cc-3c6f92df455d","system_id":"levelo_inurba_marseille","lat":43.2466,"lon":5.38166,"is_reserved":false,"is_disabled":false,"rental_uris":{"android":"levelo://app?vid=0f0beca1-cf2c-470b-a1cc-3c6f92df455d","ios":"levelo://app?vid=0f0beca1-cf2c-470b-a1cc-3c6f92df455d"},"vehicle_type_id":"4","last_reported":1738555916,"current_range_meters":6800,"station_id":"ce4bhih2rcd13ifvqfr0","pricing_plan_id":"cebpf4jnsgd1na2vs0mg"},{"bike_id":"861303b7-ad1c-4398-bdeb-473d56999f22","system_id":"levelo_inurba_marseille","lat":43.24646,"lon":5.38904,"is_reserved":false,"is_disabled":false,"rental_uris":{"android":"levelo://app?vid=861303b7-ad1c-4398-bdeb-473d56999f22","ios":"levelo://app?vid=861303b7-ad1c-4398-bdeb-473d56999f22"},"vehicle_type_id":"4","last_reported":1738555916,"current_range_meters":37600,"station_id":"ce4bhg12rcd13ifvqf60","pricing_plan_id":"cebpf4jnsgd1na2vs0mg"},{"bike_id":"bf6f6448-ac2a-4aa9-a865-7272995774af","system_id":"levelo_inurba_marseille","lat":43.33079,"lon":5.38999,"is_reserved":false,"is_disabled":false,"rental_uris":{"android":"levelo://app?vid=bf6f6448-ac2a-4aa9-a865-7272995774af","ios":"levelo://app?vid=bf6f6448-ac2a-4aa9-a865-7272995774af"},"vehicle_type_id":"4","last_reported":1738555916,"current_range_meters":38800,"station_id":"ce4bhr92rcd13ifvqhrg","pricing_plan_id":"cebpf4jnsgd1na2vs0mg"},{"bike_id":"2017d996-f52c-4584-a168-e8654a14f503","system_id":"levelo_inurba_marseille","lat":43.23965,"lon":5.36622,"is_reserved":false,"is_disabled":true,"rental_uris":{"android":"levelo://app?vid=2017d996-f52c-4584-a168-e8654a14f503","ios":"levelo://app?vid=2017d996-f52c-4584-a168-e8654a14f503"},"vehicle_type_id":"4","last_reported":1738555916,"current_range_meters":33200,"station_id":"ce4bhi12rcd13ifvqfp0","pricing_plan_id":"cebpf4jnsgd1na2vs0mg"},{"bike_id":"e2698efb-9971-49b6-8c17-ae3367c057dc","system_id":"levelo_inurba_marseille","lat":43.30452,"lon":5.38883,"is_reserved":false,"is_disabled":false,"rental_uris":{"android":"levelo://app?vid=e2698efb-9971-49b6-8c17-ae3367c057dc","ios":"levelo://app?vid=e2698efb-9971-49b6-8c17-ae3367c057dc"},"vehicle_type_id":"4","last_reported":1738555916,"current_range_meters":32800,"station_id":"ce4bgk12rcd13ifvqbi0","pricing_plan_id":"cebpf4jnsgd1na2vs0mg"},{"bike_id":"6ba3b23f-46b4-407d-9c68-847ea52b2d07","system_id":"levelo_inurba_marseille","lat":43.251195,"lon":5.403213,"is_reserved":false,"is_disabled":false,"rental_uris":{"android":"levelo://app?vid=6ba3b23f-46b4-407d-9c68-847ea52b2d07","ios":"levelo://app?vid=6ba3b23f-46b4-407d-9c68-847ea52b2d07"},"vehicle_type_id":"4","last_reported":1738555916,"current_range_meters":37600,"station_id":"ce4bhlh2rcd13ifvqgig","pricing_plan_id":"cebpf4jnsgd1na2vs0mg"},{"bike_id":"4141e714-4e7a-4571-8c94-78a1e86b7493","system_id":"levelo_inurba_marseille","lat":43.24807,"lon":5.37462,"is_reserved":false,"is_disabled":false,"rental_uris":{"android":"levelo://app?vid=4141e714-4e7a-4571-8c94-78a1e86b7493","ios":"levelo://app?vid=4141e714-4e7a-4571-8c94-78a1e86b7493"},"vehicle_type_id":"4","last_reported":1738555916,"current_range_meters":37600,"station_id":"ce4bhgh2rcd13ifvqfb0","pricing_plan_id":"cebpf4jnsgd1na2vs0mg"},{"bike_id":"0ef83bbd-06ec-47f7-a25d-62aa89428599","system_id":"levelo_inurba_marseille","lat":43.258598,"lon":5.399008,"is_reserved":false,"is_disabled":false,"rental_uris":{"android":"levelo://app?vid=0ef83bbd-06ec-47f7-a25d-62aa89428599","ios":"levelo://app?vid=0ef83bbd-06ec-47f7-a25d-62aa89428599"},"vehicle_type_id":"4","last_reported":1738555916,"current_range_meters":28400,"station_id":"ce4bhl92rcd13ifvqghg","pricing_plan_id":"cebpf4jnsgd1na2vs0mg"},{"bike_id":"51faca83-1fce-414b-97bc-4d0bcda87249","system_id":"levelo_inurba_marseille","lat":43.282558,"lon":5.35076,"is_reserved":false,"is_disabled":false,"rental_uris":{"android":"levelo://app?vid=51faca83-1fce-414b-97bc-4d0bcda87249","ios":"levelo://app?vid=51faca83-1fce-414b-97bc-4d0bcda87249"},"vehicle_type_id":"4","last_reported":1738555916,"current_range_meters":36400,"station_id":"ce4bhbp2rcd13ifvqerg","pricing_plan_id":"cebpf4jnsgd1na2vs0mg"},{"bike_id":"e68596b2-3f8b-4840-87b3-61b01e293e8e","system_id":"levelo_inurba_marseille","lat":43.3205,"lon":5.41539,"is_reserved":false,"is_disabled":false,"rental_uris":{"android":"levelo://app?vid=e68596b2-3f8b-4840-87b3-61b01e293e8e","ios":"levelo://app?vid=e68596b2-3f8b-4840-87b3-61b01e293e8e"},"vehicle_type_id":"4","last_reported":1738555916,"current_range_meters":16800,"station_id":"ce4bhq92rcd13ifvqhkg","pricing_plan_id":"cebpf4jnsgd1na2vs0mg"},{"bike_id":"8344a4b9-fe19-4ccf-9e1e-c66810831c8c","system_id":"levelo_inurba_marseille","lat":43.243947,"lon":5.370649,"is_reserved":false,"is_disabled":false,"rental_uris":{"android":"levelo://app?vid=8344a4b9-fe19-4ccf-9e1e-c66810831c8c","ios":"levelo://app?vid=8344a4b9-fe19-4ccf-9e1e-c66810831c8c"},"vehicle_type_id":"4","last_reported":1738555916,"current_range_meters":8800,"station_id":"ce4bhhh2rcd13ifvqfk0","pricing_plan_id":"cebpf4jnsgd1na2vs0mg"},{"bike_id":"776cc8ca-f01e-4676-990d-99f02a854c44","system_id":"levelo_inurba_marseille","lat":43.29289,"lon":5.36847,"is_reserved":false,"is_disabled":false,"rental_uris":{"android":"levelo://app?vid=776cc8ca-f01e-4676-990d-99f02a854c44","ios":"levelo://app?vid=776cc8ca-f01e-4676-990d-99f02a854c44"},"vehicle_type_id":"4","last_reported":1738555916,"current_range_meters":37600,"station_id":"ce4bhbp2rcd13ifvqesg","pricing_plan_id":"cebpf4jnsgd1na2vs0mg"},{"bike_id":"b9c9228a-1d62-494b-80a7-dbffbb3390f6","system_id":"levelo_inurba_marseille","lat":43.33728,"lon":5.39178,"is_reserved":false,"is_disabled":false,"rental_uris":{"android":"levelo://app?vid=b9c9228a-1d62-494b-80a7-dbffbb3390f6","ios":"levelo://app?vid=b9c9228a-1d62-494b-80a7-dbffbb3390f6"},"vehicle_type_id":"4","last_reported":1738555916,"current_range_meters":37600,"station_id":"ce4bhr92rcd13ifvqhsg","pricing_plan_id":"cebpf4jnsgd1na2vs0mg"},{"bike_id":"2047e938-57e3-4375-958a-69a4e97a2c7d","system_id":"levelo_inurba_marseille","lat":43.231826,"lon":5.399997,"is_reserved":false,"is_disabled":true,"rental_uris":{"android":"levelo://app?vid=2047e938-57e3-4375-958a-69a4e97a2c7d","ios":"levelo://app?vid=2047e938-57e3-4375-958a-69a4e97a2c7d"},"vehicle_type_id":"4","last_reported":1738555916,"current_range_meters":3600,"station_id":"ce4bhn12rcd13ifvqgqg","pricing_plan_id":"cebpf4jnsgd1na2vs0mg"},{"bike_id":"58bd9da5-f498-4af1-a394-edb385eeec33","system_id":"levelo_inurba_marseille","lat":43.30823,"lon":5.38184,"is_reserved":false,"is_disabled":false,"rental_uris":{"android":"levelo://app?vid=58bd9da5-f498-4af1-a394-edb385eeec33","ios":"levelo://app?vid=58bd9da5-f498-4af1-a394-edb385eeec33"},"vehicle_type_id":"4","last_reported":1738555916,"current_range_meters":24400,"station_id":"ce4bgt12rcd13ifvqce0","pricing_plan_id":"cebpf4jnsgd1na2vs0mg"},{"bike_id":"ee5c8a51-ad90-430a-9429-c6f1c8ebd0a4","system_id":"levelo_inurba_marseille","lat":43.26232,"lon":5.37523,"is_reserved":false,"is_disabled":false,"rental_uris":{"android":"levelo://app?vid=ee5c8a51-ad90-430a-9429-c6f1c8ebd0a4","ios":"levelo://app?vid=ee5c8a51-ad90-430a-9429-c6f1c8ebd0a4"},"vehicle_type_id":"4","last_reported":1738555916,"current_range_meters":6400,"station_id":"","pricing_plan_id":"cebpf4jnsgd1na2vs0mg"},{"bike_id":"9e08ca9f-8bd0-444c-b69a-cb263cfb88be","system_id":"levelo_inurba_marseille","lat":43.26587,"lon":5.39042,"is_reserved":false,"is_disabled":true,"rental_uris":{"android":"levelo://app?vid=9e08ca9f-8bd0-444c-b69a-cb263cfb88be","ios":"levelo://app?vid=9e08ca9f-8bd0-444c-b69a-cb263cfb88be"},"vehicle_type_id":"4","last_reported":1738555916,"current_range_meters":30800,"station_id":"ce4bhe12rcd13ifvqf30","pricing_plan_id":"cebpf4jnsgd1na2vs0mg"},{"bike_id":"51066c61-f28c-45f5-927a-c632495855f1","system_id":"levelo_inurba_marseille","lat":43.28211,"lon":5.42712,"is_reserved":false,"is_disabled":false,"rental_uris":{"android":"levelo://app?vid=51066c61-f28c-45f5-927a-c632495855f1","ios":"levelo://app?vid=51066c61-f28c-45f5-927a-c632495855f1"},"vehicle_type_id":"4","last_reported":1738555916,"current_range_meters":28000,"station_id":"","pricing_plan_id":"cebpf4jnsgd1na2vs0mg"},{"bike_id":"5bfb88bf-b512-4c17-8ead-82e64327b77a","system_id":"levelo_inurba_marseille","lat":43.282608,"lon":5.350739,"is_reserved":false,"is_disabled":false,"rental_uris":{"android":"levelo://app?vid=5bfb88bf-b512-4c17-8ead-82e64327b77a","ios":"levelo://app?vid=5bfb88bf-b512-4c17-8ead-82e64327b77a"},"vehicle_type_id":"4","last_reported":1738555916,"current_range_meters":38800,"station_id":"ce4bhbp2rcd13ifvqerg","pricing_plan_id":"cebpf4jnsgd1na2vs0mg"},{"bike_id":"4f2321b3-b72c-4368-be30-9b405df9d523","system_id":"levelo_inurba_marseille","lat":43.30631,"lon":5.40076,"is_reserved":false,"is_disabled":false,"rental_uris":{"android":"levelo://app?vid=4f2321b3-b72c-4368-be30-9b405df9d523","ios":"levelo://app?vid=4f2321b3-b72c-4368-be30-9b405df9d523"},"vehicle_type_id":"4","last_reported":1738555916,"current_range_meters":25600,"station_id":"ce4bh112rcd13ifvqda0","pricing_plan_id":"cebpf4jnsgd1na2vs0mg"},{"bike_id":"eeb9a5cf-3d03-479f-9646-e8bf0a748ea8","system_id":"levelo_inurba_marseille","lat":43.284396,"lon":5.391897,"is_reserved":false,"is_disabled":false,"rental_uris":{"android":"levelo://app?vid=eeb9a5cf-3d03-479f-9646-e8bf0a748ea8","ios":"levelo://app?vid=eeb9a5cf-3d03-479f-9646-e8bf0a748ea8"},"vehicle_type_id":"4","last_reported":1738555916,"current_range_meters":38000,"station_id":"ce4bhoh2rcd13ifvqh5g","pricing_plan_id":"cebpf4jnsgd1na2vs0mg"},{"bike_id":"5193ac84-5b8b-4519-b9bf-865fff08a5b3","system_id":"levelo_inurba_marseille","lat":43.29241,"lon":5.40907,"is_reserved":false,"is_disabled":false,"rental_uris":{"android":"levelo://app?vid=5193ac84-5b8b-4519-b9bf-865fff08a5b3","ios":"levelo://app?vid=5193ac84-5b8b-4519-b9bf-865fff08a5b3"},"vehicle_type_id":"4","last_reported":1738555916,"current_range_meters":38800,"station_id":"ce4bh192rcd13ifvqdc0","pricing_plan_id":"cebpf4jnsgd1na2vs0mg"},{"bike_id":"fab74cc4-6923-4fda-a3da-a32cf4a1265d","system_id":"levelo_inurba_marseille","lat":43.3023,"lon":5.40026,"is_reserved":false,"is_disabled":false,"rental_uris":{"android":"levelo://app?vid=fab74cc4-6923-4fda-a3da-a32cf4a1265d","ios":"levelo://app?vid=fab74cc4-6923-4fda-a3da-a32cf4a1265d"},"vehicle_type_id":"4","last_reported":1738555916,"current_range_meters":32800,"station_id":"ce4bgvh2rcd13ifvqcs0","pricing_plan_id":"cebpf4jnsgd1na2vs0mg"},{"bike_id":"461a8c06-47b5-498d-98c2-5799cd485fe6","system_id":"levelo_inurba_marseille","lat":43.241761,"lon":5.397347,"is_reserved":false,"is_disabled":false,"rental_uris":{"android":"levelo://app?vid=461a8c06-47b5-498d-98c2-5799cd485fe6","ios":"levelo://app?vid=461a8c06-47b5-498d-98c2-5799cd485fe6"},"vehicle_type_id":"4","last_reported":1738555916,"current_range_meters":30000,"station_id":"ce4bhn12rcd13ifvqgpg","pricing_plan_id":"cebpf4jnsgd1na2vs0mg"},{"bike_id":"3a60ebc0-dac7-4b3e-a8c5-4699cca32d17","system_id":"levelo_inurba_marseille","lat":43.30801,"lon":5.43525,"is_reserved":false,"is_disabled":false,"rental_uris":{"android":"levelo://app?vid=3a60ebc0-dac7-4b3e-a8c5-4699cca32d17","ios":"levelo://app?vid=3a60ebc0-dac7-4b3e-a8c5-4699cca32d17"},"vehicle_type_id":"4","last_reported":1738555916,"current_range_meters":26000,"station_id":"ce4bhph2rcd13ifvqheg","pricing_plan_id":"cebpf4jnsgd1na2vs0mg"},{"bike_id":"0ade81b6-94a4-4b71-9bcb-5d48ab6b6901","system_id":"levelo_inurba_marseille","lat":43.29792,"lon":5.39352,"is_reserved":false,"is_disabled":false,"rental_uris":{"android":"levelo://app?vid=0ade81b6-94a4-4b71-9bcb-5d48ab6b6901","ios":"levelo://app?vid=0ade81b6-94a4-4b71-9bcb-5d48ab6b6901"},"vehicle_type_id":"4","last_reported":1738555916,"current_range_meters":9600,"station_id":"chh1huq6cuj3fo74tm60","pricing_plan_id":"cebpf4jnsgd1na2vs0mg"},{"bike_id":"5c33e9ec-ac2d-41a1-800b-dddc0d3862e2","system_id":"levelo_inurba_marseille","lat":43.30136,"lon":5.38794,"is_reserved":false,"is_disabled":true,"rental_uris":{"android":"levelo://app?vid=5c33e9ec-ac2d-41a1-800b-dddc0d3862e2","ios":"levelo://app?vid=5c33e9ec-ac2d-41a1-800b-dddc0d3862e2"},"vehicle_type_id":"4","last_reported":1738555916,"current_range_meters":30000,"station_id":"ce4bghh2rcd13ifvqb60","pricing_plan_id":"cebpf4jnsgd1na2vs0mg"},{"bike_id":"3e36ac69-430f-415c-ac0a-246b83170535","system_id":"levelo_inurba_marseille","lat":43.32118,"lon":5.36761,"is_reserved":false,"is_disabled":false,"rental_uris":{"android":"levelo://app?vid=3e36ac69-430f-415c-ac0a-246b83170535","ios":"levelo://app?vid=3e36ac69-430f-415c-ac0a-246b83170535"},"vehicle_type_id":"4","last_reported":1738555916,"current_range_meters":5600,"station_id":"ce4bhrh2rcd13ifvqhug","pricing_plan_id":"cebpf4jnsgd1na2vs0mg"},{"bike_id":"55588187-a4ea-4de4-8902-f9455c40bdb2","system_id":"levelo_inurba_marseille","lat":43.324757,"lon":5.365491,"is_reserved":false,"is_disabled":false,"rental_uris":{"android":"levelo://app?vid=55588187-a4ea-4de4-8902-f9455c40bdb2","ios":"levelo://app?vid=55588187-a4ea-4de4-8902-f9455c40bdb2"},"vehicle_type_id":"4","last_reported":1738555916,"current_range_meters":12800,"station_id":"ce4bhs12rcd13ifvqhvg","pricing_plan_id":"cebpf4jnsgd1na2vs0mg"},{"bike_id":"00f2f312-84f7-4297-a90d-7beda41dd9ad","system_id":"levelo_inurba_marseille","lat":43.29899,"lon":5.43672,"is_reserved":false,"is_disabled":false,"rental_uris":{"android":"levelo://app?vid=00f2f312-84f7-4297-a90d-7beda41dd9ad","ios":"levelo://app?vid=00f2f312-84f7-4297-a90d-7beda41dd9ad"},"vehicle_type_id":"4","last_reported":1738555916,"current_range_meters":38800,"station_id":"ce4bhpp2rcd13ifvqhfg","pricing_plan_id":"cebpf4jnsgd1na2vs0mg"},{"bike_id":"78404ded-34e2-4c23-b95f-76f175a5d028","system_id":"levelo_inurba_marseille","lat":43.28681,"lon":5.38662,"is_reserved":false,"is_disabled":false,"rental_uris":{"android":"levelo://app?vid=78404ded-34e2-4c23-b95f-76f175a5d028","ios":"levelo://app?vid=78404ded-34e2-4c23-b95f-76f175a5d028"},"vehicle_type_id":"4","last_reported":1738555916,"current_range_meters":38800,"station_id":"ce4bh492rcd13ifvqdug","pricing_plan_id":"cebpf4jnsgd1na2vs0mg"},{"bike_id":"f9a8bd69-665c-48a7-ad3c-2e9818255e07","system_id":"levelo_inurba_marseille","lat":43.32473,"lon":5.36561,"is_reserved":false,"is_disabled":false,"rental_uris":{"android":"levelo://app?vid=f9a8bd69-665c-48a7-ad3c-2e9818255e07","ios":"levelo://app?vid=f9a8bd69-665c-48a7-ad3c-2e9818255e07"},"vehicle_type_id":"4","last_reported":1738555916,"current_range_meters":38400,"station_id":"ce4bhs12rcd13ifvqhvg","pricing_plan_id":"cebpf4jnsgd1na2vs0mg"},{"bike_id":"21693d18-a3ae-4e67-92b8-90086e55ef23","system_id":"levelo_inurba_marseille","lat":43.29029,"lon":5.38164,"is_reserved":false,"is_disabled":true,"rental_uris":{"android":"levelo://app?vid=21693d18-a3ae-4e67-92b8-90086e55ef23","ios":"levelo://app?vid=21693d18-a3ae-4e67-92b8-90086e55ef23"},"vehicle_type_id":"4","last_reported":1738555916,"current_range_meters":38800,"station_id":"ce4bh4p2rcd13ifvqe1g","pricing_plan_id":"cebpf4jnsgd1na2vs0mg"},{"bike_id":"2abf2e04-64f9-454a-a5ce-482f321c0fbc","system_id":"levelo_inurba_marseille","lat":43.296239,"lon":5.377045,"is_reserved":false,"is_disabled":true,"rental_uris":{"android":"levelo://app?vid=2abf2e04-64f9-454a-a5ce-482f321c0fbc","ios":"levelo://app?vid=2abf2e04-64f9-454a-a5ce-482f321c0fbc"},"vehicle_type_id":"4","last_reported":1738555916,"current_range_meters":0,"station_id":"","pricing_plan_id":"cebpf4jnsgd1na2vs0mg"},{"bike_id":"74f973f6-53f8-42c3-b1d8-95ee9a3c40ae","system_id":"levelo_inurba_marseille","lat":43.28705,"lon":5.37374,"is_reserved":false,"is_disabled":false,"rental_uris":{"android":"levelo://app?vid=74f973f6-53f8-42c3-b1d8-95ee9a3c40ae","ios":"levelo://app?vid=74f973f6-53f8-42c3-b1d8-95ee9a3c40ae"},"vehicle_type_id":"4","last_reported":1738555916,"current_range_meters":30400,"station_id":"ce4bh3p2rcd13ifvqdq0","pricing_plan_id":"cebpf4jnsgd1na2vs0mg"},{"bike_id":"ab2c796a-c23b-4a3a-9534-777b873d6a05","system_id":"levelo_inurba_marseille","lat":43.241661,"lon":5.364041,"is_reserved":false,"is_disabled":false,"rental_uris":{"android":"levelo://app?vid=ab2c796a-c23b-4a3a-9534-777b873d6a05","ios":"levelo://app?vid=ab2c796a-c23b-4a3a-9534-777b873d6a05"},"vehicle_type_id":"4","last_reported":1738555916,"current_range_meters":26800,"station_id":"cpo36qri1sfpv3e86is0","pricing_plan_id":"cebpf4jnsgd1na2vs0mg"},{"bike_id":"7425f960-9d6f-463d-9f22-8efe90f42224","system_id":"levelo_inurba_marseille","lat":43.28462,"lon":5.38486,"is_reserved":false,"is_disabled":true,"rental_uris":{"android":"levelo://app?vid=7425f960-9d6f-463d-9f22-8efe90f42224","ios":"levelo://app?vid=7425f960-9d6f-463d-9f22-8efe90f42224"},"vehicle_type_id":"4","last_reported":1738555916,"current_range_meters":0,"station_id":"","pricing_plan_id":"cebpf4jnsgd1na2vs0mg"},{"bike_id":"00f658b8-d83e-4060-a5c9-dc5560d25140","system_id":"levelo_inurba_marseille","lat":43.31854,"lon":5.37419,"is_reserved":false,"is_disabled":false,"rental_uris":{"android":"levelo://app?vid=00f658b8-d83e-4060-a5c9-dc5560d25140","ios":"levelo://app?vid=00f658b8-d83e-4060-a5c9-dc5560d25140"},"vehicle_type_id":"4","last_reported":1738555916,"current_range_meters":22000,"station_id":"","pricing_plan_id":"cebpf4jnsgd1na2vs0mg"},{"bike_id":"f91b18cc-a186-4b7b-b9cd-3dab5bb8af26","system_id":"levelo_inurba_marseille","lat":43.25127,"lon":5.40332,"is_reserved":false,"is_disabled":false,"rental_uris":{"android":"levelo://app?vid=f91b18cc-a186-4b7b-b9cd-3dab5bb8af26","ios":"levelo://app?vid=f91b18cc-a186-4b7b-b9cd-3dab5bb8af26"},"vehicle_type_id":"4","last_reported":1738555916,"current_range_meters":32400,"station_id":"ce4bhlh2rcd13ifvqgig","pricing_plan_id":"cebpf4jnsgd1na2vs0mg"},{"bike_id":"58feef8f-17b5-470d-8151-c7a13f0dbe24","system_id":"levelo_inurba_marseille","lat":43.28419,"lon":5.37517,"is_reserved":false,"is_disabled":true,"rental_uris":{"android":"levelo://app?vid=58feef8f-17b5-470d-8151-c7a13f0dbe24","ios":"levelo://app?vid=58feef8f-17b5-470d-8151-c7a13f0dbe24"},"vehicle_type_id":"4","last_reported":1738555916,"current_range_meters":0,"station_id":"ce4bh412rcd13ifvqds0","pricing_plan_id":"cebpf4jnsgd1na2vs0mg"},{"bike_id":"e6e082fa-fdb2-448a-b26a-b32745ad3bf3","system_id":"levelo_inurba_marseille","lat":43.274895,"lon":5.424581,"is_reserved":false,"is_disabled":false,"rental_uris":{"android":"levelo://app?vid=e6e082fa-fdb2-448a-b26a-b32745ad3bf3","ios":"levelo://app?vid=e6e082fa-fdb2-448a-b26a-b32745ad3bf3"},"vehicle_type_id":"4","last_reported":1738555916,"current_range_meters":38800,"station_id":"ce4bhn92rcd13ifvqgrg","pricing_plan_id":"cebpf4jnsgd1na2vs0mg"},{"bike_id":"7dff5ef2-0f3e-4356-b18c-e55038d676c5","system_id":"levelo_inurba_marseille","lat":43.29805,"lon":5.40406,"is_reserved":false,"is_disabled":false,"rental_uris":{"android":"levelo://app?vid=7dff5ef2-0f3e-4356-b18c-e55038d676c5","ios":"levelo://app?vid=7dff5ef2-0f3e-4356-b18c-e55038d676c5"},"vehicle_type_id":"4","last_reported":1738555916,"current_range_meters":37600,"station_id":"ce4bh112rcd13ifvqd90","pricing_plan_id":"cebpf4jnsgd1na2vs0mg"},{"bike_id":"f5ccd368-925f-407a-a56e-8cc47bfdb3e3","system_id":"levelo_inurba_marseille","lat":43.28039,"lon":5.36941,"is_reserved":false,"is_disabled":false,"rental_uris":{"android":"levelo://app?vid=f5ccd368-925f-407a-a56e-8cc47bfdb3e3","ios":"levelo://app?vid=f5ccd368-925f-407a-a56e-8cc47bfdb3e3"},"vehicle_type_id":"4","last_reported":1738555916,"current_range_meters":24800,"station_id":"ce4bha12rcd13ifvqef0","pricing_plan_id":"cebpf4jnsgd1na2vs0mg"},{"bike_id":"8d11fe87-f8fe-471d-9034-71b46c4b8b9f","system_id":"levelo_inurba_marseille","lat":43.24677,"lon":5.38155,"is_reserved":false,"is_disabled":false,"rental_uris":{"android":"levelo://app?vid=8d11fe87-f8fe-471d-9034-71b46c4b8b9f","ios":"levelo://app?vid=8d11fe87-f8fe-471d-9034-71b46c4b8b9f"},"vehicle_type_id":"4","last_reported":1738555916,"current_range_meters":27200,"station_id":"ce4bhih2rcd13ifvqfr0","pricing_plan_id":"cebpf4jnsgd1na2vs0mg"},{"bike_id":"924c5ffd-e7eb-40f4-98e7-138891fab8e6","system_id":"levelo_inurba_marseille","lat":43.24648,"lon":5.38887,"is_reserved":false,"is_disabled":false,"rental_uris":{"android":"levelo://app?vid=924c5ffd-e7eb-40f4-98e7-138891fab8e6","ios":"levelo://app?vid=924c5ffd-e7eb-40f4-98e7-138891fab8e6"},"vehicle_type_id":"4","last_reported":1738555916,"current_range_meters":9600,"station_id":"ce4bhg12rcd13ifvqf60","pricing_plan_id":"cebpf4jnsgd1na2vs0mg"},{"bike_id":"b69743c2-b22e-4135-9a55-ab7140ba08d5","system_id":"levelo_inurba_marseille","lat":43.28617,"lon":5.351,"is_reserved":false,"is_disabled":true,"rental_uris":{"android":"levelo://app?vid=b69743c2-b22e-4135-9a55-ab7140ba08d5","ios":"levelo://app?vid=b69743c2-b22e-4135-9a55-ab7140ba08d5"},"vehicle_type_id":"4","last_reported":1738555916,"current_range_meters":31200,"station_id":"ce4bhch2rcd13ifvqeug","pricing_plan_id":"cebpf4jnsgd1na2vs0mg"},{"bike_id":"f85aba39-8a5f-4b9b-ae02-5805e5d5b06e","system_id":"levelo_inurba_marseille","lat":43.230579,"lon":5.354894,"is_reserved":false,"is_disabled":false,"rental_uris":{"android":"levelo://app?vid=f85aba39-8a5f-4b9b-ae02-5805e5d5b06e","ios":"levelo://app?vid=f85aba39-8a5f-4b9b-ae02-5805e5d5b06e"},"vehicle_type_id":"4","last_reported":1738555916,"current_range_meters":6400,"station_id":"cpo3342slgdg3j2ifvpg","pricing_plan_id":"cebpf4jnsgd1na2vs0mg"},{"bike_id":"e1d4a2f1-c484-42e0-9232-e98e59dd1624","system_id":"levelo_inurba_marseille","lat":43.29032,"lon":5.3864,"is_reserved":false,"is_disabled":true,"rental_uris":{"android":"levelo://app?vid=e1d4a2f1-c484-42e0-9232-e98e59dd1624","ios":"levelo://app?vid=e1d4a2f1-c484-42e0-9232-e98e59dd1624"},"vehicle_type_id":"4","last_reported":1738555916,"current_range_meters":39200,"station_id":"ce4bh4p2rcd13ifvqe0g","pricing_plan_id":"cebpf4jnsgd1na2vs0mg"},{"bike_id":"f5192a48-f127-416f-ac25-5dcd6cb43014","system_id":"levelo_inurba_marseille","lat":43.310864,"lon":5.424232,"is_reserved":false,"is_disabled":false,"rental_uris":{"android":"levelo://app?vid=f5192a48-f127-416f-ac25-5dcd6cb43014","ios":"levelo://app?vid=f5192a48-f127-416f-ac25-5dcd6cb43014"},"vehicle_type_id":"4","last_reported":1738555916,"current_range_meters":30800,"station_id":"ce4bhp92rcd13ifvqhag","pricing_plan_id":"cebpf4jnsgd1na2vs0mg"},{"bike_id":"10e01d0a-632b-4d62-8534-f552a3667c64","system_id":"levelo_inurba_marseille","lat":43.31136,"lon":5.3802,"is_reserved":false,"is_disabled":false,"rental_uris":{"android":"levelo://app?vid=10e01d0a-632b-4d62-8534-f552a3667c64","ios":"levelo://app?vid=10e01d0a-632b-4d62-8534-f552a3667c64"},"vehicle_type_id":"4","last_reported":1738555916,"current_range_meters":31200,"station_id":"","pricing_plan_id":"cebpf4jnsgd1na2vs0mg"},{"bike_id":"ac0d9583-760e-4cc4-b556-6b2dfc8efbda","system_id":"levelo_inurba_marseille","lat":43.2867,"lon":5.38677,"is_reserved":false,"is_disabled":false,"rental_uris":{"android":"levelo://app?vid=ac0d9583-760e-4cc4-b556-6b2dfc8efbda","ios":"levelo://app?vid=ac0d9583-760e-4cc4-b556-6b2dfc8efbda"},"vehicle_type_id":"4","last_reported":1738555916,"current_range_meters":36800,"station_id":"ce4bh492rcd13ifvqdug","pricing_plan_id":"cebpf4jnsgd1na2vs0mg"},{"bike_id":"23d7ed63-2931-42c9-8ce6-5a8c1b55e53b","system_id":"levelo_inurba_marseille","lat":43.250806,"lon":5.395138,"is_reserved":false,"is_disabled":false,"rental_uris":{"android":"levelo://app?vid=23d7ed63-2931-42c9-8ce6-5a8c1b55e53b","ios":"levelo://app?vid=23d7ed63-2931-42c9-8ce6-5a8c1b55e53b"},"vehicle_type_id":"4","last_reported":1738555916,"current_range_meters":38000,"station_id":"ce4bhm12rcd13ifvqgkg","pricing_plan_id":"cebpf4jnsgd1na2vs0mg"},{"bike_id":"1ae7a4a0-bc90-4f06-852a-a3a68813fe3f","system_id":"levelo_inurba_marseille","lat":43.287071,"lon":5.373886,"is_reserved":false,"is_disabled":false,"rental_uris":{"android":"levelo://app?vid=1ae7a4a0-bc90-4f06-852a-a3a68813fe3f","ios":"levelo://app?vid=1ae7a4a0-bc90-4f06-852a-a3a68813fe3f"},"vehicle_type_id":"4","last_reported":1738555916,"current_range_meters":32800,"station_id":"ce4bh3p2rcd13ifvqdq0","pricing_plan_id":"cebpf4jnsgd1na2vs0mg"},{"bike_id":"1343d691-3a05-4016-a7b2-12228ba1a879","system_id":"levelo_inurba_marseille","lat":43.270698,"lon":5.422696,"is_reserved":false,"is_disabled":false,"rental_uris":{"android":"levelo://app?vid=1343d691-3a05-4016-a7b2-12228ba1a879","ios":"levelo://app?vid=1343d691-3a05-4016-a7b2-12228ba1a879"},"vehicle_type_id":"4","last_reported":1738555916,"current_range_meters":30000,"station_id":"ce4bhk92rcd13ifvqgb0","pricing_plan_id":"cebpf4jnsgd1na2vs0mg"},{"bike_id":"cb342d80-7b25-4c05-9bf4-2a845d0e5daf","system_id":"levelo_inurba_marseille","lat":43.31075,"lon":5.38358,"is_reserved":false,"is_disabled":false,"rental_uris":{"android":"levelo://app?vid=cb342d80-7b25-4c05-9bf4-2a845d0e5daf","ios":"levelo://app?vid=cb342d80-7b25-4c05-9bf4-2a845d0e5daf"},"vehicle_type_id":"4","last_reported":1738555916,"current_range_meters":19600,"station_id":"ce4bgv92rcd13ifvqcr0","pricing_plan_id":"cebpf4jnsgd1na2vs0mg"},{"bike_id":"02b2bb89-f7bf-489a-903d-e9038c5d9090","system_id":"levelo_inurba_marseille","lat":43.29249,"lon":5.38442,"is_reserved":false,"is_disabled":true,"rental_uris":{"android":"levelo://app?vid=02b2bb89-f7bf-489a-903d-e9038c5d9090","ios":"levelo://app?vid=02b2bb89-f7bf-489a-903d-e9038c5d9090"},"vehicle_type_id":"4","last_reported":1738555916,"current_range_meters":28000,"station_id":"ce4bh692rcd13ifvqea0","pricing_plan_id":"cebpf4jnsgd1na2vs0mg"},{"bike_id":"b321ff38-be2e-4454-a2e0-371e8882e8f4","system_id":"levelo_inurba_marseille","lat":43.29728,"lon":5.37657,"is_reserved":false,"is_disabled":true,"rental_uris":{"android":"levelo://app?vid=b321ff38-be2e-4454-a2e0-371e8882e8f4","ios":"levelo://app?vid=b321ff38-be2e-4454-a2e0-371e8882e8f4"},"vehicle_type_id":"4","last_reported":1738555916,"current_range_meters":0,"station_id":"ce4bgkh2rcd13ifvqbl0","pricing_plan_id":"cebpf4jnsgd1na2vs0mg"},{"bike_id":"3a18294d-3924-4e1b-b9d8-20d972975f40","system_id":"levelo_inurba_marseille","lat":43.29927,"lon":5.36572,"is_reserved":false,"is_disabled":false,"rental_uris":{"android":"levelo://app?vid=3a18294d-3924-4e1b-b9d8-20d972975f40","ios":"levelo://app?vid=3a18294d-3924-4e1b-b9d8-20d972975f40"},"vehicle_type_id":"4","last_reported":1738555916,"current_range_meters":22400,"station_id":"ce4bgm92rcd13ifvqbr0","pricing_plan_id":"cebpf4jnsgd1na2vs0mg"},{"bike_id":"bed6b53d-ed92-410e-8774-ebf210f3490f","system_id":"levelo_inurba_marseille","lat":43.3265,"lon":5.40988,"is_reserved":false,"is_disabled":false,"rental_uris":{"android":"levelo://app?vid=bed6b53d-ed92-410e-8774-ebf210f3490f","ios":"levelo://app?vid=bed6b53d-ed92-410e-8774-ebf210f3490f"},"vehicle_type_id":"4","last_reported":1738555916,"current_range_meters":38800,"station_id":"ce4bhpp2rcd13ifvqhgg","pricing_plan_id":"cebpf4jnsgd1na2vs0mg"},{"bike_id":"995fc9c5-9cc3-404c-bd94-5898daf1a360","system_id":"levelo_inurba_marseille","lat":43.30906,"lon":5.36855,"is_reserved":false,"is_disabled":true,"rental_uris":{"android":"levelo://app?vid=995fc9c5-9cc3-404c-bd94-5898daf1a360","ios":"levelo://app?vid=995fc9c5-9cc3-404c-bd94-5898daf1a360"},"vehicle_type_id":"4","last_reported":1738555916,"current_range_meters":30800,"station_id":"ce4bgn92rcd13ifvqbvg","pricing_plan_id":"cebpf4jnsgd1na2vs0mg"},{"bike_id":"9f77c6aa-a55e-4681-a56c-3f48eb232db6","system_id":"levelo_inurba_marseille","lat":43.27817,"lon":5.40717,"is_reserved":false,"is_disabled":false,"rental_uris":{"android":"levelo://app?vid=9f77c6aa-a55e-4681-a56c-3f48eb232db6","ios":"levelo://app?vid=9f77c6aa-a55e-4681-a56c-3f48eb232db6"},"vehicle_type_id":"4","last_reported":1738555916,"current_range_meters":38000,"station_id":"ce4bhnh2rcd13ifvqgtg","pricing_plan_id":"cebpf4jnsgd1na2vs0mg"},{"bike_id":"826e3589-a544-4de9-b21e-e94631584af1","system_id":"levelo_inurba_marseille","lat":43.29882,"lon":5.39726,"is_reserved":false,"is_disabled":false,"rental_uris":{"android":"levelo://app?vid=826e3589-a544-4de9-b21e-e94631584af1","ios":"levelo://app?vid=826e3589-a544-4de9-b21e-e94631584af1"},"vehicle_type_id":"4","last_reported":1738555916,"current_range_meters":38800,"station_id":"ce4bh0h2rcd13ifvqd50","pricing_plan_id":"cebpf4jnsgd1na2vs0mg"},{"bike_id":"bd6db94f-8ac9-4b47-a990-393bec7cd7d4","system_id":"levelo_inurba_marseille","lat":43.26227,"lon":5.40445,"is_reserved":false,"is_disabled":true,"rental_uris":{"android":"levelo://app?vid=bd6db94f-8ac9-4b47-a990-393bec7cd7d4","ios":"levelo://app?vid=bd6db94f-8ac9-4b47-a990-393bec7cd7d4"},"vehicle_type_id":"4","last_reported":1738555916,"current_range_meters":0,"station_id":"ce4bhmh2rcd13ifvqgmg","pricing_plan_id":"cebpf4jnsgd1na2vs0mg"},{"bike_id":"ddd00e95-387d-4687-9b99-27d0e7bf1447","system_id":"levelo_inurba_marseille","lat":43.314514,"lon":5.373813,"is_reserved":false,"is_disabled":true,"rental_uris":{"android":"levelo://app?vid=ddd00e95-387d-4687-9b99-27d0e7bf1447","ios":"levelo://app?vid=ddd00e95-387d-4687-9b99-27d0e7bf1447"},"vehicle_type_id":"4","last_reported":1738555916,"current_range_meters":0,"station_id":"","pricing_plan_id":"cebpf4jnsgd1na2vs0mg"},{"bike_id":"1e4fb263-2fba-4f88-9b2b-9bf396bd5315","system_id":"levelo_inurba_marseille","lat":43.2604,"lon":5.37546,"is_reserved":false,"is_disabled":false,"rental_uris":{"android":"levelo://app?vid=1e4fb263-2fba-4f88-9b2b-9bf396bd5315","ios":"levelo://app?vid=1e4fb263-2fba-4f88-9b2b-9bf396bd5315"},"vehicle_type_id":"4","last_reported":1738555916,"current_range_meters":20000,"station_id":"ce4bhgh2rcd13ifvqfa0","pricing_plan_id":"cebpf4jnsgd1na2vs0mg"},{"bike_id":"0759578c-022e-4212-84c9-2cc2e59945d4","system_id":"levelo_inurba_marseille","lat":43.27179,"lon":5.40997,"is_reserved":false,"is_disabled":false,"rental_uris":{"android":"levelo://app?vid=0759578c-022e-4212-84c9-2cc2e59945d4","ios":"levelo://app?vid=0759578c-022e-4212-84c9-2cc2e59945d4"},"vehicle_type_id":"4","last_reported":1738555916,"current_range_meters":37600,"station_id":"ce4bhl12rcd13ifvqgf0","pricing_plan_id":"cebpf4jnsgd1na2vs0mg"},{"bike_id":"ba1b16dd-09e2-4536-8411-babb750bcb3c","system_id":"levelo_inurba_marseille","lat":43.23193,"lon":5.39971,"is_reserved":false,"is_disabled":true,"rental_uris":{"android":"levelo://app?vid=ba1b16dd-09e2-4536-8411-babb750bcb3c","ios":"levelo://app?vid=ba1b16dd-09e2-4536-8411-babb750bcb3c"},"vehicle_type_id":"4","last_reported":1738555916,"current_range_meters":18800,"station_id":"ce4bhn12rcd13ifvqgqg","pricing_plan_id":"cebpf4jnsgd1na2vs0mg"},{"bike_id":"20029bdd-9f9c-4ff9-86e4-5ba6ed30f46a","system_id":"levelo_inurba_marseille","lat":43.23148,"lon":5.43705,"is_reserved":false,"is_disabled":true,"rental_uris":{"android":"levelo://app?vid=20029bdd-9f9c-4ff9-86e4-5ba6ed30f46a","ios":"levelo://app?vid=20029bdd-9f9c-4ff9-86e4-5ba6ed30f46a"},"vehicle_type_id":"4","last_reported":1738555916,"current_range_meters":0,"station_id":"ce4bhmp2rcd13ifvqgog","pricing_plan_id":"cebpf4jnsgd1na2vs0mg"},{"bike_id":"c0bc84f9-0a3b-40ae-86bf-a72b654385c9","system_id":"levelo_inurba_marseille","lat":43.312732,"lon":5.401744,"is_reserved":false,"is_disabled":false,"rental_uris":{"android":"levelo://app?vid=c0bc84f9-0a3b-40ae-86bf-a72b654385c9","ios":"levelo://app?vid=c0bc84f9-0a3b-40ae-86bf-a72b654385c9"},"vehicle_type_id":"4","last_reported":1738555916,"current_range_meters":26000,"station_id":"ce4bh092rcd13ifvqd30","pricing_plan_id":"cebpf4jnsgd1na2vs0mg"},{"bike_id":"65d01550-2daa-4ae4-9b08-a4f8b2d3bcbe","system_id":"levelo_inurba_marseille","lat":43.33728,"lon":5.39181,"is_reserved":false,"is_disabled":false,"rental_uris":{"android":"levelo://app?vid=65d01550-2daa-4ae4-9b08-a4f8b2d3bcbe","ios":"levelo://app?vid=65d01550-2daa-4ae4-9b08-a4f8b2d3bcbe"},"vehicle_type_id":"4","last_reported":1738555916,"current_range_meters":38000,"station_id":"ce4bhr92rcd13ifvqhsg","pricing_plan_id":"cebpf4jnsgd1na2vs0mg"},{"bike_id":"49d5c636-a9e4-4174-a6c3-cbb8fded1de1","system_id":"levelo_inurba_marseille","lat":43.324758,"lon":5.365488,"is_reserved":false,"is_disabled":false,"rental_uris":{"android":"levelo://app?vid=49d5c636-a9e4-4174-a6c3-cbb8fded1de1","ios":"levelo://app?vid=49d5c636-a9e4-4174-a6c3-cbb8fded1de1"},"vehicle_type_id":"4","last_reported":1738555916,"current_range_meters":38000,"station_id":"ce4bhs12rcd13ifvqhvg","pricing_plan_id":"cebpf4jnsgd1na2vs0mg"},{"bike_id":"5805abe4-d33a-4c57-986f-3167b5b7a28d","system_id":"levelo_inurba_marseille","lat":43.279114,"lon":5.395864,"is_reserved":false,"is_disabled":true,"rental_uris":{"android":"levelo://app?vid=5805abe4-d33a-4c57-986f-3167b5b7a28d","ios":"levelo://app?vid=5805abe4-d33a-4c57-986f-3167b5b7a28d"},"vehicle_type_id":"4","last_reported":1738555916,"current_range_meters":0,"station_id":"ce4bhf92rcd13ifvqf40","pricing_plan_id":"cebpf4jnsgd1na2vs0mg"},{"bike_id":"1ab3385b-ef01-4ed8-8984-032f740b0888","system_id":"levelo_inurba_marseille","lat":43.26074,"lon":5.39401,"is_reserved":false,"is_disabled":false,"rental_uris":{"android":"levelo://app?vid=1ab3385b-ef01-4ed8-8984-032f740b0888","ios":"levelo://app?vid=1ab3385b-ef01-4ed8-8984-032f740b0888"},"vehicle_type_id":"4","last_reported":1738555916,"current_range_meters":38800,"station_id":"ce4bhh92rcd13ifvqfj0","pricing_plan_id":"cebpf4jnsgd1na2vs0mg"},{"bike_id":"469182f8-ed5a-4426-b5f5-e469d388c310","system_id":"levelo_inurba_marseille","lat":43.298028,"lon":5.404043,"is_reserved":false,"is_disabled":false,"rental_uris":{"android":"levelo://app?vid=469182f8-ed5a-4426-b5f5-e469d388c310","ios":"levelo://app?vid=469182f8-ed5a-4426-b5f5-e469d388c310"},"vehicle_type_id":"4","last_reported":1738555916,"current_range_meters":37600,"station_id":"ce4bh112rcd13ifvqd90","pricing_plan_id":"cebpf4jnsgd1na2vs0mg"},{"bike_id":"00c2b463-ff28-416c-bdaa-0914555df2d5","system_id":"levelo_inurba_marseille","lat":43.29001,"lon":5.35606,"is_reserved":false,"is_disabled":false,"rental_uris":{"android":"levelo://app?vid=00c2b463-ff28-416c-bdaa-0914555df2d5","ios":"levelo://app?vid=00c2b463-ff28-416c-bdaa-0914555df2d5"},"vehicle_type_id":"4","last_reported":1738555916,"current_range_meters":38800,"station_id":"ce4bhb92rcd13ifvqen0","pricing_plan_id":"cebpf4jnsgd1na2vs0mg"},{"bike_id":"491407c5-a175-44f0-86fc-0f4ccadf82e3","system_id":"levelo_inurba_marseille","lat":43.337444,"lon":5.374475,"is_reserved":false,"is_disabled":true,"rental_uris":{"android":"levelo://app?vid=491407c5-a175-44f0-86fc-0f4ccadf82e3","ios":"levelo://app?vid=491407c5-a175-44f0-86fc-0f4ccadf82e3"},"vehicle_type_id":"4","last_reported":1738555916,"current_range_meters":0,"station_id":"","pricing_plan_id":"cebpf4jnsgd1na2vs0mg"},{"bike_id":"97387978-97f1-4098-a9d7-830fd0581eb7","system_id":"levelo_inurba_marseille","lat":43.30161,"lon":5.38089,"is_reserved":false,"is_disabled":false,"rental_uris":{"android":"levelo://app?vid=97387978-97f1-4098-a9d7-830fd0581eb7","ios":"levelo://app?vid=97387978-97f1-4098-a9d7-830fd0581eb7"},"vehicle_type_id":"4","last_reported":1738555916,"current_range_meters":24400,"station_id":"ce4bgjp2rcd13ifvqbh0","pricing_plan_id":"cebpf4jnsgd1na2vs0mg"},{"bike_id":"3844d7d2-7ad1-4056-ad31-7871ccaa4a51","system_id":"levelo_inurba_marseille","lat":43.285661,"lon":5.395028,"is_reserved":false,"is_disabled":false,"rental_uris":{"android":"levelo://app?vid=3844d7d2-7ad1-4056-ad31-7871ccaa4a51","ios":"levelo://app?vid=3844d7d2-7ad1-4056-ad31-7871ccaa4a51"},"vehicle_type_id":"4","last_reported":1738555916,"current_range_meters":37600,"station_id":"ce4bh292rcd13ifvqdg0","pricing_plan_id":"cebpf4jnsgd1na2vs0mg"},{"bike_id":"d3c71994-f738-4ff3-a20e-ace13d2c73e0","system_id":"levelo_inurba_marseille","lat":43.254985,"lon":5.376542,"is_reserved":false,"is_disabled":false,"rental_uris":{"android":"levelo://app?vid=d3c71994-f738-4ff3-a20e-ace13d2c73e0","ios":"levelo://app?vid=d3c71994-f738-4ff3-a20e-ace13d2c73e0"},"vehicle_type_id":"4","last_reported":1738555916,"current_range_meters":38000,"station_id":"ce4bhh12rcd13ifvqff0","pricing_plan_id":"cebpf4jnsgd1na2vs0mg"},{"bike_id":"4a7af680-8a77-45cb-85cc-9f0a7f33be68","system_id":"levelo_inurba_marseille","lat":43.29812,"lon":5.40417,"is_reserved":false,"is_disabled":true,"rental_uris":{"android":"levelo://app?vid=4a7af680-8a77-45cb-85cc-9f0a7f33be68","ios":"levelo://app?vid=4a7af680-8a77-45cb-85cc-9f0a7f33be68"},"vehicle_type_id":"4","last_reported":1738555916,"current_range_meters":24800,"station_id":"ce4bh112rcd13ifvqd90","pricing_plan_id":"cebpf4jnsgd1na2vs0mg"},{"bike_id":"7b4f1635-e860-42cb-bf63-097a372914ae","system_id":"levelo_inurba_marseille","lat":43.28352,"lon":5.38117,"is_reserved":false,"is_disabled":false,"rental_uris":{"android":"levelo://app?vid=7b4f1635-e860-42cb-bf63-097a372914ae","ios":"levelo://app?vid=7b4f1635-e860-42cb-bf63-097a372914ae"},"vehicle_type_id":"4","last_reported":1738555916,"current_range_meters":38800,"station_id":"ce4bh412rcd13ifvqdr0","pricing_plan_id":"cebpf4jnsgd1na2vs0mg"},{"bike_id":"99c1e446-17f6-4977-ab02-37cf2dc4140e","system_id":"levelo_inurba_marseille","lat":43.24166,"lon":5.36396,"is_reserved":false,"is_disabled":false,"rental_uris":{"android":"levelo://app?vid=99c1e446-17f6-4977-ab02-37cf2dc4140e","ios":"levelo://app?vid=99c1e446-17f6-4977-ab02-37cf2dc4140e"},"vehicle_type_id":"4","last_reported":1738555916,"current_range_meters":30000,"station_id":"cpo36qri1sfpv3e86is0","pricing_plan_id":"cebpf4jnsgd1na2vs0mg"},{"bike_id":"0b439ceb-bbef-470b-b522-3e20f798d948","system_id":"levelo_inurba_marseille","lat":43.29086,"lon":5.38156,"is_reserved":false,"is_disabled":true,"rental_uris":{"android":"levelo://app?vid=0b439ceb-bbef-470b-b522-3e20f798d948","ios":"levelo://app?vid=0b439ceb-bbef-470b-b522-3e20f798d948"},"vehicle_type_id":"4","last_reported":1738555916,"current_range_meters":14400,"station_id":"ce4bh512rcd13ifvqe2g","pricing_plan_id":"cebpf4jnsgd1na2vs0mg"},{"bike_id":"e5931363-493d-4d5b-87bb-5572104dbc7e","system_id":"levelo_inurba_marseille","lat":43.2971,"lon":5.37688,"is_reserved":false,"is_disabled":false,"rental_uris":{"android":"levelo://app?vid=e5931363-493d-4d5b-87bb-5572104dbc7e","ios":"levelo://app?vid=e5931363-493d-4d5b-87bb-5572104dbc7e"},"vehicle_type_id":"4","last_reported":1738555916,"current_range_meters":14800,"station_id":"ce4bgkh2rcd13ifvqbl0","pricing_plan_id":"cebpf4jnsgd1na2vs0mg"},{"bike_id":"37ba8b6f-005b-42d7-90c2-0c64fb7745e0","system_id":"levelo_inurba_marseille","lat":43.2957,"lon":5.39958,"is_reserved":false,"is_disabled":true,"rental_uris":{"android":"levelo://app?vid=37ba8b6f-005b-42d7-90c2-0c64fb7745e0","ios":"levelo://app?vid=37ba8b6f-005b-42d7-90c2-0c64fb7745e0"},"vehicle_type_id":"4","last_reported":1738555916,"current_range_meters":38800,"station_id":"ce4bh312rcd13ifvqdj0","pricing_plan_id":"cebpf4jnsgd1na2vs0mg"},{"bike_id":"246cfd69-3f92-4e90-aa97-e3988a738d3e","system_id":"levelo_inurba_marseille","lat":43.28671,"lon":5.38663,"is_reserved":false,"is_disabled":true,"rental_uris":{"android":"levelo://app?vid=246cfd69-3f92-4e90-aa97-e3988a738d3e","ios":"levelo://app?vid=246cfd69-3f92-4e90-aa97-e3988a738d3e"},"vehicle_type_id":"4","last_reported":1738555916,"current_range_meters":28000,"station_id":"ce4bh492rcd13ifvqdug","pricing_plan_id":"cebpf4jnsgd1na2vs0mg"},{"bike_id":"f38a9b51-7bc8-4445-89b3-2095fb6b771f","system_id":"levelo_inurba_marseille","lat":43.28695,"lon":5.37402,"is_reserved":false,"is_disabled":true,"rental_uris":{"android":"levelo://app?vid=f38a9b51-7bc8-4445-89b3-2095fb6b771f","ios":"levelo://app?vid=f38a9b51-7bc8-4445-89b3-2095fb6b771f"},"vehicle_type_id":"4","last_reported":1738555916,"current_range_meters":20000,"station_id":"ce4bh3p2rcd13ifvqdq0","pricing_plan_id":"cebpf4jnsgd1na2vs0mg"},{"bike_id":"9960956f-115f-415f-b954-8ef922a7f600","system_id":"levelo_inurba_marseille","lat":43.2929,"lon":5.40124,"is_reserved":false,"is_disabled":false,"rental_uris":{"android":"levelo://app?vid=9960956f-115f-415f-b954-8ef922a7f600","ios":"levelo://app?vid=9960956f-115f-415f-b954-8ef922a7f600"},"vehicle_type_id":"4","last_reported":1738555916,"current_range_meters":38800,"station_id":"ce4bh312rcd13ifvqdk0","pricing_plan_id":"cebpf4jnsgd1na2vs0mg"},{"bike_id":"61ae5287-ad52-4e91-9746-31717be1218a","system_id":"levelo_inurba_marseille","lat":43.289411,"lon":5.396252,"is_reserved":false,"is_disabled":false,"rental_uris":{"android":"levelo://app?vid=61ae5287-ad52-4e91-9746-31717be1218a","ios":"levelo://app?vid=61ae5287-ad52-4e91-9746-31717be1218a"},"vehicle_type_id":"4","last_reported":1738555916,"current_range_meters":28400,"station_id":"ce4bh3h2rcd13ifvqdn0","pricing_plan_id":"cebpf4jnsgd1na2vs0mg"},{"bike_id":"32ac2062-b222-4475-bcd7-3ee23b8f545a","system_id":"levelo_inurba_marseille","lat":43.30327,"lon":5.40447,"is_reserved":false,"is_disabled":false,"rental_uris":{"android":"levelo://app?vid=32ac2062-b222-4475-bcd7-3ee23b8f545a","ios":"levelo://app?vid=32ac2062-b222-4475-bcd7-3ee23b8f545a"},"vehicle_type_id":"4","last_reported":1738555916,"current_range_meters":24800,"station_id":"ce4bh012rcd13ifvqd10","pricing_plan_id":"cebpf4jnsgd1na2vs0mg"},{"bike_id":"0646d933-7c62-4704-bb43-b1356d963c19","system_id":"levelo_inurba_marseille","lat":43.30533,"lon":5.36695,"is_reserved":false,"is_disabled":false,"rental_uris":{"android":"levelo://app?vid=0646d933-7c62-4704-bb43-b1356d963c19","ios":"levelo://app?vid=0646d933-7c62-4704-bb43-b1356d963c19"},"vehicle_type_id":"4","last_reported":1738555916,"current_range_meters":38000,"station_id":"ce4bgrp2rcd13ifvqc9g","pricing_plan_id":"cebpf4jnsgd1na2vs0mg"},{"bike_id":"5cbd0846-3779-450c-bbc0-666e1e145d5f","system_id":"levelo_inurba_marseille","lat":43.30936,"lon":5.39067,"is_reserved":false,"is_disabled":false,"rental_uris":{"android":"levelo://app?vid=5cbd0846-3779-450c-bbc0-666e1e145d5f","ios":"levelo://app?vid=5cbd0846-3779-450c-bbc0-666e1e145d5f"},"vehicle_type_id":"4","last_reported":1738555916,"current_range_meters":38800,"station_id":"ce4bgup2rcd13ifvqco0","pricing_plan_id":"cebpf4jnsgd1na2vs0mg"},{"bike_id":"6dc758d1-7964-46b9-a9a9-11abac76b7de","system_id":"levelo_inurba_marseille","lat":43.2437,"lon":5.37055,"is_reserved":false,"is_disabled":false,"rental_uris":{"android":"levelo://app?vid=6dc758d1-7964-46b9-a9a9-11abac76b7de","ios":"levelo://app?vid=6dc758d1-7964-46b9-a9a9-11abac76b7de"},"vehicle_type_id":"4","last_reported":1738555916,"current_range_meters":28400,"station_id":"ce4bhhh2rcd13ifvqfk0","pricing_plan_id":"cebpf4jnsgd1na2vs0mg"},{"bike_id":"dff2410f-4af5-4630-b92e-ba7b2cac4e8c","system_id":"levelo_inurba_marseille","lat":43.28162,"lon":5.42643,"is_reserved":false,"is_disabled":false,"rental_uris":{"android":"levelo://app?vid=dff2410f-4af5-4630-b92e-ba7b2cac4e8c","ios":"levelo://app?vid=dff2410f-4af5-4630-b92e-ba7b2cac4e8c"},"vehicle_type_id":"4","last_reported":1738555916,"current_range_meters":29600,"station_id":"ce4bhnh2rcd13ifvqgug","pricing_plan_id":"cebpf4jnsgd1na2vs0mg"},{"bike_id":"00bbb5cd-9f74-4c00-94cb-7246c199dfb7","system_id":"levelo_inurba_marseille","lat":43.28648,"lon":5.35074,"is_reserved":false,"is_disabled":true,"rental_uris":{"android":"levelo://app?vid=00bbb5cd-9f74-4c00-94cb-7246c199dfb7","ios":"levelo://app?vid=00bbb5cd-9f74-4c00-94cb-7246c199dfb7"},"vehicle_type_id":"4","last_reported":1738555916,"current_range_meters":0,"station_id":"ce4bhch2rcd13ifvqeug","pricing_plan_id":"cebpf4jnsgd1na2vs0mg"},{"bike_id":"ab4e1438-274f-4ed7-ac4d-8bd3728badb1","system_id":"levelo_inurba_marseille","lat":43.251099,"lon":5.403263,"is_reserved":false,"is_disabled":false,"rental_uris":{"android":"levelo://app?vid=ab4e1438-274f-4ed7-ac4d-8bd3728badb1","ios":"levelo://app?vid=ab4e1438-274f-4ed7-ac4d-8bd3728badb1"},"vehicle_type_id":"4","last_reported":1738555916,"current_range_meters":28800,"station_id":"ce4bhlh2rcd13ifvqgig","pricing_plan_id":"cebpf4jnsgd1na2vs0mg"},{"bike_id":"785d7c7b-9ee6-419c-8415-ff90703fea3d","system_id":"levelo_inurba_marseille","lat":43.31345,"lon":5.36726,"is_reserved":false,"is_disabled":false,"rental_uris":{"android":"levelo://app?vid=785d7c7b-9ee6-419c-8415-ff90703fea3d","ios":"levelo://app?vid=785d7c7b-9ee6-419c-8415-ff90703fea3d"},"vehicle_type_id":"4","last_reported":1738555916,"current_range_meters":38800,"station_id":"ce4bgr92rcd13ifvqc6g","pricing_plan_id":"cebpf4jnsgd1na2vs0mg"},{"bike_id":"9beea162-7f88-4bab-8bc0-de9c6b0cd9ad","system_id":"levelo_inurba_marseille","lat":43.30784,"lon":5.37656,"is_reserved":false,"is_disabled":false,"rental_uris":{"android":"levelo://app?vid=9beea162-7f88-4bab-8bc0-de9c6b0cd9ad","ios":"levelo://app?vid=9beea162-7f88-4bab-8bc0-de9c6b0cd9ad"},"vehicle_type_id":"4","last_reported":1738555916,"current_range_meters":32800,"station_id":"ce4bgv92rcd13ifvqcq0","pricing_plan_id":"cebpf4jnsgd1na2vs0mg"},{"bike_id":"6cd661e3-de5d-41f6-b3ff-26fd75ee3741","system_id":"levelo_inurba_marseille","lat":43.28817,"lon":5.39305,"is_reserved":false,"is_disabled":false,"rental_uris":{"android":"levelo://app?vid=6cd661e3-de5d-41f6-b3ff-26fd75ee3741","ios":"levelo://app?vid=6cd661e3-de5d-41f6-b3ff-26fd75ee3741"},"vehicle_type_id":"4","last_reported":1738555916,"current_range_meters":28400,"station_id":"ce4bh2p2rcd13ifvqdi0","pricing_plan_id":"cebpf4jnsgd1na2vs0mg"},{"bike_id":"f4001614-a8f5-4231-b4a5-58ad6a748e23","system_id":"levelo_inurba_marseille","lat":43.299619,"lon":5.4133,"is_reserved":false,"is_disabled":false,"rental_uris":{"android":"levelo://app?vid=f4001614-a8f5-4231-b4a5-58ad6a748e23","ios":"levelo://app?vid=f4001614-a8f5-4231-b4a5-58ad6a748e23"},"vehicle_type_id":"4","last_reported":1738555916,"current_range_meters":7200,"station_id":"ce4bhp12rcd13ifvqh9g","pricing_plan_id":"cebpf4jnsgd1na2vs0mg"},{"bike_id":"637ee9bc-6e1a-4347-a000-7908a013bdfd","system_id":"levelo_inurba_marseille","lat":43.30141,"lon":5.37406,"is_reserved":false,"is_disabled":false,"rental_uris":{"android":"levelo://app?vid=637ee9bc-6e1a-4347-a000-7908a013bdfd","ios":"levelo://app?vid=637ee9bc-6e1a-4347-a000-7908a013bdfd"},"vehicle_type_id":"4","last_reported":1738555916,"current_range_meters":36800,"station_id":"ce4bgs92rcd13ifvqcc0","pricing_plan_id":"cebpf4jnsgd1na2vs0mg"},{"bike_id":"1f4e4183-ba38-4674-b19d-0c758736fe8e","system_id":"levelo_inurba_marseille","lat":43.25103,"lon":5.3951,"is_reserved":false,"is_disabled":false,"rental_uris":{"android":"levelo://app?vid=1f4e4183-ba38-4674-b19d-0c758736fe8e","ios":"levelo://app?vid=1f4e4183-ba38-4674-b19d-0c758736fe8e"},"vehicle_type_id":"4","last_reported":1738555916,"current_range_meters":22400,"station_id":"ce4bhm12rcd13ifvqgkg","pricing_plan_id":"cebpf4jnsgd1na2vs0mg"},{"bike_id":"fc944fe1-b12f-407f-ad91-1453dc59e089","system_id":"levelo_inurba_marseille","lat":43.30884,"lon":5.396,"is_reserved":false,"is_disabled":false,"rental_uris":{"android":"levelo://app?vid=fc944fe1-b12f-407f-ad91-1453dc59e089","ios":"levelo://app?vid=fc944fe1-b12f-407f-ad91-1453dc59e089"},"vehicle_type_id":"4","last_reported":1738555916,"current_range_meters":31200,"station_id":"","pricing_plan_id":"cebpf4jnsgd1na2vs0mg"},{"bike_id":"a5ed823a-a5d0-4548-8cfd-2703a4da9034","system_id":"levelo_inurba_marseille","lat":43.30548,"lon":5.36523,"is_reserved":false,"is_disabled":false,"rental_uris":{"android":"levelo://app?vid=a5ed823a-a5d0-4548-8cfd-2703a4da9034","ios":"levelo://app?vid=a5ed823a-a5d0-4548-8cfd-2703a4da9034"},"vehicle_type_id":"4","last_reported":1738555916,"current_range_meters":37600,"station_id":"ce4bgs12rcd13ifvqcag","pricing_plan_id":"cebpf4jnsgd1na2vs0mg"},{"bike_id":"fb4cc7a8-e961-4995-96e8-4cbd01ddee0f","system_id":"levelo_inurba_marseille","lat":43.302971,"lon":5.391979,"is_reserved":false,"is_disabled":true,"rental_uris":{"android":"levelo://app?vid=fb4cc7a8-e961-4995-96e8-4cbd01ddee0f","ios":"levelo://app?vid=fb4cc7a8-e961-4995-96e8-4cbd01ddee0f"},"vehicle_type_id":"4","last_reported":1738555916,"current_range_meters":4000,"station_id":"ce4bgkh2rcd13ifvqbk0","pricing_plan_id":"cebpf4jnsgd1na2vs0mg"},{"bike_id":"31ed6c66-ad12-40bc-b75e-f4bd7465a333","system_id":"levelo_inurba_marseille","lat":43.31526,"lon":5.38027,"is_reserved":false,"is_disabled":false,"rental_uris":{"android":"levelo://app?vid=31ed6c66-ad12-40bc-b75e-f4bd7465a333","ios":"levelo://app?vid=31ed6c66-ad12-40bc-b75e-f4bd7465a333"},"vehicle_type_id":"4","last_reported":1738555916,"current_range_meters":38800,"station_id":"ce4bhsp2rcd13ifvqi50","pricing_plan_id":"cebpf4jnsgd1na2vs0mg"},{"bike_id":"a895efa9-50aa-435c-91d1-c119eaf59a54","system_id":"levelo_inurba_marseille","lat":43.264883,"lon":5.39557,"is_reserved":false,"is_disabled":false,"rental_uris":{"android":"levelo://app?vid=a895efa9-50aa-435c-91d1-c119eaf59a54","ios":"levelo://app?vid=a895efa9-50aa-435c-91d1-c119eaf59a54"},"vehicle_type_id":"4","last_reported":1738555916,"current_range_meters":28400,"station_id":"ce4bhi12rcd13ifvqfq0","pricing_plan_id":"cebpf4jnsgd1na2vs0mg"},{"bike_id":"56131ee5-6342-49c1-8177-092ab7838e01","system_id":"levelo_inurba_marseille","lat":43.29886,"lon":5.39753,"is_reserved":false,"is_disabled":false,"rental_uris":{"android":"levelo://app?vid=56131ee5-6342-49c1-8177-092ab7838e01","ios":"levelo://app?vid=56131ee5-6342-49c1-8177-092ab7838e01"},"vehicle_type_id":"4","last_reported":1738555916,"current_range_meters":38000,"station_id":"ce4bh0h2rcd13ifvqd50","pricing_plan_id":"cebpf4jnsgd1na2vs0mg"},{"bike_id":"93b49084-e6f7-44ad-bdb7-6aedefc580e2","system_id":"levelo_inurba_marseille","lat":43.2658,"lon":5.38997,"is_reserved":false,"is_disabled":false,"rental_uris":{"android":"levelo://app?vid=93b49084-e6f7-44ad-bdb7-6aedefc580e2","ios":"levelo://app?vid=93b49084-e6f7-44ad-bdb7-6aedefc580e2"},"vehicle_type_id":"4","last_reported":1738555916,"current_range_meters":35600,"station_id":"ce4bhe12rcd13ifvqf30","pricing_plan_id":"cebpf4jnsgd1na2vs0mg"},{"bike_id":"093ac1ad-aed6-4f26-bc9e-f9dd53f74afd","system_id":"levelo_inurba_marseille","lat":43.313639,"lon":5.367129,"is_reserved":false,"is_disabled":false,"rental_uris":{"android":"levelo://app?vid=093ac1ad-aed6-4f26-bc9e-f9dd53f74afd","ios":"levelo://app?vid=093ac1ad-aed6-4f26-bc9e-f9dd53f74afd"},"vehicle_type_id":"4","last_reported":1738555916,"current_range_meters":28400,"station_id":"ce4bgr92rcd13ifvqc6g","pricing_plan_id":"cebpf4jnsgd1na2vs0mg"},{"bike_id":"e1db3f6a-994b-4903-95e2-43f77febc51f","system_id":"levelo_inurba_marseille","lat":43.29886,"lon":5.38903,"is_reserved":false,"is_disabled":false,"rental_uris":{"android":"levelo://app?vid=e1db3f6a-994b-4903-95e2-43f77febc51f","ios":"levelo://app?vid=e1db3f6a-994b-4903-95e2-43f77febc51f"},"vehicle_type_id":"4","last_reported":1738555916,"current_range_meters":34000,"station_id":"ce4bh392rcd13ifvqdl0","pricing_plan_id":"cebpf4jnsgd1na2vs0mg"},{"bike_id":"c0e7550b-6f33-4fbd-9387-96500956f50a","system_id":"levelo_inurba_marseille","lat":43.294435,"lon":5.397584,"is_reserved":false,"is_disabled":true,"rental_uris":{"android":"levelo://app?vid=c0e7550b-6f33-4fbd-9387-96500956f50a","ios":"levelo://app?vid=c0e7550b-6f33-4fbd-9387-96500956f50a"},"vehicle_type_id":"4","last_reported":1738555916,"current_range_meters":20400,"station_id":"ce4bh3h2rcd13ifvqdo0","pricing_plan_id":"cebpf4jnsgd1na2vs0mg"},{"bike_id":"a30d8b93-ac92-468d-a652-79171594fd66","system_id":"levelo_inurba_marseille","lat":43.336,"lon":5.41019,"is_reserved":false,"is_disabled":false,"rental_uris":{"android":"levelo://app?vid=a30d8b93-ac92-468d-a652-79171594fd66","ios":"levelo://app?vid=a30d8b93-ac92-468d-a652-79171594fd66"},"vehicle_type_id":"4","last_reported":1738555916,"current_range_meters":18000,"station_id":"ce4bhqh2rcd13ifvqhmg","pricing_plan_id":"cebpf4jnsgd1na2vs0mg"},{"bike_id":"4dc08388-188e-4869-97a8-e70f14c3f63a","system_id":"levelo_inurba_marseille","lat":43.2811,"lon":5.37838,"is_reserved":false,"is_disabled":false,"rental_uris":{"android":"levelo://app?vid=4dc08388-188e-4869-97a8-e70f14c3f63a","ios":"levelo://app?vid=4dc08388-188e-4869-97a8-e70f14c3f63a"},"vehicle_type_id":"4","last_reported":1738555916,"current_range_meters":38800,"station_id":"ce4bha12rcd13ifvqee0","pricing_plan_id":"cebpf4jnsgd1na2vs0mg"},{"bike_id":"51e98b31-1659-413c-a2fd-ad1f5f5b25a8","system_id":"levelo_inurba_marseille","lat":43.31015,"lon":5.36716,"is_reserved":false,"is_disabled":false,"rental_uris":{"android":"levelo://app?vid=51e98b31-1659-413c-a2fd-ad1f5f5b25a8","ios":"levelo://app?vid=51e98b31-1659-413c-a2fd-ad1f5f5b25a8"},"vehicle_type_id":"4","last_reported":1738555916,"current_range_meters":29600,"station_id":"","pricing_plan_id":"cebpf4jnsgd1na2vs0mg"},{"bike_id":"320f17aa-5d3b-45da-a6be-b587cdc1c956","system_id":"levelo_inurba_marseille","lat":43.241795,"lon":5.397301,"is_reserved":false,"is_disabled":false,"rental_uris":{"android":"levelo://app?vid=320f17aa-5d3b-45da-a6be-b587cdc1c956","ios":"levelo://app?vid=320f17aa-5d3b-45da-a6be-b587cdc1c956"},"vehicle_type_id":"4","last_reported":1738555916,"current_range_meters":26800,"station_id":"ce4bhn12rcd13ifvqgpg","pricing_plan_id":"cebpf4jnsgd1na2vs0mg"},{"bike_id":"5e8b7018-e7ad-4d87-8b00-09f8c9411b4c","system_id":"levelo_inurba_marseille","lat":43.30537,"lon":5.36538,"is_reserved":false,"is_disabled":true,"rental_uris":{"android":"levelo://app?vid=5e8b7018-e7ad-4d87-8b00-09f8c9411b4c","ios":"levelo://app?vid=5e8b7018-e7ad-4d87-8b00-09f8c9411b4c"},"vehicle_type_id":"4","last_reported":1738555916,"current_range_meters":36800,"station_id":"ce4bgs12rcd13ifvqcag","pricing_plan_id":"cebpf4jnsgd1na2vs0mg"},