{"last_updated":1746198614,"ttl":60,"version":"2.2","data":{"bikes":[{"bike_id":"bf0338db-1151-4230-9196-105d3655c763","system_id":"levelo_inurba_marseille","lat":43.29309,"lon":5.37162,"is_reserved":false,"is_disabled":false,"rental_uris":{"android":"levelo://app?vid=bf0338db-1151-4230-9196-105d3655c763","ios":"levelo://app?vid=bf0338db-1151-4230-9196-105d3655c763"},"vehicle_type_id":"4","last_reported":1746198614,"current_range_meters":2800,"station_id":"ce4bgh92rcd13ifvqb40","pricing_plan_id":"cebpf4jnsgd1na2vs0mg"},{"bike_id":"58300472-3848-45a7-9a5d-24e82f40f5a5","system_id":"levelo_inurba_marseille","lat":43.25121,"lon":5.40318,"is_reserved":false,"is_disabled":false,"rental_uris":{"android":"levelo://app?vid=58300472-3848-45a7-9a5d-24e82f40f5a5","ios":"levelo://app?vid=58300472-3848-45a7-9a5d-24e82f40f5a5"},"vehicle_type_id":"4","last_reported":1746198614,"current_range_meters":2800,"station_id":"ce4bhlh2rcd13ifvqgig","pricing_plan_id":"cebpf4jnsgd1na2vs0mg"},{"bike_id":"2ea37281-f2e9-4b17-8da0-479ca416e5ef","system_id":"levelo_inurba_marseille","lat":43.284221,"lon":5.349598,"is_reserved":false,"is_disabled":true,"rental_uris":{"android":"levelo://app?vid=2ea37281-f2e9-4b17-8da0-479ca416e5ef","ios":"levelo://app?vid=2ea37281-f2e9-4b17-8da0-479ca416e5ef"},"vehicle_type_id":"4","last_reported":1746198614,"current_range_meters":2800,"station_id":"ce4bhbh2rcd13ifvqepg","pricing_plan_id":"cebpf4jnsgd1na2vs0mg"},{"bike_id":"3080f698-cded-429a-bdeb-099b57bdcc82","system_id":"levelo_inurba_marseille","lat":43.30531,"lon":5.36727,"is_reserved":false,"is_disabled":false,"rental_uris":{"android":"levelo://app?vid=3080f698-cded-429a-bdeb-099b57bdcc82","ios":"levelo://app?vid=3080f698-cded-429a-bdeb-099b57bdcc82"},"vehicle_type_id":"4","last_reported":1746198614,"current_range_meters":2800,"station_id":"ce4bgrp2rcd13ifvqc9g","pricing_plan_id":"cebpf4jnsgd1na2vs0mg"},{"bike_id":"ee073b2f-75cf-4530-9797-b5863d8a5872","system_id":"levelo_inurba_marseille","lat":43.29621,"lon":5.4059,"is_reserved":false,"is_disabled":false,"rental_uris":{"android":"levelo://app?vid=ee073b2f-75cf-4530-9797-b5863d8a5872","ios":"levelo://app?vid=ee073b2f-75cf-4530-9797-b5863d8a5872"},"vehicle_type_id":"4","last_reported":1746198614,"current_range_meters":2800,"station_id":"ce4bh0h2rcd13ifvqd60","pricing_plan_id":"cebpf4jnsgd1na2vs0mg"},{"bike_id":"92e364f7-6b72-4892-bb14-dd4fb56c6db0","system_id":"levelo_inurba_marseille","lat":43.24392,"lon":5.3706,"is_reserved":false,"is_disabled":false,"rental_uris":{"android":"levelo://app?vid=92e364f7-6b72-4892-bb14-dd4fb56c6db0","ios":"levelo://app?vid=92e364f7-6b72-4892-bb14-dd4fb56c6db0"},"vehicle_type_id":"4","last_reported":1746198614,"current_range_meters":2800,"station_id":"ce4bhhh2rcd13ifvqfk0","pricing_plan_id":"cebpf4jnsgd1na2vs0mg"},{"bike_id":"9edca6cc-f41f-4a30-bfbb-e9c5e47fcd75","system_id":"levelo_inurba_marseille","lat":43.28985,"lon":5.37281,"is_reserved":false,"is_disabled":false,"rental_uris":{"android":"levelo://app?vid=9edca6cc-f41f-4a30-bfbb-e9c5e47fcd75","ios":"levelo://app?vid=9edca6cc-f41f-4a30-bfbb-e9c5e47fcd75"},"vehicle_type_id":"4","last_reported":1746198614,"current_range_meters":2800,"station_id":"","pricing_plan_id":"cebpf4jnsgd1na2vs0mg"},{"bike_id":"2718d902-1666-4046-afce-5d6b4180c3a9","system_id":"levelo_inurba_marseille","lat":43.28718,"lon":5.37925,"is_reserved":false,"is_disabled":true,"rental_uris":{"android":"levelo://app?vid=2718d902-1666-4046-afce-5d6b4180c3a9","ios":"levelo://app?vid=2718d902-1666-4046-afce-5d6b4180c3a9"},"vehicle_type_id":"4","last_reported":1746198614,"current_range_meters":3200,"station_id":"ce4bh9p2rcd13ifvqec0","pricing_plan_id":"cebpf4jnsgd1na2vs0mg"},{"bike_id":"1b035941-5484-4368-a2aa-f4cbf4cdb331","system_id":"levelo_inurba_marseille","lat":43.297934,"lon":5.380986,"is_reserved":false,"is_disabled":false,"rental_uris":{"android":"levelo://app?vid=1b035941-5484-4368-a2aa-f4cbf4cdb331","ios":"levelo://app?vid=1b035941-5484-4368-a2aa-f4cbf4cdb331"},"vehicle_type_id":"4","last_reported":1746198614,"current_range_meters":3200,"station_id":"ce4bhe12rcd13ifvqf30","pricing_plan_id":"cebpf4jnsgd1na2vs0mg"},{"bike_id":"d8f221e1-7fc5-4f47-8c02-973f4e8c464f","system_id":"levelo_inurba_marseille","lat":43.30421,"lon":5.4129,"is_reserved":false,"is_disabled":false,"rental_uris":{"android":"levelo://app?vid=d8f221e1-7fc5-4f47-8c02-973f4e8c464f","ios":"levelo://app?vid=d8f221e1-7fc5-4f47-8c02-973f4e8c464f"},"vehicle_type_id":"4","last_reported":1746198614,"current_range_meters":5600,"station_id":"ce4bhop2rcd13ifvqh8g","pricing_plan_id":"cebpf4jnsgd1na2vs0mg"},{"bike_id":"f78e6e2a-8107-47fb-b969-25345ac001d6","system_id":"levelo_inurba_marseille","lat":43.30036,"lon":5.37816,"is_reserved":false,"is_disabled":false,"rental_uris":{"android":"levelo://app?vid=f78e6e2a-8107-47fb-b969-25345ac001d6","ios":"levelo://app?vid=f78e6e2a-8107-47fb-b969-25345ac001d6"},"vehicle_type_id":"4","last_reported":1746198614,"current_range_meters":3200,"station_id":"","pricing_plan_id":"cebpf4jnsgd1na2vs0mg"},{"bike_id":"b5b98750-a4eb-468d-baba-340023ba8e34","system_id":"levelo_inurba_marseille","lat":43.3032,"lon":5.4043,"is_reserved":false,"is_disabled":false,"rental_uris":{"android":"levelo://app?vid=b5b98750-a4eb-468d-baba-340023ba8e34","ios":"levelo://app?vid=b5b98750-a4eb-468d-baba-340023ba8e34"},"vehicle_type_id":"4","last_reported":1746198614,"current_range_meters":3200,"station_id":"ce4bh012rcd13ifvqd10","pricing_plan_id":"cebpf4jnsgd1na2vs0mg"},{"bike_id":"41649255-c38b-42cb-ae7f-67f2787c354c","system_id":"levelo_inurba_marseille","lat":43.23757,"lon":5.43609,"is_reserved":false,"is_disabled":false,"rental_uris":{"android":"levelo://app?vid=41649255-c38b-42cb-ae7f-67f2787c354c","ios":"levelo://app?vid=41649255-c38b-42cb-ae7f-67f2787c354c"},"vehicle_type_id":"4","last_reported":1746198614,"current_range_meters":3600,"station_id":"","pricing_plan_id":"cebpf4jnsgd1na2vs0mg"},{"bike_id":"b95a417d-5a4a-4747-ace2-09fb9c72e66d","system_id":"levelo_inurba_marseille","lat":43.32356,"lon":5.36752,"is_reserved":false,"is_disabled":false,"rental_uris":{"android":"levelo://app?vid=b95a417d-5a4a-4747-ace2-09fb9c72e66d","ios":"levelo://app?vid=b95a417d-5a4a-4747-ace2-09fb9c72e66d"},"vehicle_type_id":"4","last_reported":1746198614,"current_range_meters":3600,"station_id":"ce4bhsh2rcd13ifvqi2g","pricing_plan_id":"cebpf4jnsgd1na2vs0mg"},{"bike_id":"6250e852-11ea-433b-a808-87f5f07d5939","system_id":"levelo_inurba_marseille","lat":43.25114,"lon":5.40322,"is_reserved":false,"is_disabled":false,"rental_uris":{"android":"levelo://app?vid=6250e852-11ea-433b-a808-87f5f07d5939","ios":"levelo://app?vid=6250e852-11ea-433b-a808-87f5f07d5939"},"vehicle_type_id":"4","last_reported":1746198614,"current_range_meters":3600,"station_id":"ce4bhlh2rcd13ifvqgig","pricing_plan_id":"cebpf4jnsgd1na2vs0mg"},{"bike_id":"75e8d16e-b7fe-4a5b-b2be-9e55ea4832ec","system_id":"levelo_inurba_marseille","lat":43.21742,"lon":5.34595,"is_reserved":false,"is_disabled":false,"rental_uris":{"android":"levelo://app?vid=75e8d16e-b7fe-4a5b-b2be-9e55ea4832ec","ios":"levelo://app?vid=75e8d16e-b7fe-4a5b-b2be-9e55ea4832ec"},"vehicle_type_id":"4","last_reported":1746198614,"current_range_meters":3600,"station_id":"st_cvj6r9ubvosntc0bgbag","pricing_plan_id":"cebpf4jnsgd1na2vs0mg"},{"bike_id":"f1f80e47-17cb-404e-bf4a-a22a629770ff","system_id":"levelo_inurba_marseille","lat":43.306,"lon":5.37226,"is_reserved":false,"is_disabled":false,"rental_uris":{"android":"levelo://app?vid=f1f80e47-17cb-404e-bf4a-a22a629770ff","ios":"levelo://app?vid=f1f80e47-17cb-404e-bf4a-a22a629770ff"},"vehicle_type_id":"4","last_reported":1746198614,"current_range_meters":3600,"station_id":"ce4bgqh2rcd13ifvqc4g","pricing_plan_id":"cebpf4jnsgd1na2vs0mg"},{"bike_id":"2faed54d-0f83-48b0-814e-222e4d2166e9","system_id":"levelo_inurba_marseille","lat":43.29098,"lon":5.38136,"is_reserved":false,"is_disabled":false,"rental_uris":{"android":"levelo://app?vid=2faed54d-0f83-48b0-814e-222e4d2166e9","ios":"levelo://app?vid=2faed54d-0f83-48b0-814e-222e4d2166e9"},"vehicle_type_id":"4","last_reported":1746198614,"current_range_meters":3600,"station_id":"ce4bh512rcd13ifvqe2g","pricing_plan_id":"cebpf4jnsgd1na2vs0mg"},{"bike_id":"65652ef2-02e6-4427-a70e-d7fcd958c95d","system_id":"levelo_inurba_marseille","lat":43.29886,"lon":5.38909,"is_reserved":false,"is_disabled":false,"rental_uris":{"android":"levelo://app?vid=65652ef2-02e6-4427-a70e-d7fcd958c95d","ios":"levelo://app?vid=65652ef2-02e6-4427-a70e-d7fcd958c95d"},"vehicle_type_id":"4","last_reported":1746198614,"current_range_meters":4000,"station_id":"ce4bh392rcd13ifvqdl0","pricing_plan_id":"cebpf4jnsgd1na2vs0mg"},{"bike_id":"09738bbb-3128-435a-9bbb-4e0c8ee7fcf3","system_id":"levelo_inurba_marseille","lat":43.27907,"lon":5.38016,"is_reserved":false,"is_disabled":false,"rental_uris":{"android":"levelo://app?vid=09738bbb-3128-435a-9bbb-4e0c8ee7fcf3","ios":"levelo://app?vid=09738bbb-3128-435a-9bbb-4e0c8ee7fcf3"},"vehicle_type_id":"4","last_reported":1746198614,"current_range_meters":4000,"station_id":"ce4bhf92rcd13ifvqf50","pricing_plan_id":"cebpf4jnsgd1na2vs0mg"},{"bike_id":"9ea05988-7cd7-4c2a-b83f-60f548845cde","system_id":"levelo_inurba_marseille","lat":43.28948,"lon":5.36661,"is_reserved":false,"is_disabled":false,"rental_uris":{"android":"levelo://app?vid=9ea05988-7cd7-4c2a-b83f-60f548845cde","ios":"levelo://app?vid=9ea05988-7cd7-4c2a-b83f-60f548845cde"},"vehicle_type_id":"4","last_reported":1746198614,"current_range_meters":4000,"station_id":"ce4bhap2rcd13ifvqek0","pricing_plan_id":"cebpf4jnsgd1na2vs0mg"},{"bike_id":"38600bda-049c-469d-ae99-81226879830f","system_id":"levelo_inurba_marseille","lat":43.27993,"lon":5.41661,"is_reserved":false,"is_disabled":false,"rental_uris":{"android":"levelo://app?vid=38600bda-049c-469d-ae99-81226879830f","ios":"levelo://app?vid=38600bda-049c-469d-ae99-81226879830f"},"vehicle_type_id":"4","last_reported":1746198614,"current_range_meters":4000,"station_id":"ce4bho12rcd13ifvqh1g","pricing_plan_id":"cebpf4jnsgd1na2vs0mg"},{"bike_id":"8739f579-02b6-41f6-aa2b-2a19acf2adea","system_id":"levelo_inurba_marseille","lat":43.30604,"lon":5.37237,"is_reserved":false,"is_disabled":false,"rental_uris":{"android":"levelo://app?vid=8739f579-02b6-41f6-aa2b-2a19acf2adea","ios":"levelo://app?vid=8739f579-02b6-41f6-aa2b-2a19acf2adea"},"vehicle_type_id":"4","last_reported":1746198614,"current_range_meters":4000,"station_id":"ce4bgqh2rcd13ifvqc4g","pricing_plan_id":"cebpf4jnsgd1na2vs0mg"},{"bike_id":"f97c9fd3-25b0-4c91-90c7-d12ab5c39e92","system_id":"levelo_inurba_marseille","lat":43.29528,"lon":5.39045,"is_reserved":false,"is_disabled":false,"rental_uris":{"android":"levelo://app?vid=f97c9fd3-25b0-4c91-90c7-d12ab5c39e92","ios":"levelo://app?vid=f97c9fd3-25b0-4c91-90c7-d12ab5c39e92"},"vehicle_type_id":"4","last_reported":1746198614,"current_range_meters":3600,"station_id":"ce4bh3p2rcd13ifvqdp0","pricing_plan_id":"cebpf4jnsgd1na2vs0mg"},{"bike_id":"283133d7-38eb-498a-8abb-1a3e20d0ff78","system_id":"levelo_inurba_marseille","lat":43.258205,"lon":5.394297,"is_reserved":false,"is_disabled":false,"rental_uris":{"android":"levelo://app?vid=283133d7-38eb-498a-8abb-1a3e20d0ff78","ios":"levelo://app?vid=283133d7-38eb-498a-8abb-1a3e20d0ff78"},"vehicle_type_id":"4","last_reported":1746198614,"current_range_meters":4400,"station_id":"ce4bhip2rcd13ifvqft0","pricing_plan_id":"cebpf4jnsgd1na2vs0mg"},{"bike_id":"e78407c0-c587-4831-8917-ded0ffd53013","system_id":"levelo_inurba_marseille","lat":43.28272,"lon":5.35074,"is_reserved":false,"is_disabled":true,"rental_uris":{"android":"levelo://app?vid=e78407c0-c587-4831-8917-ded0ffd53013","ios":"levelo://app?vid=e78407c0-c587-4831-8917-ded0ffd53013"},"vehicle_type_id":"4","last_reported":1746198614,"current_range_meters":4400,"station_id":"ce4bhbp2rcd13ifvqerg","pricing_plan_id":"cebpf4jnsgd1na2vs0mg"},{"bike_id":"4b3e8a93-81e3-4755-a2ea-7cd6a9220678","system_id":"levelo_inurba_marseille","lat":43.28945,"lon":5.36641,"is_reserved":false,"is_disabled":false,"rental_uris":{"android":"levelo://app?vid=4b3e8a93-81e3-4755-a2ea-7cd6a9220678","ios":"levelo://app?vid=4b3e8a93-81e3-4755-a2ea-7cd6a9220678"},"vehicle_type_id":"4","last_reported":1746198614,"current_range_meters":4400,"station_id":"ce4bhap2rcd13ifvqek0","pricing_plan_id":"cebpf4jnsgd1na2vs0mg"},{"bike_id":"2a858f5a-f56b-4299-9c48-24113a5aa20f","system_id":"levelo_inurba_marseille","lat":43.29297,"lon":5.37458,"is_reserved":false,"is_disabled":false,"rental_uris":{"android":"levelo://app?vid=2a858f5a-f56b-4299-9c48-24113a5aa20f","ios":"levelo://app?vid=2a858f5a-f56b-4299-9c48-24113a5aa20f"},"vehicle_type_id":"4","last_reported":1746198614,"current_range_meters":4400,"station_id":"ce4bgi12rcd13ifvqb70","pricing_plan_id":"cebpf4jnsgd1na2vs0mg"},{"bike_id":"29181cd1-aee0-4c6c-bb5a-84f2fcb6e51c","system_id":"levelo_inurba_marseille","lat":43.30214,"lon":5.3947,"is_reserved":false,"is_disabled":false,"rental_uris":{"android":"levelo://app?vid=29181cd1-aee0-4c6c-bb5a-84f2fcb6e51c","ios":"levelo://app?vid=29181cd1-aee0-4c6c-bb5a-84f2fcb6e51c"},"vehicle_type_id":"4","last_reported":1746198614,"current_range_meters":4400,"station_id":"ce4bh0p2rcd13ifvqd70","pricing_plan_id":"cebpf4jnsgd1na2vs0mg"},{"bike_id":"29567443-ffe1-4e01-b3ad-e7ff42447903","system_id":"levelo_inurba_marseille","lat":43.30641,"lon":5.40086,"is_reserved":false,"is_disabled":false,"rental_uris":{"android":"levelo://app?vid=29567443-ffe1-4e01-b3ad-e7ff42447903","ios":"levelo://app?vid=29567443-ffe1-4e01-b3ad-e7ff42447903"},"vehicle_type_id":"4","last_reported":1746198614,"current_range_meters":4800,"station_id":"ce4bh112rcd13ifvqda0","pricing_plan_id":"cebpf4jnsgd1na2vs0mg"},{"bike_id":"34e46f9f-ebe6-468c-8a5a-85a8aaa78237","system_id":"levelo_inurba_marseille","lat":43.25121,"lon":5.40318,"is_reserved":false,"is_disabled":false,"rental_uris":{"android":"levelo://app?vid=34e46f9f-ebe6-468c-8a5a-85a8aaa78237","ios":"levelo://app?vid=34e46f9f-ebe6-468c-8a5a-85a8aaa78237"},"vehicle_type_id":"4","last_reported":1746198614,"current_range_meters":4800,"station_id":"ce4bhlh2rcd13ifvqgig","pricing_plan_id":"cebpf4jnsgd1na2vs0mg"},{"bike_id":"483f9e40-1ac4-4129-929d-eba9b540b152","system_id":"levelo_inurba_marseille","lat":43.31496,"lon":5.37293,"is_reserved":false,"is_disabled":false,"rental_uris":{"android":"levelo://app?vid=483f9e40-1ac4-4129-929d-eba9b540b152","ios":"levelo://app?vid=483f9e40-1ac4-4129-929d-eba9b540b152"},"vehicle_type_id":"4","last_reported":1746198614,"current_range_meters":4800,"station_id":"ce4bgt12rcd13ifvqcd0","pricing_plan_id":"cebpf4jnsgd1na2vs0mg"},{"bike_id":"95c97773-c7d6-4ee1-9b0b-4871a8e50e9a","system_id":"levelo_inurba_marseille","lat":43.30153,"lon":5.38071,"is_reserved":false,"is_disabled":false,"rental_uris":{"android":"levelo://app?vid=95c97773-c7d6-4ee1-9b0b-4871a8e50e9a","ios":"levelo://app?vid=95c97773-c7d6-4ee1-9b0b-4871a8e50e9a"},"vehicle_type_id":"4","last_reported":1746198614,"current_range_meters":1600,"station_id":"ce4bgjp2rcd13ifvqbh0","pricing_plan_id":"cebpf4jnsgd1na2vs0mg"},{"bike_id":"3a8ea5a7-fbea-4bc5-8138-1de7581e961f","system_id":"levelo_inurba_marseille","lat":43.29051,"lon":5.37571,"is_reserved":false,"is_disabled":false,"rental_uris":{"android":"levelo://app?vid=3a8ea5a7-fbea-4bc5-8138-1de7581e961f","ios":"levelo://app?vid=3a8ea5a7-fbea-4bc5-8138-1de7581e961f"},"vehicle_type_id":"4","last_reported":1746198614,"current_range_meters":4800,"station_id":"ce4bh692rcd13ifvqe90","pricing_plan_id":"cebpf4jnsgd1na2vs0mg"},{"bike_id":"5d78022e-081c-4ea4-a9e3-e8cc43e98386","system_id":"levelo_inurba_marseille","lat":43.27904,"lon":5.38021,"is_reserved":false,"is_disabled":false,"rental_uris":{"android":"levelo://app?vid=5d78022e-081c-4ea4-a9e3-e8cc43e98386","ios":"levelo://app?vid=5d78022e-081c-4ea4-a9e3-e8cc43e98386"},"vehicle_type_id":"4","last_reported":1746198614,"current_range_meters":5600,"station_id":"ce4bhf92rcd13ifvqf50","pricing_plan_id":"cebpf4jnsgd1na2vs0mg"},{"bike_id":"51ef9827-05d4-4f72-abc3-c6fec8c5a095","system_id":"levelo_inurba_marseille","lat":43.2315,"lon":5.43721,"is_reserved":false,"is_disabled":false,"rental_uris":{"android":"levelo://app?vid=51ef9827-05d4-4f72-abc3-c6fec8c5a095","ios":"levelo://app?vid=51ef9827-05d4-4f72-abc3-c6fec8c5a095"},"vehicle_type_id":"4","last_reported":1746198614,"current_range_meters":6000,"station_id":"ce4bhmp2rcd13ifvqgog","pricing_plan_id":"cebpf4jnsgd1na2vs0mg"},{"bike_id":"bd21b430-4d72-437a-b9f4-165caf7b68d3","system_id":"levelo_inurba_marseille","lat":43.290323,"lon":5.359351,"is_reserved":false,"is_disabled":false,"rental_uris":{"android":"levelo://app?vid=bd21b430-4d72-437a-b9f4-165caf7b68d3","ios":"levelo://app?vid=bd21b430-4d72-437a-b9f4-165caf7b68d3"},"vehicle_type_id":"4","last_reported":1746198614,"current_range_meters":6000,"station_id":"ce4bha92rcd13ifvqeg0","pricing_plan_id":"cebpf4jnsgd1na2vs0mg"},{"bike_id":"cbd5a6a7-63e5-4082-9205-d0e404dcda23","system_id":"levelo_inurba_marseille","lat":43.29048,"lon":5.37555,"is_reserved":false,"is_disabled":false,"rental_uris":{"android":"levelo://app?vid=cbd5a6a7-63e5-4082-9205-d0e404dcda23","ios":"levelo://app?vid=cbd5a6a7-63e5-4082-9205-d0e404dcda23"},"vehicle_type_id":"4","last_reported":1746198614,"current_range_meters":6000,"station_id":"ce4bh692rcd13ifvqe90","pricing_plan_id":"cebpf4jnsgd1na2vs0mg"},{"bike_id":"2123c601-7e80-43b9-b529-d0e8517a0b35","system_id":"levelo_inurba_marseille","lat":43.25087,"lon":5.40369,"is_reserved":false,"is_disabled":false,"rental_uris":{"android":"levelo://app?vid=2123c601-7e80-43b9-b529-d0e8517a0b35","ios":"levelo://app?vid=2123c601-7e80-43b9-b529-d0e8517a0b35"},"vehicle_type_id":"4","last_reported":1746198614,"current_range_meters":6400,"station_id":"ce4bhlh2rcd13ifvqgig","pricing_plan_id":"cebpf4jnsgd1na2vs0mg"},{"bike_id":"7510bc76-2047-4512-a170-9ba55593f173","system_id":"levelo_inurba_marseille","lat":43.2656,"lon":5.37285,"is_reserved":false,"is_disabled":false,"rental_uris":{"android":"levelo://app?vid=7510bc76-2047-4512-a170-9ba55593f173","ios":"levelo://app?vid=7510bc76-2047-4512-a170-9ba55593f173"},"vehicle_type_id":"4","last_reported":1746198614,"current_range_meters":6400,"station_id":"ce4bhg12rcd13ifvqf70","pricing_plan_id":"cebpf4jnsgd1na2vs0mg"},{"bike_id":"551cd518-188b-45bc-9f33-a7246f834727","system_id":"levelo_inurba_marseille","lat":43.25113,"lon":5.40322,"is_reserved":false,"is_disabled":false,"rental_uris":{"android":"levelo://app?vid=551cd518-188b-45bc-9f33-a7246f834727","ios":"levelo://app?vid=551cd518-188b-45bc-9f33-a7246f834727"},"vehicle_type_id":"4","last_reported":1746198614,"current_range_meters":6400,"station_id":"ce4bhlh2rcd13ifvqgig","pricing_plan_id":"cebpf4jnsgd1na2vs0mg"},{"bike_id":"8c407e4c-10fc-4ac2-8cac-4f70e87c3d1e","system_id":"levelo_inurba_marseille","lat":43.24179,"lon":5.39735,"is_reserved":false,"is_disabled":false,"rental_uris":{"android":"levelo://app?vid=8c407e4c-10fc-4ac2-8cac-4f70e87c3d1e","ios":"levelo://app?vid=8c407e4c-10fc-4ac2-8cac-4f70e87c3d1e"},"vehicle_type_id":"4","last_reported":1746198614,"current_range_meters":6400,"station_id":"ce4bhn12rcd13ifvqgpg","pricing_plan_id":"cebpf4jnsgd1na2vs0mg"},{"bike_id":"ea1ac954-f2ea-432b-a568-25df94078d3f","system_id":"levelo_inurba_marseille","lat":43.293739,"lon":5.378832,"is_reserved":false,"is_disabled":false,"rental_uris":{"android":"levelo://app?vid=ea1ac954-f2ea-432b-a568-25df94078d3f","ios":"levelo://app?vid=ea1ac954-f2ea-432b-a568-25df94078d3f"},"vehicle_type_id":"4","last_reported":1746198614,"current_range_meters":6400,"station_id":"ce4bgjh2rcd13ifvqbf0","pricing_plan_id":"cebpf4jnsgd1na2vs0mg"},{"bike_id":"a094a775-b049-43c4-b9dc-cc298f4c1ecf","system_id":"levelo_inurba_marseille","lat":43.269349,"lon":5.402537,"is_reserved":false,"is_disabled":false,"rental_uris":{"android":"levelo://app?vid=a094a775-b049-43c4-b9dc-cc298f4c1ecf","ios":"levelo://app?vid=a094a775-b049-43c4-b9dc-cc298f4c1ecf"},"vehicle_type_id":"4","last_reported":1746198614,"current_range_meters":6800,"station_id":"cjm6bp8fraef2m0cb0m0","pricing_plan_id":"cebpf4jnsgd1na2vs0mg"},{"bike_id":"98afbd4b-a3b3-43ac-a1b3-a7dbb814de54","system_id":"levelo_inurba_marseille","lat":43.24163,"lon":5.36396,"is_reserved":false,"is_disabled":false,"rental_uris":{"android":"levelo://app?vid=98afbd4b-a3b3-43ac-a1b3-a7dbb814de54","ios":"levelo://app?vid=98afbd4b-a3b3-43ac-a1b3-a7dbb814de54"},"vehicle_type_id":"4","last_reported":1746198614,"current_range_meters":6800,"station_id":"cpo36qri1sfpv3e86is0","pricing_plan_id":"cebpf4jnsgd1na2vs0mg"},{"bike_id":"5cda05c5-33c9-4109-89c1-36d218dc0d5f","system_id":"levelo_inurba_marseille","lat":43.316954,"lon":5.404709,"is_reserved":false,"is_disabled":false,"rental_uris":{"android":"levelo://app?vid=5cda05c5-33c9-4109-89c1-36d218dc0d5f","ios":"levelo://app?vid=5cda05c5-33c9-4109-89c1-36d218dc0d5f"},"vehicle_type_id":"4","last_reported":1746198614,"current_range_meters":6800,"station_id":"ce4bh012rcd13ifvqd00","pricing_plan_id":"cebpf4jnsgd1na2vs0mg"},{"bike_id":"ea9b682e-32a4-4bcf-bb02-18d013c07c4e","system_id":"levelo_inurba_marseille","lat":43.32663,"lon":5.40984,"is_reserved":false,"is_disabled":false,"rental_uris":{"android":"levelo://app?vid=ea9b682e-32a4-4bcf-bb02-18d013c07c4e","ios":"levelo://app?vid=ea9b682e-32a4-4bcf-bb02-18d013c07c4e"},"vehicle_type_id":"4","last_reported":1746198614,"current_range_meters":6800,"station_id":"ce4bhpp2rcd13ifvqhgg","pricing_plan_id":"cebpf4jnsgd1na2vs0mg"},{"bike_id":"213395fa-5abf-4d20-85e1-f07dffc7fb05","system_id":"levelo_inurba_marseille","lat":43.31731,"lon":5.42408,"is_reserved":false,"is_disabled":false,"rental_uris":{"android":"levelo://app?vid=213395fa-5abf-4d20-85e1-f07dffc7fb05","ios":"levelo://app?vid=213395fa-5abf-4d20-85e1-f07dffc7fb05"},"vehicle_type_id":"4","last_reported":1746198614,"current_range_meters":6800,"station_id":"ce4bhp92rcd13ifvqhbg","pricing_plan_id":"cebpf4jnsgd1na2vs0mg"},{"bike_id":"d3975f95-88aa-44c3-aa0d-e6d7ee22b787","system_id":"levelo_inurba_marseille","lat":43.3248,"lon":5.36572,"is_reserved":false,"is_disabled":false,"rental_uris":{"android":"levelo://app?vid=d3975f95-88aa-44c3-aa0d-e6d7ee22b787","ios":"levelo://app?vid=d3975f95-88aa-44c3-aa0d-e6d7ee22b787"},"vehicle_type_id":"4","last_reported":1746198614,"current_range_meters":6800,"station_id":"ce4bhs12rcd13ifvqhvg","pricing_plan_id":"cebpf4jnsgd1na2vs0mg"},{"bike_id":"e0c69642-153a-4cdf-94dd-e50d7657b75d","system_id":"levelo_inurba_marseille","lat":43.31689,"lon":5.40579,"is_reserved":false,"is_disabled":false,"rental_uris":{"android":"levelo://app?vid=e0c69642-153a-4cdf-94dd-e50d7657b75d","ios":"levelo://app?vid=e0c69642-153a-4cdf-94dd-e50d7657b75d"},"vehicle_type_id":"4","last_reported":1746198614,"current_range_meters":7200,"station_id":"","pricing_plan_id":"cebpf4jnsgd1na2vs0mg"},{"bike_id":"8687caef-0e5f-4cc0-96bd-2a8e1d5ecafa","system_id":"levelo_inurba_marseille","lat":43.24809,"lon":5.37454,"is_reserved":false,"is_disabled":false,"rental_uris":{"android":"levelo://app?vid=8687caef-0e5f-4cc0-96bd-2a8e1d5ecafa","ios":"levelo://app?vid=8687caef-0e5f-4cc0-96bd-2a8e1d5ecafa"},"vehicle_type_id":"4","last_reported":1746198614,"current_range_meters":8000,"station_id":"ce4bhgh2rcd13ifvqfb0","pricing_plan_id":"cebpf4jnsgd1na2vs0mg"},{"bike_id":"7971fe93-5f1d-4a59-8508-b415e64fcb18","system_id":"levelo_inurba_marseille","lat":43.30936,"lon":5.37352,"is_reserved":false,"is_disabled":false,"rental_uris":{"android":"levelo://app?vid=7971fe93-5f1d-4a59-8508-b415e64fcb18","ios":"levelo://app?vid=7971fe93-5f1d-4a59-8508-b415e64fcb18"},"vehicle_type_id":"4","last_reported":1746198614,"current_range_meters":8000,"station_id":"","pricing_plan_id":"cebpf4jnsgd1na2vs0mg"},{"bike_id":"0d6c5100-7db5-44d0-b9d6-cf2b96014798","system_id":"levelo_inurba_marseille","lat":43.3101,"lon":5.37493,"is_reserved":false,"is_disabled":false,"rental_uris":{"android":"levelo://app?vid=0d6c5100-7db5-44d0-b9d6-cf2b96014798","ios":"levelo://app?vid=0d6c5100-7db5-44d0-b9d6-cf2b96014798"},"vehicle_type_id":"4","last_reported":1746198614,"current_range_meters":8400,"station_id":"","pricing_plan_id":"cebpf4jnsgd1na2vs0mg"},{"bike_id":"bf3c2668-426a-4833-a57a-b7c5a282ae64","system_id":"levelo_inurba_marseille","lat":43.32366,"lon":5.3889,"is_reserved":false,"is_disabled":false,"rental_uris":{"android":"levelo://app?vid=bf3c2668-426a-4833-a57a-b7c5a282ae64","ios":"levelo://app?vid=bf3c2668-426a-4833-a57a-b7c5a282ae64"},"vehicle_type_id":"4","last_reported":1746198614,"current_range_meters":8400,"station_id":"ce4bhqp2rcd13ifvqhog","pricing_plan_id":"cebpf4jnsgd1na2vs0mg"},{"bike_id":"4a6851f9-34fb-48f6-8387-4b9c13325bed","system_id":"levelo_inurba_marseille","lat":43.321,"lon":5.36783,"is_reserved":false,"is_disabled":false,"rental_uris":{"android":"levelo://app?vid=4a6851f9-34fb-48f6-8387-4b9c13325bed","ios":"levelo://app?vid=4a6851f9-34fb-48f6-8387-4b9c13325bed"},"vehicle_type_id":"4","last_reported":1746198614,"current_range_meters":8400,"station_id":"ce4bhrh2rcd13ifvqhug","pricing_plan_id":"cebpf4jnsgd1na2vs0mg"},{"bike_id":"ba1291bf-568d-477b-8e17-c284858000b8","system_id":"levelo_inurba_marseille","lat":43.3377,"lon":5.37456,"is_reserved":false,"is_disabled":false,"rental_uris":{"android":"levelo://app?vid=ba1291bf-568d-477b-8e17-c284858000b8","ios":"levelo://app?vid=ba1291bf-568d-477b-8e17-c284858000b8"},"vehicle_type_id":"4","last_reported":1746198614,"current_range_meters":8800,"station_id":"","pricing_plan_id":"cebpf4jnsgd1na2vs0mg"},{"bike_id":"0af4aa0d-0584-4252-95d9-41890d2e4e0d","system_id":"levelo_inurba_marseille","lat":43.29902,"lon":5.4365,"is_reserved":false,"is_disabled":false,"rental_uris":{"android":"levelo://app?vid=0af4aa0d-0584-4252-95d9-41890d2e4e0d","ios":"levelo://app?vid=0af4aa0d-0584-4252-95d9-41890d2e4e0d"},"vehicle_type_id":"4","last_reported":1746198614,"current_range_meters":8400,"station_id":"ce4bhpp2rcd13ifvqhfg","pricing_plan_id":"cebpf4jnsgd1na2vs0mg"},{"bike_id":"930664fa-9abd-42d0-bbc4-38a2032bc6dd","system_id":"levelo_inurba_marseille","lat":43.30472,"lon":5.37912,"is_reserved":false,"is_disabled":false,"rental_uris":{"android":"levelo://app?vid=930664fa-9abd-42d0-bbc4-38a2032bc6dd","ios":"levelo://app?vid=930664fa-9abd-42d0-bbc4-38a2032bc6dd"},"vehicle_type_id":"4","last_reported":1746198614,"current_range_meters":6400,"station_id":"ce4bgup2rcd13ifvqcn0","pricing_plan_id":"cebpf4jnsgd1na2vs0mg"},{"bike_id":"331e9ff6-0bf9-40b8-9ab9-0bf8655823c5","system_id":"levelo_inurba_marseille","lat":43.2904,"lon":5.37563,"is_reserved":false,"is_disabled":false,"rental_uris":{"android":"levelo://app?vid=331e9ff6-0bf9-40b8-9ab9-0bf8655823c5","ios":"levelo://app?vid=331e9ff6-0bf9-40b8-9ab9-0bf8655823c5"},"vehicle_type_id":"4","last_reported":1746198614,"current_range_meters":4400,"station_id":"ce4bh692rcd13ifvqe90","pricing_plan_id":"cebpf4jnsgd1na2vs0mg"},{"bike_id":"748a8f18-ef88-414e-b61c-ff3222f3dce5","system_id":"levelo_inurba_marseille","lat":43.25827,"lon":5.39435,"is_reserved":false,"is_disabled":false,"rental_uris":{"android":"levelo://app?vid=748a8f18-ef88-414e-b61c-ff3222f3dce5","ios":"levelo://app?vid=748a8f18-ef88-414e-b61c-ff3222f3dce5"},"vehicle_type_id":"4","last_reported":1746198614,"current_range_meters":8400,"station_id":"ce4bhip2rcd13ifvqft0","pricing_plan_id":"cebpf4jnsgd1na2vs0mg"},{"bike_id":"66d8648e-20ef-4a51-a48d-8caa503df826","system_id":"levelo_inurba_marseille","lat":43.29848,"lon":5.36272,"is_reserved":false,"is_disabled":false,"rental_uris":{"android":"levelo://app?vid=66d8648e-20ef-4a51-a48d-8caa503df826","ios":"levelo://app?vid=66d8648e-20ef-4a51-a48d-8caa503df826"},"vehicle_type_id":"4","last_reported":1746198614,"current_range_meters":12000,"station_id":"ce4bgpp2rcd13ifvqc3g","pricing_plan_id":"cebpf4jnsgd1na2vs0mg"},{"bike_id":"c2d4530d-859d-477c-bd86-bb636f34c4bd","system_id":"levelo_inurba_marseille","lat":43.27214,"lon":5.39176,"is_reserved":false,"is_disabled":false,"rental_uris":{"android":"levelo://app?vid=c2d4530d-859d-477c-bd86-bb636f34c4bd","ios":"levelo://app?vid=c2d4530d-859d-477c-bd86-bb636f34c4bd"},"vehicle_type_id":"4","last_reported":1746198614,"current_range_meters":12000,"station_id":"ce4bhhp2rcd13ifvqfm0","pricing_plan_id":"cebpf4jnsgd1na2vs0mg"},{"bike_id":"2cbe9895-b61a-4e10-84d6-1db3b08d20aa","system_id":"levelo_inurba_marseille","lat":43.31757,"lon":5.3902,"is_reserved":false,"is_disabled":false,"rental_uris":{"android":"levelo://app?vid=2cbe9895-b61a-4e10-84d6-1db3b08d20aa","ios":"levelo://app?vid=2cbe9895-b61a-4e10-84d6-1db3b08d20aa"},"vehicle_type_id":"4","last_reported":1746198614,"current_range_meters":8800,"station_id":"ce4bhqp2rcd13ifvqhng","pricing_plan_id":"cebpf4jnsgd1na2vs0mg"},{"bike_id":"4072f1b0-a712-4536-8a42-90a0ae2b109c","system_id":"levelo_inurba_marseille","lat":43.27998,"lon":5.40026,"is_reserved":false,"is_disabled":false,"rental_uris":{"android":"levelo://app?vid=4072f1b0-a712-4536-8a42-90a0ae2b109c","ios":"levelo://app?vid=4072f1b0-a712-4536-8a42-90a0ae2b109c"},"vehicle_type_id":"4","last_reported":1746198614,"current_range_meters":8800,"station_id":"ce4bho92rcd13ifvqh4g","pricing_plan_id":"cebpf4jnsgd1na2vs0mg"},{"bike_id":"f2bb6adb-efcf-4223-8e62-df69b0137757","system_id":"levelo_inurba_marseille","lat":43.239685,"lon":5.366295,"is_reserved":false,"is_disabled":false,"rental_uris":{"android":"levelo://app?vid=f2bb6adb-efcf-4223-8e62-df69b0137757","ios":"levelo://app?vid=f2bb6adb-efcf-4223-8e62-df69b0137757"},"vehicle_type_id":"4","last_reported":1746198614,"current_range_meters":8800,"station_id":"ce4bhi12rcd13ifvqfp0","pricing_plan_id":"cebpf4jnsgd1na2vs0mg"},{"bike_id":"a52638dd-6afa-4f3e-9f40-07bec7fcd003","system_id":"levelo_inurba_marseille","lat":43.26595,"lon":5.39037,"is_reserved":false,"is_disabled":false,"rental_uris":{"android":"levelo://app?vid=a52638dd-6afa-4f3e-9f40-07bec7fcd003","ios":"levelo://app?vid=a52638dd-6afa-4f3e-9f40-07bec7fcd003"},"vehicle_type_id":"4","last_reported":1746198614,"current_range_meters":8800,"station_id":"ce4bhe12rcd13ifvqf30","pricing_plan_id":"cebpf4jnsgd1na2vs0mg"},{"bike_id":"d5a72266-99da-46d9-a005-82207b8b1afe","system_id":"levelo_inurba_marseille","lat":43.295429,"lon":5.370892,"is_reserved":false,"is_disabled":false,"rental_uris":{"android":"levelo://app?vid=d5a72266-99da-46d9-a005-82207b8b1afe","ios":"levelo://app?vid=d5a72266-99da-46d9-a005-82207b8b1afe"},"vehicle_type_id":"4","last_reported":1746198614,"current_range_meters":12000,"station_id":"ce4bgi12rcd13ifvqb70","pricing_plan_id":"cebpf4jnsgd1na2vs0mg"},{"bike_id":"46b71289-2548-47ed-a277-cf2900735f41","system_id":"levelo_inurba_marseille","lat":43.30277,"lon":5.37733,"is_reserved":false,"is_disabled":false,"rental_uris":{"android":"levelo://app?vid=46b71289-2548-47ed-a277-cf2900735f41","ios":"levelo://app?vid=46b71289-2548-47ed-a277-cf2900735f41"},"vehicle_type_id":"4","last_reported":1746198614,"current_range_meters":9200,"station_id":"ce4bguh2rcd13ifvqcj0","pricing_plan_id":"cebpf4jnsgd1na2vs0mg"},{"bike_id":"eac6644d-8e72-470b-a3c1-12d83db31f7f","system_id":"levelo_inurba_marseille","lat":43.292786,"lon":5.368435,"is_reserved":false,"is_disabled":false,"rental_uris":{"android":"levelo://app?vid=eac6644d-8e72-470b-a3c1-12d83db31f7f","ios":"levelo://app?vid=eac6644d-8e72-470b-a3c1-12d83db31f7f"},"vehicle_type_id":"4","last_reported":1746198614,"current_range_meters":9200,"station_id":"ce4bhbp2rcd13ifvqesg","pricing_plan_id":"cebpf4jnsgd1na2vs0mg"},{"bike_id":"44c21c35-1b06-4fa3-8338-526704432096","system_id":"levelo_inurba_marseille","lat":43.295954,"lon":5.3809,"is_reserved":false,"is_disabled":false,"rental_uris":{"android":"levelo://app?vid=44c21c35-1b06-4fa3-8338-526704432096","ios":"levelo://app?vid=44c21c35-1b06-4fa3-8338-526704432096"},"vehicle_type_id":"4","last_reported":1746198614,"current_range_meters":9200,"station_id":"ce4bgl12rcd13ifvqbo0","pricing_plan_id":"cebpf4jnsgd1na2vs0mg"},{"bike_id":"bcdb9d2e-41b6-4501-810c-6146d2dfe2c6","system_id":"levelo_inurba_marseille","lat":43.29307,"lon":5.37165,"is_reserved":false,"is_disabled":true,"rental_uris":{"android":"levelo://app?vid=bcdb9d2e-41b6-4501-810c-6146d2dfe2c6","ios":"levelo://app?vid=bcdb9d2e-41b6-4501-810c-6146d2dfe2c6"},"vehicle_type_id":"4","last_reported":1746198614,"current_range_meters":9200,"station_id":"ce4bgh92rcd13ifvqb40","pricing_plan_id":"cebpf4jnsgd1na2vs0mg"},{"bike_id":"172e8a6c-b937-44f1-a74a-2d433752e1c0","system_id":"levelo_inurba_marseille","lat":43.29373,"lon":5.37849,"is_reserved":false,"is_disabled":false,"rental_uris":{"android":"levelo://app?vid=172e8a6c-b937-44f1-a74a-2d433752e1c0","ios":"levelo://app?vid=172e8a6c-b937-44f1-a74a-2d433752e1c0"},"vehicle_type_id":"4","last_reported":1746198614,"current_range_meters":9200,"station_id":"ce4bgjh2rcd13ifvqbf0","pricing_plan_id":"cebpf4jnsgd1na2vs0mg"},{"bike_id":"c17400bb-9036-46fc-b7cd-8b565eb758e5","system_id":"levelo_inurba_marseille","lat":43.28941,"lon":5.36634,"is_reserved":false,"is_disabled":false,"rental_uris":{"android":"levelo://app?vid=c17400bb-9036-46fc-b7cd-8b565eb758e5","ios":"levelo://app?vid=c17400bb-9036-46fc-b7cd-8b565eb758e5"},"vehicle_type_id":"4","last_reported":1746198614,"current_range_meters":9200,"station_id":"ce4bhap2rcd13ifvqek0","pricing_plan_id":"cebpf4jnsgd1na2vs0mg"},{"bike_id":"acad2663-00dd-49c6-b50d-35cecd7fbacd","system_id":"levelo_inurba_marseille","lat":43.27903,"lon":5.38003,"is_reserved":false,"is_disabled":false,"rental_uris":{"android":"levelo://app?vid=acad2663-00dd-49c6-b50d-35cecd7fbacd","ios":"levelo://app?vid=acad2663-00dd-49c6-b50d-35cecd7fbacd"},"vehicle_type_id":"4","last_reported":1746198614,"current_range_meters":9600,"station_id":"ce4bhf92rcd13ifvqf50","pricing_plan_id":"cebpf4jnsgd1na2vs0mg"},{"bike_id":"fd46b497-4284-4e5d-9bd0-383f1a7d6b96","system_id":"levelo_inurba_marseille","lat":43.298462,"lon":5.362836,"is_reserved":false,"is_disabled":false,"rental_uris":{"android":"levelo://app?vid=fd46b497-4284-4e5d-9bd0-383f1a7d6b96","ios":"levelo://app?vid=fd46b497-4284-4e5d-9bd0-383f1a7d6b96"},"vehicle_type_id":"4","last_reported":1746198614,"current_range_meters":9200,"station_id":"ce4bgpp2rcd13ifvqc3g","pricing_plan_id":"cebpf4jnsgd1na2vs0mg"},{"bike_id":"eae53119-b28d-445a-a67d-cbc73f1fd38d","system_id":"levelo_inurba_marseille","lat":43.25094,"lon":5.40364,"is_reserved":false,"is_disabled":false,"rental_uris":{"android":"levelo://app?vid=eae53119-b28d-445a-a67d-cbc73f1fd38d","ios":"levelo://app?vid=eae53119-b28d-445a-a67d-cbc73f1fd38d"},"vehicle_type_id":"4","last_reported":1746198614,"current_range_meters":9600,"station_id":"ce4bhlh2rcd13ifvqgig","pricing_plan_id":"cebpf4jnsgd1na2vs0mg"},{"bike_id":"46c70096-c982-4551-bf10-fe7ed09e08c1","system_id":"levelo_inurba_marseille","lat":43.26569,"lon":5.39006,"is_reserved":false,"is_disabled":false,"rental_uris":{"android":"levelo://app?vid=46c70096-c982-4551-bf10-fe7ed09e08c1","ios":"levelo://app?vid=46c70096-c982-4551-bf10-fe7ed09e08c1"},"vehicle_type_id":"4","last_reported":1746198614,"current_range_meters":9600,"station_id":"ce4bhe12rcd13ifvqf30","pricing_plan_id":"cebpf4jnsgd1na2vs0mg"},{"bike_id":"29a83445-0753-40f4-8ed7-c02207f310e3","system_id":"levelo_inurba_marseille","lat":43.2831,"lon":5.38547,"is_reserved":false,"is_disabled":false,"rental_uris":{"android":"levelo://app?vid=29a83445-0753-40f4-8ed7-c02207f310e3","ios":"levelo://app?vid=29a83445-0753-40f4-8ed7-c02207f310e3"},"vehicle_type_id":"4","last_reported":1746198614,"current_range_meters":9600,"station_id":"","pricing_plan_id":"cebpf4jnsgd1na2vs0mg"},{"bike_id":"045b2767-67d3-41b7-8618-6d27646a5585","system_id":"levelo_inurba_marseille","lat":43.31713,"lon":5.38636,"is_reserved":false,"is_disabled":false,"rental_uris":{"android":"levelo://app?vid=045b2767-67d3-41b7-8618-6d27646a5585","ios":"levelo://app?vid=045b2767-67d3-41b7-8618-6d27646a5585"},"vehicle_type_id":"4","last_reported":1746198614,"current_range_meters":9600,"station_id":"","pricing_plan_id":"cebpf4jnsgd1na2vs0mg"},{"bike_id":"cfd9d347-ec3c-4047-abbd-ec7a19b6697b","system_id":"levelo_inurba_marseille","lat":43.32343,"lon":5.40629,"is_reserved":false,"is_disabled":false,"rental_uris":{"android":"levelo://app?vid=cfd9d347-ec3c-4047-abbd-ec7a19b6697b","ios":"levelo://app?vid=cfd9d347-ec3c-4047-abbd-ec7a19b6697b"},"vehicle_type_id":"4","last_reported":1746198614,"current_range_meters":9600,"station_id":"ce4bhq92rcd13ifvqhjg","pricing_plan_id":"cebpf4jnsgd1na2vs0mg"},{"bike_id":"ee82dc16-0637-45ec-ac5b-0ab3c0d970a4","system_id":"levelo_inurba_marseille","lat":43.27622,"lon":5.3612,"is_reserved":false,"is_disabled":false,"rental_uris":{"android":"levelo://app?vid=ee82dc16-0637-45ec-ac5b-0ab3c0d970a4","ios":"levelo://app?vid=ee82dc16-0637-45ec-ac5b-0ab3c0d970a4"},"vehicle_type_id":"4","last_reported":1746198614,"current_range_meters":9600,"station_id":"ce4bgj92rcd13ifvqbe0","pricing_plan_id":"cebpf4jnsgd1na2vs0mg"},{"bike_id":"255731d6-44d9-45e3-84c4-8222de3053d6","system_id":"levelo_inurba_marseille","lat":43.25857,"lon":5.39895,"is_reserved":false,"is_disabled":false,"rental_uris":{"android":"levelo://app?vid=255731d6-44d9-45e3-84c4-8222de3053d6","ios":"levelo://app?vid=255731d6-44d9-45e3-84c4-8222de3053d6"},"vehicle_type_id":"4","last_reported":1746198614,"current_range_meters":10000,"station_id":"ce4bhl92rcd13ifvqghg","pricing_plan_id":"cebpf4jnsgd1na2vs0mg"},{"bike_id":"6316ebf3-8e97-4705-905c-6d4c305a115e","system_id":"levelo_inurba_marseille","lat":43.289793,"lon":5.366177,"is_reserved":false,"is_disabled":false,"rental_uris":{"android":"levelo://app?vid=6316ebf3-8e97-4705-905c-6d4c305a115e","ios":"levelo://app?vid=6316ebf3-8e97-4705-905c-6d4c305a115e"},"vehicle_type_id":"4","last_reported":1746198614,"current_range_meters":10000,"station_id":"ce4bhah2rcd13ifvqei0","pricing_plan_id":"cebpf4jnsgd1na2vs0mg"},{"bike_id":"fb874cff-0f1c-499f-a97e-c53a500a72c2","system_id":"levelo_inurba_marseille","lat":43.3153,"lon":5.38026,"is_reserved":false,"is_disabled":false,"rental_uris":{"android":"levelo://app?vid=fb874cff-0f1c-499f-a97e-c53a500a72c2","ios":"levelo://app?vid=fb874cff-0f1c-499f-a97e-c53a500a72c2"},"vehicle_type_id":"4","last_reported":1746198614,"current_range_meters":10000,"station_id":"ce4bhsp2rcd13ifvqi50","pricing_plan_id":"cebpf4jnsgd1na2vs0mg"},{"bike_id":"93813926-1cfb-4920-bfe2-ff5aa8cbea87","system_id":"levelo_inurba_marseille","lat":43.29105,"lon":5.38141,"is_reserved":false,"is_disabled":false,"rental_uris":{"android":"levelo://app?vid=93813926-1cfb-4920-bfe2-ff5aa8cbea87","ios":"levelo://app?vid=93813926-1cfb-4920-bfe2-ff5aa8cbea87"},"vehicle_type_id":"4","last_reported":1746198614,"current_range_meters":10000,"station_id":"ce4bh512rcd13ifvqe2g","pricing_plan_id":"cebpf4jnsgd1na2vs0mg"},{"bike_id":"fd2c3c67-23a6-4380-b7ca-8f23c8f78921","system_id":"levelo_inurba_marseille","lat":43.32297,"lon":5.36602,"is_reserved":false,"is_disabled":false,"rental_uris":{"android":"levelo://app?vid=fd2c3c67-23a6-4380-b7ca-8f23c8f78921","ios":"levelo://app?vid=fd2c3c67-23a6-4380-b7ca-8f23c8f78921"},"vehicle_type_id":"4","last_reported":1746198614,"current_range_meters":10000,"station_id":"","pricing_plan_id":"cebpf4jnsgd1na2vs0mg"},{"bike_id":"0c9a8767-a71f-4ef0-b390-c3b7e9c632a8","system_id":"levelo_inurba_marseille","lat":43.21183,"lon":5.35097,"is_reserved":false,"is_disabled":true,"rental_uris":{"android":"levelo://app?vid=0c9a8767-a71f-4ef0-b390-c3b7e9c632a8","ios":"levelo://app?vid=0c9a8767-a71f-4ef0-b390-c3b7e9c632a8"},"vehicle_type_id":"4","last_reported":1746198614,"current_range_meters":10800,"station_id":"","pricing_plan_id":"cebpf4jnsgd1na2vs0mg"},{"bike_id":"c975af80-8d57-477f-820c-2287f1b5448b","system_id":"levelo_inurba_marseille","lat":43.29259,"lon":5.40904,"is_reserved":false,"is_disabled":false,"rental_uris":{"android":"levelo://app?vid=c975af80-8d57-477f-820c-2287f1b5448b","ios":"levelo://app?vid=c975af80-8d57-477f-820c-2287f1b5448b"},"vehicle_type_id":"4","last_reported":1746198614,"current_range_meters":10800,"station_id":"ce4bh192rcd13ifvqdc0","pricing_plan_id":"cebpf4jnsgd1na2vs0mg"},{"bike_id":"d7dc8164-67ef-4483-b54e-169aafb2a306","system_id":"levelo_inurba_marseille","lat":43.23964,"lon":5.36623,"is_reserved":false,"is_disabled":false,"rental_uris":{"android":"levelo://app?vid=d7dc8164-67ef-4483-b54e-169aafb2a306","ios":"levelo://app?vid=d7dc8164-67ef-4483-b54e-169aafb2a306"},"vehicle_type_id":"4","last_reported":1746198614,"current_range_meters":10800,"station_id":"ce4bhi12rcd13ifvqfp0","pricing_plan_id":"cebpf4jnsgd1na2vs0mg"},{"bike_id":"b1811eb9-9c50-4e12-b9ed-50be6bf54c54","system_id":"levelo_inurba_marseille","lat":43.30216,"lon":5.39464,"is_reserved":false,"is_disabled":false,"rental_uris":{"android":"levelo://app?vid=b1811eb9-9c50-4e12-b9ed-50be6bf54c54","ios":"levelo://app?vid=b1811eb9-9c50-4e12-b9ed-50be6bf54c54"},"vehicle_type_id":"4","last_reported":1746198614,"current_range_meters":10800,"station_id":"ce4bh0p2rcd13ifvqd70","pricing_plan_id":"cebpf4jnsgd1na2vs0mg"},{"bike_id":"39ed76a7-1c00-46a8-949b-2f656fd32ad6","system_id":"levelo_inurba_marseille","lat":43.2827,"lon":5.35076,"is_reserved":false,"is_disabled":false,"rental_uris":{"android":"levelo://app?vid=39ed76a7-1c00-46a8-949b-2f656fd32ad6","ios":"levelo://app?vid=39ed76a7-1c00-46a8-949b-2f656fd32ad6"},"vehicle_type_id":"4","last_reported":1746198614,"current_range_meters":10800,"station_id":"ce4bhbp2rcd13ifvqerg","pricing_plan_id":"cebpf4jnsgd1na2vs0mg"},{"bike_id":"02d0bc8c-e756-4ce9-903c-d6c6e41b006c","system_id":"levelo_inurba_marseille","lat":43.30809,"lon":5.43523,"is_reserved":false,"is_disabled":false,"rental_uris":{"android":"levelo://app?vid=02d0bc8c-e756-4ce9-903c-d6c6e41b006c","ios":"levelo://app?vid=02d0bc8c-e756-4ce9-903c-d6c6e41b006c"},"vehicle_type_id":"4","last_reported":1746198614,"current_range_meters":10800,"station_id":"ce4bhph2rcd13ifvqheg","pricing_plan_id":"cebpf4jnsgd1na2vs0mg"},{"bike_id":"3694d090-d909-4d38-9eb1-31338c8af39e","system_id":"levelo_inurba_marseille","lat":43.26685,"lon":5.38262,"is_reserved":false,"is_disabled":true,"rental_uris":{"android":"levelo://app?vid=3694d090-d909-4d38-9eb1-31338c8af39e","ios":"levelo://app?vid=3694d090-d909-4d38-9eb1-31338c8af39e"},"vehicle_type_id":"4","last_reported":1746198614,"current_range_meters":11200,"station_id":"ce4bhg92rcd13ifvqf90","pricing_plan_id":"cebpf4jnsgd1na2vs0mg"},{"bike_id":"501d3316-337e-427d-b1aa-13bf2ca19448","system_id":"levelo_inurba_marseille","lat":43.29201,"lon":5.39324,"is_reserved":false,"is_disabled":false,"rental_uris":{"android":"levelo://app?vid=501d3316-337e-427d-b1aa-13bf2ca19448","ios":"levelo://app?vid=501d3316-337e-427d-b1aa-13bf2ca19448"},"vehicle_type_id":"4","last_reported":1746198614,"current_range_meters":11200,"station_id":"ce4bh192rcd13ifvqdd0","pricing_plan_id":"cebpf4jnsgd1na2vs0mg"},{"bike_id":"709a5412-8992-4c32-93fe-0e1c5915549e","system_id":"levelo_inurba_marseille","lat":43.27073,"lon":5.42279,"is_reserved":false,"is_disabled":false,"rental_uris":{"android":"levelo://app?vid=709a5412-8992-4c32-93fe-0e1c5915549e","ios":"levelo://app?vid=709a5412-8992-4c32-93fe-0e1c5915549e"},"vehicle_type_id":"4","last_reported":1746198614,"current_range_meters":11200,"station_id":"ce4bhk92rcd13ifvqgb0","pricing_plan_id":"cebpf4jnsgd1na2vs0mg"},{"bike_id":"38e75396-b4e8-4d6b-9e05-b2c35791bf98","system_id":"levelo_inurba_marseille","lat":43.29604,"lon":5.38095,"is_reserved":false,"is_disabled":false,"rental_uris":{"android":"levelo://app?vid=38e75396-b4e8-4d6b-9e05-b2c35791bf98","ios":"levelo://app?vid=38e75396-b4e8-4d6b-9e05-b2c35791bf98"},"vehicle_type_id":"4","last_reported":1746198614,"current_range_meters":11200,"station_id":"ce4bgl12rcd13ifvqbo0","pricing_plan_id":"cebpf4jnsgd1na2vs0mg"},{"bike_id":"9b21b140-5147-4cf2-b519-bae8837a15b1","system_id":"levelo_inurba_marseille","lat":43.33028,"lon":5.39041,"is_reserved":false,"is_disabled":false,"rental_uris":{"android":"levelo://app?vid=9b21b140-5147-4cf2-b519-bae8837a15b1","ios":"levelo://app?vid=9b21b140-5147-4cf2-b519-bae8837a15b1"},"vehicle_type_id":"4","last_reported":1746198614,"current_range_meters":11200,"station_id":"ce4bhr92rcd13ifvqhrg","pricing_plan_id":"cebpf4jnsgd1na2vs0mg"},{"bike_id":"72ebba48-2930-4e96-8141-dcbacc7f69a9","system_id":"levelo_inurba_marseille","lat":43.296173,"lon":5.371619,"is_reserved":false,"is_disabled":false,"rental_uris":{"android":"levelo://app?vid=72ebba48-2930-4e96-8141-dcbacc7f69a9","ios":"levelo://app?vid=72ebba48-2930-4e96-8141-dcbacc7f69a9"},"vehicle_type_id":"4","last_reported":1746198614,"current_range_meters":11200,"station_id":"ce4bgnh2rcd13ifvqc0g","pricing_plan_id":"cebpf4jnsgd1na2vs0mg"},{"bike_id":"8a372048-9370-4124-bb30-2cf0f03843e7","system_id":"levelo_inurba_marseille","lat":43.29712,"lon":5.36595,"is_reserved":false,"is_disabled":false,"rental_uris":{"android":"levelo://app?vid=8a372048-9370-4124-bb30-2cf0f03843e7","ios":"levelo://app?vid=8a372048-9370-4124-bb30-2cf0f03843e7"},"vehicle_type_id":"4","last_reported":1746198614,"current_range_meters":11200,"station_id":"ce4bgn12rcd13ifvqbt0","pricing_plan_id":"cebpf4jnsgd1na2vs0mg"},{"bike_id":"68f10e8b-7666-4ff9-b397-753ea2dd09b1","system_id":"levelo_inurba_marseille","lat":43.29889,"lon":5.43656,"is_reserved":false,"is_disabled":false,"rental_uris":{"android":"levelo://app?vid=68f10e8b-7666-4ff9-b397-753ea2dd09b1","ios":"levelo://app?vid=68f10e8b-7666-4ff9-b397-753ea2dd09b1"},"vehicle_type_id":"4","last_reported":1746198614,"current_range_meters":11200,"station_id":"ce4bhpp2rcd13ifvqhfg","pricing_plan_id":"cebpf4jnsgd1na2vs0mg"},{"bike_id":"8a0058ae-d47a-4696-afcc-53a66a14ba3f","system_id":"levelo_inurba_marseille","lat":43.298987,"lon":5.436685,"is_reserved":false,"is_disabled":false,"rental_uris":{"android":"levelo://app?vid=8a0058ae-d47a-4696-afcc-53a66a14ba3f","ios":"levelo://app?vid=8a0058ae-d47a-4696-afcc-53a66a14ba3f"},"vehicle_type_id":"4","last_reported":1746198614,"current_range_meters":11600,"station_id":"ce4bhpp2rcd13ifvqhfg","pricing_plan_id":"cebpf4jnsgd1na2vs0mg"},{"bike_id":"ccc5881c-adf0-44d8-9097-fdec11f35d65","system_id":"levelo_inurba_marseille","lat":43.29048,"lon":5.35916,"is_reserved":false,"is_disabled":false,"rental_uris":{"android":"levelo://app?vid=ccc5881c-adf0-44d8-9097-fdec11f35d65","ios":"levelo://app?vid=ccc5881c-adf0-44d8-9097-fdec11f35d65"},"vehicle_type_id":"4","last_reported":1746198614,"current_range_meters":11600,"station_id":"ce4bha92rcd13ifvqeg0","pricing_plan_id":"cebpf4jnsgd1na2vs0mg"},{"bike_id":"03f5b910-d1d5-49c8-a7a4-67a333daaa2e","system_id":"levelo_inurba_marseille","lat":43.32542,"lon":5.41429,"is_reserved":false,"is_disabled":false,"rental_uris":{"android":"levelo://app?vid=03f5b910-d1d5-49c8-a7a4-67a333daaa2e","ios":"levelo://app?vid=03f5b910-d1d5-49c8-a7a4-67a333daaa2e"},"vehicle_type_id":"4","last_reported":1746198614,"current_range_meters":11600,"station_id":"ce4bhq12rcd13ifvqhhg","pricing_plan_id":"cebpf4jnsgd1na2vs0mg"},{"bike_id":"73bd1870-1481-4016-85cb-103640f30e9e","system_id":"levelo_inurba_marseille","lat":43.30215,"lon":5.39469,"is_reserved":false,"is_disabled":false,"rental_uris":{"android":"levelo://app?vid=73bd1870-1481-4016-85cb-103640f30e9e","ios":"levelo://app?vid=73bd1870-1481-4016-85cb-103640f30e9e"},"vehicle_type_id":"4","last_reported":1746198614,"current_range_meters":11600,"station_id":"ce4bh0p2rcd13ifvqd70","pricing_plan_id":"cebpf4jnsgd1na2vs0mg"},{"bike_id":"6d74a9f5-3f03-4e8e-aa3b-29a84082925f","system_id":"levelo_inurba_marseille","lat":43.229338,"lon":5.353748,"is_reserved":false,"is_disabled":false,"rental_uris":{"android":"levelo://app?vid=6d74a9f5-3f03-4e8e-aa3b-29a84082925f","ios":"levelo://app?vid=6d74a9f5-3f03-4e8e-aa3b-29a84082925f"},"vehicle_type_id":"4","last_reported":1746198614,"current_range_meters":11600,"station_id":"cpo3532slgdg3j2ikp40","pricing_plan_id":"cebpf4jnsgd1na2vs0mg"},{"bike_id":"8a98d962-578d-444b-a5bb-91a62b69d98d","system_id":"levelo_inurba_marseille","lat":43.21193,"lon":5.35078,"is_reserved":false,"is_disabled":true,"rental_uris":{"android":"levelo://app?vid=8a98d962-578d-444b-a5bb-91a62b69d98d","ios":"levelo://app?vid=8a98d962-578d-444b-a5bb-91a62b69d98d"},"vehicle_type_id":"4","last_reported":1746198614,"current_range_meters":12000,"station_id":"st_cvj6sg6p6f1abm77japg","pricing_plan_id":"cebpf4jnsgd1na2vs0mg"},{"bike_id":"43414673-0c99-4c59-8fc6-ab0c00d30e66","system_id":"levelo_inurba_marseille","lat":43.29038,"lon":5.39959,"is_reserved":false,"is_disabled":false,"rental_uris":{"android":"levelo://app?vid=43414673-0c99-4c59-8fc6-ab0c00d30e66","ios":"levelo://app?vid=43414673-0c99-4c59-8fc6-ab0c00d30e66"},"vehicle_type_id":"4","last_reported":1746198614,"current_range_meters":12000,"station_id":"ce4bh392rcd13ifvqdm0","pricing_plan_id":"cebpf4jnsgd1na2vs0mg"},{"bike_id":"f8179c3f-0ee8-4694-885e-568ce71195ad","system_id":"levelo_inurba_marseille","lat":43.29099,"lon":5.38138,"is_reserved":false,"is_disabled":false,"rental_uris":{"android":"levelo://app?vid=f8179c3f-0ee8-4694-885e-568ce71195ad","ios":"levelo://app?vid=f8179c3f-0ee8-4694-885e-568ce71195ad"},"vehicle_type_id":"4","last_reported":1746198614,"current_range_meters":12400,"station_id":"ce4bh512rcd13ifvqe2g","pricing_plan_id":"cebpf4jnsgd1na2vs0mg"},{"bike_id":"3fb48fa9-a7ab-4480-bf4a-e4af9b042659","system_id":"levelo_inurba_marseille","lat":43.2657,"lon":5.39003,"is_reserved":false,"is_disabled":false,"rental_uris":{"android":"levelo://app?vid=3fb48fa9-a7ab-4480-bf4a-e4af9b042659","ios":"levelo://app?vid=3fb48fa9-a7ab-4480-bf4a-e4af9b042659"},"vehicle_type_id":"4","last_reported":1746198614,"current_range_meters":12400,"station_id":"ce4bhe12rcd13ifvqf30","pricing_plan_id":"cebpf4jnsgd1na2vs0mg"},{"bike_id":"d86d28f5-6b81-4268-a2e6-336b7641c054","system_id":"levelo_inurba_marseille","lat":43.27372,"lon":5.36253,"is_reserved":false,"is_disabled":false,"rental_uris":{"android":"levelo://app?vid=d86d28f5-6b81-4268-a2e6-336b7641c054","ios":"levelo://app?vid=d86d28f5-6b81-4268-a2e6-336b7641c054"},"vehicle_type_id":"4","last_reported":1746198614,"current_range_meters":12400,"station_id":"ce4bhbh2rcd13ifvqeo0","pricing_plan_id":"cebpf4jnsgd1na2vs0mg"},{"bike_id":"c9cd94ea-2f07-4f8f-8047-1ac7c31761a8","system_id":"levelo_inurba_marseille","lat":43.28491,"lon":5.38417,"is_reserved":false,"is_disabled":false,"rental_uris":{"android":"levelo://app?vid=c9cd94ea-2f07-4f8f-8047-1ac7c31761a8","ios":"levelo://app?vid=c9cd94ea-2f07-4f8f-8047-1ac7c31761a8"},"vehicle_type_id":"4","last_reported":1746198614,"current_range_meters":12400,"station_id":"ce4bh512rcd13ifvqe3g","pricing_plan_id":"cebpf4jnsgd1na2vs0mg"},{"bike_id":"ca8fa3f0-84e7-4f0d-817c-4cea931c6ea8","system_id":"levelo_inurba_marseille","lat":43.327515,"lon":5.391813,"is_reserved":false,"is_disabled":false,"rental_uris":{"android":"levelo://app?vid=ca8fa3f0-84e7-4f0d-817c-4cea931c6ea8","ios":"levelo://app?vid=ca8fa3f0-84e7-4f0d-817c-4cea931c6ea8"},"vehicle_type_id":"4","last_reported":1746198614,"current_range_meters":12400,"station_id":"","pricing_plan_id":"cebpf4jnsgd1na2vs0mg"},{"bike_id":"c69c7fa7-ed81-49dc-807c-146e5caebc08","system_id":"levelo_inurba_marseille","lat":43.30733,"lon":5.42447,"is_reserved":false,"is_disabled":false,"rental_uris":{"android":"levelo://app?vid=c69c7fa7-ed81-49dc-807c-146e5caebc08","ios":"levelo://app?vid=c69c7fa7-ed81-49dc-807c-146e5caebc08"},"vehicle_type_id":"4","last_reported":1746198614,"current_range_meters":12800,"station_id":"st_cvj6ca6bvosntc0bfgr0","pricing_plan_id":"cebpf4jnsgd1na2vs0mg"},{"bike_id":"6477d804-73e7-4cb6-84b2-71e934cc5f72","system_id":"levelo_inurba_marseille","lat":43.25092,"lon":5.39518,"is_reserved":false,"is_disabled":false,"rental_uris":{"android":"levelo://app?vid=6477d804-73e7-4cb6-84b2-71e934cc5f72","ios":"levelo://app?vid=6477d804-73e7-4cb6-84b2-71e934cc5f72"},"vehicle_type_id":"4","last_reported":1746198614,"current_range_meters":12800,"station_id":"ce4bhm12rcd13ifvqgkg","pricing_plan_id":"cebpf4jnsgd1na2vs0mg"},{"bike_id":"f6b87611-5059-42f6-955f-91dc37dbc39d","system_id":"levelo_inurba_marseille","lat":43.33726,"lon":5.39191,"is_reserved":false,"is_disabled":false,"rental_uris":{"android":"levelo://app?vid=f6b87611-5059-42f6-955f-91dc37dbc39d","ios":"levelo://app?vid=f6b87611-5059-42f6-955f-91dc37dbc39d"},"vehicle_type_id":"4","last_reported":1746198614,"current_range_meters":12800,"station_id":"ce4bhr92rcd13ifvqhsg","pricing_plan_id":"cebpf4jnsgd1na2vs0mg"},{"bike_id":"e0e163c0-b70c-478b-a240-966060226969","system_id":"levelo_inurba_marseille","lat":43.2924,"lon":5.36208,"is_reserved":false,"is_disabled":false,"rental_uris":{"android":"levelo://app?vid=e0e163c0-b70c-478b-a240-966060226969","ios":"levelo://app?vid=e0e163c0-b70c-478b-a240-966060226969"},"vehicle_type_id":"4","last_reported":1746198614,"current_range_meters":12800,"station_id":"","pricing_plan_id":"cebpf4jnsgd1na2vs0mg"},{"bike_id":"edad9138-31f3-4009-8b9c-3d248e42b80b","system_id":"levelo_inurba_marseille","lat":43.29007,"lon":5.35609,"is_reserved":false,"is_disabled":false,"rental_uris":{"android":"levelo://app?vid=edad9138-31f3-4009-8b9c-3d248e42b80b","ios":"levelo://app?vid=edad9138-31f3-4009-8b9c-3d248e42b80b"},"vehicle_type_id":"4","last_reported":1746198614,"current_range_meters":14400,"station_id":"ce4bhb92rcd13ifvqen0","pricing_plan_id":"cebpf4jnsgd1na2vs0mg"},{"bike_id":"fecc59b8-2628-490e-8e23-5dec16b1355d","system_id":"levelo_inurba_marseille","lat":43.32659,"lon":5.40996,"is_reserved":false,"is_disabled":false,"rental_uris":{"android":"levelo://app?vid=fecc59b8-2628-490e-8e23-5dec16b1355d","ios":"levelo://app?vid=fecc59b8-2628-490e-8e23-5dec16b1355d"},"vehicle_type_id":"4","last_reported":1746198614,"current_range_meters":13600,"station_id":"ce4bhpp2rcd13ifvqhgg","pricing_plan_id":"cebpf4jnsgd1na2vs0mg"},{"bike_id":"4443c328-203b-4e54-b950-2dbba55131da","system_id":"levelo_inurba_marseille","lat":43.30333,"lon":5.404305,"is_reserved":false,"is_disabled":false,"rental_uris":{"android":"levelo://app?vid=4443c328-203b-4e54-b950-2dbba55131da","ios":"levelo://app?vid=4443c328-203b-4e54-b950-2dbba55131da"},"vehicle_type_id":"4","last_reported":1746198614,"current_range_meters":13600,"station_id":"ce4bh012rcd13ifvqd10","pricing_plan_id":"cebpf4jnsgd1na2vs0mg"},{"bike_id":"17699dfa-b6e7-41db-8c58-92a93af2c4b1","system_id":"levelo_inurba_marseille","lat":43.29625,"lon":5.37165,"is_reserved":false,"is_disabled":false,"rental_uris":{"android":"levelo://app?vid=17699dfa-b6e7-41db-8c58-92a93af2c4b1","ios":"levelo://app?vid=17699dfa-b6e7-41db-8c58-92a93af2c4b1"},"vehicle_type_id":"4","last_reported":1746198614,"current_range_meters":13600,"station_id":"ce4bgnh2rcd13ifvqc0g","pricing_plan_id":"cebpf4jnsgd1na2vs0mg"},{"bike_id":"f0aebd5c-ef6b-4515-b8a5-e74e59136d0f","system_id":"levelo_inurba_marseille","lat":43.31489,"lon":5.37309,"is_reserved":false,"is_disabled":false,"rental_uris":{"android":"levelo://app?vid=f0aebd5c-ef6b-4515-b8a5-e74e59136d0f","ios":"levelo://app?vid=f0aebd5c-ef6b-4515-b8a5-e74e59136d0f"},"vehicle_type_id":"4","last_reported":1746198614,"current_range_meters":13600,"station_id":"ce4bgt12rcd13ifvqcd0","pricing_plan_id":"cebpf4jnsgd1na2vs0mg"},{"bike_id":"6b8488e6-d3ef-45a3-af3d-aee5db19d0f6","system_id":"levelo_inurba_marseille","lat":43.29086,"lon":5.3717,"is_reserved":false,"is_disabled":false,"rental_uris":{"android":"levelo://app?vid=6b8488e6-d3ef-45a3-af3d-aee5db19d0f6","ios":"levelo://app?vid=6b8488e6-d3ef-45a3-af3d-aee5db19d0f6"},"vehicle_type_id":"4","last_reported":1746198614,"current_range_meters":13600,"station_id":"ce4bh5p2rcd13ifvqe4g","pricing_plan_id":"cebpf4jnsgd1na2vs0mg"},{"bike_id":"a4d9b1f2-d562-42e0-abe8-83f934ed1915","system_id":"levelo_inurba_marseille","lat":43.2587,"lon":5.39908,"is_reserved":false,"is_disabled":false,"rental_uris":{"android":"levelo://app?vid=a4d9b1f2-d562-42e0-abe8-83f934ed1915","ios":"levelo://app?vid=a4d9b1f2-d562-42e0-abe8-83f934ed1915"},"vehicle_type_id":"4","last_reported":1746198614,"current_range_meters":13600,"station_id":"ce4bhl92rcd13ifvqghg","pricing_plan_id":"cebpf4jnsgd1na2vs0mg"},{"bike_id":"28af07dd-a3cb-4bfa-99bb-d77b2c369606","system_id":"levelo_inurba_marseille","lat":43.2762,"lon":5.36106,"is_reserved":false,"is_disabled":false,"rental_uris":{"android":"levelo://app?vid=28af07dd-a3cb-4bfa-99bb-d77b2c369606","ios":"levelo://app?vid=28af07dd-a3cb-4bfa-99bb-d77b2c369606"},"vehicle_type_id":"4","last_reported":1746198614,"current_range_meters":13600,"station_id":"ce4bgj92rcd13ifvqbe0","pricing_plan_id":"cebpf4jnsgd1na2vs0mg"},{"bike_id":"2b450ddb-5695-4546-8d57-541a4b87925f","system_id":"levelo_inurba_marseille","lat":43.32355,"lon":5.3673,"is_reserved":false,"is_disabled":false,"rental_uris":{"android":"levelo://app?vid=2b450ddb-5695-4546-8d57-541a4b87925f","ios":"levelo://app?vid=2b450ddb-5695-4546-8d57-541a4b87925f"},"vehicle_type_id":"4","last_reported":1746198614,"current_range_meters":14000,"station_id":"ce4bhsh2rcd13ifvqi2g","pricing_plan_id":"cebpf4jnsgd1na2vs0mg"},{"bike_id":"ab32ba09-8874-4e50-9cc5-4b5fee62ff3d","system_id":"levelo_inurba_marseille","lat":43.31328,"lon":5.39692,"is_reserved":false,"is_disabled":false,"rental_uris":{"android":"levelo://app?vid=ab32ba09-8874-4e50-9cc5-4b5fee62ff3d","ios":"levelo://app?vid=ab32ba09-8874-4e50-9cc5-4b5fee62ff3d"},"vehicle_type_id":"4","last_reported":1746198614,"current_range_meters":13600,"station_id":"ce4bgvp2rcd13ifvqcu0","pricing_plan_id":"cebpf4jnsgd1na2vs0mg"},{"bike_id":"eddb7215-cb5d-48fc-9cd0-5f9c9ad2f356","system_id":"levelo_inurba_marseille","lat":43.28576,"lon":5.3952,"is_reserved":false,"is_disabled":false,"rental_uris":{"android":"levelo://app?vid=eddb7215-cb5d-48fc-9cd0-5f9c9ad2f356","ios":"levelo://app?vid=eddb7215-cb5d-48fc-9cd0-5f9c9ad2f356"},"vehicle_type_id":"4","last_reported":1746198614,"current_range_meters":14000,"station_id":"ce4bh292rcd13ifvqdg0","pricing_plan_id":"cebpf4jnsgd1na2vs0mg"},{"bike_id":"0f3e9263-ef79-429a-89aa-0df057395405","system_id":"levelo_inurba_marseille","lat":43.29039,"lon":5.39964,"is_reserved":false,"is_disabled":false,"rental_uris":{"android":"levelo://app?vid=0f3e9263-ef79-429a-89aa-0df057395405","ios":"levelo://app?vid=0f3e9263-ef79-429a-89aa-0df057395405"},"vehicle_type_id":"4","last_reported":1746198614,"current_range_meters":14000,"station_id":"ce4bh392rcd13ifvqdm0","pricing_plan_id":"cebpf4jnsgd1na2vs0mg"},{"bike_id":"00e66528-d941-4c40-89b5-cba3fcddc0ff","system_id":"levelo_inurba_marseille","lat":43.21196,"lon":5.35051,"is_reserved":false,"is_disabled":false,"rental_uris":{"android":"levelo://app?vid=00e66528-d941-4c40-89b5-cba3fcddc0ff","ios":"levelo://app?vid=00e66528-d941-4c40-89b5-cba3fcddc0ff"},"vehicle_type_id":"4","last_reported":1746198614,"current_range_meters":14000,"station_id":"st_cvj6sg6p6f1abm77japg","pricing_plan_id":"cebpf4jnsgd1na2vs0mg"},{"bike_id":"76027f18-29af-4979-8425-9acdc8f76af5","system_id":"levelo_inurba_marseille","lat":43.27814,"lon":5.40719,"is_reserved":false,"is_disabled":false,"rental_uris":{"android":"levelo://app?vid=76027f18-29af-4979-8425-9acdc8f76af5","ios":"levelo://app?vid=76027f18-29af-4979-8425-9acdc8f76af5"},"vehicle_type_id":"4","last_reported":1746198614,"current_range_meters":14000,"station_id":"ce4bhnh2rcd13ifvqgtg","pricing_plan_id":"cebpf4jnsgd1na2vs0mg"},{"bike_id":"7ae60445-b2be-434f-900f-feb6205b11b5","system_id":"levelo_inurba_marseille","lat":43.23191,"lon":5.35556,"is_reserved":false,"is_disabled":false,"rental_uris":{"android":"levelo://app?vid=7ae60445-b2be-434f-900f-feb6205b11b5","ios":"levelo://app?vid=7ae60445-b2be-434f-900f-feb6205b11b5"},"vehicle_type_id":"4","last_reported":1746198614,"current_range_meters":14400,"station_id":"ce4bhu92rcd13ifvqi70","pricing_plan_id":"cebpf4jnsgd1na2vs0mg"},{"bike_id":"d24e36e0-e0aa-458e-9dc1-1d3e91441d9d","system_id":"levelo_inurba_marseille","lat":43.29024,"lon":5.38647,"is_reserved":false,"is_disabled":true,"rental_uris":{"android":"levelo://app?vid=d24e36e0-e0aa-458e-9dc1-1d3e91441d9d","ios":"levelo://app?vid=d24e36e0-e0aa-458e-9dc1-1d3e91441d9d"},"vehicle_type_id":"4","last_reported":1746198614,"current_range_meters":14400,"station_id":"ce4bh4p2rcd13ifvqe0g","pricing_plan_id":"cebpf4jnsgd1na2vs0mg"},{"bike_id":"dd643f38-b311-422f-98eb-37fb114a9d01","system_id":"levelo_inurba_marseille","lat":43.29609,"lon":5.3775,"is_reserved":false,"is_disabled":true,"rental_uris":{"android":"levelo://app?vid=dd643f38-b311-422f-98eb-37fb114a9d01","ios":"levelo://app?vid=dd643f38-b311-422f-98eb-37fb114a9d01"},"vehicle_type_id":"4","last_reported":1746198614,"current_range_meters":14400,"station_id":"ce4bgi92rcd13ifvqb90","pricing_plan_id":"cebpf4jnsgd1na2vs0mg"},{"bike_id":"e911329a-114e-4e9d-aef1-a695265109a2","system_id":"levelo_inurba_marseille","lat":43.32041,"lon":5.41563,"is_reserved":false,"is_disabled":false,"rental_uris":{"android":"levelo://app?vid=e911329a-114e-4e9d-aef1-a695265109a2","ios":"levelo://app?vid=e911329a-114e-4e9d-aef1-a695265109a2"},"vehicle_type_id":"4","last_reported":1746198614,"current_range_meters":14800,"station_id":"ce4bhq92rcd13ifvqhkg","pricing_plan_id":"cebpf4jnsgd1na2vs0mg"},{"bike_id":"a060c9bf-d61c-4909-b634-24d94038612c","system_id":"levelo_inurba_marseille","lat":43.32559,"lon":5.41427,"is_reserved":false,"is_disabled":false,"rental_uris":{"android":"levelo://app?vid=a060c9bf-d61c-4909-b634-24d94038612c","ios":"levelo://app?vid=a060c9bf-d61c-4909-b634-24d94038612c"},"vehicle_type_id":"4","last_reported":1746198614,"current_range_meters":14800,"station_id":"ce4bhq12rcd13ifvqhhg","pricing_plan_id":"cebpf4jnsgd1na2vs0mg"},{"bike_id":"978b4eaf-1010-4c75-ac0d-d8f82858878d","system_id":"levelo_inurba_marseille","lat":43.30889,"lon":5.39661,"is_reserved":false,"is_disabled":false,"rental_uris":{"android":"levelo://app?vid=978b4eaf-1010-4c75-ac0d-d8f82858878d","ios":"levelo://app?vid=978b4eaf-1010-4c75-ac0d-d8f82858878d"},"vehicle_type_id":"4","last_reported":1746198614,"current_range_meters":14800,"station_id":"ce4bh012rcd13ifvqcv0","pricing_plan_id":"cebpf4jnsgd1na2vs0mg"},{"bike_id":"2d974004-0c15-4660-807a-61acb689a4a4","system_id":"levelo_inurba_marseille","lat":43.2293,"lon":5.35375,"is_reserved":false,"is_disabled":false,"rental_uris":{"android":"levelo://app?vid=2d974004-0c15-4660-807a-61acb689a4a4","ios":"levelo://app?vid=2d974004-0c15-4660-807a-61acb689a4a4"},"vehicle_type_id":"4","last_reported":1746198614,"current_range_meters":14800,"station_id":"cpo3532slgdg3j2ikp40","pricing_plan_id":"cebpf4jnsgd1na2vs0mg"},{"bike_id":"e80c7471-9a68-4a4b-be5f-d3f96f16de9d","system_id":"levelo_inurba_marseille","lat":43.2501,"lon":5.38908,"is_reserved":false,"is_disabled":true,"rental_uris":{"android":"levelo://app?vid=e80c7471-9a68-4a4b-be5f-d3f96f16de9d","ios":"levelo://app?vid=e80c7471-9a68-4a4b-be5f-d3f96f16de9d"},"vehicle_type_id":"4","last_reported":1746198614,"current_range_meters":15200,"station_id":"ce4bhgp2rcd13ifvqfd0","pricing_plan_id":"cebpf4jnsgd1na2vs0mg"},{"bike_id":"a9d4e682-2775-4dcc-b345-daabedb8935d","system_id":"levelo_inurba_marseille","lat":43.22909,"lon":5.35419,"is_reserved":false,"is_disabled":false,"rental_uris":{"android":"levelo://app?vid=a9d4e682-2775-4dcc-b345-daabedb8935d","ios":"levelo://app?vid=a9d4e682-2775-4dcc-b345-daabedb8935d"},"vehicle_type_id":"4","last_reported":1746198614,"current_range_meters":15200,"station_id":"cpo3532slgdg3j2ikp40","pricing_plan_id":"cebpf4jnsgd1na2vs0mg"},{"bike_id":"0930fb72-7e59-4d61-b657-b546d04414d4","system_id":"levelo_inurba_marseille","lat":43.30378,"lon":5.42487,"is_reserved":false,"is_disabled":false,"rental_uris":{"android":"levelo://app?vid=0930fb72-7e59-4d61-b657-b546d04414d4","ios":"levelo://app?vid=0930fb72-7e59-4d61-b657-b546d04414d4"},"vehicle_type_id":"4","last_reported":1746198614,"current_range_meters":15200,"station_id":"ce4bhoh2rcd13ifvqh6g","pricing_plan_id":"cebpf4jnsgd1na2vs0mg"},{"bike_id":"03e6c130-a11e-471f-9de4-67d27206df53","system_id":"levelo_inurba_marseille","lat":43.267417,"lon":5.389535,"is_reserved":false,"is_disabled":false,"rental_uris":{"android":"levelo://app?vid=03e6c130-a11e-471f-9de4-67d27206df53","ios":"levelo://app?vid=03e6c130-a11e-471f-9de4-67d27206df53"},"vehicle_type_id":"4","last_reported":1746198614,"current_range_meters":15200,"station_id":"","pricing_plan_id":"cebpf4jnsgd1na2vs0mg"},{"bike_id":"a2910736-613d-4a2a-ae34-e0e5c45da0c9","system_id":"levelo_inurba_marseille","lat":43.2938,"lon":5.37857,"is_reserved":false,"is_disabled":false,"rental_uris":{"android":"levelo://app?vid=a2910736-613d-4a2a-ae34-e0e5c45da0c9","ios":"levelo://app?vid=a2910736-613d-4a2a-ae34-e0e5c45da0c9"},"vehicle_type_id":"4","last_reported":1746198614,"current_range_meters":16000,"station_id":"ce4bgjh2rcd13ifvqbf0","pricing_plan_id":"cebpf4jnsgd1na2vs0mg"},{"bike_id":"2cce8745-f47d-491d-9776-93cf9f036027","system_id":"levelo_inurba_marseille","lat":43.308084,"lon":5.435218,"is_reserved":false,"is_disabled":false,"rental_uris":{"android":"levelo://app?vid=2cce8745-f47d-491d-9776-93cf9f036027","ios":"levelo://app?vid=2cce8745-f47d-491d-9776-93cf9f036027"},"vehicle_type_id":"4","last_reported":1746198614,"current_range_meters":15200,"station_id":"ce4bhop2rcd13ifvqh8g","pricing_plan_id":"cebpf4jnsgd1na2vs0mg"},{"bike_id":"92c9c34a-2661-40c7-b42b-42a1687057dd","system_id":"levelo_inurba_marseille","lat":43.211967,"lon":5.350736,"is_reserved":false,"is_disabled":false,"rental_uris":{"android":"levelo://app?vid=92c9c34a-2661-40c7-b42b-42a1687057dd","ios":"levelo://app?vid=92c9c34a-2661-40c7-b42b-42a1687057dd"},"vehicle_type_id":"4","last_reported":1746198614,"current_range_meters":16000,"station_id":"st_cvj6sg6p6f1abm77japg","pricing_plan_id":"cebpf4jnsgd1na2vs0mg"},{"bike_id":"1b3dbc99-dff6-468e-84c0-3cbfcc559fdc","system_id":"levelo_inurba_marseille","lat":43.28941,"lon":5.3664,"is_reserved":false,"is_disabled":false,"rental_uris":{"android":"levelo://app?vid=1b3dbc99-dff6-468e-84c0-3cbfcc559fdc","ios":"levelo://app?vid=1b3dbc99-dff6-468e-84c0-3cbfcc559fdc"},"vehicle_type_id":"4","last_reported":1746198614,"current_range_meters":16000,"station_id":"ce4bhap2rcd13ifvqek0","pricing_plan_id":"cebpf4jnsgd1na2vs0mg"},{"bike_id":"0d78efc2-0e30-48cc-9700-faaed2f83d2e","system_id":"levelo_inurba_marseille","lat":43.32642,"lon":5.41008,"is_reserved":false,"is_disabled":false,"rental_uris":{"android":"levelo://app?vid=0d78efc2-0e30-48cc-9700-faaed2f83d2e","ios":"levelo://app?vid=0d78efc2-0e30-48cc-9700-faaed2f83d2e"},"vehicle_type_id":"4","last_reported":1746198614,"current_range_meters":16000,"station_id":"ce4bhpp2rcd13ifvqhgg","pricing_plan_id":"cebpf4jnsgd1na2vs0mg"},{"bike_id":"e5dec0cd-1652-44a8-a78f-beb3b3f03f4b","system_id":"levelo_inurba_marseille","lat":43.30332,"lon":5.40439,"is_reserved":false,"is_disabled":false,"rental_uris":{"android":"levelo://app?vid=e5dec0cd-1652-44a8-a78f-beb3b3f03f4b","ios":"levelo://app?vid=e5dec0cd-1652-44a8-a78f-beb3b3f03f4b"},"vehicle_type_id":"4","last_reported":1746198614,"current_range_meters":16000,"station_id":"ce4bh012rcd13ifvqd10","pricing_plan_id":"cebpf4jnsgd1na2vs0mg"},{"bike_id":"5f6a7264-432f-4a4a-b8bb-56589590f254","system_id":"levelo_inurba_marseille","lat":43.29556,"lon":5.42289,"is_reserved":false,"is_disabled":false,"rental_uris":{"android":"levelo://app?vid=5f6a7264-432f-4a4a-b8bb-56589590f254","ios":"levelo://app?vid=5f6a7264-432f-4a4a-b8bb-56589590f254"},"vehicle_type_id":"4","last_reported":1746198614,"current_range_meters":16000,"station_id":"ce4bhph2rcd13ifvqhdg","pricing_plan_id":"cebpf4jnsgd1na2vs0mg"},{"bike_id":"ca5fabd5-2041-49f7-8efa-5b1e1a132dfc","system_id":"levelo_inurba_marseille","lat":43.30965,"lon":5.372987,"is_reserved":false,"is_disabled":false,"rental_uris":{"android":"levelo://app?vid=ca5fabd5-2041-49f7-8efa-5b1e1a132dfc","ios":"levelo://app?vid=ca5fabd5-2041-49f7-8efa-5b1e1a132dfc"},"vehicle_type_id":"4","last_reported":1746198614,"current_range_meters":16000,"station_id":"","pricing_plan_id":"cebpf4jnsgd1na2vs0mg"},{"bike_id":"bdd52c9e-2c6c-44ec-b533-3273ddeda124","system_id":"levelo_inurba_marseille","lat":43.29275,"lon":5.38442,"is_reserved":false,"is_disabled":false,"rental_uris":{"android":"levelo://app?vid=bdd52c9e-2c6c-44ec-b533-3273ddeda124","ios":"levelo://app?vid=bdd52c9e-2c6c-44ec-b533-3273ddeda124"},"vehicle_type_id":"4","last_reported":1746198614,"current_range_meters":16000,"station_id":"ce4bh692rcd13ifvqea0","pricing_plan_id":"cebpf4jnsgd1na2vs0mg"},{"bike_id":"b38022c1-0897-4ebc-8624-aa775624b957","system_id":"levelo_inurba_marseille","lat":43.29647,"lon":5.40593,"is_reserved":false,"is_disabled":false,"rental_uris":{"android":"levelo://app?vid=b38022c1-0897-4ebc-8624-aa775624b957","ios":"levelo://app?vid=b38022c1-0897-4ebc-8624-aa775624b957"},"vehicle_type_id":"4","last_reported":1746198614,"current_range_meters":16800,"station_id":"ce4bh0h2rcd13ifvqd60","pricing_plan_id":"cebpf4jnsgd1na2vs0mg"},{"bike_id":"d04f0f3c-e5fd-45ac-a642-e88f35c2d786","system_id":"levelo_inurba_marseille","lat":43.30276,"lon":5.37713,"is_reserved":false,"is_disabled":false,"rental_uris":{"android":"levelo://app?vid=d04f0f3c-e5fd-45ac-a642-e88f35c2d786","ios":"levelo://app?vid=d04f0f3c-e5fd-45ac-a642-e88f35c2d786"},"vehicle_type_id":"4","last_reported":1746198614,"current_range_meters":16000,"station_id":"ce4bguh2rcd13ifvqcj0","pricing_plan_id":"cebpf4jnsgd1na2vs0mg"},{"bike_id":"606118d3-fbc3-46d2-9186-85db9f0d665b","system_id":"levelo_inurba_marseille","lat":43.230639,"lon":5.354929,"is_reserved":false,"is_disabled":false,"rental_uris":{"android":"levelo://app?vid=606118d3-fbc3-46d2-9186-85db9f0d665b","ios":"levelo://app?vid=606118d3-fbc3-46d2-9186-85db9f0d665b"},"vehicle_type_id":"4","last_reported":1746198614,"current_range_meters":16400,"station_id":"cpo3342slgdg3j2ifvpg","pricing_plan_id":"cebpf4jnsgd1na2vs0mg"},{"bike_id":"fb80c1da-d845-467b-9c3b-2f591f4d56ae","system_id":"levelo_inurba_marseille","lat":43.318112,"lon":5.373754,"is_reserved":false,"is_disabled":false,"rental_uris":{"android":"levelo://app?vid=fb80c1da-d845-467b-9c3b-2f591f4d56ae","ios":"levelo://app?vid=fb80c1da-d845-467b-9c3b-2f591f4d56ae"},"vehicle_type_id":"4","last_reported":1746198614,"current_range_meters":16400,"station_id":"","pricing_plan_id":"cebpf4jnsgd1na2vs0mg"},{"bike_id":"11ad8e86-7174-48f8-909a-68de4928c3c6","system_id":"levelo_inurba_marseille","lat":43.309747,"lon":5.392404,"is_reserved":false,"is_disabled":false,"rental_uris":{"android":"levelo://app?vid=11ad8e86-7174-48f8-909a-68de4928c3c6","ios":"levelo://app?vid=11ad8e86-7174-48f8-909a-68de4928c3c6"},"vehicle_type_id":"4","last_reported":1746198614,"current_range_meters":16400,"station_id":"ce4bh0h2rcd13ifvqd40","pricing_plan_id":"cebpf4jnsgd1na2vs0mg"},{"bike_id":"17bcfe73-c6e2-474b-ba3d-b902ac9e15a8","system_id":"levelo_inurba_marseille","lat":43.22936,"lon":5.35378,"is_reserved":false,"is_disabled":false,"rental_uris":{"android":"levelo://app?vid=17bcfe73-c6e2-474b-ba3d-b902ac9e15a8","ios":"levelo://app?vid=17bcfe73-c6e2-474b-ba3d-b902ac9e15a8"},"vehicle_type_id":"4","last_reported":1746198614,"current_range_meters":16400,"station_id":"cpo3532slgdg3j2ikp40","pricing_plan_id":"cebpf4jnsgd1na2vs0mg"},{"bike_id":"6d4b22a2-510a-4828-91d5-7f44c2c825a7","system_id":"levelo_inurba_marseille","lat":43.25864,"lon":5.39901,"is_reserved":false,"is_disabled":false,"rental_uris":{"android":"levelo://app?vid=6d4b22a2-510a-4828-91d5-7f44c2c825a7","ios":"levelo://app?vid=6d4b22a2-510a-4828-91d5-7f44c2c825a7"},"vehicle_type_id":"4","last_reported":1746198614,"current_range_meters":16400,"station_id":"ce4bhl92rcd13ifvqghg","pricing_plan_id":"cebpf4jnsgd1na2vs0mg"},{"bike_id":"a5b5e4db-2398-4ceb-8751-9c339cc09dea","system_id":"levelo_inurba_marseille","lat":43.32042,"lon":5.41565,"is_reserved":false,"is_disabled":false,"rental_uris":{"android":"levelo://app?vid=a5b5e4db-2398-4ceb-8751-9c339cc09dea","ios":"levelo://app?vid=a5b5e4db-2398-4ceb-8751-9c339cc09dea"},"vehicle_type_id":"4","last_reported":1746198614,"current_range_meters":16400,"station_id":"ce4bhq92rcd13ifvqhkg","pricing_plan_id":"cebpf4jnsgd1na2vs0mg"},{"bike_id":"0c3fbeaa-55ff-4c7c-a66c-46f4ecc86aeb","system_id":"levelo_inurba_marseille","lat":43.21195,"lon":5.35065,"is_reserved":false,"is_disabled":true,"rental_uris":{"android":"levelo://app?vid=0c3fbeaa-55ff-4c7c-a66c-46f4ecc86aeb","ios":"levelo://app?vid=0c3fbeaa-55ff-4c7c-a66c-46f4ecc86aeb"},"vehicle_type_id":"4","last_reported":1746198614,"current_range_meters":16400,"station_id":"st_cvj6sg6p6f1abm77japg","pricing_plan_id":"cebpf4jnsgd1na2vs0mg"},{"bike_id":"4b14db96-73b5-4a2e-912f-a069187a28e1","system_id":"levelo_inurba_marseille","lat":43.26062,"lon":5.39399,"is_reserved":false,"is_disabled":false,"rental_uris":{"android":"levelo://app?vid=4b14db96-73b5-4a2e-912f-a069187a28e1","ios":"levelo://app?vid=4b14db96-73b5-4a2e-912f-a069187a28e1"},"vehicle_type_id":"4","last_reported":1746198614,"current_range_meters":16800,"station_id":"ce4bhh92rcd13ifvqfj0","pricing_plan_id":"cebpf4jnsgd1na2vs0mg"},{"bike_id":"1a622d24-cc42-440f-a0dd-a38c0f1e6ea5","system_id":"levelo_inurba_marseille","lat":43.27576,"lon":5.38391,"is_reserved":false,"is_disabled":false,"rental_uris":{"android":"levelo://app?vid=1a622d24-cc42-440f-a0dd-a38c0f1e6ea5","ios":"levelo://app?vid=1a622d24-cc42-440f-a0dd-a38c0f1e6ea5"},"vehicle_type_id":"4","last_reported":1746198614,"current_range_meters":16800,"station_id":"ce4bhh92rcd13ifvqfi0","pricing_plan_id":"cebpf4jnsgd1na2vs0mg"},{"bike_id":"78feac2a-4a0d-44e9-abb8-535a02a47062","system_id":"levelo_inurba_marseille","lat":43.3176,"lon":5.39015,"is_reserved":false,"is_disabled":false,"rental_uris":{"android":"levelo://app?vid=78feac2a-4a0d-44e9-abb8-535a02a47062","ios":"levelo://app?vid=78feac2a-4a0d-44e9-abb8-535a02a47062"},"vehicle_type_id":"4","last_reported":1746198614,"current_range_meters":16800,"station_id":"ce4bhqp2rcd13ifvqhng","pricing_plan_id":"cebpf4jnsgd1na2vs0mg"},{"bike_id":"d02133e1-820c-4ffe-a450-5a8ed294c661","system_id":"levelo_inurba_marseille","lat":43.27915,"lon":5.39578,"is_reserved":false,"is_disabled":false,"rental_uris":{"android":"levelo://app?vid=d02133e1-820c-4ffe-a450-5a8ed294c661","ios":"levelo://app?vid=d02133e1-820c-4ffe-a450-5a8ed294c661"},"vehicle_type_id":"4","last_reported":1746198614,"current_range_meters":16800,"station_id":"ce4bhf92rcd13ifvqf40","pricing_plan_id":"cebpf4jnsgd1na2vs0mg"},{"bike_id":"acbb6641-2026-488f-9159-977ad264cf28","system_id":"levelo_inurba_marseille","lat":43.29425,"lon":5.38615,"is_reserved":false,"is_disabled":false,"rental_uris":{"android":"levelo://app?vid=acbb6641-2026-488f-9159-977ad264cf28","ios":"levelo://app?vid=acbb6641-2026-488f-9159-977ad264cf28"},"vehicle_type_id":"4","last_reported":1746198614,"current_range_meters":17200,"station_id":"ce4bh2h2rcd13ifvqdh0","pricing_plan_id":"cebpf4jnsgd1na2vs0mg"},{"bike_id":"97cead0e-5cba-46c7-8020-69787656d31e","system_id":"levelo_inurba_marseille","lat":43.27196,"lon":5.40991,"is_reserved":false,"is_disabled":false,"rental_uris":{"android":"levelo://app?vid=97cead0e-5cba-46c7-8020-69787656d31e","ios":"levelo://app?vid=97cead0e-5cba-46c7-8020-69787656d31e"},"vehicle_type_id":"4","last_reported":1746198614,"current_range_meters":17200,"station_id":"ce4bhl12rcd13ifvqgf0","pricing_plan_id":"cebpf4jnsgd1na2vs0mg"},{"bike_id":"5784c8bb-6fc3-444b-946f-7aafd9ea94d6","system_id":"levelo_inurba_marseille","lat":43.26707,"lon":5.394281,"is_reserved":false,"is_disabled":false,"rental_uris":{"android":"levelo://app?vid=5784c8bb-6fc3-444b-946f-7aafd9ea94d6","ios":"levelo://app?vid=5784c8bb-6fc3-444b-946f-7aafd9ea94d6"},"vehicle_type_id":"4","last_reported":1746198614,"current_range_meters":17200,"station_id":"ce4bhm12rcd13ifvqgkg","pricing_plan_id":"cebpf4jnsgd1na2vs0mg"},{"bike_id":"747e3500-dd20-46fe-bd95-1ae0bce846b3","system_id":"levelo_inurba_marseille","lat":43.3106,"lon":5.38198,"is_reserved":false,"is_disabled":false,"rental_uris":{"android":"levelo://app?vid=747e3500-dd20-46fe-bd95-1ae0bce846b3","ios":"levelo://app?vid=747e3500-dd20-46fe-bd95-1ae0bce846b3"},"vehicle_type_id":"4","last_reported":1746198614,"current_range_meters":17200,"station_id":"","pricing_plan_id":"cebpf4jnsgd1na2vs0mg"},{"bike_id":"e3a8c681-b357-4a82-b091-c229b4b8ea97","system_id":"levelo_inurba_marseille","lat":43.26202,"lon":5.37928,"is_reserved":false,"is_disabled":false,"rental_uris":{"android":"levelo://app?vid=e3a8c681-b357-4a82-b091-c229b4b8ea97","ios":"levelo://app?vid=e3a8c681-b357-4a82-b091-c229b4b8ea97"},"vehicle_type_id":"4","last_reported":1746198614,"current_range_meters":17200,"station_id":"ce4bhjp2rcd13ifvqg90","pricing_plan_id":"cebpf4jnsgd1na2vs0mg"},{"bike_id":"ff79280e-1855-4d0a-9416-0d33a2ce1c48","system_id":"levelo_inurba_marseille","lat":43.21192,"lon":5.35086,"is_reserved":false,"is_disabled":true,"rental_uris":{"android":"levelo://app?vid=ff79280e-1855-4d0a-9416-0d33a2ce1c48","ios":"levelo://app?vid=ff79280e-1855-4d0a-9416-0d33a2ce1c48"},"vehicle_type_id":"4","last_reported":1746198614,"current_range_meters":17600,"station_id":"","pricing_plan_id":"cebpf4jnsgd1na2vs0mg"},{"bike_id":"558c3cef-714b-42bd-b885-ad02475fe02c","system_id":"levelo_inurba_marseille","lat":43.296234,"lon":5.371627,"is_reserved":false,"is_disabled":false,"rental_uris":{"android":"levelo://app?vid=558c3cef-714b-42bd-b885-ad02475fe02c","ios":"levelo://app?vid=558c3cef-714b-42bd-b885-ad02475fe02c"},"vehicle_type_id":"4","last_reported":1746198614,"current_range_meters":17600,"station_id":"ce4bgnh2rcd13ifvqc0g","pricing_plan_id":"cebpf4jnsgd1na2vs0mg"},{"bike_id":"b7691a40-d599-45f1-9e0d-7d15b3ad0d8f","system_id":"levelo_inurba_marseille","lat":43.29188,"lon":5.35799,"is_reserved":false,"is_disabled":false,"rental_uris":{"android":"levelo://app?vid=b7691a40-d599-45f1-9e0d-7d15b3ad0d8f","ios":"levelo://app?vid=b7691a40-d599-45f1-9e0d-7d15b3ad0d8f"},"vehicle_type_id":"4","last_reported":1746198614,"current_range_meters":18000,"station_id":"ce4bhb12rcd13ifvqel0","pricing_plan_id":"cebpf4jnsgd1na2vs0mg"},{"bike_id":"582ddb3f-6a5e-45a0-8043-6c468e1e9dfe","system_id":"levelo_inurba_marseille","lat":43.30883,"lon":5.39643,"is_reserved":false,"is_disabled":false,"rental_uris":{"android":"levelo://app?vid=582ddb3f-6a5e-45a0-8043-6c468e1e9dfe","ios":"levelo://app?vid=582ddb3f-6a5e-45a0-8043-6c468e1e9dfe"},"vehicle_type_id":"4","last_reported":1746198614,"current_range_meters":18000,"station_id":"ce4bh012rcd13ifvqcv0","pricing_plan_id":"cebpf4jnsgd1na2vs0mg"},{"bike_id":"0c79d7b7-c060-4f25-8ae2-bd378d7ddb26","system_id":"levelo_inurba_marseille","lat":43.31089,"lon":5.38361,"is_reserved":false,"is_disabled":false,"rental_uris":{"android":"levelo://app?vid=0c79d7b7-c060-4f25-8ae2-bd378d7ddb26","ios":"levelo://app?vid=0c79d7b7-c060-4f25-8ae2-bd378d7ddb26"},"vehicle_type_id":"4","last_reported":1746198614,"current_range_meters":18000,"station_id":"ce4bgv92rcd13ifvqcr0","pricing_plan_id":"cebpf4jnsgd1na2vs0mg"},{"bike_id":"038c1216-f0b0-4adb-b8a3-41d425f2ad30","system_id":"levelo_inurba_marseille","lat":43.29414,"lon":5.38606,"is_reserved":false,"is_disabled":false,"rental_uris":{"android":"levelo://app?vid=038c1216-f0b0-4adb-b8a3-41d425f2ad30","ios":"levelo://app?vid=038c1216-f0b0-4adb-b8a3-41d425f2ad30"},"vehicle_type_id":"4","last_reported":1746198614,"current_range_meters":18000,"station_id":"ce4bh2h2rcd13ifvqdh0","pricing_plan_id":"cebpf4jnsgd1na2vs0mg"},{"bike_id":"13a4e454-2af0-449e-a625-057ca426f105","system_id":"levelo_inurba_marseille","lat":43.31079,"lon":5.38358,"is_reserved":false,"is_disabled":false,"rental_uris":{"android":"levelo://app?vid=13a4e454-2af0-449e-a625-057ca426f105","ios":"levelo://app?vid=13a4e454-2af0-449e-a625-057ca426f105"},"vehicle_type_id":"4","last_reported":1746198614,"current_range_meters":18000,"station_id":"ce4bgv92rcd13ifvqcr0","pricing_plan_id":"cebpf4jnsgd1na2vs0mg"},{"bike_id":"8358e3d0-6639-4ac2-ba04-8477e18cc50d","system_id":"levelo_inurba_marseille","lat":43.33222,"lon":5.38568,"is_reserved":false,"is_disabled":false,"rental_uris":{"android":"levelo://app?vid=8358e3d0-6639-4ac2-ba04-8477e18cc50d","ios":"levelo://app?vid=8358e3d0-6639-4ac2-ba04-8477e18cc50d"},"vehicle_type_id":"4","last_reported":1746198614,"current_range_meters":18000,"station_id":"","pricing_plan_id":"cebpf4jnsgd1na2vs0mg"},{"bike_id":"d60e6c02-ffba-4dbb-a8f1-b9cc149807d4","system_id":"levelo_inurba_marseille","lat":43.33788,"lon":5.37429,"is_reserved":false,"is_disabled":false,"rental_uris":{"android":"levelo://app?vid=d60e6c02-ffba-4dbb-a8f1-b9cc149807d4","ios":"levelo://app?vid=d60e6c02-ffba-4dbb-a8f1-b9cc149807d4"},"vehicle_type_id":"4","last_reported":1746198614,"current_range_meters":19200,"station_id":"","pricing_plan_id":"cebpf4jnsgd1na2vs0mg"},{"bike_id":"6f939ee3-c4aa-4d59-b9ab-72ec3c6e0f4e","system_id":"levelo_inurba_marseille","lat":43.23194,"lon":5.35552,"is_reserved":false,"is_disabled":false,"rental_uris":{"android":"levelo://app?vid=6f939ee3-c4aa-4d59-b9ab-72ec3c6e0f4e","ios":"levelo://app?vid=6f939ee3-c4aa-4d59-b9ab-72ec3c6e0f4e"},"vehicle_type_id":"4","last_reported":1746198614,"current_range_meters":18800,"station_id":"ce4bhu92rcd13ifvqi70","pricing_plan_id":"cebpf4jnsgd1na2vs0mg"},{"bike_id":"b52b958e-e0a8-472d-8e54-9df0689db707","system_id":"levelo_inurba_marseille","lat":43.29526,"lon":5.39409,"is_reserved":false,"is_disabled":false,"rental_uris":{"android":"levelo://app?vid=b52b958e-e0a8-472d-8e54-9df0689db707","ios":"levelo://app?vid=b52b958e-e0a8-472d-8e54-9df0689db707"},"vehicle_type_id":"4","last_reported":1746198614,"current_range_meters":19200,"station_id":"ce4bh292rcd13ifvqdf0","pricing_plan_id":"cebpf4jnsgd1na2vs0mg"},{"bike_id":"9f0b284b-0fb4-4b95-b996-b31691483ba6","system_id":"levelo_inurba_marseille","lat":43.29644,"lon":5.40588,"is_reserved":false,"is_disabled":false,"rental_uris":{"android":"levelo://app?vid=9f0b284b-0fb4-4b95-b996-b31691483ba6","ios":"levelo://app?vid=9f0b284b-0fb4-4b95-b996-b31691483ba6"},"vehicle_type_id":"4","last_reported":1746198614,"current_range_meters":18800,"station_id":"ce4bh0h2rcd13ifvqd60","pricing_plan_id":"cebpf4jnsgd1na2vs0mg"},{"bike_id":"72accc23-dced-424c-b834-2ab972b49116","system_id":"levelo_inurba_marseille","lat":43.211895,"lon":5.350762,"is_reserved":false,"is_disabled":false,"rental_uris":{"android":"levelo://app?vid=72accc23-dced-424c-b834-2ab972b49116","ios":"levelo://app?vid=72accc23-dced-424c-b834-2ab972b49116"},"vehicle_type_id":"4","last_reported":1746198614,"current_range_meters":19200,"station_id":"st_cvj6sg6p6f1abm77japg","pricing_plan_id":"cebpf4jnsgd1na2vs0mg"},{"bike_id":"50352718-2949-4baa-84b0-5a229d227da1","system_id":"levelo_inurba_marseille","lat":43.30891,"lon":5.39644,"is_reserved":false,"is_disabled":false,"rental_uris":{"android":"levelo://app?vid=50352718-2949-4baa-84b0-5a229d227da1","ios":"levelo://app?vid=50352718-2949-4baa-84b0-5a229d227da1"},"vehicle_type_id":"4","last_reported":1746198614,"current_range_meters":19200,"station_id":"ce4bh012rcd13ifvqcv0","pricing_plan_id":"cebpf4jnsgd1na2vs0mg"},{"bike_id":"71d320d1-61bf-49b9-9c83-2422045fa3a5","system_id":"levelo_inurba_marseille","lat":43.26198,"lon":5.37922,"is_reserved":false,"is_disabled":false,"rental_uris":{"android":"levelo://app?vid=71d320d1-61bf-49b9-9c83-2422045fa3a5","ios":"levelo://app?vid=71d320d1-61bf-49b9-9c83-2422045fa3a5"},"vehicle_type_id":"4","last_reported":1746198614,"current_range_meters":19200,"station_id":"ce4bhjp2rcd13ifvqg90","pricing_plan_id":"cebpf4jnsgd1na2vs0mg"},{"bike_id":"bd631a88-69d3-4787-bbb7-d211a43a1b33","system_id":"levelo_inurba_marseille","lat":43.29204,"lon":5.39315,"is_reserved":false,"is_disabled":false,"rental_uris":{"android":"levelo://app?vid=bd631a88-69d3-4787-bbb7-d211a43a1b33","ios":"levelo://app?vid=bd631a88-69d3-4787-bbb7-d211a43a1b33"},"vehicle_type_id":"4","last_reported":1746198614,"current_range_meters":19200,"station_id":"ce4bh192rcd13ifvqdd0","pricing_plan_id":"cebpf4jnsgd1na2vs0mg"},{"bike_id":"a973710b-14ea-4058-afa6-daacaec9de64","system_id":"levelo_inurba_marseille","lat":43.28481,"lon":5.3842,"is_reserved":false,"is_disabled":false,"rental_uris":{"android":"levelo://app?vid=a973710b-14ea-4058-afa6-daacaec9de64","ios":"levelo://app?vid=a973710b-14ea-4058-afa6-daacaec9de64"},"vehicle_type_id":"4","last_reported":1746198614,"current_range_meters":19200,"station_id":"ce4bh512rcd13ifvqe3g","pricing_plan_id":"cebpf4jnsgd1na2vs0mg"},{"bike_id":"62c2076b-7d64-467b-8df2-5e817741f650","system_id":"levelo_inurba_marseille","lat":43.22939,"lon":5.3537,"is_reserved":false,"is_disabled":false,"rental_uris":{"android":"levelo://app?vid=62c2076b-7d64-467b-8df2-5e817741f650","ios":"levelo://app?vid=62c2076b-7d64-467b-8df2-5e817741f650"},"vehicle_type_id":"4","last_reported":1746198614,"current_range_meters":19200,"station_id":"cpo3532slgdg3j2ikp40","pricing_plan_id":"cebpf4jnsgd1na2vs0mg"},{"bike_id":"bc02c704-1f3a-4970-82a0-40d53ec58a95","system_id":"levelo_inurba_marseille","lat":43.22931,"lon":5.3538,"is_reserved":false,"is_disabled":false,"rental_uris":{"android":"levelo://app?vid=bc02c704-1f3a-4970-82a0-40d53ec58a95","ios":"levelo://app?vid=bc02c704-1f3a-4970-82a0-40d53ec58a95"},"vehicle_type_id":"4","last_reported":1746198614,"current_range_meters":19600,"station_id":"cpo3532slgdg3j2ikp40","pricing_plan_id":"cebpf4jnsgd1na2vs0mg"},{"bike_id":"e0ceefc0-61c9-406f-91eb-ef69db9dbe42","system_id":"levelo_inurba_marseille","lat":43.26121,"lon":5.41469,"is_reserved":false,"is_disabled":false,"rental_uris":{"android":"levelo://app?vid=e0ceefc0-61c9-406f-91eb-ef69db9dbe42","ios":"levelo://app?vid=e0ceefc0-61c9-406f-91eb-ef69db9dbe42"},"vehicle_type_id":"4","last_reported":1746198614,"current_range_meters":19600,"station_id":"","pricing_plan_id":"cebpf4jnsgd1na2vs0mg"},{"bike_id":"f09ea1b0-8f0f-4f2b-9506-20e3704684bd","system_id":"levelo_inurba_marseille","lat":43.31707,"lon":5.37756,"is_reserved":false,"is_disabled":false,"rental_uris":{"android":"levelo://app?vid=f09ea1b0-8f0f-4f2b-9506-20e3704684bd","ios":"levelo://app?vid=f09ea1b0-8f0f-4f2b-9506-20e3704684bd"},"vehicle_type_id":"4","last_reported":1746198614,"current_range_meters":19600,"station_id":"ce4bgth2rcd13ifvqch0","pricing_plan_id":"cebpf4jnsgd1na2vs0mg"},{"bike_id":"114c0b95-f8cc-4523-87d3-0f31ab85fdc5","system_id":"levelo_inurba_marseille","lat":43.29576,"lon":5.37519,"is_reserved":false,"is_disabled":false,"rental_uris":{"android":"levelo://app?vid=114c0b95-f8cc-4523-87d3-0f31ab85fdc5","ios":"levelo://app?vid=114c0b95-f8cc-4523-87d3-0f31ab85fdc5"},"vehicle_type_id":"4","last_reported":1746198614,"current_range_meters":19600,"station_id":"ce4bgkp2rcd13ifvqbmg","pricing_plan_id":"cebpf4jnsgd1na2vs0mg"},{"bike_id":"2bb6a742-8392-44ba-a660-cb62073d888e","system_id":"levelo_inurba_marseille","lat":43.32102,"lon":5.36773,"is_reserved":false,"is_disabled":false,"rental_uris":{"android":"levelo://app?vid=2bb6a742-8392-44ba-a660-cb62073d888e","ios":"levelo://app?vid=2bb6a742-8392-44ba-a660-cb62073d888e"},"vehicle_type_id":"4","last_reported":1746198614,"current_range_meters":19600,"station_id":"ce4bhrh2rcd13ifvqhug","pricing_plan_id":"cebpf4jnsgd1na2vs0mg"},{"bike_id":"3df737d0-9ef6-4c3c-9c48-92d16bd35530","system_id":"levelo_inurba_marseille","lat":43.296173,"lon":5.371511,"is_reserved":false,"is_disabled":false,"rental_uris":{"android":"levelo://app?vid=3df737d0-9ef6-4c3c-9c48-92d16bd35530","ios":"levelo://app?vid=3df737d0-9ef6-4c3c-9c48-92d16bd35530"},"vehicle_type_id":"4","last_reported":1746198614,"current_range_meters":19600,"station_id":"ce4bgnh2rcd13ifvqc0g","pricing_plan_id":"cebpf4jnsgd1na2vs0mg"},{"bike_id":"75320924-7953-4c12-a9c5-5c10a46daf75","system_id":"levelo_inurba_marseille","lat":43.32048,"lon":5.41549,"is_reserved":false,"is_disabled":false,"rental_uris":{"android":"levelo://app?vid=75320924-7953-4c12-a9c5-5c10a46daf75","ios":"levelo://app?vid=75320924-7953-4c12-a9c5-5c10a46daf75"},"vehicle_type_id":"4","last_reported":1746198614,"current_range_meters":19600,"station_id":"ce4bhq92rcd13ifvqhkg","pricing_plan_id":"cebpf4jnsgd1na2vs0mg"},{"bike_id":"4580c228-2549-4806-bdc6-46c5a60c9ab6","system_id":"levelo_inurba_marseille","lat":43.280181,"lon":5.399165,"is_reserved":false,"is_disabled":false,"rental_uris":{"android":"levelo://app?vid=4580c228-2549-4806-bdc6-46c5a60c9ab6","ios":"levelo://app?vid=4580c228-2549-4806-bdc6-46c5a60c9ab6"},"vehicle_type_id":"4","last_reported":1746198614,"current_range_meters":19600,"station_id":"ce4bho92rcd13ifvqh4g","pricing_plan_id":"cebpf4jnsgd1na2vs0mg"},{"bike_id":"baf4561c-9bda-477a-8871-110377773ec1","system_id":"levelo_inurba_marseille","lat":43.295583,"lon":5.42287,"is_reserved":false,"is_disabled":false,"rental_uris":{"android":"levelo://app?vid=baf4561c-9bda-477a-8871-110377773ec1","ios":"levelo://app?vid=baf4561c-9bda-477a-8871-110377773ec1"},"vehicle_type_id":"4","last_reported":1746198614,"current_range_meters":20000,"station_id":"ce4bhph2rcd13ifvqhdg","pricing_plan_id":"cebpf4jnsgd1na2vs0mg"},{"bike_id":"f9e6ac8a-d3aa-4f57-bdb5-3ce66ce2a3d9","system_id":"levelo_inurba_marseille","lat":43.29426,"lon":5.38616,"is_reserved":false,"is_disabled":false,"rental_uris":{"android":"levelo://app?vid=f9e6ac8a-d3aa-4f57-bdb5-3ce66ce2a3d9","ios":"levelo://app?vid=f9e6ac8a-d3aa-4f57-bdb5-3ce66ce2a3d9"},"vehicle_type_id":"4","last_reported":1746198614,"current_range_meters":20000,"station_id":"ce4bh2h2rcd13ifvqdh0","pricing_plan_id":"cebpf4jnsgd1na2vs0mg"},{"bike_id":"1416c442-daeb-432b-8f20-a6c5f3529b07","system_id":"levelo_inurba_marseille","lat":43.28726,"lon":5.36083,"is_reserved":false,"is_disabled":false,"rental_uris":{"android":"levelo://app?vid=1416c442-daeb-432b-8f20-a6c5f3529b07","ios":"levelo://app?vid=1416c442-daeb-432b-8f20-a6c5f3529b07"},"vehicle_type_id":"4","last_reported":1746198614,"current_range_meters":20000,"station_id":"cki0cbj6b192h4jlfktg","pricing_plan_id":"cebpf4jnsgd1na2vs0mg"},{"bike_id":"78168ad9-5ad1-4f36-8e19-8ecf0bc03411","system_id":"levelo_inurba_marseille","lat":43.2307,"lon":5.35488,"is_reserved":false,"is_disabled":false,"rental_uris":{"android":"levelo://app?vid=78168ad9-5ad1-4f36-8e19-8ecf0bc03411","ios":"levelo://app?vid=78168ad9-5ad1-4f36-8e19-8ecf0bc03411"},"vehicle_type_id":"4","last_reported":1746198614,"current_range_meters":19600,"station_id":"cpo3342slgdg3j2ifvpg","pricing_plan_id":"cebpf4jnsgd1na2vs0mg"},{"bike_id":"499665bf-0782-4f80-96b5-504a5648c79d","system_id":"levelo_inurba_marseille","lat":43.29844,"lon":5.36267,"is_reserved":false,"is_disabled":false,"rental_uris":{"android":"levelo://app?vid=499665bf-0782-4f80-96b5-504a5648c79d","ios":"levelo://app?vid=499665bf-0782-4f80-96b5-504a5648c79d"},"vehicle_type_id":"4","last_reported":1746198614,"current_range_meters":20000,"station_id":"ce4bgpp2rcd13ifvqc3g","pricing_plan_id":"cebpf4jnsgd1na2vs0mg"},{"bike_id":"2e11cd0d-e0f6-4167-8546-defcc475fcdd","system_id":"levelo_inurba_marseille","lat":43.22932,"lon":5.35369,"is_reserved":false,"is_disabled":false,"rental_uris":{"android":"levelo://app?vid=2e11cd0d-e0f6-4167-8546-defcc475fcdd","ios":"levelo://app?vid=2e11cd0d-e0f6-4167-8546-defcc475fcdd"},"vehicle_type_id":"4","last_reported":1746198614,"current_range_meters":20000,"station_id":"cpo3532slgdg3j2ikp40","pricing_plan_id":"cebpf4jnsgd1na2vs0mg"},{"bike_id":"c408e1f0-551c-49cd-b7b4-c98078d8f6d6","system_id":"levelo_inurba_marseille","lat":43.30215,"lon":5.39468,"is_reserved":false,"is_disabled":false,"rental_uris":{"android":"levelo://app?vid=c408e1f0-551c-49cd-b7b4-c98078d8f6d6","ios":"levelo://app?vid=c408e1f0-551c-49cd-b7b4-c98078d8f6d6"},"vehicle_type_id":"4","last_reported":1746198614,"current_range_meters":20000,"station_id":"ce4bh0p2rcd13ifvqd70","pricing_plan_id":"cebpf4jnsgd1na2vs0mg"},{"bike_id":"ba427f58-3c59-4e1a-94b0-80cf5e2f1a7b","system_id":"levelo_inurba_marseille","lat":43.27286,"lon":5.3913,"is_reserved":false,"is_disabled":false,"rental_uris":{"android":"levelo://app?vid=ba427f58-3c59-4e1a-94b0-80cf5e2f1a7b","ios":"levelo://app?vid=ba427f58-3c59-4e1a-94b0-80cf5e2f1a7b"},"vehicle_type_id":"4","last_reported":1746198614,"current_range_meters":20400,"station_id":"","pricing_plan_id":"cebpf4jnsgd1na2vs0mg"},{"bike_id":"b13d0c35-2c48-46dc-bf00-5072e8bd5a00","system_id":"levelo_inurba_marseille","lat":43.29315,"lon":5.37146,"is_reserved":false,"is_disabled":false,"rental_uris":{"android":"levelo://app?vid=b13d0c35-2c48-46dc-bf00-5072e8bd5a00","ios":"levelo://app?vid=b13d0c35-2c48-46dc-bf00-5072e8bd5a00"},"vehicle_type_id":"4","last_reported":1746198614,"current_range_meters":20400,"station_id":"ce4bgh92rcd13ifvqb40","pricing_plan_id":"cebpf4jnsgd1na2vs0mg"},{"bike_id":"deba5e08-3be6-435a-ba69-fb55964fedc0","system_id":"levelo_inurba_marseille","lat":43.29873,"lon":5.39726,"is_reserved":false,"is_disabled":false,"rental_uris":{"android":"levelo://app?vid=deba5e08-3be6-435a-ba69-fb55964fedc0","ios":"levelo://app?vid=deba5e08-3be6-435a-ba69-fb55964fedc0"},"vehicle_type_id":"4","last_reported":1746198614,"current_range_meters":20400,"station_id":"","pricing_plan_id":"cebpf4jnsgd1na2vs0mg"},{"bike_id":"50a4a43d-df2a-41e1-955b-499d1f49c2b2","system_id":"levelo_inurba_marseille","lat":43.24399,"lon":5.37062,"is_reserved":false,"is_disabled":true,"rental_uris":{"android":"levelo://app?vid=50a4a43d-df2a-41e1-955b-499d1f49c2b2","ios":"levelo://app?vid=50a4a43d-df2a-41e1-955b-499d1f49c2b2"},"vehicle_type_id":"4","last_reported":1746198614,"current_range_meters":20400,"station_id":"ce4bhhh2rcd13ifvqfk0","pricing_plan_id":"cebpf4jnsgd1na2vs0mg"},{"bike_id":"c36daef4-ff75-4f20-acf9-38128a9f4421","system_id":"levelo_inurba_marseille","lat":43.25092,"lon":5.39528,"is_reserved":false,"is_disabled":false,"rental_uris":{"android":"levelo://app?vid=c36daef4-ff75-4f20-acf9-38128a9f4421","ios":"levelo://app?vid=c36daef4-ff75-4f20-acf9-38128a9f4421"},"vehicle_type_id":"4","last_reported":1746198614,"current_range_meters":20400,"station_id":"ce4bhm12rcd13ifvqgkg","pricing_plan_id":"cebpf4jnsgd1na2vs0mg"},{"bike_id":"8375e64a-9697-43e3-b1bf-46a1ed51095d","system_id":"levelo_inurba_marseille","lat":43.305475,"lon":5.367325,"is_reserved":false,"is_disabled":false,"rental_uris":{"android":"levelo://app?vid=8375e64a-9697-43e3-b1bf-46a1ed51095d","ios":"levelo://app?vid=8375e64a-9697-43e3-b1bf-46a1ed51095d"},"vehicle_type_id":"4","last_reported":1746198614,"current_range_meters":20400,"station_id":"ce4bgrp2rcd13ifvqc9g","pricing_plan_id":"cebpf4jnsgd1na2vs0mg"},{"bike_id":"40e95ee4-9004-4bf0-8396-330ebd45f9f7","system_id":"levelo_inurba_marseille","lat":43.22936,"lon":5.35365,"is_reserved":false,"is_disabled":false,"rental_uris":{"android":"levelo://app?vid=40e95ee4-9004-4bf0-8396-330ebd45f9f7","ios":"levelo://app?vid=40e95ee4-9004-4bf0-8396-330ebd45f9f7"},"vehicle_type_id":"4","last_reported":1746198614,"current_range_meters":20800,"station_id":"cpo3532slgdg3j2ikp40","pricing_plan_id":"cebpf4jnsgd1na2vs0mg"},{"bike_id":"ce3ce2e7-adfc-44ca-af4a-7c0f1566aed2","system_id":"levelo_inurba_marseille","lat":43.225,"lon":5.34778,"is_reserved":false,"is_disabled":false,"rental_uris":{"android":"levelo://app?vid=ce3ce2e7-adfc-44ca-af4a-7c0f1566aed2","ios":"levelo://app?vid=ce3ce2e7-adfc-44ca-af4a-7c0f1566aed2"},"vehicle_type_id":"4","last_reported":1746198614,"current_range_meters":20800,"station_id":"st_cvj5dfep6f1abm77gieg","pricing_plan_id":"cebpf4jnsgd1na2vs0mg"},{"bike_id":"7570183b-4fd3-4788-bac8-40540f6673b2","system_id":"levelo_inurba_marseille","lat":43.32368,"lon":5.38887,"is_reserved":false,"is_disabled":false,"rental_uris":{"android":"levelo://app?vid=7570183b-4fd3-4788-bac8-40540f6673b2","ios":"levelo://app?vid=7570183b-4fd3-4788-bac8-40540f6673b2"},"vehicle_type_id":"4","last_reported":1746198614,"current_range_meters":20800,"station_id":"ce4bhqp2rcd13ifvqhog","pricing_plan_id":"cebpf4jnsgd1na2vs0mg"},{"bike_id":"f3255640-8e9a-4b25-b6fc-9d2aa00d9d35","system_id":"levelo_inurba_marseille","lat":43.32052,"lon":5.41557,"is_reserved":false,"is_disabled":false,"rental_uris":{"android":"levelo://app?vid=f3255640-8e9a-4b25-b6fc-9d2aa00d9d35","ios":"levelo://app?vid=f3255640-8e9a-4b25-b6fc-9d2aa00d9d35"},"vehicle_type_id":"4","last_reported":1746198614,"current_range_meters":21600,"station_id":"ce4bhq92rcd13ifvqhkg","pricing_plan_id":"cebpf4jnsgd1na2vs0mg"},{"bike_id":"7a24b5f4-798c-4aab-9667-54660805467b","system_id":"levelo_inurba_marseille","lat":43.312622,"lon":5.401772,"is_reserved":false,"is_disabled":false,"rental_uris":{"android":"levelo://app?vid=7a24b5f4-798c-4aab-9667-54660805467b","ios":"levelo://app?vid=7a24b5f4-798c-4aab-9667-54660805467b"},"vehicle_type_id":"4","last_reported":1746198614,"current_range_meters":20800,"station_id":"ce4bh092rcd13ifvqd30","pricing_plan_id":"cebpf4jnsgd1na2vs0mg"},{"bike_id":"0eb820ff-f142-4fce-8c5e-58eec925649a","system_id":"levelo_inurba_marseille","lat":43.30735,"lon":5.42445,"is_reserved":false,"is_disabled":false,"rental_uris":{"android":"levelo://app?vid=0eb820ff-f142-4fce-8c5e-58eec925649a","ios":"levelo://app?vid=0eb820ff-f142-4fce-8c5e-58eec925649a"},"vehicle_type_id":"4","last_reported":1746198614,"current_range_meters":22000,"station_id":"st_cvj6ca6bvosntc0bfgr0","pricing_plan_id":"cebpf4jnsgd1na2vs0mg"},{"bike_id":"2de499ad-8ac7-4067-ab29-1c39cb8e436d","system_id":"levelo_inurba_marseille","lat":43.30214,"lon":5.39474,"is_reserved":false,"is_disabled":false,"rental_uris":{"android":"levelo://app?vid=2de499ad-8ac7-4067-ab29-1c39cb8e436d","ios":"levelo://app?vid=2de499ad-8ac7-4067-ab29-1c39cb8e436d"},"vehicle_type_id":"4","last_reported":1746198614,"current_range_meters":22400,"station_id":"ce4bh0p2rcd13ifvqd70","pricing_plan_id":"cebpf4jnsgd1na2vs0mg"},{"bike_id":"857c8bd0-692a-4300-8374-c34faabbd776","system_id":"levelo_inurba_marseille","lat":43.28006,"lon":5.400165,"is_reserved":false,"is_disabled":false,"rental_uris":{"android":"levelo://app?vid=857c8bd0-692a-4300-8374-c34faabbd776","ios":"levelo://app?vid=857c8bd0-692a-4300-8374-c34faabbd776"},"vehicle_type_id":"4","last_reported":1746198614,"current_range_meters":22400,"station_id":"ce4bho92rcd13ifvqh4g","pricing_plan_id":"cebpf4jnsgd1na2vs0mg"},{"bike_id":"22f6027a-9498-4754-9248-469ca87bbbdd","system_id":"levelo_inurba_marseille","lat":43.29269,"lon":5.38433,"is_reserved":false,"is_disabled":false,"rental_uris":{"android":"levelo://app?vid=22f6027a-9498-4754-9248-469ca87bbbdd","ios":"levelo://app?vid=22f6027a-9498-4754-9248-469ca87bbbdd"},"vehicle_type_id":"4","last_reported":1746198614,"current_range_meters":22400,"station_id":"ce4bh692rcd13ifvqea0","pricing_plan_id":"cebpf4jnsgd1na2vs0mg"},{"bike_id":"b1216edf-87f3-4881-b5ba-12b384c63db8","system_id":"levelo_inurba_marseille","lat":43.288598,"lon":5.358468,"is_reserved":false,"is_disabled":false,"rental_uris":{"android":"levelo://app?vid=b1216edf-87f3-4881-b5ba-12b384c63db8","ios":"levelo://app?vid=b1216edf-87f3-4881-b5ba-12b384c63db8"},"vehicle_type_id":"4","last_reported":1746198614,"current_range_meters":22400,"station_id":"ce4bhb12rcd13ifvqem0","pricing_plan_id":"cebpf4jnsgd1na2vs0mg"},{"bike_id":"945430c8-5f62-4d67-93e4-f93a8e5052d9","system_id":"levelo_inurba_marseille","lat":43.30802,"lon":5.43537,"is_reserved":false,"is_disabled":false,"rental_uris":{"android":"levelo://app?vid=945430c8-5f62-4d67-93e4-f93a8e5052d9","ios":"levelo://app?vid=945430c8-5f62-4d67-93e4-f93a8e5052d9"},"vehicle_type_id":"4","last_reported":1746198614,"current_range_meters":22400,"station_id":"ce4bhph2rcd13ifvqheg","pricing_plan_id":"cebpf4jnsgd1na2vs0mg"},{"bike_id":"3d4e3b12-f70e-4c48-9094-fe8dfa78a599","system_id":"levelo_inurba_marseille","lat":43.26944,"lon":5.40259,"is_reserved":false,"is_disabled":false,"rental_uris":{"android":"levelo://app?vid=3d4e3b12-f70e-4c48-9094-fe8dfa78a599","ios":"levelo://app?vid=3d4e3b12-f70e-4c48-9094-fe8dfa78a599"},"vehicle_type_id":"4","last_reported":1746198614,"current_range_meters":22800,"station_id":"cjm6bp8fraef2m0cb0m0","pricing_plan_id":"cebpf4jnsgd1na2vs0mg"},{"bike_id":"cfdc25bc-6ada-4120-a9b4-7c73c9a094aa","system_id":"levelo_inurba_marseille","lat":43.29418,"lon":5.3863,"is_reserved":false,"is_disabled":false,"rental_uris":{"android":"levelo://app?vid=cfdc25bc-6ada-4120-a9b4-7c73c9a094aa","ios":"levelo://app?vid=cfdc25bc-6ada-4120-a9b4-7c73c9a094aa"},