{"last_updated":1737212851,"ttl":60,"version":"2.2","data":{"bikes":[{"bike_id":"6079b780-f3b4-463d-a4c5-83165224f3d9","system_id":"levelo_inurba_marseille","lat":43.32003,"lon":5.38144,"is_reserved":false,"is_disabled":false,"rental_uris":{"android":"levelo://app?vid=6079b780-f3b4-463d-a4c5-83165224f3d9","ios":"levelo://app?vid=6079b780-f3b4-463d-a4c5-83165224f3d9"},"vehicle_type_id":"4","last_reported":1737212851,"current_range_meters":27600,"station_id":"ce4bhr12rcd13ifvqhpg","pricing_plan_id":"cebpf4jnsgd1na2vs0mg"},{"bike_id":"bcd17eda-bc26-4fdf-91de-faf9f4f42c9e","system_id":"levelo_inurba_marseille","lat":43.30426,"lon":5.39754,"is_reserved":false,"is_disabled":false,"rental_uris":{"android":"levelo://app?vid=bcd17eda-bc26-4fdf-91de-faf9f4f42c9e","ios":"levelo://app?vid=bcd17eda-bc26-4fdf-91de-faf9f4f42c9e"},"vehicle_type_id":"4","last_reported":1737212851,"current_range_meters":36800,"station_id":"ce4bh092rcd13ifvqd20","pricing_plan_id":"cebpf4jnsgd1na2vs0mg"},{"bike_id":"417d6d7b-b7a0-4f19-ad35-90ede6e9d613","system_id":"levelo_inurba_marseille","lat":43.30184,"lon":5.36622,"is_reserved":false,"is_disabled":false,"rental_uris":{"android":"levelo://app?vid=417d6d7b-b7a0-4f19-ad35-90ede6e9d613","ios":"levelo://app?vid=417d6d7b-b7a0-4f19-ad35-90ede6e9d613"},"vehicle_type_id":"4","last_reported":1737212851,"current_range_meters":18800,"station_id":"ce4bgrh2rcd13ifvqc8g","pricing_plan_id":"cebpf4jnsgd1na2vs0mg"},{"bike_id":"34697f02-99cc-4a57-b2b4-e7a06b732035","system_id":"levelo_inurba_marseille","lat":43.30139,"lon":5.37412,"is_reserved":false,"is_disabled":false,"rental_uris":{"android":"levelo://app?vid=34697f02-99cc-4a57-b2b4-e7a06b732035","ios":"levelo://app?vid=34697f02-99cc-4a57-b2b4-e7a06b732035"},"vehicle_type_id":"4","last_reported":1737212851,"current_range_meters":36000,"station_id":"ce4bgs92rcd13ifvqcc0","pricing_plan_id":"cebpf4jnsgd1na2vs0mg"},{"bike_id":"536bace8-8432-4648-94ee-a58bde0f56d4","system_id":"levelo_inurba_marseille","lat":43.29027,"lon":5.37568,"is_reserved":false,"is_disabled":false,"rental_uris":{"android":"levelo://app?vid=536bace8-8432-4648-94ee-a58bde0f56d4","ios":"levelo://app?vid=536bace8-8432-4648-94ee-a58bde0f56d4"},"vehicle_type_id":"4","last_reported":1737212851,"current_range_meters":38400,"station_id":"ce4bh692rcd13ifvqe90","pricing_plan_id":"cebpf4jnsgd1na2vs0mg"},{"bike_id":"923d5db8-8160-472d-8927-421f7fd927dd","system_id":"levelo_inurba_marseille","lat":43.24069,"lon":5.37753,"is_reserved":false,"is_disabled":false,"rental_uris":{"android":"levelo://app?vid=923d5db8-8160-472d-8927-421f7fd927dd","ios":"levelo://app?vid=923d5db8-8160-472d-8927-421f7fd927dd"},"vehicle_type_id":"4","last_reported":1737212851,"current_range_meters":7200,"station_id":"ce4bhnp2rcd13ifvqgvg","pricing_plan_id":"cebpf4jnsgd1na2vs0mg"},{"bike_id":"02ce3e8e-6ef8-48e8-8e39-50ed964e3fb8","system_id":"levelo_inurba_marseille","lat":43.29407,"lon":5.39412,"is_reserved":false,"is_disabled":true,"rental_uris":{"android":"levelo://app?vid=02ce3e8e-6ef8-48e8-8e39-50ed964e3fb8","ios":"levelo://app?vid=02ce3e8e-6ef8-48e8-8e39-50ed964e3fb8"},"vehicle_type_id":"4","last_reported":1737212851,"current_range_meters":0,"station_id":"","pricing_plan_id":"cebpf4jnsgd1na2vs0mg"},{"bike_id":"dc47fec2-79b6-4576-98c0-4b785993241e","system_id":"levelo_inurba_marseille","lat":43.29273,"lon":5.36849,"is_reserved":false,"is_disabled":false,"rental_uris":{"android":"levelo://app?vid=dc47fec2-79b6-4576-98c0-4b785993241e","ios":"levelo://app?vid=dc47fec2-79b6-4576-98c0-4b785993241e"},"vehicle_type_id":"4","last_reported":1737212851,"current_range_meters":14400,"station_id":"ce4bhbp2rcd13ifvqesg","pricing_plan_id":"cebpf4jnsgd1na2vs0mg"},{"bike_id":"fddfc8e0-59e0-460d-aceb-9721487e767f","system_id":"levelo_inurba_marseille","lat":43.30329,"lon":5.40431,"is_reserved":false,"is_disabled":false,"rental_uris":{"android":"levelo://app?vid=fddfc8e0-59e0-460d-aceb-9721487e767f","ios":"levelo://app?vid=fddfc8e0-59e0-460d-aceb-9721487e767f"},"vehicle_type_id":"4","last_reported":1737212851,"current_range_meters":36800,"station_id":"ce4bh012rcd13ifvqd10","pricing_plan_id":"cebpf4jnsgd1na2vs0mg"},{"bike_id":"e05c420a-e909-49e2-8f98-b480ae2fb006","system_id":"levelo_inurba_marseille","lat":43.29276,"lon":5.3685,"is_reserved":false,"is_disabled":false,"rental_uris":{"android":"levelo://app?vid=e05c420a-e909-49e2-8f98-b480ae2fb006","ios":"levelo://app?vid=e05c420a-e909-49e2-8f98-b480ae2fb006"},"vehicle_type_id":"4","last_reported":1737212851,"current_range_meters":19600,"station_id":"ce4bhbp2rcd13ifvqesg","pricing_plan_id":"cebpf4jnsgd1na2vs0mg"},{"bike_id":"1b70819d-c226-4d90-996f-fc471004e60b","system_id":"levelo_inurba_marseille","lat":43.27316,"lon":5.39068,"is_reserved":false,"is_disabled":false,"rental_uris":{"android":"levelo://app?vid=1b70819d-c226-4d90-996f-fc471004e60b","ios":"levelo://app?vid=1b70819d-c226-4d90-996f-fc471004e60b"},"vehicle_type_id":"4","last_reported":1737212851,"current_range_meters":17600,"station_id":"ce4bhgp2rcd13ifvqfe0","pricing_plan_id":"cebpf4jnsgd1na2vs0mg"},{"bike_id":"fc7df8a3-abbe-4ada-be1a-56779309c8d0","system_id":"levelo_inurba_marseille","lat":43.30958,"lon":5.39037,"is_reserved":false,"is_disabled":false,"rental_uris":{"android":"levelo://app?vid=fc7df8a3-abbe-4ada-be1a-56779309c8d0","ios":"levelo://app?vid=fc7df8a3-abbe-4ada-be1a-56779309c8d0"},"vehicle_type_id":"4","last_reported":1737212851,"current_range_meters":13600,"station_id":"ce4bgup2rcd13ifvqco0","pricing_plan_id":"cebpf4jnsgd1na2vs0mg"},{"bike_id":"1ca09bf7-61ea-456c-9bde-631c2561ab63","system_id":"levelo_inurba_marseille","lat":43.30561,"lon":5.36547,"is_reserved":false,"is_disabled":false,"rental_uris":{"android":"levelo://app?vid=1ca09bf7-61ea-456c-9bde-631c2561ab63","ios":"levelo://app?vid=1ca09bf7-61ea-456c-9bde-631c2561ab63"},"vehicle_type_id":"4","last_reported":1737212851,"current_range_meters":38800,"station_id":"ce4bgs12rcd13ifvqcag","pricing_plan_id":"cebpf4jnsgd1na2vs0mg"},{"bike_id":"d5dff82b-12f5-4264-9b6d-30582a12eca2","system_id":"levelo_inurba_marseille","lat":43.30632,"lon":5.4009,"is_reserved":false,"is_disabled":false,"rental_uris":{"android":"levelo://app?vid=d5dff82b-12f5-4264-9b6d-30582a12eca2","ios":"levelo://app?vid=d5dff82b-12f5-4264-9b6d-30582a12eca2"},"vehicle_type_id":"4","last_reported":1737212851,"current_range_meters":22800,"station_id":"ce4bh112rcd13ifvqda0","pricing_plan_id":"cebpf4jnsgd1na2vs0mg"},{"bike_id":"763ed4fc-16fd-47a0-aedf-62c028daa66f","system_id":"levelo_inurba_marseille","lat":43.36407,"lon":5.35585,"is_reserved":false,"is_disabled":false,"rental_uris":{"android":"levelo://app?vid=763ed4fc-16fd-47a0-aedf-62c028daa66f","ios":"levelo://app?vid=763ed4fc-16fd-47a0-aedf-62c028daa66f"},"vehicle_type_id":"4","last_reported":1737212851,"current_range_meters":18800,"station_id":"","pricing_plan_id":"cebpf4jnsgd1na2vs0mg"},{"bike_id":"a85b3416-5ca8-42e8-8f3c-d41d17c89946","system_id":"levelo_inurba_marseille","lat":43.29045,"lon":5.35928,"is_reserved":false,"is_disabled":false,"rental_uris":{"android":"levelo://app?vid=a85b3416-5ca8-42e8-8f3c-d41d17c89946","ios":"levelo://app?vid=a85b3416-5ca8-42e8-8f3c-d41d17c89946"},"vehicle_type_id":"4","last_reported":1737212851,"current_range_meters":30800,"station_id":"ce4bha92rcd13ifvqeg0","pricing_plan_id":"cebpf4jnsgd1na2vs0mg"},{"bike_id":"b42d349b-8767-4500-922c-77c53d2c4648","system_id":"levelo_inurba_marseille","lat":43.26062,"lon":5.39382,"is_reserved":false,"is_disabled":false,"rental_uris":{"android":"levelo://app?vid=b42d349b-8767-4500-922c-77c53d2c4648","ios":"levelo://app?vid=b42d349b-8767-4500-922c-77c53d2c4648"},"vehicle_type_id":"4","last_reported":1737212851,"current_range_meters":22400,"station_id":"ce4bhh92rcd13ifvqfj0","pricing_plan_id":"cebpf4jnsgd1na2vs0mg"},{"bike_id":"fc697a46-0d19-4146-ae76-c84bf483ae89","system_id":"levelo_inurba_marseille","lat":43.26056,"lon":5.39394,"is_reserved":false,"is_disabled":false,"rental_uris":{"android":"levelo://app?vid=fc697a46-0d19-4146-ae76-c84bf483ae89","ios":"levelo://app?vid=fc697a46-0d19-4146-ae76-c84bf483ae89"},"vehicle_type_id":"4","last_reported":1737212851,"current_range_meters":24400,"station_id":"ce4bhh92rcd13ifvqfj0","pricing_plan_id":"cebpf4jnsgd1na2vs0mg"},{"bike_id":"4873d995-9463-4f0c-bfda-bf0d2dc96d80","system_id":"levelo_inurba_marseille","lat":43.27861,"lon":5.394366,"is_reserved":false,"is_disabled":false,"rental_uris":{"android":"levelo://app?vid=4873d995-9463-4f0c-bfda-bf0d2dc96d80","ios":"levelo://app?vid=4873d995-9463-4f0c-bfda-bf0d2dc96d80"},"vehicle_type_id":"4","last_reported":1737212851,"current_range_meters":19600,"station_id":"ce4bhf92rcd13ifvqf40","pricing_plan_id":"cebpf4jnsgd1na2vs0mg"},{"bike_id":"1839ab79-8d1b-4d0e-861a-85d4f32184dc","system_id":"levelo_inurba_marseille","lat":43.27378,"lon":5.3625,"is_reserved":false,"is_disabled":false,"rental_uris":{"android":"levelo://app?vid=1839ab79-8d1b-4d0e-861a-85d4f32184dc","ios":"levelo://app?vid=1839ab79-8d1b-4d0e-861a-85d4f32184dc"},"vehicle_type_id":"4","last_reported":1737212851,"current_range_meters":26000,"station_id":"ce4bhbh2rcd13ifvqeo0","pricing_plan_id":"cebpf4jnsgd1na2vs0mg"},{"bike_id":"f3c94274-f861-4c89-8bb1-1ebe1a531935","system_id":"levelo_inurba_marseille","lat":43.25015,"lon":5.38927,"is_reserved":false,"is_disabled":true,"rental_uris":{"android":"levelo://app?vid=f3c94274-f861-4c89-8bb1-1ebe1a531935","ios":"levelo://app?vid=f3c94274-f861-4c89-8bb1-1ebe1a531935"},"vehicle_type_id":"4","last_reported":1737212851,"current_range_meters":0,"station_id":"ce4bhgp2rcd13ifvqfd0","pricing_plan_id":"cebpf4jnsgd1na2vs0mg"},{"bike_id":"6bee8b7f-6244-4165-a58e-f4f8af24ec70","system_id":"levelo_inurba_marseille","lat":43.29566,"lon":5.37516,"is_reserved":false,"is_disabled":false,"rental_uris":{"android":"levelo://app?vid=6bee8b7f-6244-4165-a58e-f4f8af24ec70","ios":"levelo://app?vid=6bee8b7f-6244-4165-a58e-f4f8af24ec70"},"vehicle_type_id":"4","last_reported":1737212851,"current_range_meters":20800,"station_id":"ce4bgh92rcd13ifvqb50","pricing_plan_id":"cebpf4jnsgd1na2vs0mg"},{"bike_id":"ea820ade-d81d-428e-82b9-7f165f7e8e75","system_id":"levelo_inurba_marseille","lat":43.32371,"lon":5.36757,"is_reserved":false,"is_disabled":false,"rental_uris":{"android":"levelo://app?vid=ea820ade-d81d-428e-82b9-7f165f7e8e75","ios":"levelo://app?vid=ea820ade-d81d-428e-82b9-7f165f7e8e75"},"vehicle_type_id":"4","last_reported":1737212851,"current_range_meters":22400,"station_id":"ce4bhsh2rcd13ifvqi2g","pricing_plan_id":"cebpf4jnsgd1na2vs0mg"},{"bike_id":"c29020e0-83ef-4b06-ac4f-c4422257f84a","system_id":"levelo_inurba_marseille","lat":43.36387,"lon":5.35636,"is_reserved":false,"is_disabled":false,"rental_uris":{"android":"levelo://app?vid=c29020e0-83ef-4b06-ac4f-c4422257f84a","ios":"levelo://app?vid=c29020e0-83ef-4b06-ac4f-c4422257f84a"},"vehicle_type_id":"4","last_reported":1737212851,"current_range_meters":23200,"station_id":"","pricing_plan_id":"cebpf4jnsgd1na2vs0mg"},{"bike_id":"96886b51-9d15-4a90-a2f6-eba4805d221c","system_id":"levelo_inurba_marseille","lat":43.28277,"lon":5.35071,"is_reserved":false,"is_disabled":false,"rental_uris":{"android":"levelo://app?vid=96886b51-9d15-4a90-a2f6-eba4805d221c","ios":"levelo://app?vid=96886b51-9d15-4a90-a2f6-eba4805d221c"},"vehicle_type_id":"4","last_reported":1737212851,"current_range_meters":38400,"station_id":"ce4bhbp2rcd13ifvqerg","pricing_plan_id":"cebpf4jnsgd1na2vs0mg"},{"bike_id":"234a24b2-67f4-470b-a11a-a7b60b2f1f3e","system_id":"levelo_inurba_marseille","lat":43.29227,"lon":5.36076,"is_reserved":false,"is_disabled":false,"rental_uris":{"android":"levelo://app?vid=234a24b2-67f4-470b-a11a-a7b60b2f1f3e","ios":"levelo://app?vid=234a24b2-67f4-470b-a11a-a7b60b2f1f3e"},"vehicle_type_id":"4","last_reported":1737212851,"current_range_meters":32800,"station_id":"ce4bhbh2rcd13ifvqeqg","pricing_plan_id":"cebpf4jnsgd1na2vs0mg"},{"bike_id":"ac773fd3-4276-4648-b193-a28240727ab8","system_id":"levelo_inurba_marseille","lat":43.29862,"lon":5.39728,"is_reserved":false,"is_disabled":false,"rental_uris":{"android":"levelo://app?vid=ac773fd3-4276-4648-b193-a28240727ab8","ios":"levelo://app?vid=ac773fd3-4276-4648-b193-a28240727ab8"},"vehicle_type_id":"4","last_reported":1737212851,"current_range_meters":30400,"station_id":"ce4bh0h2rcd13ifvqd50","pricing_plan_id":"cebpf4jnsgd1na2vs0mg"},{"bike_id":"40c0b6c0-8afe-4089-98d3-594ab9179cf8","system_id":"levelo_inurba_marseille","lat":43.2973,"lon":5.37675,"is_reserved":false,"is_disabled":true,"rental_uris":{"android":"levelo://app?vid=40c0b6c0-8afe-4089-98d3-594ab9179cf8","ios":"levelo://app?vid=40c0b6c0-8afe-4089-98d3-594ab9179cf8"},"vehicle_type_id":"4","last_reported":1737212851,"current_range_meters":2000,"station_id":"ce4bgkh2rcd13ifvqbl0","pricing_plan_id":"cebpf4jnsgd1na2vs0mg"},{"bike_id":"1c837c4b-0b3b-4fbe-9f0b-1b9075619b98","system_id":"levelo_inurba_marseille","lat":43.2894,"lon":5.39623,"is_reserved":false,"is_disabled":false,"rental_uris":{"android":"levelo://app?vid=1c837c4b-0b3b-4fbe-9f0b-1b9075619b98","ios":"levelo://app?vid=1c837c4b-0b3b-4fbe-9f0b-1b9075619b98"},"vehicle_type_id":"4","last_reported":1737212851,"current_range_meters":28800,"station_id":"ce4bh3h2rcd13ifvqdn0","pricing_plan_id":"cebpf4jnsgd1na2vs0mg"},{"bike_id":"b672b566-ae6e-4181-a2cb-0155be334a04","system_id":"levelo_inurba_marseille","lat":43.28948,"lon":5.36624,"is_reserved":false,"is_disabled":true,"rental_uris":{"android":"levelo://app?vid=b672b566-ae6e-4181-a2cb-0155be334a04","ios":"levelo://app?vid=b672b566-ae6e-4181-a2cb-0155be334a04"},"vehicle_type_id":"4","last_reported":1737212851,"current_range_meters":0,"station_id":"ce4bhap2rcd13ifvqek0","pricing_plan_id":"cebpf4jnsgd1na2vs0mg"},{"bike_id":"76ff2491-e757-446a-8a69-652b78ca4812","system_id":"levelo_inurba_marseille","lat":43.29688,"lon":5.373,"is_reserved":false,"is_disabled":false,"rental_uris":{"android":"levelo://app?vid=76ff2491-e757-446a-8a69-652b78ca4812","ios":"levelo://app?vid=76ff2491-e757-446a-8a69-652b78ca4812"},"vehicle_type_id":"4","last_reported":1737212851,"current_range_meters":32800,"station_id":"ce4bgk12rcd13ifvqbj0","pricing_plan_id":"cebpf4jnsgd1na2vs0mg"},{"bike_id":"5778b679-4eb0-4492-ad3a-39326de69ccc","system_id":"levelo_inurba_marseille","lat":43.29197,"lon":5.35814,"is_reserved":false,"is_disabled":false,"rental_uris":{"android":"levelo://app?vid=5778b679-4eb0-4492-ad3a-39326de69ccc","ios":"levelo://app?vid=5778b679-4eb0-4492-ad3a-39326de69ccc"},"vehicle_type_id":"4","last_reported":1737212851,"current_range_meters":38800,"station_id":"ce4bhb12rcd13ifvqel0","pricing_plan_id":"cebpf4jnsgd1na2vs0mg"},{"bike_id":"bb49dd1b-928a-4c55-bb67-6f2416e0432a","system_id":"levelo_inurba_marseille","lat":43.24059,"lon":5.37755,"is_reserved":false,"is_disabled":false,"rental_uris":{"android":"levelo://app?vid=bb49dd1b-928a-4c55-bb67-6f2416e0432a","ios":"levelo://app?vid=bb49dd1b-928a-4c55-bb67-6f2416e0432a"},"vehicle_type_id":"4","last_reported":1737212851,"current_range_meters":26800,"station_id":"ce4bhnp2rcd13ifvqgvg","pricing_plan_id":"cebpf4jnsgd1na2vs0mg"},{"bike_id":"3eb60c52-95d6-4d4e-9bc7-66b0d87c4a90","system_id":"levelo_inurba_marseille","lat":43.29646,"lon":5.37191,"is_reserved":false,"is_disabled":false,"rental_uris":{"android":"levelo://app?vid=3eb60c52-95d6-4d4e-9bc7-66b0d87c4a90","ios":"levelo://app?vid=3eb60c52-95d6-4d4e-9bc7-66b0d87c4a90"},"vehicle_type_id":"4","last_reported":1737212851,"current_range_meters":38800,"station_id":"ce4bgnh2rcd13ifvqc0g","pricing_plan_id":"cebpf4jnsgd1na2vs0mg"},{"bike_id":"49b3390c-7eb8-4f7a-a403-306b0067f17a","system_id":"levelo_inurba_marseille","lat":43.26807,"lon":5.40271,"is_reserved":false,"is_disabled":false,"rental_uris":{"android":"levelo://app?vid=49b3390c-7eb8-4f7a-a403-306b0067f17a","ios":"levelo://app?vid=49b3390c-7eb8-4f7a-a403-306b0067f17a"},"vehicle_type_id":"4","last_reported":1737212851,"current_range_meters":30000,"station_id":"ce501612rcd8frsf0b60","pricing_plan_id":"cebpf4jnsgd1na2vs0mg"},{"bike_id":"6767abdc-3c6a-42d0-9e7b-2128533c47af","system_id":"levelo_inurba_marseille","lat":43.29027,"lon":5.38131,"is_reserved":false,"is_disabled":false,"rental_uris":{"android":"levelo://app?vid=6767abdc-3c6a-42d0-9e7b-2128533c47af","ios":"levelo://app?vid=6767abdc-3c6a-42d0-9e7b-2128533c47af"},"vehicle_type_id":"4","last_reported":1737212851,"current_range_meters":38800,"station_id":"ce4bh4p2rcd13ifvqe1g","pricing_plan_id":"cebpf4jnsgd1na2vs0mg"},{"bike_id":"662fe324-a7f9-4c88-b378-559ee4b19249","system_id":"levelo_inurba_marseille","lat":43.29001,"lon":5.35605,"is_reserved":false,"is_disabled":false,"rental_uris":{"android":"levelo://app?vid=662fe324-a7f9-4c88-b378-559ee4b19249","ios":"levelo://app?vid=662fe324-a7f9-4c88-b378-559ee4b19249"},"vehicle_type_id":"4","last_reported":1737212851,"current_range_meters":30400,"station_id":"ce4bhb92rcd13ifvqen0","pricing_plan_id":"cebpf4jnsgd1na2vs0mg"},{"bike_id":"c195f176-afee-4f37-b99b-c88095351782","system_id":"levelo_inurba_marseille","lat":43.30598,"lon":5.37222,"is_reserved":false,"is_disabled":false,"rental_uris":{"android":"levelo://app?vid=c195f176-afee-4f37-b99b-c88095351782","ios":"levelo://app?vid=c195f176-afee-4f37-b99b-c88095351782"},"vehicle_type_id":"4","last_reported":1737212851,"current_range_meters":30000,"station_id":"ce4bgqh2rcd13ifvqc4g","pricing_plan_id":"cebpf4jnsgd1na2vs0mg"},{"bike_id":"31a98fb4-ec8e-4f3e-9363-3f49a6908b29","system_id":"levelo_inurba_marseille","lat":43.28438,"lon":5.34995,"is_reserved":false,"is_disabled":false,"rental_uris":{"android":"levelo://app?vid=31a98fb4-ec8e-4f3e-9363-3f49a6908b29","ios":"levelo://app?vid=31a98fb4-ec8e-4f3e-9363-3f49a6908b29"},"vehicle_type_id":"4","last_reported":1737212851,"current_range_meters":10800,"station_id":"ce4bhbh2rcd13ifvqepg","pricing_plan_id":"cebpf4jnsgd1na2vs0mg"},{"bike_id":"295ae294-3a65-4fed-ae58-bcda6f46004d","system_id":"levelo_inurba_marseille","lat":43.23127,"lon":5.43688,"is_reserved":false,"is_disabled":false,"rental_uris":{"android":"levelo://app?vid=295ae294-3a65-4fed-ae58-bcda6f46004d","ios":"levelo://app?vid=295ae294-3a65-4fed-ae58-bcda6f46004d"},"vehicle_type_id":"4","last_reported":1737212851,"current_range_meters":12800,"station_id":"ce4bhmp2rcd13ifvqgog","pricing_plan_id":"cebpf4jnsgd1na2vs0mg"},{"bike_id":"1477df1e-7f90-456f-83d3-515b3688ceeb","system_id":"levelo_inurba_marseille","lat":43.25937,"lon":5.40878,"is_reserved":false,"is_disabled":false,"rental_uris":{"android":"levelo://app?vid=1477df1e-7f90-456f-83d3-515b3688ceeb","ios":"levelo://app?vid=1477df1e-7f90-456f-83d3-515b3688ceeb"},"vehicle_type_id":"4","last_reported":1737212851,"current_range_meters":8000,"station_id":"ce4bhm92rcd13ifvqglg","pricing_plan_id":"cebpf4jnsgd1na2vs0mg"},{"bike_id":"eae4938b-82ed-48a2-af5e-c6d7cb90fcde","system_id":"levelo_inurba_marseille","lat":43.24542,"lon":5.395243,"is_reserved":false,"is_disabled":false,"rental_uris":{"android":"levelo://app?vid=eae4938b-82ed-48a2-af5e-c6d7cb90fcde","ios":"levelo://app?vid=eae4938b-82ed-48a2-af5e-c6d7cb90fcde"},"vehicle_type_id":"4","last_reported":1737212851,"current_range_meters":29600,"station_id":"ce4bhlp2rcd13ifvqgjg","pricing_plan_id":"cebpf4jnsgd1na2vs0mg"},{"bike_id":"62b83982-25a3-4d28-9fc6-fa36665355dc","system_id":"levelo_inurba_marseille","lat":43.33607,"lon":5.4103,"is_reserved":false,"is_disabled":false,"rental_uris":{"android":"levelo://app?vid=62b83982-25a3-4d28-9fc6-fa36665355dc","ios":"levelo://app?vid=62b83982-25a3-4d28-9fc6-fa36665355dc"},"vehicle_type_id":"4","last_reported":1737212851,"current_range_meters":36800,"station_id":"ce4bhqh2rcd13ifvqhmg","pricing_plan_id":"cebpf4jnsgd1na2vs0mg"},{"bike_id":"04f8d329-ad72-437f-869b-499e14f5d9b5","system_id":"levelo_inurba_marseille","lat":43.32069,"lon":5.41603,"is_reserved":false,"is_disabled":true,"rental_uris":{"android":"levelo://app?vid=04f8d329-ad72-437f-869b-499e14f5d9b5","ios":"levelo://app?vid=04f8d329-ad72-437f-869b-499e14f5d9b5"},"vehicle_type_id":"4","last_reported":1737212851,"current_range_meters":1200,"station_id":"ce4bhq92rcd13ifvqhkg","pricing_plan_id":"cebpf4jnsgd1na2vs0mg"},{"bike_id":"64f2b0a8-e077-4e6c-ad0f-5abffbef97df","system_id":"levelo_inurba_marseille","lat":43.2927,"lon":5.36844,"is_reserved":false,"is_disabled":false,"rental_uris":{"android":"levelo://app?vid=64f2b0a8-e077-4e6c-ad0f-5abffbef97df","ios":"levelo://app?vid=64f2b0a8-e077-4e6c-ad0f-5abffbef97df"},"vehicle_type_id":"4","last_reported":1737212851,"current_range_meters":33200,"station_id":"ce4bhbp2rcd13ifvqesg","pricing_plan_id":"cebpf4jnsgd1na2vs0mg"},{"bike_id":"879266d8-b227-4194-adc9-c789db1ecff6","system_id":"levelo_inurba_marseille","lat":43.29637,"lon":5.37146,"is_reserved":false,"is_disabled":false,"rental_uris":{"android":"levelo://app?vid=879266d8-b227-4194-adc9-c789db1ecff6","ios":"levelo://app?vid=879266d8-b227-4194-adc9-c789db1ecff6"},"vehicle_type_id":"4","last_reported":1737212851,"current_range_meters":38800,"station_id":"ce4bgnh2rcd13ifvqc0g","pricing_plan_id":"cebpf4jnsgd1na2vs0mg"},{"bike_id":"c0e86a8c-8bb4-42a7-8c6d-af427e20bae7","system_id":"levelo_inurba_marseille","lat":43.29369,"lon":5.3785,"is_reserved":false,"is_disabled":false,"rental_uris":{"android":"levelo://app?vid=c0e86a8c-8bb4-42a7-8c6d-af427e20bae7","ios":"levelo://app?vid=c0e86a8c-8bb4-42a7-8c6d-af427e20bae7"},"vehicle_type_id":"4","last_reported":1737212851,"current_range_meters":24800,"station_id":"ce4bgjh2rcd13ifvqbf0","pricing_plan_id":"cebpf4jnsgd1na2vs0mg"},{"bike_id":"7abef529-c437-4375-91bc-6777cc1e4331","system_id":"levelo_inurba_marseille","lat":43.30556,"lon":5.36715,"is_reserved":false,"is_disabled":false,"rental_uris":{"android":"levelo://app?vid=7abef529-c437-4375-91bc-6777cc1e4331","ios":"levelo://app?vid=7abef529-c437-4375-91bc-6777cc1e4331"},"vehicle_type_id":"4","last_reported":1737212851,"current_range_meters":38800,"station_id":"ce4bgrp2rcd13ifvqc9g","pricing_plan_id":"cebpf4jnsgd1na2vs0mg"},{"bike_id":"8a608384-ab5c-4a21-8dfe-369c1a566b2b","system_id":"levelo_inurba_marseille","lat":43.28448,"lon":5.3589,"is_reserved":false,"is_disabled":false,"rental_uris":{"android":"levelo://app?vid=8a608384-ab5c-4a21-8dfe-369c1a566b2b","ios":"levelo://app?vid=8a608384-ab5c-4a21-8dfe-369c1a566b2b"},"vehicle_type_id":"4","last_reported":1737212851,"current_range_meters":26800,"station_id":"ce4bhah2rcd13ifvqei0","pricing_plan_id":"cebpf4jnsgd1na2vs0mg"},{"bike_id":"ab3eb66a-6f45-4f19-a921-88a31e1d4dd1","system_id":"levelo_inurba_marseille","lat":43.2841,"lon":5.34988,"is_reserved":false,"is_disabled":true,"rental_uris":{"android":"levelo://app?vid=ab3eb66a-6f45-4f19-a921-88a31e1d4dd1","ios":"levelo://app?vid=ab3eb66a-6f45-4f19-a921-88a31e1d4dd1"},"vehicle_type_id":"4","last_reported":1737212851,"current_range_meters":0,"station_id":"ce4bhbh2rcd13ifvqepg","pricing_plan_id":"cebpf4jnsgd1na2vs0mg"},{"bike_id":"ca8aa51d-4833-4c77-8009-59b7c07323a3","system_id":"levelo_inurba_marseille","lat":43.32366,"lon":5.36761,"is_reserved":false,"is_disabled":false,"rental_uris":{"android":"levelo://app?vid=ca8aa51d-4833-4c77-8009-59b7c07323a3","ios":"levelo://app?vid=ca8aa51d-4833-4c77-8009-59b7c07323a3"},"vehicle_type_id":"4","last_reported":1737212851,"current_range_meters":9600,"station_id":"ce4bhsh2rcd13ifvqi2g","pricing_plan_id":"cebpf4jnsgd1na2vs0mg"},{"bike_id":"5faa8c62-2ac8-41ab-93f0-47014fb93567","system_id":"levelo_inurba_marseille","lat":43.30096,"lon":5.39074,"is_reserved":false,"is_disabled":false,"rental_uris":{"android":"levelo://app?vid=5faa8c62-2ac8-41ab-93f0-47014fb93567","ios":"levelo://app?vid=5faa8c62-2ac8-41ab-93f0-47014fb93567"},"vehicle_type_id":"4","last_reported":1737212851,"current_range_meters":28400,"station_id":"ce4bh192rcd13ifvqdb0","pricing_plan_id":"cebpf4jnsgd1na2vs0mg"},{"bike_id":"83b66815-9e69-4f46-bab2-4a39d74af732","system_id":"levelo_inurba_marseille","lat":43.3123,"lon":5.36798,"is_reserved":false,"is_disabled":false,"rental_uris":{"android":"levelo://app?vid=83b66815-9e69-4f46-bab2-4a39d74af732","ios":"levelo://app?vid=83b66815-9e69-4f46-bab2-4a39d74af732"},"vehicle_type_id":"4","last_reported":1737212851,"current_range_meters":19200,"station_id":"ce4bgl92rcd13ifvqbq0","pricing_plan_id":"cebpf4jnsgd1na2vs0mg"},{"bike_id":"96c695e4-d2ae-4622-8b84-ac5bd76f7fbd","system_id":"levelo_inurba_marseille","lat":43.27627,"lon":5.36111,"is_reserved":false,"is_disabled":false,"rental_uris":{"android":"levelo://app?vid=96c695e4-d2ae-4622-8b84-ac5bd76f7fbd","ios":"levelo://app?vid=96c695e4-d2ae-4622-8b84-ac5bd76f7fbd"},"vehicle_type_id":"4","last_reported":1737212851,"current_range_meters":26000,"station_id":"ce4bgj92rcd13ifvqbe0","pricing_plan_id":"cebpf4jnsgd1na2vs0mg"},{"bike_id":"d6fcb2b2-2cb2-421d-ab7a-3b0afff15b9e","system_id":"levelo_inurba_marseille","lat":43.27303,"lon":5.3908,"is_reserved":false,"is_disabled":false,"rental_uris":{"android":"levelo://app?vid=d6fcb2b2-2cb2-421d-ab7a-3b0afff15b9e","ios":"levelo://app?vid=d6fcb2b2-2cb2-421d-ab7a-3b0afff15b9e"},"vehicle_type_id":"4","last_reported":1737212851,"current_range_meters":9200,"station_id":"ce4bhgp2rcd13ifvqfe0","pricing_plan_id":"cebpf4jnsgd1na2vs0mg"},{"bike_id":"26ae9990-e6e9-4aaf-b5d4-910b746c86bf","system_id":"levelo_inurba_marseille","lat":43.26555,"lon":5.3728,"is_reserved":false,"is_disabled":false,"rental_uris":{"android":"levelo://app?vid=26ae9990-e6e9-4aaf-b5d4-910b746c86bf","ios":"levelo://app?vid=26ae9990-e6e9-4aaf-b5d4-910b746c86bf"},"vehicle_type_id":"4","last_reported":1737212851,"current_range_meters":12800,"station_id":"ce4bhg12rcd13ifvqf70","pricing_plan_id":"cebpf4jnsgd1na2vs0mg"},{"bike_id":"845e546d-c311-4279-98ea-4d86cfd64139","system_id":"levelo_inurba_marseille","lat":43.29038,"lon":5.39955,"is_reserved":false,"is_disabled":false,"rental_uris":{"android":"levelo://app?vid=845e546d-c311-4279-98ea-4d86cfd64139","ios":"levelo://app?vid=845e546d-c311-4279-98ea-4d86cfd64139"},"vehicle_type_id":"4","last_reported":1737212851,"current_range_meters":10000,"station_id":"ce4bh392rcd13ifvqdm0","pricing_plan_id":"cebpf4jnsgd1na2vs0mg"},{"bike_id":"1d98311c-4305-45b5-b72e-4502ceb29fe2","system_id":"levelo_inurba_marseille","lat":43.29537,"lon":5.38554,"is_reserved":false,"is_disabled":false,"rental_uris":{"android":"levelo://app?vid=1d98311c-4305-45b5-b72e-4502ceb29fe2","ios":"levelo://app?vid=1d98311c-4305-45b5-b72e-4502ceb29fe2"},"vehicle_type_id":"4","last_reported":1737212851,"current_range_meters":8800,"station_id":"ce4bgih2rcd13ifvqba0","pricing_plan_id":"cebpf4jnsgd1na2vs0mg"},{"bike_id":"70c24921-dd69-4638-810c-b7f8cf584516","system_id":"levelo_inurba_marseille","lat":43.24073,"lon":5.37755,"is_reserved":false,"is_disabled":false,"rental_uris":{"android":"levelo://app?vid=70c24921-dd69-4638-810c-b7f8cf584516","ios":"levelo://app?vid=70c24921-dd69-4638-810c-b7f8cf584516"},"vehicle_type_id":"4","last_reported":1737212851,"current_range_meters":39200,"station_id":"ce4bhnp2rcd13ifvqgvg","pricing_plan_id":"cebpf4jnsgd1na2vs0mg"},{"bike_id":"fe4e8d1f-2600-468f-a43a-eb21b90157aa","system_id":"levelo_inurba_marseille","lat":43.27349,"lon":5.39116,"is_reserved":false,"is_disabled":false,"rental_uris":{"android":"levelo://app?vid=fe4e8d1f-2600-468f-a43a-eb21b90157aa","ios":"levelo://app?vid=fe4e8d1f-2600-468f-a43a-eb21b90157aa"},"vehicle_type_id":"4","last_reported":1737212851,"current_range_meters":17200,"station_id":"ce4bhgp2rcd13ifvqfe0","pricing_plan_id":"cebpf4jnsgd1na2vs0mg"},{"bike_id":"c9be01c1-c65a-4c98-8923-01889b467275","system_id":"levelo_inurba_marseille","lat":43.2656,"lon":5.37304,"is_reserved":false,"is_disabled":false,"rental_uris":{"android":"levelo://app?vid=c9be01c1-c65a-4c98-8923-01889b467275","ios":"levelo://app?vid=c9be01c1-c65a-4c98-8923-01889b467275"},"vehicle_type_id":"4","last_reported":1737212851,"current_range_meters":38800,"station_id":"ce4bhg12rcd13ifvqf70","pricing_plan_id":"cebpf4jnsgd1na2vs0mg"},{"bike_id":"cf507987-64c3-4d62-8bcc-151213485ee1","system_id":"levelo_inurba_marseille","lat":43.27305,"lon":5.390843,"is_reserved":false,"is_disabled":false,"rental_uris":{"android":"levelo://app?vid=cf507987-64c3-4d62-8bcc-151213485ee1","ios":"levelo://app?vid=cf507987-64c3-4d62-8bcc-151213485ee1"},"vehicle_type_id":"4","last_reported":1737212851,"current_range_meters":38800,"station_id":"ce4bhgp2rcd13ifvqfe0","pricing_plan_id":"cebpf4jnsgd1na2vs0mg"},{"bike_id":"d7f0fffc-2338-4295-affa-fc32e3927a65","system_id":"levelo_inurba_marseille","lat":43.22927,"lon":5.35374,"is_reserved":false,"is_disabled":false,"rental_uris":{"android":"levelo://app?vid=d7f0fffc-2338-4295-affa-fc32e3927a65","ios":"levelo://app?vid=d7f0fffc-2338-4295-affa-fc32e3927a65"},"vehicle_type_id":"4","last_reported":1737212851,"current_range_meters":24800,"station_id":"cpo3532slgdg3j2ikp40","pricing_plan_id":"cebpf4jnsgd1na2vs0mg"},{"bike_id":"4104cbba-088f-4383-b2a0-261d17699731","system_id":"levelo_inurba_marseille","lat":43.23968,"lon":5.36629,"is_reserved":false,"is_disabled":false,"rental_uris":{"android":"levelo://app?vid=4104cbba-088f-4383-b2a0-261d17699731","ios":"levelo://app?vid=4104cbba-088f-4383-b2a0-261d17699731"},"vehicle_type_id":"4","last_reported":1737212851,"current_range_meters":4800,"station_id":"ce4bhi12rcd13ifvqfp0","pricing_plan_id":"cebpf4jnsgd1na2vs0mg"},{"bike_id":"558a9e34-d5e4-4045-ab1f-ede5038f4a83","system_id":"levelo_inurba_marseille","lat":43.23199,"lon":5.35554,"is_reserved":false,"is_disabled":false,"rental_uris":{"android":"levelo://app?vid=558a9e34-d5e4-4045-ab1f-ede5038f4a83","ios":"levelo://app?vid=558a9e34-d5e4-4045-ab1f-ede5038f4a83"},"vehicle_type_id":"4","last_reported":1737212851,"current_range_meters":8400,"station_id":"ce4bhu92rcd13ifvqi70","pricing_plan_id":"cebpf4jnsgd1na2vs0mg"},{"bike_id":"0aacbbb4-b4df-4112-9f3e-9c8b0c3a36b2","system_id":"levelo_inurba_marseille","lat":43.24383,"lon":5.37047,"is_reserved":false,"is_disabled":false,"rental_uris":{"android":"levelo://app?vid=0aacbbb4-b4df-4112-9f3e-9c8b0c3a36b2","ios":"levelo://app?vid=0aacbbb4-b4df-4112-9f3e-9c8b0c3a36b2"},"vehicle_type_id":"4","last_reported":1737212851,"current_range_meters":38800,"station_id":"ce4bhhh2rcd13ifvqfk0","pricing_plan_id":"cebpf4jnsgd1na2vs0mg"},{"bike_id":"84ef9472-69d1-4fed-b8a0-db64a30dae16","system_id":"levelo_inurba_marseille","lat":43.272063,"lon":5.391803,"is_reserved":false,"is_disabled":true,"rental_uris":{"android":"levelo://app?vid=84ef9472-69d1-4fed-b8a0-db64a30dae16","ios":"levelo://app?vid=84ef9472-69d1-4fed-b8a0-db64a30dae16"},"vehicle_type_id":"4","last_reported":1737212851,"current_range_meters":800,"station_id":"ce4bhhp2rcd13ifvqfm0","pricing_plan_id":"cebpf4jnsgd1na2vs0mg"},{"bike_id":"891d5aa4-b1b0-4e0c-90ac-49e97bf9c382","system_id":"levelo_inurba_marseille","lat":43.23207,"lon":5.40008,"is_reserved":false,"is_disabled":false,"rental_uris":{"android":"levelo://app?vid=891d5aa4-b1b0-4e0c-90ac-49e97bf9c382","ios":"levelo://app?vid=891d5aa4-b1b0-4e0c-90ac-49e97bf9c382"},"vehicle_type_id":"4","last_reported":1737212851,"current_range_meters":29600,"station_id":"ce4bhn12rcd13ifvqgqg","pricing_plan_id":"cebpf4jnsgd1na2vs0mg"},{"bike_id":"2ad52ef0-8080-4104-a5d3-4ad6b83e9c6d","system_id":"levelo_inurba_marseille","lat":43.29524,"lon":5.39042,"is_reserved":false,"is_disabled":false,"rental_uris":{"android":"levelo://app?vid=2ad52ef0-8080-4104-a5d3-4ad6b83e9c6d","ios":"levelo://app?vid=2ad52ef0-8080-4104-a5d3-4ad6b83e9c6d"},"vehicle_type_id":"4","last_reported":1737212851,"current_range_meters":3200,"station_id":"ce4bh3p2rcd13ifvqdp0","pricing_plan_id":"cebpf4jnsgd1na2vs0mg"},{"bike_id":"30e3f870-838d-4cff-8812-f6acf6e88b21","system_id":"levelo_inurba_marseille","lat":43.28981,"lon":5.35604,"is_reserved":false,"is_disabled":false,"rental_uris":{"android":"levelo://app?vid=30e3f870-838d-4cff-8812-f6acf6e88b21","ios":"levelo://app?vid=30e3f870-838d-4cff-8812-f6acf6e88b21"},"vehicle_type_id":"4","last_reported":1737212851,"current_range_meters":38800,"station_id":"ce4bhb92rcd13ifvqen0","pricing_plan_id":"cebpf4jnsgd1na2vs0mg"},{"bike_id":"357eaeda-fef2-41f2-9ad0-621ae2cc5c09","system_id":"levelo_inurba_marseille","lat":43.33768,"lon":5.37496,"is_reserved":false,"is_disabled":false,"rental_uris":{"android":"levelo://app?vid=357eaeda-fef2-41f2-9ad0-621ae2cc5c09","ios":"levelo://app?vid=357eaeda-fef2-41f2-9ad0-621ae2cc5c09"},"vehicle_type_id":"4","last_reported":1737212851,"current_range_meters":30800,"station_id":"","pricing_plan_id":"cebpf4jnsgd1na2vs0mg"},{"bike_id":"8755756b-d1c5-4412-a46c-ec568f184a09","system_id":"levelo_inurba_marseille","lat":43.29608,"lon":5.3808,"is_reserved":false,"is_disabled":false,"rental_uris":{"android":"levelo://app?vid=8755756b-d1c5-4412-a46c-ec568f184a09","ios":"levelo://app?vid=8755756b-d1c5-4412-a46c-ec568f184a09"},"vehicle_type_id":"4","last_reported":1737212851,"current_range_meters":32800,"station_id":"ce4bgl12rcd13ifvqbo0","pricing_plan_id":"cebpf4jnsgd1na2vs0mg"},{"bike_id":"d7ccff50-4c6b-4e48-9048-c8014541aaa1","system_id":"levelo_inurba_marseille","lat":43.29575,"lon":5.37499,"is_reserved":false,"is_disabled":false,"rental_uris":{"android":"levelo://app?vid=d7ccff50-4c6b-4e48-9048-c8014541aaa1","ios":"levelo://app?vid=d7ccff50-4c6b-4e48-9048-c8014541aaa1"},"vehicle_type_id":"4","last_reported":1737212851,"current_range_meters":38800,"station_id":"ce4bgh92rcd13ifvqb50","pricing_plan_id":"cebpf4jnsgd1na2vs0mg"},{"bike_id":"8db5b0e3-4d78-4d24-8813-e11dbeb947e5","system_id":"levelo_inurba_marseille","lat":43.25744,"lon":5.41113,"is_reserved":false,"is_disabled":false,"rental_uris":{"android":"levelo://app?vid=8db5b0e3-4d78-4d24-8813-e11dbeb947e5","ios":"levelo://app?vid=8db5b0e3-4d78-4d24-8813-e11dbeb947e5"},"vehicle_type_id":"4","last_reported":1737212851,"current_range_meters":16800,"station_id":"ce4bhkp2rcd13ifvqgd0","pricing_plan_id":"cebpf4jnsgd1na2vs0mg"},{"bike_id":"8bef0375-bff0-446c-a276-1e03d4314f1c","system_id":"levelo_inurba_marseille","lat":43.29568,"lon":5.37501,"is_reserved":false,"is_disabled":false,"rental_uris":{"android":"levelo://app?vid=8bef0375-bff0-446c-a276-1e03d4314f1c","ios":"levelo://app?vid=8bef0375-bff0-446c-a276-1e03d4314f1c"},"vehicle_type_id":"4","last_reported":1737212851,"current_range_meters":38800,"station_id":"ce4bgh92rcd13ifvqb50","pricing_plan_id":"cebpf4jnsgd1na2vs0mg"},{"bike_id":"f06d0998-9450-4875-9491-92ee2d5ca9de","system_id":"levelo_inurba_marseille","lat":43.33023,"lon":5.39038,"is_reserved":false,"is_disabled":false,"rental_uris":{"android":"levelo://app?vid=f06d0998-9450-4875-9491-92ee2d5ca9de","ios":"levelo://app?vid=f06d0998-9450-4875-9491-92ee2d5ca9de"},"vehicle_type_id":"4","last_reported":1737212851,"current_range_meters":24800,"station_id":"ce4bhr92rcd13ifvqhrg","pricing_plan_id":"cebpf4jnsgd1na2vs0mg"},{"bike_id":"140fc8cf-4281-44e3-bae8-ed54dc40a31c","system_id":"levelo_inurba_marseille","lat":43.2593,"lon":5.40853,"is_reserved":false,"is_disabled":false,"rental_uris":{"android":"levelo://app?vid=140fc8cf-4281-44e3-bae8-ed54dc40a31c","ios":"levelo://app?vid=140fc8cf-4281-44e3-bae8-ed54dc40a31c"},"vehicle_type_id":"4","last_reported":1737212851,"current_range_meters":30400,"station_id":"ce4bhm92rcd13ifvqglg","pricing_plan_id":"cebpf4jnsgd1na2vs0mg"},{"bike_id":"01a07bd9-36a1-4c19-a88b-7c9e3a6ee490","system_id":"levelo_inurba_marseille","lat":43.25098,"lon":5.39503,"is_reserved":false,"is_disabled":false,"rental_uris":{"android":"levelo://app?vid=01a07bd9-36a1-4c19-a88b-7c9e3a6ee490","ios":"levelo://app?vid=01a07bd9-36a1-4c19-a88b-7c9e3a6ee490"},"vehicle_type_id":"4","last_reported":1737212851,"current_range_meters":36800,"station_id":"ce4bhm12rcd13ifvqgkg","pricing_plan_id":"cebpf4jnsgd1na2vs0mg"},{"bike_id":"05831f58-3d26-45c2-9f50-94619c3be5e8","system_id":"levelo_inurba_marseille","lat":43.27501,"lon":5.42452,"is_reserved":false,"is_disabled":true,"rental_uris":{"android":"levelo://app?vid=05831f58-3d26-45c2-9f50-94619c3be5e8","ios":"levelo://app?vid=05831f58-3d26-45c2-9f50-94619c3be5e8"},"vehicle_type_id":"4","last_reported":1737212851,"current_range_meters":0,"station_id":"ce4bhn92rcd13ifvqgrg","pricing_plan_id":"cebpf4jnsgd1na2vs0mg"},{"bike_id":"9be957d2-26d1-49a4-9f85-b06ee3432064","system_id":"levelo_inurba_marseille","lat":43.33717,"lon":5.39184,"is_reserved":false,"is_disabled":false,"rental_uris":{"android":"levelo://app?vid=9be957d2-26d1-49a4-9f85-b06ee3432064","ios":"levelo://app?vid=9be957d2-26d1-49a4-9f85-b06ee3432064"},"vehicle_type_id":"4","last_reported":1737212851,"current_range_meters":26800,"station_id":"ce4bhr92rcd13ifvqhsg","pricing_plan_id":"cebpf4jnsgd1na2vs0mg"},{"bike_id":"e025884c-603b-4643-b2aa-ef72fc58627b","system_id":"levelo_inurba_marseille","lat":43.2657,"lon":5.38997,"is_reserved":false,"is_disabled":false,"rental_uris":{"android":"levelo://app?vid=e025884c-603b-4643-b2aa-ef72fc58627b","ios":"levelo://app?vid=e025884c-603b-4643-b2aa-ef72fc58627b"},"vehicle_type_id":"4","last_reported":1737212851,"current_range_meters":33200,"station_id":"ce4bhe12rcd13ifvqf30","pricing_plan_id":"cebpf4jnsgd1na2vs0mg"},{"bike_id":"fd153fd4-8c71-4200-95f4-e02852c298c7","system_id":"levelo_inurba_marseille","lat":43.25084,"lon":5.39513,"is_reserved":false,"is_disabled":false,"rental_uris":{"android":"levelo://app?vid=fd153fd4-8c71-4200-95f4-e02852c298c7","ios":"levelo://app?vid=fd153fd4-8c71-4200-95f4-e02852c298c7"},"vehicle_type_id":"4","last_reported":1737212851,"current_range_meters":35600,"station_id":"ce4bhm12rcd13ifvqgkg","pricing_plan_id":"cebpf4jnsgd1na2vs0mg"},{"bike_id":"3a4204c8-9fba-4be7-9fa2-58a8cfd4d291","system_id":"levelo_inurba_marseille","lat":43.245485,"lon":5.395289,"is_reserved":false,"is_disabled":false,"rental_uris":{"android":"levelo://app?vid=3a4204c8-9fba-4be7-9fa2-58a8cfd4d291","ios":"levelo://app?vid=3a4204c8-9fba-4be7-9fa2-58a8cfd4d291"},"vehicle_type_id":"4","last_reported":1737212851,"current_range_meters":20800,"station_id":"ce4bhlp2rcd13ifvqgjg","pricing_plan_id":"cebpf4jnsgd1na2vs0mg"},{"bike_id":"afb30d47-3720-4264-8826-2a2372fab63b","system_id":"levelo_inurba_marseille","lat":43.29574,"lon":5.3752,"is_reserved":false,"is_disabled":false,"rental_uris":{"android":"levelo://app?vid=afb30d47-3720-4264-8826-2a2372fab63b","ios":"levelo://app?vid=afb30d47-3720-4264-8826-2a2372fab63b"},"vehicle_type_id":"4","last_reported":1737212851,"current_range_meters":35200,"station_id":"ce4bgh92rcd13ifvqb50","pricing_plan_id":"cebpf4jnsgd1na2vs0mg"},{"bike_id":"f771f77d-c4bd-407c-bb1c-89799ec28ceb","system_id":"levelo_inurba_marseille","lat":43.29847,"lon":5.36286,"is_reserved":false,"is_disabled":false,"rental_uris":{"android":"levelo://app?vid=f771f77d-c4bd-407c-bb1c-89799ec28ceb","ios":"levelo://app?vid=f771f77d-c4bd-407c-bb1c-89799ec28ceb"},"vehicle_type_id":"4","last_reported":1737212851,"current_range_meters":37600,"station_id":"ce4bgpp2rcd13ifvqc3g","pricing_plan_id":"cebpf4jnsgd1na2vs0mg"},{"bike_id":"b94fc47f-53b6-4a27-9cce-eca5b35ee706","system_id":"levelo_inurba_marseille","lat":43.29573,"lon":5.42237,"is_reserved":false,"is_disabled":false,"rental_uris":{"android":"levelo://app?vid=b94fc47f-53b6-4a27-9cce-eca5b35ee706","ios":"levelo://app?vid=b94fc47f-53b6-4a27-9cce-eca5b35ee706"},"vehicle_type_id":"4","last_reported":1737212851,"current_range_meters":15200,"station_id":"","pricing_plan_id":"cebpf4jnsgd1na2vs0mg"},{"bike_id":"4489757e-df01-42da-be3a-27402f07b76a","system_id":"levelo_inurba_marseille","lat":43.31122,"lon":5.42439,"is_reserved":false,"is_disabled":false,"rental_uris":{"android":"levelo://app?vid=4489757e-df01-42da-be3a-27402f07b76a","ios":"levelo://app?vid=4489757e-df01-42da-be3a-27402f07b76a"},"vehicle_type_id":"4","last_reported":1737212851,"current_range_meters":35600,"station_id":"ce4bhp92rcd13ifvqhag","pricing_plan_id":"cebpf4jnsgd1na2vs0mg"},{"bike_id":"87f1bb94-aaea-4d24-835b-c8e9076649be","system_id":"levelo_inurba_marseille","lat":43.27198,"lon":5.39167,"is_reserved":false,"is_disabled":false,"rental_uris":{"android":"levelo://app?vid=87f1bb94-aaea-4d24-835b-c8e9076649be","ios":"levelo://app?vid=87f1bb94-aaea-4d24-835b-c8e9076649be"},"vehicle_type_id":"4","last_reported":1737212851,"current_range_meters":10000,"station_id":"ce4bhhp2rcd13ifvqfm0","pricing_plan_id":"cebpf4jnsgd1na2vs0mg"},{"bike_id":"6ae5f418-d083-4f63-9c32-1d60c1a2646a","system_id":"levelo_inurba_marseille","lat":43.29933,"lon":5.36551,"is_reserved":false,"is_disabled":false,"rental_uris":{"android":"levelo://app?vid=6ae5f418-d083-4f63-9c32-1d60c1a2646a","ios":"levelo://app?vid=6ae5f418-d083-4f63-9c32-1d60c1a2646a"},"vehicle_type_id":"4","last_reported":1737212851,"current_range_meters":27600,"station_id":"ce4bgm92rcd13ifvqbr0","pricing_plan_id":"cebpf4jnsgd1na2vs0mg"},{"bike_id":"41e66b43-81c2-4cc4-b4fc-989eb06aea62","system_id":"levelo_inurba_marseille","lat":43.25118,"lon":5.40327,"is_reserved":false,"is_disabled":false,"rental_uris":{"android":"levelo://app?vid=41e66b43-81c2-4cc4-b4fc-989eb06aea62","ios":"levelo://app?vid=41e66b43-81c2-4cc4-b4fc-989eb06aea62"},"vehicle_type_id":"4","last_reported":1737212851,"current_range_meters":18000,"station_id":"ce4bhlh2rcd13ifvqgig","pricing_plan_id":"cebpf4jnsgd1na2vs0mg"},{"bike_id":"ee50e9fa-ba7e-4619-99ed-576a36244694","system_id":"levelo_inurba_marseille","lat":43.30581,"lon":5.39351,"is_reserved":false,"is_disabled":false,"rental_uris":{"android":"levelo://app?vid=ee50e9fa-ba7e-4619-99ed-576a36244694","ios":"levelo://app?vid=ee50e9fa-ba7e-4619-99ed-576a36244694"},"vehicle_type_id":"4","last_reported":1737212851,"current_range_meters":38800,"station_id":"ce4bh0p2rcd13ifvqd80","pricing_plan_id":"cebpf4jnsgd1na2vs0mg"},{"bike_id":"aaf9b19d-0d21-4f60-bd85-a79491ea0c6f","system_id":"levelo_inurba_marseille","lat":43.26193,"lon":5.37456,"is_reserved":false,"is_disabled":false,"rental_uris":{"android":"levelo://app?vid=aaf9b19d-0d21-4f60-bd85-a79491ea0c6f","ios":"levelo://app?vid=aaf9b19d-0d21-4f60-bd85-a79491ea0c6f"},"vehicle_type_id":"4","last_reported":1737212851,"current_range_meters":36000,"station_id":"ce4bhgp2rcd13ifvqfc0","pricing_plan_id":"cebpf4jnsgd1na2vs0mg"},{"bike_id":"d29beac8-a618-4bab-b648-f7daf71dd18c","system_id":"levelo_inurba_marseille","lat":43.26682,"lon":5.3827,"is_reserved":false,"is_disabled":false,"rental_uris":{"android":"levelo://app?vid=d29beac8-a618-4bab-b648-f7daf71dd18c","ios":"levelo://app?vid=d29beac8-a618-4bab-b648-f7daf71dd18c"},"vehicle_type_id":"4","last_reported":1737212851,"current_range_meters":19200,"station_id":"ce4bhg92rcd13ifvqf90","pricing_plan_id":"cebpf4jnsgd1na2vs0mg"},{"bike_id":"fae143cc-e0b7-42e0-ac41-6327643321d0","system_id":"levelo_inurba_marseille","lat":43.25825,"lon":5.39422,"is_reserved":false,"is_disabled":false,"rental_uris":{"android":"levelo://app?vid=fae143cc-e0b7-42e0-ac41-6327643321d0","ios":"levelo://app?vid=fae143cc-e0b7-42e0-ac41-6327643321d0"},"vehicle_type_id":"4","last_reported":1737212851,"current_range_meters":32000,"station_id":"ce4bhip2rcd13ifvqft0","pricing_plan_id":"cebpf4jnsgd1na2vs0mg"},{"bike_id":"78a60470-e644-4eca-bf1f-8be83cbe177b","system_id":"levelo_inurba_marseille","lat":43.30154,"lon":5.37411,"is_reserved":false,"is_disabled":false,"rental_uris":{"android":"levelo://app?vid=78a60470-e644-4eca-bf1f-8be83cbe177b","ios":"levelo://app?vid=78a60470-e644-4eca-bf1f-8be83cbe177b"},"vehicle_type_id":"4","last_reported":1737212851,"current_range_meters":33200,"station_id":"ce4bgs92rcd13ifvqcc0","pricing_plan_id":"cebpf4jnsgd1na2vs0mg"},{"bike_id":"5d207678-6659-4669-a9d8-2c3c6b4c97c9","system_id":"levelo_inurba_marseille","lat":43.3118,"lon":5.38716,"is_reserved":false,"is_disabled":false,"rental_uris":{"android":"levelo://app?vid=5d207678-6659-4669-a9d8-2c3c6b4c97c9","ios":"levelo://app?vid=5d207678-6659-4669-a9d8-2c3c6b4c97c9"},"vehicle_type_id":"4","last_reported":1737212851,"current_range_meters":3200,"station_id":"ce4bgv12rcd13ifvqcp0","pricing_plan_id":"cebpf4jnsgd1na2vs0mg"},{"bike_id":"f4a4a406-b0a5-42fc-9236-32e93ac6f6b2","system_id":"levelo_inurba_marseille","lat":43.2315,"lon":5.43711,"is_reserved":false,"is_disabled":true,"rental_uris":{"android":"levelo://app?vid=f4a4a406-b0a5-42fc-9236-32e93ac6f6b2","ios":"levelo://app?vid=f4a4a406-b0a5-42fc-9236-32e93ac6f6b2"},"vehicle_type_id":"4","last_reported":1737212851,"current_range_meters":28800,"station_id":"ce4bhmp2rcd13ifvqgog","pricing_plan_id":"cebpf4jnsgd1na2vs0mg"},{"bike_id":"0a07a54b-ebec-426a-a4da-317b251731b2","system_id":"levelo_inurba_marseille","lat":43.29732,"lon":5.37689,"is_reserved":false,"is_disabled":false,"rental_uris":{"android":"levelo://app?vid=0a07a54b-ebec-426a-a4da-317b251731b2","ios":"levelo://app?vid=0a07a54b-ebec-426a-a4da-317b251731b2"},"vehicle_type_id":"4","last_reported":1737212851,"current_range_meters":38800,"station_id":"ce4bgkh2rcd13ifvqbl0","pricing_plan_id":"cebpf4jnsgd1na2vs0mg"},{"bike_id":"077540a1-c9f6-4ba4-8e6a-2c229443eadf","system_id":"levelo_inurba_marseille","lat":43.30578,"lon":5.39363,"is_reserved":false,"is_disabled":false,"rental_uris":{"android":"levelo://app?vid=077540a1-c9f6-4ba4-8e6a-2c229443eadf","ios":"levelo://app?vid=077540a1-c9f6-4ba4-8e6a-2c229443eadf"},"vehicle_type_id":"4","last_reported":1737212851,"current_range_meters":26000,"station_id":"ce4bh0p2rcd13ifvqd80","pricing_plan_id":"cebpf4jnsgd1na2vs0mg"},{"bike_id":"ca6869fb-cab2-4bae-9a55-3512cf128bbc","system_id":"levelo_inurba_marseille","lat":43.31078,"lon":5.38363,"is_reserved":false,"is_disabled":false,"rental_uris":{"android":"levelo://app?vid=ca6869fb-cab2-4bae-9a55-3512cf128bbc","ios":"levelo://app?vid=ca6869fb-cab2-4bae-9a55-3512cf128bbc"},"vehicle_type_id":"4","last_reported":1737212851,"current_range_meters":33200,"station_id":"ce4bgv92rcd13ifvqcr0","pricing_plan_id":"cebpf4jnsgd1na2vs0mg"},{"bike_id":"e3d78a43-5d22-471a-86d0-2a6b52ac3559","system_id":"levelo_inurba_marseille","lat":43.23965,"lon":5.36631,"is_reserved":false,"is_disabled":false,"rental_uris":{"android":"levelo://app?vid=e3d78a43-5d22-471a-86d0-2a6b52ac3559","ios":"levelo://app?vid=e3d78a43-5d22-471a-86d0-2a6b52ac3559"},"vehicle_type_id":"4","last_reported":1737212851,"current_range_meters":24400,"station_id":"ce4bhi12rcd13ifvqfp0","pricing_plan_id":"cebpf4jnsgd1na2vs0mg"},{"bike_id":"8746e685-1bb6-4230-95fe-2c80d2550f5b","system_id":"levelo_inurba_marseille","lat":43.27208,"lon":5.39164,"is_reserved":false,"is_disabled":false,"rental_uris":{"android":"levelo://app?vid=8746e685-1bb6-4230-95fe-2c80d2550f5b","ios":"levelo://app?vid=8746e685-1bb6-4230-95fe-2c80d2550f5b"},"vehicle_type_id":"4","last_reported":1737212851,"current_range_meters":2800,"station_id":"ce4bhhp2rcd13ifvqfm0","pricing_plan_id":"cebpf4jnsgd1na2vs0mg"},{"bike_id":"92466719-3cd7-45e1-a99f-e3314a012c35","system_id":"levelo_inurba_marseille","lat":43.29838,"lon":5.36258,"is_reserved":false,"is_disabled":false,"rental_uris":{"android":"levelo://app?vid=92466719-3cd7-45e1-a99f-e3314a012c35","ios":"levelo://app?vid=92466719-3cd7-45e1-a99f-e3314a012c35"},"vehicle_type_id":"4","last_reported":1737212851,"current_range_meters":38800,"station_id":"ce4bgpp2rcd13ifvqc3g","pricing_plan_id":"cebpf4jnsgd1na2vs0mg"},{"bike_id":"897b5451-91a4-4507-b30e-ad2e4e884264","system_id":"levelo_inurba_marseille","lat":43.26689,"lon":5.38261,"is_reserved":false,"is_disabled":false,"rental_uris":{"android":"levelo://app?vid=897b5451-91a4-4507-b30e-ad2e4e884264","ios":"levelo://app?vid=897b5451-91a4-4507-b30e-ad2e4e884264"},"vehicle_type_id":"4","last_reported":1737212851,"current_range_meters":6000,"station_id":"ce4bhg92rcd13ifvqf90","pricing_plan_id":"cebpf4jnsgd1na2vs0mg"},{"bike_id":"67c549d5-ce81-408a-a146-d43915340e7f","system_id":"levelo_inurba_marseille","lat":43.33964,"lon":5.37346,"is_reserved":false,"is_disabled":false,"rental_uris":{"android":"levelo://app?vid=67c549d5-ce81-408a-a146-d43915340e7f","ios":"levelo://app?vid=67c549d5-ce81-408a-a146-d43915340e7f"},"vehicle_type_id":"4","last_reported":1737212851,"current_range_meters":38400,"station_id":"","pricing_plan_id":"cebpf4jnsgd1na2vs0mg"},{"bike_id":"b58dcef5-cab9-4732-933d-c18fb8a74b04","system_id":"levelo_inurba_marseille","lat":43.23153,"lon":5.4371,"is_reserved":false,"is_disabled":true,"rental_uris":{"android":"levelo://app?vid=b58dcef5-cab9-4732-933d-c18fb8a74b04","ios":"levelo://app?vid=b58dcef5-cab9-4732-933d-c18fb8a74b04"},"vehicle_type_id":"4","last_reported":1737212851,"current_range_meters":0,"station_id":"ce4bhmp2rcd13ifvqgog","pricing_plan_id":"cebpf4jnsgd1na2vs0mg"},{"bike_id":"b936ffa6-9085-46b5-a0df-a1a2f8dd85b8","system_id":"levelo_inurba_marseille","lat":43.25027,"lon":5.38926,"is_reserved":false,"is_disabled":false,"rental_uris":{"android":"levelo://app?vid=b936ffa6-9085-46b5-a0df-a1a2f8dd85b8","ios":"levelo://app?vid=b936ffa6-9085-46b5-a0df-a1a2f8dd85b8"},"vehicle_type_id":"4","last_reported":1737212851,"current_range_meters":38800,"station_id":"ce4bhgp2rcd13ifvqfd0","pricing_plan_id":"cebpf4jnsgd1na2vs0mg"},{"bike_id":"2b8e66f9-42fe-4fbb-8e79-d03f64ea7468","system_id":"levelo_inurba_marseille","lat":43.30565,"lon":5.36538,"is_reserved":false,"is_disabled":false,"rental_uris":{"android":"levelo://app?vid=2b8e66f9-42fe-4fbb-8e79-d03f64ea7468","ios":"levelo://app?vid=2b8e66f9-42fe-4fbb-8e79-d03f64ea7468"},"vehicle_type_id":"4","last_reported":1737212851,"current_range_meters":16000,"station_id":"ce4bgs12rcd13ifvqcag","pricing_plan_id":"cebpf4jnsgd1na2vs0mg"},{"bike_id":"eb6b1adb-8f5d-4376-a8e0-674b6ee4f5f2","system_id":"levelo_inurba_marseille","lat":43.30411,"lon":5.41284,"is_reserved":false,"is_disabled":false,"rental_uris":{"android":"levelo://app?vid=eb6b1adb-8f5d-4376-a8e0-674b6ee4f5f2","ios":"levelo://app?vid=eb6b1adb-8f5d-4376-a8e0-674b6ee4f5f2"},"vehicle_type_id":"4","last_reported":1737212851,"current_range_meters":38800,"station_id":"ce4bhop2rcd13ifvqh8g","pricing_plan_id":"cebpf4jnsgd1na2vs0mg"},{"bike_id":"6f76b243-f090-4217-a488-cbd532747535","system_id":"levelo_inurba_marseille","lat":43.2815,"lon":5.42626,"is_reserved":false,"is_disabled":false,"rental_uris":{"android":"levelo://app?vid=6f76b243-f090-4217-a488-cbd532747535","ios":"levelo://app?vid=6f76b243-f090-4217-a488-cbd532747535"},"vehicle_type_id":"4","last_reported":1737212851,"current_range_meters":30800,"station_id":"ce4bhnh2rcd13ifvqgug","pricing_plan_id":"cebpf4jnsgd1na2vs0mg"},{"bike_id":"49019a7c-0602-4b39-83ce-018b62fff9e6","system_id":"levelo_inurba_marseille","lat":43.30545,"lon":5.3843,"is_reserved":false,"is_disabled":false,"rental_uris":{"android":"levelo://app?vid=49019a7c-0602-4b39-83ce-018b62fff9e6","ios":"levelo://app?vid=49019a7c-0602-4b39-83ce-018b62fff9e6"},"vehicle_type_id":"4","last_reported":1737212851,"current_range_meters":14400,"station_id":"ce4bgg92rcd13ifvqb30","pricing_plan_id":"cebpf4jnsgd1na2vs0mg"},{"bike_id":"37feb261-44b2-4b27-b3ae-078664007b08","system_id":"levelo_inurba_marseille","lat":43.32491,"lon":5.36552,"is_reserved":false,"is_disabled":false,"rental_uris":{"android":"levelo://app?vid=37feb261-44b2-4b27-b3ae-078664007b08","ios":"levelo://app?vid=37feb261-44b2-4b27-b3ae-078664007b08"},"vehicle_type_id":"4","last_reported":1737212851,"current_range_meters":6000,"station_id":"ce4bhs12rcd13ifvqhvg","pricing_plan_id":"cebpf4jnsgd1na2vs0mg"},{"bike_id":"433941fb-cb12-4378-aa33-be11f45e96d2","system_id":"levelo_inurba_marseille","lat":43.29523,"lon":5.39035,"is_reserved":false,"is_disabled":false,"rental_uris":{"android":"levelo://app?vid=433941fb-cb12-4378-aa33-be11f45e96d2","ios":"levelo://app?vid=433941fb-cb12-4378-aa33-be11f45e96d2"},"vehicle_type_id":"4","last_reported":1737212851,"current_range_meters":33600,"station_id":"ce4bh3p2rcd13ifvqdp0","pricing_plan_id":"cebpf4jnsgd1na2vs0mg"},{"bike_id":"56b8e9bc-f750-4815-bc98-9098414d16db","system_id":"levelo_inurba_marseille","lat":43.23201,"lon":5.3556,"is_reserved":false,"is_disabled":true,"rental_uris":{"android":"levelo://app?vid=56b8e9bc-f750-4815-bc98-9098414d16db","ios":"levelo://app?vid=56b8e9bc-f750-4815-bc98-9098414d16db"},"vehicle_type_id":"4","last_reported":1737212851,"current_range_meters":0,"station_id":"ce4bhu92rcd13ifvqi70","pricing_plan_id":"cebpf4jnsgd1na2vs0mg"},{"bike_id":"0e91b70c-1e42-4d65-a90a-72cbd40954b0","system_id":"levelo_inurba_marseille","lat":43.32374,"lon":5.36737,"is_reserved":false,"is_disabled":false,"rental_uris":{"android":"levelo://app?vid=0e91b70c-1e42-4d65-a90a-72cbd40954b0","ios":"levelo://app?vid=0e91b70c-1e42-4d65-a90a-72cbd40954b0"},"vehicle_type_id":"4","last_reported":1737212851,"current_range_meters":10800,"station_id":"ce4bhsh2rcd13ifvqi2g","pricing_plan_id":"cebpf4jnsgd1na2vs0mg"},{"bike_id":"466dbc1a-8870-4e7e-a139-46fd17bec912","system_id":"levelo_inurba_marseille","lat":43.30938,"lon":5.40142,"is_reserved":false,"is_disabled":false,"rental_uris":{"android":"levelo://app?vid=466dbc1a-8870-4e7e-a139-46fd17bec912","ios":"levelo://app?vid=466dbc1a-8870-4e7e-a139-46fd17bec912"},"vehicle_type_id":"4","last_reported":1737212851,"current_range_meters":39200,"station_id":"ce4bgvp2rcd13ifvqct0","pricing_plan_id":"cebpf4jnsgd1na2vs0mg"},{"bike_id":"185db2e1-6a41-4ee5-a299-b96f786168da","system_id":"levelo_inurba_marseille","lat":43.29364,"lon":5.37843,"is_reserved":false,"is_disabled":false,"rental_uris":{"android":"levelo://app?vid=185db2e1-6a41-4ee5-a299-b96f786168da","ios":"levelo://app?vid=185db2e1-6a41-4ee5-a299-b96f786168da"},"vehicle_type_id":"4","last_reported":1737212851,"current_range_meters":10800,"station_id":"ce4bgjh2rcd13ifvqbf0","pricing_plan_id":"cebpf4jnsgd1na2vs0mg"},{"bike_id":"ce0bd18d-2bf0-4203-a6ed-50d7fb0f8a7f","system_id":"levelo_inurba_marseille","lat":43.28568,"lon":5.39486,"is_reserved":false,"is_disabled":false,"rental_uris":{"android":"levelo://app?vid=ce0bd18d-2bf0-4203-a6ed-50d7fb0f8a7f","ios":"levelo://app?vid=ce0bd18d-2bf0-4203-a6ed-50d7fb0f8a7f"},"vehicle_type_id":"4","last_reported":1737212851,"current_range_meters":37600,"station_id":"ce4bh292rcd13ifvqdg0","pricing_plan_id":"cebpf4jnsgd1na2vs0mg"},{"bike_id":"c0833b18-d19f-417d-bfe6-159043fc5f3e","system_id":"levelo_inurba_marseille","lat":43.29564,"lon":5.37518,"is_reserved":false,"is_disabled":false,"rental_uris":{"android":"levelo://app?vid=c0833b18-d19f-417d-bfe6-159043fc5f3e","ios":"levelo://app?vid=c0833b18-d19f-417d-bfe6-159043fc5f3e"},"vehicle_type_id":"4","last_reported":1737212851,"current_range_meters":22000,"station_id":"ce4bgh92rcd13ifvqb50","pricing_plan_id":"cebpf4jnsgd1na2vs0mg"},{"bike_id":"94c50d48-4bdf-4cc3-8480-21ed5fa48e03","system_id":"levelo_inurba_marseille","lat":43.29716,"lon":5.37683,"is_reserved":false,"is_disabled":false,"rental_uris":{"android":"levelo://app?vid=94c50d48-4bdf-4cc3-8480-21ed5fa48e03","ios":"levelo://app?vid=94c50d48-4bdf-4cc3-8480-21ed5fa48e03"},"vehicle_type_id":"4","last_reported":1737212851,"current_range_meters":38800,"station_id":"ce4bgkh2rcd13ifvqbl0","pricing_plan_id":"cebpf4jnsgd1na2vs0mg"},{"bike_id":"22465212-93af-4e0b-b803-6ee82bba56d5","system_id":"levelo_inurba_marseille","lat":43.33759,"lon":5.3748,"is_reserved":false,"is_disabled":false,"rental_uris":{"android":"levelo://app?vid=22465212-93af-4e0b-b803-6ee82bba56d5","ios":"levelo://app?vid=22465212-93af-4e0b-b803-6ee82bba56d5"},"vehicle_type_id":"4","last_reported":1737212851,"current_range_meters":32800,"station_id":"","pricing_plan_id":"cebpf4jnsgd1na2vs0mg"},{"bike_id":"275aed3e-104b-4ec9-ace4-af91fc180de6","system_id":"levelo_inurba_marseille","lat":43.31085,"lon":5.42429,"is_reserved":false,"is_disabled":false,"rental_uris":{"android":"levelo://app?vid=275aed3e-104b-4ec9-ace4-af91fc180de6","ios":"levelo://app?vid=275aed3e-104b-4ec9-ace4-af91fc180de6"},"vehicle_type_id":"4","last_reported":1737212851,"current_range_meters":39200,"station_id":"ce4bhp92rcd13ifvqhag","pricing_plan_id":"cebpf4jnsgd1na2vs0mg"},{"bike_id":"2669dc48-d52c-4df4-a185-3258641e3a0a","system_id":"levelo_inurba_marseille","lat":43.27949,"lon":5.38705,"is_reserved":false,"is_disabled":true,"rental_uris":{"android":"levelo://app?vid=2669dc48-d52c-4df4-a185-3258641e3a0a","ios":"levelo://app?vid=2669dc48-d52c-4df4-a185-3258641e3a0a"},"vehicle_type_id":"4","last_reported":1737212851,"current_range_meters":0,"station_id":"ce4bhg12rcd13ifvqf80","pricing_plan_id":"cebpf4jnsgd1na2vs0mg"},{"bike_id":"9bf23a8f-52ce-474a-90b7-67df12cf32d1","system_id":"levelo_inurba_marseille","lat":43.255003,"lon":5.376493,"is_reserved":false,"is_disabled":false,"rental_uris":{"android":"levelo://app?vid=9bf23a8f-52ce-474a-90b7-67df12cf32d1","ios":"levelo://app?vid=9bf23a8f-52ce-474a-90b7-67df12cf32d1"},"vehicle_type_id":"4","last_reported":1737212851,"current_range_meters":7200,"station_id":"ce4bhh12rcd13ifvqff0","pricing_plan_id":"cebpf4jnsgd1na2vs0mg"},{"bike_id":"492bb2a4-bb26-45e4-9edc-d3f9691e28d1","system_id":"levelo_inurba_marseille","lat":43.31749,"lon":5.39043,"is_reserved":false,"is_disabled":false,"rental_uris":{"android":"levelo://app?vid=492bb2a4-bb26-45e4-9edc-d3f9691e28d1","ios":"levelo://app?vid=492bb2a4-bb26-45e4-9edc-d3f9691e28d1"},"vehicle_type_id":"4","last_reported":1737212851,"current_range_meters":36800,"station_id":"ce4bhqp2rcd13ifvqhng","pricing_plan_id":"cebpf4jnsgd1na2vs0mg"},{"bike_id":"86b1129b-34c7-4cb1-acb7-46aa8942c62c","system_id":"levelo_inurba_marseille","lat":43.2315,"lon":5.43722,"is_reserved":false,"is_disabled":true,"rental_uris":{"android":"levelo://app?vid=86b1129b-34c7-4cb1-acb7-46aa8942c62c","ios":"levelo://app?vid=86b1129b-34c7-4cb1-acb7-46aa8942c62c"},"vehicle_type_id":"4","last_reported":1737212851,"current_range_meters":0,"station_id":"ce4bhmp2rcd13ifvqgog","pricing_plan_id":"cebpf4jnsgd1na2vs0mg"},{"bike_id":"8e58b092-ba8e-4f96-9901-b2504a890168","system_id":"levelo_inurba_marseille","lat":43.28628,"lon":5.35106,"is_reserved":false,"is_disabled":false,"rental_uris":{"android":"levelo://app?vid=8e58b092-ba8e-4f96-9901-b2504a890168","ios":"levelo://app?vid=8e58b092-ba8e-4f96-9901-b2504a890168"},"vehicle_type_id":"4","last_reported":1737212851,"current_range_meters":16000,"station_id":"ce4bhch2rcd13ifvqeug","pricing_plan_id":"cebpf4jnsgd1na2vs0mg"},{"bike_id":"b663f53e-1e42-4f0c-a05f-fde242cb0184","system_id":"levelo_inurba_marseille","lat":43.28625,"lon":5.351,"is_reserved":false,"is_disabled":false,"rental_uris":{"android":"levelo://app?vid=b663f53e-1e42-4f0c-a05f-fde242cb0184","ios":"levelo://app?vid=b663f53e-1e42-4f0c-a05f-fde242cb0184"},"vehicle_type_id":"4","last_reported":1737212851,"current_range_meters":25200,"station_id":"ce4bhch2rcd13ifvqeug","pricing_plan_id":"cebpf4jnsgd1na2vs0mg"},{"bike_id":"9f73ce2d-07ce-4a15-a690-69371255c2f4","system_id":"levelo_inurba_marseille","lat":43.29843,"lon":5.36275,"is_reserved":false,"is_disabled":false,"rental_uris":{"android":"levelo://app?vid=9f73ce2d-07ce-4a15-a690-69371255c2f4","ios":"levelo://app?vid=9f73ce2d-07ce-4a15-a690-69371255c2f4"},"vehicle_type_id":"4","last_reported":1737212851,"current_range_meters":12000,"station_id":"ce4bgpp2rcd13ifvqc3g","pricing_plan_id":"cebpf4jnsgd1na2vs0mg"},{"bike_id":"c6f874ed-7baa-4ffa-b8dc-93b47368c64c","system_id":"levelo_inurba_marseille","lat":43.27378,"lon":5.36253,"is_reserved":false,"is_disabled":false,"rental_uris":{"android":"levelo://app?vid=c6f874ed-7baa-4ffa-b8dc-93b47368c64c","ios":"levelo://app?vid=c6f874ed-7baa-4ffa-b8dc-93b47368c64c"},"vehicle_type_id":"4","last_reported":1737212851,"current_range_meters":37600,"station_id":"ce4bhbh2rcd13ifvqeo0","pricing_plan_id":"cebpf4jnsgd1na2vs0mg"},{"bike_id":"82eafdac-bd81-479d-a7b0-05db8ca76c26","system_id":"levelo_inurba_marseille","lat":43.258262,"lon":5.394306,"is_reserved":false,"is_disabled":true,"rental_uris":{"android":"levelo://app?vid=82eafdac-bd81-479d-a7b0-05db8ca76c26","ios":"levelo://app?vid=82eafdac-bd81-479d-a7b0-05db8ca76c26"},"vehicle_type_id":"4","last_reported":1737212851,"current_range_meters":0,"station_id":"ce4bhip2rcd13ifvqft0","pricing_plan_id":"cebpf4jnsgd1na2vs0mg"},{"bike_id":"d3b63f64-3964-48ee-94b6-c8fe6ffcc2e4","system_id":"levelo_inurba_marseille","lat":43.28661,"lon":5.3635,"is_reserved":false,"is_disabled":false,"rental_uris":{"android":"levelo://app?vid=d3b63f64-3964-48ee-94b6-c8fe6ffcc2e4","ios":"levelo://app?vid=d3b63f64-3964-48ee-94b6-c8fe6ffcc2e4"},"vehicle_type_id":"4","last_reported":1737212851,"current_range_meters":34000,"station_id":"ce4bhah2rcd13ifvqej0","pricing_plan_id":"cebpf4jnsgd1na2vs0mg"},{"bike_id":"3837aabc-e804-445a-b8b5-aa22a45de9bb","system_id":"levelo_inurba_marseille","lat":43.244365,"lon":5.371794,"is_reserved":false,"is_disabled":false,"rental_uris":{"android":"levelo://app?vid=3837aabc-e804-445a-b8b5-aa22a45de9bb","ios":"levelo://app?vid=3837aabc-e804-445a-b8b5-aa22a45de9bb"},"vehicle_type_id":"4","last_reported":1737212851,"current_range_meters":19600,"station_id":"ce4bhgh2rcd13ifvqfa0","pricing_plan_id":"cebpf4jnsgd1na2vs0mg"},{"bike_id":"b7bcbd2a-3d45-4104-a573-c7f4fb9913af","system_id":"levelo_inurba_marseille","lat":43.27065,"lon":5.42274,"is_reserved":false,"is_disabled":false,"rental_uris":{"android":"levelo://app?vid=b7bcbd2a-3d45-4104-a573-c7f4fb9913af","ios":"levelo://app?vid=b7bcbd2a-3d45-4104-a573-c7f4fb9913af"},"vehicle_type_id":"4","last_reported":1737212851,"current_range_meters":7200,"station_id":"ce4bhk92rcd13ifvqgb0","pricing_plan_id":"cebpf4jnsgd1na2vs0mg"},{"bike_id":"772a885c-569d-4d30-ba12-c556361a6ec2","system_id":"levelo_inurba_marseille","lat":43.31082,"lon":5.38349,"is_reserved":false,"is_disabled":false,"rental_uris":{"android":"levelo://app?vid=772a885c-569d-4d30-ba12-c556361a6ec2","ios":"levelo://app?vid=772a885c-569d-4d30-ba12-c556361a6ec2"},"vehicle_type_id":"4","last_reported":1737212851,"current_range_meters":27200,"station_id":"ce4bgv92rcd13ifvqcr0","pricing_plan_id":"cebpf4jnsgd1na2vs0mg"},{"bike_id":"35deb437-7ef2-4ee7-9ea5-27ce0001ca7b","system_id":"levelo_inurba_marseille","lat":43.2606,"lon":5.39396,"is_reserved":false,"is_disabled":false,"rental_uris":{"android":"levelo://app?vid=35deb437-7ef2-4ee7-9ea5-27ce0001ca7b","ios":"levelo://app?vid=35deb437-7ef2-4ee7-9ea5-27ce0001ca7b"},"vehicle_type_id":"4","last_reported":1737212851,"current_range_meters":37600,"station_id":"ce4bhh92rcd13ifvqfj0","pricing_plan_id":"cebpf4jnsgd1na2vs0mg"},{"bike_id":"a072b78c-2700-44c6-9219-503477bf1536","system_id":"levelo_inurba_marseille","lat":43.26195,"lon":5.37451,"is_reserved":false,"is_disabled":false,"rental_uris":{"android":"levelo://app?vid=a072b78c-2700-44c6-9219-503477bf1536","ios":"levelo://app?vid=a072b78c-2700-44c6-9219-503477bf1536"},"vehicle_type_id":"4","last_reported":1737212851,"current_range_meters":28400,"station_id":"ce4bhgp2rcd13ifvqfc0","pricing_plan_id":"cebpf4jnsgd1na2vs0mg"},{"bike_id":"f2390374-e060-4fe1-bcfa-cb2711193e58","system_id":"levelo_inurba_marseille","lat":43.25087,"lon":5.39516,"is_reserved":false,"is_disabled":false,"rental_uris":{"android":"levelo://app?vid=f2390374-e060-4fe1-bcfa-cb2711193e58","ios":"levelo://app?vid=f2390374-e060-4fe1-bcfa-cb2711193e58"},"vehicle_type_id":"4","last_reported":1737212851,"current_range_meters":10000,"station_id":"ce4bhm12rcd13ifvqgkg","pricing_plan_id":"cebpf4jnsgd1na2vs0mg"},{"bike_id":"8caece16-a274-4801-83ed-17227752ce06","system_id":"levelo_inurba_marseille","lat":43.23147,"lon":5.4372,"is_reserved":false,"is_disabled":false,"rental_uris":{"android":"levelo://app?vid=8caece16-a274-4801-83ed-17227752ce06","ios":"levelo://app?vid=8caece16-a274-4801-83ed-17227752ce06"},"vehicle_type_id":"4","last_reported":1737212851,"current_range_meters":15200,"station_id":"ce4bhmp2rcd13ifvqgog","pricing_plan_id":"cebpf4jnsgd1na2vs0mg"},{"bike_id":"d6161db6-0288-4eaf-b39b-605e25ca46ff","system_id":"levelo_inurba_marseille","lat":43.2742,"lon":5.39411,"is_reserved":false,"is_disabled":true,"rental_uris":{"android":"levelo://app?vid=d6161db6-0288-4eaf-b39b-605e25ca46ff","ios":"levelo://app?vid=d6161db6-0288-4eaf-b39b-605e25ca46ff"},"vehicle_type_id":"4","last_reported":1737212851,"current_range_meters":0,"station_id":"ce4bhdp2rcd13ifvqf20","pricing_plan_id":"cebpf4jnsgd1na2vs0mg"},{"bike_id":"aa46790d-0450-4918-bc1d-99d07bd2f297","system_id":"levelo_inurba_marseille","lat":43.27446,"lon":5.39415,"is_reserved":false,"is_disabled":false,"rental_uris":{"android":"levelo://app?vid=aa46790d-0450-4918-bc1d-99d07bd2f297","ios":"levelo://app?vid=aa46790d-0450-4918-bc1d-99d07bd2f297"},"vehicle_type_id":"4","last_reported":1737212851,"current_range_meters":38800,"station_id":"ce4bhdp2rcd13ifvqf20","pricing_plan_id":"cebpf4jnsgd1na2vs0mg"},{"bike_id":"ea470283-2e14-40bf-a157-1430df0f546a","system_id":"levelo_inurba_marseille","lat":43.29564,"lon":5.3752,"is_reserved":false,"is_disabled":false,"rental_uris":{"android":"levelo://app?vid=ea470283-2e14-40bf-a157-1430df0f546a","ios":"levelo://app?vid=ea470283-2e14-40bf-a157-1430df0f546a"},"vehicle_type_id":"4","last_reported":1737212851,"current_range_meters":12000,"station_id":"ce4bgh92rcd13ifvqb50","pricing_plan_id":"cebpf4jnsgd1na2vs0mg"},{"bike_id":"2a6c8aef-7633-4410-aa65-ead7161fa29b","system_id":"levelo_inurba_marseille","lat":43.31196,"lon":5.36841,"is_reserved":false,"is_disabled":false,"rental_uris":{"android":"levelo://app?vid=2a6c8aef-7633-4410-aa65-ead7161fa29b","ios":"levelo://app?vid=2a6c8aef-7633-4410-aa65-ead7161fa29b"},"vehicle_type_id":"4","last_reported":1737212851,"current_range_meters":38000,"station_id":"ce4bgl92rcd13ifvqbq0","pricing_plan_id":"cebpf4jnsgd1na2vs0mg"},{"bike_id":"4697b5a1-a9b5-4890-8123-a290b2fc91c7","system_id":"levelo_inurba_marseille","lat":43.325,"lon":5.36585,"is_reserved":false,"is_disabled":false,"rental_uris":{"android":"levelo://app?vid=4697b5a1-a9b5-4890-8123-a290b2fc91c7","ios":"levelo://app?vid=4697b5a1-a9b5-4890-8123-a290b2fc91c7"},"vehicle_type_id":"4","last_reported":1737212851,"current_range_meters":12000,"station_id":"ce4bhs12rcd13ifvqhvg","pricing_plan_id":"cebpf4jnsgd1na2vs0mg"},{"bike_id":"19842dcc-d522-4697-9c1c-8c5555390c23","system_id":"levelo_inurba_marseille","lat":43.26555,"lon":5.37293,"is_reserved":false,"is_disabled":true,"rental_uris":{"android":"levelo://app?vid=19842dcc-d522-4697-9c1c-8c5555390c23","ios":"levelo://app?vid=19842dcc-d522-4697-9c1c-8c5555390c23"},"vehicle_type_id":"4","last_reported":1737212851,"current_range_meters":0,"station_id":"ce4bhg12rcd13ifvqf70","pricing_plan_id":"cebpf4jnsgd1na2vs0mg"},{"bike_id":"a95248e8-7ba2-479e-9b5c-9fb4d8e98c2b","system_id":"levelo_inurba_marseille","lat":43.28123,"lon":5.42208,"is_reserved":false,"is_disabled":true,"rental_uris":{"android":"levelo://app?vid=a95248e8-7ba2-479e-9b5c-9fb4d8e98c2b","ios":"levelo://app?vid=a95248e8-7ba2-479e-9b5c-9fb4d8e98c2b"},"vehicle_type_id":"4","last_reported":1737212851,"current_range_meters":0,"station_id":"","pricing_plan_id":"cebpf4jnsgd1na2vs0mg"},{"bike_id":"246f2aa1-d855-40ee-b8e2-0e541013d632","system_id":"levelo_inurba_marseille","lat":43.27818,"lon":5.40705,"is_reserved":false,"is_disabled":true,"rental_uris":{"android":"levelo://app?vid=246f2aa1-d855-40ee-b8e2-0e541013d632","ios":"levelo://app?vid=246f2aa1-d855-40ee-b8e2-0e541013d632"},"vehicle_type_id":"4","last_reported":1737212851,"current_range_meters":400,"station_id":"ce4bhnh2rcd13ifvqgtg","pricing_plan_id":"cebpf4jnsgd1na2vs0mg"},{"bike_id":"87cefc3a-e36a-4030-9c3f-9fc87455f3e3","system_id":"levelo_inurba_marseille","lat":43.27374,"lon":5.36253,"is_reserved":false,"is_disabled":false,"rental_uris":{"android":"levelo://app?vid=87cefc3a-e36a-4030-9c3f-9fc87455f3e3","ios":"levelo://app?vid=87cefc3a-e36a-4030-9c3f-9fc87455f3e3"},"vehicle_type_id":"4","last_reported":1737212851,"current_range_meters":38800,"station_id":"ce4bhbh2rcd13ifvqeo0","pricing_plan_id":"cebpf4jnsgd1na2vs0mg"},{"bike_id":"4db7b340-d87a-4262-81e5-e4a87955466a","system_id":"levelo_inurba_marseille","lat":43.29845,"lon":5.36265,"is_reserved":false,"is_disabled":false,"rental_uris":{"android":"levelo://app?vid=4db7b340-d87a-4262-81e5-e4a87955466a","ios":"levelo://app?vid=4db7b340-d87a-4262-81e5-e4a87955466a"},"vehicle_type_id":"4","last_reported":1737212851,"current_range_meters":32800,"station_id":"ce4bgpp2rcd13ifvqc3g","pricing_plan_id":"cebpf4jnsgd1na2vs0mg"},{"bike_id":"c49e3bd4-4803-4d18-ae85-9ece4f389eb0","system_id":"levelo_inurba_marseille","lat":43.29014,"lon":5.3814,"is_reserved":false,"is_disabled":false,"rental_uris":{"android":"levelo://app?vid=c49e3bd4-4803-4d18-ae85-9ece4f389eb0","ios":"levelo://app?vid=c49e3bd4-4803-4d18-ae85-9ece4f389eb0"},"vehicle_type_id":"4","last_reported":1737212851,"current_range_meters":25600,"station_id":"ce4bh4p2rcd13ifvqe1g","pricing_plan_id":"cebpf4jnsgd1na2vs0mg"},{"bike_id":"e4b67e29-1aeb-4d72-9c96-fdd0079090dc","system_id":"levelo_inurba_marseille","lat":43.27429,"lon":5.39412,"is_reserved":false,"is_disabled":false,"rental_uris":{"android":"levelo://app?vid=e4b67e29-1aeb-4d72-9c96-fdd0079090dc","ios":"levelo://app?vid=e4b67e29-1aeb-4d72-9c96-fdd0079090dc"},"vehicle_type_id":"4","last_reported":1737212851,"current_range_meters":38800,"station_id":"ce4bhdp2rcd13ifvqf20","pricing_plan_id":"cebpf4jnsgd1na2vs0mg"},{"bike_id":"8494f01d-6f97-4ae6-a516-bdb7ba1e69c7","system_id":"levelo_inurba_marseille","lat":43.30596,"lon":5.37222,"is_reserved":false,"is_disabled":false,"rental_uris":{"android":"levelo://app?vid=8494f01d-6f97-4ae6-a516-bdb7ba1e69c7","ios":"levelo://app?vid=8494f01d-6f97-4ae6-a516-bdb7ba1e69c7"},"vehicle_type_id":"4","last_reported":1737212851,"current_range_meters":38800,"station_id":"ce4bgqh2rcd13ifvqc4g","pricing_plan_id":"cebpf4jnsgd1na2vs0mg"},{"bike_id":"2189f33e-4cfd-4f76-9d91-913095d551c4","system_id":"levelo_inurba_marseille","lat":43.30342,"lon":5.39107,"is_reserved":false,"is_disabled":true,"rental_uris":{"android":"levelo://app?vid=2189f33e-4cfd-4f76-9d91-913095d551c4","ios":"levelo://app?vid=2189f33e-4cfd-4f76-9d91-913095d551c4"},"vehicle_type_id":"4","last_reported":1737212851,"current_range_meters":0,"station_id":"ce4bgkh2rcd13ifvqbk0","pricing_plan_id":"cebpf4jnsgd1na2vs0mg"},{"bike_id":"7089fc6b-25ea-47bb-8e4e-676b4a570ef2","system_id":"levelo_inurba_marseille","lat":43.29573,"lon":5.37516,"is_reserved":false,"is_disabled":false,"rental_uris":{"android":"levelo://app?vid=7089fc6b-25ea-47bb-8e4e-676b4a570ef2","ios":"levelo://app?vid=7089fc6b-25ea-47bb-8e4e-676b4a570ef2"},"vehicle_type_id":"4","last_reported":1737212851,"current_range_meters":16800,"station_id":"ce4bgh92rcd13ifvqb50","pricing_plan_id":"cebpf4jnsgd1na2vs0mg"},{"bike_id":"7383474c-b45a-4438-837c-99d7ae866fe7","system_id":"levelo_inurba_marseille","lat":43.26052,"lon":5.39391,"is_reserved":false,"is_disabled":false,"rental_uris":{"android":"levelo://app?vid=7383474c-b45a-4438-837c-99d7ae866fe7","ios":"levelo://app?vid=7383474c-b45a-4438-837c-99d7ae866fe7"},"vehicle_type_id":"4","last_reported":1737212851,"current_range_meters":38000,"station_id":"ce4bhh92rcd13ifvqfj0","pricing_plan_id":"cebpf4jnsgd1na2vs0mg"},{"bike_id":"4f90141e-5d29-44c2-aff5-00cc824ab855","system_id":"levelo_inurba_marseille","lat":43.30465,"lon":5.37908,"is_reserved":false,"is_disabled":false,"rental_uris":{"android":"levelo://app?vid=4f90141e-5d29-44c2-aff5-00cc824ab855","ios":"levelo://app?vid=4f90141e-5d29-44c2-aff5-00cc824ab855"},"vehicle_type_id":"4","last_reported":1737212851,"current_range_meters":17600,"station_id":"ce4bgup2rcd13ifvqcn0","pricing_plan_id":"cebpf4jnsgd1na2vs0mg"},{"bike_id":"81bfa970-2e00-48b0-86ed-f6d56bdae6de","system_id":"levelo_inurba_marseille","lat":43.30175,"lon":5.36606,"is_reserved":false,"is_disabled":false,"rental_uris":{"android":"levelo://app?vid=81bfa970-2e00-48b0-86ed-f6d56bdae6de","ios":"levelo://app?vid=81bfa970-2e00-48b0-86ed-f6d56bdae6de"},"vehicle_type_id":"4","last_reported":1737212851,"current_range_meters":16400,"station_id":"ce4bgrh2rcd13ifvqc8g","pricing_plan_id":"cebpf4jnsgd1na2vs0mg"},{"bike_id":"0d5bf58b-8962-4322-87c4-754920ec04ac","system_id":"levelo_inurba_marseille","lat":43.31196,"lon":5.38685,"is_reserved":false,"is_disabled":true,"rental_uris":{"android":"levelo://app?vid=0d5bf58b-8962-4322-87c4-754920ec04ac","ios":"levelo://app?vid=0d5bf58b-8962-4322-87c4-754920ec04ac"},"vehicle_type_id":"4","last_reported":1737212851,"current_range_meters":36400,"station_id":"ce4bgv12rcd13ifvqcp0","pricing_plan_id":"cebpf4jnsgd1na2vs0mg"},{"bike_id":"0698110d-7a09-455a-9b77-c8d843738c53","system_id":"levelo_inurba_marseille","lat":43.28435,"lon":5.34999,"is_reserved":false,"is_disabled":false,"rental_uris":{"android":"levelo://app?vid=0698110d-7a09-455a-9b77-c8d843738c53","ios":"levelo://app?vid=0698110d-7a09-455a-9b77-c8d843738c53"},"vehicle_type_id":"4","last_reported":1737212851,"current_range_meters":36000,"station_id":"ce4bhbh2rcd13ifvqepg","pricing_plan_id":"cebpf4jnsgd1na2vs0mg"},{"bike_id":"052e0952-1e6d-44df-8ca6-75825a6fea5f","system_id":"levelo_inurba_marseille","lat":43.29709,"lon":5.37706,"is_reserved":false,"is_disabled":false,"rental_uris":{"android":"levelo://app?vid=052e0952-1e6d-44df-8ca6-75825a6fea5f","ios":"levelo://app?vid=052e0952-1e6d-44df-8ca6-75825a6fea5f"},"vehicle_type_id":"4","last_reported":1737212851,"current_range_meters":38000,"station_id":"ce4bgkh2rcd13ifvqbl0","pricing_plan_id":"cebpf4jnsgd1na2vs0mg"},{"bike_id":"3faafd8a-dbfc-4e29-9e08-12f5271bd548","system_id":"levelo_inurba_marseille","lat":43.30534,"lon":5.36701,"is_reserved":false,"is_disabled":false,"rental_uris":{"android":"levelo://app?vid=3faafd8a-dbfc-4e29-9e08-12f5271bd548","ios":"levelo://app?vid=3faafd8a-dbfc-4e29-9e08-12f5271bd548"},"vehicle_type_id":"4","last_reported":1737212851,"current_range_meters":32400,"station_id":"ce4bgrp2rcd13ifvqc9g","pricing_plan_id":"cebpf4jnsgd1na2vs0mg"},{"bike_id":"94770b67-adeb-4227-a049-e190b2cc0f97","system_id":"levelo_inurba_marseille","lat":43.272133,"lon":5.391795,"is_reserved":false,"is_disabled":false,"rental_uris":{"android":"levelo://app?vid=94770b67-adeb-4227-a049-e190b2cc0f97","ios":"levelo://app?vid=94770b67-adeb-4227-a049-e190b2cc0f97"},"vehicle_type_id":"4","last_reported":1737212851,"current_range_meters":31200,"station_id":"ce4bhhp2rcd13ifvqfm0","pricing_plan_id":"cebpf4jnsgd1na2vs0mg"},{"bike_id":"fe90f7a6-3920-456a-9451-50d213b7000f","system_id":"levelo_inurba_marseille","lat":43.28479,"lon":5.38427,"is_reserved":false,"is_disabled":true,"rental_uris":{"android":"levelo://app?vid=fe90f7a6-3920-456a-9451-50d213b7000f","ios":"levelo://app?vid=fe90f7a6-3920-456a-9451-50d213b7000f"},"vehicle_type_id":"4","last_reported":1737212851,"current_range_meters":36800,"station_id":"ce4bh512rcd13ifvqe3g","pricing_plan_id":"cebpf4jnsgd1na2vs0mg"},{"bike_id":"3958b03d-b591-4d79-80a4-059614f22dc2","system_id":"levelo_inurba_marseille","lat":43.29899,"lon":5.43663,"is_reserved":false,"is_disabled":false,"rental_uris":{"android":"levelo://app?vid=3958b03d-b591-4d79-80a4-059614f22dc2","ios":"levelo://app?vid=3958b03d-b591-4d79-80a4-059614f22dc2"},"vehicle_type_id":"4","last_reported":1737212851,"current_range_meters":34000,"station_id":"ce4bhpp2rcd13ifvqhfg","pricing_plan_id":"cebpf4jnsgd1na2vs0mg"},{"bike_id":"d68d4c6c-ace6-47ca-a78f-51f9adc5b848","system_id":"levelo_inurba_marseille","lat":43.2623,"lon":5.40475,"is_reserved":false,"is_disabled":false,"rental_uris":{"android":"levelo://app?vid=d68d4c6c-ace6-47ca-a78f-51f9adc5b848","ios":"levelo://app?vid=d68d4c6c-ace6-47ca-a78f-51f9adc5b848"},"vehicle_type_id":"4","last_reported":1737212851,"current_range_meters":8800,"station_id":"","pricing_plan_id":"cebpf4jnsgd1na2vs0mg"},{"bike_id":"7d96fda9-32b2-47ca-99af-a25a955f7a77","system_id":"levelo_inurba_marseille","lat":43.26059,"lon":5.39395,"is_reserved":false,"is_disabled":false,"rental_uris":{"android":"levelo://app?vid=7d96fda9-32b2-47ca-99af-a25a955f7a77","ios":"levelo://app?vid=7d96fda9-32b2-47ca-99af-a25a955f7a77"},"vehicle_type_id":"4","last_reported":1737212851,"current_range_meters":36800,"station_id":"ce4bhh92rcd13ifvqfj0","pricing_plan_id":"cebpf4jnsgd1na2vs0mg"},{"bike_id":"30c55592-5c2d-4766-9ae9-6f1e5192194b","system_id":"levelo_inurba_marseille","lat":43.30805,"lon":5.37661,"is_reserved":false,"is_disabled":true,"rental_uris":{"android":"levelo://app?vid=30c55592-5c2d-4766-9ae9-6f1e5192194b","ios":"levelo://app?vid=30c55592-5c2d-4766-9ae9-6f1e5192194b"},"vehicle_type_id":"4","last_reported":1737212851,"current_range_meters":0,"station_id":"ce4bgv92rcd13ifvqcq0","pricing_plan_id":"cebpf4jnsgd1na2vs0mg"},{"bike_id":"a3fbf533-6224-4937-9eae-3b61f801643a","system_id":"levelo_inurba_marseille","lat":43.28458,"lon":5.35883,"is_reserved":false,"is_disabled":false,"rental_uris":{"android":"levelo://app?vid=a3fbf533-6224-4937-9eae-3b61f801643a","ios":"levelo://app?vid=a3fbf533-6224-4937-9eae-3b61f801643a"},"vehicle_type_id":"4","last_reported":1737212851,"current_range_meters":36800,"station_id":"ce4bhah2rcd13ifvqei0","pricing_plan_id":"cebpf4jnsgd1na2vs0mg"},{"bike_id":"b205d6b8-894d-4fbe-b662-7e7cffdad903","system_id":"levelo_inurba_marseille","lat":43.305396,"lon":5.365273,"is_reserved":false,"is_disabled":false,"rental_uris":{"android":"levelo://app?vid=b205d6b8-894d-4fbe-b662-7e7cffdad903","ios":"levelo://app?vid=b205d6b8-894d-4fbe-b662-7e7cffdad903"},"vehicle_type_id":"4","last_reported":1737212851,"current_range_meters":37600,"station_id":"ce4bgs12rcd13ifvqcag","pricing_plan_id":"cebpf4jnsgd1na2vs0mg"},{"bike_id":"a9a0e60f-8e94-490a-988c-5a9cfc45d626","system_id":"levelo_inurba_marseille","lat":43.24163,"lon":5.36402,"is_reserved":false,"is_disabled":false,"rental_uris":{"android":"levelo://app?vid=a9a0e60f-8e94-490a-988c-5a9cfc45d626","ios":"levelo://app?vid=a9a0e60f-8e94-490a-988c-5a9cfc45d626"},"vehicle_type_id":"4","last_reported":1737212851,"current_range_meters":10800,"station_id":"cpo36qri1sfpv3e86is0","pricing_plan_id":"cebpf4jnsgd1na2vs0mg"},{"bike_id":"922f6f3d-c9d7-4a58-8a3d-007db77d7920","system_id":"levelo_inurba_marseille","lat":43.24549,"lon":5.3953,"is_reserved":false,"is_disabled":false,"rental_uris":{"android":"levelo://app?vid=922f6f3d-c9d7-4a58-8a3d-007db77d7920","ios":"levelo://app?vid=922f6f3d-c9d7-4a58-8a3d-007db77d7920"},"vehicle_type_id":"4","last_reported":1737212851,"current_range_meters":16400,"station_id":"ce4bhlp2rcd13ifvqgjg","pricing_plan_id":"cebpf4jnsgd1na2vs0mg"},{"bike_id":"11cd2222-dd89-422a-913d-4cdc05e996df","system_id":"levelo_inurba_marseille","lat":43.29369,"lon":5.37825,"is_reserved":false,"is_disabled":false,"rental_uris":{"android":"levelo://app?vid=11cd2222-dd89-422a-913d-4cdc05e996df","ios":"levelo://app?vid=11cd2222-dd89-422a-913d-4cdc05e996df"},"vehicle_type_id":"4","last_reported":1737212851,"current_range_meters":38800,"station_id":"ce4bgjh2rcd13ifvqbf0","pricing_plan_id":"cebpf4jnsgd1na2vs0mg"},{"bike_id":"76dbf6ef-b4a8-4cef-8918-462b67116819","system_id":"levelo_inurba_marseille","lat":43.32297,"lon":5.38277,"is_reserved":false,"is_disabled":false,"rental_uris":{"android":"levelo://app?vid=76dbf6ef-b4a8-4cef-8918-462b67116819","ios":"levelo://app?vid=76dbf6ef-b4a8-4cef-8918-462b67116819"},"vehicle_type_id":"4","last_reported":1737212851,"current_range_meters":6400,"station_id":"ce4bhr12rcd13ifvqhqg","pricing_plan_id":"cebpf4jnsgd1na2vs0mg"},{"bike_id":"670ccd3a-4687-4b7a-98a3-5e94c19c58f1","system_id":"levelo_inurba_marseille","lat":43.24671,"lon":5.38924,"is_reserved":false,"is_disabled":false,"rental_uris":{"android":"levelo://app?vid=670ccd3a-4687-4b7a-98a3-5e94c19c58f1","ios":"levelo://app?vid=670ccd3a-4687-4b7a-98a3-5e94c19c58f1"},"vehicle_type_id":"4","last_reported":1737212851,"current_range_meters":28000,"station_id":"ce4bhg12rcd13ifvqf60","pricing_plan_id":"cebpf4jnsgd1na2vs0mg"},{"bike_id":"56e9f11c-2270-4e32-85f0-fe4b36b7fb2e","system_id":"levelo_inurba_marseille","lat":43.26681,"lon":5.38267,"is_reserved":false,"is_disabled":false,"rental_uris":{"android":"levelo://app?vid=56e9f11c-2270-4e32-85f0-fe4b36b7fb2e","ios":"levelo://app?vid=56e9f11c-2270-4e32-85f0-fe4b36b7fb2e"},"vehicle_type_id":"4","last_reported":1737212851,"current_range_meters":35600,"station_id":"ce4bhg92rcd13ifvqf90","pricing_plan_id":"cebpf4jnsgd1na2vs0mg"},{"bike_id":"4dcfd8f5-b3ab-4034-82ee-58b53bda5c80","system_id":"levelo_inurba_marseille","lat":43.2732,"lon":5.39069,"is_reserved":false,"is_disabled":false,"rental_uris":{"android":"levelo://app?vid=4dcfd8f5-b3ab-4034-82ee-58b53bda5c80","ios":"levelo://app?vid=4dcfd8f5-b3ab-4034-82ee-58b53bda5c80"},"vehicle_type_id":"4","last_reported":1737212851,"current_range_meters":32400,"station_id":"ce4bhgp2rcd13ifvqfe0","pricing_plan_id":"cebpf4jnsgd1na2vs0mg"},{"bike_id":"95d5fca7-dfda-4bcf-a78d-e81265e6be5f","system_id":"levelo_inurba_marseille","lat":43.309057,"lon":5.368589,"is_reserved":false,"is_disabled":false,"rental_uris":{"android":"levelo://app?vid=95d5fca7-dfda-4bcf-a78d-e81265e6be5f","ios":"levelo://app?vid=95d5fca7-dfda-4bcf-a78d-e81265e6be5f"},"vehicle_type_id":"4","last_reported":1737212851,"current_range_meters":38000,"station_id":"ce4bgn92rcd13ifvqbvg","pricing_plan_id":"cebpf4jnsgd1na2vs0mg"},{"bike_id":"380aaf76-d91d-4dfe-8371-252d4636319e","system_id":"levelo_inurba_marseille","lat":43.28944,"lon":5.39632,"is_reserved":false,"is_disabled":false,"rental_uris":{"android":"levelo://app?vid=380aaf76-d91d-4dfe-8371-252d4636319e","ios":"levelo://app?vid=380aaf76-d91d-4dfe-8371-252d4636319e"},"vehicle_type_id":"4","last_reported":1737212851,"current_range_meters":18000,"station_id":"ce4bh3h2rcd13ifvqdn0","pricing_plan_id":"cebpf4jnsgd1na2vs0mg"},{"bike_id":"3d65fd16-1925-4b01-9297-282269f47192","system_id":"levelo_inurba_marseille","lat":43.31722,"lon":5.42393,"is_reserved":false,"is_disabled":false,"rental_uris":{"android":"levelo://app?vid=3d65fd16-1925-4b01-9297-282269f47192","ios":"levelo://app?vid=3d65fd16-1925-4b01-9297-282269f47192"},"vehicle_type_id":"4","last_reported":1737212851,"current_range_meters":26000,"station_id":"ce4bhp92rcd13ifvqhbg","pricing_plan_id":"cebpf4jnsgd1na2vs0mg"},{"bike_id":"f5863b18-13a1-4c6e-92de-5668ea912ad3","system_id":"levelo_inurba_marseille","lat":43.262196,"lon":5.404726,"is_reserved":false,"is_disabled":true,"rental_uris":{"android":"levelo://app?vid=f5863b18-13a1-4c6e-92de-5668ea912ad3","ios":"levelo://app?vid=f5863b18-13a1-4c6e-92de-5668ea912ad3"},"vehicle_type_id":"4","last_reported":1737212851,"current_range_meters":0,"station_id":"","pricing_plan_id":"cebpf4jnsgd1na2vs0mg"},{"bike_id":"3c24a366-6593-41fd-aac3-5456277a8515","system_id":"levelo_inurba_marseille","lat":43.30163,"lon":5.38047,"is_reserved":false,"is_disabled":false,"rental_uris":{"android":"levelo://app?vid=3c24a366-6593-41fd-aac3-5456277a8515","ios":"levelo://app?vid=3c24a366-6593-41fd-aac3-5456277a8515"},"vehicle_type_id":"4","last_reported":1737212851,"current_range_meters":2000,"station_id":"ce4bgjp2rcd13ifvqbh0","pricing_plan_id":"cebpf4jnsgd1na2vs0mg"},{"bike_id":"f941a738-40ab-4405-9726-e41e3d4a9467","system_id":"levelo_inurba_marseille","lat":43.26211,"lon":5.37444,"is_reserved":false,"is_disabled":false,"rental_uris":{"android":"levelo://app?vid=f941a738-40ab-4405-9726-e41e3d4a9467","ios":"levelo://app?vid=f941a738-40ab-4405-9726-e41e3d4a9467"},"vehicle_type_id":"4","last_reported":1737212851,"current_range_meters":6800,"station_id":"ce4bhgp2rcd13ifvqfc0","pricing_plan_id":"cebpf4jnsgd1na2vs0mg"},{"bike_id":"46686b70-f375-4947-b209-2f4548c2edcf","system_id":"levelo_inurba_marseille","lat":43.28908,"lon":5.39445,"is_reserved":false,"is_disabled":true,"rental_uris":{"android":"levelo://app?vid=46686b70-f375-4947-b209-2f4548c2edcf","ios":"levelo://app?vid=46686b70-f375-4947-b209-2f4548c2edcf"},"vehicle_type_id":"4","last_reported":1737212851,"current_range_meters":0,"station_id":"","pricing_plan_id":"cebpf4jnsgd1na2vs0mg"},{"bike_id":"262e86fe-54fc-4a4d-b78f-18e3b3295cb4","system_id":"levelo_inurba_marseille","lat":43.29283,"lon":5.40116,"is_reserved":false,"is_disabled":false,"rental_uris":{"android":"levelo://app?vid=262e86fe-54fc-4a4d-b78f-18e3b3295cb4","ios":"levelo://app?vid=262e86fe-54fc-4a4d-b78f-18e3b3295cb4"},"vehicle_type_id":"4","last_reported":1737212851,"current_range_meters":31200,"station_id":"ce4bh312rcd13ifvqdk0","pricing_plan_id":"cebpf4jnsgd1na2vs0mg"},{"bike_id":"b05ae610-20c1-45a1-b652-b1686c6a21ba","system_id":"levelo_inurba_marseille","lat":43.32287,"lon":5.38239,"is_reserved":false,"is_disabled":false,"rental_uris":{"android":"levelo://app?vid=b05ae610-20c1-45a1-b652-b1686c6a21ba","ios":"levelo://app?vid=b05ae610-20c1-45a1-b652-b1686c6a21ba"},"vehicle_type_id":"4","last_reported":1737212851,"current_range_meters":38800,"station_id":"ce4bhr12rcd13ifvqhqg","pricing_plan_id":"cebpf4jnsgd1na2vs0mg"},{"bike_id":"cf798369-c278-4282-9a3c-5e6608aef886","system_id":"levelo_inurba_marseille","lat":43.28639,"lon":5.35087,"is_reserved":false,"is_disabled":false,"rental_uris":{"android":"levelo://app?vid=cf798369-c278-4282-9a3c-5e6608aef886","ios":"levelo://app?vid=cf798369-c278-4282-9a3c-5e6608aef886"},"vehicle_type_id":"4","last_reported":1737212851,"current_range_meters":6400,"station_id":"ce4bhch2rcd13ifvqeug","pricing_plan_id":"cebpf4jnsgd1na2vs0mg"},{"bike_id":"88107240-698f-46e7-899d-3afa69a5d965","system_id":"levelo_inurba_marseille","lat":43.27363,"lon":5.36214,"is_reserved":false,"is_disabled":false,"rental_uris":{"android":"levelo://app?vid=88107240-698f-46e7-899d-3afa69a5d965","ios":"levelo://app?vid=88107240-698f-46e7-899d-3afa69a5d965"},"vehicle_type_id":"4","last_reported":1737212851,"current_range_meters":38800,"station_id":"ce4bhbh2rcd13ifvqeo0","pricing_plan_id":"cebpf4jnsgd1na2vs0mg"},{"bike_id":"419580a6-846e-418d-bf80-80c3c3e2dcb2","system_id":"levelo_inurba_marseille","lat":43.27193,"lon":5.39183,"is_reserved":false,"is_disabled":true,"rental_uris":{"android":"levelo://app?vid=419580a6-846e-418d-bf80-80c3c3e2dcb2","ios":"levelo://app?vid=419580a6-846e-418d-bf80-80c3c3e2dcb2"},"vehicle_type_id":"4","last_reported":1737212851,"current_range_meters":0,"station_id":"ce4bhhp2rcd13ifvqfm0","pricing_plan_id":"cebpf4jnsgd1na2vs0mg"},{"bike_id":"a502fac6-fc2c-47d3-b5a0-b0b0d12c1a71","system_id":"levelo_inurba_marseille","lat":43.30782,"lon":5.38133,"is_reserved":false,"is_disabled":true,"rental_uris":{"android":"levelo://app?vid=a502fac6-fc2c-47d3-b5a0-b0b0d12c1a71","ios":"levelo://app?vid=a502fac6-fc2c-47d3-b5a0-b0b0d12c1a71"},"vehicle_type_id":"4","last_reported":1737212851,"current_range_meters":6000,"station_id":"ce4bgt12rcd13ifvqce0","pricing_plan_id":"cebpf4jnsgd1na2vs0mg"},{"bike_id":"683d0ccb-dbf2-4818-92a9-2410829c3baf","system_id":"levelo_inurba_marseille","lat":43.26684,"lon":5.38272,"is_reserved":false,"is_disabled":false,"rental_uris":{"android":"levelo://app?vid=683d0ccb-dbf2-4818-92a9-2410829c3baf","ios":"levelo://app?vid=683d0ccb-dbf2-4818-92a9-2410829c3baf"},"vehicle_type_id":"4","last_reported":1737212851,"current_range_meters":39200,"station_id":"ce4bhg92rcd13ifvqf90","pricing_plan_id":"cebpf4jnsgd1na2vs0mg"},{"bike_id":"aee77450-e637-4195-bb0f-578307372c59","system_id":"levelo_inurba_marseille","lat":43.29908,"lon":5.43668,"is_reserved":false,"is_disabled":false,"rental_uris":{"android":"levelo://app?vid=aee77450-e637-4195-bb0f-578307372c59","ios":"levelo://app?vid=aee77450-e637-4195-bb0f-578307372c59"},"vehicle_type_id":"4","last_reported":1737212851,"current_range_meters":37600,"station_id":"ce4bhpp2rcd13ifvqhfg","pricing_plan_id":"cebpf4jnsgd1na2vs0mg"},{"bike_id":"b09b829f-87da-4ab6-8df2-2a475df7d767","system_id":"levelo_inurba_marseille","lat":43.2963,"lon":5.40599,"is_reserved":false,"is_disabled":false,"rental_uris":{"android":"levelo://app?vid=b09b829f-87da-4ab6-8df2-2a475df7d767","ios":"levelo://app?vid=b09b829f-87da-4ab6-8df2-2a475df7d767"},"vehicle_type_id":"4","last_reported":1737212851,"current_range_meters":30000,"station_id":"ce4bh0h2rcd13ifvqd60","pricing_plan_id":"cebpf4jnsgd1na2vs0mg"},{"bike_id":"37173876-58c7-4fd9-bb0e-3f38d9f7516f","system_id":"levelo_inurba_marseille","lat":43.30195,"lon":5.36622,"is_reserved":false,"is_disabled":false,"rental_uris":{"android":"levelo://app?vid=37173876-58c7-4fd9-bb0e-3f38d9f7516f","ios":"levelo://app?vid=37173876-58c7-4fd9-bb0e-3f38d9f7516f"},"vehicle_type_id":"4","last_reported":1737212851,"current_range_meters":38800,"station_id":"ce4bgrh2rcd13ifvqc8g","pricing_plan_id":"cebpf4jnsgd1na2vs0mg"},{"bike_id":"6870a9e0-7988-452a-a0a6-84e136278682","system_id":"levelo_inurba_marseille","lat":43.26548,"lon":5.37258,"is_reserved":false,"is_disabled":false,"rental_uris":{"android":"levelo://app?vid=6870a9e0-7988-452a-a0a6-84e136278682","ios":"levelo://app?vid=6870a9e0-7988-452a-a0a6-84e136278682"},"vehicle_type_id":"4","last_reported":1737212851,"current_range_meters":37600,"station_id":"ce4bhg12rcd13ifvqf70","pricing_plan_id":"cebpf4jnsgd1na2vs0mg"},{"bike_id":"1e537b32-bc35-4597-af4f-cc9ba8c53f36","system_id":"levelo_inurba_marseille","lat":43.31492,"lon":5.37306,"is_reserved":false,"is_disabled":false,"rental_uris":{"android":"levelo://app?vid=1e537b32-bc35-4597-af4f-cc9ba8c53f36","ios":"levelo://app?vid=1e537b32-bc35-4597-af4f-cc9ba8c53f36"},"vehicle_type_id":"4","last_reported":1737212851,"current_range_meters":38800,"station_id":"ce4bgt12rcd13ifvqcd0","pricing_plan_id":"cebpf4jnsgd1na2vs0mg"},{"bike_id":"e4e5bcf0-5468-40ff-87a7-52b8b088d536","system_id":"levelo_inurba_marseille","lat":43.31115,"lon":5.37769,"is_reserved":false,"is_disabled":false,"rental_uris":{"android":"levelo://app?vid=e4e5bcf0-5468-40ff-87a7-52b8b088d536","ios":"levelo://app?vid=e4e5bcf0-5468-40ff-87a7-52b8b088d536"},"vehicle_type_id":"4","last_reported":1737212851,"current_range_meters":20000,"station_id":"ce4bgt92rcd13ifvqcg0","pricing_plan_id":"cebpf4jnsgd1na2vs0mg"},{"bike_id":"d1d630df-c8e5-4660-8552-fb3c8dba2c28","system_id":"levelo_inurba_marseille","lat":43.2657,"lon":5.37294,"is_reserved":false,"is_disabled":false,"rental_uris":{"android":"levelo://app?vid=d1d630df-c8e5-4660-8552-fb3c8dba2c28","ios":"levelo://app?vid=d1d630df-c8e5-4660-8552-fb3c8dba2c28"},"vehicle_type_id":"4","last_reported":1737212851,"current_range_meters":26800,"station_id":"ce4bhg12rcd13ifvqf70","pricing_plan_id":"cebpf4jnsgd1na2vs0mg"},{"bike_id":"c438e194-511e-48ed-aea6-1e0eb44263ee","system_id":"levelo_inurba_marseille","lat":43.29371,"lon":5.37837,"is_reserved":false,"is_disabled":false,"rental_uris":{"android":"levelo://app?vid=c438e194-511e-48ed-aea6-1e0eb44263ee","ios":"levelo://app?vid=c438e194-511e-48ed-aea6-1e0eb44263ee"},"vehicle_type_id":"4","last_reported":1737212851,"current_range_meters":8400,"station_id":"ce4bgjh2rcd13ifvqbf0","pricing_plan_id":"cebpf4jnsgd1na2vs0mg"},{"bike_id":"bac5d43b-64fb-4d8b-b2d9-3516b095206a","system_id":"levelo_inurba_marseille","lat":43.29366,"lon":5.37844,"is_reserved":false,"is_disabled":false,"rental_uris":{"android":"levelo://app?vid=bac5d43b-64fb-4d8b-b2d9-3516b095206a","ios":"levelo://app?vid=bac5d43b-64fb-4d8b-b2d9-3516b095206a"},"vehicle_type_id":"4","last_reported":1737212851,"current_range_meters":22000,"station_id":"ce4bgjh2rcd13ifvqbf0","pricing_plan_id":"cebpf4jnsgd1na2vs0mg"},{"bike_id":"f252ce97-6112-4783-a58a-d2ea9dcec110","system_id":"levelo_inurba_marseille","lat":43.25872,"lon":5.399,"is_reserved":false,"is_disabled":false,"rental_uris":{"android":"levelo://app?vid=f252ce97-6112-4783-a58a-d2ea9dcec110","ios":"levelo://app?vid=f252ce97-6112-4783-a58a-d2ea9dcec110"},"vehicle_type_id":"4","last_reported":1737212851,"current_range_meters":36400,"station_id":"ce4bhl92rcd13ifvqghg","pricing_plan_id":"cebpf4jnsgd1na2vs0mg"},{"bike_id":"89e5abf9-db11-4176-8d87-4ded95733757","system_id":"levelo_inurba_marseille","lat":43.30463,"lon":5.37904,"is_reserved":false,"is_disabled":false,"rental_uris":{"android":"levelo://app?vid=89e5abf9-db11-4176-8d87-4ded95733757","ios":"levelo://app?vid=89e5abf9-db11-4176-8d87-4ded95733757"},"vehicle_type_id":"4","last_reported":1737212851,"current_range_meters":14800,"station_id":"ce4bgup2rcd13ifvqcn0","pricing_plan_id":"cebpf4jnsgd1na2vs0mg"},{"bike_id":"ee76e385-dc29-4ac5-8128-a5afbe69cc79","system_id":"levelo_inurba_marseille","lat":43.25089,"lon":5.39515,"is_reserved":false,"is_disabled":false,"rental_uris":{"android":"levelo://app?vid=ee76e385-dc29-4ac5-8128-a5afbe69cc79","ios":"levelo://app?vid=ee76e385-dc29-4ac5-8128-a5afbe69cc79"},"vehicle_type_id":"4","last_reported":1737212851,"current_range_meters":38800,"station_id":"ce4bhm12rcd13ifvqgkg","pricing_plan_id":"cebpf4jnsgd1na2vs0mg"},{"bike_id":"dd52b09a-79f9-487d-b6ef-08b6d8a6e73b","system_id":"levelo_inurba_marseille","lat":43.27495,"lon":5.42453,"is_reserved":false,"is_disabled":false,"rental_uris":{"android":"levelo://app?vid=dd52b09a-79f9-487d-b6ef-08b6d8a6e73b","ios":"levelo://app?vid=dd52b09a-79f9-487d-b6ef-08b6d8a6e73b"},"vehicle_type_id":"4","last_reported":1737212851,"current_range_meters":23200,"station_id":"ce4bhn92rcd13ifvqgrg","pricing_plan_id":"cebpf4jnsgd1na2vs0mg"},{"bike_id":"c73224c5-8662-473f-8844-f010af6d2952","system_id":"levelo_inurba_marseille","lat":43.27186,"lon":5.41004,"is_reserved":false,"is_disabled":true,"rental_uris":{"android":"levelo://app?vid=c73224c5-8662-473f-8844-f010af6d2952","ios":"levelo://app?vid=c73224c5-8662-473f-8844-f010af6d2952"},"vehicle_type_id":"4","last_reported":1737212851,"current_range_meters":24000,"station_id":"ce4bhl12rcd13ifvqgf0","pricing_plan_id":"cebpf4jnsgd1na2vs0mg"},{"bike_id":"95b517d0-9dcf-47f9-8053-773bec6e6a69","system_id":"levelo_inurba_marseille","lat":43.26685,"lon":5.39524,"is_reserved":false,"is_disabled":false,"rental_uris":{"android":"levelo://app?vid=95b517d0-9dcf-47f9-8053-773bec6e6a69","ios":"levelo://app?vid=95b517d0-9dcf-47f9-8053-773bec6e6a69"},"vehicle_type_id":"4","last_reported":1737212851,"current_range_meters":16800,"station_id":"","pricing_plan_id":"cebpf4jnsgd1na2vs0mg"},{"bike_id":"aee46743-f0f7-4648-88e1-fa3d3a7aa9c0","system_id":"levelo_inurba_marseille","lat":43.25078,"lon":5.39502,"is_reserved":false,"is_disabled":false,"rental_uris":{"android":"levelo://app?vid=aee46743-f0f7-4648-88e1-fa3d3a7aa9c0","ios":"levelo://app?vid=aee46743-f0f7-4648-88e1-fa3d3a7aa9c0"},"vehicle_type_id":"4","last_reported":1737212851,"current_range_meters":24400,"station_id":"ce4bhm12rcd13ifvqgkg","pricing_plan_id":"cebpf4jnsgd1na2vs0mg"},{"bike_id":"426c6dbb-f325-4738-906d-29242f82afb0","system_id":"levelo_inurba_marseille","lat":43.31347,"lon":5.36695,"is_reserved":false,"is_disabled":false,"rental_uris":{"android":"levelo://app?vid=426c6dbb-f325-4738-906d-29242f82afb0","ios":"levelo://app?vid=426c6dbb-f325-4738-906d-29242f82afb0"},"vehicle_type_id":"4","last_reported":1737212851,"current_range_meters":4000,"station_id":"ce4bgr92rcd13ifvqc6g","pricing_plan_id":"cebpf4jnsgd1na2vs0mg"},{"bike_id":"62dd85d5-a859-4d32-af93-cc5bd8260760","system_id":"levelo_inurba_marseille","lat":43.30534,"lon":5.36699,"is_reserved":false,"is_disabled":false,"rental_uris":{"android":"levelo://app?vid=62dd85d5-a859-4d32-af93-cc5bd8260760","ios":"levelo://app?vid=62dd85d5-a859-4d32-af93-cc5bd8260760"},"vehicle_type_id":"4","last_reported":1737212851,"current_range_meters":38000,"station_id":"ce4bgrp2rcd13ifvqc9g","pricing_plan_id":"cebpf4jnsgd1na2vs0mg"},{"bike_id":"702d477f-58b0-4e53-9e19-be7bbb68bee3","system_id":"levelo_inurba_marseille","lat":43.29486,"lon":5.38607,"is_reserved":false,"is_disabled":true,"rental_uris":{"android":"levelo://app?vid=702d477f-58b0-4e53-9e19-be7bbb68bee3","ios":"levelo://app?vid=702d477f-58b0-4e53-9e19-be7bbb68bee3"},"vehicle_type_id":"4","last_reported":1737212851,"current_range_meters":0,"station_id":"","pricing_plan_id":"cebpf4jnsgd1na2vs0mg"},{"bike_id":"e82620b5-7f3c-4cc4-b782-051033c05d2c","system_id":"levelo_inurba_marseille","lat":43.2937,"lon":5.37836,"is_reserved":false,"is_disabled":false,"rental_uris":{"android":"levelo://app?vid=e82620b5-7f3c-4cc4-b782-051033c05d2c","ios":"levelo://app?vid=e82620b5-7f3c-4cc4-b782-051033c05d2c"},"vehicle_type_id":"4","last_reported":1737212851,"current_range_meters":5600,"station_id":"ce4bgjh2rcd13ifvqbf0","pricing_plan_id":"cebpf4jnsgd1na2vs0mg"},{"bike_id":"527c23cf-e193-4b3b-b4e9-bc9d0d5bc833","system_id":"levelo_inurba_marseille","lat":43.27331,"lon":5.39093,"is_reserved":false,"is_disabled":false,"rental_uris":{"android":"levelo://app?vid=527c23cf-e193-4b3b-b4e9-bc9d0d5bc833","ios":"levelo://app?vid=527c23cf-e193-4b3b-b4e9-bc9d0d5bc833"},"vehicle_type_id":"4","last_reported":1737212851,"current_range_meters":10000,"station_id":"ce4bhgp2rcd13ifvqfe0","pricing_plan_id":"cebpf4jnsgd1na2vs0mg"},{"bike_id":"fa2a3024-9782-4f34-ab03-ccd979dd6929","system_id":"levelo_inurba_marseille","lat":43.28859,"lon":5.35851,"is_reserved":false,"is_disabled":false,"rental_uris":{"android":"levelo://app?vid=fa2a3024-9782-4f34-ab03-ccd979dd6929","ios":"levelo://app?vid=fa2a3024-9782-4f34-ab03-ccd979dd6929"},"vehicle_type_id":"4","last_reported":1737212851,"current_range_meters":24400,"station_id":"ce4bhb12rcd13ifvqem0","pricing_plan_id":"cebpf4jnsgd1na2vs0mg"},{"bike_id":"28b14b09-f0da-44a4-850f-2ead80ad7537","system_id":"levelo_inurba_marseille","lat":43.29839,"lon":5.36269,"is_reserved":false,"is_disabled":false,"rental_uris":{"android":"levelo://app?vid=28b14b09-f0da-44a4-850f-2ead80ad7537","ios":"levelo://app?vid=28b14b09-f0da-44a4-850f-2ead80ad7537"},"vehicle_type_id":"4","last_reported":1737212851,"current_range_meters":33200,"station_id":"ce4bgpp2rcd13ifvqc3g","pricing_plan_id":"cebpf4jnsgd1na2vs0mg"},{"bike_id":"8fb0f663-ec5d-49d7-8a72-bfe3f94cb16d","system_id":"levelo_inurba_marseille","lat":43.25081,"lon":5.39523,"is_reserved":false,"is_disabled":false,"rental_uris":{"android":"levelo://app?vid=8fb0f663-ec5d-49d7-8a72-bfe3f94cb16d","ios":"levelo://app?vid=8fb0f663-ec5d-49d7-8a72-bfe3f94cb16d"},"vehicle_type_id":"4","last_reported":1737212851,"current_range_meters":31200,"station_id":"ce4bhm12rcd13ifvqgkg","pricing_plan_id":"cebpf4jnsgd1na2vs0mg"},{"bike_id":"82f8c609-f6ad-4a2a-b796-e258179f4505","system_id":"levelo_inurba_marseille","lat":43.24648,"lon":5.38895,"is_reserved":false,"is_disabled":false,"rental_uris":{"android":"levelo://app?vid=82f8c609-f6ad-4a2a-b796-e258179f4505","ios":"levelo://app?vid=82f8c609-f6ad-4a2a-b796-e258179f4505"},"vehicle_type_id":"4","last_reported":1737212851,"current_range_meters":39200,"station_id":"ce4bhg12rcd13ifvqf60","pricing_plan_id":"cebpf4jnsgd1na2vs0mg"},{"bike_id":"994036af-157a-4481-b51c-d39eb0fced08","system_id":"levelo_inurba_marseille","lat":43.31382,"lon":5.36715,"is_reserved":false,"is_disabled":false,"rental_uris":{"android":"levelo://app?vid=994036af-157a-4481-b51c-d39eb0fced08","ios":"levelo://app?vid=994036af-157a-4481-b51c-d39eb0fced08"},"vehicle_type_id":"4","last_reported":1737212851,"current_range_meters":8800,"station_id":"ce4bgr92rcd13ifvqc6g","pricing_plan_id":"cebpf4jnsgd1na2vs0mg"},{"bike_id":"68676ff0-1a05-48a8-8028-acb9858beb08","system_id":"levelo_inurba_marseille","lat":43.32118,"lon":5.36779,"is_reserved":false,"is_disabled":false,"rental_uris":{"android":"levelo://app?vid=68676ff0-1a05-48a8-8028-acb9858beb08","ios":"levelo://app?vid=68676ff0-1a05-48a8-8028-acb9858beb08"},"vehicle_type_id":"4","last_reported":1737212851,"current_range_meters":26000,"station_id":"ce4bhrh2rcd13ifvqhug","pricing_plan_id":"cebpf4jnsgd1na2vs0mg"},{"bike_id":"a0238efb-ba0a-49d1-9b38-db4e728d95b8","system_id":"levelo_inurba_marseille","lat":43.29243,"lon":5.36072,"is_reserved":false,"is_disabled":false,"rental_uris":{"android":"levelo://app?vid=a0238efb-ba0a-49d1-9b38-db4e728d95b8","ios":"levelo://app?vid=a0238efb-ba0a-49d1-9b38-db4e728d95b8"},"vehicle_type_id":"4","last_reported":1737212851,"current_range_meters":36400,"station_id":"ce4bhbh2rcd13ifvqeqg","pricing_plan_id":"cebpf4jnsgd1na2vs0mg"},{"bike_id":"c839a300-4a99-4bfb-886a-a9bab65ea7d3","system_id":"levelo_inurba_marseille","lat":43.31485,"lon":5.37304,"is_reserved":false,"is_disabled":false,"rental_uris":{"android":"levelo://app?vid=c839a300-4a99-4bfb-886a-a9bab65ea7d3","ios":"levelo://app?vid=c839a300-4a99-4bfb-886a-a9bab65ea7d3"},"vehicle_type_id":"4","last_reported":1737212851,"current_range_meters":36000,"station_id":"ce4bgt12rcd13ifvqcd0","pricing_plan_id":"cebpf4jnsgd1na2vs0mg"},