{"last_updated":1716066372,"ttl":30,"version":"2.2","data":{"bikes":[{"bike_id":"32460bde-8f33-47dd-a2bb-21d9fb813593","system_id":"levelo_inurba_marseille","lat":43.313391,"lon":5.36706,"is_reserved":false,"is_disabled":false,"rental_uris":{"android":"levelo://app?vid=32460bde-8f33-47dd-a2bb-21d9fb813593","ios":"levelo://app?vid=32460bde-8f33-47dd-a2bb-21d9fb813593"},"vehicle_type_id":"4","last_reported":1716066373,"current_range_meters":25200,"station_id":"ce4bgr92rcd13ifvqc6g","pricing_plan_id":"cebpf4jnsgd1na2vs0mg"},{"bike_id":"ac5da85e-4718-4484-a5d6-efff2a2a20bb","system_id":"levelo_inurba_marseille","lat":43.312239,"lon":5.368562,"is_reserved":false,"is_disabled":false,"rental_uris":{"android":"levelo://app?vid=ac5da85e-4718-4484-a5d6-efff2a2a20bb","ios":"levelo://app?vid=ac5da85e-4718-4484-a5d6-efff2a2a20bb"},"vehicle_type_id":"4","last_reported":1716066373,"current_range_meters":800,"station_id":"ce4bgl92rcd13ifvqbq0","pricing_plan_id":"cebpf4jnsgd1na2vs0mg"},{"bike_id":"71c94cc2-aa56-434d-a97e-2ed7ac4c7c4e","system_id":"levelo_inurba_marseille","lat":43.312239,"lon":5.368562,"is_reserved":false,"is_disabled":false,"rental_uris":{"android":"levelo://app?vid=71c94cc2-aa56-434d-a97e-2ed7ac4c7c4e","ios":"levelo://app?vid=71c94cc2-aa56-434d-a97e-2ed7ac4c7c4e"},"vehicle_type_id":"4","last_reported":1716066373,"current_range_meters":0,"station_id":"ce4bgl92rcd13ifvqbq0","pricing_plan_id":"cebpf4jnsgd1na2vs0mg"},{"bike_id":"72299425-d4c9-4d02-aeae-520d5e142803","system_id":"levelo_inurba_marseille","lat":43.312239,"lon":5.368562,"is_reserved":false,"is_disabled":false,"rental_uris":{"android":"levelo://app?vid=72299425-d4c9-4d02-aeae-520d5e142803","ios":"levelo://app?vid=72299425-d4c9-4d02-aeae-520d5e142803"},"vehicle_type_id":"4","last_reported":1716066373,"current_range_meters":6400,"station_id":"ce4bgl92rcd13ifvqbq0","pricing_plan_id":"cebpf4jnsgd1na2vs0mg"},{"bike_id":"f3442a05-dad2-4b65-ae03-df4bfce011f0","system_id":"levelo_inurba_marseille","lat":43.312218,"lon":5.368499,"is_reserved":false,"is_disabled":false,"rental_uris":{"android":"levelo://app?vid=f3442a05-dad2-4b65-ae03-df4bfce011f0","ios":"levelo://app?vid=f3442a05-dad2-4b65-ae03-df4bfce011f0"},"vehicle_type_id":"4","last_reported":1716066373,"current_range_meters":800,"station_id":"","pricing_plan_id":"cebpf4jnsgd1na2vs0mg"},{"bike_id":"dad177d7-0b62-4783-a8b3-0dac420a0529","system_id":"levelo_inurba_marseille","lat":43.312239,"lon":5.368562,"is_reserved":false,"is_disabled":false,"rental_uris":{"android":"levelo://app?vid=dad177d7-0b62-4783-a8b3-0dac420a0529","ios":"levelo://app?vid=dad177d7-0b62-4783-a8b3-0dac420a0529"},"vehicle_type_id":"4","last_reported":1716066373,"current_range_meters":9200,"station_id":"ce4bgl92rcd13ifvqbq0","pricing_plan_id":"cebpf4jnsgd1na2vs0mg"},{"bike_id":"2b0749b7-532b-4f8f-bc5b-17b7e86944c2","system_id":"levelo_inurba_marseille","lat":43.312239,"lon":5.368562,"is_reserved":false,"is_disabled":false,"rental_uris":{"android":"levelo://app?vid=2b0749b7-532b-4f8f-bc5b-17b7e86944c2","ios":"levelo://app?vid=2b0749b7-532b-4f8f-bc5b-17b7e86944c2"},"vehicle_type_id":"4","last_reported":1716066373,"current_range_meters":4000,"station_id":"ce4bgl92rcd13ifvqbq0","pricing_plan_id":"cebpf4jnsgd1na2vs0mg"},{"bike_id":"e3c3478b-cc58-4870-b7e1-e3718dafcf32","system_id":"levelo_inurba_marseille","lat":43.312239,"lon":5.368562,"is_reserved":false,"is_disabled":false,"rental_uris":{"android":"levelo://app?vid=e3c3478b-cc58-4870-b7e1-e3718dafcf32","ios":"levelo://app?vid=e3c3478b-cc58-4870-b7e1-e3718dafcf32"},"vehicle_type_id":"4","last_reported":1716066373,"current_range_meters":14400,"station_id":"ce4bgl92rcd13ifvqbq0","pricing_plan_id":"cebpf4jnsgd1na2vs0mg"},{"bike_id":"c2d9cd61-d03b-4e7b-8334-6f3865033b05","system_id":"levelo_inurba_marseille","lat":43.312239,"lon":5.368562,"is_reserved":false,"is_disabled":false,"rental_uris":{"android":"levelo://app?vid=c2d9cd61-d03b-4e7b-8334-6f3865033b05","ios":"levelo://app?vid=c2d9cd61-d03b-4e7b-8334-6f3865033b05"},"vehicle_type_id":"4","last_reported":1716066373,"current_range_meters":0,"station_id":"ce4bgl92rcd13ifvqbq0","pricing_plan_id":"cebpf4jnsgd1na2vs0mg"},{"bike_id":"b7d69b16-5f0e-4b6e-89ff-1a630de438bb","system_id":"levelo_inurba_marseille","lat":43.31466,"lon":5.37016,"is_reserved":false,"is_disabled":false,"rental_uris":{"android":"levelo://app?vid=b7d69b16-5f0e-4b6e-89ff-1a630de438bb","ios":"levelo://app?vid=b7d69b16-5f0e-4b6e-89ff-1a630de438bb"},"vehicle_type_id":"4","last_reported":1716066373,"current_range_meters":18000,"station_id":"","pricing_plan_id":"cebpf4jnsgd1na2vs0mg"},{"bike_id":"d30c5d4b-1960-45b3-8815-7332204126a1","system_id":"levelo_inurba_marseille","lat":43.309076,"lon":5.368465,"is_reserved":false,"is_disabled":false,"rental_uris":{"android":"levelo://app?vid=d30c5d4b-1960-45b3-8815-7332204126a1","ios":"levelo://app?vid=d30c5d4b-1960-45b3-8815-7332204126a1"},"vehicle_type_id":"4","last_reported":1716066373,"current_range_meters":2800,"station_id":"ce4bgn92rcd13ifvqbvg","pricing_plan_id":"cebpf4jnsgd1na2vs0mg"},{"bike_id":"480ebdd1-0729-4862-ae1a-b83837e29fe9","system_id":"levelo_inurba_marseille","lat":43.309076,"lon":5.368465,"is_reserved":false,"is_disabled":false,"rental_uris":{"android":"levelo://app?vid=480ebdd1-0729-4862-ae1a-b83837e29fe9","ios":"levelo://app?vid=480ebdd1-0729-4862-ae1a-b83837e29fe9"},"vehicle_type_id":"4","last_reported":1716066373,"current_range_meters":25200,"station_id":"ce4bgn92rcd13ifvqbvg","pricing_plan_id":"cebpf4jnsgd1na2vs0mg"},{"bike_id":"2c18b6af-4cff-4cdb-a9e2-37f9b2f01964","system_id":"levelo_inurba_marseille","lat":43.30903,"lon":5.36848,"is_reserved":false,"is_disabled":false,"rental_uris":{"android":"levelo://app?vid=2c18b6af-4cff-4cdb-a9e2-37f9b2f01964","ios":"levelo://app?vid=2c18b6af-4cff-4cdb-a9e2-37f9b2f01964"},"vehicle_type_id":"4","last_reported":1716066373,"current_range_meters":0,"station_id":"ce4bgn92rcd13ifvqbvg","pricing_plan_id":"cebpf4jnsgd1na2vs0mg"},{"bike_id":"afab2cc5-130e-4bbc-976b-ed8f91749591","system_id":"levelo_inurba_marseille","lat":43.309431,"lon":5.37091,"is_reserved":false,"is_disabled":false,"rental_uris":{"android":"levelo://app?vid=afab2cc5-130e-4bbc-976b-ed8f91749591","ios":"levelo://app?vid=afab2cc5-130e-4bbc-976b-ed8f91749591"},"vehicle_type_id":"4","last_reported":1716066373,"current_range_meters":21600,"station_id":"","pricing_plan_id":"cebpf4jnsgd1na2vs0mg"},{"bike_id":"d4ad029b-8068-495f-97fc-176655e6dee7","system_id":"levelo_inurba_marseille","lat":43.309039,"lon":5.371797,"is_reserved":false,"is_disabled":false,"rental_uris":{"android":"levelo://app?vid=d4ad029b-8068-495f-97fc-176655e6dee7","ios":"levelo://app?vid=d4ad029b-8068-495f-97fc-176655e6dee7"},"vehicle_type_id":"4","last_reported":1716066373,"current_range_meters":7600,"station_id":"ce4bguh2rcd13ifvqckg","pricing_plan_id":"cebpf4jnsgd1na2vs0mg"},{"bike_id":"787b6b24-3260-47f8-9f3f-0d35a5ff0081","system_id":"levelo_inurba_marseille","lat":43.314811,"lon":5.373103,"is_reserved":false,"is_disabled":false,"rental_uris":{"android":"levelo://app?vid=787b6b24-3260-47f8-9f3f-0d35a5ff0081","ios":"levelo://app?vid=787b6b24-3260-47f8-9f3f-0d35a5ff0081"},"vehicle_type_id":"4","last_reported":1716066373,"current_range_meters":10800,"station_id":"ce4bgt12rcd13ifvqcd0","pricing_plan_id":"cebpf4jnsgd1na2vs0mg"},{"bike_id":"8a52e9a8-881b-4e09-8ba1-0ef938bfdff1","system_id":"levelo_inurba_marseille","lat":43.314811,"lon":5.373104,"is_reserved":false,"is_disabled":false,"rental_uris":{"android":"levelo://app?vid=8a52e9a8-881b-4e09-8ba1-0ef938bfdff1","ios":"levelo://app?vid=8a52e9a8-881b-4e09-8ba1-0ef938bfdff1"},"vehicle_type_id":"4","last_reported":1716066373,"current_range_meters":13600,"station_id":"ce4bgt12rcd13ifvqcd0","pricing_plan_id":"cebpf4jnsgd1na2vs0mg"},{"bike_id":"17454d5f-221f-4f19-a62f-01664d81abdb","system_id":"levelo_inurba_marseille","lat":43.314811,"lon":5.373104,"is_reserved":false,"is_disabled":false,"rental_uris":{"android":"levelo://app?vid=17454d5f-221f-4f19-a62f-01664d81abdb","ios":"levelo://app?vid=17454d5f-221f-4f19-a62f-01664d81abdb"},"vehicle_type_id":"4","last_reported":1716066373,"current_range_meters":0,"station_id":"ce4bgt12rcd13ifvqcd0","pricing_plan_id":"cebpf4jnsgd1na2vs0mg"},{"bike_id":"6896e7b0-894f-4c52-81a2-7ca575b212cf","system_id":"levelo_inurba_marseille","lat":43.31501,"lon":5.37308,"is_reserved":false,"is_disabled":false,"rental_uris":{"android":"levelo://app?vid=6896e7b0-894f-4c52-81a2-7ca575b212cf","ios":"levelo://app?vid=6896e7b0-894f-4c52-81a2-7ca575b212cf"},"vehicle_type_id":"4","last_reported":1716066373,"current_range_meters":0,"station_id":"ce4bgt12rcd13ifvqcd0","pricing_plan_id":"cebpf4jnsgd1na2vs0mg"},{"bike_id":"1f17e28c-f86f-4bf2-bf50-97a31eb77497","system_id":"levelo_inurba_marseille","lat":43.3089,"lon":5.37186,"is_reserved":false,"is_disabled":false,"rental_uris":{"android":"levelo://app?vid=1f17e28c-f86f-4bf2-bf50-97a31eb77497","ios":"levelo://app?vid=1f17e28c-f86f-4bf2-bf50-97a31eb77497"},"vehicle_type_id":"4","last_reported":1716066373,"current_range_meters":18000,"station_id":"ce4bguh2rcd13ifvqckg","pricing_plan_id":"cebpf4jnsgd1na2vs0mg"},{"bike_id":"e2ac7787-3870-4a2f-8ae5-ee4ddb777977","system_id":"levelo_inurba_marseille","lat":43.309039,"lon":5.371797,"is_reserved":false,"is_disabled":false,"rental_uris":{"android":"levelo://app?vid=e2ac7787-3870-4a2f-8ae5-ee4ddb777977","ios":"levelo://app?vid=e2ac7787-3870-4a2f-8ae5-ee4ddb777977"},"vehicle_type_id":"4","last_reported":1716066373,"current_range_meters":15600,"station_id":"ce4bguh2rcd13ifvqckg","pricing_plan_id":"cebpf4jnsgd1na2vs0mg"},{"bike_id":"d8b0a8fb-d09d-46e3-b2ae-d2987c7e1edb","system_id":"levelo_inurba_marseille","lat":43.309034,"lon":5.371783,"is_reserved":false,"is_disabled":false,"rental_uris":{"android":"levelo://app?vid=d8b0a8fb-d09d-46e3-b2ae-d2987c7e1edb","ios":"levelo://app?vid=d8b0a8fb-d09d-46e3-b2ae-d2987c7e1edb"},"vehicle_type_id":"4","last_reported":1716066373,"current_range_meters":10000,"station_id":"ce4bguh2rcd13ifvqckg","pricing_plan_id":"cebpf4jnsgd1na2vs0mg"},{"bike_id":"aad6da72-0fc9-4fd6-a745-dd070d314a87","system_id":"levelo_inurba_marseille","lat":43.309034,"lon":5.371783,"is_reserved":false,"is_disabled":false,"rental_uris":{"android":"levelo://app?vid=aad6da72-0fc9-4fd6-a745-dd070d314a87","ios":"levelo://app?vid=aad6da72-0fc9-4fd6-a745-dd070d314a87"},"vehicle_type_id":"4","last_reported":1716066373,"current_range_meters":4000,"station_id":"ce4bguh2rcd13ifvqckg","pricing_plan_id":"cebpf4jnsgd1na2vs0mg"},{"bike_id":"20a4afcb-2be0-490b-9d80-cab444b06256","system_id":"levelo_inurba_marseille","lat":43.309039,"lon":5.371797,"is_reserved":false,"is_disabled":false,"rental_uris":{"android":"levelo://app?vid=20a4afcb-2be0-490b-9d80-cab444b06256","ios":"levelo://app?vid=20a4afcb-2be0-490b-9d80-cab444b06256"},"vehicle_type_id":"4","last_reported":1716066373,"current_range_meters":0,"station_id":"ce4bguh2rcd13ifvqckg","pricing_plan_id":"cebpf4jnsgd1na2vs0mg"},{"bike_id":"a277fe65-7ca8-46b0-927f-8ef2dae50fa5","system_id":"levelo_inurba_marseille","lat":43.309034,"lon":5.371783,"is_reserved":false,"is_disabled":false,"rental_uris":{"android":"levelo://app?vid=a277fe65-7ca8-46b0-927f-8ef2dae50fa5","ios":"levelo://app?vid=a277fe65-7ca8-46b0-927f-8ef2dae50fa5"},"vehicle_type_id":"4","last_reported":1716066373,"current_range_meters":1600,"station_id":"ce4bguh2rcd13ifvqckg","pricing_plan_id":"cebpf4jnsgd1na2vs0mg"},{"bike_id":"b1f4511b-85b0-4f06-b2d0-a5c4b9d1b39c","system_id":"levelo_inurba_marseille","lat":43.305989,"lon":5.37225,"is_reserved":false,"is_disabled":false,"rental_uris":{"android":"levelo://app?vid=b1f4511b-85b0-4f06-b2d0-a5c4b9d1b39c","ios":"levelo://app?vid=b1f4511b-85b0-4f06-b2d0-a5c4b9d1b39c"},"vehicle_type_id":"4","last_reported":1716066373,"current_range_meters":11200,"station_id":"ce4bgqh2rcd13ifvqc4g","pricing_plan_id":"cebpf4jnsgd1na2vs0mg"},{"bike_id":"3b37f204-d93e-4524-be20-618943939ac8","system_id":"levelo_inurba_marseille","lat":43.305989,"lon":5.37225,"is_reserved":false,"is_disabled":false,"rental_uris":{"android":"levelo://app?vid=3b37f204-d93e-4524-be20-618943939ac8","ios":"levelo://app?vid=3b37f204-d93e-4524-be20-618943939ac8"},"vehicle_type_id":"4","last_reported":1716066373,"current_range_meters":8000,"station_id":"ce4bgqh2rcd13ifvqc4g","pricing_plan_id":"cebpf4jnsgd1na2vs0mg"},{"bike_id":"751b182a-c31b-4877-925e-2cbaba6ff656","system_id":"levelo_inurba_marseille","lat":43.311125,"lon":5.377624,"is_reserved":false,"is_disabled":false,"rental_uris":{"android":"levelo://app?vid=751b182a-c31b-4877-925e-2cbaba6ff656","ios":"levelo://app?vid=751b182a-c31b-4877-925e-2cbaba6ff656"},"vehicle_type_id":"4","last_reported":1716066373,"current_range_meters":0,"station_id":"ce4bgt92rcd13ifvqcg0","pricing_plan_id":"cebpf4jnsgd1na2vs0mg"},{"bike_id":"62c01425-2f36-468e-92a9-10bdd9088916","system_id":"levelo_inurba_marseille","lat":43.30593,"lon":5.37217,"is_reserved":false,"is_disabled":false,"rental_uris":{"android":"levelo://app?vid=62c01425-2f36-468e-92a9-10bdd9088916","ios":"levelo://app?vid=62c01425-2f36-468e-92a9-10bdd9088916"},"vehicle_type_id":"4","last_reported":1716066373,"current_range_meters":0,"station_id":"ce4bgqh2rcd13ifvqc4g","pricing_plan_id":"cebpf4jnsgd1na2vs0mg"},{"bike_id":"4126e47f-af1e-444e-aafe-488c1431b435","system_id":"levelo_inurba_marseille","lat":43.31119,"lon":5.37768,"is_reserved":false,"is_disabled":false,"rental_uris":{"android":"levelo://app?vid=4126e47f-af1e-444e-aafe-488c1431b435","ios":"levelo://app?vid=4126e47f-af1e-444e-aafe-488c1431b435"},"vehicle_type_id":"4","last_reported":1716066373,"current_range_meters":0,"station_id":"ce4bgt92rcd13ifvqcg0","pricing_plan_id":"cebpf4jnsgd1na2vs0mg"},{"bike_id":"6e0fde43-152c-4533-876a-7582533449ce","system_id":"levelo_inurba_marseille","lat":43.31119,"lon":5.377755,"is_reserved":false,"is_disabled":false,"rental_uris":{"android":"levelo://app?vid=6e0fde43-152c-4533-876a-7582533449ce","ios":"levelo://app?vid=6e0fde43-152c-4533-876a-7582533449ce"},"vehicle_type_id":"4","last_reported":1716066373,"current_range_meters":15600,"station_id":"ce4bgt92rcd13ifvqcg0","pricing_plan_id":"cebpf4jnsgd1na2vs0mg"},{"bike_id":"a1c31be9-0f09-4fdb-86b4-851b1fe08bf2","system_id":"levelo_inurba_marseille","lat":43.307945,"lon":5.376487,"is_reserved":false,"is_disabled":false,"rental_uris":{"android":"levelo://app?vid=a1c31be9-0f09-4fdb-86b4-851b1fe08bf2","ios":"levelo://app?vid=a1c31be9-0f09-4fdb-86b4-851b1fe08bf2"},"vehicle_type_id":"4","last_reported":1716066373,"current_range_meters":3600,"station_id":"ce4bgv92rcd13ifvqcq0","pricing_plan_id":"cebpf4jnsgd1na2vs0mg"},{"bike_id":"39bbf9f9-5c61-4a44-9968-4a3f9c54234f","system_id":"levelo_inurba_marseille","lat":43.307945,"lon":5.376487,"is_reserved":false,"is_disabled":false,"rental_uris":{"android":"levelo://app?vid=39bbf9f9-5c61-4a44-9968-4a3f9c54234f","ios":"levelo://app?vid=39bbf9f9-5c61-4a44-9968-4a3f9c54234f"},"vehicle_type_id":"4","last_reported":1716066373,"current_range_meters":2800,"station_id":"ce4bgv92rcd13ifvqcq0","pricing_plan_id":"cebpf4jnsgd1na2vs0mg"},{"bike_id":"b9ca5c48-3815-4cb0-adac-75fc24759f33","system_id":"levelo_inurba_marseille","lat":43.307945,"lon":5.376487,"is_reserved":false,"is_disabled":false,"rental_uris":{"android":"levelo://app?vid=b9ca5c48-3815-4cb0-adac-75fc24759f33","ios":"levelo://app?vid=b9ca5c48-3815-4cb0-adac-75fc24759f33"},"vehicle_type_id":"4","last_reported":1716066373,"current_range_meters":3200,"station_id":"ce4bgv92rcd13ifvqcq0","pricing_plan_id":"cebpf4jnsgd1na2vs0mg"},{"bike_id":"a0b8afff-1c00-4395-a324-b1ca6cb8e5f4","system_id":"levelo_inurba_marseille","lat":43.311125,"lon":5.377624,"is_reserved":false,"is_disabled":false,"rental_uris":{"android":"levelo://app?vid=a0b8afff-1c00-4395-a324-b1ca6cb8e5f4","ios":"levelo://app?vid=a0b8afff-1c00-4395-a324-b1ca6cb8e5f4"},"vehicle_type_id":"4","last_reported":1716066373,"current_range_meters":12800,"station_id":"ce4bgt92rcd13ifvqcg0","pricing_plan_id":"cebpf4jnsgd1na2vs0mg"},{"bike_id":"b3ee3a8b-1957-400d-aec8-66daaf21ed5c","system_id":"levelo_inurba_marseille","lat":43.291994,"lon":5.392907,"is_reserved":false,"is_disabled":false,"rental_uris":{"android":"levelo://app?vid=b3ee3a8b-1957-400d-aec8-66daaf21ed5c","ios":"levelo://app?vid=b3ee3a8b-1957-400d-aec8-66daaf21ed5c"},"vehicle_type_id":"4","last_reported":1716066373,"current_range_meters":800,"station_id":"ce4bh192rcd13ifvqdd0","pricing_plan_id":"cebpf4jnsgd1na2vs0mg"},{"bike_id":"9cdaba2b-d2a1-484e-ba3b-1772b04cc7cb","system_id":"levelo_inurba_marseille","lat":43.317075,"lon":5.377367,"is_reserved":false,"is_disabled":false,"rental_uris":{"android":"levelo://app?vid=9cdaba2b-d2a1-484e-ba3b-1772b04cc7cb","ios":"levelo://app?vid=9cdaba2b-d2a1-484e-ba3b-1772b04cc7cb"},"vehicle_type_id":"4","last_reported":1716066373,"current_range_meters":7600,"station_id":"ce4bgth2rcd13ifvqch0","pricing_plan_id":"cebpf4jnsgd1na2vs0mg"},{"bike_id":"0fe0a1a2-f92f-4511-92da-ff718270a92e","system_id":"levelo_inurba_marseille","lat":43.303046,"lon":5.368981,"is_reserved":false,"is_disabled":false,"rental_uris":{"android":"levelo://app?vid=0fe0a1a2-f92f-4511-92da-ff718270a92e","ios":"levelo://app?vid=0fe0a1a2-f92f-4511-92da-ff718270a92e"},"vehicle_type_id":"4","last_reported":1716066373,"current_range_meters":24400,"station_id":"ce4bgqh2rcd13ifvqc5g","pricing_plan_id":"cebpf4jnsgd1na2vs0mg"},{"bike_id":"242ad698-3e35-4bad-ad9e-0c95b7d6e020","system_id":"levelo_inurba_marseille","lat":43.30307,"lon":5.36891,"is_reserved":false,"is_disabled":false,"rental_uris":{"android":"levelo://app?vid=242ad698-3e35-4bad-ad9e-0c95b7d6e020","ios":"levelo://app?vid=242ad698-3e35-4bad-ad9e-0c95b7d6e020"},"vehicle_type_id":"4","last_reported":1716066373,"current_range_meters":0,"station_id":"ce4bgqh2rcd13ifvqc5g","pricing_plan_id":"cebpf4jnsgd1na2vs0mg"},{"bike_id":"f373353e-710a-40e7-913b-24aa89e59942","system_id":"levelo_inurba_marseille","lat":43.315289,"lon":5.380349,"is_reserved":false,"is_disabled":false,"rental_uris":{"android":"levelo://app?vid=f373353e-710a-40e7-913b-24aa89e59942","ios":"levelo://app?vid=f373353e-710a-40e7-913b-24aa89e59942"},"vehicle_type_id":"4","last_reported":1716066373,"current_range_meters":5200,"station_id":"ce4bhsp2rcd13ifvqi50","pricing_plan_id":"cebpf4jnsgd1na2vs0mg"},{"bike_id":"87ddfd39-0212-4e0c-bca8-aefaf7f75343","system_id":"levelo_inurba_marseille","lat":43.301939,"lon":5.366286,"is_reserved":false,"is_disabled":false,"rental_uris":{"android":"levelo://app?vid=87ddfd39-0212-4e0c-bca8-aefaf7f75343","ios":"levelo://app?vid=87ddfd39-0212-4e0c-bca8-aefaf7f75343"},"vehicle_type_id":"4","last_reported":1716066373,"current_range_meters":0,"station_id":"ce4bgrh2rcd13ifvqc8g","pricing_plan_id":"cebpf4jnsgd1na2vs0mg"},{"bike_id":"f8b97189-0238-41c5-b05e-e203b9ac98e9","system_id":"levelo_inurba_marseille","lat":43.301939,"lon":5.366286,"is_reserved":false,"is_disabled":false,"rental_uris":{"android":"levelo://app?vid=f8b97189-0238-41c5-b05e-e203b9ac98e9","ios":"levelo://app?vid=f8b97189-0238-41c5-b05e-e203b9ac98e9"},"vehicle_type_id":"4","last_reported":1716066373,"current_range_meters":4800,"station_id":"ce4bgrh2rcd13ifvqc8g","pricing_plan_id":"cebpf4jnsgd1na2vs0mg"},{"bike_id":"e9d4696c-6ccd-40a2-9248-5508f6c6df57","system_id":"levelo_inurba_marseille","lat":43.301939,"lon":5.366286,"is_reserved":false,"is_disabled":false,"rental_uris":{"android":"levelo://app?vid=e9d4696c-6ccd-40a2-9248-5508f6c6df57","ios":"levelo://app?vid=e9d4696c-6ccd-40a2-9248-5508f6c6df57"},"vehicle_type_id":"4","last_reported":1716066373,"current_range_meters":26800,"station_id":"ce4bgrh2rcd13ifvqc8g","pricing_plan_id":"cebpf4jnsgd1na2vs0mg"},{"bike_id":"c3fe7066-c03d-4f3e-888f-627a25bc018d","system_id":"levelo_inurba_marseille","lat":43.308012,"lon":5.381511,"is_reserved":false,"is_disabled":false,"rental_uris":{"android":"levelo://app?vid=c3fe7066-c03d-4f3e-888f-627a25bc018d","ios":"levelo://app?vid=c3fe7066-c03d-4f3e-888f-627a25bc018d"},"vehicle_type_id":"4","last_reported":1716066373,"current_range_meters":16400,"station_id":"ce4bgt12rcd13ifvqce0","pricing_plan_id":"cebpf4jnsgd1na2vs0mg"},{"bike_id":"97726e02-7b1a-4986-9c5c-8d8b0dca2953","system_id":"levelo_inurba_marseille","lat":43.308012,"lon":5.381511,"is_reserved":false,"is_disabled":false,"rental_uris":{"android":"levelo://app?vid=97726e02-7b1a-4986-9c5c-8d8b0dca2953","ios":"levelo://app?vid=97726e02-7b1a-4986-9c5c-8d8b0dca2953"},"vehicle_type_id":"4","last_reported":1716066373,"current_range_meters":1600,"station_id":"ce4bgt12rcd13ifvqce0","pricing_plan_id":"cebpf4jnsgd1na2vs0mg"},{"bike_id":"69e6664a-a7ad-46b2-b028-f8fb19c1f48f","system_id":"levelo_inurba_marseille","lat":43.304606,"lon":5.379026,"is_reserved":false,"is_disabled":false,"rental_uris":{"android":"levelo://app?vid=69e6664a-a7ad-46b2-b028-f8fb19c1f48f","ios":"levelo://app?vid=69e6664a-a7ad-46b2-b028-f8fb19c1f48f"},"vehicle_type_id":"4","last_reported":1716066373,"current_range_meters":6400,"station_id":"ce4bgup2rcd13ifvqcn0","pricing_plan_id":"cebpf4jnsgd1na2vs0mg"},{"bike_id":"d47d010c-3a1c-4c1d-9c63-89e6f720d51e","system_id":"levelo_inurba_marseille","lat":43.304606,"lon":5.379026,"is_reserved":false,"is_disabled":false,"rental_uris":{"android":"levelo://app?vid=d47d010c-3a1c-4c1d-9c63-89e6f720d51e","ios":"levelo://app?vid=d47d010c-3a1c-4c1d-9c63-89e6f720d51e"},"vehicle_type_id":"4","last_reported":1716066373,"current_range_meters":0,"station_id":"ce4bgup2rcd13ifvqcn0","pricing_plan_id":"cebpf4jnsgd1na2vs0mg"},{"bike_id":"635dd697-af6d-41ea-94e6-8fab6a30191a","system_id":"levelo_inurba_marseille","lat":43.304606,"lon":5.379026,"is_reserved":false,"is_disabled":false,"rental_uris":{"android":"levelo://app?vid=635dd697-af6d-41ea-94e6-8fab6a30191a","ios":"levelo://app?vid=635dd697-af6d-41ea-94e6-8fab6a30191a"},"vehicle_type_id":"4","last_reported":1716066373,"current_range_meters":8800,"station_id":"ce4bgup2rcd13ifvqcn0","pricing_plan_id":"cebpf4jnsgd1na2vs0mg"},{"bike_id":"e2c798d6-0783-401b-b632-e4a3e6db8597","system_id":"levelo_inurba_marseille","lat":43.324771,"lon":5.36557,"is_reserved":false,"is_disabled":false,"rental_uris":{"android":"levelo://app?vid=e2c798d6-0783-401b-b632-e4a3e6db8597","ios":"levelo://app?vid=e2c798d6-0783-401b-b632-e4a3e6db8597"},"vehicle_type_id":"4","last_reported":1716066373,"current_range_meters":400,"station_id":"ce4bhs12rcd13ifvqhvg","pricing_plan_id":"cebpf4jnsgd1na2vs0mg"},{"bike_id":"3ab2bea5-bff6-4e4e-8c16-b0d4aad652b2","system_id":"levelo_inurba_marseille","lat":43.310804,"lon":5.38359,"is_reserved":false,"is_disabled":false,"rental_uris":{"android":"levelo://app?vid=3ab2bea5-bff6-4e4e-8c16-b0d4aad652b2","ios":"levelo://app?vid=3ab2bea5-bff6-4e4e-8c16-b0d4aad652b2"},"vehicle_type_id":"4","last_reported":1716066373,"current_range_meters":5200,"station_id":"ce4bgv92rcd13ifvqcr0","pricing_plan_id":"cebpf4jnsgd1na2vs0mg"},{"bike_id":"b7d08ec8-0b64-4384-af95-6a38ed1b0585","system_id":"levelo_inurba_marseille","lat":43.310804,"lon":5.38359,"is_reserved":false,"is_disabled":false,"rental_uris":{"android":"levelo://app?vid=b7d08ec8-0b64-4384-af95-6a38ed1b0585","ios":"levelo://app?vid=b7d08ec8-0b64-4384-af95-6a38ed1b0585"},"vehicle_type_id":"4","last_reported":1716066373,"current_range_meters":0,"station_id":"ce4bgv92rcd13ifvqcr0","pricing_plan_id":"cebpf4jnsgd1na2vs0mg"},{"bike_id":"6082758c-2ac4-4079-bde4-d3ebd00abd9e","system_id":"levelo_inurba_marseille","lat":43.31074,"lon":5.38358,"is_reserved":false,"is_disabled":false,"rental_uris":{"android":"levelo://app?vid=6082758c-2ac4-4079-bde4-d3ebd00abd9e","ios":"levelo://app?vid=6082758c-2ac4-4079-bde4-d3ebd00abd9e"},"vehicle_type_id":"4","last_reported":1716066373,"current_range_meters":5600,"station_id":"ce4bgv92rcd13ifvqcr0","pricing_plan_id":"cebpf4jnsgd1na2vs0mg"},{"bike_id":"3c9d68b2-7540-496f-9cf3-34860b5246f3","system_id":"levelo_inurba_marseille","lat":43.310804,"lon":5.38359,"is_reserved":false,"is_disabled":false,"rental_uris":{"android":"levelo://app?vid=3c9d68b2-7540-496f-9cf3-34860b5246f3","ios":"levelo://app?vid=3c9d68b2-7540-496f-9cf3-34860b5246f3"},"vehicle_type_id":"4","last_reported":1716066373,"current_range_meters":6400,"station_id":"ce4bgv92rcd13ifvqcr0","pricing_plan_id":"cebpf4jnsgd1na2vs0mg"},{"bike_id":"f0badbc0-2b83-4b11-985d-e23d9aad46a5","system_id":"levelo_inurba_marseille","lat":43.310804,"lon":5.38359,"is_reserved":false,"is_disabled":false,"rental_uris":{"android":"levelo://app?vid=f0badbc0-2b83-4b11-985d-e23d9aad46a5","ios":"levelo://app?vid=f0badbc0-2b83-4b11-985d-e23d9aad46a5"},"vehicle_type_id":"4","last_reported":1716066373,"current_range_meters":22800,"station_id":"ce4bgv92rcd13ifvqcr0","pricing_plan_id":"cebpf4jnsgd1na2vs0mg"},{"bike_id":"bb11bc9b-d510-4bc6-b1e1-f6a931572ba1","system_id":"levelo_inurba_marseille","lat":43.302784,"lon":5.377158,"is_reserved":false,"is_disabled":false,"rental_uris":{"android":"levelo://app?vid=bb11bc9b-d510-4bc6-b1e1-f6a931572ba1","ios":"levelo://app?vid=bb11bc9b-d510-4bc6-b1e1-f6a931572ba1"},"vehicle_type_id":"4","last_reported":1716066373,"current_range_meters":28400,"station_id":"ce4bguh2rcd13ifvqcj0","pricing_plan_id":"cebpf4jnsgd1na2vs0mg"},{"bike_id":"f0350877-1c74-4a5b-97aa-0b384f979342","system_id":"levelo_inurba_marseille","lat":43.301429,"lon":5.37413,"is_reserved":false,"is_disabled":false,"rental_uris":{"android":"levelo://app?vid=f0350877-1c74-4a5b-97aa-0b384f979342","ios":"levelo://app?vid=f0350877-1c74-4a5b-97aa-0b384f979342"},"vehicle_type_id":"4","last_reported":1716066373,"current_range_meters":1600,"station_id":"ce4bgs92rcd13ifvqcc0","pricing_plan_id":"cebpf4jnsgd1na2vs0mg"},{"bike_id":"20177888-8f60-4bfb-95ea-49f59a29b03c","system_id":"levelo_inurba_marseille","lat":43.301429,"lon":5.37413,"is_reserved":false,"is_disabled":false,"rental_uris":{"android":"levelo://app?vid=20177888-8f60-4bfb-95ea-49f59a29b03c","ios":"levelo://app?vid=20177888-8f60-4bfb-95ea-49f59a29b03c"},"vehicle_type_id":"4","last_reported":1716066373,"current_range_meters":0,"station_id":"ce4bgs92rcd13ifvqcc0","pricing_plan_id":"cebpf4jnsgd1na2vs0mg"},{"bike_id":"4e9fbe65-ebb5-4826-86e3-5845c48f289f","system_id":"levelo_inurba_marseille","lat":43.319935,"lon":5.381699,"is_reserved":false,"is_disabled":false,"rental_uris":{"android":"levelo://app?vid=4e9fbe65-ebb5-4826-86e3-5845c48f289f","ios":"levelo://app?vid=4e9fbe65-ebb5-4826-86e3-5845c48f289f"},"vehicle_type_id":"4","last_reported":1716066373,"current_range_meters":3600,"station_id":"ce4bhr12rcd13ifvqhpg","pricing_plan_id":"cebpf4jnsgd1na2vs0mg"},{"bike_id":"892c2c1d-5f6c-4aab-8d33-80f5771c25a5","system_id":"levelo_inurba_marseille","lat":43.319935,"lon":5.381699,"is_reserved":false,"is_disabled":false,"rental_uris":{"android":"levelo://app?vid=892c2c1d-5f6c-4aab-8d33-80f5771c25a5","ios":"levelo://app?vid=892c2c1d-5f6c-4aab-8d33-80f5771c25a5"},"vehicle_type_id":"4","last_reported":1716066373,"current_range_meters":0,"station_id":"ce4bhr12rcd13ifvqhpg","pricing_plan_id":"cebpf4jnsgd1na2vs0mg"},{"bike_id":"ba2ce376-b3fc-490d-abdf-94e98242d5b3","system_id":"levelo_inurba_marseille","lat":43.31365,"lon":5.38485,"is_reserved":false,"is_disabled":false,"rental_uris":{"android":"levelo://app?vid=ba2ce376-b3fc-490d-abdf-94e98242d5b3","ios":"levelo://app?vid=ba2ce376-b3fc-490d-abdf-94e98242d5b3"},"vehicle_type_id":"4","last_reported":1716066373,"current_range_meters":5200,"station_id":"ce4bgt92rcd13ifvqcf0","pricing_plan_id":"cebpf4jnsgd1na2vs0mg"},{"bike_id":"7fc9be20-2ab5-46e4-9b54-1e823b2db974","system_id":"levelo_inurba_marseille","lat":43.31362,"lon":5.38488,"is_reserved":false,"is_disabled":false,"rental_uris":{"android":"levelo://app?vid=7fc9be20-2ab5-46e4-9b54-1e823b2db974","ios":"levelo://app?vid=7fc9be20-2ab5-46e4-9b54-1e823b2db974"},"vehicle_type_id":"4","last_reported":1716066373,"current_range_meters":2000,"station_id":"ce4bgt92rcd13ifvqcf0","pricing_plan_id":"cebpf4jnsgd1na2vs0mg"},{"bike_id":"9743ca2c-32be-4501-9025-fb9d5eb73cf3","system_id":"levelo_inurba_marseille","lat":43.31365,"lon":5.3849,"is_reserved":false,"is_disabled":false,"rental_uris":{"android":"levelo://app?vid=9743ca2c-32be-4501-9025-fb9d5eb73cf3","ios":"levelo://app?vid=9743ca2c-32be-4501-9025-fb9d5eb73cf3"},"vehicle_type_id":"4","last_reported":1716066373,"current_range_meters":0,"station_id":"ce4bgt92rcd13ifvqcf0","pricing_plan_id":"cebpf4jnsgd1na2vs0mg"},{"bike_id":"8f9c34c0-7120-40b6-aef6-ffe68053d7e0","system_id":"levelo_inurba_marseille","lat":43.31361,"lon":5.38492,"is_reserved":false,"is_disabled":false,"rental_uris":{"android":"levelo://app?vid=8f9c34c0-7120-40b6-aef6-ffe68053d7e0","ios":"levelo://app?vid=8f9c34c0-7120-40b6-aef6-ffe68053d7e0"},"vehicle_type_id":"4","last_reported":1716066373,"current_range_meters":6400,"station_id":"ce4bgt92rcd13ifvqcf0","pricing_plan_id":"cebpf4jnsgd1na2vs0mg"},{"bike_id":"4e613003-0819-43ab-bd06-fe89b743642c","system_id":"levelo_inurba_marseille","lat":43.31363,"lon":5.38492,"is_reserved":false,"is_disabled":false,"rental_uris":{"android":"levelo://app?vid=4e613003-0819-43ab-bd06-fe89b743642c","ios":"levelo://app?vid=4e613003-0819-43ab-bd06-fe89b743642c"},"vehicle_type_id":"4","last_reported":1716066373,"current_range_meters":2400,"station_id":"ce4bgt92rcd13ifvqcf0","pricing_plan_id":"cebpf4jnsgd1na2vs0mg"},{"bike_id":"5be40a86-5daa-42eb-9e63-6dbe7cc1a2f9","system_id":"levelo_inurba_marseille","lat":43.31362,"lon":5.38495,"is_reserved":false,"is_disabled":false,"rental_uris":{"android":"levelo://app?vid=5be40a86-5daa-42eb-9e63-6dbe7cc1a2f9","ios":"levelo://app?vid=5be40a86-5daa-42eb-9e63-6dbe7cc1a2f9"},"vehicle_type_id":"4","last_reported":1716066373,"current_range_meters":24000,"station_id":"ce4bgt92rcd13ifvqcf0","pricing_plan_id":"cebpf4jnsgd1na2vs0mg"},{"bike_id":"b4774ea7-92ee-4a35-89c7-8fd6d6f357a1","system_id":"levelo_inurba_marseille","lat":43.313562,"lon":5.384968,"is_reserved":false,"is_disabled":false,"rental_uris":{"android":"levelo://app?vid=b4774ea7-92ee-4a35-89c7-8fd6d6f357a1","ios":"levelo://app?vid=b4774ea7-92ee-4a35-89c7-8fd6d6f357a1"},"vehicle_type_id":"4","last_reported":1716066373,"current_range_meters":0,"station_id":"ce4bgt92rcd13ifvqcf0","pricing_plan_id":"cebpf4jnsgd1na2vs0mg"},{"bike_id":"b63523ce-1e3e-43cd-98aa-db78739018e7","system_id":"levelo_inurba_marseille","lat":43.31367,"lon":5.38497,"is_reserved":false,"is_disabled":false,"rental_uris":{"android":"levelo://app?vid=b63523ce-1e3e-43cd-98aa-db78739018e7","ios":"levelo://app?vid=b63523ce-1e3e-43cd-98aa-db78739018e7"},"vehicle_type_id":"4","last_reported":1716066373,"current_range_meters":400,"station_id":"ce4bgt92rcd13ifvqcf0","pricing_plan_id":"cebpf4jnsgd1na2vs0mg"},{"bike_id":"bde13806-e952-4e9b-a7d6-55773036b758","system_id":"levelo_inurba_marseille","lat":43.313571,"lon":5.384829,"is_reserved":false,"is_disabled":false,"rental_uris":{"android":"levelo://app?vid=bde13806-e952-4e9b-a7d6-55773036b758","ios":"levelo://app?vid=bde13806-e952-4e9b-a7d6-55773036b758"},"vehicle_type_id":"4","last_reported":1716066373,"current_range_meters":30000,"station_id":"ce4bgt92rcd13ifvqcf0","pricing_plan_id":"cebpf4jnsgd1na2vs0mg"},{"bike_id":"f704b525-ce20-4003-a92d-beba5a58a4de","system_id":"levelo_inurba_marseille","lat":43.313571,"lon":5.384829,"is_reserved":false,"is_disabled":false,"rental_uris":{"android":"levelo://app?vid=f704b525-ce20-4003-a92d-beba5a58a4de","ios":"levelo://app?vid=f704b525-ce20-4003-a92d-beba5a58a4de"},"vehicle_type_id":"4","last_reported":1716066373,"current_range_meters":18800,"station_id":"ce4bgt92rcd13ifvqcf0","pricing_plan_id":"cebpf4jnsgd1na2vs0mg"},{"bike_id":"bca67613-2d98-46fc-99b6-72271df02d67","system_id":"levelo_inurba_marseille","lat":43.299724,"lon":5.371829,"is_reserved":false,"is_disabled":false,"rental_uris":{"android":"levelo://app?vid=bca67613-2d98-46fc-99b6-72271df02d67","ios":"levelo://app?vid=bca67613-2d98-46fc-99b6-72271df02d67"},"vehicle_type_id":"4","last_reported":1716066373,"current_range_meters":5200,"station_id":"ce4bgr92rcd13ifvqc7g","pricing_plan_id":"cebpf4jnsgd1na2vs0mg"},{"bike_id":"35748090-58ec-4ba8-95e6-cd938672ef47","system_id":"levelo_inurba_marseille","lat":43.299222,"lon":5.365554,"is_reserved":false,"is_disabled":false,"rental_uris":{"android":"levelo://app?vid=35748090-58ec-4ba8-95e6-cd938672ef47","ios":"levelo://app?vid=35748090-58ec-4ba8-95e6-cd938672ef47"},"vehicle_type_id":"4","last_reported":1716066373,"current_range_meters":3200,"station_id":"ce4bgm92rcd13ifvqbr0","pricing_plan_id":"cebpf4jnsgd1na2vs0mg"},{"bike_id":"a3d31cf4-3270-4b41-8486-5202157b58a9","system_id":"levelo_inurba_marseille","lat":43.299724,"lon":5.371829,"is_reserved":false,"is_disabled":false,"rental_uris":{"android":"levelo://app?vid=a3d31cf4-3270-4b41-8486-5202157b58a9","ios":"levelo://app?vid=a3d31cf4-3270-4b41-8486-5202157b58a9"},"vehicle_type_id":"4","last_reported":1716066373,"current_range_meters":3200,"station_id":"ce4bgr92rcd13ifvqc7g","pricing_plan_id":"cebpf4jnsgd1na2vs0mg"},{"bike_id":"c0e7da87-2a79-4242-8743-86cc17993f73","system_id":"levelo_inurba_marseille","lat":43.299724,"lon":5.371829,"is_reserved":false,"is_disabled":false,"rental_uris":{"android":"levelo://app?vid=c0e7da87-2a79-4242-8743-86cc17993f73","ios":"levelo://app?vid=c0e7da87-2a79-4242-8743-86cc17993f73"},"vehicle_type_id":"4","last_reported":1716066373,"current_range_meters":5600,"station_id":"ce4bgr92rcd13ifvqc7g","pricing_plan_id":"cebpf4jnsgd1na2vs0mg"},{"bike_id":"cc9ae6ab-edcb-4abb-87f2-6ac36d7724ca","system_id":"levelo_inurba_marseille","lat":43.29971,"lon":5.37169,"is_reserved":false,"is_disabled":false,"rental_uris":{"android":"levelo://app?vid=cc9ae6ab-edcb-4abb-87f2-6ac36d7724ca","ios":"levelo://app?vid=cc9ae6ab-edcb-4abb-87f2-6ac36d7724ca"},"vehicle_type_id":"4","last_reported":1716066373,"current_range_meters":5200,"station_id":"ce4bgr92rcd13ifvqc7g","pricing_plan_id":"cebpf4jnsgd1na2vs0mg"},{"bike_id":"b40c9915-5ea4-4e5d-b561-72e5a606c1ae","system_id":"levelo_inurba_marseille","lat":43.299676,"lon":5.371766,"is_reserved":false,"is_disabled":false,"rental_uris":{"android":"levelo://app?vid=b40c9915-5ea4-4e5d-b561-72e5a606c1ae","ios":"levelo://app?vid=b40c9915-5ea4-4e5d-b561-72e5a606c1ae"},"vehicle_type_id":"4","last_reported":1716066373,"current_range_meters":0,"station_id":"ce4bgr92rcd13ifvqc7g","pricing_plan_id":"cebpf4jnsgd1na2vs0mg"},{"bike_id":"4d5c3565-18b5-443e-8fe8-5290564495db","system_id":"levelo_inurba_marseille","lat":43.310804,"lon":5.38359,"is_reserved":false,"is_disabled":false,"rental_uris":{"android":"levelo://app?vid=4d5c3565-18b5-443e-8fe8-5290564495db","ios":"levelo://app?vid=4d5c3565-18b5-443e-8fe8-5290564495db"},"vehicle_type_id":"4","last_reported":1716066373,"current_range_meters":26000,"station_id":"ce4bgv92rcd13ifvqcr0","pricing_plan_id":"cebpf4jnsgd1na2vs0mg"},{"bike_id":"3af47134-89b5-436d-b23b-5f4868c9fbac","system_id":"levelo_inurba_marseille","lat":43.29855,"lon":5.36289,"is_reserved":false,"is_disabled":false,"rental_uris":{"android":"levelo://app?vid=3af47134-89b5-436d-b23b-5f4868c9fbac","ios":"levelo://app?vid=3af47134-89b5-436d-b23b-5f4868c9fbac"},"vehicle_type_id":"4","last_reported":1716066373,"current_range_meters":6000,"station_id":"ce4bgpp2rcd13ifvqc3g","pricing_plan_id":"cebpf4jnsgd1na2vs0mg"},{"bike_id":"20475423-0f98-45d3-9ef9-623603387d46","system_id":"levelo_inurba_marseille","lat":43.305364,"lon":5.384119,"is_reserved":false,"is_disabled":false,"rental_uris":{"android":"levelo://app?vid=20475423-0f98-45d3-9ef9-623603387d46","ios":"levelo://app?vid=20475423-0f98-45d3-9ef9-623603387d46"},"vehicle_type_id":"4","last_reported":1716066373,"current_range_meters":4000,"station_id":"ce4bgg92rcd13ifvqb30","pricing_plan_id":"cebpf4jnsgd1na2vs0mg"},{"bike_id":"ac7122ba-eaad-4104-93f2-40d2cfa57828","system_id":"levelo_inurba_marseille","lat":43.305364,"lon":5.384119,"is_reserved":false,"is_disabled":false,"rental_uris":{"android":"levelo://app?vid=ac7122ba-eaad-4104-93f2-40d2cfa57828","ios":"levelo://app?vid=ac7122ba-eaad-4104-93f2-40d2cfa57828"},"vehicle_type_id":"4","last_reported":1716066373,"current_range_meters":22800,"station_id":"ce4bgg92rcd13ifvqb30","pricing_plan_id":"cebpf4jnsgd1na2vs0mg"},{"bike_id":"88dd3f1f-c158-4ce5-a92c-c86bd62fb519","system_id":"levelo_inurba_marseille","lat":43.305364,"lon":5.384119,"is_reserved":false,"is_disabled":false,"rental_uris":{"android":"levelo://app?vid=88dd3f1f-c158-4ce5-a92c-c86bd62fb519","ios":"levelo://app?vid=88dd3f1f-c158-4ce5-a92c-c86bd62fb519"},"vehicle_type_id":"4","last_reported":1716066373,"current_range_meters":6000,"station_id":"ce4bgg92rcd13ifvqb30","pricing_plan_id":"cebpf4jnsgd1na2vs0mg"},{"bike_id":"1cb4f9d7-a416-4527-bf4a-53e530519e43","system_id":"levelo_inurba_marseille","lat":43.29851,"lon":5.3629,"is_reserved":false,"is_disabled":false,"rental_uris":{"android":"levelo://app?vid=1cb4f9d7-a416-4527-bf4a-53e530519e43","ios":"levelo://app?vid=1cb4f9d7-a416-4527-bf4a-53e530519e43"},"vehicle_type_id":"4","last_reported":1716066373,"current_range_meters":10400,"station_id":"ce4bgpp2rcd13ifvqc3g","pricing_plan_id":"cebpf4jnsgd1na2vs0mg"},{"bike_id":"738ef9db-492b-4990-a551-8c78c177f938","system_id":"levelo_inurba_marseille","lat":43.29851,"lon":5.3629,"is_reserved":false,"is_disabled":false,"rental_uris":{"android":"levelo://app?vid=738ef9db-492b-4990-a551-8c78c177f938","ios":"levelo://app?vid=738ef9db-492b-4990-a551-8c78c177f938"},"vehicle_type_id":"4","last_reported":1716066373,"current_range_meters":800,"station_id":"ce4bgpp2rcd13ifvqc3g","pricing_plan_id":"cebpf4jnsgd1na2vs0mg"},{"bike_id":"8622cc66-0285-486b-b236-af334e8c7de9","system_id":"levelo_inurba_marseille","lat":43.30546,"lon":5.38421,"is_reserved":false,"is_disabled":false,"rental_uris":{"android":"levelo://app?vid=8622cc66-0285-486b-b236-af334e8c7de9","ios":"levelo://app?vid=8622cc66-0285-486b-b236-af334e8c7de9"},"vehicle_type_id":"4","last_reported":1716066373,"current_range_meters":0,"station_id":"ce4bgg92rcd13ifvqb30","pricing_plan_id":"cebpf4jnsgd1na2vs0mg"},{"bike_id":"accc1dac-0815-4d72-87fd-769d40bfbd5b","system_id":"levelo_inurba_marseille","lat":43.298433,"lon":5.362774,"is_reserved":false,"is_disabled":false,"rental_uris":{"android":"levelo://app?vid=accc1dac-0815-4d72-87fd-769d40bfbd5b","ios":"levelo://app?vid=accc1dac-0815-4d72-87fd-769d40bfbd5b"},"vehicle_type_id":"4","last_reported":1716066373,"current_range_meters":12000,"station_id":"ce4bgpp2rcd13ifvqc3g","pricing_plan_id":"cebpf4jnsgd1na2vs0mg"},{"bike_id":"c75895ba-eda2-44d1-8644-264aa9bb4e3c","system_id":"levelo_inurba_marseille","lat":43.29849,"lon":5.36287,"is_reserved":false,"is_disabled":false,"rental_uris":{"android":"levelo://app?vid=c75895ba-eda2-44d1-8644-264aa9bb4e3c","ios":"levelo://app?vid=c75895ba-eda2-44d1-8644-264aa9bb4e3c"},"vehicle_type_id":"4","last_reported":1716066373,"current_range_meters":0,"station_id":"ce4bgpp2rcd13ifvqc3g","pricing_plan_id":"cebpf4jnsgd1na2vs0mg"},{"bike_id":"ae6fdd42-ecaf-4711-82f3-7fe485a9a42b","system_id":"levelo_inurba_marseille","lat":43.298433,"lon":5.362774,"is_reserved":false,"is_disabled":false,"rental_uris":{"android":"levelo://app?vid=ae6fdd42-ecaf-4711-82f3-7fe485a9a42b","ios":"levelo://app?vid=ae6fdd42-ecaf-4711-82f3-7fe485a9a42b"},"vehicle_type_id":"4","last_reported":1716066373,"current_range_meters":17600,"station_id":"ce4bgpp2rcd13ifvqc3g","pricing_plan_id":"cebpf4jnsgd1na2vs0mg"},{"bike_id":"8ca74349-196f-474d-b02d-423a398a3ab1","system_id":"levelo_inurba_marseille","lat":43.298433,"lon":5.362774,"is_reserved":false,"is_disabled":false,"rental_uris":{"android":"levelo://app?vid=8ca74349-196f-474d-b02d-423a398a3ab1","ios":"levelo://app?vid=8ca74349-196f-474d-b02d-423a398a3ab1"},"vehicle_type_id":"4","last_reported":1716066373,"current_range_meters":22000,"station_id":"ce4bgpp2rcd13ifvqc3g","pricing_plan_id":"cebpf4jnsgd1na2vs0mg"},{"bike_id":"94c5c8f3-7262-40bd-8531-d26294ee3d41","system_id":"levelo_inurba_marseille","lat":43.298433,"lon":5.362774,"is_reserved":false,"is_disabled":false,"rental_uris":{"android":"levelo://app?vid=94c5c8f3-7262-40bd-8531-d26294ee3d41","ios":"levelo://app?vid=94c5c8f3-7262-40bd-8531-d26294ee3d41"},"vehicle_type_id":"4","last_reported":1716066373,"current_range_meters":10000,"station_id":"ce4bgpp2rcd13ifvqc3g","pricing_plan_id":"cebpf4jnsgd1na2vs0mg"},{"bike_id":"4b9c326d-8b2b-4c65-b4e3-832eb6081e45","system_id":"levelo_inurba_marseille","lat":43.298433,"lon":5.362774,"is_reserved":false,"is_disabled":false,"rental_uris":{"android":"levelo://app?vid=4b9c326d-8b2b-4c65-b4e3-832eb6081e45","ios":"levelo://app?vid=4b9c326d-8b2b-4c65-b4e3-832eb6081e45"},"vehicle_type_id":"4","last_reported":1716066373,"current_range_meters":11600,"station_id":"ce4bgpp2rcd13ifvqc3g","pricing_plan_id":"cebpf4jnsgd1na2vs0mg"},{"bike_id":"6d900b36-a738-4254-ad6f-b784819780a9","system_id":"levelo_inurba_marseille","lat":43.29849,"lon":5.36263,"is_reserved":false,"is_disabled":false,"rental_uris":{"android":"levelo://app?vid=6d900b36-a738-4254-ad6f-b784819780a9","ios":"levelo://app?vid=6d900b36-a738-4254-ad6f-b784819780a9"},"vehicle_type_id":"4","last_reported":1716066373,"current_range_meters":12800,"station_id":"ce4bgpp2rcd13ifvqc3g","pricing_plan_id":"cebpf4jnsgd1na2vs0mg"},{"bike_id":"934de14a-53e3-4841-87d0-3e6a2af3911f","system_id":"levelo_inurba_marseille","lat":43.298433,"lon":5.362774,"is_reserved":false,"is_disabled":false,"rental_uris":{"android":"levelo://app?vid=934de14a-53e3-4841-87d0-3e6a2af3911f","ios":"levelo://app?vid=934de14a-53e3-4841-87d0-3e6a2af3911f"},"vehicle_type_id":"4","last_reported":1716066373,"current_range_meters":4000,"station_id":"ce4bgpp2rcd13ifvqc3g","pricing_plan_id":"cebpf4jnsgd1na2vs0mg"},{"bike_id":"edf28acc-acad-449c-937b-7da9b8c3932f","system_id":"levelo_inurba_marseille","lat":43.298433,"lon":5.362774,"is_reserved":false,"is_disabled":false,"rental_uris":{"android":"levelo://app?vid=edf28acc-acad-449c-937b-7da9b8c3932f","ios":"levelo://app?vid=edf28acc-acad-449c-937b-7da9b8c3932f"},"vehicle_type_id":"4","last_reported":1716066373,"current_range_meters":4000,"station_id":"ce4bgpp2rcd13ifvqc3g","pricing_plan_id":"cebpf4jnsgd1na2vs0mg"},{"bike_id":"956bcaf4-712b-4639-9459-ed551d8f58c5","system_id":"levelo_inurba_marseille","lat":43.299243,"lon":5.37481,"is_reserved":false,"is_disabled":false,"rental_uris":{"android":"levelo://app?vid=956bcaf4-712b-4639-9459-ed551d8f58c5","ios":"levelo://app?vid=956bcaf4-712b-4639-9459-ed551d8f58c5"},"vehicle_type_id":"4","last_reported":1716066373,"current_range_meters":1200,"station_id":"ce4bgjh2rcd13ifvqbg0","pricing_plan_id":"cebpf4jnsgd1na2vs0mg"},{"bike_id":"346fccd5-b077-4d43-9c50-0971ab3aebda","system_id":"levelo_inurba_marseille","lat":43.299243,"lon":5.374807,"is_reserved":false,"is_disabled":false,"rental_uris":{"android":"levelo://app?vid=346fccd5-b077-4d43-9c50-0971ab3aebda","ios":"levelo://app?vid=346fccd5-b077-4d43-9c50-0971ab3aebda"},"vehicle_type_id":"4","last_reported":1716066373,"current_range_meters":10800,"station_id":"ce4bgjh2rcd13ifvqbg0","pricing_plan_id":"cebpf4jnsgd1na2vs0mg"},{"bike_id":"88deda37-f446-4ef0-be19-f4238650326e","system_id":"levelo_inurba_marseille","lat":43.29844,"lon":5.3627,"is_reserved":false,"is_disabled":false,"rental_uris":{"android":"levelo://app?vid=88deda37-f446-4ef0-be19-f4238650326e","ios":"levelo://app?vid=88deda37-f446-4ef0-be19-f4238650326e"},"vehicle_type_id":"4","last_reported":1716066373,"current_range_meters":4800,"station_id":"ce4bgpp2rcd13ifvqc3g","pricing_plan_id":"cebpf4jnsgd1na2vs0mg"},{"bike_id":"1e4604f8-289e-44b3-b063-dedb030f79e2","system_id":"levelo_inurba_marseille","lat":43.298433,"lon":5.362774,"is_reserved":false,"is_disabled":false,"rental_uris":{"android":"levelo://app?vid=1e4604f8-289e-44b3-b063-dedb030f79e2","ios":"levelo://app?vid=1e4604f8-289e-44b3-b063-dedb030f79e2"},"vehicle_type_id":"4","last_reported":1716066373,"current_range_meters":30400,"station_id":"ce4bgpp2rcd13ifvqc3g","pricing_plan_id":"cebpf4jnsgd1na2vs0mg"},{"bike_id":"a9b8f7d5-a61d-42eb-bcd5-d9ba9ef1e5d0","system_id":"levelo_inurba_marseille","lat":43.29843,"lon":5.36269,"is_reserved":false,"is_disabled":false,"rental_uris":{"android":"levelo://app?vid=a9b8f7d5-a61d-42eb-bcd5-d9ba9ef1e5d0","ios":"levelo://app?vid=a9b8f7d5-a61d-42eb-bcd5-d9ba9ef1e5d0"},"vehicle_type_id":"4","last_reported":1716066373,"current_range_meters":14400,"station_id":"ce4bgpp2rcd13ifvqc3g","pricing_plan_id":"cebpf4jnsgd1na2vs0mg"},{"bike_id":"6535a8f7-8681-4a3a-8135-179ff6932fdf","system_id":"levelo_inurba_marseille","lat":43.298433,"lon":5.362774,"is_reserved":false,"is_disabled":false,"rental_uris":{"android":"levelo://app?vid=6535a8f7-8681-4a3a-8135-179ff6932fdf","ios":"levelo://app?vid=6535a8f7-8681-4a3a-8135-179ff6932fdf"},"vehicle_type_id":"4","last_reported":1716066373,"current_range_meters":26400,"station_id":"ce4bgpp2rcd13ifvqc3g","pricing_plan_id":"cebpf4jnsgd1na2vs0mg"},{"bike_id":"a2256a38-685c-4d0f-8a3d-c4a8ca6bea18","system_id":"levelo_inurba_marseille","lat":43.29841,"lon":5.36268,"is_reserved":false,"is_disabled":false,"rental_uris":{"android":"levelo://app?vid=a2256a38-685c-4d0f-8a3d-c4a8ca6bea18","ios":"levelo://app?vid=a2256a38-685c-4d0f-8a3d-c4a8ca6bea18"},"vehicle_type_id":"4","last_reported":1716066373,"current_range_meters":400,"station_id":"ce4bgpp2rcd13ifvqc3g","pricing_plan_id":"cebpf4jnsgd1na2vs0mg"},{"bike_id":"446c0da4-3db5-48ac-84e9-5a41c5d89e09","system_id":"levelo_inurba_marseille","lat":43.29841,"lon":5.36267,"is_reserved":false,"is_disabled":false,"rental_uris":{"android":"levelo://app?vid=446c0da4-3db5-48ac-84e9-5a41c5d89e09","ios":"levelo://app?vid=446c0da4-3db5-48ac-84e9-5a41c5d89e09"},"vehicle_type_id":"4","last_reported":1716066373,"current_range_meters":17600,"station_id":"ce4bgpp2rcd13ifvqc3g","pricing_plan_id":"cebpf4jnsgd1na2vs0mg"},{"bike_id":"82011e80-b8e0-4ac0-9682-4739c11b0798","system_id":"levelo_inurba_marseille","lat":43.29841,"lon":5.36266,"is_reserved":false,"is_disabled":false,"rental_uris":{"android":"levelo://app?vid=82011e80-b8e0-4ac0-9682-4739c11b0798","ios":"levelo://app?vid=82011e80-b8e0-4ac0-9682-4739c11b0798"},"vehicle_type_id":"4","last_reported":1716066373,"current_range_meters":7200,"station_id":"ce4bgpp2rcd13ifvqc3g","pricing_plan_id":"cebpf4jnsgd1na2vs0mg"},{"bike_id":"0664edfc-12f1-446b-a344-d5b7512dfae8","system_id":"levelo_inurba_marseille","lat":43.29841,"lon":5.36266,"is_reserved":false,"is_disabled":false,"rental_uris":{"android":"levelo://app?vid=0664edfc-12f1-446b-a344-d5b7512dfae8","ios":"levelo://app?vid=0664edfc-12f1-446b-a344-d5b7512dfae8"},"vehicle_type_id":"4","last_reported":1716066373,"current_range_meters":9600,"station_id":"ce4bgpp2rcd13ifvqc3g","pricing_plan_id":"cebpf4jnsgd1na2vs0mg"},{"bike_id":"e63dd7e0-2834-410f-88a6-b30ab895787a","system_id":"levelo_inurba_marseille","lat":43.29839,"lon":5.36267,"is_reserved":false,"is_disabled":false,"rental_uris":{"android":"levelo://app?vid=e63dd7e0-2834-410f-88a6-b30ab895787a","ios":"levelo://app?vid=e63dd7e0-2834-410f-88a6-b30ab895787a"},"vehicle_type_id":"4","last_reported":1716066373,"current_range_meters":24800,"station_id":"ce4bgpp2rcd13ifvqc3g","pricing_plan_id":"cebpf4jnsgd1na2vs0mg"},{"bike_id":"3e08a4f9-95bf-4361-a550-ffbb09a1d5a5","system_id":"levelo_inurba_marseille","lat":43.31175,"lon":5.38716,"is_reserved":false,"is_disabled":false,"rental_uris":{"android":"levelo://app?vid=3e08a4f9-95bf-4361-a550-ffbb09a1d5a5","ios":"levelo://app?vid=3e08a4f9-95bf-4361-a550-ffbb09a1d5a5"},"vehicle_type_id":"4","last_reported":1716066373,"current_range_meters":2000,"station_id":"ce4bgv12rcd13ifvqcp0","pricing_plan_id":"cebpf4jnsgd1na2vs0mg"},{"bike_id":"b8b55f30-3f37-4408-b470-0d479a49dd0f","system_id":"levelo_inurba_marseille","lat":43.31164,"lon":5.38717,"is_reserved":false,"is_disabled":false,"rental_uris":{"android":"levelo://app?vid=b8b55f30-3f37-4408-b470-0d479a49dd0f","ios":"levelo://app?vid=b8b55f30-3f37-4408-b470-0d479a49dd0f"},"vehicle_type_id":"4","last_reported":1716066373,"current_range_meters":0,"station_id":"ce4bgv12rcd13ifvqcp0","pricing_plan_id":"cebpf4jnsgd1na2vs0mg"},{"bike_id":"9ec2321f-d7ea-4067-ac25-08e0abc91b67","system_id":"levelo_inurba_marseille","lat":43.29908,"lon":5.37466,"is_reserved":false,"is_disabled":false,"rental_uris":{"android":"levelo://app?vid=9ec2321f-d7ea-4067-ac25-08e0abc91b67","ios":"levelo://app?vid=9ec2321f-d7ea-4067-ac25-08e0abc91b67"},"vehicle_type_id":"4","last_reported":1716066373,"current_range_meters":0,"station_id":"ce4bgjh2rcd13ifvqbg0","pricing_plan_id":"cebpf4jnsgd1na2vs0mg"},{"bike_id":"0f1cc8d3-4cd1-4825-b164-7819994133c7","system_id":"levelo_inurba_marseille","lat":43.311722,"lon":5.387247,"is_reserved":false,"is_disabled":false,"rental_uris":{"android":"levelo://app?vid=0f1cc8d3-4cd1-4825-b164-7819994133c7","ios":"levelo://app?vid=0f1cc8d3-4cd1-4825-b164-7819994133c7"},"vehicle_type_id":"4","last_reported":1716066373,"current_range_meters":400,"station_id":"ce4bgv12rcd13ifvqcp0","pricing_plan_id":"cebpf4jnsgd1na2vs0mg"},{"bike_id":"ce0b2c1e-a342-4773-be84-c7da6063712c","system_id":"levelo_inurba_marseille","lat":43.311722,"lon":5.387247,"is_reserved":false,"is_disabled":false,"rental_uris":{"android":"levelo://app?vid=ce0b2c1e-a342-4773-be84-c7da6063712c","ios":"levelo://app?vid=ce0b2c1e-a342-4773-be84-c7da6063712c"},"vehicle_type_id":"4","last_reported":1716066373,"current_range_meters":12400,"station_id":"ce4bgv12rcd13ifvqcp0","pricing_plan_id":"cebpf4jnsgd1na2vs0mg"},{"bike_id":"d6d0f22c-2f8e-4e7e-baa7-87b7f9c8df68","system_id":"levelo_inurba_marseille","lat":43.29907,"lon":5.374773,"is_reserved":false,"is_disabled":false,"rental_uris":{"android":"levelo://app?vid=d6d0f22c-2f8e-4e7e-baa7-87b7f9c8df68","ios":"levelo://app?vid=d6d0f22c-2f8e-4e7e-baa7-87b7f9c8df68"},"vehicle_type_id":"4","last_reported":1716066373,"current_range_meters":0,"station_id":"ce4bgjh2rcd13ifvqbg0","pricing_plan_id":"cebpf4jnsgd1na2vs0mg"},{"bike_id":"61d56cdb-cd6b-4b3a-8534-d61dd7fc9a8f","system_id":"levelo_inurba_marseille","lat":43.30246,"lon":5.38161,"is_reserved":false,"is_disabled":false,"rental_uris":{"android":"levelo://app?vid=61d56cdb-cd6b-4b3a-8534-d61dd7fc9a8f","ios":"levelo://app?vid=61d56cdb-cd6b-4b3a-8534-d61dd7fc9a8f"},"vehicle_type_id":"4","last_reported":1716066373,"current_range_meters":7600,"station_id":"","pricing_plan_id":"cebpf4jnsgd1na2vs0mg"},{"bike_id":"f6672278-5753-4de3-a62f-d92a56bb95f0","system_id":"levelo_inurba_marseille","lat":43.311722,"lon":5.387247,"is_reserved":false,"is_disabled":false,"rental_uris":{"android":"levelo://app?vid=f6672278-5753-4de3-a62f-d92a56bb95f0","ios":"levelo://app?vid=f6672278-5753-4de3-a62f-d92a56bb95f0"},"vehicle_type_id":"4","last_reported":1716066373,"current_range_meters":16800,"station_id":"ce4bgv12rcd13ifvqcp0","pricing_plan_id":"cebpf4jnsgd1na2vs0mg"},{"bike_id":"606f8b43-6510-48b6-88b9-5dbbe1c44b2c","system_id":"levelo_inurba_marseille","lat":43.30225,"lon":5.38158,"is_reserved":false,"is_disabled":false,"rental_uris":{"android":"levelo://app?vid=606f8b43-6510-48b6-88b9-5dbbe1c44b2c","ios":"levelo://app?vid=606f8b43-6510-48b6-88b9-5dbbe1c44b2c"},"vehicle_type_id":"4","last_reported":1716066373,"current_range_meters":20000,"station_id":"","pricing_plan_id":"cebpf4jnsgd1na2vs0mg"},{"bike_id":"a78c0371-18a7-4609-8a16-1a99a180568a","system_id":"levelo_inurba_marseille","lat":43.297794,"lon":5.370888,"is_reserved":false,"is_disabled":false,"rental_uris":{"android":"levelo://app?vid=a78c0371-18a7-4609-8a16-1a99a180568a","ios":"levelo://app?vid=a78c0371-18a7-4609-8a16-1a99a180568a"},"vehicle_type_id":"4","last_reported":1716066373,"current_range_meters":30000,"station_id":"ce4bgop2rcd13ifvqc1g","pricing_plan_id":"cebpf4jnsgd1na2vs0mg"},{"bike_id":"b22379ec-8777-4dcd-8c0e-9642bdad8cfd","system_id":"levelo_inurba_marseille","lat":43.297774,"lon":5.370875,"is_reserved":false,"is_disabled":false,"rental_uris":{"android":"levelo://app?vid=b22379ec-8777-4dcd-8c0e-9642bdad8cfd","ios":"levelo://app?vid=b22379ec-8777-4dcd-8c0e-9642bdad8cfd"},"vehicle_type_id":"4","last_reported":1716066373,"current_range_meters":31600,"station_id":"ce4bgop2rcd13ifvqc1g","pricing_plan_id":"cebpf4jnsgd1na2vs0mg"},{"bike_id":"8409f9f9-5637-43bd-a6a6-ad78ca54e59a","system_id":"levelo_inurba_marseille","lat":43.32286,"lon":5.38264,"is_reserved":false,"is_disabled":false,"rental_uris":{"android":"levelo://app?vid=8409f9f9-5637-43bd-a6a6-ad78ca54e59a","ios":"levelo://app?vid=8409f9f9-5637-43bd-a6a6-ad78ca54e59a"},"vehicle_type_id":"4","last_reported":1716066373,"current_range_meters":3200,"station_id":"ce4bhr12rcd13ifvqhqg","pricing_plan_id":"cebpf4jnsgd1na2vs0mg"},{"bike_id":"e27b0386-8bb6-4334-92d1-8cf8d4ea7b27","system_id":"levelo_inurba_marseille","lat":43.322872,"lon":5.382756,"is_reserved":false,"is_disabled":false,"rental_uris":{"android":"levelo://app?vid=e27b0386-8bb6-4334-92d1-8cf8d4ea7b27","ios":"levelo://app?vid=e27b0386-8bb6-4334-92d1-8cf8d4ea7b27"},"vehicle_type_id":"4","last_reported":1716066373,"current_range_meters":2800,"station_id":"ce4bhr12rcd13ifvqhqg","pricing_plan_id":"cebpf4jnsgd1na2vs0mg"},{"bike_id":"4e35fd5a-bc46-4277-a317-bb300e602173","system_id":"levelo_inurba_marseille","lat":43.32285,"lon":5.38273,"is_reserved":false,"is_disabled":false,"rental_uris":{"android":"levelo://app?vid=4e35fd5a-bc46-4277-a317-bb300e602173","ios":"levelo://app?vid=4e35fd5a-bc46-4277-a317-bb300e602173"},"vehicle_type_id":"4","last_reported":1716066373,"current_range_meters":9200,"station_id":"ce4bhr12rcd13ifvqhqg","pricing_plan_id":"cebpf4jnsgd1na2vs0mg"},{"bike_id":"9a32493a-4fbc-4ccc-a890-1e41ede2e2a5","system_id":"levelo_inurba_marseille","lat":43.322872,"lon":5.382756,"is_reserved":false,"is_disabled":false,"rental_uris":{"android":"levelo://app?vid=9a32493a-4fbc-4ccc-a890-1e41ede2e2a5","ios":"levelo://app?vid=9a32493a-4fbc-4ccc-a890-1e41ede2e2a5"},"vehicle_type_id":"4","last_reported":1716066373,"current_range_meters":4800,"station_id":"ce4bhr12rcd13ifvqhqg","pricing_plan_id":"cebpf4jnsgd1na2vs0mg"},{"bike_id":"20a219a4-15d8-4496-9559-cd12f79d5c85","system_id":"levelo_inurba_marseille","lat":43.322872,"lon":5.382756,"is_reserved":false,"is_disabled":false,"rental_uris":{"android":"levelo://app?vid=20a219a4-15d8-4496-9559-cd12f79d5c85","ios":"levelo://app?vid=20a219a4-15d8-4496-9559-cd12f79d5c85"},"vehicle_type_id":"4","last_reported":1716066373,"current_range_meters":30000,"station_id":"ce4bhr12rcd13ifvqhqg","pricing_plan_id":"cebpf4jnsgd1na2vs0mg"},{"bike_id":"9385d173-06b2-4fde-8d3d-ba7b1bec39da","system_id":"levelo_inurba_marseille","lat":43.322872,"lon":5.382756,"is_reserved":false,"is_disabled":false,"rental_uris":{"android":"levelo://app?vid=9385d173-06b2-4fde-8d3d-ba7b1bec39da","ios":"levelo://app?vid=9385d173-06b2-4fde-8d3d-ba7b1bec39da"},"vehicle_type_id":"4","last_reported":1716066373,"current_range_meters":2400,"station_id":"ce4bhr12rcd13ifvqhqg","pricing_plan_id":"cebpf4jnsgd1na2vs0mg"},{"bike_id":"a9165734-9a2b-483d-8465-5670bc9ec5a1","system_id":"levelo_inurba_marseille","lat":43.29712,"lon":5.36611,"is_reserved":false,"is_disabled":false,"rental_uris":{"android":"levelo://app?vid=a9165734-9a2b-483d-8465-5670bc9ec5a1","ios":"levelo://app?vid=a9165734-9a2b-483d-8465-5670bc9ec5a1"},"vehicle_type_id":"4","last_reported":1716066373,"current_range_meters":0,"station_id":"ce4bgn12rcd13ifvqbt0","pricing_plan_id":"cebpf4jnsgd1na2vs0mg"},{"bike_id":"0c1f4fd4-8c31-40d4-8f61-1711b5807c78","system_id":"levelo_inurba_marseille","lat":43.297163,"lon":5.365866,"is_reserved":false,"is_disabled":false,"rental_uris":{"android":"levelo://app?vid=0c1f4fd4-8c31-40d4-8f61-1711b5807c78","ios":"levelo://app?vid=0c1f4fd4-8c31-40d4-8f61-1711b5807c78"},"vehicle_type_id":"4","last_reported":1716066373,"current_range_meters":2400,"station_id":"ce4bgn12rcd13ifvqbt0","pricing_plan_id":"cebpf4jnsgd1na2vs0mg"},{"bike_id":"ce33542c-6353-4075-9658-8aa7e800e52c","system_id":"levelo_inurba_marseille","lat":43.2971,"lon":5.36615,"is_reserved":false,"is_disabled":false,"rental_uris":{"android":"levelo://app?vid=ce33542c-6353-4075-9658-8aa7e800e52c","ios":"levelo://app?vid=ce33542c-6353-4075-9658-8aa7e800e52c"},"vehicle_type_id":"4","last_reported":1716066373,"current_range_meters":7200,"station_id":"ce4bgn12rcd13ifvqbt0","pricing_plan_id":"cebpf4jnsgd1na2vs0mg"},{"bike_id":"a0cb5d0a-0f3c-430e-a83c-b12ecd62ed72","system_id":"levelo_inurba_marseille","lat":43.2971,"lon":5.36611,"is_reserved":false,"is_disabled":false,"rental_uris":{"android":"levelo://app?vid=a0cb5d0a-0f3c-430e-a83c-b12ecd62ed72","ios":"levelo://app?vid=a0cb5d0a-0f3c-430e-a83c-b12ecd62ed72"},"vehicle_type_id":"4","last_reported":1716066373,"current_range_meters":0,"station_id":"ce4bgn12rcd13ifvqbt0","pricing_plan_id":"cebpf4jnsgd1na2vs0mg"},{"bike_id":"f3dfbcc6-80c4-471d-9f16-e1bc9ecdc1e1","system_id":"levelo_inurba_marseille","lat":43.297163,"lon":5.365866,"is_reserved":false,"is_disabled":false,"rental_uris":{"android":"levelo://app?vid=f3dfbcc6-80c4-471d-9f16-e1bc9ecdc1e1","ios":"levelo://app?vid=f3dfbcc6-80c4-471d-9f16-e1bc9ecdc1e1"},"vehicle_type_id":"4","last_reported":1716066373,"current_range_meters":16000,"station_id":"ce4bgn12rcd13ifvqbt0","pricing_plan_id":"cebpf4jnsgd1na2vs0mg"},{"bike_id":"11d11cfc-598d-4868-ad41-aa6528ccc0b4","system_id":"levelo_inurba_marseille","lat":43.297163,"lon":5.365866,"is_reserved":false,"is_disabled":false,"rental_uris":{"android":"levelo://app?vid=11d11cfc-598d-4868-ad41-aa6528ccc0b4","ios":"levelo://app?vid=11d11cfc-598d-4868-ad41-aa6528ccc0b4"},"vehicle_type_id":"4","last_reported":1716066373,"current_range_meters":4800,"station_id":"ce4bgn12rcd13ifvqbt0","pricing_plan_id":"cebpf4jnsgd1na2vs0mg"},{"bike_id":"e8b74b53-1f66-4822-bc9f-59e0cd63ffdc","system_id":"levelo_inurba_marseille","lat":43.297048,"lon":5.36893,"is_reserved":false,"is_disabled":false,"rental_uris":{"android":"levelo://app?vid=e8b74b53-1f66-4822-bc9f-59e0cd63ffdc","ios":"levelo://app?vid=e8b74b53-1f66-4822-bc9f-59e0cd63ffdc"},"vehicle_type_id":"4","last_reported":1716066373,"current_range_meters":0,"station_id":"","pricing_plan_id":"cebpf4jnsgd1na2vs0mg"},{"bike_id":"fa2c076b-ba3d-4ed0-adbd-c95d7fa28c27","system_id":"levelo_inurba_marseille","lat":43.29741,"lon":5.36037,"is_reserved":false,"is_disabled":false,"rental_uris":{"android":"levelo://app?vid=fa2c076b-ba3d-4ed0-adbd-c95d7fa28c27","ios":"levelo://app?vid=fa2c076b-ba3d-4ed0-adbd-c95d7fa28c27"},"vehicle_type_id":"4","last_reported":1716066373,"current_range_meters":0,"station_id":"","pricing_plan_id":"cebpf4jnsgd1na2vs0mg"},{"bike_id":"914918b3-5522-4f78-97d2-88c6276c0735","system_id":"levelo_inurba_marseille","lat":43.29689,"lon":5.37287,"is_reserved":false,"is_disabled":false,"rental_uris":{"android":"levelo://app?vid=914918b3-5522-4f78-97d2-88c6276c0735","ios":"levelo://app?vid=914918b3-5522-4f78-97d2-88c6276c0735"},"vehicle_type_id":"4","last_reported":1716066373,"current_range_meters":0,"station_id":"ce4bgk12rcd13ifvqbj0","pricing_plan_id":"cebpf4jnsgd1na2vs0mg"},{"bike_id":"b153fa12-96ea-424e-bbe7-bc6eddb1f0c1","system_id":"levelo_inurba_marseille","lat":43.29686,"lon":5.3728,"is_reserved":false,"is_disabled":false,"rental_uris":{"android":"levelo://app?vid=b153fa12-96ea-424e-bbe7-bc6eddb1f0c1","ios":"levelo://app?vid=b153fa12-96ea-424e-bbe7-bc6eddb1f0c1"},"vehicle_type_id":"4","last_reported":1716066373,"current_range_meters":0,"station_id":"ce4bgk12rcd13ifvqbj0","pricing_plan_id":"cebpf4jnsgd1na2vs0mg"},{"bike_id":"263378b2-cf69-49f8-be85-48dc8e4c62e5","system_id":"levelo_inurba_marseille","lat":43.2968,"lon":5.37291,"is_reserved":false,"is_disabled":false,"rental_uris":{"android":"levelo://app?vid=263378b2-cf69-49f8-be85-48dc8e4c62e5","ios":"levelo://app?vid=263378b2-cf69-49f8-be85-48dc8e4c62e5"},"vehicle_type_id":"4","last_reported":1716066373,"current_range_meters":31200,"station_id":"ce4bgk12rcd13ifvqbj0","pricing_plan_id":"cebpf4jnsgd1na2vs0mg"},{"bike_id":"c0b498e0-13a8-4048-9ad1-239a98ef44f9","system_id":"levelo_inurba_marseille","lat":43.298776,"lon":5.380001,"is_reserved":false,"is_disabled":false,"rental_uris":{"android":"levelo://app?vid=c0b498e0-13a8-4048-9ad1-239a98ef44f9","ios":"levelo://app?vid=c0b498e0-13a8-4048-9ad1-239a98ef44f9"},"vehicle_type_id":"4","last_reported":1716066373,"current_range_meters":20400,"station_id":"","pricing_plan_id":"cebpf4jnsgd1na2vs0mg"},{"bike_id":"6cce3d94-da52-46d2-9c29-a2dc82a8cf5b","system_id":"levelo_inurba_marseille","lat":43.296935,"lon":5.376544,"is_reserved":false,"is_disabled":false,"rental_uris":{"android":"levelo://app?vid=6cce3d94-da52-46d2-9c29-a2dc82a8cf5b","ios":"levelo://app?vid=6cce3d94-da52-46d2-9c29-a2dc82a8cf5b"},"vehicle_type_id":"4","last_reported":1716066373,"current_range_meters":2400,"station_id":"ce4bgkh2rcd13ifvqbl0","pricing_plan_id":"cebpf4jnsgd1na2vs0mg"},{"bike_id":"38a559cd-50ae-4335-af8b-08a337aafdc4","system_id":"levelo_inurba_marseille","lat":43.29726,"lon":5.37688,"is_reserved":false,"is_disabled":false,"rental_uris":{"android":"levelo://app?vid=38a559cd-50ae-4335-af8b-08a337aafdc4","ios":"levelo://app?vid=38a559cd-50ae-4335-af8b-08a337aafdc4"},"vehicle_type_id":"4","last_reported":1716066373,"current_range_meters":0,"station_id":"ce4bgkh2rcd13ifvqbl0","pricing_plan_id":"cebpf4jnsgd1na2vs0mg"},{"bike_id":"665635d5-5b03-4ce3-a43b-1dbe9c7f4f77","system_id":"levelo_inurba_marseille","lat":43.309589,"lon":5.390258,"is_reserved":false,"is_disabled":false,"rental_uris":{"android":"levelo://app?vid=665635d5-5b03-4ce3-a43b-1dbe9c7f4f77","ios":"levelo://app?vid=665635d5-5b03-4ce3-a43b-1dbe9c7f4f77"},"vehicle_type_id":"4","last_reported":1716066373,"current_range_meters":31200,"station_id":"ce4bgup2rcd13ifvqco0","pricing_plan_id":"cebpf4jnsgd1na2vs0mg"},{"bike_id":"6c8779a2-43a3-4a2a-b4a3-da1319d6d69a","system_id":"levelo_inurba_marseille","lat":43.299028,"lon":5.381509,"is_reserved":false,"is_disabled":false,"rental_uris":{"android":"levelo://app?vid=6c8779a2-43a3-4a2a-b4a3-da1319d6d69a","ios":"levelo://app?vid=6c8779a2-43a3-4a2a-b4a3-da1319d6d69a"},"vehicle_type_id":"4","last_reported":1716066373,"current_range_meters":0,"station_id":"ce4bgj12rcd13ifvqbc0","pricing_plan_id":"cebpf4jnsgd1na2vs0mg"},{"bike_id":"f1643c9f-8942-4baf-ad44-fb63ba4e60d1","system_id":"levelo_inurba_marseille","lat":43.299028,"lon":5.381509,"is_reserved":false,"is_disabled":false,"rental_uris":{"android":"levelo://app?vid=f1643c9f-8942-4baf-ad44-fb63ba4e60d1","ios":"levelo://app?vid=f1643c9f-8942-4baf-ad44-fb63ba4e60d1"},"vehicle_type_id":"4","last_reported":1716066373,"current_range_meters":9200,"station_id":"ce4bgj12rcd13ifvqbc0","pricing_plan_id":"cebpf4jnsgd1na2vs0mg"},{"bike_id":"bd208557-9dee-4e10-83d4-266f1bbda9dc","system_id":"levelo_inurba_marseille","lat":43.309563,"lon":5.390247,"is_reserved":false,"is_disabled":false,"rental_uris":{"android":"levelo://app?vid=bd208557-9dee-4e10-83d4-266f1bbda9dc","ios":"levelo://app?vid=bd208557-9dee-4e10-83d4-266f1bbda9dc"},"vehicle_type_id":"4","last_reported":1716066373,"current_range_meters":23600,"station_id":"","pricing_plan_id":"cebpf4jnsgd1na2vs0mg"},{"bike_id":"c98025aa-9e9c-488d-b5b8-d3754878d50d","system_id":"levelo_inurba_marseille","lat":43.309501,"lon":5.390242,"is_reserved":false,"is_disabled":false,"rental_uris":{"android":"levelo://app?vid=c98025aa-9e9c-488d-b5b8-d3754878d50d","ios":"levelo://app?vid=c98025aa-9e9c-488d-b5b8-d3754878d50d"},"vehicle_type_id":"4","last_reported":1716066373,"current_range_meters":30800,"station_id":"ce4bgup2rcd13ifvqco0","pricing_plan_id":"cebpf4jnsgd1na2vs0mg"},{"bike_id":"4233fea4-bdfd-4a0b-8779-0436827c5fa3","system_id":"levelo_inurba_marseille","lat":43.309592,"lon":5.390266,"is_reserved":false,"is_disabled":false,"rental_uris":{"android":"levelo://app?vid=4233fea4-bdfd-4a0b-8779-0436827c5fa3","ios":"levelo://app?vid=4233fea4-bdfd-4a0b-8779-0436827c5fa3"},"vehicle_type_id":"4","last_reported":1716066373,"current_range_meters":8000,"station_id":"ce4bgup2rcd13ifvqco0","pricing_plan_id":"cebpf4jnsgd1na2vs0mg"},{"bike_id":"a213dca7-ac93-426f-b416-23be39b7a346","system_id":"levelo_inurba_marseille","lat":43.30958,"lon":5.39032,"is_reserved":false,"is_disabled":false,"rental_uris":{"android":"levelo://app?vid=a213dca7-ac93-426f-b416-23be39b7a346","ios":"levelo://app?vid=a213dca7-ac93-426f-b416-23be39b7a346"},"vehicle_type_id":"4","last_reported":1716066373,"current_range_meters":400,"station_id":"ce4bgup2rcd13ifvqco0","pricing_plan_id":"cebpf4jnsgd1na2vs0mg"},{"bike_id":"c83ce6ad-d8ee-47de-817e-b9fbd48cb3b7","system_id":"levelo_inurba_marseille","lat":43.30958,"lon":5.39033,"is_reserved":false,"is_disabled":false,"rental_uris":{"android":"levelo://app?vid=c83ce6ad-d8ee-47de-817e-b9fbd48cb3b7","ios":"levelo://app?vid=c83ce6ad-d8ee-47de-817e-b9fbd48cb3b7"},"vehicle_type_id":"4","last_reported":1716066373,"current_range_meters":3200,"station_id":"ce4bgup2rcd13ifvqco0","pricing_plan_id":"cebpf4jnsgd1na2vs0mg"},{"bike_id":"5735f5db-8731-4fa2-b70c-e38a1bc98308","system_id":"levelo_inurba_marseille","lat":43.309589,"lon":5.390258,"is_reserved":false,"is_disabled":false,"rental_uris":{"android":"levelo://app?vid=5735f5db-8731-4fa2-b70c-e38a1bc98308","ios":"levelo://app?vid=5735f5db-8731-4fa2-b70c-e38a1bc98308"},"vehicle_type_id":"4","last_reported":1716066373,"current_range_meters":0,"station_id":"ce4bgup2rcd13ifvqco0","pricing_plan_id":"cebpf4jnsgd1na2vs0mg"},{"bike_id":"603baedf-9108-4d5c-a917-a27c83b2b9c4","system_id":"levelo_inurba_marseille","lat":43.30954,"lon":5.39036,"is_reserved":false,"is_disabled":false,"rental_uris":{"android":"levelo://app?vid=603baedf-9108-4d5c-a917-a27c83b2b9c4","ios":"levelo://app?vid=603baedf-9108-4d5c-a917-a27c83b2b9c4"},"vehicle_type_id":"4","last_reported":1716066373,"current_range_meters":11200,"station_id":"ce4bgup2rcd13ifvqco0","pricing_plan_id":"cebpf4jnsgd1na2vs0mg"},{"bike_id":"5b016400-3e56-45de-bc6a-229a95106682","system_id":"levelo_inurba_marseille","lat":43.309571,"lon":5.390374,"is_reserved":false,"is_disabled":false,"rental_uris":{"android":"levelo://app?vid=5b016400-3e56-45de-bc6a-229a95106682","ios":"levelo://app?vid=5b016400-3e56-45de-bc6a-229a95106682"},"vehicle_type_id":"4","last_reported":1716066373,"current_range_meters":21200,"station_id":"ce4bgup2rcd13ifvqco0","pricing_plan_id":"cebpf4jnsgd1na2vs0mg"},{"bike_id":"73546ffe-3054-4dfa-8c3c-96995872ec94","system_id":"levelo_inurba_marseille","lat":43.30949,"lon":5.3904,"is_reserved":false,"is_disabled":false,"rental_uris":{"android":"levelo://app?vid=73546ffe-3054-4dfa-8c3c-96995872ec94","ios":"levelo://app?vid=73546ffe-3054-4dfa-8c3c-96995872ec94"},"vehicle_type_id":"4","last_reported":1716066373,"current_range_meters":20800,"station_id":"ce4bgup2rcd13ifvqco0","pricing_plan_id":"cebpf4jnsgd1na2vs0mg"},{"bike_id":"12c7bac9-d8e7-4b18-befe-6d3455d2ab15","system_id":"levelo_inurba_marseille","lat":43.30953,"lon":5.39042,"is_reserved":false,"is_disabled":false,"rental_uris":{"android":"levelo://app?vid=12c7bac9-d8e7-4b18-befe-6d3455d2ab15","ios":"levelo://app?vid=12c7bac9-d8e7-4b18-befe-6d3455d2ab15"},"vehicle_type_id":"4","last_reported":1716066373,"current_range_meters":0,"station_id":"ce4bgup2rcd13ifvqco0","pricing_plan_id":"cebpf4jnsgd1na2vs0mg"},{"bike_id":"de8a354f-15f9-47ca-a5fc-95f5e3c3cd40","system_id":"levelo_inurba_marseille","lat":43.30949,"lon":5.39043,"is_reserved":false,"is_disabled":false,"rental_uris":{"android":"levelo://app?vid=de8a354f-15f9-47ca-a5fc-95f5e3c3cd40","ios":"levelo://app?vid=de8a354f-15f9-47ca-a5fc-95f5e3c3cd40"},"vehicle_type_id":"4","last_reported":1716066373,"current_range_meters":10000,"station_id":"ce4bgup2rcd13ifvqco0","pricing_plan_id":"cebpf4jnsgd1na2vs0mg"},{"bike_id":"4d0bb5e6-0474-4729-b17f-0f43ac90100a","system_id":"levelo_inurba_marseille","lat":43.302992,"lon":5.392136,"is_reserved":false,"is_disabled":false,"rental_uris":{"android":"levelo://app?vid=4d0bb5e6-0474-4729-b17f-0f43ac90100a","ios":"levelo://app?vid=4d0bb5e6-0474-4729-b17f-0f43ac90100a"},"vehicle_type_id":"4","last_reported":1716066373,"current_range_meters":0,"station_id":"ce4bgkh2rcd13ifvqbk0","pricing_plan_id":"cebpf4jnsgd1na2vs0mg"},{"bike_id":"6a94882e-5410-4f30-bf87-ff95b55b515d","system_id":"levelo_inurba_marseille","lat":43.30959,"lon":5.39049,"is_reserved":false,"is_disabled":false,"rental_uris":{"android":"levelo://app?vid=6a94882e-5410-4f30-bf87-ff95b55b515d","ios":"levelo://app?vid=6a94882e-5410-4f30-bf87-ff95b55b515d"},"vehicle_type_id":"4","last_reported":1716066373,"current_range_meters":9600,"station_id":"","pricing_plan_id":"cebpf4jnsgd1na2vs0mg"},{"bike_id":"70c78a48-13f7-49a8-88e8-94f886fe01f3","system_id":"levelo_inurba_marseille","lat":43.29551,"lon":5.36286,"is_reserved":false,"is_disabled":false,"rental_uris":{"android":"levelo://app?vid=70c78a48-13f7-49a8-88e8-94f886fe01f3","ios":"levelo://app?vid=70c78a48-13f7-49a8-88e8-94f886fe01f3"},"vehicle_type_id":"4","last_reported":1716066373,"current_range_meters":17200,"station_id":"","pricing_plan_id":"cebpf4jnsgd1na2vs0mg"},{"bike_id":"3c6685f8-9845-4cfd-8f16-35a649f940f6","system_id":"levelo_inurba_marseille","lat":43.297115,"lon":5.3779,"is_reserved":false,"is_disabled":false,"rental_uris":{"android":"levelo://app?vid=3c6685f8-9845-4cfd-8f16-35a649f940f6","ios":"levelo://app?vid=3c6685f8-9845-4cfd-8f16-35a649f940f6"},"vehicle_type_id":"4","last_reported":1716066373,"current_range_meters":0,"station_id":"","pricing_plan_id":"cebpf4jnsgd1na2vs0mg"},{"bike_id":"d44adfda-1584-4ed1-8012-bab1aa64222c","system_id":"levelo_inurba_marseille","lat":43.317557,"lon":5.390173,"is_reserved":false,"is_disabled":false,"rental_uris":{"android":"levelo://app?vid=d44adfda-1584-4ed1-8012-bab1aa64222c","ios":"levelo://app?vid=d44adfda-1584-4ed1-8012-bab1aa64222c"},"vehicle_type_id":"4","last_reported":1716066373,"current_range_meters":8800,"station_id":"ce4bhqp2rcd13ifvqhng","pricing_plan_id":"cebpf4jnsgd1na2vs0mg"},{"bike_id":"6e1a282b-4496-408a-9d02-d9df66f97a03","system_id":"levelo_inurba_marseille","lat":43.317557,"lon":5.390173,"is_reserved":false,"is_disabled":false,"rental_uris":{"android":"levelo://app?vid=6e1a282b-4496-408a-9d02-d9df66f97a03","ios":"levelo://app?vid=6e1a282b-4496-408a-9d02-d9df66f97a03"},"vehicle_type_id":"4","last_reported":1716066373,"current_range_meters":23600,"station_id":"ce4bhqp2rcd13ifvqhng","pricing_plan_id":"cebpf4jnsgd1na2vs0mg"},{"bike_id":"096d35ad-a372-469a-9867-391a9e8c537b","system_id":"levelo_inurba_marseille","lat":43.2958,"lon":5.37501,"is_reserved":false,"is_disabled":false,"rental_uris":{"android":"levelo://app?vid=096d35ad-a372-469a-9867-391a9e8c537b","ios":"levelo://app?vid=096d35ad-a372-469a-9867-391a9e8c537b"},"vehicle_type_id":"4","last_reported":1716066373,"current_range_meters":10000,"station_id":"ce4bgh92rcd13ifvqb50","pricing_plan_id":"cebpf4jnsgd1na2vs0mg"},{"bike_id":"4c3caf40-2da4-486b-962c-1fff25847a04","system_id":"levelo_inurba_marseille","lat":43.29802,"lon":5.38101,"is_reserved":false,"is_disabled":false,"rental_uris":{"android":"levelo://app?vid=4c3caf40-2da4-486b-962c-1fff25847a04","ios":"levelo://app?vid=4c3caf40-2da4-486b-962c-1fff25847a04"},"vehicle_type_id":"4","last_reported":1716066373,"current_range_meters":1600,"station_id":"ce4bgip2rcd13ifvqbb0","pricing_plan_id":"cebpf4jnsgd1na2vs0mg"},{"bike_id":"11ba5d87-ae50-4b52-b504-88ccd9576526","system_id":"levelo_inurba_marseille","lat":43.295748,"lon":5.37522,"is_reserved":false,"is_disabled":false,"rental_uris":{"android":"levelo://app?vid=11ba5d87-ae50-4b52-b504-88ccd9576526","ios":"levelo://app?vid=11ba5d87-ae50-4b52-b504-88ccd9576526"},"vehicle_type_id":"4","last_reported":1716066373,"current_range_meters":0,"station_id":"ce4bgh92rcd13ifvqb50","pricing_plan_id":"cebpf4jnsgd1na2vs0mg"},{"bike_id":"0753b168-4cd1-4383-a56a-616481b1ccbe","system_id":"levelo_inurba_marseille","lat":43.29576,"lon":5.37505,"is_reserved":false,"is_disabled":false,"rental_uris":{"android":"levelo://app?vid=0753b168-4cd1-4383-a56a-616481b1ccbe","ios":"levelo://app?vid=0753b168-4cd1-4383-a56a-616481b1ccbe"},"vehicle_type_id":"4","last_reported":1716066373,"current_range_meters":400,"station_id":"ce4bgh92rcd13ifvqb50","pricing_plan_id":"cebpf4jnsgd1na2vs0mg"},{"bike_id":"8f7e4d96-6a2a-4580-bc31-18fc76841c33","system_id":"levelo_inurba_marseille","lat":43.29577,"lon":5.3751,"is_reserved":false,"is_disabled":false,"rental_uris":{"android":"levelo://app?vid=8f7e4d96-6a2a-4580-bc31-18fc76841c33","ios":"levelo://app?vid=8f7e4d96-6a2a-4580-bc31-18fc76841c33"},"vehicle_type_id":"4","last_reported":1716066373,"current_range_meters":0,"station_id":"ce4bgh92rcd13ifvqb50","pricing_plan_id":"cebpf4jnsgd1na2vs0mg"},{"bike_id":"396a4e93-3666-45a5-8c68-be4246cb4951","system_id":"levelo_inurba_marseille","lat":43.296277,"lon":5.377108,"is_reserved":false,"is_disabled":false,"rental_uris":{"android":"levelo://app?vid=396a4e93-3666-45a5-8c68-be4246cb4951","ios":"levelo://app?vid=396a4e93-3666-45a5-8c68-be4246cb4951"},"vehicle_type_id":"4","last_reported":1716066373,"current_range_meters":15200,"station_id":"ce4bgi92rcd13ifvqb90","pricing_plan_id":"cebpf4jnsgd1na2vs0mg"},{"bike_id":"34365386-b339-4072-a7b2-f8c6437e6f88","system_id":"levelo_inurba_marseille","lat":43.30434,"lon":5.38886,"is_reserved":false,"is_disabled":false,"rental_uris":{"android":"levelo://app?vid=34365386-b339-4072-a7b2-f8c6437e6f88","ios":"levelo://app?vid=34365386-b339-4072-a7b2-f8c6437e6f88"},"vehicle_type_id":"4","last_reported":1716066373,"current_range_meters":0,"station_id":"ce4bgk12rcd13ifvqbi0","pricing_plan_id":"cebpf4jnsgd1na2vs0mg"},{"bike_id":"8af7ef05-50e9-40b7-9d04-61ef1f4df37d","system_id":"levelo_inurba_marseille","lat":43.29564,"lon":5.374877,"is_reserved":false,"is_disabled":false,"rental_uris":{"android":"levelo://app?vid=8af7ef05-50e9-40b7-9d04-61ef1f4df37d","ios":"levelo://app?vid=8af7ef05-50e9-40b7-9d04-61ef1f4df37d"},"vehicle_type_id":"4","last_reported":1716066373,"current_range_meters":0,"station_id":"ce4bgh92rcd13ifvqb50","pricing_plan_id":"cebpf4jnsgd1na2vs0mg"},{"bike_id":"22b87ecc-555d-44f4-af5c-ac2198f48d42","system_id":"levelo_inurba_marseille","lat":43.295748,"lon":5.37522,"is_reserved":false,"is_disabled":false,"rental_uris":{"android":"levelo://app?vid=22b87ecc-555d-44f4-af5c-ac2198f48d42","ios":"levelo://app?vid=22b87ecc-555d-44f4-af5c-ac2198f48d42"},"vehicle_type_id":"4","last_reported":1716066373,"current_range_meters":0,"station_id":"ce4bgh92rcd13ifvqb50","pricing_plan_id":"cebpf4jnsgd1na2vs0mg"},{"bike_id":"208e0a15-137a-4ea3-b7f1-e04e5cbd0926","system_id":"levelo_inurba_marseille","lat":43.29567,"lon":5.37532,"is_reserved":false,"is_disabled":false,"rental_uris":{"android":"levelo://app?vid=208e0a15-137a-4ea3-b7f1-e04e5cbd0926","ios":"levelo://app?vid=208e0a15-137a-4ea3-b7f1-e04e5cbd0926"},"vehicle_type_id":"4","last_reported":1716066373,"current_range_meters":14000,"station_id":"ce4bgh92rcd13ifvqb50","pricing_plan_id":"cebpf4jnsgd1na2vs0mg"},{"bike_id":"14f1bd29-57ec-417e-86f2-2b507c64e698","system_id":"levelo_inurba_marseille","lat":43.29613,"lon":5.37727,"is_reserved":false,"is_disabled":false,"rental_uris":{"android":"levelo://app?vid=14f1bd29-57ec-417e-86f2-2b507c64e698","ios":"levelo://app?vid=14f1bd29-57ec-417e-86f2-2b507c64e698"},"vehicle_type_id":"4","last_reported":1716066373,"current_range_meters":0,"station_id":"ce4bgi92rcd13ifvqb90","pricing_plan_id":"cebpf4jnsgd1na2vs0mg"},{"bike_id":"683b8f18-cbbe-43ad-b771-bf2ba8225c0d","system_id":"levelo_inurba_marseille","lat":43.29616,"lon":5.37741,"is_reserved":false,"is_disabled":false,"rental_uris":{"android":"levelo://app?vid=683b8f18-cbbe-43ad-b771-bf2ba8225c0d","ios":"levelo://app?vid=683b8f18-cbbe-43ad-b771-bf2ba8225c0d"},"vehicle_type_id":"4","last_reported":1716066373,"current_range_meters":0,"station_id":"ce4bgi92rcd13ifvqb90","pricing_plan_id":"cebpf4jnsgd1na2vs0mg"},{"bike_id":"7b2c406a-1272-4de3-94f0-125b950acb73","system_id":"levelo_inurba_marseille","lat":43.29611,"lon":5.37732,"is_reserved":false,"is_disabled":false,"rental_uris":{"android":"levelo://app?vid=7b2c406a-1272-4de3-94f0-125b950acb73","ios":"levelo://app?vid=7b2c406a-1272-4de3-94f0-125b950acb73"},"vehicle_type_id":"4","last_reported":1716066373,"current_range_meters":0,"station_id":"ce4bgi92rcd13ifvqb90","pricing_plan_id":"cebpf4jnsgd1na2vs0mg"},{"bike_id":"29ac75a7-88a9-408e-b80f-fe5f2eb552ef","system_id":"levelo_inurba_marseille","lat":43.299707,"lon":5.384859,"is_reserved":false,"is_disabled":false,"rental_uris":{"android":"levelo://app?vid=29ac75a7-88a9-408e-b80f-fe5f2eb552ef","ios":"levelo://app?vid=29ac75a7-88a9-408e-b80f-fe5f2eb552ef"},"vehicle_type_id":"4","last_reported":1716066373,"current_range_meters":2000,"station_id":"ce4bgj92rcd13ifvqbd0","pricing_plan_id":"cebpf4jnsgd1na2vs0mg"},{"bike_id":"d5d2eea5-1adb-4a93-8baa-386795011fc2","system_id":"levelo_inurba_marseille","lat":43.325594,"lon":5.386439,"is_reserved":false,"is_disabled":false,"rental_uris":{"android":"levelo://app?vid=d5d2eea5-1adb-4a93-8baa-386795011fc2","ios":"levelo://app?vid=d5d2eea5-1adb-4a93-8baa-386795011fc2"},"vehicle_type_id":"4","last_reported":1716066373,"current_range_meters":2400,"station_id":"","pricing_plan_id":"cebpf4jnsgd1na2vs0mg"},{"bike_id":"d49040e7-585d-4332-b4f6-a2b690b6591a","system_id":"levelo_inurba_marseille","lat":43.29439,"lon":5.37459,"is_reserved":false,"is_disabled":false,"rental_uris":{"android":"levelo://app?vid=d49040e7-585d-4332-b4f6-a2b690b6591a","ios":"levelo://app?vid=d49040e7-585d-4332-b4f6-a2b690b6591a"},"vehicle_type_id":"4","last_reported":1716066373,"current_range_meters":13200,"station_id":"","pricing_plan_id":"cebpf4jnsgd1na2vs0mg"},{"bike_id":"637b26be-b165-4886-a639-8f455e4c9e41","system_id":"levelo_inurba_marseille","lat":43.32367,"lon":5.388836,"is_reserved":false,"is_disabled":false,"rental_uris":{"android":"levelo://app?vid=637b26be-b165-4886-a639-8f455e4c9e41","ios":"levelo://app?vid=637b26be-b165-4886-a639-8f455e4c9e41"},"vehicle_type_id":"4","last_reported":1716066373,"current_range_meters":16400,"station_id":"ce4bhqp2rcd13ifvqhog","pricing_plan_id":"cebpf4jnsgd1na2vs0mg"},{"bike_id":"0b8816c2-07e3-4878-bec0-44ec660885d0","system_id":"levelo_inurba_marseille","lat":43.32367,"lon":5.388836,"is_reserved":false,"is_disabled":false,"rental_uris":{"android":"levelo://app?vid=0b8816c2-07e3-4878-bec0-44ec660885d0","ios":"levelo://app?vid=0b8816c2-07e3-4878-bec0-44ec660885d0"},"vehicle_type_id":"4","last_reported":1716066373,"current_range_meters":11600,"station_id":"ce4bhqp2rcd13ifvqhog","pricing_plan_id":"cebpf4jnsgd1na2vs0mg"},{"bike_id":"461981fa-eb9c-4ef2-b7b1-6af2f23d76d7","system_id":"levelo_inurba_marseille","lat":43.32367,"lon":5.388836,"is_reserved":false,"is_disabled":false,"rental_uris":{"android":"levelo://app?vid=461981fa-eb9c-4ef2-b7b1-6af2f23d76d7","ios":"levelo://app?vid=461981fa-eb9c-4ef2-b7b1-6af2f23d76d7"},"vehicle_type_id":"4","last_reported":1716066373,"current_range_meters":7200,"station_id":"ce4bhqp2rcd13ifvqhog","pricing_plan_id":"cebpf4jnsgd1na2vs0mg"},{"bike_id":"6e333d20-2f8f-4331-88c7-1d085363343c","system_id":"levelo_inurba_marseille","lat":43.299065,"lon":5.385795,"is_reserved":false,"is_disabled":false,"rental_uris":{"android":"levelo://app?vid=6e333d20-2f8f-4331-88c7-1d085363343c","ios":"levelo://app?vid=6e333d20-2f8f-4331-88c7-1d085363343c"},"vehicle_type_id":"4","last_reported":1716066373,"current_range_meters":5200,"station_id":"","pricing_plan_id":"cebpf4jnsgd1na2vs0mg"},{"bike_id":"3ecd38b9-e771-4ac9-b0cf-13186b71f435","system_id":"levelo_inurba_marseille","lat":43.29602,"lon":5.381084,"is_reserved":false,"is_disabled":false,"rental_uris":{"android":"levelo://app?vid=3ecd38b9-e771-4ac9-b0cf-13186b71f435","ios":"levelo://app?vid=3ecd38b9-e771-4ac9-b0cf-13186b71f435"},"vehicle_type_id":"4","last_reported":1716066373,"current_range_meters":11200,"station_id":"ce4bgl12rcd13ifvqbo0","pricing_plan_id":"cebpf4jnsgd1na2vs0mg"},{"bike_id":"e7f0232f-01d2-4089-aaa8-a8e34661484f","system_id":"levelo_inurba_marseille","lat":43.29602,"lon":5.38098,"is_reserved":false,"is_disabled":false,"rental_uris":{"android":"levelo://app?vid=e7f0232f-01d2-4089-aaa8-a8e34661484f","ios":"levelo://app?vid=e7f0232f-01d2-4089-aaa8-a8e34661484f"},"vehicle_type_id":"4","last_reported":1716066373,"current_range_meters":1600,"station_id":"ce4bgl12rcd13ifvqbo0","pricing_plan_id":"cebpf4jnsgd1na2vs0mg"},{"bike_id":"8c944c12-d06f-4b94-80a3-34451e86fb9c","system_id":"levelo_inurba_marseille","lat":43.29847,"lon":5.38547,"is_reserved":false,"is_disabled":false,"rental_uris":{"android":"levelo://app?vid=8c944c12-d06f-4b94-80a3-34451e86fb9c","ios":"levelo://app?vid=8c944c12-d06f-4b94-80a3-34451e86fb9c"},"vehicle_type_id":"4","last_reported":1716066373,"current_range_meters":17200,"station_id":"","pricing_plan_id":"cebpf4jnsgd1na2vs0mg"},{"bike_id":"67e8ba5d-38d3-43cb-867a-2f2ec8cf2921","system_id":"levelo_inurba_marseille","lat":43.29592,"lon":5.38102,"is_reserved":false,"is_disabled":false,"rental_uris":{"android":"levelo://app?vid=67e8ba5d-38d3-43cb-867a-2f2ec8cf2921","ios":"levelo://app?vid=67e8ba5d-38d3-43cb-867a-2f2ec8cf2921"},"vehicle_type_id":"4","last_reported":1716066373,"current_range_meters":0,"station_id":"ce4bgl12rcd13ifvqbo0","pricing_plan_id":"cebpf4jnsgd1na2vs0mg"},{"bike_id":"a57d4080-3b66-4753-acac-aec775f0ff64","system_id":"levelo_inurba_marseille","lat":43.29312,"lon":5.3718,"is_reserved":false,"is_disabled":false,"rental_uris":{"android":"levelo://app?vid=a57d4080-3b66-4753-acac-aec775f0ff64","ios":"levelo://app?vid=a57d4080-3b66-4753-acac-aec775f0ff64"},"vehicle_type_id":"4","last_reported":1716066373,"current_range_meters":16400,"station_id":"","pricing_plan_id":"cebpf4jnsgd1na2vs0mg"},{"bike_id":"4cd2e648-1d61-425b-9983-03d6ba6a0cf3","system_id":"levelo_inurba_marseille","lat":43.293009,"lon":5.374584,"is_reserved":false,"is_disabled":false,"rental_uris":{"android":"levelo://app?vid=4cd2e648-1d61-425b-9983-03d6ba6a0cf3","ios":"levelo://app?vid=4cd2e648-1d61-425b-9983-03d6ba6a0cf3"},"vehicle_type_id":"4","last_reported":1716066373,"current_range_meters":800,"station_id":"ce4bgi12rcd13ifvqb70","pricing_plan_id":"cebpf4jnsgd1na2vs0mg"},{"bike_id":"b5fbaf5a-a44d-4bf4-a262-945f4cfeebd1","system_id":"levelo_inurba_marseille","lat":43.29301,"lon":5.37457,"is_reserved":false,"is_disabled":false,"rental_uris":{"android":"levelo://app?vid=b5fbaf5a-a44d-4bf4-a262-945f4cfeebd1","ios":"levelo://app?vid=b5fbaf5a-a44d-4bf4-a262-945f4cfeebd1"},"vehicle_type_id":"4","last_reported":1716066373,"current_range_meters":4000,"station_id":"ce4bgi12rcd13ifvqb70","pricing_plan_id":"cebpf4jnsgd1na2vs0mg"},{"bike_id":"11c2bece-b33e-4cc6-9fb0-a9f96d6943bf","system_id":"levelo_inurba_marseille","lat":43.305994,"lon":5.393687,"is_reserved":false,"is_disabled":false,"rental_uris":{"android":"levelo://app?vid=11c2bece-b33e-4cc6-9fb0-a9f96d6943bf","ios":"levelo://app?vid=11c2bece-b33e-4cc6-9fb0-a9f96d6943bf"},"vehicle_type_id":"4","last_reported":1716066373,"current_range_meters":11600,"station_id":"ce4bh0p2rcd13ifvqd80","pricing_plan_id":"cebpf4jnsgd1na2vs0mg"},{"bike_id":"b3ad9101-99f4-4760-b5d9-6b3e8b94fccc","system_id":"levelo_inurba_marseille","lat":43.305994,"lon":5.393687,"is_reserved":false,"is_disabled":false,"rental_uris":{"android":"levelo://app?vid=b3ad9101-99f4-4760-b5d9-6b3e8b94fccc","ios":"levelo://app?vid=b3ad9101-99f4-4760-b5d9-6b3e8b94fccc"},"vehicle_type_id":"4","last_reported":1716066373,"current_range_meters":6400,"station_id":"ce4bh0p2rcd13ifvqd80","pricing_plan_id":"cebpf4jnsgd1na2vs0mg"},{"bike_id":"2406a8aa-bc73-4b38-b8b1-803357fa9b9a","system_id":"levelo_inurba_marseille","lat":43.30595,"lon":5.39359,"is_reserved":false,"is_disabled":false,"rental_uris":{"android":"levelo://app?vid=2406a8aa-bc73-4b38-b8b1-803357fa9b9a","ios":"levelo://app?vid=2406a8aa-bc73-4b38-b8b1-803357fa9b9a"},"vehicle_type_id":"4","last_reported":1716066373,"current_range_meters":0,"station_id":"ce4bh0p2rcd13ifvqd80","pricing_plan_id":"cebpf4jnsgd1na2vs0mg"},{"bike_id":"c78b50e0-86cb-4d63-a754-84623ade9f5f","system_id":"levelo_inurba_marseille","lat":43.293009,"lon":5.374584,"is_reserved":false,"is_disabled":false,"rental_uris":{"android":"levelo://app?vid=c78b50e0-86cb-4d63-a754-84623ade9f5f","ios":"levelo://app?vid=c78b50e0-86cb-4d63-a754-84623ade9f5f"},"vehicle_type_id":"4","last_reported":1716066373,"current_range_meters":0,"station_id":"ce4bgi12rcd13ifvqb70","pricing_plan_id":"cebpf4jnsgd1na2vs0mg"},{"bike_id":"f6701ab6-82d1-4d07-a7b5-ebfef6400bbb","system_id":"levelo_inurba_marseille","lat":43.305994,"lon":5.393687,"is_reserved":false,"is_disabled":false,"rental_uris":{"android":"levelo://app?vid=f6701ab6-82d1-4d07-a7b5-ebfef6400bbb","ios":"levelo://app?vid=f6701ab6-82d1-4d07-a7b5-ebfef6400bbb"},"vehicle_type_id":"4","last_reported":1716066373,"current_range_meters":4000,"station_id":"ce4bh0p2rcd13ifvqd80","pricing_plan_id":"cebpf4jnsgd1na2vs0mg"},{"bike_id":"ce5f1e5c-0f37-419f-834b-79ae7b880e2a","system_id":"levelo_inurba_marseille","lat":43.303002,"lon":5.392142,"is_reserved":false,"is_disabled":false,"rental_uris":{"android":"levelo://app?vid=ce5f1e5c-0f37-419f-834b-79ae7b880e2a","ios":"levelo://app?vid=ce5f1e5c-0f37-419f-834b-79ae7b880e2a"},"vehicle_type_id":"4","last_reported":1716066373,"current_range_meters":26800,"station_id":"ce4bgkh2rcd13ifvqbk0","pricing_plan_id":"cebpf4jnsgd1na2vs0mg"},{"bike_id":"40183ba1-2e62-49c6-af10-4c3af77b951c","system_id":"levelo_inurba_marseille","lat":43.303002,"lon":5.392142,"is_reserved":false,"is_disabled":false,"rental_uris":{"android":"levelo://app?vid=40183ba1-2e62-49c6-af10-4c3af77b951c","ios":"levelo://app?vid=40183ba1-2e62-49c6-af10-4c3af77b951c"},"vehicle_type_id":"4","last_reported":1716066373,"current_range_meters":0,"station_id":"ce4bgkh2rcd13ifvqbk0","pricing_plan_id":"cebpf4jnsgd1na2vs0mg"},{"bike_id":"9590e3ca-6a30-4831-9d78-2d3cf0cfb7e0","system_id":"levelo_inurba_marseille","lat":43.303002,"lon":5.392142,"is_reserved":false,"is_disabled":false,"rental_uris":{"android":"levelo://app?vid=9590e3ca-6a30-4831-9d78-2d3cf0cfb7e0","ios":"levelo://app?vid=9590e3ca-6a30-4831-9d78-2d3cf0cfb7e0"},"vehicle_type_id":"4","last_reported":1716066373,"current_range_meters":0,"station_id":"ce4bgkh2rcd13ifvqbk0","pricing_plan_id":"cebpf4jnsgd1na2vs0mg"},{"bike_id":"6fd7a16e-45d5-4f53-882a-0757899772f7","system_id":"levelo_inurba_marseille","lat":43.302992,"lon":5.392136,"is_reserved":false,"is_disabled":false,"rental_uris":{"android":"levelo://app?vid=6fd7a16e-45d5-4f53-882a-0757899772f7","ios":"levelo://app?vid=6fd7a16e-45d5-4f53-882a-0757899772f7"},"vehicle_type_id":"4","last_reported":1716066373,"current_range_meters":26800,"station_id":"ce4bgkh2rcd13ifvqbk0","pricing_plan_id":"cebpf4jnsgd1na2vs0mg"},{"bike_id":"8230ae9f-dfc2-4502-b0db-4df4f7436645","system_id":"levelo_inurba_marseille","lat":43.293835,"lon":5.378614,"is_reserved":false,"is_disabled":false,"rental_uris":{"android":"levelo://app?vid=8230ae9f-dfc2-4502-b0db-4df4f7436645","ios":"levelo://app?vid=8230ae9f-dfc2-4502-b0db-4df4f7436645"},"vehicle_type_id":"4","last_reported":1716066373,"current_range_meters":0,"station_id":"","pricing_plan_id":"cebpf4jnsgd1na2vs0mg"},{"bike_id":"a54ee67b-db77-4082-a032-f5ed9c56e70e","system_id":"levelo_inurba_marseille","lat":43.303002,"lon":5.392142,"is_reserved":false,"is_disabled":false,"rental_uris":{"android":"levelo://app?vid=a54ee67b-db77-4082-a032-f5ed9c56e70e","ios":"levelo://app?vid=a54ee67b-db77-4082-a032-f5ed9c56e70e"},"vehicle_type_id":"4","last_reported":1716066373,"current_range_meters":0,"station_id":"ce4bgkh2rcd13ifvqbk0","pricing_plan_id":"cebpf4jnsgd1na2vs0mg"},{"bike_id":"85850da3-c8eb-41f5-ae45-cc85d6ce9aa7","system_id":"levelo_inurba_marseille","lat":43.2936,"lon":5.37835,"is_reserved":false,"is_disabled":false,"rental_uris":{"android":"levelo://app?vid=85850da3-c8eb-41f5-ae45-cc85d6ce9aa7","ios":"levelo://app?vid=85850da3-c8eb-41f5-ae45-cc85d6ce9aa7"},"vehicle_type_id":"4","last_reported":1716066373,"current_range_meters":3200,"station_id":"ce4bgjh2rcd13ifvqbf0","pricing_plan_id":"cebpf4jnsgd1na2vs0mg"},{"bike_id":"8e0eb086-0817-4b7b-916b-9749ce79f684","system_id":"levelo_inurba_marseille","lat":43.303002,"lon":5.392142,"is_reserved":false,"is_disabled":false,"rental_uris":{"android":"levelo://app?vid=8e0eb086-0817-4b7b-916b-9749ce79f684","ios":"levelo://app?vid=8e0eb086-0817-4b7b-916b-9749ce79f684"},"vehicle_type_id":"4","last_reported":1716066373,"current_range_meters":14000,"station_id":"ce4bgkh2rcd13ifvqbk0","pricing_plan_id":"cebpf4jnsgd1na2vs0mg"},{"bike_id":"f1ca2f0e-0a70-49fb-b352-19761b4933ad","system_id":"levelo_inurba_marseille","lat":43.30295,"lon":5.39217,"is_reserved":false,"is_disabled":false,"rental_uris":{"android":"levelo://app?vid=f1ca2f0e-0a70-49fb-b352-19761b4933ad","ios":"levelo://app?vid=f1ca2f0e-0a70-49fb-b352-19761b4933ad"},"vehicle_type_id":"4","last_reported":1716066373,"current_range_meters":0,"station_id":"ce4bgkh2rcd13ifvqbk0","pricing_plan_id":"cebpf4jnsgd1na2vs0mg"},{"bike_id":"ca0efc9e-1792-4f49-9bae-fcf52357a2dc","system_id":"levelo_inurba_marseille","lat":43.29366,"lon":5.37844,"is_reserved":false,"is_disabled":false,"rental_uris":{"android":"levelo://app?vid=ca0efc9e-1792-4f49-9bae-fcf52357a2dc","ios":"levelo://app?vid=ca0efc9e-1792-4f49-9bae-fcf52357a2dc"},"vehicle_type_id":"4","last_reported":1716066373,"current_range_meters":0,"station_id":"ce4bgjh2rcd13ifvqbf0","pricing_plan_id":"cebpf4jnsgd1na2vs0mg"},{"bike_id":"f9676446-bcca-4bc3-9eeb-823875f8a66b","system_id":"levelo_inurba_marseille","lat":43.30085,"lon":5.390856,"is_reserved":false,"is_disabled":false,"rental_uris":{"android":"levelo://app?vid=f9676446-bcca-4bc3-9eeb-823875f8a66b","ios":"levelo://app?vid=f9676446-bcca-4bc3-9eeb-823875f8a66b"},"vehicle_type_id":"4","last_reported":1716066373,"current_range_meters":4400,"station_id":"ce4bh192rcd13ifvqdb0","pricing_plan_id":"cebpf4jnsgd1na2vs0mg"},{"bike_id":"21b8f7be-aafe-41fb-b135-95ecd6e1bff7","system_id":"levelo_inurba_marseille","lat":43.300852,"lon":5.390859,"is_reserved":false,"is_disabled":false,"rental_uris":{"android":"levelo://app?vid=21b8f7be-aafe-41fb-b135-95ecd6e1bff7","ios":"levelo://app?vid=21b8f7be-aafe-41fb-b135-95ecd6e1bff7"},"vehicle_type_id":"4","last_reported":1716066373,"current_range_meters":0,"station_id":"ce4bh192rcd13ifvqdb0","pricing_plan_id":"cebpf4jnsgd1na2vs0mg"},{"bike_id":"3dc2779b-80e2-4826-83a5-28489a7097b5","system_id":"levelo_inurba_marseille","lat":43.30085,"lon":5.390856,"is_reserved":false,"is_disabled":false,"rental_uris":{"android":"levelo://app?vid=3dc2779b-80e2-4826-83a5-28489a7097b5","ios":"levelo://app?vid=3dc2779b-80e2-4826-83a5-28489a7097b5"},"vehicle_type_id":"4","last_reported":1716066373,"current_range_meters":16800,"station_id":"ce4bh192rcd13ifvqdb0","pricing_plan_id":"cebpf4jnsgd1na2vs0mg"},{"bike_id":"2a52fad9-c6cb-4072-ae1f-7bcafcb355e3","system_id":"levelo_inurba_marseille","lat":43.30085,"lon":5.390856,"is_reserved":false,"is_disabled":false,"rental_uris":{"android":"levelo://app?vid=2a52fad9-c6cb-4072-ae1f-7bcafcb355e3","ios":"levelo://app?vid=2a52fad9-c6cb-4072-ae1f-7bcafcb355e3"},"vehicle_type_id":"4","last_reported":1716066373,"current_range_meters":400,"station_id":"ce4bh192rcd13ifvqdb0","pricing_plan_id":"cebpf4jnsgd1na2vs0mg"},{"bike_id":"8fe77066-acba-4f58-a7ff-d6ecf663d475","system_id":"levelo_inurba_marseille","lat":43.30085,"lon":5.390856,"is_reserved":false,"is_disabled":false,"rental_uris":{"android":"levelo://app?vid=8fe77066-acba-4f58-a7ff-d6ecf663d475","ios":"levelo://app?vid=8fe77066-acba-4f58-a7ff-d6ecf663d475"},"vehicle_type_id":"4","last_reported":1716066373,"current_range_meters":23600,"station_id":"ce4bh192rcd13ifvqdb0","pricing_plan_id":"cebpf4jnsgd1na2vs0mg"},{"bike_id":"1f3e7094-272b-4556-8d17-ae3505035d12","system_id":"levelo_inurba_marseille","lat":43.293009,"lon":5.374584,"is_reserved":false,"is_disabled":false,"rental_uris":{"android":"levelo://app?vid=1f3e7094-272b-4556-8d17-ae3505035d12","ios":"levelo://app?vid=1f3e7094-272b-4556-8d17-ae3505035d12"},"vehicle_type_id":"4","last_reported":1716066373,"current_range_meters":4000,"station_id":"ce4bgi12rcd13ifvqb70","pricing_plan_id":"cebpf4jnsgd1na2vs0mg"},{"bike_id":"d776e964-af11-4736-b844-acfde85b87fc","system_id":"levelo_inurba_marseille","lat":43.298764,"lon":5.388973,"is_reserved":false,"is_disabled":false,"rental_uris":{"android":"levelo://app?vid=d776e964-af11-4736-b844-acfde85b87fc","ios":"levelo://app?vid=d776e964-af11-4736-b844-acfde85b87fc"},"vehicle_type_id":"4","last_reported":1716066373,"current_range_meters":2400,"station_id":"ce4bh392rcd13ifvqdl0","pricing_plan_id":"cebpf4jnsgd1na2vs0mg"},{"bike_id":"948d2bbc-afcd-406e-ba75-309299f6239a","system_id":"levelo_inurba_marseille","lat":43.298764,"lon":5.388973,"is_reserved":false,"is_disabled":false,"rental_uris":{"android":"levelo://app?vid=948d2bbc-afcd-406e-ba75-309299f6239a","ios":"levelo://app?vid=948d2bbc-afcd-406e-ba75-309299f6239a"},"vehicle_type_id":"4","last_reported":1716066373,"current_range_meters":20000,"station_id":"ce4bh392rcd13ifvqdl0","pricing_plan_id":"cebpf4jnsgd1na2vs0mg"},{"bike_id":"f791b441-4a84-46ef-9489-b5f9dfb13695","system_id":"levelo_inurba_marseille","lat":43.291673,"lon":5.371551,"is_reserved":false,"is_disabled":false,"rental_uris":{"android":"levelo://app?vid=f791b441-4a84-46ef-9489-b5f9dfb13695","ios":"levelo://app?vid=f791b441-4a84-46ef-9489-b5f9dfb13695"},"vehicle_type_id":"4","last_reported":1716066373,"current_range_meters":0,"station_id":"ce4bha92rcd13ifvqeh0","pricing_plan_id":"cebpf4jnsgd1na2vs0mg"},{"bike_id":"587d759a-8226-46bc-b299-b24884b55ade","system_id":"levelo_inurba_marseille","lat":43.29166,"lon":5.37147,"is_reserved":false,"is_disabled":false,"rental_uris":{"android":"levelo://app?vid=587d759a-8226-46bc-b299-b24884b55ade","ios":"levelo://app?vid=587d759a-8226-46bc-b299-b24884b55ade"},"vehicle_type_id":"4","last_reported":1716066373,"current_range_meters":800,"station_id":"ce4bha92rcd13ifvqeh0","pricing_plan_id":"cebpf4jnsgd1na2vs0mg"},{"bike_id":"7265dd66-fd6f-4712-a821-24d6f3297ded","system_id":"levelo_inurba_marseille","lat":43.298764,"lon":5.388973,"is_reserved":false,"is_disabled":false,"rental_uris":{"android":"levelo://app?vid=7265dd66-fd6f-4712-a821-24d6f3297ded","ios":"levelo://app?vid=7265dd66-fd6f-4712-a821-24d6f3297ded"},"vehicle_type_id":"4","last_reported":1716066373,"current_range_meters":10000,"station_id":"ce4bh392rcd13ifvqdl0","pricing_plan_id":"cebpf4jnsgd1na2vs0mg"},{"bike_id":"97fc928a-fdc5-405a-bb5d-6d2bff5173cd","system_id":"levelo_inurba_marseille","lat":43.291994,"lon":5.392907,"is_reserved":false,"is_disabled":false,"rental_uris":{"android":"levelo://app?vid=97fc928a-fdc5-405a-bb5d-6d2bff5173cd","ios":"levelo://app?vid=97fc928a-fdc5-405a-bb5d-6d2bff5173cd"},"vehicle_type_id":"4","last_reported":1716066373,"current_range_meters":3600,"station_id":"ce4bh192rcd13ifvqdd0","pricing_plan_id":"cebpf4jnsgd1na2vs0mg"},{"bike_id":"499ac8b9-8f94-4444-82b5-cbc1f3fe698b","system_id":"levelo_inurba_marseille","lat":43.298693,"lon":5.389117,"is_reserved":false,"is_disabled":false,"rental_uris":{"android":"levelo://app?vid=499ac8b9-8f94-4444-82b5-cbc1f3fe698b","ios":"levelo://app?vid=499ac8b9-8f94-4444-82b5-cbc1f3fe698b"},"vehicle_type_id":"4","last_reported":1716066373,"current_range_meters":400,"station_id":"ce4bh392rcd13ifvqdl0","pricing_plan_id":"cebpf4jnsgd1na2vs0mg"},{"bike_id":"6d0a9b7e-07e0-4a39-a7e4-59dd805a80ad","system_id":"levelo_inurba_marseille","lat":43.29158,"lon":5.37151,"is_reserved":false,"is_disabled":false,"rental_uris":{"android":"levelo://app?vid=6d0a9b7e-07e0-4a39-a7e4-59dd805a80ad","ios":"levelo://app?vid=6d0a9b7e-07e0-4a39-a7e4-59dd805a80ad"},"vehicle_type_id":"4","last_reported":1716066373,"current_range_meters":0,"station_id":"ce4bha92rcd13ifvqeh0","pricing_plan_id":"cebpf4jnsgd1na2vs0mg"},{"bike_id":"70d81f18-f024-4d85-9cd3-32f68722f98d","system_id":"levelo_inurba_marseille","lat":43.31332,"lon":5.39687,"is_reserved":false,"is_disabled":false,"rental_uris":{"android":"levelo://app?vid=70d81f18-f024-4d85-9cd3-32f68722f98d","ios":"levelo://app?vid=70d81f18-f024-4d85-9cd3-32f68722f98d"},"vehicle_type_id":"4","last_reported":1716066373,"current_range_meters":0,"station_id":"ce4bgvp2rcd13ifvqcu0","pricing_plan_id":"cebpf4jnsgd1na2vs0mg"},{"bike_id":"ef4b5c97-2b31-4a44-a102-3d442e73d7ee","system_id":"levelo_inurba_marseille","lat":43.30881,"lon":5.39642,"is_reserved":false,"is_disabled":false,"rental_uris":{"android":"levelo://app?vid=ef4b5c97-2b31-4a44-a102-3d442e73d7ee","ios":"levelo://app?vid=ef4b5c97-2b31-4a44-a102-3d442e73d7ee"},"vehicle_type_id":"4","last_reported":1716066373,"current_range_meters":0,"station_id":"ce4bh012rcd13ifvqcv0","pricing_plan_id":"cebpf4jnsgd1na2vs0mg"},{"bike_id":"1cff7831-2138-4cbd-ac39-57bdb3fc5e5c","system_id":"levelo_inurba_marseille","lat":43.309038,"lon":5.396546,"is_reserved":false,"is_disabled":false,"rental_uris":{"android":"levelo://app?vid=1cff7831-2138-4cbd-ac39-57bdb3fc5e5c","ios":"levelo://app?vid=1cff7831-2138-4cbd-ac39-57bdb3fc5e5c"},"vehicle_type_id":"4","last_reported":1716066373,"current_range_meters":18800,"station_id":"ce4bh012rcd13ifvqcv0","pricing_plan_id":"cebpf4jnsgd1na2vs0mg"},{"bike_id":"10f672f2-cc9f-4916-bd63-ebe4328d0bd6","system_id":"levelo_inurba_marseille","lat":43.309038,"lon":5.396546,"is_reserved":false,"is_disabled":false,"rental_uris":{"android":"levelo://app?vid=10f672f2-cc9f-4916-bd63-ebe4328d0bd6","ios":"levelo://app?vid=10f672f2-cc9f-4916-bd63-ebe4328d0bd6"},"vehicle_type_id":"4","last_reported":1716066373,"current_range_meters":18800,"station_id":"ce4bh012rcd13ifvqcv0","pricing_plan_id":"cebpf4jnsgd1na2vs0mg"},{"bike_id":"00193de1-f93f-4311-bc48-e12cc88bc183","system_id":"levelo_inurba_marseille","lat":43.313291,"lon":5.396838,"is_reserved":false,"is_disabled":false,"rental_uris":{"android":"levelo://app?vid=00193de1-f93f-4311-bc48-e12cc88bc183","ios":"levelo://app?vid=00193de1-f93f-4311-bc48-e12cc88bc183"},"vehicle_type_id":"4","last_reported":1716066373,"current_range_meters":31200,"station_id":"ce4bgvp2rcd13ifvqcu0","pricing_plan_id":"cebpf4jnsgd1na2vs0mg"},{"bike_id":"1b34754e-5269-43a2-8e9f-dab00f70b785","system_id":"levelo_inurba_marseille","lat":43.309038,"lon":5.396546,"is_reserved":false,"is_disabled":false,"rental_uris":{"android":"levelo://app?vid=1b34754e-5269-43a2-8e9f-dab00f70b785","ios":"levelo://app?vid=1b34754e-5269-43a2-8e9f-dab00f70b785"},"vehicle_type_id":"4","last_reported":1716066373,"current_range_meters":15600,"station_id":"ce4bh012rcd13ifvqcv0","pricing_plan_id":"cebpf4jnsgd1na2vs0mg"},{"bike_id":"f01df45f-7b48-49dd-ae28-6120f6fc9156","system_id":"levelo_inurba_marseille","lat":43.309038,"lon":5.396546,"is_reserved":false,"is_disabled":false,"rental_uris":{"android":"levelo://app?vid=f01df45f-7b48-49dd-ae28-6120f6fc9156","ios":"levelo://app?vid=f01df45f-7b48-49dd-ae28-6120f6fc9156"},"vehicle_type_id":"4","last_reported":1716066373,"current_range_meters":6000,"station_id":"ce4bh012rcd13ifvqcv0","pricing_plan_id":"cebpf4jnsgd1na2vs0mg"},{"bike_id":"ff7d417c-a097-48af-bb4d-8bc38872d48b","system_id":"levelo_inurba_marseille","lat":43.309047,"lon":5.396551,"is_reserved":false,"is_disabled":false,"rental_uris":{"android":"levelo://app?vid=ff7d417c-a097-48af-bb4d-8bc38872d48b","ios":"levelo://app?vid=ff7d417c-a097-48af-bb4d-8bc38872d48b"},"vehicle_type_id":"4","last_reported":1716066373,"current_range_meters":9200,"station_id":"ce4bh012rcd13ifvqcv0","pricing_plan_id":"cebpf4jnsgd1na2vs0mg"},{"bike_id":"db16f1cd-d070-489a-950f-278e80acbff0","system_id":"levelo_inurba_marseille","lat":43.3132,"lon":5.39702,"is_reserved":false,"is_disabled":false,"rental_uris":{"android":"levelo://app?vid=db16f1cd-d070-489a-950f-278e80acbff0","ios":"levelo://app?vid=db16f1cd-d070-489a-950f-278e80acbff0"},"vehicle_type_id":"4","last_reported":1716066373,"current_range_meters":0,"station_id":"ce4bgvp2rcd13ifvqcu0","pricing_plan_id":"cebpf4jnsgd1na2vs0mg"},