{"last_updated":1714849624,"ttl":30,"version":"2.2","data":{"bikes":[{"bike_id":"48c9d953-55ef-4574-a3f7-79dcf5b08d12","system_id":"levelo_inurba_marseille","lat":43.312239,"lon":5.368562,"is_reserved":false,"is_disabled":false,"rental_uris":{"android":"levelo://app?vid=48c9d953-55ef-4574-a3f7-79dcf5b08d12","ios":"levelo://app?vid=48c9d953-55ef-4574-a3f7-79dcf5b08d12"},"vehicle_type_id":"4","last_reported":1714849624,"current_range_meters":10400,"station_id":"ce4bgl92rcd13ifvqbq0","pricing_plan_id":"cebpf4jnsgd1na2vs0mg"},{"bike_id":"748a9a81-731f-4272-952c-dc61e3452f36","system_id":"levelo_inurba_marseille","lat":43.312239,"lon":5.368562,"is_reserved":false,"is_disabled":false,"rental_uris":{"android":"levelo://app?vid=748a9a81-731f-4272-952c-dc61e3452f36","ios":"levelo://app?vid=748a9a81-731f-4272-952c-dc61e3452f36"},"vehicle_type_id":"4","last_reported":1714849624,"current_range_meters":400,"station_id":"ce4bgl92rcd13ifvqbq0","pricing_plan_id":"cebpf4jnsgd1na2vs0mg"},{"bike_id":"ea2360d1-dc98-4f1a-94ca-667de884dbe0","system_id":"levelo_inurba_marseille","lat":43.309076,"lon":5.368465,"is_reserved":false,"is_disabled":false,"rental_uris":{"android":"levelo://app?vid=ea2360d1-dc98-4f1a-94ca-667de884dbe0","ios":"levelo://app?vid=ea2360d1-dc98-4f1a-94ca-667de884dbe0"},"vehicle_type_id":"4","last_reported":1714849624,"current_range_meters":12000,"station_id":"ce4bgn92rcd13ifvqbvg","pricing_plan_id":"cebpf4jnsgd1na2vs0mg"},{"bike_id":"b75ceb24-52cf-4067-8cee-6b413e507334","system_id":"levelo_inurba_marseille","lat":43.309076,"lon":5.368465,"is_reserved":false,"is_disabled":false,"rental_uris":{"android":"levelo://app?vid=b75ceb24-52cf-4067-8cee-6b413e507334","ios":"levelo://app?vid=b75ceb24-52cf-4067-8cee-6b413e507334"},"vehicle_type_id":"4","last_reported":1714849624,"current_range_meters":14400,"station_id":"ce4bgn92rcd13ifvqbvg","pricing_plan_id":"cebpf4jnsgd1na2vs0mg"},{"bike_id":"4f3793b3-a507-4e8c-abb9-2c8564922689","system_id":"levelo_inurba_marseille","lat":43.309076,"lon":5.368465,"is_reserved":false,"is_disabled":false,"rental_uris":{"android":"levelo://app?vid=4f3793b3-a507-4e8c-abb9-2c8564922689","ios":"levelo://app?vid=4f3793b3-a507-4e8c-abb9-2c8564922689"},"vehicle_type_id":"4","last_reported":1714849624,"current_range_meters":12000,"station_id":"ce4bgn92rcd13ifvqbvg","pricing_plan_id":"cebpf4jnsgd1na2vs0mg"},{"bike_id":"ee8273c4-15f3-48b9-9e19-813e39508c5c","system_id":"levelo_inurba_marseille","lat":43.31492,"lon":5.37296,"is_reserved":false,"is_disabled":false,"rental_uris":{"android":"levelo://app?vid=ee8273c4-15f3-48b9-9e19-813e39508c5c","ios":"levelo://app?vid=ee8273c4-15f3-48b9-9e19-813e39508c5c"},"vehicle_type_id":"4","last_reported":1714849624,"current_range_meters":0,"station_id":"ce4bgt12rcd13ifvqcd0","pricing_plan_id":"cebpf4jnsgd1na2vs0mg"},{"bike_id":"8ce6722d-5e10-46c2-a0e6-c4b9454aeb06","system_id":"levelo_inurba_marseille","lat":43.314811,"lon":5.373104,"is_reserved":false,"is_disabled":false,"rental_uris":{"android":"levelo://app?vid=8ce6722d-5e10-46c2-a0e6-c4b9454aeb06","ios":"levelo://app?vid=8ce6722d-5e10-46c2-a0e6-c4b9454aeb06"},"vehicle_type_id":"4","last_reported":1714849624,"current_range_meters":0,"station_id":"ce4bgt12rcd13ifvqcd0","pricing_plan_id":"cebpf4jnsgd1na2vs0mg"},{"bike_id":"0516c46a-82e7-4e47-8b7f-5193f4f27ea7","system_id":"levelo_inurba_marseille","lat":43.309034,"lon":5.371783,"is_reserved":false,"is_disabled":false,"rental_uris":{"android":"levelo://app?vid=0516c46a-82e7-4e47-8b7f-5193f4f27ea7","ios":"levelo://app?vid=0516c46a-82e7-4e47-8b7f-5193f4f27ea7"},"vehicle_type_id":"4","last_reported":1714849624,"current_range_meters":25600,"station_id":"ce4bguh2rcd13ifvqckg","pricing_plan_id":"cebpf4jnsgd1na2vs0mg"},{"bike_id":"3cf43a1c-3a68-4d32-b2ce-5eaba64f4202","system_id":"levelo_inurba_marseille","lat":43.309034,"lon":5.371783,"is_reserved":false,"is_disabled":false,"rental_uris":{"android":"levelo://app?vid=3cf43a1c-3a68-4d32-b2ce-5eaba64f4202","ios":"levelo://app?vid=3cf43a1c-3a68-4d32-b2ce-5eaba64f4202"},"vehicle_type_id":"4","last_reported":1714849624,"current_range_meters":4400,"station_id":"ce4bguh2rcd13ifvqckg","pricing_plan_id":"cebpf4jnsgd1na2vs0mg"},{"bike_id":"350e550a-68bb-40a2-8904-60e71b64f24b","system_id":"levelo_inurba_marseille","lat":43.309039,"lon":5.371797,"is_reserved":false,"is_disabled":false,"rental_uris":{"android":"levelo://app?vid=350e550a-68bb-40a2-8904-60e71b64f24b","ios":"levelo://app?vid=350e550a-68bb-40a2-8904-60e71b64f24b"},"vehicle_type_id":"4","last_reported":1714849624,"current_range_meters":400,"station_id":"ce4bguh2rcd13ifvqckg","pricing_plan_id":"cebpf4jnsgd1na2vs0mg"},{"bike_id":"ac8d2186-4227-44a3-9ad6-7829be14ed4e","system_id":"levelo_inurba_marseille","lat":43.305989,"lon":5.37225,"is_reserved":false,"is_disabled":false,"rental_uris":{"android":"levelo://app?vid=ac8d2186-4227-44a3-9ad6-7829be14ed4e","ios":"levelo://app?vid=ac8d2186-4227-44a3-9ad6-7829be14ed4e"},"vehicle_type_id":"4","last_reported":1714849624,"current_range_meters":3600,"station_id":"ce4bgqh2rcd13ifvqc4g","pricing_plan_id":"cebpf4jnsgd1na2vs0mg"},{"bike_id":"1c12942a-2a2b-4941-a162-eb524c618635","system_id":"levelo_inurba_marseille","lat":43.305989,"lon":5.37225,"is_reserved":false,"is_disabled":false,"rental_uris":{"android":"levelo://app?vid=1c12942a-2a2b-4941-a162-eb524c618635","ios":"levelo://app?vid=1c12942a-2a2b-4941-a162-eb524c618635"},"vehicle_type_id":"4","last_reported":1714849624,"current_range_meters":8800,"station_id":"ce4bgqh2rcd13ifvqc4g","pricing_plan_id":"cebpf4jnsgd1na2vs0mg"},{"bike_id":"b26722e7-49ab-464d-9ccb-a403ffec33f3","system_id":"levelo_inurba_marseille","lat":43.305989,"lon":5.37225,"is_reserved":false,"is_disabled":false,"rental_uris":{"android":"levelo://app?vid=b26722e7-49ab-464d-9ccb-a403ffec33f3","ios":"levelo://app?vid=b26722e7-49ab-464d-9ccb-a403ffec33f3"},"vehicle_type_id":"4","last_reported":1714849624,"current_range_meters":27200,"station_id":"ce4bgqh2rcd13ifvqc4g","pricing_plan_id":"cebpf4jnsgd1na2vs0mg"},{"bike_id":"9b5c2498-7d31-422c-8c6d-cf30be452cb3","system_id":"levelo_inurba_marseille","lat":43.311131,"lon":5.377651,"is_reserved":false,"is_disabled":false,"rental_uris":{"android":"levelo://app?vid=9b5c2498-7d31-422c-8c6d-cf30be452cb3","ios":"levelo://app?vid=9b5c2498-7d31-422c-8c6d-cf30be452cb3"},"vehicle_type_id":"4","last_reported":1714849624,"current_range_meters":18000,"station_id":"ce4bgt92rcd13ifvqcg0","pricing_plan_id":"cebpf4jnsgd1na2vs0mg"},{"bike_id":"698f6823-1041-4e4a-acc0-8c776c357a85","system_id":"levelo_inurba_marseille","lat":43.31116,"lon":5.37772,"is_reserved":false,"is_disabled":false,"rental_uris":{"android":"levelo://app?vid=698f6823-1041-4e4a-acc0-8c776c357a85","ios":"levelo://app?vid=698f6823-1041-4e4a-acc0-8c776c357a85"},"vehicle_type_id":"4","last_reported":1714849624,"current_range_meters":0,"station_id":"ce4bgt92rcd13ifvqcg0","pricing_plan_id":"cebpf4jnsgd1na2vs0mg"},{"bike_id":"e371d689-c842-47e8-8756-4e66dff5c5bc","system_id":"levelo_inurba_marseille","lat":43.311131,"lon":5.377651,"is_reserved":false,"is_disabled":false,"rental_uris":{"android":"levelo://app?vid=e371d689-c842-47e8-8756-4e66dff5c5bc","ios":"levelo://app?vid=e371d689-c842-47e8-8756-4e66dff5c5bc"},"vehicle_type_id":"4","last_reported":1714849624,"current_range_meters":18800,"station_id":"ce4bgt92rcd13ifvqcg0","pricing_plan_id":"cebpf4jnsgd1na2vs0mg"},{"bike_id":"abe436ef-d958-45d0-9f71-f82ad9804dbe","system_id":"levelo_inurba_marseille","lat":43.311125,"lon":5.377624,"is_reserved":false,"is_disabled":false,"rental_uris":{"android":"levelo://app?vid=abe436ef-d958-45d0-9f71-f82ad9804dbe","ios":"levelo://app?vid=abe436ef-d958-45d0-9f71-f82ad9804dbe"},"vehicle_type_id":"4","last_reported":1714849624,"current_range_meters":8400,"station_id":"ce4bgt92rcd13ifvqcg0","pricing_plan_id":"cebpf4jnsgd1na2vs0mg"},{"bike_id":"413bbf7e-9177-436e-928d-a857082b01e8","system_id":"levelo_inurba_marseille","lat":43.307945,"lon":5.376487,"is_reserved":false,"is_disabled":false,"rental_uris":{"android":"levelo://app?vid=413bbf7e-9177-436e-928d-a857082b01e8","ios":"levelo://app?vid=413bbf7e-9177-436e-928d-a857082b01e8"},"vehicle_type_id":"4","last_reported":1714849624,"current_range_meters":5600,"station_id":"ce4bgv92rcd13ifvqcq0","pricing_plan_id":"cebpf4jnsgd1na2vs0mg"},{"bike_id":"4ae4813f-510c-4921-b8e8-2b9a187250dc","system_id":"levelo_inurba_marseille","lat":43.303046,"lon":5.368981,"is_reserved":false,"is_disabled":false,"rental_uris":{"android":"levelo://app?vid=4ae4813f-510c-4921-b8e8-2b9a187250dc","ios":"levelo://app?vid=4ae4813f-510c-4921-b8e8-2b9a187250dc"},"vehicle_type_id":"4","last_reported":1714849624,"current_range_meters":31200,"station_id":"ce4bgqh2rcd13ifvqc5g","pricing_plan_id":"cebpf4jnsgd1na2vs0mg"},{"bike_id":"219d4853-6b8c-4e61-946a-95158e7a04fd","system_id":"levelo_inurba_marseille","lat":43.303046,"lon":5.368981,"is_reserved":false,"is_disabled":false,"rental_uris":{"android":"levelo://app?vid=219d4853-6b8c-4e61-946a-95158e7a04fd","ios":"levelo://app?vid=219d4853-6b8c-4e61-946a-95158e7a04fd"},"vehicle_type_id":"4","last_reported":1714849624,"current_range_meters":28400,"station_id":"ce4bgqh2rcd13ifvqc5g","pricing_plan_id":"cebpf4jnsgd1na2vs0mg"},{"bike_id":"47f7b856-f7c5-4c48-a346-368730d8ff17","system_id":"levelo_inurba_marseille","lat":43.303068,"lon":5.368905,"is_reserved":false,"is_disabled":false,"rental_uris":{"android":"levelo://app?vid=47f7b856-f7c5-4c48-a346-368730d8ff17","ios":"levelo://app?vid=47f7b856-f7c5-4c48-a346-368730d8ff17"},"vehicle_type_id":"4","last_reported":1714849624,"current_range_meters":1200,"station_id":"ce4bgqh2rcd13ifvqc5g","pricing_plan_id":"cebpf4jnsgd1na2vs0mg"},{"bike_id":"bee932e0-450b-4811-936a-095c4c48830a","system_id":"levelo_inurba_marseille","lat":43.303046,"lon":5.368981,"is_reserved":false,"is_disabled":false,"rental_uris":{"android":"levelo://app?vid=bee932e0-450b-4811-936a-095c4c48830a","ios":"levelo://app?vid=bee932e0-450b-4811-936a-095c4c48830a"},"vehicle_type_id":"4","last_reported":1714849624,"current_range_meters":20000,"station_id":"ce4bgqh2rcd13ifvqc5g","pricing_plan_id":"cebpf4jnsgd1na2vs0mg"},{"bike_id":"90d51f21-23c6-4c19-92fb-a4578ae5d3ac","system_id":"levelo_inurba_marseille","lat":43.315289,"lon":5.380349,"is_reserved":false,"is_disabled":false,"rental_uris":{"android":"levelo://app?vid=90d51f21-23c6-4c19-92fb-a4578ae5d3ac","ios":"levelo://app?vid=90d51f21-23c6-4c19-92fb-a4578ae5d3ac"},"vehicle_type_id":"4","last_reported":1714849624,"current_range_meters":14800,"station_id":"ce4bhsp2rcd13ifvqi50","pricing_plan_id":"cebpf4jnsgd1na2vs0mg"},{"bike_id":"8091e401-9865-4569-b4fe-896fb49646bf","system_id":"levelo_inurba_marseille","lat":43.30198,"lon":5.36624,"is_reserved":false,"is_disabled":false,"rental_uris":{"android":"levelo://app?vid=8091e401-9865-4569-b4fe-896fb49646bf","ios":"levelo://app?vid=8091e401-9865-4569-b4fe-896fb49646bf"},"vehicle_type_id":"4","last_reported":1714849624,"current_range_meters":0,"station_id":"ce4bgrh2rcd13ifvqc8g","pricing_plan_id":"cebpf4jnsgd1na2vs0mg"},{"bike_id":"e5166a4e-2120-4dbf-b81e-a37d7a559be8","system_id":"levelo_inurba_marseille","lat":43.301939,"lon":5.366286,"is_reserved":false,"is_disabled":false,"rental_uris":{"android":"levelo://app?vid=e5166a4e-2120-4dbf-b81e-a37d7a559be8","ios":"levelo://app?vid=e5166a4e-2120-4dbf-b81e-a37d7a559be8"},"vehicle_type_id":"4","last_reported":1714849624,"current_range_meters":6000,"station_id":"ce4bgrh2rcd13ifvqc8g","pricing_plan_id":"cebpf4jnsgd1na2vs0mg"},{"bike_id":"be31267a-d116-4ff0-9308-f67ecf2f646c","system_id":"levelo_inurba_marseille","lat":43.302197,"lon":5.371315,"is_reserved":false,"is_disabled":false,"rental_uris":{"android":"levelo://app?vid=be31267a-d116-4ff0-9308-f67ecf2f646c","ios":"levelo://app?vid=be31267a-d116-4ff0-9308-f67ecf2f646c"},"vehicle_type_id":"4","last_reported":1714849624,"current_range_meters":2800,"station_id":"","pricing_plan_id":"cebpf4jnsgd1na2vs0mg"},{"bike_id":"adb5568a-aac4-4570-990c-66ccb42e59ba","system_id":"levelo_inurba_marseille","lat":43.324771,"lon":5.36557,"is_reserved":false,"is_disabled":false,"rental_uris":{"android":"levelo://app?vid=adb5568a-aac4-4570-990c-66ccb42e59ba","ios":"levelo://app?vid=adb5568a-aac4-4570-990c-66ccb42e59ba"},"vehicle_type_id":"4","last_reported":1714849624,"current_range_meters":11200,"station_id":"ce4bhs12rcd13ifvqhvg","pricing_plan_id":"cebpf4jnsgd1na2vs0mg"},{"bike_id":"8ca376c5-ccc7-4f28-a391-faca70d3caae","system_id":"levelo_inurba_marseille","lat":43.30802,"lon":5.38162,"is_reserved":false,"is_disabled":false,"rental_uris":{"android":"levelo://app?vid=8ca376c5-ccc7-4f28-a391-faca70d3caae","ios":"levelo://app?vid=8ca376c5-ccc7-4f28-a391-faca70d3caae"},"vehicle_type_id":"4","last_reported":1714849624,"current_range_meters":0,"station_id":"ce4bgt12rcd13ifvqce0","pricing_plan_id":"cebpf4jnsgd1na2vs0mg"},{"bike_id":"9010bb3f-05ee-43ca-bcce-75da2b286970","system_id":"levelo_inurba_marseille","lat":43.30481,"lon":5.37891,"is_reserved":false,"is_disabled":false,"rental_uris":{"android":"levelo://app?vid=9010bb3f-05ee-43ca-bcce-75da2b286970","ios":"levelo://app?vid=9010bb3f-05ee-43ca-bcce-75da2b286970"},"vehicle_type_id":"4","last_reported":1714849624,"current_range_meters":0,"station_id":"ce4bgup2rcd13ifvqcn0","pricing_plan_id":"cebpf4jnsgd1na2vs0mg"},{"bike_id":"6b19980d-3ed6-45e2-b938-90b50f118497","system_id":"levelo_inurba_marseille","lat":43.324771,"lon":5.36557,"is_reserved":false,"is_disabled":false,"rental_uris":{"android":"levelo://app?vid=6b19980d-3ed6-45e2-b938-90b50f118497","ios":"levelo://app?vid=6b19980d-3ed6-45e2-b938-90b50f118497"},"vehicle_type_id":"4","last_reported":1714849624,"current_range_meters":22400,"station_id":"ce4bhs12rcd13ifvqhvg","pricing_plan_id":"cebpf4jnsgd1na2vs0mg"},{"bike_id":"b8e85860-83bd-44ee-a8fb-6b78bef40b3d","system_id":"levelo_inurba_marseille","lat":43.300613,"lon":5.365927,"is_reserved":false,"is_disabled":false,"rental_uris":{"android":"levelo://app?vid=b8e85860-83bd-44ee-a8fb-6b78bef40b3d","ios":"levelo://app?vid=b8e85860-83bd-44ee-a8fb-6b78bef40b3d"},"vehicle_type_id":"4","last_reported":1714849624,"current_range_meters":0,"station_id":"","pricing_plan_id":"cebpf4jnsgd1na2vs0mg"},{"bike_id":"4dcb23d3-3d35-4cb3-9a29-0a92a2784895","system_id":"levelo_inurba_marseille","lat":43.3107,"lon":5.38342,"is_reserved":false,"is_disabled":false,"rental_uris":{"android":"levelo://app?vid=4dcb23d3-3d35-4cb3-9a29-0a92a2784895","ios":"levelo://app?vid=4dcb23d3-3d35-4cb3-9a29-0a92a2784895"},"vehicle_type_id":"4","last_reported":1714849624,"current_range_meters":2000,"station_id":"ce4bgv92rcd13ifvqcr0","pricing_plan_id":"cebpf4jnsgd1na2vs0mg"},{"bike_id":"efd3aca9-d980-4163-b30b-7a8c21162ec7","system_id":"levelo_inurba_marseille","lat":43.310804,"lon":5.38359,"is_reserved":false,"is_disabled":false,"rental_uris":{"android":"levelo://app?vid=efd3aca9-d980-4163-b30b-7a8c21162ec7","ios":"levelo://app?vid=efd3aca9-d980-4163-b30b-7a8c21162ec7"},"vehicle_type_id":"4","last_reported":1714849624,"current_range_meters":0,"station_id":"ce4bgv92rcd13ifvqcr0","pricing_plan_id":"cebpf4jnsgd1na2vs0mg"},{"bike_id":"4cc07240-6674-4a19-aa44-b364fcd6c48f","system_id":"levelo_inurba_marseille","lat":43.310728,"lon":5.383552,"is_reserved":false,"is_disabled":false,"rental_uris":{"android":"levelo://app?vid=4cc07240-6674-4a19-aa44-b364fcd6c48f","ios":"levelo://app?vid=4cc07240-6674-4a19-aa44-b364fcd6c48f"},"vehicle_type_id":"4","last_reported":1714849624,"current_range_meters":0,"station_id":"ce4bgv92rcd13ifvqcr0","pricing_plan_id":"cebpf4jnsgd1na2vs0mg"},{"bike_id":"9dd353bb-3d14-47be-9c02-3fc76c8fccab","system_id":"levelo_inurba_marseille","lat":43.301429,"lon":5.37413,"is_reserved":false,"is_disabled":false,"rental_uris":{"android":"levelo://app?vid=9dd353bb-3d14-47be-9c02-3fc76c8fccab","ios":"levelo://app?vid=9dd353bb-3d14-47be-9c02-3fc76c8fccab"},"vehicle_type_id":"4","last_reported":1714849624,"current_range_meters":13600,"station_id":"ce4bgs92rcd13ifvqcc0","pricing_plan_id":"cebpf4jnsgd1na2vs0mg"},{"bike_id":"dd2d1459-a8d6-430b-9540-9825cdd1acc7","system_id":"levelo_inurba_marseille","lat":43.301429,"lon":5.37413,"is_reserved":false,"is_disabled":false,"rental_uris":{"android":"levelo://app?vid=dd2d1459-a8d6-430b-9540-9825cdd1acc7","ios":"levelo://app?vid=dd2d1459-a8d6-430b-9540-9825cdd1acc7"},"vehicle_type_id":"4","last_reported":1714849624,"current_range_meters":28400,"station_id":"ce4bgs92rcd13ifvqcc0","pricing_plan_id":"cebpf4jnsgd1na2vs0mg"},{"bike_id":"e0f61700-862c-48da-8b86-035631a7d3df","system_id":"levelo_inurba_marseille","lat":43.301429,"lon":5.37413,"is_reserved":false,"is_disabled":false,"rental_uris":{"android":"levelo://app?vid=e0f61700-862c-48da-8b86-035631a7d3df","ios":"levelo://app?vid=e0f61700-862c-48da-8b86-035631a7d3df"},"vehicle_type_id":"4","last_reported":1714849624,"current_range_meters":8000,"station_id":"ce4bgs92rcd13ifvqcc0","pricing_plan_id":"cebpf4jnsgd1na2vs0mg"},{"bike_id":"828b4172-0368-4195-b170-d6567a1f711d","system_id":"levelo_inurba_marseille","lat":43.30143,"lon":5.37413,"is_reserved":false,"is_disabled":false,"rental_uris":{"android":"levelo://app?vid=828b4172-0368-4195-b170-d6567a1f711d","ios":"levelo://app?vid=828b4172-0368-4195-b170-d6567a1f711d"},"vehicle_type_id":"4","last_reported":1714849624,"current_range_meters":8400,"station_id":"ce4bgs92rcd13ifvqcc0","pricing_plan_id":"cebpf4jnsgd1na2vs0mg"},{"bike_id":"22e0741f-656b-44bc-9b54-c67197e97edf","system_id":"levelo_inurba_marseille","lat":43.30143,"lon":5.37413,"is_reserved":false,"is_disabled":false,"rental_uris":{"android":"levelo://app?vid=22e0741f-656b-44bc-9b54-c67197e97edf","ios":"levelo://app?vid=22e0741f-656b-44bc-9b54-c67197e97edf"},"vehicle_type_id":"4","last_reported":1714849624,"current_range_meters":14800,"station_id":"ce4bgs92rcd13ifvqcc0","pricing_plan_id":"cebpf4jnsgd1na2vs0mg"},{"bike_id":"35bbad4d-8d62-4bd8-a00f-46d40f0e1298","system_id":"levelo_inurba_marseille","lat":43.301429,"lon":5.37413,"is_reserved":false,"is_disabled":false,"rental_uris":{"android":"levelo://app?vid=35bbad4d-8d62-4bd8-a00f-46d40f0e1298","ios":"levelo://app?vid=35bbad4d-8d62-4bd8-a00f-46d40f0e1298"},"vehicle_type_id":"4","last_reported":1714849624,"current_range_meters":0,"station_id":"ce4bgs92rcd13ifvqcc0","pricing_plan_id":"cebpf4jnsgd1na2vs0mg"},{"bike_id":"b0b23cc3-cd78-4965-830e-e19376cc0b4e","system_id":"levelo_inurba_marseille","lat":43.30143,"lon":5.37413,"is_reserved":false,"is_disabled":false,"rental_uris":{"android":"levelo://app?vid=b0b23cc3-cd78-4965-830e-e19376cc0b4e","ios":"levelo://app?vid=b0b23cc3-cd78-4965-830e-e19376cc0b4e"},"vehicle_type_id":"4","last_reported":1714849624,"current_range_meters":19200,"station_id":"ce4bgs92rcd13ifvqcc0","pricing_plan_id":"cebpf4jnsgd1na2vs0mg"},{"bike_id":"53edf074-2479-4642-a896-3a7c4ed593c4","system_id":"levelo_inurba_marseille","lat":43.302784,"lon":5.377158,"is_reserved":false,"is_disabled":false,"rental_uris":{"android":"levelo://app?vid=53edf074-2479-4642-a896-3a7c4ed593c4","ios":"levelo://app?vid=53edf074-2479-4642-a896-3a7c4ed593c4"},"vehicle_type_id":"4","last_reported":1714849624,"current_range_meters":9600,"station_id":"ce4bguh2rcd13ifvqcj0","pricing_plan_id":"cebpf4jnsgd1na2vs0mg"},{"bike_id":"243e258c-8057-437f-ba0d-78ec9cebfc3d","system_id":"levelo_inurba_marseille","lat":43.32,"lon":5.38146,"is_reserved":false,"is_disabled":false,"rental_uris":{"android":"levelo://app?vid=243e258c-8057-437f-ba0d-78ec9cebfc3d","ios":"levelo://app?vid=243e258c-8057-437f-ba0d-78ec9cebfc3d"},"vehicle_type_id":"4","last_reported":1714849624,"current_range_meters":4000,"station_id":"ce4bhr12rcd13ifvqhpg","pricing_plan_id":"cebpf4jnsgd1na2vs0mg"},{"bike_id":"5e65810d-2570-4616-a371-322ebc46d54a","system_id":"levelo_inurba_marseille","lat":43.319935,"lon":5.381699,"is_reserved":false,"is_disabled":false,"rental_uris":{"android":"levelo://app?vid=5e65810d-2570-4616-a371-322ebc46d54a","ios":"levelo://app?vid=5e65810d-2570-4616-a371-322ebc46d54a"},"vehicle_type_id":"4","last_reported":1714849624,"current_range_meters":5600,"station_id":"ce4bhr12rcd13ifvqhpg","pricing_plan_id":"cebpf4jnsgd1na2vs0mg"},{"bike_id":"020005a5-982a-4dde-9e69-54296ffdcfdb","system_id":"levelo_inurba_marseille","lat":43.320009,"lon":5.381536,"is_reserved":false,"is_disabled":false,"rental_uris":{"android":"levelo://app?vid=020005a5-982a-4dde-9e69-54296ffdcfdb","ios":"levelo://app?vid=020005a5-982a-4dde-9e69-54296ffdcfdb"},"vehicle_type_id":"4","last_reported":1714849624,"current_range_meters":26800,"station_id":"","pricing_plan_id":"cebpf4jnsgd1na2vs0mg"},{"bike_id":"ee5ed8c4-39e7-467e-81a4-5cd280935c45","system_id":"levelo_inurba_marseille","lat":43.319935,"lon":5.381699,"is_reserved":false,"is_disabled":false,"rental_uris":{"android":"levelo://app?vid=ee5ed8c4-39e7-467e-81a4-5cd280935c45","ios":"levelo://app?vid=ee5ed8c4-39e7-467e-81a4-5cd280935c45"},"vehicle_type_id":"4","last_reported":1714849624,"current_range_meters":16800,"station_id":"ce4bhr12rcd13ifvqhpg","pricing_plan_id":"cebpf4jnsgd1na2vs0mg"},{"bike_id":"771abfac-4ede-40b9-b478-52ebd38982b0","system_id":"levelo_inurba_marseille","lat":43.301152,"lon":5.37511,"is_reserved":false,"is_disabled":false,"rental_uris":{"android":"levelo://app?vid=771abfac-4ede-40b9-b478-52ebd38982b0","ios":"levelo://app?vid=771abfac-4ede-40b9-b478-52ebd38982b0"},"vehicle_type_id":"4","last_reported":1714849624,"current_range_meters":15200,"station_id":"","pricing_plan_id":"cebpf4jnsgd1na2vs0mg"},{"bike_id":"aca70e6c-2284-41d5-86f2-a006cddfc811","system_id":"levelo_inurba_marseille","lat":43.30531,"lon":5.38196,"is_reserved":false,"is_disabled":false,"rental_uris":{"android":"levelo://app?vid=aca70e6c-2284-41d5-86f2-a006cddfc811","ios":"levelo://app?vid=aca70e6c-2284-41d5-86f2-a006cddfc811"},"vehicle_type_id":"4","last_reported":1714849624,"current_range_meters":3200,"station_id":"","pricing_plan_id":"cebpf4jnsgd1na2vs0mg"},{"bike_id":"adba1148-099a-41e7-b067-81ccc59e2932","system_id":"levelo_inurba_marseille","lat":43.29982,"lon":5.37176,"is_reserved":false,"is_disabled":false,"rental_uris":{"android":"levelo://app?vid=adba1148-099a-41e7-b067-81ccc59e2932","ios":"levelo://app?vid=adba1148-099a-41e7-b067-81ccc59e2932"},"vehicle_type_id":"4","last_reported":1714849624,"current_range_meters":0,"station_id":"ce4bgr92rcd13ifvqc7g","pricing_plan_id":"cebpf4jnsgd1na2vs0mg"},{"bike_id":"e518db55-265d-4550-a511-d985db83bb26","system_id":"levelo_inurba_marseille","lat":43.299738,"lon":5.371777,"is_reserved":false,"is_disabled":false,"rental_uris":{"android":"levelo://app?vid=e518db55-265d-4550-a511-d985db83bb26","ios":"levelo://app?vid=e518db55-265d-4550-a511-d985db83bb26"},"vehicle_type_id":"4","last_reported":1714849624,"current_range_meters":20400,"station_id":"ce4bgr92rcd13ifvqc7g","pricing_plan_id":"cebpf4jnsgd1na2vs0mg"},{"bike_id":"3bc34530-b4be-48b6-9e82-ae7988e93b97","system_id":"levelo_inurba_marseille","lat":43.29851,"lon":5.36286,"is_reserved":false,"is_disabled":false,"rental_uris":{"android":"levelo://app?vid=3bc34530-b4be-48b6-9e82-ae7988e93b97","ios":"levelo://app?vid=3bc34530-b4be-48b6-9e82-ae7988e93b97"},"vehicle_type_id":"4","last_reported":1714849624,"current_range_meters":0,"station_id":"ce4bgpp2rcd13ifvqc3g","pricing_plan_id":"cebpf4jnsgd1na2vs0mg"},{"bike_id":"471fa10e-3bc1-421b-967f-ef136083bad1","system_id":"levelo_inurba_marseille","lat":43.298433,"lon":5.362774,"is_reserved":false,"is_disabled":false,"rental_uris":{"android":"levelo://app?vid=471fa10e-3bc1-421b-967f-ef136083bad1","ios":"levelo://app?vid=471fa10e-3bc1-421b-967f-ef136083bad1"},"vehicle_type_id":"4","last_reported":1714849624,"current_range_meters":1200,"station_id":"ce4bgpp2rcd13ifvqc3g","pricing_plan_id":"cebpf4jnsgd1na2vs0mg"},{"bike_id":"b5894ee4-f330-4a4d-b09f-48f8a19e7ac8","system_id":"levelo_inurba_marseille","lat":43.298433,"lon":5.362774,"is_reserved":false,"is_disabled":false,"rental_uris":{"android":"levelo://app?vid=b5894ee4-f330-4a4d-b09f-48f8a19e7ac8","ios":"levelo://app?vid=b5894ee4-f330-4a4d-b09f-48f8a19e7ac8"},"vehicle_type_id":"4","last_reported":1714849624,"current_range_meters":0,"station_id":"ce4bgpp2rcd13ifvqc3g","pricing_plan_id":"cebpf4jnsgd1na2vs0mg"},{"bike_id":"aca764a0-2ccc-40a1-be94-0daaeac6851e","system_id":"levelo_inurba_marseille","lat":43.298433,"lon":5.362774,"is_reserved":false,"is_disabled":false,"rental_uris":{"android":"levelo://app?vid=aca764a0-2ccc-40a1-be94-0daaeac6851e","ios":"levelo://app?vid=aca764a0-2ccc-40a1-be94-0daaeac6851e"},"vehicle_type_id":"4","last_reported":1714849624,"current_range_meters":0,"station_id":"ce4bgpp2rcd13ifvqc3g","pricing_plan_id":"cebpf4jnsgd1na2vs0mg"},{"bike_id":"0b5a3857-c2e3-49d6-aa4d-55ba9558bfe1","system_id":"levelo_inurba_marseille","lat":43.298433,"lon":5.362774,"is_reserved":false,"is_disabled":false,"rental_uris":{"android":"levelo://app?vid=0b5a3857-c2e3-49d6-aa4d-55ba9558bfe1","ios":"levelo://app?vid=0b5a3857-c2e3-49d6-aa4d-55ba9558bfe1"},"vehicle_type_id":"4","last_reported":1714849624,"current_range_meters":2400,"station_id":"ce4bgpp2rcd13ifvqc3g","pricing_plan_id":"cebpf4jnsgd1na2vs0mg"},{"bike_id":"87503393-8254-4bba-878d-e1e3d9998523","system_id":"levelo_inurba_marseille","lat":43.30535,"lon":5.38427,"is_reserved":false,"is_disabled":false,"rental_uris":{"android":"levelo://app?vid=87503393-8254-4bba-878d-e1e3d9998523","ios":"levelo://app?vid=87503393-8254-4bba-878d-e1e3d9998523"},"vehicle_type_id":"4","last_reported":1714849624,"current_range_meters":0,"station_id":"ce4bgg92rcd13ifvqb30","pricing_plan_id":"cebpf4jnsgd1na2vs0mg"},{"bike_id":"b07b3415-d51c-46d8-af24-50a3c977ca25","system_id":"levelo_inurba_marseille","lat":43.298433,"lon":5.362774,"is_reserved":false,"is_disabled":false,"rental_uris":{"android":"levelo://app?vid=b07b3415-d51c-46d8-af24-50a3c977ca25","ios":"levelo://app?vid=b07b3415-d51c-46d8-af24-50a3c977ca25"},"vehicle_type_id":"4","last_reported":1714849624,"current_range_meters":1200,"station_id":"ce4bgpp2rcd13ifvqc3g","pricing_plan_id":"cebpf4jnsgd1na2vs0mg"},{"bike_id":"6a1ecf39-00d9-4073-9bc3-e7a8d0d49070","system_id":"levelo_inurba_marseille","lat":43.299243,"lon":5.374807,"is_reserved":false,"is_disabled":false,"rental_uris":{"android":"levelo://app?vid=6a1ecf39-00d9-4073-9bc3-e7a8d0d49070","ios":"levelo://app?vid=6a1ecf39-00d9-4073-9bc3-e7a8d0d49070"},"vehicle_type_id":"4","last_reported":1714849624,"current_range_meters":0,"station_id":"ce4bgjh2rcd13ifvqbg0","pricing_plan_id":"cebpf4jnsgd1na2vs0mg"},{"bike_id":"dc7b584d-7900-4dcc-b4cf-e9c32279948e","system_id":"levelo_inurba_marseille","lat":43.298428,"lon":5.362702,"is_reserved":false,"is_disabled":false,"rental_uris":{"android":"levelo://app?vid=dc7b584d-7900-4dcc-b4cf-e9c32279948e","ios":"levelo://app?vid=dc7b584d-7900-4dcc-b4cf-e9c32279948e"},"vehicle_type_id":"4","last_reported":1714849624,"current_range_meters":0,"station_id":"ce4bgpp2rcd13ifvqc3g","pricing_plan_id":"cebpf4jnsgd1na2vs0mg"},{"bike_id":"ccaefbe1-bc37-4996-929a-f48f52cf7e14","system_id":"levelo_inurba_marseille","lat":43.30536,"lon":5.384365,"is_reserved":false,"is_disabled":false,"rental_uris":{"android":"levelo://app?vid=ccaefbe1-bc37-4996-929a-f48f52cf7e14","ios":"levelo://app?vid=ccaefbe1-bc37-4996-929a-f48f52cf7e14"},"vehicle_type_id":"4","last_reported":1714849624,"current_range_meters":0,"station_id":"ce4bgg92rcd13ifvqb30","pricing_plan_id":"cebpf4jnsgd1na2vs0mg"},{"bike_id":"2f2fdfb5-d0d7-442e-a2fe-4ae1913e2e6c","system_id":"levelo_inurba_marseille","lat":43.29914,"lon":5.37465,"is_reserved":false,"is_disabled":false,"rental_uris":{"android":"levelo://app?vid=2f2fdfb5-d0d7-442e-a2fe-4ae1913e2e6c","ios":"levelo://app?vid=2f2fdfb5-d0d7-442e-a2fe-4ae1913e2e6c"},"vehicle_type_id":"4","last_reported":1714849624,"current_range_meters":0,"station_id":"ce4bgjh2rcd13ifvqbg0","pricing_plan_id":"cebpf4jnsgd1na2vs0mg"},{"bike_id":"92cc7478-bccf-456e-b568-5fb161abc423","system_id":"levelo_inurba_marseille","lat":43.299243,"lon":5.37481,"is_reserved":false,"is_disabled":false,"rental_uris":{"android":"levelo://app?vid=92cc7478-bccf-456e-b568-5fb161abc423","ios":"levelo://app?vid=92cc7478-bccf-456e-b568-5fb161abc423"},"vehicle_type_id":"4","last_reported":1714849624,"current_range_meters":18800,"station_id":"ce4bgjh2rcd13ifvqbg0","pricing_plan_id":"cebpf4jnsgd1na2vs0mg"},{"bike_id":"2d18849e-032d-4d81-b5a4-9ad147339139","system_id":"levelo_inurba_marseille","lat":43.29831,"lon":5.36249,"is_reserved":false,"is_disabled":false,"rental_uris":{"android":"levelo://app?vid=2d18849e-032d-4d81-b5a4-9ad147339139","ios":"levelo://app?vid=2d18849e-032d-4d81-b5a4-9ad147339139"},"vehicle_type_id":"4","last_reported":1714849624,"current_range_meters":18000,"station_id":"ce4bgpp2rcd13ifvqc3g","pricing_plan_id":"cebpf4jnsgd1na2vs0mg"},{"bike_id":"d6fce4c1-517f-4771-97e9-eb8f729dc554","system_id":"levelo_inurba_marseille","lat":43.29796,"lon":5.37101,"is_reserved":false,"is_disabled":false,"rental_uris":{"android":"levelo://app?vid=d6fce4c1-517f-4771-97e9-eb8f729dc554","ios":"levelo://app?vid=d6fce4c1-517f-4771-97e9-eb8f729dc554"},"vehicle_type_id":"4","last_reported":1714849624,"current_range_meters":0,"station_id":"ce4bgop2rcd13ifvqc1g","pricing_plan_id":"cebpf4jnsgd1na2vs0mg"},{"bike_id":"79366eb4-9e97-4c92-8faa-2216973cf444","system_id":"levelo_inurba_marseille","lat":43.322872,"lon":5.382756,"is_reserved":false,"is_disabled":false,"rental_uris":{"android":"levelo://app?vid=79366eb4-9e97-4c92-8faa-2216973cf444","ios":"levelo://app?vid=79366eb4-9e97-4c92-8faa-2216973cf444"},"vehicle_type_id":"4","last_reported":1714849624,"current_range_meters":0,"station_id":"ce4bhr12rcd13ifvqhqg","pricing_plan_id":"cebpf4jnsgd1na2vs0mg"},{"bike_id":"0c91a896-5be5-4608-9727-196385e2f4da","system_id":"levelo_inurba_marseille","lat":43.322872,"lon":5.382756,"is_reserved":false,"is_disabled":false,"rental_uris":{"android":"levelo://app?vid=0c91a896-5be5-4608-9727-196385e2f4da","ios":"levelo://app?vid=0c91a896-5be5-4608-9727-196385e2f4da"},"vehicle_type_id":"4","last_reported":1714849624,"current_range_meters":13600,"station_id":"ce4bhr12rcd13ifvqhqg","pricing_plan_id":"cebpf4jnsgd1na2vs0mg"},{"bike_id":"7f71f127-5bb1-40b9-9a16-39ca6b15f4e6","system_id":"levelo_inurba_marseille","lat":43.322872,"lon":5.382756,"is_reserved":false,"is_disabled":false,"rental_uris":{"android":"levelo://app?vid=7f71f127-5bb1-40b9-9a16-39ca6b15f4e6","ios":"levelo://app?vid=7f71f127-5bb1-40b9-9a16-39ca6b15f4e6"},"vehicle_type_id":"4","last_reported":1714849624,"current_range_meters":1200,"station_id":"ce4bhr12rcd13ifvqhqg","pricing_plan_id":"cebpf4jnsgd1na2vs0mg"},{"bike_id":"a4258fb0-f50b-42f5-9fbc-6f972f1d2c97","system_id":"levelo_inurba_marseille","lat":43.2971,"lon":5.36622,"is_reserved":false,"is_disabled":false,"rental_uris":{"android":"levelo://app?vid=a4258fb0-f50b-42f5-9fbc-6f972f1d2c97","ios":"levelo://app?vid=a4258fb0-f50b-42f5-9fbc-6f972f1d2c97"},"vehicle_type_id":"4","last_reported":1714849624,"current_range_meters":0,"station_id":"ce4bgn12rcd13ifvqbt0","pricing_plan_id":"cebpf4jnsgd1na2vs0mg"},{"bike_id":"3e35fcc4-1d84-4aa8-acd9-6fa6e3bf904a","system_id":"levelo_inurba_marseille","lat":43.297163,"lon":5.365866,"is_reserved":false,"is_disabled":false,"rental_uris":{"android":"levelo://app?vid=3e35fcc4-1d84-4aa8-acd9-6fa6e3bf904a","ios":"levelo://app?vid=3e35fcc4-1d84-4aa8-acd9-6fa6e3bf904a"},"vehicle_type_id":"4","last_reported":1714849624,"current_range_meters":3200,"station_id":"ce4bgn12rcd13ifvqbt0","pricing_plan_id":"cebpf4jnsgd1na2vs0mg"},{"bike_id":"fa81b4cc-7a63-4d10-8db5-fdce7958aba3","system_id":"levelo_inurba_marseille","lat":43.29703,"lon":5.36617,"is_reserved":false,"is_disabled":false,"rental_uris":{"android":"levelo://app?vid=fa81b4cc-7a63-4d10-8db5-fdce7958aba3","ios":"levelo://app?vid=fa81b4cc-7a63-4d10-8db5-fdce7958aba3"},"vehicle_type_id":"4","last_reported":1714849624,"current_range_meters":22000,"station_id":"ce4bgn12rcd13ifvqbt0","pricing_plan_id":"cebpf4jnsgd1na2vs0mg"},{"bike_id":"4d35b7a0-9fd9-4a6d-88a7-5c60a0797312","system_id":"levelo_inurba_marseille","lat":43.297163,"lon":5.365866,"is_reserved":false,"is_disabled":false,"rental_uris":{"android":"levelo://app?vid=4d35b7a0-9fd9-4a6d-88a7-5c60a0797312","ios":"levelo://app?vid=4d35b7a0-9fd9-4a6d-88a7-5c60a0797312"},"vehicle_type_id":"4","last_reported":1714849624,"current_range_meters":0,"station_id":"ce4bgn12rcd13ifvqbt0","pricing_plan_id":"cebpf4jnsgd1na2vs0mg"},{"bike_id":"7b19ca7d-21ca-4e97-ad4d-0586c04bcfc1","system_id":"levelo_inurba_marseille","lat":43.297163,"lon":5.365866,"is_reserved":false,"is_disabled":false,"rental_uris":{"android":"levelo://app?vid=7b19ca7d-21ca-4e97-ad4d-0586c04bcfc1","ios":"levelo://app?vid=7b19ca7d-21ca-4e97-ad4d-0586c04bcfc1"},"vehicle_type_id":"4","last_reported":1714849624,"current_range_meters":800,"station_id":"ce4bgn12rcd13ifvqbt0","pricing_plan_id":"cebpf4jnsgd1na2vs0mg"},{"bike_id":"54313295-5eb2-4eb9-a73b-7bb1e4eac381","system_id":"levelo_inurba_marseille","lat":43.30028,"lon":5.38014,"is_reserved":false,"is_disabled":false,"rental_uris":{"android":"levelo://app?vid=54313295-5eb2-4eb9-a73b-7bb1e4eac381","ios":"levelo://app?vid=54313295-5eb2-4eb9-a73b-7bb1e4eac381"},"vehicle_type_id":"4","last_reported":1714849624,"current_range_meters":0,"station_id":"","pricing_plan_id":"cebpf4jnsgd1na2vs0mg"},{"bike_id":"684abd2e-ad16-4bce-9059-2d1dafd285a5","system_id":"levelo_inurba_marseille","lat":43.297163,"lon":5.365866,"is_reserved":false,"is_disabled":false,"rental_uris":{"android":"levelo://app?vid=684abd2e-ad16-4bce-9059-2d1dafd285a5","ios":"levelo://app?vid=684abd2e-ad16-4bce-9059-2d1dafd285a5"},"vehicle_type_id":"4","last_reported":1714849624,"current_range_meters":800,"station_id":"ce4bgn12rcd13ifvqbt0","pricing_plan_id":"cebpf4jnsgd1na2vs0mg"},{"bike_id":"1cae88a1-0e69-400c-9170-6b5a777bbea6","system_id":"levelo_inurba_marseille","lat":43.2968,"lon":5.37291,"is_reserved":false,"is_disabled":false,"rental_uris":{"android":"levelo://app?vid=1cae88a1-0e69-400c-9170-6b5a777bbea6","ios":"levelo://app?vid=1cae88a1-0e69-400c-9170-6b5a777bbea6"},"vehicle_type_id":"4","last_reported":1714849624,"current_range_meters":8400,"station_id":"ce4bgk12rcd13ifvqbj0","pricing_plan_id":"cebpf4jnsgd1na2vs0mg"},{"bike_id":"f0387026-4f5d-4966-b429-4a12378e9f9d","system_id":"levelo_inurba_marseille","lat":43.295843,"lon":5.367317,"is_reserved":false,"is_disabled":false,"rental_uris":{"android":"levelo://app?vid=f0387026-4f5d-4966-b429-4a12378e9f9d","ios":"levelo://app?vid=f0387026-4f5d-4966-b429-4a12378e9f9d"},"vehicle_type_id":"4","last_reported":1714849624,"current_range_meters":0,"station_id":"ce4bgph2rcd13ifvqc2g","pricing_plan_id":"cebpf4jnsgd1na2vs0mg"},{"bike_id":"9072a92b-3ab2-44a3-afab-ad462e9af616","system_id":"levelo_inurba_marseille","lat":43.2962,"lon":5.3717,"is_reserved":false,"is_disabled":false,"rental_uris":{"android":"levelo://app?vid=9072a92b-3ab2-44a3-afab-ad462e9af616","ios":"levelo://app?vid=9072a92b-3ab2-44a3-afab-ad462e9af616"},"vehicle_type_id":"4","last_reported":1714849624,"current_range_meters":16000,"station_id":"ce4bgnh2rcd13ifvqc0g","pricing_plan_id":"cebpf4jnsgd1na2vs0mg"},{"bike_id":"7bf638a2-f6ec-4f81-a4d4-a4e95042c6b8","system_id":"levelo_inurba_marseille","lat":43.29573,"lon":5.367355,"is_reserved":false,"is_disabled":false,"rental_uris":{"android":"levelo://app?vid=7bf638a2-f6ec-4f81-a4d4-a4e95042c6b8","ios":"levelo://app?vid=7bf638a2-f6ec-4f81-a4d4-a4e95042c6b8"},"vehicle_type_id":"4","last_reported":1714849624,"current_range_meters":0,"station_id":"ce4bgph2rcd13ifvqc2g","pricing_plan_id":"cebpf4jnsgd1na2vs0mg"},{"bike_id":"06f61d51-4c1c-4560-bf88-7480acc8513d","system_id":"levelo_inurba_marseille","lat":43.29573,"lon":5.367355,"is_reserved":false,"is_disabled":false,"rental_uris":{"android":"levelo://app?vid=06f61d51-4c1c-4560-bf88-7480acc8513d","ios":"levelo://app?vid=06f61d51-4c1c-4560-bf88-7480acc8513d"},"vehicle_type_id":"4","last_reported":1714849624,"current_range_meters":31200,"station_id":"ce4bgph2rcd13ifvqc2g","pricing_plan_id":"cebpf4jnsgd1na2vs0mg"},{"bike_id":"d397c572-5e4d-4b59-b67e-a09852e83d07","system_id":"levelo_inurba_marseille","lat":43.299028,"lon":5.381509,"is_reserved":false,"is_disabled":false,"rental_uris":{"android":"levelo://app?vid=d397c572-5e4d-4b59-b67e-a09852e83d07","ios":"levelo://app?vid=d397c572-5e4d-4b59-b67e-a09852e83d07"},"vehicle_type_id":"4","last_reported":1714849624,"current_range_meters":20800,"station_id":"ce4bgj12rcd13ifvqbc0","pricing_plan_id":"cebpf4jnsgd1na2vs0mg"},{"bike_id":"f24d6b55-e7c9-4e1e-8e43-1f2e85c4fd44","system_id":"levelo_inurba_marseille","lat":43.2991,"lon":5.38129,"is_reserved":false,"is_disabled":false,"rental_uris":{"android":"levelo://app?vid=f24d6b55-e7c9-4e1e-8e43-1f2e85c4fd44","ios":"levelo://app?vid=f24d6b55-e7c9-4e1e-8e43-1f2e85c4fd44"},"vehicle_type_id":"4","last_reported":1714849624,"current_range_meters":18000,"station_id":"ce4bgj12rcd13ifvqbc0","pricing_plan_id":"cebpf4jnsgd1na2vs0mg"},{"bike_id":"fc38713a-94b1-4dd0-92e1-d05a1cfe0c56","system_id":"levelo_inurba_marseille","lat":43.296921,"lon":5.376579,"is_reserved":false,"is_disabled":false,"rental_uris":{"android":"levelo://app?vid=fc38713a-94b1-4dd0-92e1-d05a1cfe0c56","ios":"levelo://app?vid=fc38713a-94b1-4dd0-92e1-d05a1cfe0c56"},"vehicle_type_id":"4","last_reported":1714849624,"current_range_meters":30800,"station_id":"ce4bgkh2rcd13ifvqbl0","pricing_plan_id":"cebpf4jnsgd1na2vs0mg"},{"bike_id":"b12fbd8c-b0c1-48a1-8843-09226b17e8d1","system_id":"levelo_inurba_marseille","lat":43.296935,"lon":5.376544,"is_reserved":false,"is_disabled":false,"rental_uris":{"android":"levelo://app?vid=b12fbd8c-b0c1-48a1-8843-09226b17e8d1","ios":"levelo://app?vid=b12fbd8c-b0c1-48a1-8843-09226b17e8d1"},"vehicle_type_id":"4","last_reported":1714849624,"current_range_meters":4000,"station_id":"ce4bgkh2rcd13ifvqbl0","pricing_plan_id":"cebpf4jnsgd1na2vs0mg"},{"bike_id":"6a498996-35ed-40ce-a800-6bc2c0ae1ec3","system_id":"levelo_inurba_marseille","lat":43.299028,"lon":5.381509,"is_reserved":false,"is_disabled":false,"rental_uris":{"android":"levelo://app?vid=6a498996-35ed-40ce-a800-6bc2c0ae1ec3","ios":"levelo://app?vid=6a498996-35ed-40ce-a800-6bc2c0ae1ec3"},"vehicle_type_id":"4","last_reported":1714849624,"current_range_meters":16800,"station_id":"ce4bgj12rcd13ifvqbc0","pricing_plan_id":"cebpf4jnsgd1na2vs0mg"},{"bike_id":"4dc840fa-4e81-46a8-9ea4-67e2ed587f63","system_id":"levelo_inurba_marseille","lat":43.30952,"lon":5.39035,"is_reserved":false,"is_disabled":false,"rental_uris":{"android":"levelo://app?vid=4dc840fa-4e81-46a8-9ea4-67e2ed587f63","ios":"levelo://app?vid=4dc840fa-4e81-46a8-9ea4-67e2ed587f63"},"vehicle_type_id":"4","last_reported":1714849624,"current_range_meters":0,"station_id":"ce4bgup2rcd13ifvqco0","pricing_plan_id":"cebpf4jnsgd1na2vs0mg"},{"bike_id":"d2b16b60-cd0c-49c5-9dfc-cbe7a85d150e","system_id":"levelo_inurba_marseille","lat":43.30948,"lon":5.39035,"is_reserved":false,"is_disabled":false,"rental_uris":{"android":"levelo://app?vid=d2b16b60-cd0c-49c5-9dfc-cbe7a85d150e","ios":"levelo://app?vid=d2b16b60-cd0c-49c5-9dfc-cbe7a85d150e"},"vehicle_type_id":"4","last_reported":1714849624,"current_range_meters":0,"station_id":"ce4bgup2rcd13ifvqco0","pricing_plan_id":"cebpf4jnsgd1na2vs0mg"},{"bike_id":"66ec96fa-433e-4d47-accd-e7cf3efab259","system_id":"levelo_inurba_marseille","lat":43.317557,"lon":5.390173,"is_reserved":false,"is_disabled":false,"rental_uris":{"android":"levelo://app?vid=66ec96fa-433e-4d47-accd-e7cf3efab259","ios":"levelo://app?vid=66ec96fa-433e-4d47-accd-e7cf3efab259"},"vehicle_type_id":"4","last_reported":1714849624,"current_range_meters":29200,"station_id":"ce4bhqp2rcd13ifvqhng","pricing_plan_id":"cebpf4jnsgd1na2vs0mg"},{"bike_id":"1f467d0d-26c4-4d64-9529-1ed4d43f90ca","system_id":"levelo_inurba_marseille","lat":43.309589,"lon":5.390258,"is_reserved":false,"is_disabled":false,"rental_uris":{"android":"levelo://app?vid=1f467d0d-26c4-4d64-9529-1ed4d43f90ca","ios":"levelo://app?vid=1f467d0d-26c4-4d64-9529-1ed4d43f90ca"},"vehicle_type_id":"4","last_reported":1714849624,"current_range_meters":5600,"station_id":"ce4bgup2rcd13ifvqco0","pricing_plan_id":"cebpf4jnsgd1na2vs0mg"},{"bike_id":"f4f7eb9f-bca1-4073-a996-abded8f23886","system_id":"levelo_inurba_marseille","lat":43.311964,"lon":5.391028,"is_reserved":false,"is_disabled":false,"rental_uris":{"android":"levelo://app?vid=f4f7eb9f-bca1-4073-a996-abded8f23886","ios":"levelo://app?vid=f4f7eb9f-bca1-4073-a996-abded8f23886"},"vehicle_type_id":"4","last_reported":1714849624,"current_range_meters":23200,"station_id":"","pricing_plan_id":"cebpf4jnsgd1na2vs0mg"},{"bike_id":"95c2527d-8b64-488f-8848-5e93d48e8f2b","system_id":"levelo_inurba_marseille","lat":43.317557,"lon":5.390173,"is_reserved":false,"is_disabled":false,"rental_uris":{"android":"levelo://app?vid=95c2527d-8b64-488f-8848-5e93d48e8f2b","ios":"levelo://app?vid=95c2527d-8b64-488f-8848-5e93d48e8f2b"},"vehicle_type_id":"4","last_reported":1714849624,"current_range_meters":15600,"station_id":"ce4bhqp2rcd13ifvqhng","pricing_plan_id":"cebpf4jnsgd1na2vs0mg"},{"bike_id":"2d4c653a-e3a3-4967-886d-36649d9abb9d","system_id":"levelo_inurba_marseille","lat":43.317557,"lon":5.390173,"is_reserved":false,"is_disabled":false,"rental_uris":{"android":"levelo://app?vid=2d4c653a-e3a3-4967-886d-36649d9abb9d","ios":"levelo://app?vid=2d4c653a-e3a3-4967-886d-36649d9abb9d"},"vehicle_type_id":"4","last_reported":1714849624,"current_range_meters":4800,"station_id":"ce4bhqp2rcd13ifvqhng","pricing_plan_id":"cebpf4jnsgd1na2vs0mg"},{"bike_id":"cda37443-d7b9-4802-95a6-e7a8a0d20c6d","system_id":"levelo_inurba_marseille","lat":43.304278,"lon":5.388868,"is_reserved":false,"is_disabled":false,"rental_uris":{"android":"levelo://app?vid=cda37443-d7b9-4802-95a6-e7a8a0d20c6d","ios":"levelo://app?vid=cda37443-d7b9-4802-95a6-e7a8a0d20c6d"},"vehicle_type_id":"4","last_reported":1714849624,"current_range_meters":7600,"station_id":"ce4bgk12rcd13ifvqbi0","pricing_plan_id":"cebpf4jnsgd1na2vs0mg"},{"bike_id":"0196f5bc-194e-4731-9c3a-57d32bd8a8dd","system_id":"levelo_inurba_marseille","lat":43.298037,"lon":5.381066,"is_reserved":false,"is_disabled":false,"rental_uris":{"android":"levelo://app?vid=0196f5bc-194e-4731-9c3a-57d32bd8a8dd","ios":"levelo://app?vid=0196f5bc-194e-4731-9c3a-57d32bd8a8dd"},"vehicle_type_id":"4","last_reported":1714849624,"current_range_meters":2000,"station_id":"ce4bgip2rcd13ifvqbb0","pricing_plan_id":"cebpf4jnsgd1na2vs0mg"},{"bike_id":"5e95de8e-300c-44f3-ac9b-0b25726cfb59","system_id":"levelo_inurba_marseille","lat":43.295748,"lon":5.37522,"is_reserved":false,"is_disabled":false,"rental_uris":{"android":"levelo://app?vid=5e95de8e-300c-44f3-ac9b-0b25726cfb59","ios":"levelo://app?vid=5e95de8e-300c-44f3-ac9b-0b25726cfb59"},"vehicle_type_id":"4","last_reported":1714849624,"current_range_meters":7600,"station_id":"ce4bgh92rcd13ifvqb50","pricing_plan_id":"cebpf4jnsgd1na2vs0mg"},{"bike_id":"71cbc262-85ff-4d2c-b211-1e2b146f7cf3","system_id":"levelo_inurba_marseille","lat":43.304274,"lon":5.388873,"is_reserved":false,"is_disabled":false,"rental_uris":{"android":"levelo://app?vid=71cbc262-85ff-4d2c-b211-1e2b146f7cf3","ios":"levelo://app?vid=71cbc262-85ff-4d2c-b211-1e2b146f7cf3"},"vehicle_type_id":"4","last_reported":1714849624,"current_range_meters":26400,"station_id":"ce4bgk12rcd13ifvqbi0","pricing_plan_id":"cebpf4jnsgd1na2vs0mg"},{"bike_id":"848d1acf-c553-4673-adc0-814dd634b052","system_id":"levelo_inurba_marseille","lat":43.295748,"lon":5.37522,"is_reserved":false,"is_disabled":false,"rental_uris":{"android":"levelo://app?vid=848d1acf-c553-4673-adc0-814dd634b052","ios":"levelo://app?vid=848d1acf-c553-4673-adc0-814dd634b052"},"vehicle_type_id":"4","last_reported":1714849624,"current_range_meters":31200,"station_id":"ce4bgh92rcd13ifvqb50","pricing_plan_id":"cebpf4jnsgd1na2vs0mg"},{"bike_id":"cb602646-8c3f-4d03-8a6a-3f7ce4530690","system_id":"levelo_inurba_marseille","lat":43.304278,"lon":5.388868,"is_reserved":false,"is_disabled":false,"rental_uris":{"android":"levelo://app?vid=cb602646-8c3f-4d03-8a6a-3f7ce4530690","ios":"levelo://app?vid=cb602646-8c3f-4d03-8a6a-3f7ce4530690"},"vehicle_type_id":"4","last_reported":1714849624,"current_range_meters":21600,"station_id":"ce4bgk12rcd13ifvqbi0","pricing_plan_id":"cebpf4jnsgd1na2vs0mg"},{"bike_id":"9e7a710c-687f-4a92-a0f6-caf2bd81ccb8","system_id":"levelo_inurba_marseille","lat":43.304274,"lon":5.388873,"is_reserved":false,"is_disabled":false,"rental_uris":{"android":"levelo://app?vid=9e7a710c-687f-4a92-a0f6-caf2bd81ccb8","ios":"levelo://app?vid=9e7a710c-687f-4a92-a0f6-caf2bd81ccb8"},"vehicle_type_id":"4","last_reported":1714849624,"current_range_meters":23600,"station_id":"ce4bgk12rcd13ifvqbi0","pricing_plan_id":"cebpf4jnsgd1na2vs0mg"},{"bike_id":"337eae91-620b-4ff3-a6b1-ac2256323ba1","system_id":"levelo_inurba_marseille","lat":43.296277,"lon":5.377108,"is_reserved":false,"is_disabled":false,"rental_uris":{"android":"levelo://app?vid=337eae91-620b-4ff3-a6b1-ac2256323ba1","ios":"levelo://app?vid=337eae91-620b-4ff3-a6b1-ac2256323ba1"},"vehicle_type_id":"4","last_reported":1714849624,"current_range_meters":11600,"station_id":"ce4bgi92rcd13ifvqb90","pricing_plan_id":"cebpf4jnsgd1na2vs0mg"},{"bike_id":"54ce1c6b-e8c3-45b2-b863-d086a908a136","system_id":"levelo_inurba_marseille","lat":43.295748,"lon":5.37522,"is_reserved":false,"is_disabled":false,"rental_uris":{"android":"levelo://app?vid=54ce1c6b-e8c3-45b2-b863-d086a908a136","ios":"levelo://app?vid=54ce1c6b-e8c3-45b2-b863-d086a908a136"},"vehicle_type_id":"4","last_reported":1714849624,"current_range_meters":4000,"station_id":"ce4bgh92rcd13ifvqb50","pricing_plan_id":"cebpf4jnsgd1na2vs0mg"},{"bike_id":"2d6e550d-9ff4-4b14-99ff-a3aa73ce15e4","system_id":"levelo_inurba_marseille","lat":43.3044,"lon":5.38898,"is_reserved":false,"is_disabled":false,"rental_uris":{"android":"levelo://app?vid=2d6e550d-9ff4-4b14-99ff-a3aa73ce15e4","ios":"levelo://app?vid=2d6e550d-9ff4-4b14-99ff-a3aa73ce15e4"},"vehicle_type_id":"4","last_reported":1714849624,"current_range_meters":0,"station_id":"ce4bgk12rcd13ifvqbi0","pricing_plan_id":"cebpf4jnsgd1na2vs0mg"},{"bike_id":"50eaa7b7-853f-4c86-a6b6-801eabb12f09","system_id":"levelo_inurba_marseille","lat":43.304274,"lon":5.388873,"is_reserved":false,"is_disabled":false,"rental_uris":{"android":"levelo://app?vid=50eaa7b7-853f-4c86-a6b6-801eabb12f09","ios":"levelo://app?vid=50eaa7b7-853f-4c86-a6b6-801eabb12f09"},"vehicle_type_id":"4","last_reported":1714849624,"current_range_meters":18400,"station_id":"ce4bgk12rcd13ifvqbi0","pricing_plan_id":"cebpf4jnsgd1na2vs0mg"},{"bike_id":"60e08b9c-aa4d-40d3-8126-ca07b557651f","system_id":"levelo_inurba_marseille","lat":43.304274,"lon":5.388873,"is_reserved":false,"is_disabled":false,"rental_uris":{"android":"levelo://app?vid=60e08b9c-aa4d-40d3-8126-ca07b557651f","ios":"levelo://app?vid=60e08b9c-aa4d-40d3-8126-ca07b557651f"},"vehicle_type_id":"4","last_reported":1714849624,"current_range_meters":0,"station_id":"ce4bgk12rcd13ifvqbi0","pricing_plan_id":"cebpf4jnsgd1na2vs0mg"},{"bike_id":"aee3ed8c-8df8-46de-ad89-b3ce8cbfa582","system_id":"levelo_inurba_marseille","lat":43.296195,"lon":5.377125,"is_reserved":false,"is_disabled":false,"rental_uris":{"android":"levelo://app?vid=aee3ed8c-8df8-46de-ad89-b3ce8cbfa582","ios":"levelo://app?vid=aee3ed8c-8df8-46de-ad89-b3ce8cbfa582"},"vehicle_type_id":"4","last_reported":1714849624,"current_range_meters":0,"station_id":"ce4bgi92rcd13ifvqb90","pricing_plan_id":"cebpf4jnsgd1na2vs0mg"},{"bike_id":"2a89422a-c666-4d8e-9793-47dfcd8d2960","system_id":"levelo_inurba_marseille","lat":43.295748,"lon":5.37522,"is_reserved":false,"is_disabled":false,"rental_uris":{"android":"levelo://app?vid=2a89422a-c666-4d8e-9793-47dfcd8d2960","ios":"levelo://app?vid=2a89422a-c666-4d8e-9793-47dfcd8d2960"},"vehicle_type_id":"4","last_reported":1714849624,"current_range_meters":18000,"station_id":"ce4bgh92rcd13ifvqb50","pricing_plan_id":"cebpf4jnsgd1na2vs0mg"},{"bike_id":"ee832532-b138-4f18-9d9a-480383dd1977","system_id":"levelo_inurba_marseille","lat":43.295748,"lon":5.37522,"is_reserved":false,"is_disabled":false,"rental_uris":{"android":"levelo://app?vid=ee832532-b138-4f18-9d9a-480383dd1977","ios":"levelo://app?vid=ee832532-b138-4f18-9d9a-480383dd1977"},"vehicle_type_id":"4","last_reported":1714849624,"current_range_meters":0,"station_id":"ce4bgh92rcd13ifvqb50","pricing_plan_id":"cebpf4jnsgd1na2vs0mg"},{"bike_id":"a4415286-8d43-489d-8b07-241336c7e289","system_id":"levelo_inurba_marseille","lat":43.296277,"lon":5.377108,"is_reserved":false,"is_disabled":false,"rental_uris":{"android":"levelo://app?vid=a4415286-8d43-489d-8b07-241336c7e289","ios":"levelo://app?vid=a4415286-8d43-489d-8b07-241336c7e289"},"vehicle_type_id":"4","last_reported":1714849624,"current_range_meters":0,"station_id":"ce4bgi92rcd13ifvqb90","pricing_plan_id":"cebpf4jnsgd1na2vs0mg"},{"bike_id":"1de72d27-e7df-42a7-a59f-90c14ebf1541","system_id":"levelo_inurba_marseille","lat":43.295279,"lon":5.375048,"is_reserved":false,"is_disabled":false,"rental_uris":{"android":"levelo://app?vid=1de72d27-e7df-42a7-a59f-90c14ebf1541","ios":"levelo://app?vid=1de72d27-e7df-42a7-a59f-90c14ebf1541"},"vehicle_type_id":"4","last_reported":1714849624,"current_range_meters":17200,"station_id":"ce4bgkp2rcd13ifvqbmg","pricing_plan_id":"cebpf4jnsgd1na2vs0mg"},{"bike_id":"fc72f820-0239-405a-8320-2e7a92b5d5e5","system_id":"levelo_inurba_marseille","lat":43.295279,"lon":5.375048,"is_reserved":false,"is_disabled":false,"rental_uris":{"android":"levelo://app?vid=fc72f820-0239-405a-8320-2e7a92b5d5e5","ios":"levelo://app?vid=fc72f820-0239-405a-8320-2e7a92b5d5e5"},"vehicle_type_id":"4","last_reported":1714849624,"current_range_meters":800,"station_id":"ce4bgkp2rcd13ifvqbmg","pricing_plan_id":"cebpf4jnsgd1na2vs0mg"},{"bike_id":"050f62a0-f473-4332-883d-e255b9b36ba6","system_id":"levelo_inurba_marseille","lat":43.295279,"lon":5.375048,"is_reserved":false,"is_disabled":false,"rental_uris":{"android":"levelo://app?vid=050f62a0-f473-4332-883d-e255b9b36ba6","ios":"levelo://app?vid=050f62a0-f473-4332-883d-e255b9b36ba6"},"vehicle_type_id":"4","last_reported":1714849624,"current_range_meters":27600,"station_id":"ce4bgkp2rcd13ifvqbmg","pricing_plan_id":"cebpf4jnsgd1na2vs0mg"},{"bike_id":"3338d993-cb73-48ef-93f2-0d65ec3ca4cb","system_id":"levelo_inurba_marseille","lat":43.29977,"lon":5.38481,"is_reserved":false,"is_disabled":false,"rental_uris":{"android":"levelo://app?vid=3338d993-cb73-48ef-93f2-0d65ec3ca4cb","ios":"levelo://app?vid=3338d993-cb73-48ef-93f2-0d65ec3ca4cb"},"vehicle_type_id":"4","last_reported":1714849624,"current_range_meters":16000,"station_id":"ce4bgj92rcd13ifvqbd0","pricing_plan_id":"cebpf4jnsgd1na2vs0mg"},{"bike_id":"8c9b5be7-d88c-443e-b885-71a75c6e7a4a","system_id":"levelo_inurba_marseille","lat":43.295279,"lon":5.375048,"is_reserved":false,"is_disabled":false,"rental_uris":{"android":"levelo://app?vid=8c9b5be7-d88c-443e-b885-71a75c6e7a4a","ios":"levelo://app?vid=8c9b5be7-d88c-443e-b885-71a75c6e7a4a"},"vehicle_type_id":"4","last_reported":1714849624,"current_range_meters":0,"station_id":"ce4bgkp2rcd13ifvqbmg","pricing_plan_id":"cebpf4jnsgd1na2vs0mg"},{"bike_id":"4a2c49e0-a7ae-4fdd-8e8f-7b01c3e1d79f","system_id":"levelo_inurba_marseille","lat":43.299727,"lon":5.384822,"is_reserved":false,"is_disabled":false,"rental_uris":{"android":"levelo://app?vid=4a2c49e0-a7ae-4fdd-8e8f-7b01c3e1d79f","ios":"levelo://app?vid=4a2c49e0-a7ae-4fdd-8e8f-7b01c3e1d79f"},"vehicle_type_id":"4","last_reported":1714849624,"current_range_meters":0,"station_id":"ce4bgj92rcd13ifvqbd0","pricing_plan_id":"cebpf4jnsgd1na2vs0mg"},{"bike_id":"33207f30-e742-4741-afaf-cd640e46fa0c","system_id":"levelo_inurba_marseille","lat":43.295279,"lon":5.375048,"is_reserved":false,"is_disabled":false,"rental_uris":{"android":"levelo://app?vid=33207f30-e742-4741-afaf-cd640e46fa0c","ios":"levelo://app?vid=33207f30-e742-4741-afaf-cd640e46fa0c"},"vehicle_type_id":"4","last_reported":1714849624,"current_range_meters":2800,"station_id":"ce4bgkp2rcd13ifvqbmg","pricing_plan_id":"cebpf4jnsgd1na2vs0mg"},{"bike_id":"5e504343-56c5-4596-8445-8994d4c52a92","system_id":"levelo_inurba_marseille","lat":43.299707,"lon":5.384859,"is_reserved":false,"is_disabled":false,"rental_uris":{"android":"levelo://app?vid=5e504343-56c5-4596-8445-8994d4c52a92","ios":"levelo://app?vid=5e504343-56c5-4596-8445-8994d4c52a92"},"vehicle_type_id":"4","last_reported":1714849624,"current_range_meters":400,"station_id":"ce4bgj92rcd13ifvqbd0","pricing_plan_id":"cebpf4jnsgd1na2vs0mg"},{"bike_id":"06d15e87-8571-4140-9bcc-215761e7cb90","system_id":"levelo_inurba_marseille","lat":43.299797,"lon":5.384947,"is_reserved":false,"is_disabled":false,"rental_uris":{"android":"levelo://app?vid=06d15e87-8571-4140-9bcc-215761e7cb90","ios":"levelo://app?vid=06d15e87-8571-4140-9bcc-215761e7cb90"},"vehicle_type_id":"4","last_reported":1714849624,"current_range_meters":3600,"station_id":"ce4bgj92rcd13ifvqbd0","pricing_plan_id":"cebpf4jnsgd1na2vs0mg"},{"bike_id":"c41eab3f-9caf-400e-904a-45f69fda9b40","system_id":"levelo_inurba_marseille","lat":43.299707,"lon":5.384859,"is_reserved":false,"is_disabled":false,"rental_uris":{"android":"levelo://app?vid=c41eab3f-9caf-400e-904a-45f69fda9b40","ios":"levelo://app?vid=c41eab3f-9caf-400e-904a-45f69fda9b40"},"vehicle_type_id":"4","last_reported":1714849624,"current_range_meters":30000,"station_id":"ce4bgj92rcd13ifvqbd0","pricing_plan_id":"cebpf4jnsgd1na2vs0mg"},{"bike_id":"83c06387-b794-498c-b55a-e3f142f6d341","system_id":"levelo_inurba_marseille","lat":43.29973,"lon":5.38489,"is_reserved":false,"is_disabled":false,"rental_uris":{"android":"levelo://app?vid=83c06387-b794-498c-b55a-e3f142f6d341","ios":"levelo://app?vid=83c06387-b794-498c-b55a-e3f142f6d341"},"vehicle_type_id":"4","last_reported":1714849624,"current_range_meters":3600,"station_id":"ce4bgj92rcd13ifvqbd0","pricing_plan_id":"cebpf4jnsgd1na2vs0mg"},{"bike_id":"144f972a-f7f3-4d5e-82ee-6476844181b3","system_id":"levelo_inurba_marseille","lat":43.299711,"lon":5.384949,"is_reserved":false,"is_disabled":false,"rental_uris":{"android":"levelo://app?vid=144f972a-f7f3-4d5e-82ee-6476844181b3","ios":"levelo://app?vid=144f972a-f7f3-4d5e-82ee-6476844181b3"},"vehicle_type_id":"4","last_reported":1714849624,"current_range_meters":0,"station_id":"ce4bgj92rcd13ifvqbd0","pricing_plan_id":"cebpf4jnsgd1na2vs0mg"},{"bike_id":"e6d987b2-eb5d-4673-bdd5-408a680cb682","system_id":"levelo_inurba_marseille","lat":43.299717,"lon":5.384845,"is_reserved":false,"is_disabled":false,"rental_uris":{"android":"levelo://app?vid=e6d987b2-eb5d-4673-bdd5-408a680cb682","ios":"levelo://app?vid=e6d987b2-eb5d-4673-bdd5-408a680cb682"},"vehicle_type_id":"4","last_reported":1714849624,"current_range_meters":5600,"station_id":"ce4bgj92rcd13ifvqbd0","pricing_plan_id":"cebpf4jnsgd1na2vs0mg"},{"bike_id":"d25a7f82-f85c-4989-bd03-108d05f1882f","system_id":"levelo_inurba_marseille","lat":43.295279,"lon":5.375048,"is_reserved":false,"is_disabled":false,"rental_uris":{"android":"levelo://app?vid=d25a7f82-f85c-4989-bd03-108d05f1882f","ios":"levelo://app?vid=d25a7f82-f85c-4989-bd03-108d05f1882f"},"vehicle_type_id":"4","last_reported":1714849624,"current_range_meters":11600,"station_id":"ce4bgkp2rcd13ifvqbmg","pricing_plan_id":"cebpf4jnsgd1na2vs0mg"},{"bike_id":"0e6874af-b914-47d6-98f5-1c1693063d8a","system_id":"levelo_inurba_marseille","lat":43.299724,"lon":5.384848,"is_reserved":false,"is_disabled":false,"rental_uris":{"android":"levelo://app?vid=0e6874af-b914-47d6-98f5-1c1693063d8a","ios":"levelo://app?vid=0e6874af-b914-47d6-98f5-1c1693063d8a"},"vehicle_type_id":"4","last_reported":1714849624,"current_range_meters":8400,"station_id":"ce4bgj92rcd13ifvqbd0","pricing_plan_id":"cebpf4jnsgd1na2vs0mg"},{"bike_id":"6c23d677-de38-4364-bebf-580fb64623a4","system_id":"levelo_inurba_marseille","lat":43.299286,"lon":5.385174,"is_reserved":false,"is_disabled":false,"rental_uris":{"android":"levelo://app?vid=6c23d677-de38-4364-bebf-580fb64623a4","ios":"levelo://app?vid=6c23d677-de38-4364-bebf-580fb64623a4"},"vehicle_type_id":"4","last_reported":1714849624,"current_range_meters":0,"station_id":"ce4bgj92rcd13ifvqbd0","pricing_plan_id":"cebpf4jnsgd1na2vs0mg"},{"bike_id":"784b88b7-c8f0-4dbd-819a-64c1fe62d877","system_id":"levelo_inurba_marseille","lat":43.32367,"lon":5.388836,"is_reserved":false,"is_disabled":false,"rental_uris":{"android":"levelo://app?vid=784b88b7-c8f0-4dbd-819a-64c1fe62d877","ios":"levelo://app?vid=784b88b7-c8f0-4dbd-819a-64c1fe62d877"},"vehicle_type_id":"4","last_reported":1714849624,"current_range_meters":0,"station_id":"ce4bhqp2rcd13ifvqhog","pricing_plan_id":"cebpf4jnsgd1na2vs0mg"},{"bike_id":"b7580870-88ea-4f79-a92c-b457030d4290","system_id":"levelo_inurba_marseille","lat":43.307055,"lon":5.392532,"is_reserved":false,"is_disabled":false,"rental_uris":{"android":"levelo://app?vid=b7580870-88ea-4f79-a92c-b457030d4290","ios":"levelo://app?vid=b7580870-88ea-4f79-a92c-b457030d4290"},"vehicle_type_id":"4","last_reported":1714849624,"current_range_meters":20400,"station_id":"","pricing_plan_id":"cebpf4jnsgd1na2vs0mg"},{"bike_id":"f5a45de2-1469-42fc-b00c-3ce501865887","system_id":"levelo_inurba_marseille","lat":43.29602,"lon":5.381084,"is_reserved":false,"is_disabled":false,"rental_uris":{"android":"levelo://app?vid=f5a45de2-1469-42fc-b00c-3ce501865887","ios":"levelo://app?vid=f5a45de2-1469-42fc-b00c-3ce501865887"},"vehicle_type_id":"4","last_reported":1714849624,"current_range_meters":0,"station_id":"ce4bgl12rcd13ifvqbo0","pricing_plan_id":"cebpf4jnsgd1na2vs0mg"},{"bike_id":"45f9b183-b8c7-4a22-9dc2-265353cd0a7f","system_id":"levelo_inurba_marseille","lat":43.29602,"lon":5.381084,"is_reserved":false,"is_disabled":false,"rental_uris":{"android":"levelo://app?vid=45f9b183-b8c7-4a22-9dc2-265353cd0a7f","ios":"levelo://app?vid=45f9b183-b8c7-4a22-9dc2-265353cd0a7f"},"vehicle_type_id":"4","last_reported":1714849624,"current_range_meters":3600,"station_id":"ce4bgl12rcd13ifvqbo0","pricing_plan_id":"cebpf4jnsgd1na2vs0mg"},{"bike_id":"98f859a2-eb06-4e41-876f-4323edaf6e1e","system_id":"levelo_inurba_marseille","lat":43.29602,"lon":5.381084,"is_reserved":false,"is_disabled":false,"rental_uris":{"android":"levelo://app?vid=98f859a2-eb06-4e41-876f-4323edaf6e1e","ios":"levelo://app?vid=98f859a2-eb06-4e41-876f-4323edaf6e1e"},"vehicle_type_id":"4","last_reported":1714849624,"current_range_meters":0,"station_id":"ce4bgl12rcd13ifvqbo0","pricing_plan_id":"cebpf4jnsgd1na2vs0mg"},{"bike_id":"c5673c37-7203-49fa-b356-e966a1dca6ed","system_id":"levelo_inurba_marseille","lat":43.295279,"lon":5.375048,"is_reserved":false,"is_disabled":false,"rental_uris":{"android":"levelo://app?vid=c5673c37-7203-49fa-b356-e966a1dca6ed","ios":"levelo://app?vid=c5673c37-7203-49fa-b356-e966a1dca6ed"},"vehicle_type_id":"4","last_reported":1714849624,"current_range_meters":12400,"station_id":"ce4bgkp2rcd13ifvqbmg","pricing_plan_id":"cebpf4jnsgd1na2vs0mg"},{"bike_id":"1a36fc9b-f74f-47f3-a0ca-50c7aeb97d0b","system_id":"levelo_inurba_marseille","lat":43.292749,"lon":5.368398,"is_reserved":false,"is_disabled":false,"rental_uris":{"android":"levelo://app?vid=1a36fc9b-f74f-47f3-a0ca-50c7aeb97d0b","ios":"levelo://app?vid=1a36fc9b-f74f-47f3-a0ca-50c7aeb97d0b"},"vehicle_type_id":"4","last_reported":1714849624,"current_range_meters":28000,"station_id":"ce4bhbp2rcd13ifvqesg","pricing_plan_id":"cebpf4jnsgd1na2vs0mg"},{"bike_id":"33f92736-40ed-4b69-b3e5-9a550952f6a1","system_id":"levelo_inurba_marseille","lat":43.29284,"lon":5.36834,"is_reserved":false,"is_disabled":false,"rental_uris":{"android":"levelo://app?vid=33f92736-40ed-4b69-b3e5-9a550952f6a1","ios":"levelo://app?vid=33f92736-40ed-4b69-b3e5-9a550952f6a1"},"vehicle_type_id":"4","last_reported":1714849624,"current_range_meters":0,"station_id":"ce4bhbp2rcd13ifvqesg","pricing_plan_id":"cebpf4jnsgd1na2vs0mg"},{"bike_id":"183aff20-9007-4579-b69a-740f79098003","system_id":"levelo_inurba_marseille","lat":43.292749,"lon":5.368398,"is_reserved":false,"is_disabled":false,"rental_uris":{"android":"levelo://app?vid=183aff20-9007-4579-b69a-740f79098003","ios":"levelo://app?vid=183aff20-9007-4579-b69a-740f79098003"},"vehicle_type_id":"4","last_reported":1714849624,"current_range_meters":800,"station_id":"ce4bhbp2rcd13ifvqesg","pricing_plan_id":"cebpf4jnsgd1na2vs0mg"},{"bike_id":"27e5625a-21a1-48c9-a8aa-dada0e033997","system_id":"levelo_inurba_marseille","lat":43.293259,"lon":5.371586,"is_reserved":false,"is_disabled":false,"rental_uris":{"android":"levelo://app?vid=27e5625a-21a1-48c9-a8aa-dada0e033997","ios":"levelo://app?vid=27e5625a-21a1-48c9-a8aa-dada0e033997"},"vehicle_type_id":"4","last_reported":1714849624,"current_range_meters":3600,"station_id":"ce4bgh92rcd13ifvqb40","pricing_plan_id":"cebpf4jnsgd1na2vs0mg"},{"bike_id":"bf50398d-e286-4426-96b6-d74211f56de0","system_id":"levelo_inurba_marseille","lat":43.2928,"lon":5.36841,"is_reserved":false,"is_disabled":false,"rental_uris":{"android":"levelo://app?vid=bf50398d-e286-4426-96b6-d74211f56de0","ios":"levelo://app?vid=bf50398d-e286-4426-96b6-d74211f56de0"},"vehicle_type_id":"4","last_reported":1714849624,"current_range_meters":0,"station_id":"ce4bhbp2rcd13ifvqesg","pricing_plan_id":"cebpf4jnsgd1na2vs0mg"},{"bike_id":"e71fd927-082a-40cb-bad1-7e3809a1065f","system_id":"levelo_inurba_marseille","lat":43.2928,"lon":5.3685,"is_reserved":false,"is_disabled":false,"rental_uris":{"android":"levelo://app?vid=e71fd927-082a-40cb-bad1-7e3809a1065f","ios":"levelo://app?vid=e71fd927-082a-40cb-bad1-7e3809a1065f"},"vehicle_type_id":"4","last_reported":1714849624,"current_range_meters":16000,"station_id":"ce4bhbp2rcd13ifvqesg","pricing_plan_id":"cebpf4jnsgd1na2vs0mg"},{"bike_id":"9475ba93-6d93-4536-9b75-270269b5f4f4","system_id":"levelo_inurba_marseille","lat":43.292749,"lon":5.368398,"is_reserved":false,"is_disabled":false,"rental_uris":{"android":"levelo://app?vid=9475ba93-6d93-4536-9b75-270269b5f4f4","ios":"levelo://app?vid=9475ba93-6d93-4536-9b75-270269b5f4f4"},"vehicle_type_id":"4","last_reported":1714849624,"current_range_meters":0,"station_id":"ce4bhbp2rcd13ifvqesg","pricing_plan_id":"cebpf4jnsgd1na2vs0mg"},{"bike_id":"234cb0fb-e4d7-4628-ae95-d08f5b6a1bc3","system_id":"levelo_inurba_marseille","lat":43.29277,"lon":5.36851,"is_reserved":false,"is_disabled":false,"rental_uris":{"android":"levelo://app?vid=234cb0fb-e4d7-4628-ae95-d08f5b6a1bc3","ios":"levelo://app?vid=234cb0fb-e4d7-4628-ae95-d08f5b6a1bc3"},"vehicle_type_id":"4","last_reported":1714849624,"current_range_meters":8400,"station_id":"ce4bhbp2rcd13ifvqesg","pricing_plan_id":"cebpf4jnsgd1na2vs0mg"},{"bike_id":"f223daa4-d226-4dda-ba49-d5824284d516","system_id":"levelo_inurba_marseille","lat":43.292749,"lon":5.368398,"is_reserved":false,"is_disabled":false,"rental_uris":{"android":"levelo://app?vid=f223daa4-d226-4dda-ba49-d5824284d516","ios":"levelo://app?vid=f223daa4-d226-4dda-ba49-d5824284d516"},"vehicle_type_id":"4","last_reported":1714849624,"current_range_meters":8000,"station_id":"ce4bhbp2rcd13ifvqesg","pricing_plan_id":"cebpf4jnsgd1na2vs0mg"},{"bike_id":"49d90152-e1a0-400d-9346-7a22dc9df8b8","system_id":"levelo_inurba_marseille","lat":43.292749,"lon":5.368398,"is_reserved":false,"is_disabled":false,"rental_uris":{"android":"levelo://app?vid=49d90152-e1a0-400d-9346-7a22dc9df8b8","ios":"levelo://app?vid=49d90152-e1a0-400d-9346-7a22dc9df8b8"},"vehicle_type_id":"4","last_reported":1714849624,"current_range_meters":0,"station_id":"ce4bhbp2rcd13ifvqesg","pricing_plan_id":"cebpf4jnsgd1na2vs0mg"},{"bike_id":"61bec491-cdb6-4b83-811f-f5ad88dec270","system_id":"levelo_inurba_marseille","lat":43.292749,"lon":5.368398,"is_reserved":false,"is_disabled":false,"rental_uris":{"android":"levelo://app?vid=61bec491-cdb6-4b83-811f-f5ad88dec270","ios":"levelo://app?vid=61bec491-cdb6-4b83-811f-f5ad88dec270"},"vehicle_type_id":"4","last_reported":1714849624,"current_range_meters":0,"station_id":"ce4bhbp2rcd13ifvqesg","pricing_plan_id":"cebpf4jnsgd1na2vs0mg"},{"bike_id":"d4790766-311d-4cd6-b35b-59d8ca4fcd02","system_id":"levelo_inurba_marseille","lat":43.29275,"lon":5.36839,"is_reserved":false,"is_disabled":false,"rental_uris":{"android":"levelo://app?vid=d4790766-311d-4cd6-b35b-59d8ca4fcd02","ios":"levelo://app?vid=d4790766-311d-4cd6-b35b-59d8ca4fcd02"},"vehicle_type_id":"4","last_reported":1714849624,"current_range_meters":0,"station_id":"ce4bhbp2rcd13ifvqesg","pricing_plan_id":"cebpf4jnsgd1na2vs0mg"},{"bike_id":"03ff5d1c-f534-493c-8370-7614e9ccd94f","system_id":"levelo_inurba_marseille","lat":43.292749,"lon":5.368398,"is_reserved":false,"is_disabled":false,"rental_uris":{"android":"levelo://app?vid=03ff5d1c-f534-493c-8370-7614e9ccd94f","ios":"levelo://app?vid=03ff5d1c-f534-493c-8370-7614e9ccd94f"},"vehicle_type_id":"4","last_reported":1714849624,"current_range_meters":18400,"station_id":"ce4bhbp2rcd13ifvqesg","pricing_plan_id":"cebpf4jnsgd1na2vs0mg"},{"bike_id":"d4260e81-ac15-48be-a00c-61de1345401b","system_id":"levelo_inurba_marseille","lat":43.29274,"lon":5.36847,"is_reserved":false,"is_disabled":false,"rental_uris":{"android":"levelo://app?vid=d4260e81-ac15-48be-a00c-61de1345401b","ios":"levelo://app?vid=d4260e81-ac15-48be-a00c-61de1345401b"},"vehicle_type_id":"4","last_reported":1714849624,"current_range_meters":0,"station_id":"ce4bhbp2rcd13ifvqesg","pricing_plan_id":"cebpf4jnsgd1na2vs0mg"},{"bike_id":"bad348d0-8584-4d4d-97b0-dcc5e919031e","system_id":"levelo_inurba_marseille","lat":43.29273,"lon":5.36845,"is_reserved":false,"is_disabled":false,"rental_uris":{"android":"levelo://app?vid=bad348d0-8584-4d4d-97b0-dcc5e919031e","ios":"levelo://app?vid=bad348d0-8584-4d4d-97b0-dcc5e919031e"},"vehicle_type_id":"4","last_reported":1714849624,"current_range_meters":6800,"station_id":"ce4bhbp2rcd13ifvqesg","pricing_plan_id":"cebpf4jnsgd1na2vs0mg"},{"bike_id":"9594b2bd-f7d4-4a00-a31c-89cd2d1045ac","system_id":"levelo_inurba_marseille","lat":43.293249,"lon":5.371578,"is_reserved":false,"is_disabled":false,"rental_uris":{"android":"levelo://app?vid=9594b2bd-f7d4-4a00-a31c-89cd2d1045ac","ios":"levelo://app?vid=9594b2bd-f7d4-4a00-a31c-89cd2d1045ac"},"vehicle_type_id":"4","last_reported":1714849624,"current_range_meters":22400,"station_id":"ce4bgh92rcd13ifvqb40","pricing_plan_id":"cebpf4jnsgd1na2vs0mg"},{"bike_id":"d3e54625-0960-432f-a28e-8a83b09203e8","system_id":"levelo_inurba_marseille","lat":43.292749,"lon":5.368398,"is_reserved":false,"is_disabled":false,"rental_uris":{"android":"levelo://app?vid=d3e54625-0960-432f-a28e-8a83b09203e8","ios":"levelo://app?vid=d3e54625-0960-432f-a28e-8a83b09203e8"},"vehicle_type_id":"4","last_reported":1714849624,"current_range_meters":2800,"station_id":"ce4bhbp2rcd13ifvqesg","pricing_plan_id":"cebpf4jnsgd1na2vs0mg"},{"bike_id":"09f7cb5d-9edd-47d2-a04e-f1b90dc48fc4","system_id":"levelo_inurba_marseille","lat":43.2927,"lon":5.36851,"is_reserved":false,"is_disabled":false,"rental_uris":{"android":"levelo://app?vid=09f7cb5d-9edd-47d2-a04e-f1b90dc48fc4","ios":"levelo://app?vid=09f7cb5d-9edd-47d2-a04e-f1b90dc48fc4"},"vehicle_type_id":"4","last_reported":1714849624,"current_range_meters":24800,"station_id":"ce4bhbp2rcd13ifvqesg","pricing_plan_id":"cebpf4jnsgd1na2vs0mg"},{"bike_id":"9c35b100-588a-43de-904c-40fa61555170","system_id":"levelo_inurba_marseille","lat":43.292749,"lon":5.368402,"is_reserved":false,"is_disabled":false,"rental_uris":{"android":"levelo://app?vid=9c35b100-588a-43de-904c-40fa61555170","ios":"levelo://app?vid=9c35b100-588a-43de-904c-40fa61555170"},"vehicle_type_id":"4","last_reported":1714849624,"current_range_meters":0,"station_id":"ce4bhbp2rcd13ifvqesg","pricing_plan_id":"cebpf4jnsgd1na2vs0mg"},{"bike_id":"91851b9a-3ff0-4853-92d0-0abe161ac014","system_id":"levelo_inurba_marseille","lat":43.303002,"lon":5.392142,"is_reserved":false,"is_disabled":false,"rental_uris":{"android":"levelo://app?vid=91851b9a-3ff0-4853-92d0-0abe161ac014","ios":"levelo://app?vid=91851b9a-3ff0-4853-92d0-0abe161ac014"},"vehicle_type_id":"4","last_reported":1714849624,"current_range_meters":6000,"station_id":"ce4bgkh2rcd13ifvqbk0","pricing_plan_id":"cebpf4jnsgd1na2vs0mg"},{"bike_id":"f75f6df3-cc51-4646-ad12-0fec3f608a96","system_id":"levelo_inurba_marseille","lat":43.293009,"lon":5.374584,"is_reserved":false,"is_disabled":false,"rental_uris":{"android":"levelo://app?vid=f75f6df3-cc51-4646-ad12-0fec3f608a96","ios":"levelo://app?vid=f75f6df3-cc51-4646-ad12-0fec3f608a96"},"vehicle_type_id":"4","last_reported":1714849624,"current_range_meters":10800,"station_id":"ce4bgi12rcd13ifvqb70","pricing_plan_id":"cebpf4jnsgd1na2vs0mg"},{"bike_id":"e1e0827d-cd54-47ec-9453-8d329ab0c944","system_id":"levelo_inurba_marseille","lat":43.293009,"lon":5.374584,"is_reserved":false,"is_disabled":false,"rental_uris":{"android":"levelo://app?vid=e1e0827d-cd54-47ec-9453-8d329ab0c944","ios":"levelo://app?vid=e1e0827d-cd54-47ec-9453-8d329ab0c944"},"vehicle_type_id":"4","last_reported":1714849624,"current_range_meters":24800,"station_id":"ce4bgi12rcd13ifvqb70","pricing_plan_id":"cebpf4jnsgd1na2vs0mg"},{"bike_id":"d49480f8-0a5d-4864-8603-20388b148ddb","system_id":"levelo_inurba_marseille","lat":43.293,"lon":5.37448,"is_reserved":false,"is_disabled":false,"rental_uris":{"android":"levelo://app?vid=d49480f8-0a5d-4864-8603-20388b148ddb","ios":"levelo://app?vid=d49480f8-0a5d-4864-8603-20388b148ddb"},"vehicle_type_id":"4","last_reported":1714849624,"current_range_meters":0,"station_id":"ce4bgi12rcd13ifvqb70","pricing_plan_id":"cebpf4jnsgd1na2vs0mg"},{"bike_id":"0fa08027-2a0b-4746-b256-f02f0ecbb391","system_id":"levelo_inurba_marseille","lat":43.293009,"lon":5.374584,"is_reserved":false,"is_disabled":false,"rental_uris":{"android":"levelo://app?vid=0fa08027-2a0b-4746-b256-f02f0ecbb391","ios":"levelo://app?vid=0fa08027-2a0b-4746-b256-f02f0ecbb391"},"vehicle_type_id":"4","last_reported":1714849624,"current_range_meters":10800,"station_id":"ce4bgi12rcd13ifvqb70","pricing_plan_id":"cebpf4jnsgd1na2vs0mg"},{"bike_id":"16fc6348-acb0-4ede-920a-96e94d658896","system_id":"levelo_inurba_marseille","lat":43.293,"lon":5.37453,"is_reserved":false,"is_disabled":false,"rental_uris":{"android":"levelo://app?vid=16fc6348-acb0-4ede-920a-96e94d658896","ios":"levelo://app?vid=16fc6348-acb0-4ede-920a-96e94d658896"},"vehicle_type_id":"4","last_reported":1714849624,"current_range_meters":800,"station_id":"ce4bgi12rcd13ifvqb70","pricing_plan_id":"cebpf4jnsgd1na2vs0mg"},{"bike_id":"3eec1524-27b0-42b7-bfbe-388148065b5b","system_id":"levelo_inurba_marseille","lat":43.293009,"lon":5.374584,"is_reserved":false,"is_disabled":false,"rental_uris":{"android":"levelo://app?vid=3eec1524-27b0-42b7-bfbe-388148065b5b","ios":"levelo://app?vid=3eec1524-27b0-42b7-bfbe-388148065b5b"},"vehicle_type_id":"4","last_reported":1714849624,"current_range_meters":0,"station_id":"ce4bgi12rcd13ifvqb70","pricing_plan_id":"cebpf4jnsgd1na2vs0mg"},{"bike_id":"ffc4b483-74f5-4bcc-91da-f86425c5a34c","system_id":"levelo_inurba_marseille","lat":43.293009,"lon":5.374584,"is_reserved":false,"is_disabled":false,"rental_uris":{"android":"levelo://app?vid=ffc4b483-74f5-4bcc-91da-f86425c5a34c","ios":"levelo://app?vid=ffc4b483-74f5-4bcc-91da-f86425c5a34c"},"vehicle_type_id":"4","last_reported":1714849624,"current_range_meters":15200,"station_id":"ce4bgi12rcd13ifvqb70","pricing_plan_id":"cebpf4jnsgd1na2vs0mg"},{"bike_id":"4c02d467-4e1c-46bb-a6a3-f3834f9d6551","system_id":"levelo_inurba_marseille","lat":43.293009,"lon":5.374692,"is_reserved":false,"is_disabled":false,"rental_uris":{"android":"levelo://app?vid=4c02d467-4e1c-46bb-a6a3-f3834f9d6551","ios":"levelo://app?vid=4c02d467-4e1c-46bb-a6a3-f3834f9d6551"},"vehicle_type_id":"4","last_reported":1714849624,"current_range_meters":0,"station_id":"ce4bgi12rcd13ifvqb70","pricing_plan_id":"cebpf4jnsgd1na2vs0mg"},{"bike_id":"a31a1a92-769e-44c9-9c93-71fbfbd3253f","system_id":"levelo_inurba_marseille","lat":43.293009,"lon":5.374584,"is_reserved":false,"is_disabled":false,"rental_uris":{"android":"levelo://app?vid=a31a1a92-769e-44c9-9c93-71fbfbd3253f","ios":"levelo://app?vid=a31a1a92-769e-44c9-9c93-71fbfbd3253f"},"vehicle_type_id":"4","last_reported":1714849624,"current_range_meters":400,"station_id":"ce4bgi12rcd13ifvqb70","pricing_plan_id":"cebpf4jnsgd1na2vs0mg"},{"bike_id":"f0fb9ef8-625d-4eba-a421-7bf46a65cb8e","system_id":"levelo_inurba_marseille","lat":43.305994,"lon":5.393687,"is_reserved":false,"is_disabled":false,"rental_uris":{"android":"levelo://app?vid=f0fb9ef8-625d-4eba-a421-7bf46a65cb8e","ios":"levelo://app?vid=f0fb9ef8-625d-4eba-a421-7bf46a65cb8e"},"vehicle_type_id":"4","last_reported":1714849624,"current_range_meters":20000,"station_id":"ce4bh0p2rcd13ifvqd80","pricing_plan_id":"cebpf4jnsgd1na2vs0mg"},{"bike_id":"9ac01863-dff6-47dd-ac33-a3b54ac9ff84","system_id":"levelo_inurba_marseille","lat":43.293009,"lon":5.374584,"is_reserved":false,"is_disabled":false,"rental_uris":{"android":"levelo://app?vid=9ac01863-dff6-47dd-ac33-a3b54ac9ff84","ios":"levelo://app?vid=9ac01863-dff6-47dd-ac33-a3b54ac9ff84"},"vehicle_type_id":"4","last_reported":1714849624,"current_range_meters":25200,"station_id":"ce4bgi12rcd13ifvqb70","pricing_plan_id":"cebpf4jnsgd1na2vs0mg"},{"bike_id":"11b9431e-a74e-4eb7-9123-577527c3a05e","system_id":"levelo_inurba_marseille","lat":43.293134,"lon":5.375478,"is_reserved":false,"is_disabled":false,"rental_uris":{"android":"levelo://app?vid=11b9431e-a74e-4eb7-9123-577527c3a05e","ios":"levelo://app?vid=11b9431e-a74e-4eb7-9123-577527c3a05e"},"vehicle_type_id":"4","last_reported":1714849624,"current_range_meters":4000,"station_id":"","pricing_plan_id":"cebpf4jnsgd1na2vs0mg"},{"bike_id":"6c64ef0c-6256-40ce-8a33-8bfcaf767e2f","system_id":"levelo_inurba_marseille","lat":43.305994,"lon":5.393687,"is_reserved":false,"is_disabled":false,"rental_uris":{"android":"levelo://app?vid=6c64ef0c-6256-40ce-8a33-8bfcaf767e2f","ios":"levelo://app?vid=6c64ef0c-6256-40ce-8a33-8bfcaf767e2f"},"vehicle_type_id":"4","last_reported":1714849624,"current_range_meters":0,"station_id":"ce4bh0p2rcd13ifvqd80","pricing_plan_id":"cebpf4jnsgd1na2vs0mg"},{"bike_id":"f7b72733-d6d6-4f7f-a972-a73ca5507146","system_id":"levelo_inurba_marseille","lat":43.303065,"lon":5.39197,"is_reserved":false,"is_disabled":false,"rental_uris":{"android":"levelo://app?vid=f7b72733-d6d6-4f7f-a972-a73ca5507146","ios":"levelo://app?vid=f7b72733-d6d6-4f7f-a972-a73ca5507146"},"vehicle_type_id":"4","last_reported":1714849624,"current_range_meters":0,"station_id":"ce4bgkh2rcd13ifvqbk0","pricing_plan_id":"cebpf4jnsgd1na2vs0mg"},{"bike_id":"3c34e24d-f926-4693-aa71-9802bcb659be","system_id":"levelo_inurba_marseille","lat":43.293009,"lon":5.374584,"is_reserved":false,"is_disabled":false,"rental_uris":{"android":"levelo://app?vid=3c34e24d-f926-4693-aa71-9802bcb659be","ios":"levelo://app?vid=3c34e24d-f926-4693-aa71-9802bcb659be"},"vehicle_type_id":"4","last_reported":1714849624,"current_range_meters":16400,"station_id":"ce4bgi12rcd13ifvqb70","pricing_plan_id":"cebpf4jnsgd1na2vs0mg"},{"bike_id":"31c0bc65-98c1-4dec-a638-6c6173ea1e5a","system_id":"levelo_inurba_marseille","lat":43.2936,"lon":5.37835,"is_reserved":false,"is_disabled":false,"rental_uris":{"android":"levelo://app?vid=31c0bc65-98c1-4dec-a638-6c6173ea1e5a","ios":"levelo://app?vid=31c0bc65-98c1-4dec-a638-6c6173ea1e5a"},"vehicle_type_id":"4","last_reported":1714849624,"current_range_meters":22800,"station_id":"ce4bgjh2rcd13ifvqbf0","pricing_plan_id":"cebpf4jnsgd1na2vs0mg"},{"bike_id":"ad0114cd-ad56-46c9-bf49-1a00b5dd688b","system_id":"levelo_inurba_marseille","lat":43.292758,"lon":5.374805,"is_reserved":false,"is_disabled":false,"rental_uris":{"android":"levelo://app?vid=ad0114cd-ad56-46c9-bf49-1a00b5dd688b","ios":"levelo://app?vid=ad0114cd-ad56-46c9-bf49-1a00b5dd688b"},"vehicle_type_id":"4","last_reported":1714849624,"current_range_meters":0,"station_id":"ce4bgi12rcd13ifvqb70","pricing_plan_id":"cebpf4jnsgd1na2vs0mg"},{"bike_id":"8c54d3d5-80b9-4ea4-a0f2-ee9810f5c9a2","system_id":"levelo_inurba_marseille","lat":43.303002,"lon":5.392142,"is_reserved":false,"is_disabled":false,"rental_uris":{"android":"levelo://app?vid=8c54d3d5-80b9-4ea4-a0f2-ee9810f5c9a2","ios":"levelo://app?vid=8c54d3d5-80b9-4ea4-a0f2-ee9810f5c9a2"},"vehicle_type_id":"4","last_reported":1714849624,"current_range_meters":1600,"station_id":"ce4bgkh2rcd13ifvqbk0","pricing_plan_id":"cebpf4jnsgd1na2vs0mg"},{"bike_id":"964ef2c3-aeec-48c4-9aa8-e37941f9b291","system_id":"levelo_inurba_marseille","lat":43.2936,"lon":5.37835,"is_reserved":false,"is_disabled":false,"rental_uris":{"android":"levelo://app?vid=964ef2c3-aeec-48c4-9aa8-e37941f9b291","ios":"levelo://app?vid=964ef2c3-aeec-48c4-9aa8-e37941f9b291"},"vehicle_type_id":"4","last_reported":1714849624,"current_range_meters":21200,"station_id":"ce4bgjh2rcd13ifvqbf0","pricing_plan_id":"cebpf4jnsgd1na2vs0mg"},{"bike_id":"18d2b99d-ae5a-4c71-a7e0-16a9046bf88b","system_id":"levelo_inurba_marseille","lat":43.302651,"lon":5.39208,"is_reserved":false,"is_disabled":false,"rental_uris":{"android":"levelo://app?vid=18d2b99d-ae5a-4c71-a7e0-16a9046bf88b","ios":"levelo://app?vid=18d2b99d-ae5a-4c71-a7e0-16a9046bf88b"},"vehicle_type_id":"4","last_reported":1714849624,"current_range_meters":0,"station_id":"ce4bgkh2rcd13ifvqbk0","pricing_plan_id":"cebpf4jnsgd1na2vs0mg"},{"bike_id":"7a1816f3-e4a9-4d6c-a25a-be3c99bd4d37","system_id":"levelo_inurba_marseille","lat":43.292311,"lon":5.360731,"is_reserved":false,"is_disabled":false,"rental_uris":{"android":"levelo://app?vid=7a1816f3-e4a9-4d6c-a25a-be3c99bd4d37","ios":"levelo://app?vid=7a1816f3-e4a9-4d6c-a25a-be3c99bd4d37"},"vehicle_type_id":"4","last_reported":1714849624,"current_range_meters":18800,"station_id":"ce4bhbh2rcd13ifvqeqg","pricing_plan_id":"cebpf4jnsgd1na2vs0mg"},{"bike_id":"e8065689-ddb7-46db-9389-432127892b45","system_id":"levelo_inurba_marseille","lat":43.292311,"lon":5.360731,"is_reserved":false,"is_disabled":false,"rental_uris":{"android":"levelo://app?vid=e8065689-ddb7-46db-9389-432127892b45","ios":"levelo://app?vid=e8065689-ddb7-46db-9389-432127892b45"},"vehicle_type_id":"4","last_reported":1714849624,"current_range_meters":19200,"station_id":"ce4bhbh2rcd13ifvqeqg","pricing_plan_id":"cebpf4jnsgd1na2vs0mg"},{"bike_id":"cd36d811-bde0-4ed9-b401-6ac8bd5887c3","system_id":"levelo_inurba_marseille","lat":43.2936,"lon":5.37835,"is_reserved":false,"is_disabled":false,"rental_uris":{"android":"levelo://app?vid=cd36d811-bde0-4ed9-b401-6ac8bd5887c3","ios":"levelo://app?vid=cd36d811-bde0-4ed9-b401-6ac8bd5887c3"},"vehicle_type_id":"4","last_reported":1714849624,"current_range_meters":8000,"station_id":"ce4bgjh2rcd13ifvqbf0","pricing_plan_id":"cebpf4jnsgd1na2vs0mg"},{"bike_id":"2546f055-5533-421e-b274-399736de53b2","system_id":"levelo_inurba_marseille","lat":43.30085,"lon":5.390856,"is_reserved":false,"is_disabled":false,"rental_uris":{"android":"levelo://app?vid=2546f055-5533-421e-b274-399736de53b2","ios":"levelo://app?vid=2546f055-5533-421e-b274-399736de53b2"},"vehicle_type_id":"4","last_reported":1714849624,"current_range_meters":4800,"station_id":"ce4bh192rcd13ifvqdb0","pricing_plan_id":"cebpf4jnsgd1na2vs0mg"},{"bike_id":"737b7533-dd2f-4cdd-abdd-b718272d6643","system_id":"levelo_inurba_marseille","lat":43.292311,"lon":5.360731,"is_reserved":false,"is_disabled":false,"rental_uris":{"android":"levelo://app?vid=737b7533-dd2f-4cdd-abdd-b718272d6643","ios":"levelo://app?vid=737b7533-dd2f-4cdd-abdd-b718272d6643"},"vehicle_type_id":"4","last_reported":1714849624,"current_range_meters":24800,"station_id":"ce4bhbh2rcd13ifvqeqg","pricing_plan_id":"cebpf4jnsgd1na2vs0mg"},{"bike_id":"89c8cc68-140b-482a-a3a0-2307ea1936c5","system_id":"levelo_inurba_marseille","lat":43.292311,"lon":5.360731,"is_reserved":false,"is_disabled":false,"rental_uris":{"android":"levelo://app?vid=89c8cc68-140b-482a-a3a0-2307ea1936c5","ios":"levelo://app?vid=89c8cc68-140b-482a-a3a0-2307ea1936c5"},"vehicle_type_id":"4","last_reported":1714849624,"current_range_meters":26800,"station_id":"ce4bhbh2rcd13ifvqeqg","pricing_plan_id":"cebpf4jnsgd1na2vs0mg"},{"bike_id":"1bb615e6-dd0a-4c31-97ef-e3cd0dc9bfa5","system_id":"levelo_inurba_marseille","lat":43.292311,"lon":5.360731,"is_reserved":false,"is_disabled":false,"rental_uris":{"android":"levelo://app?vid=1bb615e6-dd0a-4c31-97ef-e3cd0dc9bfa5","ios":"levelo://app?vid=1bb615e6-dd0a-4c31-97ef-e3cd0dc9bfa5"},"vehicle_type_id":"4","last_reported":1714849624,"current_range_meters":17200,"station_id":"ce4bhbh2rcd13ifvqeqg","pricing_plan_id":"cebpf4jnsgd1na2vs0mg"},{"bike_id":"f0406f15-edb8-4867-b343-ec8608d97435","system_id":"levelo_inurba_marseille","lat":43.292311,"lon":5.360731,"is_reserved":false,"is_disabled":false,"rental_uris":{"android":"levelo://app?vid=f0406f15-edb8-4867-b343-ec8608d97435","ios":"levelo://app?vid=f0406f15-edb8-4867-b343-ec8608d97435"},"vehicle_type_id":"4","last_reported":1714849624,"current_range_meters":16000,"station_id":"ce4bhbh2rcd13ifvqeqg","pricing_plan_id":"cebpf4jnsgd1na2vs0mg"},{"bike_id":"515fee84-6971-4ebc-aee5-26e546cff455","system_id":"levelo_inurba_marseille","lat":43.2923,"lon":5.36056,"is_reserved":false,"is_disabled":false,"rental_uris":{"android":"levelo://app?vid=515fee84-6971-4ebc-aee5-26e546cff455","ios":"levelo://app?vid=515fee84-6971-4ebc-aee5-26e546cff455"},"vehicle_type_id":"4","last_reported":1714849624,"current_range_meters":5200,"station_id":"ce4bhbh2rcd13ifvqeqg","pricing_plan_id":"cebpf4jnsgd1na2vs0mg"},{"bike_id":"aac0eabc-629a-420d-b8e2-ba84d4a9187f","system_id":"levelo_inurba_marseille","lat":43.30085,"lon":5.390856,"is_reserved":false,"is_disabled":false,"rental_uris":{"android":"levelo://app?vid=aac0eabc-629a-420d-b8e2-ba84d4a9187f","ios":"levelo://app?vid=aac0eabc-629a-420d-b8e2-ba84d4a9187f"},"vehicle_type_id":"4","last_reported":1714849624,"current_range_meters":4800,"station_id":"ce4bh192rcd13ifvqdb0","pricing_plan_id":"cebpf4jnsgd1na2vs0mg"},{"bike_id":"1843d22f-367b-4363-9fc5-6c109c44c1df","system_id":"levelo_inurba_marseille","lat":43.30085,"lon":5.390856,"is_reserved":false,"is_disabled":false,"rental_uris":{"android":"levelo://app?vid=1843d22f-367b-4363-9fc5-6c109c44c1df","ios":"levelo://app?vid=1843d22f-367b-4363-9fc5-6c109c44c1df"},"vehicle_type_id":"4","last_reported":1714849624,"current_range_meters":0,"station_id":"ce4bh192rcd13ifvqdb0","pricing_plan_id":"cebpf4jnsgd1na2vs0mg"},{"bike_id":"a2dce443-b00f-45dd-9fdf-bcfcef0bff53","system_id":"levelo_inurba_marseille","lat":43.29226,"lon":5.36074,"is_reserved":false,"is_disabled":false,"rental_uris":{"android":"levelo://app?vid=a2dce443-b00f-45dd-9fdf-bcfcef0bff53","ios":"levelo://app?vid=a2dce443-b00f-45dd-9fdf-bcfcef0bff53"},"vehicle_type_id":"4","last_reported":1714849624,"current_range_meters":15600,"station_id":"ce4bhbh2rcd13ifvqeqg","pricing_plan_id":"cebpf4jnsgd1na2vs0mg"},{"bike_id":"9a515628-7cbc-478b-b3f3-186a97db88c3","system_id":"levelo_inurba_marseille","lat":43.29226,"lon":5.36067,"is_reserved":false,"is_disabled":false,"rental_uris":{"android":"levelo://app?vid=9a515628-7cbc-478b-b3f3-186a97db88c3","ios":"levelo://app?vid=9a515628-7cbc-478b-b3f3-186a97db88c3"},"vehicle_type_id":"4","last_reported":1714849624,"current_range_meters":22800,"station_id":"ce4bhbh2rcd13ifvqeqg","pricing_plan_id":"cebpf4jnsgd1na2vs0mg"},{"bike_id":"385c23c2-3232-4be5-8bee-1d1d3a8a3711","system_id":"levelo_inurba_marseille","lat":43.292311,"lon":5.360731,"is_reserved":false,"is_disabled":false,"rental_uris":{"android":"levelo://app?vid=385c23c2-3232-4be5-8bee-1d1d3a8a3711","ios":"levelo://app?vid=385c23c2-3232-4be5-8bee-1d1d3a8a3711"},"vehicle_type_id":"4","last_reported":1714849624,"current_range_meters":18000,"station_id":"ce4bhbh2rcd13ifvqeqg","pricing_plan_id":"cebpf4jnsgd1na2vs0mg"},{"bike_id":"762ae49f-0517-464b-a8ea-865677364dd6","system_id":"levelo_inurba_marseille","lat":43.292311,"lon":5.360731,"is_reserved":false,"is_disabled":false,"rental_uris":{"android":"levelo://app?vid=762ae49f-0517-464b-a8ea-865677364dd6","ios":"levelo://app?vid=762ae49f-0517-464b-a8ea-865677364dd6"},"vehicle_type_id":"4","last_reported":1714849624,"current_range_meters":4000,"station_id":"ce4bhbh2rcd13ifvqeqg","pricing_plan_id":"cebpf4jnsgd1na2vs0mg"},{"bike_id":"a9db974f-4b33-4b2c-b0ed-04b8690c9b63","system_id":"levelo_inurba_marseille","lat":43.292311,"lon":5.360731,"is_reserved":false,"is_disabled":false,"rental_uris":{"android":"levelo://app?vid=a9db974f-4b33-4b2c-b0ed-04b8690c9b63","ios":"levelo://app?vid=a9db974f-4b33-4b2c-b0ed-04b8690c9b63"},"vehicle_type_id":"4","last_reported":1714849624,"current_range_meters":0,"station_id":"ce4bhbh2rcd13ifvqeqg","pricing_plan_id":"cebpf4jnsgd1na2vs0mg"},{"bike_id":"b1708037-a7e2-4fd5-91da-f069400e865b","system_id":"levelo_inurba_marseille","lat":43.292311,"lon":5.360731,"is_reserved":false,"is_disabled":false,"rental_uris":{"android":"levelo://app?vid=b1708037-a7e2-4fd5-91da-f069400e865b","ios":"levelo://app?vid=b1708037-a7e2-4fd5-91da-f069400e865b"},"vehicle_type_id":"4","last_reported":1714849624,"current_range_meters":28800,"station_id":"ce4bhbh2rcd13ifvqeqg","pricing_plan_id":"cebpf4jnsgd1na2vs0mg"},{"bike_id":"71d8ece1-e512-4d16-b6fb-f3b8a8cafdf7","system_id":"levelo_inurba_marseille","lat":43.292311,"lon":5.360731,"is_reserved":false,"is_disabled":false,"rental_uris":{"android":"levelo://app?vid=71d8ece1-e512-4d16-b6fb-f3b8a8cafdf7","ios":"levelo://app?vid=71d8ece1-e512-4d16-b6fb-f3b8a8cafdf7"},"vehicle_type_id":"4","last_reported":1714849624,"current_range_meters":12400,"station_id":"ce4bhbh2rcd13ifvqeqg","pricing_plan_id":"cebpf4jnsgd1na2vs0mg"},{"bike_id":"8a09bc70-5dcf-4587-b629-269e8aeabc21","system_id":"levelo_inurba_marseille","lat":43.29222,"lon":5.36067,"is_reserved":false,"is_disabled":false,"rental_uris":{"android":"levelo://app?vid=8a09bc70-5dcf-4587-b629-269e8aeabc21","ios":"levelo://app?vid=8a09bc70-5dcf-4587-b629-269e8aeabc21"},"vehicle_type_id":"4","last_reported":1714849624,"current_range_meters":17200,"station_id":"ce4bhbh2rcd13ifvqeqg","pricing_plan_id":"cebpf4jnsgd1na2vs0mg"},{"bike_id":"5afaa0cf-f99b-4040-b7af-7b545fbe8b54","system_id":"levelo_inurba_marseille","lat":43.29225,"lon":5.36047,"is_reserved":false,"is_disabled":false,"rental_uris":{"android":"levelo://app?vid=5afaa0cf-f99b-4040-b7af-7b545fbe8b54","ios":"levelo://app?vid=5afaa0cf-f99b-4040-b7af-7b545fbe8b54"},"vehicle_type_id":"4","last_reported":1714849624,"current_range_meters":7200,"station_id":"ce4bhbh2rcd13ifvqeqg","pricing_plan_id":"cebpf4jnsgd1na2vs0mg"},{"bike_id":"7eaf9e70-dfbf-47b8-917d-74d44c999c2c","system_id":"levelo_inurba_marseille","lat":43.29222,"lon":5.36054,"is_reserved":false,"is_disabled":false,"rental_uris":{"android":"levelo://app?vid=7eaf9e70-dfbf-47b8-917d-74d44c999c2c","ios":"levelo://app?vid=7eaf9e70-dfbf-47b8-917d-74d44c999c2c"},"vehicle_type_id":"4","last_reported":1714849624,"current_range_meters":7600,"station_id":"ce4bhbh2rcd13ifvqeqg","pricing_plan_id":"cebpf4jnsgd1na2vs0mg"},{"bike_id":"b8cc3cd8-a0eb-414f-b564-f80ae0de35bd","system_id":"levelo_inurba_marseille","lat":43.30085,"lon":5.390856,"is_reserved":false,"is_disabled":false,"rental_uris":{"android":"levelo://app?vid=b8cc3cd8-a0eb-414f-b564-f80ae0de35bd","ios":"levelo://app?vid=b8cc3cd8-a0eb-414f-b564-f80ae0de35bd"},"vehicle_type_id":"4","last_reported":1714849624,"current_range_meters":6400,"station_id":"ce4bh192rcd13ifvqdb0","pricing_plan_id":"cebpf4jnsgd1na2vs0mg"},{"bike_id":"40d2dd70-ba5c-40dd-b96a-463b8181e50f","system_id":"levelo_inurba_marseille","lat":43.29217,"lon":5.36064,"is_reserved":false,"is_disabled":false,"rental_uris":{"android":"levelo://app?vid=40d2dd70-ba5c-40dd-b96a-463b8181e50f","ios":"levelo://app?vid=40d2dd70-ba5c-40dd-b96a-463b8181e50f"},"vehicle_type_id":"4","last_reported":1714849624,"current_range_meters":24800,"station_id":"ce4bhbh2rcd13ifvqeqg","pricing_plan_id":"cebpf4jnsgd1na2vs0mg"},{"bike_id":"8db1f3e0-40b7-46dd-847e-f4ab05a1494b","system_id":"levelo_inurba_marseille","lat":43.292203,"lon":5.360438,"is_reserved":false,"is_disabled":false,"rental_uris":{"android":"levelo://app?vid=8db1f3e0-40b7-46dd-847e-f4ab05a1494b","ios":"levelo://app?vid=8db1f3e0-40b7-46dd-847e-f4ab05a1494b"},"vehicle_type_id":"4","last_reported":1714849624,"current_range_meters":18800,"station_id":"ce4bhbh2rcd13ifvqeqg","pricing_plan_id":"cebpf4jnsgd1na2vs0mg"},{"bike_id":"42ec815f-6955-43b8-8761-9fa738731a1d","system_id":"levelo_inurba_marseille","lat":43.291675,"lon":5.371583,"is_reserved":false,"is_disabled":false,"rental_uris":{"android":"levelo://app?vid=42ec815f-6955-43b8-8761-9fa738731a1d","ios":"levelo://app?vid=42ec815f-6955-43b8-8761-9fa738731a1d"},"vehicle_type_id":"4","last_reported":1714849624,"current_range_meters":12800,"station_id":"ce4bha92rcd13ifvqeh0","pricing_plan_id":"cebpf4jnsgd1na2vs0mg"},{"bike_id":"491b371a-7541-4dc9-bdd7-d62fedbac2a1","system_id":"levelo_inurba_marseille","lat":43.292311,"lon":5.360731,"is_reserved":false,"is_disabled":false,"rental_uris":{"android":"levelo://app?vid=491b371a-7541-4dc9-bdd7-d62fedbac2a1","ios":"levelo://app?vid=491b371a-7541-4dc9-bdd7-d62fedbac2a1"},"vehicle_type_id":"4","last_reported":1714849624,"current_range_meters":27600,"station_id":"ce4bhbh2rcd13ifvqeqg","pricing_plan_id":"cebpf4jnsgd1na2vs0mg"},{"bike_id":"847275ea-e1b7-4d34-b4e4-c73393f1b466","system_id":"levelo_inurba_marseille","lat":43.298764,"lon":5.388973,"is_reserved":false,"is_disabled":false,"rental_uris":{"android":"levelo://app?vid=847275ea-e1b7-4d34-b4e4-c73393f1b466","ios":"levelo://app?vid=847275ea-e1b7-4d34-b4e4-c73393f1b466"},"vehicle_type_id":"4","last_reported":1714849624,"current_range_meters":7200,"station_id":"ce4bh392rcd13ifvqdl0","pricing_plan_id":"cebpf4jnsgd1na2vs0mg"},{"bike_id":"a7aa127c-9548-4ac1-8087-312a9a6c938e","system_id":"levelo_inurba_marseille","lat":43.29204,"lon":5.36052,"is_reserved":false,"is_disabled":false,"rental_uris":{"android":"levelo://app?vid=a7aa127c-9548-4ac1-8087-312a9a6c938e","ios":"levelo://app?vid=a7aa127c-9548-4ac1-8087-312a9a6c938e"},"vehicle_type_id":"4","last_reported":1714849624,"current_range_meters":13600,"station_id":"ce4bhbh2rcd13ifvqeqg","pricing_plan_id":"cebpf4jnsgd1na2vs0mg"},{"bike_id":"9d635266-9466-44ae-ae58-dc05341c632d","system_id":"levelo_inurba_marseille","lat":43.298764,"lon":5.388973,"is_reserved":false,"is_disabled":false,"rental_uris":{"android":"levelo://app?vid=9d635266-9466-44ae-ae58-dc05341c632d","ios":"levelo://app?vid=9d635266-9466-44ae-ae58-dc05341c632d"},"vehicle_type_id":"4","last_reported":1714849624,"current_range_meters":0,"station_id":"ce4bh392rcd13ifvqdl0","pricing_plan_id":"cebpf4jnsgd1na2vs0mg"},{"bike_id":"d765c57c-9a7d-41b4-8e74-aa37bba9ce3e","system_id":"levelo_inurba_marseille","lat":43.298764,"lon":5.388973,"is_reserved":false,"is_disabled":false,"rental_uris":{"android":"levelo://app?vid=d765c57c-9a7d-41b4-8e74-aa37bba9ce3e","ios":"levelo://app?vid=d765c57c-9a7d-41b4-8e74-aa37bba9ce3e"},"vehicle_type_id":"4","last_reported":1714849624,"current_range_meters":18000,"station_id":"ce4bh392rcd13ifvqdl0","pricing_plan_id":"cebpf4jnsgd1na2vs0mg"},{"bike_id":"201dc656-b164-45a2-a1f4-0e224d65160f","system_id":"levelo_inurba_marseille","lat":43.291675,"lon":5.371583,"is_reserved":false,"is_disabled":false,"rental_uris":{"android":"levelo://app?vid=201dc656-b164-45a2-a1f4-0e224d65160f","ios":"levelo://app?vid=201dc656-b164-45a2-a1f4-0e224d65160f"},"vehicle_type_id":"4","last_reported":1714849624,"current_range_meters":16400,"station_id":"ce4bha92rcd13ifvqeh0","pricing_plan_id":"cebpf4jnsgd1na2vs0mg"},{"bike_id":"24c206ec-2600-41cb-b76b-a20b87cb8452","system_id":"levelo_inurba_marseille","lat":43.298764,"lon":5.388973,"is_reserved":false,"is_disabled":false,"rental_uris":{"android":"levelo://app?vid=24c206ec-2600-41cb-b76b-a20b87cb8452","ios":"levelo://app?vid=24c206ec-2600-41cb-b76b-a20b87cb8452"},"vehicle_type_id":"4","last_reported":1714849624,"current_range_meters":12800,"station_id":"ce4bh392rcd13ifvqdl0","pricing_plan_id":"cebpf4jnsgd1na2vs0mg"},{"bike_id":"a4497c41-84ec-414e-8598-9aadce8dfa76","system_id":"levelo_inurba_marseille","lat":43.298764,"lon":5.388973,"is_reserved":false,"is_disabled":false,"rental_uris":{"android":"levelo://app?vid=a4497c41-84ec-414e-8598-9aadce8dfa76","ios":"levelo://app?vid=a4497c41-84ec-414e-8598-9aadce8dfa76"},"vehicle_type_id":"4","last_reported":1714849624,"current_range_meters":20000,"station_id":"ce4bh392rcd13ifvqdl0","pricing_plan_id":"cebpf4jnsgd1na2vs0mg"},{"bike_id":"1a66cd41-063a-460f-962b-aae130b9bac0","system_id":"levelo_inurba_marseille","lat":43.309047,"lon":5.396551,"is_reserved":false,"is_disabled":false,"rental_uris":{"android":"levelo://app?vid=1a66cd41-063a-460f-962b-aae130b9bac0","ios":"levelo://app?vid=1a66cd41-063a-460f-962b-aae130b9bac0"},"vehicle_type_id":"4","last_reported":1714849624,"current_range_meters":8400,"station_id":"ce4bh012rcd13ifvqcv0","pricing_plan_id":"cebpf4jnsgd1na2vs0mg"},{"bike_id":"ae07818d-5add-49c7-900c-fe70bf8b1cc9","system_id":"levelo_inurba_marseille","lat":43.291994,"lon":5.357886,"is_reserved":false,"is_disabled":false,"rental_uris":{"android":"levelo://app?vid=ae07818d-5add-49c7-900c-fe70bf8b1cc9","ios":"levelo://app?vid=ae07818d-5add-49c7-900c-fe70bf8b1cc9"},"vehicle_type_id":"4","last_reported":1714849624,"current_range_meters":30400,"station_id":"ce4bhb12rcd13ifvqel0","pricing_plan_id":"cebpf4jnsgd1na2vs0mg"},{"bike_id":"28fc0b72-3762-4a3b-a70f-de7ec703b1be","system_id":"levelo_inurba_marseille","lat":43.298764,"lon":5.388973,"is_reserved":false,"is_disabled":false,"rental_uris":{"android":"levelo://app?vid=28fc0b72-3762-4a3b-a70f-de7ec703b1be","ios":"levelo://app?vid=28fc0b72-3762-4a3b-a70f-de7ec703b1be"},"vehicle_type_id":"4","last_reported":1714849624,"current_range_meters":1200,"station_id":"ce4bh392rcd13ifvqdl0","pricing_plan_id":"cebpf4jnsgd1na2vs0mg"},{"bike_id":"ca8ca9a2-571d-4813-97e1-ca1a38ce1bfa","system_id":"levelo_inurba_marseille","lat":43.291994,"lon":5.357886,"is_reserved":false,"is_disabled":false,"rental_uris":{"android":"levelo://app?vid=ca8ca9a2-571d-4813-97e1-ca1a38ce1bfa","ios":"levelo://app?vid=ca8ca9a2-571d-4813-97e1-ca1a38ce1bfa"},"vehicle_type_id":"4","last_reported":1714849624,"current_range_meters":31200,"station_id":"ce4bhb12rcd13ifvqel0","pricing_plan_id":"cebpf4jnsgd1na2vs0mg"},{"bike_id":"158cce2e-e042-41fd-922c-b11fc305ad3d","system_id":"levelo_inurba_marseille","lat":43.309038,"lon":5.396546,"is_reserved":false,"is_disabled":false,"rental_uris":{"android":"levelo://app?vid=158cce2e-e042-41fd-922c-b11fc305ad3d","ios":"levelo://app?vid=158cce2e-e042-41fd-922c-b11fc305ad3d"},"vehicle_type_id":"4","last_reported":1714849624,"current_range_meters":10800,"station_id":"ce4bh012rcd13ifvqcv0","pricing_plan_id":"cebpf4jnsgd1na2vs0mg"},{"bike_id":"4d95378e-86cd-494a-ba00-fd8cf84a1810","system_id":"levelo_inurba_marseille","lat":43.313291,"lon":5.396838,"is_reserved":false,"is_disabled":false,"rental_uris":{"android":"levelo://app?vid=4d95378e-86cd-494a-ba00-fd8cf84a1810","ios":"levelo://app?vid=4d95378e-86cd-494a-ba00-fd8cf84a1810"},"vehicle_type_id":"4","last_reported":1714849624,"current_range_meters":15200,"station_id":"ce4bgvp2rcd13ifvqcu0","pricing_plan_id":"cebpf4jnsgd1na2vs0mg"},{"bike_id":"cf699a14-e20e-4b87-9754-10b4ae0f5799","system_id":"levelo_inurba_marseille","lat":43.313291,"lon":5.396838,"is_reserved":false,"is_disabled":false,"rental_uris":{"android":"levelo://app?vid=cf699a14-e20e-4b87-9754-10b4ae0f5799","ios":"levelo://app?vid=cf699a14-e20e-4b87-9754-10b4ae0f5799"},"vehicle_type_id":"4","last_reported":1714849624,"current_range_meters":22400,"station_id":"ce4bgvp2rcd13ifvqcu0","pricing_plan_id":"cebpf4jnsgd1na2vs0mg"},{"bike_id":"a6186023-4465-45a8-8be7-55d1bb10b843","system_id":"levelo_inurba_marseille","lat":43.308893,"lon":5.396453,"is_reserved":false,"is_disabled":false,"rental_uris":{"android":"levelo://app?vid=a6186023-4465-45a8-8be7-55d1bb10b843","ios":"levelo://app?vid=a6186023-4465-45a8-8be7-55d1bb10b843"},"vehicle_type_id":"4","last_reported":1714849624,"current_range_meters":3200,"station_id":"ce4bh012rcd13ifvqcv0","pricing_plan_id":"cebpf4jnsgd1na2vs0mg"},{"bike_id":"661cde4f-6c43-4b3a-a06a-6c98cbfe2fcf","system_id":"levelo_inurba_marseille","lat":43.31326,"lon":5.39693,"is_reserved":false,"is_disabled":false,"rental_uris":{"android":"levelo://app?vid=661cde4f-6c43-4b3a-a06a-6c98cbfe2fcf","ios":"levelo://app?vid=661cde4f-6c43-4b3a-a06a-6c98cbfe2fcf"},"vehicle_type_id":"4","last_reported":1714849624,"current_range_meters":2000,"station_id":"ce4bgvp2rcd13ifvqcu0","pricing_plan_id":"cebpf4jnsgd1na2vs0mg"},{"bike_id":"5d2f3fe0-33f4-421c-9b00-5758b1d071fb","system_id":"levelo_inurba_marseille","lat":43.309038,"lon":5.396546,"is_reserved":false,"is_disabled":false,"rental_uris":{"android":"levelo://app?vid=5d2f3fe0-33f4-421c-9b00-5758b1d071fb","ios":"levelo://app?vid=5d2f3fe0-33f4-421c-9b00-5758b1d071fb"},"vehicle_type_id":"4","last_reported":1714849624,"current_range_meters":0,"station_id":"ce4bh012rcd13ifvqcv0","pricing_plan_id":"cebpf4jnsgd1na2vs0mg"},{"bike_id":"7911c2ba-be02-4ef8-bfd0-b9f12f34b8ef","system_id":"levelo_inurba_marseille","lat":43.29525,"lon":5.38516,"is_reserved":false,"is_disabled":false,"rental_uris":{"android":"levelo://app?vid=7911c2ba-be02-4ef8-bfd0-b9f12f34b8ef","ios":"levelo://app?vid=7911c2ba-be02-4ef8-bfd0-b9f12f34b8ef"},"vehicle_type_id":"4","last_reported":1714849624,"current_range_meters":0,"station_id":"ce4bgih2rcd13ifvqba0","pricing_plan_id":"cebpf4jnsgd1na2vs0mg"},{"bike_id":"95375b15-664c-411b-826b-c73278b17cb7","system_id":"levelo_inurba_marseille","lat":43.29536,"lon":5.38536,"is_reserved":false,"is_disabled":false,"rental_uris":{"android":"levelo://app?vid=95375b15-664c-411b-826b-c73278b17cb7","ios":"levelo://app?vid=95375b15-664c-411b-826b-c73278b17cb7"},"vehicle_type_id":"4","last_reported":1714849624,"current_range_meters":0,"station_id":"ce4bgih2rcd13ifvqba0","pricing_plan_id":"cebpf4jnsgd1na2vs0mg"},{"bike_id":"d65e0ea9-96a9-4e23-9191-20420e9d0202","system_id":"levelo_inurba_marseille","lat":43.295403,"lon":5.385443,"is_reserved":false,"is_disabled":false,"rental_uris":{"android":"levelo://app?vid=d65e0ea9-96a9-4e23-9191-20420e9d0202","ios":"levelo://app?vid=d65e0ea9-96a9-4e23-9191-20420e9d0202"},"vehicle_type_id":"4","last_reported":1714849624,"current_range_meters":0,"station_id":"ce4bgih2rcd13ifvqba0","pricing_plan_id":"cebpf4jnsgd1na2vs0mg"},{"bike_id":"e9bd4867-9ed1-4a13-ae90-74ed70a542d6","system_id":"levelo_inurba_marseille","lat":43.29529,"lon":5.385581,"is_reserved":false,"is_disabled":false,"rental_uris":{"android":"levelo://app?vid=e9bd4867-9ed1-4a13-ae90-74ed70a542d6","ios":"levelo://app?vid=e9bd4867-9ed1-4a13-ae90-74ed70a542d6"},"vehicle_type_id":"4","last_reported":1714849624,"current_range_meters":28800,"station_id":"ce4bgih2rcd13ifvqba0","pricing_plan_id":"cebpf4jnsgd1na2vs0mg"},{"bike_id":"33cbb59a-d794-414a-b108-1c0e7e28f9b9","system_id":"levelo_inurba_marseille","lat":43.309038,"lon":5.396546,"is_reserved":false,"is_disabled":false,"rental_uris":{"android":"levelo://app?vid=33cbb59a-d794-414a-b108-1c0e7e28f9b9","ios":"levelo://app?vid=33cbb59a-d794-414a-b108-1c0e7e28f9b9"},"vehicle_type_id":"4","last_reported":1714849624,"current_range_meters":0,"station_id":"ce4bh012rcd13ifvqcv0","pricing_plan_id":"cebpf4jnsgd1na2vs0mg"},{"bike_id":"c760330f-3714-47a3-866b-2c1aee8da918","system_id":"levelo_inurba_marseille","lat":43.29529,"lon":5.385581,"is_reserved":false,"is_disabled":false,"rental_uris":{"android":"levelo://app?vid=c760330f-3714-47a3-866b-2c1aee8da918","ios":"levelo://app?vid=c760330f-3714-47a3-866b-2c1aee8da918"},"vehicle_type_id":"4","last_reported":1714849624,"current_range_meters":9600,"station_id":"ce4bgih2rcd13ifvqba0","pricing_plan_id":"cebpf4jnsgd1na2vs0mg"},{"bike_id":"99c6b5a3-c88d-4558-8bb2-59aa1c59f9aa","system_id":"levelo_inurba_marseille","lat":43.29529,"lon":5.385581,"is_reserved":false,"is_disabled":false,"rental_uris":{"android":"levelo://app?vid=99c6b5a3-c88d-4558-8bb2-59aa1c59f9aa","ios":"levelo://app?vid=99c6b5a3-c88d-4558-8bb2-59aa1c59f9aa"},"vehicle_type_id":"4","last_reported":1714849624,"current_range_meters":12400,"station_id":"ce4bgih2rcd13ifvqba0","pricing_plan_id":"cebpf4jnsgd1na2vs0mg"},