{"last_updated":1712415968,"ttl":30,"version":"2.2","data":{"bikes":[{"bike_id":"34374b75-4109-4cd6-a299-3d1376838201","system_id":"levelo_inurba_marseille","lat":43.312239,"lon":5.368562,"is_reserved":false,"is_disabled":false,"rental_uris":{"android":"levelo://app?vid=34374b75-4109-4cd6-a299-3d1376838201","ios":"levelo://app?vid=34374b75-4109-4cd6-a299-3d1376838201"},"vehicle_type_id":"4","last_reported":1712415968,"current_range_meters":2400,"station_id":"ce4bgl92rcd13ifvqbq0","pricing_plan_id":"cebpf4jnsgd1na2vs0mg"},{"bike_id":"1b5698ac-89dd-4b1f-ae01-550782a39766","system_id":"levelo_inurba_marseille","lat":43.31324,"lon":5.37029,"is_reserved":false,"is_disabled":false,"rental_uris":{"android":"levelo://app?vid=1b5698ac-89dd-4b1f-ae01-550782a39766","ios":"levelo://app?vid=1b5698ac-89dd-4b1f-ae01-550782a39766"},"vehicle_type_id":"4","last_reported":1712415968,"current_range_meters":0,"station_id":"","pricing_plan_id":"cebpf4jnsgd1na2vs0mg"},{"bike_id":"f6d19f5b-79c7-49e2-b04b-7da20a18fb2c","system_id":"levelo_inurba_marseille","lat":43.324771,"lon":5.36557,"is_reserved":false,"is_disabled":false,"rental_uris":{"android":"levelo://app?vid=f6d19f5b-79c7-49e2-b04b-7da20a18fb2c","ios":"levelo://app?vid=f6d19f5b-79c7-49e2-b04b-7da20a18fb2c"},"vehicle_type_id":"4","last_reported":1712415968,"current_range_meters":15200,"station_id":"ce4bhs12rcd13ifvqhvg","pricing_plan_id":"cebpf4jnsgd1na2vs0mg"},{"bike_id":"b50177d5-7f78-46b7-b49a-dd6134763460","system_id":"levelo_inurba_marseille","lat":43.31495,"lon":5.37307,"is_reserved":false,"is_disabled":false,"rental_uris":{"android":"levelo://app?vid=b50177d5-7f78-46b7-b49a-dd6134763460","ios":"levelo://app?vid=b50177d5-7f78-46b7-b49a-dd6134763460"},"vehicle_type_id":"4","last_reported":1712415968,"current_range_meters":0,"station_id":"ce4bgt12rcd13ifvqcd0","pricing_plan_id":"cebpf4jnsgd1na2vs0mg"},{"bike_id":"21c5919e-0111-41a4-8506-4102f0a554b3","system_id":"levelo_inurba_marseille","lat":43.317075,"lon":5.377367,"is_reserved":false,"is_disabled":false,"rental_uris":{"android":"levelo://app?vid=21c5919e-0111-41a4-8506-4102f0a554b3","ios":"levelo://app?vid=21c5919e-0111-41a4-8506-4102f0a554b3"},"vehicle_type_id":"4","last_reported":1712415968,"current_range_meters":12800,"station_id":"ce4bgth2rcd13ifvqch0","pricing_plan_id":"cebpf4jnsgd1na2vs0mg"},{"bike_id":"ec7d3c09-4186-4aa7-a22c-1f7379c0f7e3","system_id":"levelo_inurba_marseille","lat":43.309034,"lon":5.371783,"is_reserved":false,"is_disabled":false,"rental_uris":{"android":"levelo://app?vid=ec7d3c09-4186-4aa7-a22c-1f7379c0f7e3","ios":"levelo://app?vid=ec7d3c09-4186-4aa7-a22c-1f7379c0f7e3"},"vehicle_type_id":"4","last_reported":1712415968,"current_range_meters":3600,"station_id":"ce4bguh2rcd13ifvqckg","pricing_plan_id":"cebpf4jnsgd1na2vs0mg"},{"bike_id":"b9ca96e5-28f9-4043-9282-4ac776a8e44c","system_id":"levelo_inurba_marseille","lat":43.309034,"lon":5.371783,"is_reserved":false,"is_disabled":false,"rental_uris":{"android":"levelo://app?vid=b9ca96e5-28f9-4043-9282-4ac776a8e44c","ios":"levelo://app?vid=b9ca96e5-28f9-4043-9282-4ac776a8e44c"},"vehicle_type_id":"4","last_reported":1712415968,"current_range_meters":3200,"station_id":"ce4bguh2rcd13ifvqckg","pricing_plan_id":"cebpf4jnsgd1na2vs0mg"},{"bike_id":"996348fe-a0d4-4b33-87dc-1cdf582d27a6","system_id":"levelo_inurba_marseille","lat":43.30553,"lon":5.36533,"is_reserved":false,"is_disabled":false,"rental_uris":{"android":"levelo://app?vid=996348fe-a0d4-4b33-87dc-1cdf582d27a6","ios":"levelo://app?vid=996348fe-a0d4-4b33-87dc-1cdf582d27a6"},"vehicle_type_id":"4","last_reported":1712415968,"current_range_meters":0,"station_id":"ce4bgs12rcd13ifvqcag","pricing_plan_id":"cebpf4jnsgd1na2vs0mg"},{"bike_id":"3cab3d56-9bb4-4d64-b8f4-fa041e25b7dd","system_id":"levelo_inurba_marseille","lat":43.311131,"lon":5.377651,"is_reserved":false,"is_disabled":false,"rental_uris":{"android":"levelo://app?vid=3cab3d56-9bb4-4d64-b8f4-fa041e25b7dd","ios":"levelo://app?vid=3cab3d56-9bb4-4d64-b8f4-fa041e25b7dd"},"vehicle_type_id":"4","last_reported":1712415968,"current_range_meters":0,"station_id":"ce4bgt92rcd13ifvqcg0","pricing_plan_id":"cebpf4jnsgd1na2vs0mg"},{"bike_id":"98003747-927d-40c3-af10-2c204f907b55","system_id":"levelo_inurba_marseille","lat":43.31121,"lon":5.37763,"is_reserved":false,"is_disabled":false,"rental_uris":{"android":"levelo://app?vid=98003747-927d-40c3-af10-2c204f907b55","ios":"levelo://app?vid=98003747-927d-40c3-af10-2c204f907b55"},"vehicle_type_id":"4","last_reported":1712415968,"current_range_meters":22400,"station_id":"ce4bgt92rcd13ifvqcg0","pricing_plan_id":"cebpf4jnsgd1na2vs0mg"},{"bike_id":"e4802310-1b29-4c69-b503-032d7dc7ccab","system_id":"levelo_inurba_marseille","lat":43.311131,"lon":5.377651,"is_reserved":false,"is_disabled":false,"rental_uris":{"android":"levelo://app?vid=e4802310-1b29-4c69-b503-032d7dc7ccab","ios":"levelo://app?vid=e4802310-1b29-4c69-b503-032d7dc7ccab"},"vehicle_type_id":"4","last_reported":1712415968,"current_range_meters":1600,"station_id":"ce4bgt92rcd13ifvqcg0","pricing_plan_id":"cebpf4jnsgd1na2vs0mg"},{"bike_id":"0af78cad-62d8-4968-8138-fba171e6f587","system_id":"levelo_inurba_marseille","lat":43.31115,"lon":5.37763,"is_reserved":false,"is_disabled":false,"rental_uris":{"android":"levelo://app?vid=0af78cad-62d8-4968-8138-fba171e6f587","ios":"levelo://app?vid=0af78cad-62d8-4968-8138-fba171e6f587"},"vehicle_type_id":"4","last_reported":1712415968,"current_range_meters":14000,"station_id":"","pricing_plan_id":"cebpf4jnsgd1na2vs0mg"},{"bike_id":"c45ba8ed-4688-4004-8937-818146d1fda6","system_id":"levelo_inurba_marseille","lat":43.311131,"lon":5.377651,"is_reserved":false,"is_disabled":false,"rental_uris":{"android":"levelo://app?vid=c45ba8ed-4688-4004-8937-818146d1fda6","ios":"levelo://app?vid=c45ba8ed-4688-4004-8937-818146d1fda6"},"vehicle_type_id":"4","last_reported":1712415968,"current_range_meters":10800,"station_id":"ce4bgt92rcd13ifvqcg0","pricing_plan_id":"cebpf4jnsgd1na2vs0mg"},{"bike_id":"6ab22477-e4e1-4b4b-8a4d-6c9b692525db","system_id":"levelo_inurba_marseille","lat":43.311125,"lon":5.377624,"is_reserved":false,"is_disabled":false,"rental_uris":{"android":"levelo://app?vid=6ab22477-e4e1-4b4b-8a4d-6c9b692525db","ios":"levelo://app?vid=6ab22477-e4e1-4b4b-8a4d-6c9b692525db"},"vehicle_type_id":"4","last_reported":1712415968,"current_range_meters":20000,"station_id":"ce4bgt92rcd13ifvqcg0","pricing_plan_id":"cebpf4jnsgd1na2vs0mg"},{"bike_id":"bbfed310-f5ca-41c8-bf3a-f83cd6959697","system_id":"levelo_inurba_marseille","lat":43.313254,"lon":5.37881,"is_reserved":false,"is_disabled":false,"rental_uris":{"android":"levelo://app?vid=bbfed310-f5ca-41c8-bf3a-f83cd6959697","ios":"levelo://app?vid=bbfed310-f5ca-41c8-bf3a-f83cd6959697"},"vehicle_type_id":"4","last_reported":1712415968,"current_range_meters":800,"station_id":"","pricing_plan_id":"cebpf4jnsgd1na2vs0mg"},{"bike_id":"8bd008f4-51fe-4dce-8aa7-c5ca8bf565d3","system_id":"levelo_inurba_marseille","lat":43.317075,"lon":5.377367,"is_reserved":false,"is_disabled":false,"rental_uris":{"android":"levelo://app?vid=8bd008f4-51fe-4dce-8aa7-c5ca8bf565d3","ios":"levelo://app?vid=8bd008f4-51fe-4dce-8aa7-c5ca8bf565d3"},"vehicle_type_id":"4","last_reported":1712415968,"current_range_meters":1600,"station_id":"ce4bgth2rcd13ifvqch0","pricing_plan_id":"cebpf4jnsgd1na2vs0mg"},{"bike_id":"d809e1f9-8ad3-4a18-b2bb-e4e518a3a07c","system_id":"levelo_inurba_marseille","lat":43.317158,"lon":5.377466,"is_reserved":false,"is_disabled":false,"rental_uris":{"android":"levelo://app?vid=d809e1f9-8ad3-4a18-b2bb-e4e518a3a07c","ios":"levelo://app?vid=d809e1f9-8ad3-4a18-b2bb-e4e518a3a07c"},"vehicle_type_id":"4","last_reported":1712415968,"current_range_meters":24400,"station_id":"ce4bgth2rcd13ifvqch0","pricing_plan_id":"cebpf4jnsgd1na2vs0mg"},{"bike_id":"032af94f-312b-4ac0-a569-301c43b3cf34","system_id":"levelo_inurba_marseille","lat":43.315293,"lon":5.380349,"is_reserved":false,"is_disabled":false,"rental_uris":{"android":"levelo://app?vid=032af94f-312b-4ac0-a569-301c43b3cf34","ios":"levelo://app?vid=032af94f-312b-4ac0-a569-301c43b3cf34"},"vehicle_type_id":"4","last_reported":1712415968,"current_range_meters":30400,"station_id":"ce4bhsp2rcd13ifvqi50","pricing_plan_id":"cebpf4jnsgd1na2vs0mg"},{"bike_id":"238e343a-d739-486a-9526-22b4e2bc18d7","system_id":"levelo_inurba_marseille","lat":43.308012,"lon":5.381511,"is_reserved":false,"is_disabled":false,"rental_uris":{"android":"levelo://app?vid=238e343a-d739-486a-9526-22b4e2bc18d7","ios":"levelo://app?vid=238e343a-d739-486a-9526-22b4e2bc18d7"},"vehicle_type_id":"4","last_reported":1712415968,"current_range_meters":7200,"station_id":"ce4bgt12rcd13ifvqce0","pricing_plan_id":"cebpf4jnsgd1na2vs0mg"},{"bike_id":"f9e6bdac-3ec1-4c58-a8c1-9520f95d0fd8","system_id":"levelo_inurba_marseille","lat":43.308012,"lon":5.381511,"is_reserved":false,"is_disabled":false,"rental_uris":{"android":"levelo://app?vid=f9e6bdac-3ec1-4c58-a8c1-9520f95d0fd8","ios":"levelo://app?vid=f9e6bdac-3ec1-4c58-a8c1-9520f95d0fd8"},"vehicle_type_id":"4","last_reported":1712415968,"current_range_meters":0,"station_id":"ce4bgt12rcd13ifvqce0","pricing_plan_id":"cebpf4jnsgd1na2vs0mg"},{"bike_id":"4b8d1c8a-9e92-464c-9146-eb05b90d2b30","system_id":"levelo_inurba_marseille","lat":43.308012,"lon":5.381511,"is_reserved":false,"is_disabled":false,"rental_uris":{"android":"levelo://app?vid=4b8d1c8a-9e92-464c-9146-eb05b90d2b30","ios":"levelo://app?vid=4b8d1c8a-9e92-464c-9146-eb05b90d2b30"},"vehicle_type_id":"4","last_reported":1712415968,"current_range_meters":13600,"station_id":"ce4bgt12rcd13ifvqce0","pricing_plan_id":"cebpf4jnsgd1na2vs0mg"},{"bike_id":"7d66db15-549f-4bc7-9892-1bd43bdf8260","system_id":"levelo_inurba_marseille","lat":43.304606,"lon":5.379026,"is_reserved":false,"is_disabled":false,"rental_uris":{"android":"levelo://app?vid=7d66db15-549f-4bc7-9892-1bd43bdf8260","ios":"levelo://app?vid=7d66db15-549f-4bc7-9892-1bd43bdf8260"},"vehicle_type_id":"4","last_reported":1712415968,"current_range_meters":4800,"station_id":"ce4bgup2rcd13ifvqcn0","pricing_plan_id":"cebpf4jnsgd1na2vs0mg"},{"bike_id":"7a24a450-0d79-4c37-b14e-8675b44bb0dc","system_id":"levelo_inurba_marseille","lat":43.324771,"lon":5.36557,"is_reserved":false,"is_disabled":false,"rental_uris":{"android":"levelo://app?vid=7a24a450-0d79-4c37-b14e-8675b44bb0dc","ios":"levelo://app?vid=7a24a450-0d79-4c37-b14e-8675b44bb0dc"},"vehicle_type_id":"4","last_reported":1712415968,"current_range_meters":26400,"station_id":"ce4bhs12rcd13ifvqhvg","pricing_plan_id":"cebpf4jnsgd1na2vs0mg"},{"bike_id":"32b7a2d7-d304-4b5c-b97b-d6f9fda4565f","system_id":"levelo_inurba_marseille","lat":43.324771,"lon":5.36557,"is_reserved":false,"is_disabled":false,"rental_uris":{"android":"levelo://app?vid=32b7a2d7-d304-4b5c-b97b-d6f9fda4565f","ios":"levelo://app?vid=32b7a2d7-d304-4b5c-b97b-d6f9fda4565f"},"vehicle_type_id":"4","last_reported":1712415968,"current_range_meters":1600,"station_id":"ce4bhs12rcd13ifvqhvg","pricing_plan_id":"cebpf4jnsgd1na2vs0mg"},{"bike_id":"58368bc2-10fd-4305-b0ed-cd480db19672","system_id":"levelo_inurba_marseille","lat":43.31071,"lon":5.38347,"is_reserved":false,"is_disabled":false,"rental_uris":{"android":"levelo://app?vid=58368bc2-10fd-4305-b0ed-cd480db19672","ios":"levelo://app?vid=58368bc2-10fd-4305-b0ed-cd480db19672"},"vehicle_type_id":"4","last_reported":1712415968,"current_range_meters":0,"station_id":"ce4bgv92rcd13ifvqcr0","pricing_plan_id":"cebpf4jnsgd1na2vs0mg"},{"bike_id":"e3e17167-b7d0-4053-81b1-923db457dcf2","system_id":"levelo_inurba_marseille","lat":43.319935,"lon":5.381699,"is_reserved":false,"is_disabled":false,"rental_uris":{"android":"levelo://app?vid=e3e17167-b7d0-4053-81b1-923db457dcf2","ios":"levelo://app?vid=e3e17167-b7d0-4053-81b1-923db457dcf2"},"vehicle_type_id":"4","last_reported":1712415968,"current_range_meters":25600,"station_id":"ce4bhr12rcd13ifvqhpg","pricing_plan_id":"cebpf4jnsgd1na2vs0mg"},{"bike_id":"d3b8de65-85f8-46e2-a1fb-106263156db0","system_id":"levelo_inurba_marseille","lat":43.32,"lon":5.3815,"is_reserved":false,"is_disabled":false,"rental_uris":{"android":"levelo://app?vid=d3b8de65-85f8-46e2-a1fb-106263156db0","ios":"levelo://app?vid=d3b8de65-85f8-46e2-a1fb-106263156db0"},"vehicle_type_id":"4","last_reported":1712415968,"current_range_meters":30000,"station_id":"ce4bhr12rcd13ifvqhpg","pricing_plan_id":"cebpf4jnsgd1na2vs0mg"},{"bike_id":"931847db-eccf-4b8c-a3fe-577b903d8e20","system_id":"levelo_inurba_marseille","lat":43.299222,"lon":5.365554,"is_reserved":false,"is_disabled":false,"rental_uris":{"android":"levelo://app?vid=931847db-eccf-4b8c-a3fe-577b903d8e20","ios":"levelo://app?vid=931847db-eccf-4b8c-a3fe-577b903d8e20"},"vehicle_type_id":"4","last_reported":1712415968,"current_range_meters":4800,"station_id":"ce4bgm92rcd13ifvqbr0","pricing_plan_id":"cebpf4jnsgd1na2vs0mg"},{"bike_id":"43b9aa72-5ca8-4c7f-9b92-9d1e9212c73b","system_id":"levelo_inurba_marseille","lat":43.30039,"lon":5.37444,"is_reserved":false,"is_disabled":false,"rental_uris":{"android":"levelo://app?vid=43b9aa72-5ca8-4c7f-9b92-9d1e9212c73b","ios":"levelo://app?vid=43b9aa72-5ca8-4c7f-9b92-9d1e9212c73b"},"vehicle_type_id":"4","last_reported":1712415968,"current_range_meters":16800,"station_id":"","pricing_plan_id":"cebpf4jnsgd1na2vs0mg"},{"bike_id":"d7a62939-a945-4603-a499-0753cbc450aa","system_id":"levelo_inurba_marseille","lat":43.286961,"lon":5.373785,"is_reserved":false,"is_disabled":false,"rental_uris":{"android":"levelo://app?vid=d7a62939-a945-4603-a499-0753cbc450aa","ios":"levelo://app?vid=d7a62939-a945-4603-a499-0753cbc450aa"},"vehicle_type_id":"4","last_reported":1712415968,"current_range_meters":4000,"station_id":"ce4bh3p2rcd13ifvqdq0","pricing_plan_id":"cebpf4jnsgd1na2vs0mg"},{"bike_id":"5da527c5-a996-4634-9739-1a74078e547a","system_id":"levelo_inurba_marseille","lat":43.311722,"lon":5.387247,"is_reserved":false,"is_disabled":false,"rental_uris":{"android":"levelo://app?vid=5da527c5-a996-4634-9739-1a74078e547a","ios":"levelo://app?vid=5da527c5-a996-4634-9739-1a74078e547a"},"vehicle_type_id":"4","last_reported":1712415968,"current_range_meters":1600,"station_id":"ce4bgv12rcd13ifvqcp0","pricing_plan_id":"cebpf4jnsgd1na2vs0mg"},{"bike_id":"22923ea2-9f23-48b1-9d87-983da45bce23","system_id":"levelo_inurba_marseille","lat":43.298433,"lon":5.362774,"is_reserved":false,"is_disabled":false,"rental_uris":{"android":"levelo://app?vid=22923ea2-9f23-48b1-9d87-983da45bce23","ios":"levelo://app?vid=22923ea2-9f23-48b1-9d87-983da45bce23"},"vehicle_type_id":"4","last_reported":1712415968,"current_range_meters":31200,"station_id":"ce4bgpp2rcd13ifvqc3g","pricing_plan_id":"cebpf4jnsgd1na2vs0mg"},{"bike_id":"b81f9fbb-42e8-4e8a-963c-addc8d22333c","system_id":"levelo_inurba_marseille","lat":43.298433,"lon":5.362774,"is_reserved":false,"is_disabled":false,"rental_uris":{"android":"levelo://app?vid=b81f9fbb-42e8-4e8a-963c-addc8d22333c","ios":"levelo://app?vid=b81f9fbb-42e8-4e8a-963c-addc8d22333c"},"vehicle_type_id":"4","last_reported":1712415968,"current_range_meters":7200,"station_id":"ce4bgpp2rcd13ifvqc3g","pricing_plan_id":"cebpf4jnsgd1na2vs0mg"},{"bike_id":"6b076d0b-ca4f-4c3c-b559-44f8bc31050e","system_id":"levelo_inurba_marseille","lat":43.298433,"lon":5.362774,"is_reserved":false,"is_disabled":false,"rental_uris":{"android":"levelo://app?vid=6b076d0b-ca4f-4c3c-b559-44f8bc31050e","ios":"levelo://app?vid=6b076d0b-ca4f-4c3c-b559-44f8bc31050e"},"vehicle_type_id":"4","last_reported":1712415968,"current_range_meters":18400,"station_id":"ce4bgpp2rcd13ifvqc3g","pricing_plan_id":"cebpf4jnsgd1na2vs0mg"},{"bike_id":"4f57877a-ae7f-498b-a817-b48c184a2711","system_id":"levelo_inurba_marseille","lat":43.305364,"lon":5.384119,"is_reserved":false,"is_disabled":false,"rental_uris":{"android":"levelo://app?vid=4f57877a-ae7f-498b-a817-b48c184a2711","ios":"levelo://app?vid=4f57877a-ae7f-498b-a817-b48c184a2711"},"vehicle_type_id":"4","last_reported":1712415968,"current_range_meters":8000,"station_id":"ce4bgg92rcd13ifvqb30","pricing_plan_id":"cebpf4jnsgd1na2vs0mg"},{"bike_id":"0760e8b0-acfc-4aa3-abb5-306537a160ef","system_id":"levelo_inurba_marseille","lat":43.298456,"lon":5.362762,"is_reserved":false,"is_disabled":false,"rental_uris":{"android":"levelo://app?vid=0760e8b0-acfc-4aa3-abb5-306537a160ef","ios":"levelo://app?vid=0760e8b0-acfc-4aa3-abb5-306537a160ef"},"vehicle_type_id":"4","last_reported":1712415968,"current_range_meters":0,"station_id":"ce4bgpp2rcd13ifvqc3g","pricing_plan_id":"cebpf4jnsgd1na2vs0mg"},{"bike_id":"8e6a6f90-4f28-4365-9a79-a448e3b0c3a3","system_id":"levelo_inurba_marseille","lat":43.299243,"lon":5.374807,"is_reserved":false,"is_disabled":false,"rental_uris":{"android":"levelo://app?vid=8e6a6f90-4f28-4365-9a79-a448e3b0c3a3","ios":"levelo://app?vid=8e6a6f90-4f28-4365-9a79-a448e3b0c3a3"},"vehicle_type_id":"4","last_reported":1712415968,"current_range_meters":2000,"station_id":"ce4bgjh2rcd13ifvqbg0","pricing_plan_id":"cebpf4jnsgd1na2vs0mg"},{"bike_id":"bacf7c0d-65f8-4986-8a85-3bb8d2afcde5","system_id":"levelo_inurba_marseille","lat":43.298433,"lon":5.362774,"is_reserved":false,"is_disabled":false,"rental_uris":{"android":"levelo://app?vid=bacf7c0d-65f8-4986-8a85-3bb8d2afcde5","ios":"levelo://app?vid=bacf7c0d-65f8-4986-8a85-3bb8d2afcde5"},"vehicle_type_id":"4","last_reported":1712415968,"current_range_meters":14400,"station_id":"ce4bgpp2rcd13ifvqc3g","pricing_plan_id":"cebpf4jnsgd1na2vs0mg"},{"bike_id":"b79b5172-4368-4485-a717-60c44abee567","system_id":"levelo_inurba_marseille","lat":43.298433,"lon":5.362774,"is_reserved":false,"is_disabled":false,"rental_uris":{"android":"levelo://app?vid=b79b5172-4368-4485-a717-60c44abee567","ios":"levelo://app?vid=b79b5172-4368-4485-a717-60c44abee567"},"vehicle_type_id":"4","last_reported":1712415968,"current_range_meters":15200,"station_id":"ce4bgpp2rcd13ifvqc3g","pricing_plan_id":"cebpf4jnsgd1na2vs0mg"},{"bike_id":"6425f56a-af19-44c0-b7df-683f1a3d95ee","system_id":"levelo_inurba_marseille","lat":43.298433,"lon":5.362774,"is_reserved":false,"is_disabled":false,"rental_uris":{"android":"levelo://app?vid=6425f56a-af19-44c0-b7df-683f1a3d95ee","ios":"levelo://app?vid=6425f56a-af19-44c0-b7df-683f1a3d95ee"},"vehicle_type_id":"4","last_reported":1712415968,"current_range_meters":15200,"station_id":"ce4bgpp2rcd13ifvqc3g","pricing_plan_id":"cebpf4jnsgd1na2vs0mg"},{"bike_id":"828848b0-3f9c-42ad-a13d-e25bfbb32995","system_id":"levelo_inurba_marseille","lat":43.298409,"lon":5.36267,"is_reserved":false,"is_disabled":false,"rental_uris":{"android":"levelo://app?vid=828848b0-3f9c-42ad-a13d-e25bfbb32995","ios":"levelo://app?vid=828848b0-3f9c-42ad-a13d-e25bfbb32995"},"vehicle_type_id":"4","last_reported":1712415968,"current_range_meters":18400,"station_id":"ce4bgpp2rcd13ifvqc3g","pricing_plan_id":"cebpf4jnsgd1na2vs0mg"},{"bike_id":"0550e7a8-1be5-404f-aa77-239a7edaf889","system_id":"levelo_inurba_marseille","lat":43.2984,"lon":5.36266,"is_reserved":false,"is_disabled":false,"rental_uris":{"android":"levelo://app?vid=0550e7a8-1be5-404f-aa77-239a7edaf889","ios":"levelo://app?vid=0550e7a8-1be5-404f-aa77-239a7edaf889"},"vehicle_type_id":"4","last_reported":1712415968,"current_range_meters":4400,"station_id":"ce4bgpp2rcd13ifvqc3g","pricing_plan_id":"cebpf4jnsgd1na2vs0mg"},{"bike_id":"df19c348-c55a-4aec-a7e1-c9ae38f06e90","system_id":"levelo_inurba_marseille","lat":43.299243,"lon":5.374807,"is_reserved":false,"is_disabled":false,"rental_uris":{"android":"levelo://app?vid=df19c348-c55a-4aec-a7e1-c9ae38f06e90","ios":"levelo://app?vid=df19c348-c55a-4aec-a7e1-c9ae38f06e90"},"vehicle_type_id":"4","last_reported":1712415968,"current_range_meters":0,"station_id":"ce4bgjh2rcd13ifvqbg0","pricing_plan_id":"cebpf4jnsgd1na2vs0mg"},{"bike_id":"b9ff909a-2fa4-4f75-a3cc-97f02109bbfe","system_id":"levelo_inurba_marseille","lat":43.298097,"lon":5.362799,"is_reserved":false,"is_disabled":false,"rental_uris":{"android":"levelo://app?vid=b9ff909a-2fa4-4f75-a3cc-97f02109bbfe","ios":"levelo://app?vid=b9ff909a-2fa4-4f75-a3cc-97f02109bbfe"},"vehicle_type_id":"4","last_reported":1712415968,"current_range_meters":3600,"station_id":"ce4bgpp2rcd13ifvqc3g","pricing_plan_id":"cebpf4jnsgd1na2vs0mg"},{"bike_id":"6258f072-f0da-433d-a492-6d1c3da511a3","system_id":"levelo_inurba_marseille","lat":43.297794,"lon":5.370888,"is_reserved":false,"is_disabled":false,"rental_uris":{"android":"levelo://app?vid=6258f072-f0da-433d-a492-6d1c3da511a3","ios":"levelo://app?vid=6258f072-f0da-433d-a492-6d1c3da511a3"},"vehicle_type_id":"4","last_reported":1712415968,"current_range_meters":22000,"station_id":"ce4bgop2rcd13ifvqc1g","pricing_plan_id":"cebpf4jnsgd1na2vs0mg"},{"bike_id":"abfacac1-3e44-4113-af42-8cd0d46acd46","system_id":"levelo_inurba_marseille","lat":43.297774,"lon":5.370875,"is_reserved":false,"is_disabled":false,"rental_uris":{"android":"levelo://app?vid=abfacac1-3e44-4113-af42-8cd0d46acd46","ios":"levelo://app?vid=abfacac1-3e44-4113-af42-8cd0d46acd46"},"vehicle_type_id":"4","last_reported":1712415968,"current_range_meters":2800,"station_id":"ce4bgop2rcd13ifvqc1g","pricing_plan_id":"cebpf4jnsgd1na2vs0mg"},{"bike_id":"18651e73-a960-43da-bdae-371146c35a92","system_id":"levelo_inurba_marseille","lat":43.322872,"lon":5.382756,"is_reserved":false,"is_disabled":false,"rental_uris":{"android":"levelo://app?vid=18651e73-a960-43da-bdae-371146c35a92","ios":"levelo://app?vid=18651e73-a960-43da-bdae-371146c35a92"},"vehicle_type_id":"4","last_reported":1712415968,"current_range_meters":31200,"station_id":"ce4bhr12rcd13ifvqhqg","pricing_plan_id":"cebpf4jnsgd1na2vs0mg"},{"bike_id":"8a79ea18-017d-4ca6-aa64-850fe1797991","system_id":"levelo_inurba_marseille","lat":43.322872,"lon":5.382756,"is_reserved":false,"is_disabled":false,"rental_uris":{"android":"levelo://app?vid=8a79ea18-017d-4ca6-aa64-850fe1797991","ios":"levelo://app?vid=8a79ea18-017d-4ca6-aa64-850fe1797991"},"vehicle_type_id":"4","last_reported":1712415968,"current_range_meters":6000,"station_id":"ce4bhr12rcd13ifvqhqg","pricing_plan_id":"cebpf4jnsgd1na2vs0mg"},{"bike_id":"bb405e14-2785-4e3e-806f-7482dc39e2e0","system_id":"levelo_inurba_marseille","lat":43.322872,"lon":5.382756,"is_reserved":false,"is_disabled":false,"rental_uris":{"android":"levelo://app?vid=bb405e14-2785-4e3e-806f-7482dc39e2e0","ios":"levelo://app?vid=bb405e14-2785-4e3e-806f-7482dc39e2e0"},"vehicle_type_id":"4","last_reported":1712415968,"current_range_meters":9600,"station_id":"ce4bhr12rcd13ifvqhqg","pricing_plan_id":"cebpf4jnsgd1na2vs0mg"},{"bike_id":"79a09dc1-a136-4553-b035-ca9b20a658e5","system_id":"levelo_inurba_marseille","lat":43.30181,"lon":5.3818,"is_reserved":false,"is_disabled":false,"rental_uris":{"android":"levelo://app?vid=79a09dc1-a136-4553-b035-ca9b20a658e5","ios":"levelo://app?vid=79a09dc1-a136-4553-b035-ca9b20a658e5"},"vehicle_type_id":"4","last_reported":1712415968,"current_range_meters":12400,"station_id":"","pricing_plan_id":"cebpf4jnsgd1na2vs0mg"},{"bike_id":"7f9a4db9-7085-41bc-9c8b-aaa8741200c1","system_id":"levelo_inurba_marseille","lat":43.297163,"lon":5.365866,"is_reserved":false,"is_disabled":false,"rental_uris":{"android":"levelo://app?vid=7f9a4db9-7085-41bc-9c8b-aaa8741200c1","ios":"levelo://app?vid=7f9a4db9-7085-41bc-9c8b-aaa8741200c1"},"vehicle_type_id":"4","last_reported":1712415968,"current_range_meters":20400,"station_id":"ce4bgn12rcd13ifvqbt0","pricing_plan_id":"cebpf4jnsgd1na2vs0mg"},{"bike_id":"c8e317df-263d-4957-9111-5c3693385ffb","system_id":"levelo_inurba_marseille","lat":43.2976,"lon":5.36064,"is_reserved":false,"is_disabled":false,"rental_uris":{"android":"levelo://app?vid=c8e317df-263d-4957-9111-5c3693385ffb","ios":"levelo://app?vid=c8e317df-263d-4957-9111-5c3693385ffb"},"vehicle_type_id":"4","last_reported":1712415968,"current_range_meters":4400,"station_id":"","pricing_plan_id":"cebpf4jnsgd1na2vs0mg"},{"bike_id":"7838c1ba-05b0-464f-b758-e07d8085a361","system_id":"levelo_inurba_marseille","lat":43.298037,"lon":5.381066,"is_reserved":false,"is_disabled":false,"rental_uris":{"android":"levelo://app?vid=7838c1ba-05b0-464f-b758-e07d8085a361","ios":"levelo://app?vid=7838c1ba-05b0-464f-b758-e07d8085a361"},"vehicle_type_id":"4","last_reported":1712415968,"current_range_meters":0,"station_id":"ce4bgip2rcd13ifvqbb0","pricing_plan_id":"cebpf4jnsgd1na2vs0mg"},{"bike_id":"b7035474-7424-477d-9a05-47aa5b5259c2","system_id":"levelo_inurba_marseille","lat":43.295279,"lon":5.375048,"is_reserved":false,"is_disabled":false,"rental_uris":{"android":"levelo://app?vid=b7035474-7424-477d-9a05-47aa5b5259c2","ios":"levelo://app?vid=b7035474-7424-477d-9a05-47aa5b5259c2"},"vehicle_type_id":"4","last_reported":1712415968,"current_range_meters":13200,"station_id":"ce4bgkp2rcd13ifvqbmg","pricing_plan_id":"cebpf4jnsgd1na2vs0mg"},{"bike_id":"546f0930-7b01-4f3c-add8-76dd14f73f6d","system_id":"levelo_inurba_marseille","lat":43.29573,"lon":5.367355,"is_reserved":false,"is_disabled":false,"rental_uris":{"android":"levelo://app?vid=546f0930-7b01-4f3c-add8-76dd14f73f6d","ios":"levelo://app?vid=546f0930-7b01-4f3c-add8-76dd14f73f6d"},"vehicle_type_id":"4","last_reported":1712415968,"current_range_meters":7200,"station_id":"ce4bgph2rcd13ifvqc2g","pricing_plan_id":"cebpf4jnsgd1na2vs0mg"},{"bike_id":"11652fe9-b4bc-4ac0-b738-8bcfcc69fbb7","system_id":"levelo_inurba_marseille","lat":43.299243,"lon":5.374807,"is_reserved":false,"is_disabled":false,"rental_uris":{"android":"levelo://app?vid=11652fe9-b4bc-4ac0-b738-8bcfcc69fbb7","ios":"levelo://app?vid=11652fe9-b4bc-4ac0-b738-8bcfcc69fbb7"},"vehicle_type_id":"4","last_reported":1712415968,"current_range_meters":0,"station_id":"ce4bgjh2rcd13ifvqbg0","pricing_plan_id":"cebpf4jnsgd1na2vs0mg"},{"bike_id":"f66b169c-2117-46e5-afb9-a06822c3ad02","system_id":"levelo_inurba_marseille","lat":43.298037,"lon":5.381066,"is_reserved":false,"is_disabled":false,"rental_uris":{"android":"levelo://app?vid=f66b169c-2117-46e5-afb9-a06822c3ad02","ios":"levelo://app?vid=f66b169c-2117-46e5-afb9-a06822c3ad02"},"vehicle_type_id":"4","last_reported":1712415968,"current_range_meters":400,"station_id":"ce4bgip2rcd13ifvqbb0","pricing_plan_id":"cebpf4jnsgd1na2vs0mg"},{"bike_id":"01c1afda-d345-42f6-87c0-16afd4911f67","system_id":"levelo_inurba_marseille","lat":43.29573,"lon":5.37513,"is_reserved":false,"is_disabled":false,"rental_uris":{"android":"levelo://app?vid=01c1afda-d345-42f6-87c0-16afd4911f67","ios":"levelo://app?vid=01c1afda-d345-42f6-87c0-16afd4911f67"},"vehicle_type_id":"4","last_reported":1712415968,"current_range_meters":13200,"station_id":"ce4bgh92rcd13ifvqb50","pricing_plan_id":"cebpf4jnsgd1na2vs0mg"},{"bike_id":"6f7ebbb4-c555-443b-a5ff-709152fd67c2","system_id":"levelo_inurba_marseille","lat":43.295748,"lon":5.37522,"is_reserved":false,"is_disabled":false,"rental_uris":{"android":"levelo://app?vid=6f7ebbb4-c555-443b-a5ff-709152fd67c2","ios":"levelo://app?vid=6f7ebbb4-c555-443b-a5ff-709152fd67c2"},"vehicle_type_id":"4","last_reported":1712415968,"current_range_meters":0,"station_id":"ce4bgh92rcd13ifvqb50","pricing_plan_id":"cebpf4jnsgd1na2vs0mg"},{"bike_id":"eee3b49c-36f4-4d0f-9628-d1e91406e1b7","system_id":"levelo_inurba_marseille","lat":43.295748,"lon":5.37522,"is_reserved":false,"is_disabled":false,"rental_uris":{"android":"levelo://app?vid=eee3b49c-36f4-4d0f-9628-d1e91406e1b7","ios":"levelo://app?vid=eee3b49c-36f4-4d0f-9628-d1e91406e1b7"},"vehicle_type_id":"4","last_reported":1712415968,"current_range_meters":5600,"station_id":"ce4bgh92rcd13ifvqb50","pricing_plan_id":"cebpf4jnsgd1na2vs0mg"},{"bike_id":"5f432cff-05a9-4270-b972-6c3975b3aa61","system_id":"levelo_inurba_marseille","lat":43.29611,"lon":5.37711,"is_reserved":false,"is_disabled":false,"rental_uris":{"android":"levelo://app?vid=5f432cff-05a9-4270-b972-6c3975b3aa61","ios":"levelo://app?vid=5f432cff-05a9-4270-b972-6c3975b3aa61"},"vehicle_type_id":"4","last_reported":1712415968,"current_range_meters":10400,"station_id":"ce4bgi92rcd13ifvqb90","pricing_plan_id":"cebpf4jnsgd1na2vs0mg"},{"bike_id":"3dc0db31-19a2-4cc7-8756-b65f83645412","system_id":"levelo_inurba_marseille","lat":43.29612,"lon":5.377318,"is_reserved":false,"is_disabled":false,"rental_uris":{"android":"levelo://app?vid=3dc0db31-19a2-4cc7-8756-b65f83645412","ios":"levelo://app?vid=3dc0db31-19a2-4cc7-8756-b65f83645412"},"vehicle_type_id":"4","last_reported":1712415968,"current_range_meters":23600,"station_id":"ce4bgi92rcd13ifvqb90","pricing_plan_id":"cebpf4jnsgd1na2vs0mg"},{"bike_id":"bd2e1790-a9ba-4fbf-a419-cf1187704199","system_id":"levelo_inurba_marseille","lat":43.29985,"lon":5.38492,"is_reserved":false,"is_disabled":false,"rental_uris":{"android":"levelo://app?vid=bd2e1790-a9ba-4fbf-a419-cf1187704199","ios":"levelo://app?vid=bd2e1790-a9ba-4fbf-a419-cf1187704199"},"vehicle_type_id":"4","last_reported":1712415968,"current_range_meters":0,"station_id":"ce4bgj92rcd13ifvqbd0","pricing_plan_id":"cebpf4jnsgd1na2vs0mg"},{"bike_id":"414a7d04-ca58-4157-a028-1d1809b23872","system_id":"levelo_inurba_marseille","lat":43.290094,"lon":5.381264,"is_reserved":false,"is_disabled":false,"rental_uris":{"android":"levelo://app?vid=414a7d04-ca58-4157-a028-1d1809b23872","ios":"levelo://app?vid=414a7d04-ca58-4157-a028-1d1809b23872"},"vehicle_type_id":"4","last_reported":1712415968,"current_range_meters":4000,"station_id":"ce4bh4p2rcd13ifvqe1g","pricing_plan_id":"cebpf4jnsgd1na2vs0mg"},{"bike_id":"92b900d7-b8d6-4e60-ba18-dfddd60d0a29","system_id":"levelo_inurba_marseille","lat":43.299707,"lon":5.384859,"is_reserved":false,"is_disabled":false,"rental_uris":{"android":"levelo://app?vid=92b900d7-b8d6-4e60-ba18-dfddd60d0a29","ios":"levelo://app?vid=92b900d7-b8d6-4e60-ba18-dfddd60d0a29"},"vehicle_type_id":"4","last_reported":1712415968,"current_range_meters":10000,"station_id":"ce4bgj92rcd13ifvqbd0","pricing_plan_id":"cebpf4jnsgd1na2vs0mg"},{"bike_id":"45cc7849-ecf1-443f-a565-d80fb3319c80","system_id":"levelo_inurba_marseille","lat":43.299707,"lon":5.384859,"is_reserved":false,"is_disabled":false,"rental_uris":{"android":"levelo://app?vid=45cc7849-ecf1-443f-a565-d80fb3319c80","ios":"levelo://app?vid=45cc7849-ecf1-443f-a565-d80fb3319c80"},"vehicle_type_id":"4","last_reported":1712415968,"current_range_meters":21600,"station_id":"ce4bgj92rcd13ifvqbd0","pricing_plan_id":"cebpf4jnsgd1na2vs0mg"},{"bike_id":"0466d04f-53b4-4d66-aa30-4dc5a6396ca4","system_id":"levelo_inurba_marseille","lat":43.295279,"lon":5.375048,"is_reserved":false,"is_disabled":false,"rental_uris":{"android":"levelo://app?vid=0466d04f-53b4-4d66-aa30-4dc5a6396ca4","ios":"levelo://app?vid=0466d04f-53b4-4d66-aa30-4dc5a6396ca4"},"vehicle_type_id":"4","last_reported":1712415968,"current_range_meters":4000,"station_id":"ce4bgkp2rcd13ifvqbmg","pricing_plan_id":"cebpf4jnsgd1na2vs0mg"},{"bike_id":"6a3b49ed-6980-447e-90a6-db28ea80b14a","system_id":"levelo_inurba_marseille","lat":43.299717,"lon":5.384845,"is_reserved":false,"is_disabled":false,"rental_uris":{"android":"levelo://app?vid=6a3b49ed-6980-447e-90a6-db28ea80b14a","ios":"levelo://app?vid=6a3b49ed-6980-447e-90a6-db28ea80b14a"},"vehicle_type_id":"4","last_reported":1712415968,"current_range_meters":7600,"station_id":"ce4bgj92rcd13ifvqbd0","pricing_plan_id":"cebpf4jnsgd1na2vs0mg"},{"bike_id":"065b4456-a846-4c8c-9cf8-343171c09d5c","system_id":"levelo_inurba_marseille","lat":43.29602,"lon":5.381084,"is_reserved":false,"is_disabled":false,"rental_uris":{"android":"levelo://app?vid=065b4456-a846-4c8c-9cf8-343171c09d5c","ios":"levelo://app?vid=065b4456-a846-4c8c-9cf8-343171c09d5c"},"vehicle_type_id":"4","last_reported":1712415968,"current_range_meters":24000,"station_id":"ce4bgl12rcd13ifvqbo0","pricing_plan_id":"cebpf4jnsgd1na2vs0mg"},{"bike_id":"cfcb1ff3-15d4-40e1-86fd-e19e3067bc80","system_id":"levelo_inurba_marseille","lat":43.29602,"lon":5.381084,"is_reserved":false,"is_disabled":false,"rental_uris":{"android":"levelo://app?vid=cfcb1ff3-15d4-40e1-86fd-e19e3067bc80","ios":"levelo://app?vid=cfcb1ff3-15d4-40e1-86fd-e19e3067bc80"},"vehicle_type_id":"4","last_reported":1712415968,"current_range_meters":3200,"station_id":"ce4bgl12rcd13ifvqbo0","pricing_plan_id":"cebpf4jnsgd1na2vs0mg"},{"bike_id":"79876257-5593-438c-8176-cd33a52ba86e","system_id":"levelo_inurba_marseille","lat":43.29602,"lon":5.381084,"is_reserved":false,"is_disabled":false,"rental_uris":{"android":"levelo://app?vid=79876257-5593-438c-8176-cd33a52ba86e","ios":"levelo://app?vid=79876257-5593-438c-8176-cd33a52ba86e"},"vehicle_type_id":"4","last_reported":1712415968,"current_range_meters":12800,"station_id":"ce4bgl12rcd13ifvqbo0","pricing_plan_id":"cebpf4jnsgd1na2vs0mg"},{"bike_id":"fed1cd03-4071-40ec-a361-588a89729b5a","system_id":"levelo_inurba_marseille","lat":43.293259,"lon":5.371586,"is_reserved":false,"is_disabled":false,"rental_uris":{"android":"levelo://app?vid=fed1cd03-4071-40ec-a361-588a89729b5a","ios":"levelo://app?vid=fed1cd03-4071-40ec-a361-588a89729b5a"},"vehicle_type_id":"4","last_reported":1712415968,"current_range_meters":0,"station_id":"ce4bgh92rcd13ifvqb40","pricing_plan_id":"cebpf4jnsgd1na2vs0mg"},{"bike_id":"52a6dd1f-743e-4d2d-8200-f192892b7681","system_id":"levelo_inurba_marseille","lat":43.292749,"lon":5.368402,"is_reserved":false,"is_disabled":false,"rental_uris":{"android":"levelo://app?vid=52a6dd1f-743e-4d2d-8200-f192892b7681","ios":"levelo://app?vid=52a6dd1f-743e-4d2d-8200-f192892b7681"},"vehicle_type_id":"4","last_reported":1712415968,"current_range_meters":0,"station_id":"ce4bhbp2rcd13ifvqesg","pricing_plan_id":"cebpf4jnsgd1na2vs0mg"},{"bike_id":"90d0101c-16c8-456b-a60f-d96379858989","system_id":"levelo_inurba_marseille","lat":43.293259,"lon":5.371586,"is_reserved":false,"is_disabled":false,"rental_uris":{"android":"levelo://app?vid=90d0101c-16c8-456b-a60f-d96379858989","ios":"levelo://app?vid=90d0101c-16c8-456b-a60f-d96379858989"},"vehicle_type_id":"4","last_reported":1712415968,"current_range_meters":17600,"station_id":"ce4bgh92rcd13ifvqb40","pricing_plan_id":"cebpf4jnsgd1na2vs0mg"},{"bike_id":"71433561-fdac-40aa-bea2-175c552b22f6","system_id":"levelo_inurba_marseille","lat":43.292749,"lon":5.368402,"is_reserved":false,"is_disabled":false,"rental_uris":{"android":"levelo://app?vid=71433561-fdac-40aa-bea2-175c552b22f6","ios":"levelo://app?vid=71433561-fdac-40aa-bea2-175c552b22f6"},"vehicle_type_id":"4","last_reported":1712415968,"current_range_meters":0,"station_id":"ce4bhbp2rcd13ifvqesg","pricing_plan_id":"cebpf4jnsgd1na2vs0mg"},{"bike_id":"358e4fdf-3ca1-4b47-8955-2a2505174eb3","system_id":"levelo_inurba_marseille","lat":43.292005,"lon":5.357875,"is_reserved":false,"is_disabled":false,"rental_uris":{"android":"levelo://app?vid=358e4fdf-3ca1-4b47-8955-2a2505174eb3","ios":"levelo://app?vid=358e4fdf-3ca1-4b47-8955-2a2505174eb3"},"vehicle_type_id":"4","last_reported":1712415968,"current_range_meters":0,"station_id":"ce4bhb12rcd13ifvqel0","pricing_plan_id":"cebpf4jnsgd1na2vs0mg"},{"bike_id":"afafd4c2-e30b-4f2a-b658-9202f0e79de6","system_id":"levelo_inurba_marseille","lat":43.29298,"lon":5.37176,"is_reserved":false,"is_disabled":false,"rental_uris":{"android":"levelo://app?vid=afafd4c2-e30b-4f2a-b658-9202f0e79de6","ios":"levelo://app?vid=afafd4c2-e30b-4f2a-b658-9202f0e79de6"},"vehicle_type_id":"4","last_reported":1712415968,"current_range_meters":0,"station_id":"ce4bgh92rcd13ifvqb40","pricing_plan_id":"cebpf4jnsgd1na2vs0mg"},{"bike_id":"7991b26f-08e1-4179-a718-ba0c52332cf8","system_id":"levelo_inurba_marseille","lat":43.292374,"lon":5.368419,"is_reserved":false,"is_disabled":false,"rental_uris":{"android":"levelo://app?vid=7991b26f-08e1-4179-a718-ba0c52332cf8","ios":"levelo://app?vid=7991b26f-08e1-4179-a718-ba0c52332cf8"},"vehicle_type_id":"4","last_reported":1712415968,"current_range_meters":6800,"station_id":"ce4bhbp2rcd13ifvqesg","pricing_plan_id":"cebpf4jnsgd1na2vs0mg"},{"bike_id":"825dbaf8-e6e3-41ed-a20e-423a95327ee5","system_id":"levelo_inurba_marseille","lat":43.293039,"lon":5.374515,"is_reserved":false,"is_disabled":false,"rental_uris":{"android":"levelo://app?vid=825dbaf8-e6e3-41ed-a20e-423a95327ee5","ios":"levelo://app?vid=825dbaf8-e6e3-41ed-a20e-423a95327ee5"},"vehicle_type_id":"4","last_reported":1712415968,"current_range_meters":400,"station_id":"ce4bgnh2rcd13ifvqc0g","pricing_plan_id":"cebpf4jnsgd1na2vs0mg"},{"bike_id":"22efddfb-19e3-4d0a-84a2-42e37eea91a3","system_id":"levelo_inurba_marseille","lat":43.305994,"lon":5.393687,"is_reserved":false,"is_disabled":false,"rental_uris":{"android":"levelo://app?vid=22efddfb-19e3-4d0a-84a2-42e37eea91a3","ios":"levelo://app?vid=22efddfb-19e3-4d0a-84a2-42e37eea91a3"},"vehicle_type_id":"4","last_reported":1712415968,"current_range_meters":0,"station_id":"ce4bh0p2rcd13ifvqd80","pricing_plan_id":"cebpf4jnsgd1na2vs0mg"},{"bike_id":"03ad33bb-d9eb-4bc4-9d56-4d1e20d38c40","system_id":"levelo_inurba_marseille","lat":43.2936,"lon":5.37835,"is_reserved":false,"is_disabled":false,"rental_uris":{"android":"levelo://app?vid=03ad33bb-d9eb-4bc4-9d56-4d1e20d38c40","ios":"levelo://app?vid=03ad33bb-d9eb-4bc4-9d56-4d1e20d38c40"},"vehicle_type_id":"4","last_reported":1712415968,"current_range_meters":0,"station_id":"ce4bgjh2rcd13ifvqbf0","pricing_plan_id":"cebpf4jnsgd1na2vs0mg"},{"bike_id":"b897c184-72d0-44fb-990f-3fffa626dd61","system_id":"levelo_inurba_marseille","lat":43.2923,"lon":5.36064,"is_reserved":false,"is_disabled":false,"rental_uris":{"android":"levelo://app?vid=b897c184-72d0-44fb-990f-3fffa626dd61","ios":"levelo://app?vid=b897c184-72d0-44fb-990f-3fffa626dd61"},"vehicle_type_id":"4","last_reported":1712415968,"current_range_meters":0,"station_id":"ce4bhbh2rcd13ifvqeqg","pricing_plan_id":"cebpf4jnsgd1na2vs0mg"},{"bike_id":"bb89da9c-59b2-4f4e-aa06-1c47e26ac8b4","system_id":"levelo_inurba_marseille","lat":43.29229,"lon":5.36064,"is_reserved":false,"is_disabled":false,"rental_uris":{"android":"levelo://app?vid=bb89da9c-59b2-4f4e-aa06-1c47e26ac8b4","ios":"levelo://app?vid=bb89da9c-59b2-4f4e-aa06-1c47e26ac8b4"},"vehicle_type_id":"4","last_reported":1712415968,"current_range_meters":0,"station_id":"ce4bhbh2rcd13ifvqeqg","pricing_plan_id":"cebpf4jnsgd1na2vs0mg"},{"bike_id":"a1d3f0c6-4ebf-437d-a950-6e3f918f7839","system_id":"levelo_inurba_marseille","lat":43.2922,"lon":5.36048,"is_reserved":false,"is_disabled":false,"rental_uris":{"android":"levelo://app?vid=a1d3f0c6-4ebf-437d-a950-6e3f918f7839","ios":"levelo://app?vid=a1d3f0c6-4ebf-437d-a950-6e3f918f7839"},"vehicle_type_id":"4","last_reported":1712415968,"current_range_meters":0,"station_id":"ce4bhbh2rcd13ifvqeqg","pricing_plan_id":"cebpf4jnsgd1na2vs0mg"},{"bike_id":"23fcf78c-be8b-44d6-ac2b-71b99ff24081","system_id":"levelo_inurba_marseille","lat":43.291675,"lon":5.371583,"is_reserved":false,"is_disabled":false,"rental_uris":{"android":"levelo://app?vid=23fcf78c-be8b-44d6-ac2b-71b99ff24081","ios":"levelo://app?vid=23fcf78c-be8b-44d6-ac2b-71b99ff24081"},"vehicle_type_id":"4","last_reported":1712415968,"current_range_meters":19200,"station_id":"ce4bha92rcd13ifvqeh0","pricing_plan_id":"cebpf4jnsgd1na2vs0mg"},{"bike_id":"6b3d2531-bcd9-4862-b0a2-846c0c39c2bb","system_id":"levelo_inurba_marseille","lat":43.31329,"lon":5.39687,"is_reserved":false,"is_disabled":false,"rental_uris":{"android":"levelo://app?vid=6b3d2531-bcd9-4862-b0a2-846c0c39c2bb","ios":"levelo://app?vid=6b3d2531-bcd9-4862-b0a2-846c0c39c2bb"},"vehicle_type_id":"4","last_reported":1712415968,"current_range_meters":0,"station_id":"ce4bgvp2rcd13ifvqcu0","pricing_plan_id":"cebpf4jnsgd1na2vs0mg"},{"bike_id":"7faa289a-26e2-4387-a8db-e46337982647","system_id":"levelo_inurba_marseille","lat":43.291947,"lon":5.357917,"is_reserved":false,"is_disabled":false,"rental_uris":{"android":"levelo://app?vid=7faa289a-26e2-4387-a8db-e46337982647","ios":"levelo://app?vid=7faa289a-26e2-4387-a8db-e46337982647"},"vehicle_type_id":"4","last_reported":1712415968,"current_range_meters":0,"station_id":"ce4bhb12rcd13ifvqel0","pricing_plan_id":"cebpf4jnsgd1na2vs0mg"},{"bike_id":"ba8780ea-04f8-474a-b7cf-8565258db91f","system_id":"levelo_inurba_marseille","lat":43.279742,"lon":5.38744,"is_reserved":false,"is_disabled":false,"rental_uris":{"android":"levelo://app?vid=ba8780ea-04f8-474a-b7cf-8565258db91f","ios":"levelo://app?vid=ba8780ea-04f8-474a-b7cf-8565258db91f"},"vehicle_type_id":"4","last_reported":1712415968,"current_range_meters":20000,"station_id":"ce4bhg12rcd13ifvqf80","pricing_plan_id":"cebpf4jnsgd1na2vs0mg"},{"bike_id":"bc7670a8-ce64-4266-a860-12eba15c6be1","system_id":"levelo_inurba_marseille","lat":43.296935,"lon":5.376544,"is_reserved":false,"is_disabled":false,"rental_uris":{"android":"levelo://app?vid=bc7670a8-ce64-4266-a860-12eba15c6be1","ios":"levelo://app?vid=bc7670a8-ce64-4266-a860-12eba15c6be1"},"vehicle_type_id":"4","last_reported":1712415968,"current_range_meters":5200,"station_id":"ce4bgkh2rcd13ifvqbl0","pricing_plan_id":"cebpf4jnsgd1na2vs0mg"},{"bike_id":"ca01e377-1db9-4cb4-b000-59b60b7cd638","system_id":"levelo_inurba_marseille","lat":43.313291,"lon":5.396838,"is_reserved":false,"is_disabled":false,"rental_uris":{"android":"levelo://app?vid=ca01e377-1db9-4cb4-b000-59b60b7cd638","ios":"levelo://app?vid=ca01e377-1db9-4cb4-b000-59b60b7cd638"},"vehicle_type_id":"4","last_reported":1712415968,"current_range_meters":5600,"station_id":"ce4bgvp2rcd13ifvqcu0","pricing_plan_id":"cebpf4jnsgd1na2vs0mg"},{"bike_id":"f3edbc25-44f0-420c-ada6-0a8a78ec809a","system_id":"levelo_inurba_marseille","lat":43.29529,"lon":5.385581,"is_reserved":false,"is_disabled":false,"rental_uris":{"android":"levelo://app?vid=f3edbc25-44f0-420c-ada6-0a8a78ec809a","ios":"levelo://app?vid=f3edbc25-44f0-420c-ada6-0a8a78ec809a"},"vehicle_type_id":"4","last_reported":1712415968,"current_range_meters":0,"station_id":"ce4bgih2rcd13ifvqba0","pricing_plan_id":"cebpf4jnsgd1na2vs0mg"},{"bike_id":"b3ca5a6b-c352-4db0-beed-2f2d91600c75","system_id":"levelo_inurba_marseille","lat":43.29529,"lon":5.385581,"is_reserved":false,"is_disabled":false,"rental_uris":{"android":"levelo://app?vid=b3ca5a6b-c352-4db0-beed-2f2d91600c75","ios":"levelo://app?vid=b3ca5a6b-c352-4db0-beed-2f2d91600c75"},"vehicle_type_id":"4","last_reported":1712415968,"current_range_meters":0,"station_id":"ce4bgih2rcd13ifvqba0","pricing_plan_id":"cebpf4jnsgd1na2vs0mg"},{"bike_id":"7987557f-355e-49c2-9dc9-487efc3aeef8","system_id":"levelo_inurba_marseille","lat":43.29529,"lon":5.385581,"is_reserved":false,"is_disabled":false,"rental_uris":{"android":"levelo://app?vid=7987557f-355e-49c2-9dc9-487efc3aeef8","ios":"levelo://app?vid=7987557f-355e-49c2-9dc9-487efc3aeef8"},"vehicle_type_id":"4","last_reported":1712415968,"current_range_meters":3600,"station_id":"ce4bgih2rcd13ifvqba0","pricing_plan_id":"cebpf4jnsgd1na2vs0mg"},{"bike_id":"1450cbb4-f6f6-4c1b-ad9f-1e964eefc76e","system_id":"levelo_inurba_marseille","lat":43.29529,"lon":5.385581,"is_reserved":false,"is_disabled":false,"rental_uris":{"android":"levelo://app?vid=1450cbb4-f6f6-4c1b-ad9f-1e964eefc76e","ios":"levelo://app?vid=1450cbb4-f6f6-4c1b-ad9f-1e964eefc76e"},"vehicle_type_id":"4","last_reported":1712415968,"current_range_meters":3200,"station_id":"ce4bgih2rcd13ifvqba0","pricing_plan_id":"cebpf4jnsgd1na2vs0mg"},{"bike_id":"f38a9b86-9629-4a11-8a06-c656be8ec397","system_id":"levelo_inurba_marseille","lat":43.302008,"lon":5.394694,"is_reserved":false,"is_disabled":false,"rental_uris":{"android":"levelo://app?vid=f38a9b86-9629-4a11-8a06-c656be8ec397","ios":"levelo://app?vid=f38a9b86-9629-4a11-8a06-c656be8ec397"},"vehicle_type_id":"4","last_reported":1712415968,"current_range_meters":14800,"station_id":"ce4bh0p2rcd13ifvqd70","pricing_plan_id":"cebpf4jnsgd1na2vs0mg"},{"bike_id":"737c1237-c240-452d-be04-7ce598c2c414","system_id":"levelo_inurba_marseille","lat":43.290779,"lon":5.371482,"is_reserved":false,"is_disabled":false,"rental_uris":{"android":"levelo://app?vid=737c1237-c240-452d-be04-7ce598c2c414","ios":"levelo://app?vid=737c1237-c240-452d-be04-7ce598c2c414"},"vehicle_type_id":"4","last_reported":1712415968,"current_range_meters":9200,"station_id":"ce4bh5p2rcd13ifvqe4g","pricing_plan_id":"cebpf4jnsgd1na2vs0mg"},{"bike_id":"a58fbec5-a5b1-4d91-b122-ec1f24101d6a","system_id":"levelo_inurba_marseille","lat":43.290624,"lon":5.359245,"is_reserved":false,"is_disabled":false,"rental_uris":{"android":"levelo://app?vid=a58fbec5-a5b1-4d91-b122-ec1f24101d6a","ios":"levelo://app?vid=a58fbec5-a5b1-4d91-b122-ec1f24101d6a"},"vehicle_type_id":"4","last_reported":1712415968,"current_range_meters":14800,"station_id":"ce4bha92rcd13ifvqeg0","pricing_plan_id":"cebpf4jnsgd1na2vs0mg"},{"bike_id":"1baffdab-9c91-46c8-add5-b969f8077e05","system_id":"levelo_inurba_marseille","lat":43.273613,"lon":5.362705,"is_reserved":false,"is_disabled":false,"rental_uris":{"android":"levelo://app?vid=1baffdab-9c91-46c8-add5-b969f8077e05","ios":"levelo://app?vid=1baffdab-9c91-46c8-add5-b969f8077e05"},"vehicle_type_id":"4","last_reported":1712415968,"current_range_meters":1200,"station_id":"ce4bhbh2rcd13ifvqeo0","pricing_plan_id":"cebpf4jnsgd1na2vs0mg"},{"bike_id":"14195be5-1dd9-4cfc-b775-72f03b0bd8d6","system_id":"levelo_inurba_marseille","lat":43.28943,"lon":5.36634,"is_reserved":false,"is_disabled":false,"rental_uris":{"android":"levelo://app?vid=14195be5-1dd9-4cfc-b775-72f03b0bd8d6","ios":"levelo://app?vid=14195be5-1dd9-4cfc-b775-72f03b0bd8d6"},"vehicle_type_id":"4","last_reported":1712415968,"current_range_meters":0,"station_id":"ce4bhap2rcd13ifvqek0","pricing_plan_id":"cebpf4jnsgd1na2vs0mg"},{"bike_id":"3bdb7236-7a64-4bd9-829d-d530ac608495","system_id":"levelo_inurba_marseille","lat":43.289468,"lon":5.363719,"is_reserved":false,"is_disabled":false,"rental_uris":{"android":"levelo://app?vid=3bdb7236-7a64-4bd9-829d-d530ac608495","ios":"levelo://app?vid=3bdb7236-7a64-4bd9-829d-d530ac608495"},"vehicle_type_id":"4","last_reported":1712415968,"current_range_meters":21200,"station_id":"ce4bhc92rcd13ifvqetg","pricing_plan_id":"cebpf4jnsgd1na2vs0mg"},{"bike_id":"343a9151-223c-4f14-9476-bcdc8ab625db","system_id":"levelo_inurba_marseille","lat":43.289184,"lon":5.366408,"is_reserved":false,"is_disabled":false,"rental_uris":{"android":"levelo://app?vid=343a9151-223c-4f14-9476-bcdc8ab625db","ios":"levelo://app?vid=343a9151-223c-4f14-9476-bcdc8ab625db"},"vehicle_type_id":"4","last_reported":1712415968,"current_range_meters":2800,"station_id":"ce4bhap2rcd13ifvqek0","pricing_plan_id":"cebpf4jnsgd1na2vs0mg"},{"bike_id":"e236908f-d568-467d-a179-2a1662e731bf","system_id":"levelo_inurba_marseille","lat":43.289184,"lon":5.366408,"is_reserved":false,"is_disabled":false,"rental_uris":{"android":"levelo://app?vid=e236908f-d568-467d-a179-2a1662e731bf","ios":"levelo://app?vid=e236908f-d568-467d-a179-2a1662e731bf"},"vehicle_type_id":"4","last_reported":1712415968,"current_range_meters":0,"station_id":"ce4bhap2rcd13ifvqek0","pricing_plan_id":"cebpf4jnsgd1na2vs0mg"},{"bike_id":"24e32fb2-aee6-43c4-8e0d-07a571ebd959","system_id":"levelo_inurba_marseille","lat":43.295169,"lon":5.390426,"is_reserved":false,"is_disabled":false,"rental_uris":{"android":"levelo://app?vid=24e32fb2-aee6-43c4-8e0d-07a571ebd959","ios":"levelo://app?vid=24e32fb2-aee6-43c4-8e0d-07a571ebd959"},"vehicle_type_id":"4","last_reported":1712415968,"current_range_meters":1200,"station_id":"ce4bh3p2rcd13ifvqdp0","pricing_plan_id":"cebpf4jnsgd1na2vs0mg"},{"bike_id":"2a2660ae-d81d-4857-a870-36aa6cbc0f6c","system_id":"levelo_inurba_marseille","lat":43.289184,"lon":5.366408,"is_reserved":false,"is_disabled":false,"rental_uris":{"android":"levelo://app?vid=2a2660ae-d81d-4857-a870-36aa6cbc0f6c","ios":"levelo://app?vid=2a2660ae-d81d-4857-a870-36aa6cbc0f6c"},"vehicle_type_id":"4","last_reported":1712415968,"current_range_meters":6800,"station_id":"ce4bhap2rcd13ifvqek0","pricing_plan_id":"cebpf4jnsgd1na2vs0mg"},{"bike_id":"e76757ba-cbc1-4487-a778-d0f6a4a6e98f","system_id":"levelo_inurba_marseille","lat":43.292644,"lon":5.384257,"is_reserved":false,"is_disabled":false,"rental_uris":{"android":"levelo://app?vid=e76757ba-cbc1-4487-a778-d0f6a4a6e98f","ios":"levelo://app?vid=e76757ba-cbc1-4487-a778-d0f6a4a6e98f"},"vehicle_type_id":"4","last_reported":1712415968,"current_range_meters":11200,"station_id":"ce4bh692rcd13ifvqea0","pricing_plan_id":"cebpf4jnsgd1na2vs0mg"},{"bike_id":"def50807-1b78-46db-b8b0-08e65b8a07e9","system_id":"levelo_inurba_marseille","lat":43.292644,"lon":5.384257,"is_reserved":false,"is_disabled":false,"rental_uris":{"android":"levelo://app?vid=def50807-1b78-46db-b8b0-08e65b8a07e9","ios":"levelo://app?vid=def50807-1b78-46db-b8b0-08e65b8a07e9"},"vehicle_type_id":"4","last_reported":1712415968,"current_range_meters":1200,"station_id":"ce4bh692rcd13ifvqea0","pricing_plan_id":"cebpf4jnsgd1na2vs0mg"},{"bike_id":"03645820-7976-42c8-b3e2-0a55e523eb1b","system_id":"levelo_inurba_marseille","lat":43.291671,"lon":5.371575,"is_reserved":false,"is_disabled":false,"rental_uris":{"android":"levelo://app?vid=03645820-7976-42c8-b3e2-0a55e523eb1b","ios":"levelo://app?vid=03645820-7976-42c8-b3e2-0a55e523eb1b"},"vehicle_type_id":"4","last_reported":1712415968,"current_range_meters":22400,"station_id":"ce4bha92rcd13ifvqeh0","pricing_plan_id":"cebpf4jnsgd1na2vs0mg"},{"bike_id":"a1051b13-8a0f-4a0f-9364-b56dec551618","system_id":"levelo_inurba_marseille","lat":43.292642,"lon":5.384254,"is_reserved":false,"is_disabled":false,"rental_uris":{"android":"levelo://app?vid=a1051b13-8a0f-4a0f-9364-b56dec551618","ios":"levelo://app?vid=a1051b13-8a0f-4a0f-9364-b56dec551618"},"vehicle_type_id":"4","last_reported":1712415968,"current_range_meters":3600,"station_id":"ce4bh692rcd13ifvqea0","pricing_plan_id":"cebpf4jnsgd1na2vs0mg"},{"bike_id":"50fcbce1-2f44-47fd-8780-45824b0e2232","system_id":"levelo_inurba_marseille","lat":43.290101,"lon":5.356224,"is_reserved":false,"is_disabled":false,"rental_uris":{"android":"levelo://app?vid=50fcbce1-2f44-47fd-8780-45824b0e2232","ios":"levelo://app?vid=50fcbce1-2f44-47fd-8780-45824b0e2232"},"vehicle_type_id":"4","last_reported":1712415968,"current_range_meters":0,"station_id":"ce4bhb92rcd13ifvqen0","pricing_plan_id":"cebpf4jnsgd1na2vs0mg"},{"bike_id":"30ad9868-712f-4aab-bc61-b16b2de0be58","system_id":"levelo_inurba_marseille","lat":43.290104,"lon":5.356111,"is_reserved":false,"is_disabled":false,"rental_uris":{"android":"levelo://app?vid=30ad9868-712f-4aab-bc61-b16b2de0be58","ios":"levelo://app?vid=30ad9868-712f-4aab-bc61-b16b2de0be58"},"vehicle_type_id":"4","last_reported":1712415968,"current_range_meters":0,"station_id":"ce4bhb92rcd13ifvqen0","pricing_plan_id":"cebpf4jnsgd1na2vs0mg"},{"bike_id":"a8acf5d5-efcb-4253-911a-a6e786310962","system_id":"levelo_inurba_marseille","lat":43.29006,"lon":5.35619,"is_reserved":false,"is_disabled":false,"rental_uris":{"android":"levelo://app?vid=a8acf5d5-efcb-4253-911a-a6e786310962","ios":"levelo://app?vid=a8acf5d5-efcb-4253-911a-a6e786310962"},"vehicle_type_id":"4","last_reported":1712415968,"current_range_meters":0,"station_id":"ce4bhb92rcd13ifvqen0","pricing_plan_id":"cebpf4jnsgd1na2vs0mg"},{"bike_id":"1185773d-5d7a-44b5-8a3c-8c0f60ea3e1a","system_id":"levelo_inurba_marseille","lat":43.290103,"lon":5.356114,"is_reserved":false,"is_disabled":false,"rental_uris":{"android":"levelo://app?vid=1185773d-5d7a-44b5-8a3c-8c0f60ea3e1a","ios":"levelo://app?vid=1185773d-5d7a-44b5-8a3c-8c0f60ea3e1a"},"vehicle_type_id":"4","last_reported":1712415968,"current_range_meters":0,"station_id":"ce4bhb92rcd13ifvqen0","pricing_plan_id":"cebpf4jnsgd1na2vs0mg"},{"bike_id":"50b06d92-08d5-4aaf-969e-6b505f020784","system_id":"levelo_inurba_marseille","lat":43.290104,"lon":5.356111,"is_reserved":false,"is_disabled":false,"rental_uris":{"android":"levelo://app?vid=50b06d92-08d5-4aaf-969e-6b505f020784","ios":"levelo://app?vid=50b06d92-08d5-4aaf-969e-6b505f020784"},"vehicle_type_id":"4","last_reported":1712415968,"current_range_meters":0,"station_id":"ce4bhb92rcd13ifvqen0","pricing_plan_id":"cebpf4jnsgd1na2vs0mg"},{"bike_id":"e836db59-4131-42e9-b137-01c1f901336d","system_id":"levelo_inurba_marseille","lat":43.28996,"lon":5.35622,"is_reserved":false,"is_disabled":false,"rental_uris":{"android":"levelo://app?vid=e836db59-4131-42e9-b137-01c1f901336d","ios":"levelo://app?vid=e836db59-4131-42e9-b137-01c1f901336d"},"vehicle_type_id":"4","last_reported":1712415968,"current_range_meters":0,"station_id":"ce4bhb92rcd13ifvqen0","pricing_plan_id":"cebpf4jnsgd1na2vs0mg"},{"bike_id":"4f99e6c7-43cb-47c5-8c43-1e251365361e","system_id":"levelo_inurba_marseille","lat":43.290995,"lon":5.381361,"is_reserved":false,"is_disabled":false,"rental_uris":{"android":"levelo://app?vid=4f99e6c7-43cb-47c5-8c43-1e251365361e","ios":"levelo://app?vid=4f99e6c7-43cb-47c5-8c43-1e251365361e"},"vehicle_type_id":"4","last_reported":1712415968,"current_range_meters":1600,"station_id":"ce4bh512rcd13ifvqe2g","pricing_plan_id":"cebpf4jnsgd1na2vs0mg"},{"bike_id":"d1fe3fea-2d36-4459-b138-d4c554bdb318","system_id":"levelo_inurba_marseille","lat":43.29774,"lon":5.39326,"is_reserved":false,"is_disabled":false,"rental_uris":{"android":"levelo://app?vid=d1fe3fea-2d36-4459-b138-d4c554bdb318","ios":"levelo://app?vid=d1fe3fea-2d36-4459-b138-d4c554bdb318"},"vehicle_type_id":"4","last_reported":1712415968,"current_range_meters":4000,"station_id":"chh1huq6cuj3fo74tm60","pricing_plan_id":"cebpf4jnsgd1na2vs0mg"},{"bike_id":"03420a97-229e-48e8-9a95-3ffc9a63ae9f","system_id":"levelo_inurba_marseille","lat":43.33025,"lon":5.39041,"is_reserved":false,"is_disabled":false,"rental_uris":{"android":"levelo://app?vid=03420a97-229e-48e8-9a95-3ffc9a63ae9f","ios":"levelo://app?vid=03420a97-229e-48e8-9a95-3ffc9a63ae9f"},"vehicle_type_id":"4","last_reported":1712415968,"current_range_meters":0,"station_id":"ce4bhr92rcd13ifvqhrg","pricing_plan_id":"cebpf4jnsgd1na2vs0mg"},{"bike_id":"a6d35766-e0a9-48f8-93fa-e416dc84cf89","system_id":"levelo_inurba_marseille","lat":43.330442,"lon":5.389148,"is_reserved":false,"is_disabled":false,"rental_uris":{"android":"levelo://app?vid=a6d35766-e0a9-48f8-93fa-e416dc84cf89","ios":"levelo://app?vid=a6d35766-e0a9-48f8-93fa-e416dc84cf89"},"vehicle_type_id":"4","last_reported":1712415968,"current_range_meters":3600,"station_id":"ce4bhr92rcd13ifvqhrg","pricing_plan_id":"cebpf4jnsgd1na2vs0mg"},{"bike_id":"6dfcda4f-f117-44b2-b8de-7f2a1716134b","system_id":"levelo_inurba_marseille","lat":43.295169,"lon":5.390426,"is_reserved":false,"is_disabled":false,"rental_uris":{"android":"levelo://app?vid=6dfcda4f-f117-44b2-b8de-7f2a1716134b","ios":"levelo://app?vid=6dfcda4f-f117-44b2-b8de-7f2a1716134b"},"vehicle_type_id":"4","last_reported":1712415968,"current_range_meters":2400,"station_id":"ce4bh3p2rcd13ifvqdp0","pricing_plan_id":"cebpf4jnsgd1na2vs0mg"},{"bike_id":"1dce9aa1-5232-4b74-8ce2-5f74a5bbde23","system_id":"levelo_inurba_marseille","lat":43.33113,"lon":5.38923,"is_reserved":false,"is_disabled":false,"rental_uris":{"android":"levelo://app?vid=1dce9aa1-5232-4b74-8ce2-5f74a5bbde23","ios":"levelo://app?vid=1dce9aa1-5232-4b74-8ce2-5f74a5bbde23"},"vehicle_type_id":"4","last_reported":1712415968,"current_range_meters":16800,"station_id":"","pricing_plan_id":"cebpf4jnsgd1na2vs0mg"},{"bike_id":"29a0d463-0b5a-4dee-856d-01c0581c56b4","system_id":"levelo_inurba_marseille","lat":43.33023,"lon":5.39056,"is_reserved":false,"is_disabled":false,"rental_uris":{"android":"levelo://app?vid=29a0d463-0b5a-4dee-856d-01c0581c56b4","ios":"levelo://app?vid=29a0d463-0b5a-4dee-856d-01c0581c56b4"},"vehicle_type_id":"4","last_reported":1712415968,"current_range_meters":2400,"station_id":"ce4bhr92rcd13ifvqhrg","pricing_plan_id":"cebpf4jnsgd1na2vs0mg"},{"bike_id":"920c4f3c-a3ea-4e97-b8d4-83d8f8d236d7","system_id":"levelo_inurba_marseille","lat":43.302711,"lon":5.39775,"is_reserved":false,"is_disabled":false,"rental_uris":{"android":"levelo://app?vid=920c4f3c-a3ea-4e97-b8d4-83d8f8d236d7","ios":"levelo://app?vid=920c4f3c-a3ea-4e97-b8d4-83d8f8d236d7"},"vehicle_type_id":"4","last_reported":1712415968,"current_range_meters":21600,"station_id":"","pricing_plan_id":"cebpf4jnsgd1na2vs0mg"},{"bike_id":"3b87a693-8ce6-42e3-8ed8-1fbf50b15285","system_id":"levelo_inurba_marseille","lat":43.33659,"lon":5.37508,"is_reserved":false,"is_disabled":false,"rental_uris":{"android":"levelo://app?vid=3b87a693-8ce6-42e3-8ed8-1fbf50b15285","ios":"levelo://app?vid=3b87a693-8ce6-42e3-8ed8-1fbf50b15285"},"vehicle_type_id":"4","last_reported":1712415968,"current_range_meters":0,"station_id":"","pricing_plan_id":"cebpf4jnsgd1na2vs0mg"},{"bike_id":"696176e9-79cb-46f2-9cff-93a2f371c0e4","system_id":"levelo_inurba_marseille","lat":43.288859,"lon":5.358071,"is_reserved":false,"is_disabled":false,"rental_uris":{"android":"levelo://app?vid=696176e9-79cb-46f2-9cff-93a2f371c0e4","ios":"levelo://app?vid=696176e9-79cb-46f2-9cff-93a2f371c0e4"},"vehicle_type_id":"4","last_reported":1712415968,"current_range_meters":30000,"station_id":"ce4bhb12rcd13ifvqel0","pricing_plan_id":"cebpf4jnsgd1na2vs0mg"},{"bike_id":"6aa57664-2a1f-40bd-8632-dfe1fbe84cda","system_id":"levelo_inurba_marseille","lat":43.2901,"lon":5.381269,"is_reserved":false,"is_disabled":false,"rental_uris":{"android":"levelo://app?vid=6aa57664-2a1f-40bd-8632-dfe1fbe84cda","ios":"levelo://app?vid=6aa57664-2a1f-40bd-8632-dfe1fbe84cda"},"vehicle_type_id":"4","last_reported":1712415968,"current_range_meters":15600,"station_id":"ce4bh4p2rcd13ifvqe1g","pricing_plan_id":"cebpf4jnsgd1na2vs0mg"},{"bike_id":"d8d9701c-5c01-43cf-aa4b-160455d3ed71","system_id":"levelo_inurba_marseille","lat":43.2901,"lon":5.381269,"is_reserved":false,"is_disabled":false,"rental_uris":{"android":"levelo://app?vid=d8d9701c-5c01-43cf-aa4b-160455d3ed71","ios":"levelo://app?vid=d8d9701c-5c01-43cf-aa4b-160455d3ed71"},"vehicle_type_id":"4","last_reported":1712415968,"current_range_meters":19200,"station_id":"ce4bh4p2rcd13ifvqe1g","pricing_plan_id":"cebpf4jnsgd1na2vs0mg"},{"bike_id":"fdedede3-38cc-4fd3-9938-04d2d8cdc188","system_id":"levelo_inurba_marseille","lat":43.301429,"lon":5.37413,"is_reserved":false,"is_disabled":false,"rental_uris":{"android":"levelo://app?vid=fdedede3-38cc-4fd3-9938-04d2d8cdc188","ios":"levelo://app?vid=fdedede3-38cc-4fd3-9938-04d2d8cdc188"},"vehicle_type_id":"4","last_reported":1712415968,"current_range_meters":0,"station_id":"ce4bgs92rcd13ifvqcc0","pricing_plan_id":"cebpf4jnsgd1na2vs0mg"},{"bike_id":"5bab63a5-4e98-439d-9ff9-1a0b45793559","system_id":"levelo_inurba_marseille","lat":43.312609,"lon":5.401662,"is_reserved":false,"is_disabled":false,"rental_uris":{"android":"levelo://app?vid=5bab63a5-4e98-439d-9ff9-1a0b45793559","ios":"levelo://app?vid=5bab63a5-4e98-439d-9ff9-1a0b45793559"},"vehicle_type_id":"4","last_reported":1712415968,"current_range_meters":0,"station_id":"ce4bh092rcd13ifvqd30","pricing_plan_id":"cebpf4jnsgd1na2vs0mg"},{"bike_id":"9dccfd63-6b4a-42de-accb-ccd0010f5818","system_id":"levelo_inurba_marseille","lat":43.312609,"lon":5.401662,"is_reserved":false,"is_disabled":false,"rental_uris":{"android":"levelo://app?vid=9dccfd63-6b4a-42de-accb-ccd0010f5818","ios":"levelo://app?vid=9dccfd63-6b4a-42de-accb-ccd0010f5818"},"vehicle_type_id":"4","last_reported":1712415968,"current_range_meters":2400,"station_id":"ce4bh092rcd13ifvqd30","pricing_plan_id":"cebpf4jnsgd1na2vs0mg"},{"bike_id":"dd44a14f-3676-4a52-9810-c8206ced784a","system_id":"levelo_inurba_marseille","lat":43.312609,"lon":5.401662,"is_reserved":false,"is_disabled":false,"rental_uris":{"android":"levelo://app?vid=dd44a14f-3676-4a52-9810-c8206ced784a","ios":"levelo://app?vid=dd44a14f-3676-4a52-9810-c8206ced784a"},"vehicle_type_id":"4","last_reported":1712415968,"current_range_meters":9600,"station_id":"ce4bh092rcd13ifvqd30","pricing_plan_id":"cebpf4jnsgd1na2vs0mg"},{"bike_id":"979ae432-9ff5-4588-908b-a7c2ac444746","system_id":"levelo_inurba_marseille","lat":43.3375,"lon":5.37452,"is_reserved":false,"is_disabled":false,"rental_uris":{"android":"levelo://app?vid=979ae432-9ff5-4588-908b-a7c2ac444746","ios":"levelo://app?vid=979ae432-9ff5-4588-908b-a7c2ac444746"},"vehicle_type_id":"4","last_reported":1712415968,"current_range_meters":30800,"station_id":"","pricing_plan_id":"cebpf4jnsgd1na2vs0mg"},{"bike_id":"11ca20cb-8bdf-4731-bd3d-6bdbc08f8a56","system_id":"levelo_inurba_marseille","lat":43.309038,"lon":5.396546,"is_reserved":false,"is_disabled":false,"rental_uris":{"android":"levelo://app?vid=11ca20cb-8bdf-4731-bd3d-6bdbc08f8a56","ios":"levelo://app?vid=11ca20cb-8bdf-4731-bd3d-6bdbc08f8a56"},"vehicle_type_id":"4","last_reported":1712415968,"current_range_meters":800,"station_id":"ce4bh012rcd13ifvqcv0","pricing_plan_id":"cebpf4jnsgd1na2vs0mg"},{"bike_id":"f5b682b7-9f1c-4b91-bb05-2ecd6c3f44a0","system_id":"levelo_inurba_marseille","lat":43.30642,"lon":5.401031,"is_reserved":false,"is_disabled":false,"rental_uris":{"android":"levelo://app?vid=f5b682b7-9f1c-4b91-bb05-2ecd6c3f44a0","ios":"levelo://app?vid=f5b682b7-9f1c-4b91-bb05-2ecd6c3f44a0"},"vehicle_type_id":"4","last_reported":1712415968,"current_range_meters":1600,"station_id":"ce4bh112rcd13ifvqda0","pricing_plan_id":"cebpf4jnsgd1na2vs0mg"},{"bike_id":"3f5b8679-e969-41b7-a231-7c6828a1b3ce","system_id":"levelo_inurba_marseille","lat":43.306412,"lon":5.401035,"is_reserved":false,"is_disabled":false,"rental_uris":{"android":"levelo://app?vid=3f5b8679-e969-41b7-a231-7c6828a1b3ce","ios":"levelo://app?vid=3f5b8679-e969-41b7-a231-7c6828a1b3ce"},"vehicle_type_id":"4","last_reported":1712415968,"current_range_meters":17200,"station_id":"ce4bh112rcd13ifvqda0","pricing_plan_id":"cebpf4jnsgd1na2vs0mg"},{"bike_id":"12d3427d-8609-4011-be6d-478bad4167d6","system_id":"levelo_inurba_marseille","lat":43.30134,"lon":5.398608,"is_reserved":false,"is_disabled":false,"rental_uris":{"android":"levelo://app?vid=12d3427d-8609-4011-be6d-478bad4167d6","ios":"levelo://app?vid=12d3427d-8609-4011-be6d-478bad4167d6"},"vehicle_type_id":"4","last_reported":1712415968,"current_range_meters":0,"station_id":"ce4bh0h2rcd13ifvqd40","pricing_plan_id":"cebpf4jnsgd1na2vs0mg"},{"bike_id":"395101a9-bfd1-4c18-9e5e-5ffd18d5697d","system_id":"levelo_inurba_marseille","lat":43.286961,"lon":5.373785,"is_reserved":false,"is_disabled":false,"rental_uris":{"android":"levelo://app?vid=395101a9-bfd1-4c18-9e5e-5ffd18d5697d","ios":"levelo://app?vid=395101a9-bfd1-4c18-9e5e-5ffd18d5697d"},"vehicle_type_id":"4","last_reported":1712415968,"current_range_meters":6400,"station_id":"ce4bh3p2rcd13ifvqdq0","pricing_plan_id":"cebpf4jnsgd1na2vs0mg"},{"bike_id":"f57cee3b-801e-484c-9d8e-e619f02d9f9d","system_id":"levelo_inurba_marseille","lat":43.286961,"lon":5.373785,"is_reserved":false,"is_disabled":false,"rental_uris":{"android":"levelo://app?vid=f57cee3b-801e-484c-9d8e-e619f02d9f9d","ios":"levelo://app?vid=f57cee3b-801e-484c-9d8e-e619f02d9f9d"},"vehicle_type_id":"4","last_reported":1712415968,"current_range_meters":6400,"station_id":"ce4bh3p2rcd13ifvqdq0","pricing_plan_id":"cebpf4jnsgd1na2vs0mg"},{"bike_id":"02795d8d-1f04-48f0-9431-ed0fef0aca18","system_id":"levelo_inurba_marseille","lat":43.298681,"lon":5.397225,"is_reserved":false,"is_disabled":false,"rental_uris":{"android":"levelo://app?vid=02795d8d-1f04-48f0-9431-ed0fef0aca18","ios":"levelo://app?vid=02795d8d-1f04-48f0-9431-ed0fef0aca18"},"vehicle_type_id":"4","last_reported":1712415968,"current_range_meters":0,"station_id":"ce4bh0h2rcd13ifvqd50","pricing_plan_id":"cebpf4jnsgd1na2vs0mg"},{"bike_id":"fdb6b080-bdae-495a-ac06-9a47ce65c480","system_id":"levelo_inurba_marseille","lat":43.28927,"lon":5.38382,"is_reserved":false,"is_disabled":false,"rental_uris":{"android":"levelo://app?vid=fdb6b080-bdae-495a-ac06-9a47ce65c480","ios":"levelo://app?vid=fdb6b080-bdae-495a-ac06-9a47ce65c480"},"vehicle_type_id":"4","last_reported":1712415968,"current_range_meters":8800,"station_id":"ce4bh612rcd13ifvqe6g","pricing_plan_id":"cebpf4jnsgd1na2vs0mg"},{"bike_id":"a8a21aed-3ebd-453d-a60b-c55540be89e1","system_id":"levelo_inurba_marseille","lat":43.28573,"lon":5.394992,"is_reserved":false,"is_disabled":false,"rental_uris":{"android":"levelo://app?vid=a8a21aed-3ebd-453d-a60b-c55540be89e1","ios":"levelo://app?vid=a8a21aed-3ebd-453d-a60b-c55540be89e1"},"vehicle_type_id":"4","last_reported":1712415968,"current_range_meters":24400,"station_id":"ce4bh292rcd13ifvqdg0","pricing_plan_id":"cebpf4jnsgd1na2vs0mg"},{"bike_id":"5756c558-eb4d-46da-898e-d3424f2827f0","system_id":"levelo_inurba_marseille","lat":43.28924,"lon":5.38407,"is_reserved":false,"is_disabled":false,"rental_uris":{"android":"levelo://app?vid=5756c558-eb4d-46da-898e-d3424f2827f0","ios":"levelo://app?vid=5756c558-eb4d-46da-898e-d3424f2827f0"},"vehicle_type_id":"4","last_reported":1712415968,"current_range_meters":0,"station_id":"ce4bh612rcd13ifvqe6g","pricing_plan_id":"cebpf4jnsgd1na2vs0mg"},{"bike_id":"db734973-d104-4f9e-b857-e19fa0ddc89d","system_id":"levelo_inurba_marseille","lat":43.302759,"lon":5.400793,"is_reserved":false,"is_disabled":false,"rental_uris":{"android":"levelo://app?vid=db734973-d104-4f9e-b857-e19fa0ddc89d","ios":"levelo://app?vid=db734973-d104-4f9e-b857-e19fa0ddc89d"},"vehicle_type_id":"4","last_reported":1712415968,"current_range_meters":19600,"station_id":"ce4bgvh2rcd13ifvqcs0","pricing_plan_id":"cebpf4jnsgd1na2vs0mg"},{"bike_id":"0ee0350e-46b8-4aa6-a153-bef6663c1bed","system_id":"levelo_inurba_marseille","lat":43.302759,"lon":5.400793,"is_reserved":false,"is_disabled":false,"rental_uris":{"android":"levelo://app?vid=0ee0350e-46b8-4aa6-a153-bef6663c1bed","ios":"levelo://app?vid=0ee0350e-46b8-4aa6-a153-bef6663c1bed"},"vehicle_type_id":"4","last_reported":1712415968,"current_range_meters":2000,"station_id":"ce4bgvh2rcd13ifvqcs0","pricing_plan_id":"cebpf4jnsgd1na2vs0mg"},{"bike_id":"dc1a9d95-4381-4cba-b7db-a11f1c16bdde","system_id":"levelo_inurba_marseille","lat":43.286039,"lon":5.370681,"is_reserved":false,"is_disabled":false,"rental_uris":{"android":"levelo://app?vid=dc1a9d95-4381-4cba-b7db-a11f1c16bdde","ios":"levelo://app?vid=dc1a9d95-4381-4cba-b7db-a11f1c16bdde"},"vehicle_type_id":"4","last_reported":1712415968,"current_range_meters":5200,"station_id":"ce4bht12rcd13ifvqi60","pricing_plan_id":"cebpf4jnsgd1na2vs0mg"},{"bike_id":"2725f883-0e4d-45a2-b6ee-3c43f9fff34f","system_id":"levelo_inurba_marseille","lat":43.287184,"lon":5.37937,"is_reserved":false,"is_disabled":false,"rental_uris":{"android":"levelo://app?vid=2725f883-0e4d-45a2-b6ee-3c43f9fff34f","ios":"levelo://app?vid=2725f883-0e4d-45a2-b6ee-3c43f9fff34f"},"vehicle_type_id":"4","last_reported":1712415968,"current_range_meters":8000,"station_id":"ce4bh9p2rcd13ifvqec0","pricing_plan_id":"cebpf4jnsgd1na2vs0mg"},{"bike_id":"b31f68d0-4830-4eed-bbba-94dde7fff043","system_id":"levelo_inurba_marseille","lat":43.287168,"lon":5.379275,"is_reserved":false,"is_disabled":false,"rental_uris":{"android":"levelo://app?vid=b31f68d0-4830-4eed-bbba-94dde7fff043","ios":"levelo://app?vid=b31f68d0-4830-4eed-bbba-94dde7fff043"},"vehicle_type_id":"4","last_reported":1712415968,"current_range_meters":27200,"station_id":"ce4bh9p2rcd13ifvqec0","pricing_plan_id":"cebpf4jnsgd1na2vs0mg"},{"bike_id":"5ae2e7b9-82d8-4bf2-b0aa-33b36c9b2ce3","system_id":"levelo_inurba_marseille","lat":43.284538,"lon":5.358657,"is_reserved":false,"is_disabled":false,"rental_uris":{"android":"levelo://app?vid=5ae2e7b9-82d8-4bf2-b0aa-33b36c9b2ce3","ios":"levelo://app?vid=5ae2e7b9-82d8-4bf2-b0aa-33b36c9b2ce3"},"vehicle_type_id":"4","last_reported":1712415968,"current_range_meters":9600,"station_id":"ce4bhah2rcd13ifvqei0","pricing_plan_id":"cebpf4jnsgd1na2vs0mg"},{"bike_id":"7b499c58-ccd2-4d89-ab1d-c0d227ac475b","system_id":"levelo_inurba_marseille","lat":43.284534,"lon":5.358662,"is_reserved":false,"is_disabled":false,"rental_uris":{"android":"levelo://app?vid=7b499c58-ccd2-4d89-ab1d-c0d227ac475b","ios":"levelo://app?vid=7b499c58-ccd2-4d89-ab1d-c0d227ac475b"},"vehicle_type_id":"4","last_reported":1712415968,"current_range_meters":0,"station_id":"ce4bhah2rcd13ifvqei0","pricing_plan_id":"cebpf4jnsgd1na2vs0mg"},{"bike_id":"b64afa45-72c7-4347-8150-732614de9e53","system_id":"levelo_inurba_marseille","lat":43.284538,"lon":5.358657,"is_reserved":false,"is_disabled":false,"rental_uris":{"android":"levelo://app?vid=b64afa45-72c7-4347-8150-732614de9e53","ios":"levelo://app?vid=b64afa45-72c7-4347-8150-732614de9e53"},"vehicle_type_id":"4","last_reported":1712415968,"current_range_meters":19600,"station_id":"ce4bhah2rcd13ifvqei0","pricing_plan_id":"cebpf4jnsgd1na2vs0mg"},{"bike_id":"0187a914-71ce-4c1b-af60-044de02eafe4","system_id":"levelo_inurba_marseille","lat":43.284534,"lon":5.358662,"is_reserved":false,"is_disabled":false,"rental_uris":{"android":"levelo://app?vid=0187a914-71ce-4c1b-af60-044de02eafe4","ios":"levelo://app?vid=0187a914-71ce-4c1b-af60-044de02eafe4"},"vehicle_type_id":"4","last_reported":1712415968,"current_range_meters":29200,"station_id":"ce4bhah2rcd13ifvqei0","pricing_plan_id":"cebpf4jnsgd1na2vs0mg"},{"bike_id":"7e334dd9-115c-45fa-81a9-aea765d90019","system_id":"levelo_inurba_marseille","lat":43.284534,"lon":5.358662,"is_reserved":false,"is_disabled":false,"rental_uris":{"android":"levelo://app?vid=7e334dd9-115c-45fa-81a9-aea765d90019","ios":"levelo://app?vid=7e334dd9-115c-45fa-81a9-aea765d90019"},"vehicle_type_id":"4","last_reported":1712415968,"current_range_meters":4400,"station_id":"ce4bhah2rcd13ifvqei0","pricing_plan_id":"cebpf4jnsgd1na2vs0mg"},{"bike_id":"6ae59426-5ecf-4928-a083-ef998b78e5d9","system_id":"levelo_inurba_marseille","lat":43.286424,"lon":5.383239,"is_reserved":false,"is_disabled":false,"rental_uris":{"android":"levelo://app?vid=6ae59426-5ecf-4928-a083-ef998b78e5d9","ios":"levelo://app?vid=6ae59426-5ecf-4928-a083-ef998b78e5d9"},"vehicle_type_id":"4","last_reported":1712415968,"current_range_meters":24400,"station_id":"","pricing_plan_id":"cebpf4jnsgd1na2vs0mg"},{"bike_id":"f4ff6112-d65e-435c-bec6-87954e26baa7","system_id":"levelo_inurba_marseille","lat":43.302759,"lon":5.400793,"is_reserved":false,"is_disabled":false,"rental_uris":{"android":"levelo://app?vid=f4ff6112-d65e-435c-bec6-87954e26baa7","ios":"levelo://app?vid=f4ff6112-d65e-435c-bec6-87954e26baa7"},"vehicle_type_id":"4","last_reported":1712415968,"current_range_meters":1200,"station_id":"ce4bgvh2rcd13ifvqcs0","pricing_plan_id":"cebpf4jnsgd1na2vs0mg"},{"bike_id":"9a57c783-a36b-471f-bb2f-073b6cfd3f3e","system_id":"levelo_inurba_marseille","lat":43.293009,"lon":5.374584,"is_reserved":false,"is_disabled":false,"rental_uris":{"android":"levelo://app?vid=9a57c783-a36b-471f-bb2f-073b6cfd3f3e","ios":"levelo://app?vid=9a57c783-a36b-471f-bb2f-073b6cfd3f3e"},"vehicle_type_id":"4","last_reported":1712415968,"current_range_meters":0,"station_id":"ce4bgi12rcd13ifvqb70","pricing_plan_id":"cebpf4jnsgd1na2vs0mg"},{"bike_id":"c566698f-3b30-477c-bc6a-a4969bd3ec2e","system_id":"levelo_inurba_marseille","lat":43.285856,"lon":5.350771,"is_reserved":false,"is_disabled":false,"rental_uris":{"android":"levelo://app?vid=c566698f-3b30-477c-bc6a-a4969bd3ec2e","ios":"levelo://app?vid=c566698f-3b30-477c-bc6a-a4969bd3ec2e"},"vehicle_type_id":"4","last_reported":1712415968,"current_range_meters":7200,"station_id":"ce4bhch2rcd13ifvqeug","pricing_plan_id":"cebpf4jnsgd1na2vs0mg"},{"bike_id":"f11a5995-1775-40cf-bab8-7f1739fa5d49","system_id":"levelo_inurba_marseille","lat":43.28616,"lon":5.35111,"is_reserved":false,"is_disabled":false,"rental_uris":{"android":"levelo://app?vid=f11a5995-1775-40cf-bab8-7f1739fa5d49","ios":"levelo://app?vid=f11a5995-1775-40cf-bab8-7f1739fa5d49"},"vehicle_type_id":"4","last_reported":1712415968,"current_range_meters":0,"station_id":"ce4bhch2rcd13ifvqeug","pricing_plan_id":"cebpf4jnsgd1na2vs0mg"},{"bike_id":"f64d9139-42f3-43e1-a127-81d83568af74","system_id":"levelo_inurba_marseille","lat":43.28615,"lon":5.35102,"is_reserved":false,"is_disabled":false,"rental_uris":{"android":"levelo://app?vid=f64d9139-42f3-43e1-a127-81d83568af74","ios":"levelo://app?vid=f64d9139-42f3-43e1-a127-81d83568af74"},"vehicle_type_id":"4","last_reported":1712415968,"current_range_meters":0,"station_id":"ce4bhch2rcd13ifvqeug","pricing_plan_id":"cebpf4jnsgd1na2vs0mg"},{"bike_id":"e3913e22-dbc6-48a4-b075-dcd48c37276d","system_id":"levelo_inurba_marseille","lat":43.285848,"lon":5.350787,"is_reserved":false,"is_disabled":false,"rental_uris":{"android":"levelo://app?vid=e3913e22-dbc6-48a4-b075-dcd48c37276d","ios":"levelo://app?vid=e3913e22-dbc6-48a4-b075-dcd48c37276d"},"vehicle_type_id":"4","last_reported":1712415968,"current_range_meters":0,"station_id":"ce4bhch2rcd13ifvqeug","pricing_plan_id":"cebpf4jnsgd1na2vs0mg"},{"bike_id":"e01ff5fa-1b92-4f0c-946d-d7b70bca91eb","system_id":"levelo_inurba_marseille","lat":43.283998,"lon":5.375062,"is_reserved":false,"is_disabled":false,"rental_uris":{"android":"levelo://app?vid=e01ff5fa-1b92-4f0c-946d-d7b70bca91eb","ios":"levelo://app?vid=e01ff5fa-1b92-4f0c-946d-d7b70bca91eb"},"vehicle_type_id":"4","last_reported":1712415968,"current_range_meters":0,"station_id":"ce4bh412rcd13ifvqds0","pricing_plan_id":"cebpf4jnsgd1na2vs0mg"},{"bike_id":"b5706db3-33ae-478c-9250-695a7fe807b4","system_id":"levelo_inurba_marseille","lat":43.286595,"lon":5.386795,"is_reserved":false,"is_disabled":false,"rental_uris":{"android":"levelo://app?vid=b5706db3-33ae-478c-9250-695a7fe807b4","ios":"levelo://app?vid=b5706db3-33ae-478c-9250-695a7fe807b4"},"vehicle_type_id":"4","last_reported":1712415968,"current_range_meters":22400,"station_id":"ce4bh492rcd13ifvqdug","pricing_plan_id":"cebpf4jnsgd1na2vs0mg"},{"bike_id":"7e4d65c2-b01c-4c91-bcb6-b81d0eef21fd","system_id":"levelo_inurba_marseille","lat":43.319179,"lon":5.407725,"is_reserved":false,"is_disabled":false,"rental_uris":{"android":"levelo://app?vid=7e4d65c2-b01c-4c91-bcb6-b81d0eef21fd","ios":"levelo://app?vid=7e4d65c2-b01c-4c91-bcb6-b81d0eef21fd"},"vehicle_type_id":"4","last_reported":1712415968,"current_range_meters":8000,"station_id":"ce4bhq12rcd13ifvqhig","pricing_plan_id":"cebpf4jnsgd1na2vs0mg"},{"bike_id":"a936c9f4-21b2-41ac-b920-61e8b40d8e43","system_id":"levelo_inurba_marseille","lat":43.319179,"lon":5.407725,"is_reserved":false,"is_disabled":false,"rental_uris":{"android":"levelo://app?vid=a936c9f4-21b2-41ac-b920-61e8b40d8e43","ios":"levelo://app?vid=a936c9f4-21b2-41ac-b920-61e8b40d8e43"},"vehicle_type_id":"4","last_reported":1712415968,"current_range_meters":20800,"station_id":"ce4bhq12rcd13ifvqhig","pricing_plan_id":"cebpf4jnsgd1na2vs0mg"},{"bike_id":"ec19f8ce-c9ee-450b-a419-773231f14327","system_id":"levelo_inurba_marseille","lat":43.337168,"lon":5.391825,"is_reserved":false,"is_disabled":false,"rental_uris":{"android":"levelo://app?vid=ec19f8ce-c9ee-450b-a419-773231f14327","ios":"levelo://app?vid=ec19f8ce-c9ee-450b-a419-773231f14327"},"vehicle_type_id":"4","last_reported":1712415968,"current_range_meters":31200,"station_id":"ce4bhr92rcd13ifvqhsg","pricing_plan_id":"cebpf4jnsgd1na2vs0mg"},{"bike_id":"e76e4a64-f734-4e7b-a2e0-975011aa301c","system_id":"levelo_inurba_marseille","lat":43.337168,"lon":5.391825,"is_reserved":false,"is_disabled":false,"rental_uris":{"android":"levelo://app?vid=e76e4a64-f734-4e7b-a2e0-975011aa301c","ios":"levelo://app?vid=e76e4a64-f734-4e7b-a2e0-975011aa301c"},"vehicle_type_id":"4","last_reported":1712415968,"current_range_meters":20400,"station_id":"ce4bhr92rcd13ifvqhsg","pricing_plan_id":"cebpf4jnsgd1na2vs0mg"},{"bike_id":"5c371ace-8815-47a2-98e4-6b9611565400","system_id":"levelo_inurba_marseille","lat":43.3235,"lon":5.40628,"is_reserved":false,"is_disabled":false,"rental_uris":{"android":"levelo://app?vid=5c371ace-8815-47a2-98e4-6b9611565400","ios":"levelo://app?vid=5c371ace-8815-47a2-98e4-6b9611565400"},"vehicle_type_id":"4","last_reported":1712415968,"current_range_meters":5200,"station_id":"ce4bhq92rcd13ifvqhjg","pricing_plan_id":"cebpf4jnsgd1na2vs0mg"},{"bike_id":"ab44352d-be7f-4538-9931-8d972e31970a","system_id":"levelo_inurba_marseille","lat":43.283494,"lon":5.380945,"is_reserved":false,"is_disabled":false,"rental_uris":{"android":"levelo://app?vid=ab44352d-be7f-4538-9931-8d972e31970a","ios":"levelo://app?vid=ab44352d-be7f-4538-9931-8d972e31970a"},"vehicle_type_id":"4","last_reported":1712415968,"current_range_meters":6400,"station_id":"ce4bh412rcd13ifvqdr0","pricing_plan_id":"cebpf4jnsgd1na2vs0mg"},{"bike_id":"00794e69-f6b6-45d6-843b-9b061fc6d6be","system_id":"levelo_inurba_marseille","lat":43.287884,"lon":5.391435,"is_reserved":false,"is_disabled":false,"rental_uris":{"android":"levelo://app?vid=00794e69-f6b6-45d6-843b-9b061fc6d6be","ios":"levelo://app?vid=00794e69-f6b6-45d6-843b-9b061fc6d6be"},"vehicle_type_id":"4","last_reported":1712415968,"current_range_meters":5200,"station_id":"","pricing_plan_id":"cebpf4jnsgd1na2vs0mg"},{"bike_id":"3cde9b0c-e338-45de-8fda-156005e52fa7","system_id":"levelo_inurba_marseille","lat":43.297946,"lon":5.404063,"is_reserved":false,"is_disabled":false,"rental_uris":{"android":"levelo://app?vid=3cde9b0c-e338-45de-8fda-156005e52fa7","ios":"levelo://app?vid=3cde9b0c-e338-45de-8fda-156005e52fa7"},"vehicle_type_id":"4","last_reported":1712415968,"current_range_meters":7200,"station_id":"ce4bh112rcd13ifvqd90","pricing_plan_id":"cebpf4jnsgd1na2vs0mg"},{"bike_id":"538aca99-0a60-42ee-b511-f7950728b4c0","system_id":"levelo_inurba_marseille","lat":43.288497,"lon":5.393089,"is_reserved":false,"is_disabled":false,"rental_uris":{"android":"levelo://app?vid=538aca99-0a60-42ee-b511-f7950728b4c0","ios":"levelo://app?vid=538aca99-0a60-42ee-b511-f7950728b4c0"},"vehicle_type_id":"4","last_reported":1712415968,"current_range_meters":0,"station_id":"ce4bh2p2rcd13ifvqdi0","pricing_plan_id":"cebpf4jnsgd1na2vs0mg"},{"bike_id":"6e72158b-642d-4bf5-bd16-244777b5773e","system_id":"levelo_inurba_marseille","lat":43.288497,"lon":5.393089,"is_reserved":false,"is_disabled":false,"rental_uris":{"android":"levelo://app?vid=6e72158b-642d-4bf5-bd16-244777b5773e","ios":"levelo://app?vid=6e72158b-642d-4bf5-bd16-244777b5773e"},"vehicle_type_id":"4","last_reported":1712415968,"current_range_meters":0,"station_id":"ce4bh2p2rcd13ifvqdi0","pricing_plan_id":"cebpf4jnsgd1na2vs0mg"},{"bike_id":"4cfeaafc-eb2e-4906-a629-98c12ba3b45b","system_id":"levelo_inurba_marseille","lat":43.283494,"lon":5.380945,"is_reserved":false,"is_disabled":false,"rental_uris":{"android":"levelo://app?vid=4cfeaafc-eb2e-4906-a629-98c12ba3b45b","ios":"levelo://app?vid=4cfeaafc-eb2e-4906-a629-98c12ba3b45b"},"vehicle_type_id":"4","last_reported":1712415968,"current_range_meters":2000,"station_id":"ce4bh412rcd13ifvqdr0","pricing_plan_id":"cebpf4jnsgd1na2vs0mg"},{"bike_id":"02f5fcaf-b044-4dcf-8ab2-0503e7733f4b","system_id":"levelo_inurba_marseille","lat":43.283498,"lon":5.380948,"is_reserved":false,"is_disabled":false,"rental_uris":{"android":"levelo://app?vid=02f5fcaf-b044-4dcf-8ab2-0503e7733f4b","ios":"levelo://app?vid=02f5fcaf-b044-4dcf-8ab2-0503e7733f4b"},"vehicle_type_id":"4","last_reported":1712415968,"current_range_meters":21200,"station_id":"ce4bh412rcd13ifvqdr0","pricing_plan_id":"cebpf4jnsgd1na2vs0mg"},{"bike_id":"c636032c-cfa4-4786-8b0d-60e4c418e4a3","system_id":"levelo_inurba_marseille","lat":43.28429,"lon":5.34994,"is_reserved":false,"is_disabled":false,"rental_uris":{"android":"levelo://app?vid=c636032c-cfa4-4786-8b0d-60e4c418e4a3","ios":"levelo://app?vid=c636032c-cfa4-4786-8b0d-60e4c418e4a3"},"vehicle_type_id":"4","last_reported":1712415968,"current_range_meters":11200,"station_id":"ce4bhbh2rcd13ifvqepg","pricing_plan_id":"cebpf4jnsgd1na2vs0mg"},{"bike_id":"277580f7-8fd0-4b7c-9f4a-93edb83110cb","system_id":"levelo_inurba_marseille","lat":43.28429,"lon":5.34993,"is_reserved":false,"is_disabled":false,"rental_uris":{"android":"levelo://app?vid=277580f7-8fd0-4b7c-9f4a-93edb83110cb","ios":"levelo://app?vid=277580f7-8fd0-4b7c-9f4a-93edb83110cb"},"vehicle_type_id":"4","last_reported":1712415968,"current_range_meters":0,"station_id":"ce4bhbh2rcd13ifvqepg","pricing_plan_id":"cebpf4jnsgd1na2vs0mg"},{"bike_id":"62a265d1-8834-4f07-aec5-6e63284e4704","system_id":"levelo_inurba_marseille","lat":43.284288,"lon":5.349892,"is_reserved":false,"is_disabled":false,"rental_uris":{"android":"levelo://app?vid=62a265d1-8834-4f07-aec5-6e63284e4704","ios":"levelo://app?vid=62a265d1-8834-4f07-aec5-6e63284e4704"},"vehicle_type_id":"4","last_reported":1712415968,"current_range_meters":10400,"station_id":"ce4bhbh2rcd13ifvqepg","pricing_plan_id":"cebpf4jnsgd1na2vs0mg"},{"bike_id":"006cea23-9849-4bd9-8159-7eac2da36164","system_id":"levelo_inurba_marseille","lat":43.284214,"lon":5.349706,"is_reserved":false,"is_disabled":false,"rental_uris":{"android":"levelo://app?vid=006cea23-9849-4bd9-8159-7eac2da36164","ios":"levelo://app?vid=006cea23-9849-4bd9-8159-7eac2da36164"},"vehicle_type_id":"4","last_reported":1712415968,"current_range_meters":8800,"station_id":"ce4bhbh2rcd13ifvqepg","pricing_plan_id":"cebpf4jnsgd1na2vs0mg"},{"bike_id":"439bf037-696c-4fbe-af7d-d9d314be156a","system_id":"levelo_inurba_marseille","lat":43.283494,"lon":5.380945,"is_reserved":false,"is_disabled":false,"rental_uris":{"android":"levelo://app?vid=439bf037-696c-4fbe-af7d-d9d314be156a","ios":"levelo://app?vid=439bf037-696c-4fbe-af7d-d9d314be156a"},"vehicle_type_id":"4","last_reported":1712415968,"current_range_meters":0,"station_id":"ce4bh412rcd13ifvqdr0","pricing_plan_id":"cebpf4jnsgd1na2vs0mg"},{"bike_id":"ce7bb308-75d4-437b-8d9d-94b3c16c1492","system_id":"levelo_inurba_marseille","lat":43.28426,"lon":5.34993,"is_reserved":false,"is_disabled":false,"rental_uris":{"android":"levelo://app?vid=ce7bb308-75d4-437b-8d9d-94b3c16c1492","ios":"levelo://app?vid=ce7bb308-75d4-437b-8d9d-94b3c16c1492"},"vehicle_type_id":"4","last_reported":1712415968,"current_range_meters":31200,"station_id":"ce4bhbh2rcd13ifvqepg","pricing_plan_id":"cebpf4jnsgd1na2vs0mg"},{"bike_id":"0e781c78-6ffd-412a-9ae4-53c8dd221125","system_id":"levelo_inurba_marseille","lat":43.28425,"lon":5.34994,"is_reserved":false,"is_disabled":false,"rental_uris":{"android":"levelo://app?vid=0e781c78-6ffd-412a-9ae4-53c8dd221125","ios":"levelo://app?vid=0e781c78-6ffd-412a-9ae4-53c8dd221125"},"vehicle_type_id":"4","last_reported":1712415968,"current_range_meters":18800,"station_id":"ce4bhbh2rcd13ifvqepg","pricing_plan_id":"cebpf4jnsgd1na2vs0mg"},{"bike_id":"2615c71c-c441-41a5-8a10-935268ab40ce","system_id":"levelo_inurba_marseille","lat":43.284215,"lon":5.35001,"is_reserved":false,"is_disabled":false,"rental_uris":{"android":"levelo://app?vid=2615c71c-c441-41a5-8a10-935268ab40ce","ios":"levelo://app?vid=2615c71c-c441-41a5-8a10-935268ab40ce"},"vehicle_type_id":"4","last_reported":1712415968,"current_range_meters":0,"station_id":"ce4bhbh2rcd13ifvqepg","pricing_plan_id":"cebpf4jnsgd1na2vs0mg"},{"bike_id":"05377503-839e-43e6-b21a-e0f1bb5c925a","system_id":"levelo_inurba_marseille","lat":43.284214,"lon":5.349706,"is_reserved":false,"is_disabled":false,"rental_uris":{"android":"levelo://app?vid=05377503-839e-43e6-b21a-e0f1bb5c925a","ios":"levelo://app?vid=05377503-839e-43e6-b21a-e0f1bb5c925a"},"vehicle_type_id":"4","last_reported":1712415968,"current_range_meters":22400,"station_id":"ce4bhbh2rcd13ifvqepg","pricing_plan_id":"cebpf4jnsgd1na2vs0mg"},{"bike_id":"6b7b7133-edea-4558-ae7c-039faecca6d7","system_id":"levelo_inurba_marseille","lat":43.284214,"lon":5.349706,"is_reserved":false,"is_disabled":false,"rental_uris":{"android":"levelo://app?vid=6b7b7133-edea-4558-ae7c-039faecca6d7","ios":"levelo://app?vid=6b7b7133-edea-4558-ae7c-039faecca6d7"},"vehicle_type_id":"4","last_reported":1712415968,"current_range_meters":11600,"station_id":"ce4bhbh2rcd13ifvqepg","pricing_plan_id":"cebpf4jnsgd1na2vs0mg"},{"bike_id":"a5d6011e-381c-4885-bc25-4cffe6dc6c39","system_id":"levelo_inurba_marseille","lat":43.284214,"lon":5.349706,"is_reserved":false,"is_disabled":false,"rental_uris":{"android":"levelo://app?vid=a5d6011e-381c-4885-bc25-4cffe6dc6c39","ios":"levelo://app?vid=a5d6011e-381c-4885-bc25-4cffe6dc6c39"},"vehicle_type_id":"4","last_reported":1712415968,"current_range_meters":29600,"station_id":"ce4bhbh2rcd13ifvqepg","pricing_plan_id":"cebpf4jnsgd1na2vs0mg"},{"bike_id":"a95501e3-9ebd-443f-91df-ca1263f83cd2","system_id":"levelo_inurba_marseille","lat":43.284238,"lon":5.349858,"is_reserved":false,"is_disabled":false,"rental_uris":{"android":"levelo://app?vid=a95501e3-9ebd-443f-91df-ca1263f83cd2","ios":"levelo://app?vid=a95501e3-9ebd-443f-91df-ca1263f83cd2"},"vehicle_type_id":"4","last_reported":1712415968,"current_range_meters":30400,"station_id":"ce4bhbh2rcd13ifvqepg","pricing_plan_id":"cebpf4jnsgd1na2vs0mg"},{"bike_id":"11e466c1-ce6c-4577-a77f-0f70d6ee3c4e","system_id":"levelo_inurba_marseille","lat":43.28423,"lon":5.349871,"is_reserved":false,"is_disabled":false,"rental_uris":{"android":"levelo://app?vid=11e466c1-ce6c-4577-a77f-0f70d6ee3c4e","ios":"levelo://app?vid=11e466c1-ce6c-4577-a77f-0f70d6ee3c4e"},"vehicle_type_id":"4","last_reported":1712415968,"current_range_meters":15600,"station_id":"ce4bhbh2rcd13ifvqepg","pricing_plan_id":"cebpf4jnsgd1na2vs0mg"},{"bike_id":"09eb833e-ea46-4957-98e9-09a92ef77301","system_id":"levelo_inurba_marseille","lat":43.284214,"lon":5.349706,"is_reserved":false,"is_disabled":false,"rental_uris":{"android":"levelo://app?vid=09eb833e-ea46-4957-98e9-09a92ef77301","ios":"levelo://app?vid=09eb833e-ea46-4957-98e9-09a92ef77301"},"vehicle_type_id":"4","last_reported":1712415968,"current_range_meters":7600,"station_id":"ce4bhbh2rcd13ifvqepg","pricing_plan_id":"cebpf4jnsgd1na2vs0mg"},{"bike_id":"22d667f9-da73-42cf-889d-7a87cc9e9815","system_id":"levelo_inurba_marseille","lat":43.28421,"lon":5.34988,"is_reserved":false,"is_disabled":false,"rental_uris":{"android":"levelo://app?vid=22d667f9-da73-42cf-889d-7a87cc9e9815","ios":"levelo://app?vid=22d667f9-da73-42cf-889d-7a87cc9e9815"},"vehicle_type_id":"4","last_reported":1712415968,"current_range_meters":22800,"station_id":"ce4bhbh2rcd13ifvqepg","pricing_plan_id":"cebpf4jnsgd1na2vs0mg"},{"bike_id":"821fbbca-1fbe-46fd-b670-f2e70a4d5f4b","system_id":"levelo_inurba_marseille","lat":43.28424,"lon":5.34977,"is_reserved":false,"is_disabled":false,"rental_uris":{"android":"levelo://app?vid=821fbbca-1fbe-46fd-b670-f2e70a4d5f4b","ios":"levelo://app?vid=821fbbca-1fbe-46fd-b670-f2e70a4d5f4b"},"vehicle_type_id":"4","last_reported":1712415968,"current_range_meters":21200,"station_id":"ce4bhbh2rcd13ifvqepg","pricing_plan_id":"cebpf4jnsgd1na2vs0mg"},{"bike_id":"8ed94bdf-aa56-4dd0-9a23-a90d871006d8","system_id":"levelo_inurba_marseille","lat":43.284191,"lon":5.349906,"is_reserved":false,"is_disabled":false,"rental_uris":{"android":"levelo://app?vid=8ed94bdf-aa56-4dd0-9a23-a90d871006d8","ios":"levelo://app?vid=8ed94bdf-aa56-4dd0-9a23-a90d871006d8"},"vehicle_type_id":"4","last_reported":1712415968,"current_range_meters":18800,"station_id":"ce4bhbh2rcd13ifvqepg","pricing_plan_id":"cebpf4jnsgd1na2vs0mg"},{"bike_id":"9a0dce56-e2c6-4b6a-a9cb-880609f956af","system_id":"levelo_inurba_marseille","lat":43.284206,"lon":5.349851,"is_reserved":false,"is_disabled":false,"rental_uris":{"android":"levelo://app?vid=9a0dce56-e2c6-4b6a-a9cb-880609f956af","ios":"levelo://app?vid=9a0dce56-e2c6-4b6a-a9cb-880609f956af"},"vehicle_type_id":"4","last_reported":1712415968,"current_range_meters":29200,"station_id":"ce4bhbh2rcd13ifvqepg","pricing_plan_id":"cebpf4jnsgd1na2vs0mg"},{"bike_id":"0fdc44ad-2978-486d-910c-1fb6f5bf5603","system_id":"levelo_inurba_marseille","lat":43.284192,"lon":5.349884,"is_reserved":false,"is_disabled":false,"rental_uris":{"android":"levelo://app?vid=0fdc44ad-2978-486d-910c-1fb6f5bf5603","ios":"levelo://app?vid=0fdc44ad-2978-486d-910c-1fb6f5bf5603"},"vehicle_type_id":"4","last_reported":1712415968,"current_range_meters":31200,"station_id":"ce4bhbh2rcd13ifvqepg","pricing_plan_id":"cebpf4jnsgd1na2vs0mg"},{"bike_id":"e720f177-d09f-4c13-9d14-b009a17daa66","system_id":"levelo_inurba_marseille","lat":43.28417,"lon":5.34995,"is_reserved":false,"is_disabled":false,"rental_uris":{"android":"levelo://app?vid=e720f177-d09f-4c13-9d14-b009a17daa66","ios":"levelo://app?vid=e720f177-d09f-4c13-9d14-b009a17daa66"},"vehicle_type_id":"4","last_reported":1712415968,"current_range_meters":3200,"station_id":"ce4bhbh2rcd13ifvqepg","pricing_plan_id":"cebpf4jnsgd1na2vs0mg"},{"bike_id":"256187f6-1f70-4295-ace7-105cb21da54c","system_id":"levelo_inurba_marseille","lat":43.284199,"lon":5.349857,"is_reserved":false,"is_disabled":false,"rental_uris":{"android":"levelo://app?vid=256187f6-1f70-4295-ace7-105cb21da54c","ios":"levelo://app?vid=256187f6-1f70-4295-ace7-105cb21da54c"},"vehicle_type_id":"4","last_reported":1712415968,"current_range_meters":25200,"station_id":"ce4bhbh2rcd13ifvqepg","pricing_plan_id":"cebpf4jnsgd1na2vs0mg"},{"bike_id":"639eabb1-35c9-4891-82ea-dd9a90e70991","system_id":"levelo_inurba_marseille","lat":43.284214,"lon":5.349706,"is_reserved":false,"is_disabled":false,"rental_uris":{"android":"levelo://app?vid=639eabb1-35c9-4891-82ea-dd9a90e70991","ios":"levelo://app?vid=639eabb1-35c9-4891-82ea-dd9a90e70991"},"vehicle_type_id":"4","last_reported":1712415968,"current_range_meters":24400,"station_id":"ce4bhbh2rcd13ifvqepg","pricing_plan_id":"cebpf4jnsgd1na2vs0mg"},{"bike_id":"be95044e-63ef-487c-a592-e2fff3387cb7","system_id":"levelo_inurba_marseille","lat":43.28422,"lon":5.34978,"is_reserved":false,"is_disabled":false,"rental_uris":{"android":"levelo://app?vid=be95044e-63ef-487c-a592-e2fff3387cb7","ios":"levelo://app?vid=be95044e-63ef-487c-a592-e2fff3387cb7"},"vehicle_type_id":"4","last_reported":1712415968,"current_range_meters":10800,"station_id":"ce4bhbh2rcd13ifvqepg","pricing_plan_id":"cebpf4jnsgd1na2vs0mg"},{"bike_id":"9ed78da7-e9be-47da-b365-70c2cc6942d4","system_id":"levelo_inurba_marseille","lat":43.28419,"lon":5.349874,"is_reserved":false,"is_disabled":false,"rental_uris":{"android":"levelo://app?vid=9ed78da7-e9be-47da-b365-70c2cc6942d4","ios":"levelo://app?vid=9ed78da7-e9be-47da-b365-70c2cc6942d4"},"vehicle_type_id":"4","last_reported":1712415968,"current_range_meters":31200,"station_id":"ce4bhbh2rcd13ifvqepg","pricing_plan_id":"cebpf4jnsgd1na2vs0mg"},{"bike_id":"684b17fd-8f80-4a86-bf5e-e437d16b2fd7","system_id":"levelo_inurba_marseille","lat":43.28416,"lon":5.34995,"is_reserved":false,"is_disabled":false,"rental_uris":{"android":"levelo://app?vid=684b17fd-8f80-4a86-bf5e-e437d16b2fd7","ios":"levelo://app?vid=684b17fd-8f80-4a86-bf5e-e437d16b2fd7"},"vehicle_type_id":"4","last_reported":1712415968,"current_range_meters":18000,"station_id":"ce4bhbh2rcd13ifvqepg","pricing_plan_id":"cebpf4jnsgd1na2vs0mg"},{"bike_id":"491d5efd-b7b7-4c14-ab22-5c3443ef4588","system_id":"levelo_inurba_marseille","lat":43.28418,"lon":5.34988,"is_reserved":false,"is_disabled":false,"rental_uris":{"android":"levelo://app?vid=491d5efd-b7b7-4c14-ab22-5c3443ef4588","ios":"levelo://app?vid=491d5efd-b7b7-4c14-ab22-5c3443ef4588"},"vehicle_type_id":"4","last_reported":1712415968,"current_range_meters":29200,"station_id":"ce4bhbh2rcd13ifvqepg","pricing_plan_id":"cebpf4jnsgd1na2vs0mg"},{"bike_id":"6125feb7-a04d-4854-b6b9-21700512b0c3","system_id":"levelo_inurba_marseille","lat":43.2842,"lon":5.34981,"is_reserved":false,"is_disabled":false,"rental_uris":{"android":"levelo://app?vid=6125feb7-a04d-4854-b6b9-21700512b0c3","ios":"levelo://app?vid=6125feb7-a04d-4854-b6b9-21700512b0c3"},"vehicle_type_id":"4","last_reported":1712415968,"current_range_meters":0,"station_id":"ce4bhbh2rcd13ifvqepg","pricing_plan_id":"cebpf4jnsgd1na2vs0mg"},{"bike_id":"69eff2c1-4843-4a88-94bf-f2e8291e6c6f","system_id":"levelo_inurba_marseille","lat":43.28417,"lon":5.34988,"is_reserved":false,"is_disabled":false,"rental_uris":{"android":"levelo://app?vid=69eff2c1-4843-4a88-94bf-f2e8291e6c6f","ios":"levelo://app?vid=69eff2c1-4843-4a88-94bf-f2e8291e6c6f"},"vehicle_type_id":"4","last_reported":1712415968,"current_range_meters":5600,"station_id":"ce4bhbh2rcd13ifvqepg","pricing_plan_id":"cebpf4jnsgd1na2vs0mg"},{"bike_id":"dad2d062-2c74-49cd-9498-1fb282e66adf","system_id":"levelo_inurba_marseille","lat":43.284176,"lon":5.349854,"is_reserved":false,"is_disabled":false,"rental_uris":{"android":"levelo://app?vid=dad2d062-2c74-49cd-9498-1fb282e66adf","ios":"levelo://app?vid=dad2d062-2c74-49cd-9498-1fb282e66adf"},"vehicle_type_id":"4","last_reported":1712415968,"current_range_meters":14000,"station_id":"ce4bhbh2rcd13ifvqepg","pricing_plan_id":"cebpf4jnsgd1na2vs0mg"},{"bike_id":"9ebe163b-7871-4863-8bba-f11c8bcde87e","system_id":"levelo_inurba_marseille","lat":43.28418,"lon":5.34981,"is_reserved":false,"is_disabled":false,"rental_uris":{"android":"levelo://app?vid=9ebe163b-7871-4863-8bba-f11c8bcde87e","ios":"levelo://app?vid=9ebe163b-7871-4863-8bba-f11c8bcde87e"},"vehicle_type_id":"4","last_reported":1712415968,"current_range_meters":15600,"station_id":"ce4bhbh2rcd13ifvqepg","pricing_plan_id":"cebpf4jnsgd1na2vs0mg"},{"bike_id":"0cbd96c6-026c-4742-b493-2f0f28ad42f9","system_id":"levelo_inurba_marseille","lat":43.28417,"lon":5.34984,"is_reserved":false,"is_disabled":false,"rental_uris":{"android":"levelo://app?vid=0cbd96c6-026c-4742-b493-2f0f28ad42f9","ios":"levelo://app?vid=0cbd96c6-026c-4742-b493-2f0f28ad42f9"},"vehicle_type_id":"4","last_reported":1712415968,"current_range_meters":6000,"station_id":"ce4bhbh2rcd13ifvqepg","pricing_plan_id":"cebpf4jnsgd1na2vs0mg"},{"bike_id":"75328eb3-ab3a-455e-98cb-13ae351b08b7","system_id":"levelo_inurba_marseille","lat":43.28417,"lon":5.349829,"is_reserved":false,"is_disabled":false,"rental_uris":{"android":"levelo://app?vid=75328eb3-ab3a-455e-98cb-13ae351b08b7","ios":"levelo://app?vid=75328eb3-ab3a-455e-98cb-13ae351b08b7"},"vehicle_type_id":"4","last_reported":1712415968,"current_range_meters":14400,"station_id":"ce4bhbh2rcd13ifvqepg","pricing_plan_id":"cebpf4jnsgd1na2vs0mg"},{"bike_id":"2c576ceb-f4f9-44b9-a9ff-4012b30cb418","system_id":"levelo_inurba_marseille","lat":43.284159,"lon":5.34983,"is_reserved":false,"is_disabled":false,"rental_uris":{"android":"levelo://app?vid=2c576ceb-f4f9-44b9-a9ff-4012b30cb418","ios":"levelo://app?vid=2c576ceb-f4f9-44b9-a9ff-4012b30cb418"},"vehicle_type_id":"4","last_reported":1712415968,"current_range_meters":14800,"station_id":"ce4bhbh2rcd13ifvqepg","pricing_plan_id":"cebpf4jnsgd1na2vs0mg"},{"bike_id":"9fb6aa50-c5cd-43d3-986a-848e2437092c","system_id":"levelo_inurba_marseille","lat":43.284162,"lon":5.349808,"is_reserved":false,"is_disabled":false,"rental_uris":{"android":"levelo://app?vid=9fb6aa50-c5cd-43d3-986a-848e2437092c","ios":"levelo://app?vid=9fb6aa50-c5cd-43d3-986a-848e2437092c"},"vehicle_type_id":"4","last_reported":1712415968,"current_range_meters":400,"station_id":"ce4bhbh2rcd13ifvqepg","pricing_plan_id":"cebpf4jnsgd1na2vs0mg"},{"bike_id":"c481b2ab-4e09-4d1c-9ce0-d22ecbef54f2","system_id":"levelo_inurba_marseille","lat":43.284134,"lon":5.349895,"is_reserved":false,"is_disabled":false,"rental_uris":{"android":"levelo://app?vid=c481b2ab-4e09-4d1c-9ce0-d22ecbef54f2","ios":"levelo://app?vid=c481b2ab-4e09-4d1c-9ce0-d22ecbef54f2"},"vehicle_type_id":"4","last_reported":1712415968,"current_range_meters":800,"station_id":"ce4bhbp2rcd13ifvqesg","pricing_plan_id":"cebpf4jnsgd1na2vs0mg"},{"bike_id":"4e4167be-3e0d-4c61-a362-26bb601baae1","system_id":"levelo_inurba_marseille","lat":43.28415,"lon":5.34981,"is_reserved":false,"is_disabled":false,"rental_uris":{"android":"levelo://app?vid=4e4167be-3e0d-4c61-a362-26bb601baae1","ios":"levelo://app?vid=4e4167be-3e0d-4c61-a362-26bb601baae1"},"vehicle_type_id":"4","last_reported":1712415968,"current_range_meters":20000,"station_id":"ce4bhbh2rcd13ifvqepg","pricing_plan_id":"cebpf4jnsgd1na2vs0mg"},{"bike_id":"e2141cce-eb53-43ce-b950-59218ddd9ebc","system_id":"levelo_inurba_marseille","lat":43.28405,"lon":5.34985,"is_reserved":false,"is_disabled":false,"rental_uris":{"android":"levelo://app?vid=e2141cce-eb53-43ce-b950-59218ddd9ebc","ios":"levelo://app?vid=e2141cce-eb53-43ce-b950-59218ddd9ebc"},"vehicle_type_id":"4","last_reported":1712415968,"current_range_meters":8000,"station_id":"ce4bhbh2rcd13ifvqepg","pricing_plan_id":"cebpf4jnsgd1na2vs0mg"},{"bike_id":"1cef59e9-66fc-4a92-864f-7ccd675ccc3d","system_id":"levelo_inurba_marseille","lat":43.282754,"lon":5.350519,"is_reserved":false,"is_disabled":false,"rental_uris":{"android":"levelo://app?vid=1cef59e9-66fc-4a92-864f-7ccd675ccc3d","ios":"levelo://app?vid=1cef59e9-66fc-4a92-864f-7ccd675ccc3d"},"vehicle_type_id":"4","last_reported":1712415968,"current_range_meters":29600,"station_id":"ce4bhbp2rcd13ifvqerg","pricing_plan_id":"cebpf4jnsgd1na2vs0mg"},{"bike_id":"c301e373-49ef-43cf-b6c0-8a1a498f1ab7","system_id":"levelo_inurba_marseille","lat":43.28279,"lon":5.35068,"is_reserved":false,"is_disabled":false,"rental_uris":{"android":"levelo://app?vid=c301e373-49ef-43cf-b6c0-8a1a498f1ab7","ios":"levelo://app?vid=c301e373-49ef-43cf-b6c0-8a1a498f1ab7"},"vehicle_type_id":"4","last_reported":1712415968,"current_range_meters":0,"station_id":"ce4bhbp2rcd13ifvqerg","pricing_plan_id":"cebpf4jnsgd1na2vs0mg"},{"bike_id":"9e2025cc-a2a0-4004-a327-54b08ace8859","system_id":"levelo_inurba_marseille","lat":43.2828,"lon":5.35058,"is_reserved":false,"is_disabled":false,"rental_uris":{"android":"levelo://app?vid=9e2025cc-a2a0-4004-a327-54b08ace8859","ios":"levelo://app?vid=9e2025cc-a2a0-4004-a327-54b08ace8859"},"vehicle_type_id":"4","last_reported":1712415968,"current_range_meters":12400,"station_id":"ce4bhbp2rcd13ifvqerg","pricing_plan_id":"cebpf4jnsgd1na2vs0mg"},{"bike_id":"a2735ced-b16c-47a5-bc1d-2a5f1d62ef32","system_id":"levelo_inurba_marseille","lat":43.282744,"lon":5.350685,"is_reserved":false,"is_disabled":false,"rental_uris":{"android":"levelo://app?vid=a2735ced-b16c-47a5-bc1d-2a5f1d62ef32","ios":"levelo://app?vid=a2735ced-b16c-47a5-bc1d-2a5f1d62ef32"},"vehicle_type_id":"4","last_reported":1712415968,"current_range_meters":0,"station_id":"ce4bhbp2rcd13ifvqerg","pricing_plan_id":"cebpf4jnsgd1na2vs0mg"},{"bike_id":"c5f5647f-249c-46da-a48b-61e0253b9805","system_id":"levelo_inurba_marseille","lat":43.282744,"lon":5.350533,"is_reserved":false,"is_disabled":false,"rental_uris":{"android":"levelo://app?vid=c5f5647f-249c-46da-a48b-61e0253b9805","ios":"levelo://app?vid=c5f5647f-249c-46da-a48b-61e0253b9805"},"vehicle_type_id":"4","last_reported":1712415968,"current_range_meters":0,"station_id":"ce4bhbp2rcd13ifvqerg","pricing_plan_id":"cebpf4jnsgd1na2vs0mg"},{"bike_id":"50352c39-d101-4158-b99a-ae1f6a3809b6","system_id":"levelo_inurba_marseille","lat":43.28274,"lon":5.35061,"is_reserved":false,"is_disabled":false,"rental_uris":{"android":"levelo://app?vid=50352c39-d101-4158-b99a-ae1f6a3809b6","ios":"levelo://app?vid=50352c39-d101-4158-b99a-ae1f6a3809b6"},"vehicle_type_id":"4","last_reported":1712415968,"current_range_meters":6800,"station_id":"ce4bhbp2rcd13ifvqerg","pricing_plan_id":"cebpf4jnsgd1na2vs0mg"},{"bike_id":"c35bc60f-479b-43f2-8c83-c864ee4977b9","system_id":"levelo_inurba_marseille","lat":43.28269,"lon":5.35077,"is_reserved":false,"is_disabled":false,"rental_uris":{"android":"levelo://app?vid=c35bc60f-479b-43f2-8c83-c864ee4977b9","ios":"levelo://app?vid=c35bc60f-479b-43f2-8c83-c864ee4977b9"},"vehicle_type_id":"4","last_reported":1712415968,"current_range_meters":0,"station_id":"ce4bhbp2rcd13ifvqerg","pricing_plan_id":"cebpf4jnsgd1na2vs0mg"},{"bike_id":"08ce0059-2a8a-4d36-b4d2-43d04a537ce2","system_id":"levelo_inurba_marseille","lat":43.282754,"lon":5.350519,"is_reserved":false,"is_disabled":false,"rental_uris":{"android":"levelo://app?vid=08ce0059-2a8a-4d36-b4d2-43d04a537ce2","ios":"levelo://app?vid=08ce0059-2a8a-4d36-b4d2-43d04a537ce2"},"vehicle_type_id":"4","last_reported":1712415968,"current_range_meters":2000,"station_id":"ce4bhbp2rcd13ifvqerg","pricing_plan_id":"cebpf4jnsgd1na2vs0mg"},{"bike_id":"247ccdf1-a26e-411d-8468-0fcb63d02ccc","system_id":"levelo_inurba_marseille","lat":43.286961,"lon":5.373785,"is_reserved":false,"is_disabled":false,"rental_uris":{"android":"levelo://app?vid=247ccdf1-a26e-411d-8468-0fcb63d02ccc","ios":"levelo://app?vid=247ccdf1-a26e-411d-8468-0fcb63d02ccc"},"vehicle_type_id":"4","last_reported":1712415968,"current_range_meters":1600,"station_id":"ce4bh3p2rcd13ifvqdq0","pricing_plan_id":"cebpf4jnsgd1na2vs0mg"},{"bike_id":"1796cc91-8ad5-4ce9-b81a-60ca2852bb72","system_id":"levelo_inurba_marseille","lat":43.302008,"lon":5.394694,"is_reserved":false,"is_disabled":false,"rental_uris":{"android":"levelo://app?vid=1796cc91-8ad5-4ce9-b81a-60ca2852bb72","ios":"levelo://app?vid=1796cc91-8ad5-4ce9-b81a-60ca2852bb72"},"vehicle_type_id":"4","last_reported":1712415968,"current_range_meters":23600,"station_id":"ce4bh0p2rcd13ifvqd70","pricing_plan_id":"cebpf4jnsgd1na2vs0mg"},