{"last_updated":1687287942,"ttl":30,"version":"2.2","data":{"bikes":[{"bike_id":"6ad4e92f-65b0-4188-b450-efa7f3b33e47","system_id":"levelo_inurba_marseille","lat":43.312239,"lon":5.368562,"is_reserved":false,"is_disabled":false,"rental_uris":{"android":"levelo://app?vid=6ad4e92f-65b0-4188-b450-efa7f3b33e47","ios":"levelo://app?vid=6ad4e92f-65b0-4188-b450-efa7f3b33e47"},"vehicle_type_id":"4","last_reported":1687287943,"current_range_meters":23200,"station_id":"ce4bgl92rcd13ifvqbq0","pricing_plan_id":"free"},{"bike_id":"6e4fd040-1866-4783-872c-dd21a7ae18af","system_id":"levelo_inurba_marseille","lat":43.31348,"lon":5.37062,"is_reserved":false,"is_disabled":false,"rental_uris":{"android":"levelo://app?vid=6e4fd040-1866-4783-872c-dd21a7ae18af","ios":"levelo://app?vid=6e4fd040-1866-4783-872c-dd21a7ae18af"},"vehicle_type_id":"4","last_reported":1687287943,"current_range_meters":13600,"station_id":"","pricing_plan_id":"free"},{"bike_id":"0f69b3e8-6a18-4cc9-bf42-cabc2f4726b5","system_id":"levelo_inurba_marseille","lat":43.309076,"lon":5.368465,"is_reserved":false,"is_disabled":false,"rental_uris":{"android":"levelo://app?vid=0f69b3e8-6a18-4cc9-bf42-cabc2f4726b5","ios":"levelo://app?vid=0f69b3e8-6a18-4cc9-bf42-cabc2f4726b5"},"vehicle_type_id":"4","last_reported":1687287943,"current_range_meters":2000,"station_id":"ce4bgn92rcd13ifvqbvg","pricing_plan_id":"free"},{"bike_id":"2fc95ef3-6b45-4956-bc06-d7714a466c68","system_id":"levelo_inurba_marseille","lat":43.314811,"lon":5.373103,"is_reserved":false,"is_disabled":false,"rental_uris":{"android":"levelo://app?vid=2fc95ef3-6b45-4956-bc06-d7714a466c68","ios":"levelo://app?vid=2fc95ef3-6b45-4956-bc06-d7714a466c68"},"vehicle_type_id":"4","last_reported":1687287943,"current_range_meters":1600,"station_id":"ce4bgt12rcd13ifvqcd0","pricing_plan_id":"free"},{"bike_id":"2d82818a-32b1-4796-9809-19f3282ffd8b","system_id":"levelo_inurba_marseille","lat":43.314811,"lon":5.373104,"is_reserved":false,"is_disabled":false,"rental_uris":{"android":"levelo://app?vid=2d82818a-32b1-4796-9809-19f3282ffd8b","ios":"levelo://app?vid=2d82818a-32b1-4796-9809-19f3282ffd8b"},"vehicle_type_id":"4","last_reported":1687287943,"current_range_meters":4800,"station_id":"ce4bgt12rcd13ifvqcd0","pricing_plan_id":"free"},{"bike_id":"3abeb98b-cd53-48fe-90c5-20fd641b2105","system_id":"levelo_inurba_marseille","lat":43.31498,"lon":5.37314,"is_reserved":false,"is_disabled":false,"rental_uris":{"android":"levelo://app?vid=3abeb98b-cd53-48fe-90c5-20fd641b2105","ios":"levelo://app?vid=3abeb98b-cd53-48fe-90c5-20fd641b2105"},"vehicle_type_id":"4","last_reported":1687287943,"current_range_meters":20400,"station_id":"ce4bgt12rcd13ifvqcd0","pricing_plan_id":"free"},{"bike_id":"3da540aa-5929-4d4a-8397-46574265df24","system_id":"levelo_inurba_marseille","lat":43.30762,"lon":5.3671,"is_reserved":false,"is_disabled":false,"rental_uris":{"android":"levelo://app?vid=3da540aa-5929-4d4a-8397-46574265df24","ios":"levelo://app?vid=3da540aa-5929-4d4a-8397-46574265df24"},"vehicle_type_id":"4","last_reported":1687287943,"current_range_meters":16800,"station_id":"","pricing_plan_id":"free"},{"bike_id":"5fbdbe65-e141-4473-b7c7-3ca166ee6d1f","system_id":"levelo_inurba_marseille","lat":43.30832,"lon":5.37159,"is_reserved":false,"is_disabled":false,"rental_uris":{"android":"levelo://app?vid=5fbdbe65-e141-4473-b7c7-3ca166ee6d1f","ios":"levelo://app?vid=5fbdbe65-e141-4473-b7c7-3ca166ee6d1f"},"vehicle_type_id":"4","last_reported":1687287943,"current_range_meters":8000,"station_id":"","pricing_plan_id":"free"},{"bike_id":"6d4e6cc1-b3f1-454b-9ba0-482da4ff8cd7","system_id":"levelo_inurba_marseille","lat":43.30541,"lon":5.36693,"is_reserved":false,"is_disabled":false,"rental_uris":{"android":"levelo://app?vid=6d4e6cc1-b3f1-454b-9ba0-482da4ff8cd7","ios":"levelo://app?vid=6d4e6cc1-b3f1-454b-9ba0-482da4ff8cd7"},"vehicle_type_id":"4","last_reported":1687287943,"current_range_meters":0,"station_id":"","pricing_plan_id":"free"},{"bike_id":"33064f9d-72c2-4083-90ec-2163a640ffe7","system_id":"levelo_inurba_marseille","lat":43.315293,"lon":5.380349,"is_reserved":false,"is_disabled":false,"rental_uris":{"android":"levelo://app?vid=33064f9d-72c2-4083-90ec-2163a640ffe7","ios":"levelo://app?vid=33064f9d-72c2-4083-90ec-2163a640ffe7"},"vehicle_type_id":"4","last_reported":1687287943,"current_range_meters":29600,"station_id":"ce4bhsp2rcd13ifvqi50","pricing_plan_id":"free"},{"bike_id":"52c0488b-134b-431a-b449-39ad776e99cd","system_id":"levelo_inurba_marseille","lat":43.308012,"lon":5.381511,"is_reserved":false,"is_disabled":false,"rental_uris":{"android":"levelo://app?vid=52c0488b-134b-431a-b449-39ad776e99cd","ios":"levelo://app?vid=52c0488b-134b-431a-b449-39ad776e99cd"},"vehicle_type_id":"4","last_reported":1687287943,"current_range_meters":0,"station_id":"ce4bgt12rcd13ifvqce0","pricing_plan_id":"free"},{"bike_id":"ae33307b-fcd5-479b-9ae1-9002ed226c6e","system_id":"levelo_inurba_marseille","lat":43.308012,"lon":5.381511,"is_reserved":false,"is_disabled":false,"rental_uris":{"android":"levelo://app?vid=ae33307b-fcd5-479b-9ae1-9002ed226c6e","ios":"levelo://app?vid=ae33307b-fcd5-479b-9ae1-9002ed226c6e"},"vehicle_type_id":"4","last_reported":1687287943,"current_range_meters":19200,"station_id":"ce4bgt12rcd13ifvqce0","pricing_plan_id":"free"},{"bike_id":"8a0251b3-2c38-48d9-bbb5-07ba9e78d095","system_id":"levelo_inurba_marseille","lat":43.308012,"lon":5.381511,"is_reserved":false,"is_disabled":false,"rental_uris":{"android":"levelo://app?vid=8a0251b3-2c38-48d9-bbb5-07ba9e78d095","ios":"levelo://app?vid=8a0251b3-2c38-48d9-bbb5-07ba9e78d095"},"vehicle_type_id":"4","last_reported":1687287943,"current_range_meters":15200,"station_id":"ce4bgt12rcd13ifvqce0","pricing_plan_id":"free"},{"bike_id":"43fc693e-f2a9-4aec-8fd9-d094bb02cb70","system_id":"levelo_inurba_marseille","lat":43.304606,"lon":5.379026,"is_reserved":false,"is_disabled":false,"rental_uris":{"android":"levelo://app?vid=43fc693e-f2a9-4aec-8fd9-d094bb02cb70","ios":"levelo://app?vid=43fc693e-f2a9-4aec-8fd9-d094bb02cb70"},"vehicle_type_id":"4","last_reported":1687287943,"current_range_meters":8800,"station_id":"ce4bgup2rcd13ifvqcn0","pricing_plan_id":"free"},{"bike_id":"c7c64f8e-4e44-485d-80ef-c29f6be6f29a","system_id":"levelo_inurba_marseille","lat":43.319935,"lon":5.381699,"is_reserved":false,"is_disabled":false,"rental_uris":{"android":"levelo://app?vid=c7c64f8e-4e44-485d-80ef-c29f6be6f29a","ios":"levelo://app?vid=c7c64f8e-4e44-485d-80ef-c29f6be6f29a"},"vehicle_type_id":"4","last_reported":1687287943,"current_range_meters":3600,"station_id":"ce4bhr12rcd13ifvqhpg","pricing_plan_id":"free"},{"bike_id":"baae757c-8f10-49be-a4dd-bb0ca67b7e95","system_id":"levelo_inurba_marseille","lat":43.319935,"lon":5.381699,"is_reserved":false,"is_disabled":false,"rental_uris":{"android":"levelo://app?vid=baae757c-8f10-49be-a4dd-bb0ca67b7e95","ios":"levelo://app?vid=baae757c-8f10-49be-a4dd-bb0ca67b7e95"},"vehicle_type_id":"4","last_reported":1687287943,"current_range_meters":2800,"station_id":"ce4bhr12rcd13ifvqhpg","pricing_plan_id":"free"},{"bike_id":"ac78f4c7-6fc5-44eb-9cd4-13675f3f5d1e","system_id":"levelo_inurba_marseille","lat":43.319935,"lon":5.381699,"is_reserved":false,"is_disabled":false,"rental_uris":{"android":"levelo://app?vid=ac78f4c7-6fc5-44eb-9cd4-13675f3f5d1e","ios":"levelo://app?vid=ac78f4c7-6fc5-44eb-9cd4-13675f3f5d1e"},"vehicle_type_id":"4","last_reported":1687287943,"current_range_meters":29600,"station_id":"ce4bhr12rcd13ifvqhpg","pricing_plan_id":"free"},{"bike_id":"12a0633a-7138-4349-860d-d26fdf6232dc","system_id":"levelo_inurba_marseille","lat":43.313571,"lon":5.384829,"is_reserved":false,"is_disabled":false,"rental_uris":{"android":"levelo://app?vid=12a0633a-7138-4349-860d-d26fdf6232dc","ios":"levelo://app?vid=12a0633a-7138-4349-860d-d26fdf6232dc"},"vehicle_type_id":"4","last_reported":1687287943,"current_range_meters":18000,"station_id":"ce4bgt92rcd13ifvqcf0","pricing_plan_id":"free"},{"bike_id":"37b6ae4e-288f-4132-b43b-1cffae025dfd","system_id":"levelo_inurba_marseille","lat":43.305364,"lon":5.384119,"is_reserved":false,"is_disabled":false,"rental_uris":{"android":"levelo://app?vid=37b6ae4e-288f-4132-b43b-1cffae025dfd","ios":"levelo://app?vid=37b6ae4e-288f-4132-b43b-1cffae025dfd"},"vehicle_type_id":"4","last_reported":1687287943,"current_range_meters":29200,"station_id":"ce4bgg92rcd13ifvqb30","pricing_plan_id":"free"},{"bike_id":"fe18f46b-930d-499a-8124-877720636275","system_id":"levelo_inurba_marseille","lat":43.311722,"lon":5.387247,"is_reserved":false,"is_disabled":false,"rental_uris":{"android":"levelo://app?vid=fe18f46b-930d-499a-8124-877720636275","ios":"levelo://app?vid=fe18f46b-930d-499a-8124-877720636275"},"vehicle_type_id":"4","last_reported":1687287943,"current_range_meters":0,"station_id":"ce4bgv12rcd13ifvqcp0","pricing_plan_id":"free"},{"bike_id":"429af25e-d07f-4069-a2a6-cca1850be77c","system_id":"levelo_inurba_marseille","lat":43.311722,"lon":5.387247,"is_reserved":false,"is_disabled":false,"rental_uris":{"android":"levelo://app?vid=429af25e-d07f-4069-a2a6-cca1850be77c","ios":"levelo://app?vid=429af25e-d07f-4069-a2a6-cca1850be77c"},"vehicle_type_id":"4","last_reported":1687287943,"current_range_meters":26400,"station_id":"ce4bgv12rcd13ifvqcp0","pricing_plan_id":"free"},{"bike_id":"cf711208-de3f-42ad-9cf0-a880a26b74e6","system_id":"levelo_inurba_marseille","lat":43.32632,"lon":5.37501,"is_reserved":false,"is_disabled":false,"rental_uris":{"android":"levelo://app?vid=cf711208-de3f-42ad-9cf0-a880a26b74e6","ios":"levelo://app?vid=cf711208-de3f-42ad-9cf0-a880a26b74e6"},"vehicle_type_id":"4","last_reported":1687287943,"current_range_meters":0,"station_id":"","pricing_plan_id":"free"},{"bike_id":"e8e50549-4f14-4a79-8e01-73f4b2c3ac89","system_id":"levelo_inurba_marseille","lat":43.32197,"lon":5.38296,"is_reserved":false,"is_disabled":false,"rental_uris":{"android":"levelo://app?vid=e8e50549-4f14-4a79-8e01-73f4b2c3ac89","ios":"levelo://app?vid=e8e50549-4f14-4a79-8e01-73f4b2c3ac89"},"vehicle_type_id":"4","last_reported":1687287943,"current_range_meters":11600,"station_id":"","pricing_plan_id":"free"},{"bike_id":"d5170cb8-b784-464d-803e-2b21b3fdb73b","system_id":"levelo_inurba_marseille","lat":43.297794,"lon":5.370888,"is_reserved":false,"is_disabled":false,"rental_uris":{"android":"levelo://app?vid=d5170cb8-b784-464d-803e-2b21b3fdb73b","ios":"levelo://app?vid=d5170cb8-b784-464d-803e-2b21b3fdb73b"},"vehicle_type_id":"4","last_reported":1687287943,"current_range_meters":20400,"station_id":"ce4bgop2rcd13ifvqc1g","pricing_plan_id":"free"},{"bike_id":"408cdbd3-920b-45b4-ab4e-0217d7cee4ab","system_id":"levelo_inurba_marseille","lat":43.32823,"lon":5.36688,"is_reserved":false,"is_disabled":false,"rental_uris":{"android":"levelo://app?vid=408cdbd3-920b-45b4-ab4e-0217d7cee4ab","ios":"levelo://app?vid=408cdbd3-920b-45b4-ab4e-0217d7cee4ab"},"vehicle_type_id":"4","last_reported":1687287943,"current_range_meters":10000,"station_id":"ce4bhs92rcd13ifvqi0g","pricing_plan_id":"free"},{"bike_id":"834d1afe-bb61-4a75-ba6d-f90f323b91a4","system_id":"levelo_inurba_marseille","lat":43.328371,"lon":5.366909,"is_reserved":false,"is_disabled":false,"rental_uris":{"android":"levelo://app?vid=834d1afe-bb61-4a75-ba6d-f90f323b91a4","ios":"levelo://app?vid=834d1afe-bb61-4a75-ba6d-f90f323b91a4"},"vehicle_type_id":"4","last_reported":1687287943,"current_range_meters":24400,"station_id":"ce4bhs92rcd13ifvqi0g","pricing_plan_id":"free"},{"bike_id":"db4e72b2-ad08-4787-8cc1-d917696a4d8b","system_id":"levelo_inurba_marseille","lat":43.328371,"lon":5.366909,"is_reserved":false,"is_disabled":false,"rental_uris":{"android":"levelo://app?vid=db4e72b2-ad08-4787-8cc1-d917696a4d8b","ios":"levelo://app?vid=db4e72b2-ad08-4787-8cc1-d917696a4d8b"},"vehicle_type_id":"4","last_reported":1687287943,"current_range_meters":30000,"station_id":"ce4bhs92rcd13ifvqi0g","pricing_plan_id":"free"},{"bike_id":"b4ea75e9-eca7-4ccc-91f9-d0cb06a4a0a6","system_id":"levelo_inurba_marseille","lat":43.328371,"lon":5.366912,"is_reserved":false,"is_disabled":false,"rental_uris":{"android":"levelo://app?vid=b4ea75e9-eca7-4ccc-91f9-d0cb06a4a0a6","ios":"levelo://app?vid=b4ea75e9-eca7-4ccc-91f9-d0cb06a4a0a6"},"vehicle_type_id":"4","last_reported":1687287943,"current_range_meters":29600,"station_id":"ce4bhs92rcd13ifvqi0g","pricing_plan_id":"free"},{"bike_id":"f9f1a296-c401-40a0-b431-7544da14c26f","system_id":"levelo_inurba_marseille","lat":43.328371,"lon":5.366909,"is_reserved":false,"is_disabled":false,"rental_uris":{"android":"levelo://app?vid=f9f1a296-c401-40a0-b431-7544da14c26f","ios":"levelo://app?vid=f9f1a296-c401-40a0-b431-7544da14c26f"},"vehicle_type_id":"4","last_reported":1687287943,"current_range_meters":22800,"station_id":"ce4bhs92rcd13ifvqi0g","pricing_plan_id":"free"},{"bike_id":"d6ac5c59-0d1e-4bd5-8d6f-d9281ac2ddeb","system_id":"levelo_inurba_marseille","lat":43.328371,"lon":5.366909,"is_reserved":false,"is_disabled":false,"rental_uris":{"android":"levelo://app?vid=d6ac5c59-0d1e-4bd5-8d6f-d9281ac2ddeb","ios":"levelo://app?vid=d6ac5c59-0d1e-4bd5-8d6f-d9281ac2ddeb"},"vehicle_type_id":"4","last_reported":1687287943,"current_range_meters":10400,"station_id":"ce4bhs92rcd13ifvqi0g","pricing_plan_id":"free"},{"bike_id":"349b7ed6-f14e-4e88-9788-495af6e5ffa6","system_id":"levelo_inurba_marseille","lat":43.328371,"lon":5.366909,"is_reserved":false,"is_disabled":false,"rental_uris":{"android":"levelo://app?vid=349b7ed6-f14e-4e88-9788-495af6e5ffa6","ios":"levelo://app?vid=349b7ed6-f14e-4e88-9788-495af6e5ffa6"},"vehicle_type_id":"4","last_reported":1687287943,"current_range_meters":0,"station_id":"ce4bhs92rcd13ifvqi0g","pricing_plan_id":"free"},{"bike_id":"832e1273-fa14-42aa-b411-4f520f45589b","system_id":"levelo_inurba_marseille","lat":43.328371,"lon":5.366912,"is_reserved":false,"is_disabled":false,"rental_uris":{"android":"levelo://app?vid=832e1273-fa14-42aa-b411-4f520f45589b","ios":"levelo://app?vid=832e1273-fa14-42aa-b411-4f520f45589b"},"vehicle_type_id":"4","last_reported":1687287943,"current_range_meters":31200,"station_id":"ce4bhs92rcd13ifvqi0g","pricing_plan_id":"free"},{"bike_id":"176f4894-d7fc-460e-aa5d-7c8c1e206dc3","system_id":"levelo_inurba_marseille","lat":43.29705,"lon":5.36612,"is_reserved":false,"is_disabled":false,"rental_uris":{"android":"levelo://app?vid=176f4894-d7fc-460e-aa5d-7c8c1e206dc3","ios":"levelo://app?vid=176f4894-d7fc-460e-aa5d-7c8c1e206dc3"},"vehicle_type_id":"4","last_reported":1687287943,"current_range_meters":23200,"station_id":"ce4bgn12rcd13ifvqbt0","pricing_plan_id":"free"},{"bike_id":"29f634d4-70c8-441f-a12c-e186bee770c8","system_id":"levelo_inurba_marseille","lat":43.305364,"lon":5.384119,"is_reserved":false,"is_disabled":false,"rental_uris":{"android":"levelo://app?vid=29f634d4-70c8-441f-a12c-e186bee770c8","ios":"levelo://app?vid=29f634d4-70c8-441f-a12c-e186bee770c8"},"vehicle_type_id":"4","last_reported":1687287943,"current_range_meters":2000,"station_id":"ce4bgg92rcd13ifvqb30","pricing_plan_id":"free"},{"bike_id":"94ef30c5-edc4-4a26-8cb4-94d5904fb8d0","system_id":"levelo_inurba_marseille","lat":43.296131,"lon":5.370773,"is_reserved":false,"is_disabled":false,"rental_uris":{"android":"levelo://app?vid=94ef30c5-edc4-4a26-8cb4-94d5904fb8d0","ios":"levelo://app?vid=94ef30c5-edc4-4a26-8cb4-94d5904fb8d0"},"vehicle_type_id":"4","last_reported":1687287943,"current_range_meters":11200,"station_id":"ce4bgnh2rcd13ifvqc0g","pricing_plan_id":"free"},{"bike_id":"24f41ca5-b432-4feb-a0c8-a15026b97306","system_id":"levelo_inurba_marseille","lat":43.296131,"lon":5.370773,"is_reserved":false,"is_disabled":false,"rental_uris":{"android":"levelo://app?vid=24f41ca5-b432-4feb-a0c8-a15026b97306","ios":"levelo://app?vid=24f41ca5-b432-4feb-a0c8-a15026b97306"},"vehicle_type_id":"4","last_reported":1687287943,"current_range_meters":3600,"station_id":"ce4bgnh2rcd13ifvqc0g","pricing_plan_id":"free"},{"bike_id":"041bc147-ef2f-419b-bb81-deca3bdf89e2","system_id":"levelo_inurba_marseille","lat":43.29611,"lon":5.36046,"is_reserved":false,"is_disabled":false,"rental_uris":{"android":"levelo://app?vid=041bc147-ef2f-419b-bb81-deca3bdf89e2","ios":"levelo://app?vid=041bc147-ef2f-419b-bb81-deca3bdf89e2"},"vehicle_type_id":"4","last_reported":1687287943,"current_range_meters":21200,"station_id":"","pricing_plan_id":"free"},{"bike_id":"f38ebc4d-313b-41fa-90d1-ba716c998cb4","system_id":"levelo_inurba_marseille","lat":43.317557,"lon":5.390173,"is_reserved":false,"is_disabled":false,"rental_uris":{"android":"levelo://app?vid=f38ebc4d-313b-41fa-90d1-ba716c998cb4","ios":"levelo://app?vid=f38ebc4d-313b-41fa-90d1-ba716c998cb4"},"vehicle_type_id":"4","last_reported":1687287943,"current_range_meters":2400,"station_id":"ce4bhqp2rcd13ifvqhng","pricing_plan_id":"free"},{"bike_id":"b2769412-5d59-4cb2-933b-49c2cf934ce0","system_id":"levelo_inurba_marseille","lat":43.317557,"lon":5.390173,"is_reserved":false,"is_disabled":false,"rental_uris":{"android":"levelo://app?vid=b2769412-5d59-4cb2-933b-49c2cf934ce0","ios":"levelo://app?vid=b2769412-5d59-4cb2-933b-49c2cf934ce0"},"vehicle_type_id":"4","last_reported":1687287943,"current_range_meters":12400,"station_id":"ce4bhqp2rcd13ifvqhng","pricing_plan_id":"free"},{"bike_id":"af8ea858-6c1e-4734-be23-6556f5c81f6b","system_id":"levelo_inurba_marseille","lat":43.317557,"lon":5.390173,"is_reserved":false,"is_disabled":false,"rental_uris":{"android":"levelo://app?vid=af8ea858-6c1e-4734-be23-6556f5c81f6b","ios":"levelo://app?vid=af8ea858-6c1e-4734-be23-6556f5c81f6b"},"vehicle_type_id":"4","last_reported":1687287943,"current_range_meters":28800,"station_id":"ce4bhqp2rcd13ifvqhng","pricing_plan_id":"free"},{"bike_id":"0863e357-35ee-4bc1-be02-1b382cb8ce82","system_id":"levelo_inurba_marseille","lat":43.29805,"lon":5.38093,"is_reserved":false,"is_disabled":false,"rental_uris":{"android":"levelo://app?vid=0863e357-35ee-4bc1-be02-1b382cb8ce82","ios":"levelo://app?vid=0863e357-35ee-4bc1-be02-1b382cb8ce82"},"vehicle_type_id":"4","last_reported":1687287943,"current_range_meters":0,"station_id":"ce4bgip2rcd13ifvqbb0","pricing_plan_id":"free"},{"bike_id":"250c8a96-8498-4211-b8f3-1b00a8d1fbaf","system_id":"levelo_inurba_marseille","lat":43.296477,"lon":5.37768,"is_reserved":false,"is_disabled":false,"rental_uris":{"android":"levelo://app?vid=250c8a96-8498-4211-b8f3-1b00a8d1fbaf","ios":"levelo://app?vid=250c8a96-8498-4211-b8f3-1b00a8d1fbaf"},"vehicle_type_id":"4","last_reported":1687287943,"current_range_meters":4000,"station_id":"","pricing_plan_id":"free"},{"bike_id":"e86de3df-f246-48eb-92f6-2760397f5356","system_id":"levelo_inurba_marseille","lat":43.299717,"lon":5.384845,"is_reserved":false,"is_disabled":false,"rental_uris":{"android":"levelo://app?vid=e86de3df-f246-48eb-92f6-2760397f5356","ios":"levelo://app?vid=e86de3df-f246-48eb-92f6-2760397f5356"},"vehicle_type_id":"4","last_reported":1687287943,"current_range_meters":28800,"station_id":"ce4bgj92rcd13ifvqbd0","pricing_plan_id":"free"},{"bike_id":"eb56f040-d7e3-440c-9d05-82afe187dd21","system_id":"levelo_inurba_marseille","lat":43.299717,"lon":5.384845,"is_reserved":false,"is_disabled":false,"rental_uris":{"android":"levelo://app?vid=eb56f040-d7e3-440c-9d05-82afe187dd21","ios":"levelo://app?vid=eb56f040-d7e3-440c-9d05-82afe187dd21"},"vehicle_type_id":"4","last_reported":1687287943,"current_range_meters":30000,"station_id":"ce4bgj92rcd13ifvqbd0","pricing_plan_id":"free"},{"bike_id":"a35176c1-c97e-4d45-ab7a-79c8d1ea8da0","system_id":"levelo_inurba_marseille","lat":43.299724,"lon":5.384848,"is_reserved":false,"is_disabled":false,"rental_uris":{"android":"levelo://app?vid=a35176c1-c97e-4d45-ab7a-79c8d1ea8da0","ios":"levelo://app?vid=a35176c1-c97e-4d45-ab7a-79c8d1ea8da0"},"vehicle_type_id":"4","last_reported":1687287943,"current_range_meters":5600,"station_id":"ce4bgj92rcd13ifvqbd0","pricing_plan_id":"free"},{"bike_id":"86e15024-242b-4f79-8f23-85fba091cfb8","system_id":"levelo_inurba_marseille","lat":43.299717,"lon":5.384845,"is_reserved":false,"is_disabled":false,"rental_uris":{"android":"levelo://app?vid=86e15024-242b-4f79-8f23-85fba091cfb8","ios":"levelo://app?vid=86e15024-242b-4f79-8f23-85fba091cfb8"},"vehicle_type_id":"4","last_reported":1687287943,"current_range_meters":17600,"station_id":"ce4bgj92rcd13ifvqbd0","pricing_plan_id":"free"},{"bike_id":"924f5e2c-3798-48c5-a26b-4aa840da3bf3","system_id":"levelo_inurba_marseille","lat":43.323729,"lon":5.388839,"is_reserved":false,"is_disabled":false,"rental_uris":{"android":"levelo://app?vid=924f5e2c-3798-48c5-a26b-4aa840da3bf3","ios":"levelo://app?vid=924f5e2c-3798-48c5-a26b-4aa840da3bf3"},"vehicle_type_id":"4","last_reported":1687287943,"current_range_meters":24800,"station_id":"","pricing_plan_id":"free"},{"bike_id":"91d6eb88-e010-42e7-8e13-8eaef7be11b0","system_id":"levelo_inurba_marseille","lat":43.29293,"lon":5.36937,"is_reserved":false,"is_disabled":false,"rental_uris":{"android":"levelo://app?vid=91d6eb88-e010-42e7-8e13-8eaef7be11b0","ios":"levelo://app?vid=91d6eb88-e010-42e7-8e13-8eaef7be11b0"},"vehicle_type_id":"4","last_reported":1687287943,"current_range_meters":2800,"station_id":"","pricing_plan_id":"free"},{"bike_id":"e52527a1-5f5b-4169-9593-5f48b8aa8cb8","system_id":"levelo_inurba_marseille","lat":43.292749,"lon":5.368402,"is_reserved":false,"is_disabled":false,"rental_uris":{"android":"levelo://app?vid=e52527a1-5f5b-4169-9593-5f48b8aa8cb8","ios":"levelo://app?vid=e52527a1-5f5b-4169-9593-5f48b8aa8cb8"},"vehicle_type_id":"4","last_reported":1687287943,"current_range_meters":21600,"station_id":"ce4bhbp2rcd13ifvqesg","pricing_plan_id":"free"},{"bike_id":"66b480a6-9947-4496-98e2-93e61a3244b4","system_id":"levelo_inurba_marseille","lat":43.305994,"lon":5.393687,"is_reserved":false,"is_disabled":false,"rental_uris":{"android":"levelo://app?vid=66b480a6-9947-4496-98e2-93e61a3244b4","ios":"levelo://app?vid=66b480a6-9947-4496-98e2-93e61a3244b4"},"vehicle_type_id":"4","last_reported":1687287943,"current_range_meters":31200,"station_id":"ce4bh0p2rcd13ifvqd80","pricing_plan_id":"free"},{"bike_id":"f96bc5ef-773a-4c29-b818-b40707fecfaa","system_id":"levelo_inurba_marseille","lat":43.305994,"lon":5.393687,"is_reserved":false,"is_disabled":false,"rental_uris":{"android":"levelo://app?vid=f96bc5ef-773a-4c29-b818-b40707fecfaa","ios":"levelo://app?vid=f96bc5ef-773a-4c29-b818-b40707fecfaa"},"vehicle_type_id":"4","last_reported":1687287943,"current_range_meters":31200,"station_id":"ce4bh0p2rcd13ifvqd80","pricing_plan_id":"free"},{"bike_id":"7545b4ab-d858-47c4-bc5c-4f0c437088b4","system_id":"levelo_inurba_marseille","lat":43.30321,"lon":5.39198,"is_reserved":false,"is_disabled":false,"rental_uris":{"android":"levelo://app?vid=7545b4ab-d858-47c4-bc5c-4f0c437088b4","ios":"levelo://app?vid=7545b4ab-d858-47c4-bc5c-4f0c437088b4"},"vehicle_type_id":"4","last_reported":1687287943,"current_range_meters":12400,"station_id":"ce4bgkh2rcd13ifvqbk0","pricing_plan_id":"free"},{"bike_id":"6c8e714b-ed05-42a1-ad0d-a326f5126e0c","system_id":"levelo_inurba_marseille","lat":43.302992,"lon":5.392136,"is_reserved":false,"is_disabled":false,"rental_uris":{"android":"levelo://app?vid=6c8e714b-ed05-42a1-ad0d-a326f5126e0c","ios":"levelo://app?vid=6c8e714b-ed05-42a1-ad0d-a326f5126e0c"},"vehicle_type_id":"4","last_reported":1687287943,"current_range_meters":0,"station_id":"ce4bgkh2rcd13ifvqbk0","pricing_plan_id":"free"},{"bike_id":"7ee8e857-e58f-4d0f-9ec8-cf55d6494b29","system_id":"levelo_inurba_marseille","lat":43.29267,"lon":5.35965,"is_reserved":false,"is_disabled":false,"rental_uris":{"android":"levelo://app?vid=7ee8e857-e58f-4d0f-9ec8-cf55d6494b29","ios":"levelo://app?vid=7ee8e857-e58f-4d0f-9ec8-cf55d6494b29"},"vehicle_type_id":"4","last_reported":1687287943,"current_range_meters":1200,"station_id":"","pricing_plan_id":"free"},{"bike_id":"362236fe-444e-4c98-86e3-365366228b86","system_id":"levelo_inurba_marseille","lat":43.2936,"lon":5.37835,"is_reserved":false,"is_disabled":false,"rental_uris":{"android":"levelo://app?vid=362236fe-444e-4c98-86e3-365366228b86","ios":"levelo://app?vid=362236fe-444e-4c98-86e3-365366228b86"},"vehicle_type_id":"4","last_reported":1687287943,"current_range_meters":27600,"station_id":"ce4bgjh2rcd13ifvqbf0","pricing_plan_id":"free"},{"bike_id":"ebc47096-3997-4c02-97da-790e1e2e0e49","system_id":"levelo_inurba_marseille","lat":43.30085,"lon":5.390856,"is_reserved":false,"is_disabled":false,"rental_uris":{"android":"levelo://app?vid=ebc47096-3997-4c02-97da-790e1e2e0e49","ios":"levelo://app?vid=ebc47096-3997-4c02-97da-790e1e2e0e49"},"vehicle_type_id":"4","last_reported":1687287943,"current_range_meters":0,"station_id":"ce4bh192rcd13ifvqdb0","pricing_plan_id":"free"},{"bike_id":"4844239b-74c2-4608-9aec-e498d0cfe7e6","system_id":"levelo_inurba_marseille","lat":43.30085,"lon":5.390856,"is_reserved":false,"is_disabled":false,"rental_uris":{"android":"levelo://app?vid=4844239b-74c2-4608-9aec-e498d0cfe7e6","ios":"levelo://app?vid=4844239b-74c2-4608-9aec-e498d0cfe7e6"},"vehicle_type_id":"4","last_reported":1687287943,"current_range_meters":30000,"station_id":"ce4bh192rcd13ifvqdb0","pricing_plan_id":"free"},{"bike_id":"2b2d09a5-75db-4a28-997e-08e0aff97b0c","system_id":"levelo_inurba_marseille","lat":43.30085,"lon":5.390856,"is_reserved":false,"is_disabled":false,"rental_uris":{"android":"levelo://app?vid=2b2d09a5-75db-4a28-997e-08e0aff97b0c","ios":"levelo://app?vid=2b2d09a5-75db-4a28-997e-08e0aff97b0c"},"vehicle_type_id":"4","last_reported":1687287943,"current_range_meters":19200,"station_id":"ce4bh192rcd13ifvqdb0","pricing_plan_id":"free"},{"bike_id":"3a7ab7e0-8287-4e2a-a513-947372537770","system_id":"levelo_inurba_marseille","lat":43.298764,"lon":5.388973,"is_reserved":false,"is_disabled":false,"rental_uris":{"android":"levelo://app?vid=3a7ab7e0-8287-4e2a-a513-947372537770","ios":"levelo://app?vid=3a7ab7e0-8287-4e2a-a513-947372537770"},"vehicle_type_id":"4","last_reported":1687287943,"current_range_meters":0,"station_id":"ce4bh392rcd13ifvqdl0","pricing_plan_id":"free"},{"bike_id":"91f27ca4-b1d4-4b07-bbb6-4e3add10a601","system_id":"levelo_inurba_marseille","lat":43.309038,"lon":5.396546,"is_reserved":false,"is_disabled":false,"rental_uris":{"android":"levelo://app?vid=91f27ca4-b1d4-4b07-bbb6-4e3add10a601","ios":"levelo://app?vid=91f27ca4-b1d4-4b07-bbb6-4e3add10a601"},"vehicle_type_id":"4","last_reported":1687287943,"current_range_meters":800,"station_id":"ce4bh012rcd13ifvqcv0","pricing_plan_id":"free"},{"bike_id":"d38c5de4-1b75-44fb-88b5-eb30bcdcd7d0","system_id":"levelo_inurba_marseille","lat":43.313243,"lon":5.396843,"is_reserved":false,"is_disabled":false,"rental_uris":{"android":"levelo://app?vid=d38c5de4-1b75-44fb-88b5-eb30bcdcd7d0","ios":"levelo://app?vid=d38c5de4-1b75-44fb-88b5-eb30bcdcd7d0"},"vehicle_type_id":"4","last_reported":1687287943,"current_range_meters":21200,"station_id":"","pricing_plan_id":"free"},{"bike_id":"7367c022-5355-4bab-b5a6-2a7d1c6f947e","system_id":"levelo_inurba_marseille","lat":43.309038,"lon":5.396546,"is_reserved":false,"is_disabled":false,"rental_uris":{"android":"levelo://app?vid=7367c022-5355-4bab-b5a6-2a7d1c6f947e","ios":"levelo://app?vid=7367c022-5355-4bab-b5a6-2a7d1c6f947e"},"vehicle_type_id":"4","last_reported":1687287943,"current_range_meters":0,"station_id":"ce4bh012rcd13ifvqcv0","pricing_plan_id":"free"},{"bike_id":"5bdae5ba-a0d5-44fa-8416-5b643e0b04dd","system_id":"levelo_inurba_marseille","lat":43.313291,"lon":5.396838,"is_reserved":false,"is_disabled":false,"rental_uris":{"android":"levelo://app?vid=5bdae5ba-a0d5-44fa-8416-5b643e0b04dd","ios":"levelo://app?vid=5bdae5ba-a0d5-44fa-8416-5b643e0b04dd"},"vehicle_type_id":"4","last_reported":1687287943,"current_range_meters":4000,"station_id":"ce4bgvp2rcd13ifvqcu0","pricing_plan_id":"free"},{"bike_id":"cce40203-1d8e-41e8-a9fd-763d2f677c68","system_id":"levelo_inurba_marseille","lat":43.31333,"lon":5.39691,"is_reserved":false,"is_disabled":false,"rental_uris":{"android":"levelo://app?vid=cce40203-1d8e-41e8-a9fd-763d2f677c68","ios":"levelo://app?vid=cce40203-1d8e-41e8-a9fd-763d2f677c68"},"vehicle_type_id":"4","last_reported":1687287943,"current_range_meters":14000,"station_id":"ce4bgvp2rcd13ifvqcu0","pricing_plan_id":"free"},{"bike_id":"b859ee65-8c3d-420a-925c-1e111b8afe8f","system_id":"levelo_inurba_marseille","lat":43.30888,"lon":5.39649,"is_reserved":false,"is_disabled":false,"rental_uris":{"android":"levelo://app?vid=b859ee65-8c3d-420a-925c-1e111b8afe8f","ios":"levelo://app?vid=b859ee65-8c3d-420a-925c-1e111b8afe8f"},"vehicle_type_id":"4","last_reported":1687287943,"current_range_meters":26400,"station_id":"","pricing_plan_id":"free"},{"bike_id":"7a87f340-ac4b-47c8-ac5c-b336014b0809","system_id":"levelo_inurba_marseille","lat":43.30888,"lon":5.39657,"is_reserved":false,"is_disabled":false,"rental_uris":{"android":"levelo://app?vid=7a87f340-ac4b-47c8-ac5c-b336014b0809","ios":"levelo://app?vid=7a87f340-ac4b-47c8-ac5c-b336014b0809"},"vehicle_type_id":"4","last_reported":1687287943,"current_range_meters":17600,"station_id":"ce4bh012rcd13ifvqcv0","pricing_plan_id":"free"},{"bike_id":"3d2f0f76-3088-4456-9663-2afb7577fa88","system_id":"levelo_inurba_marseille","lat":43.309038,"lon":5.396546,"is_reserved":false,"is_disabled":false,"rental_uris":{"android":"levelo://app?vid=3d2f0f76-3088-4456-9663-2afb7577fa88","ios":"levelo://app?vid=3d2f0f76-3088-4456-9663-2afb7577fa88"},"vehicle_type_id":"4","last_reported":1687287943,"current_range_meters":5200,"station_id":"ce4bh012rcd13ifvqcv0","pricing_plan_id":"free"},{"bike_id":"44d81b50-8e77-4afb-bb64-bef15549b486","system_id":"levelo_inurba_marseille","lat":43.309038,"lon":5.396546,"is_reserved":false,"is_disabled":false,"rental_uris":{"android":"levelo://app?vid=44d81b50-8e77-4afb-bb64-bef15549b486","ios":"levelo://app?vid=44d81b50-8e77-4afb-bb64-bef15549b486"},"vehicle_type_id":"4","last_reported":1687287943,"current_range_meters":20800,"station_id":"ce4bh012rcd13ifvqcv0","pricing_plan_id":"free"},{"bike_id":"71adf10d-2a55-45fc-adf9-28c46d0517aa","system_id":"levelo_inurba_marseille","lat":43.308828,"lon":5.396607,"is_reserved":false,"is_disabled":false,"rental_uris":{"android":"levelo://app?vid=71adf10d-2a55-45fc-adf9-28c46d0517aa","ios":"levelo://app?vid=71adf10d-2a55-45fc-adf9-28c46d0517aa"},"vehicle_type_id":"4","last_reported":1687287943,"current_range_meters":27200,"station_id":"ce4bh0p2rcd13ifvqd80","pricing_plan_id":"free"},{"bike_id":"4a4f54b4-b64a-425e-a820-e56c7df62da5","system_id":"levelo_inurba_marseille","lat":43.30884,"lon":5.39661,"is_reserved":false,"is_disabled":false,"rental_uris":{"android":"levelo://app?vid=4a4f54b4-b64a-425e-a820-e56c7df62da5","ios":"levelo://app?vid=4a4f54b4-b64a-425e-a820-e56c7df62da5"},"vehicle_type_id":"4","last_reported":1687287943,"current_range_meters":23600,"station_id":"ce4bh012rcd13ifvqcv0","pricing_plan_id":"free"},{"bike_id":"0710e32b-e21a-4c9a-bee7-a1a9ebc7df85","system_id":"levelo_inurba_marseille","lat":43.29529,"lon":5.385581,"is_reserved":false,"is_disabled":false,"rental_uris":{"android":"levelo://app?vid=0710e32b-e21a-4c9a-bee7-a1a9ebc7df85","ios":"levelo://app?vid=0710e32b-e21a-4c9a-bee7-a1a9ebc7df85"},"vehicle_type_id":"4","last_reported":1687287943,"current_range_meters":10800,"station_id":"ce4bgih2rcd13ifvqba0","pricing_plan_id":"free"},{"bike_id":"34818ed4-8655-4e18-ad2b-d2aa67663749","system_id":"levelo_inurba_marseille","lat":43.29529,"lon":5.385581,"is_reserved":false,"is_disabled":false,"rental_uris":{"android":"levelo://app?vid=34818ed4-8655-4e18-ad2b-d2aa67663749","ios":"levelo://app?vid=34818ed4-8655-4e18-ad2b-d2aa67663749"},"vehicle_type_id":"4","last_reported":1687287943,"current_range_meters":10800,"station_id":"ce4bgih2rcd13ifvqba0","pricing_plan_id":"free"},{"bike_id":"c8604bfb-6e42-443c-bb21-9b0888027f5a","system_id":"levelo_inurba_marseille","lat":43.29529,"lon":5.38539,"is_reserved":false,"is_disabled":false,"rental_uris":{"android":"levelo://app?vid=c8604bfb-6e42-443c-bb21-9b0888027f5a","ios":"levelo://app?vid=c8604bfb-6e42-443c-bb21-9b0888027f5a"},"vehicle_type_id":"4","last_reported":1687287943,"current_range_meters":19600,"station_id":"ce4bgih2rcd13ifvqba0","pricing_plan_id":"free"},{"bike_id":"ee2d2121-a972-48aa-9220-173feef5683a","system_id":"levelo_inurba_marseille","lat":43.29529,"lon":5.385581,"is_reserved":false,"is_disabled":false,"rental_uris":{"android":"levelo://app?vid=ee2d2121-a972-48aa-9220-173feef5683a","ios":"levelo://app?vid=ee2d2121-a972-48aa-9220-173feef5683a"},"vehicle_type_id":"4","last_reported":1687287943,"current_range_meters":400,"station_id":"ce4bgih2rcd13ifvqba0","pricing_plan_id":"free"},{"bike_id":"6a6a964e-a944-4fd6-8a9e-d4a812c60838","system_id":"levelo_inurba_marseille","lat":43.29529,"lon":5.385581,"is_reserved":false,"is_disabled":false,"rental_uris":{"android":"levelo://app?vid=6a6a964e-a944-4fd6-8a9e-d4a812c60838","ios":"levelo://app?vid=6a6a964e-a944-4fd6-8a9e-d4a812c60838"},"vehicle_type_id":"4","last_reported":1687287943,"current_range_meters":30400,"station_id":"ce4bgih2rcd13ifvqba0","pricing_plan_id":"free"},{"bike_id":"3353e38c-a9f0-47c3-8db3-6ecdc20b8dc7","system_id":"levelo_inurba_marseille","lat":43.29529,"lon":5.385581,"is_reserved":false,"is_disabled":false,"rental_uris":{"android":"levelo://app?vid=3353e38c-a9f0-47c3-8db3-6ecdc20b8dc7","ios":"levelo://app?vid=3353e38c-a9f0-47c3-8db3-6ecdc20b8dc7"},"vehicle_type_id":"4","last_reported":1687287943,"current_range_meters":6000,"station_id":"ce4bgih2rcd13ifvqba0","pricing_plan_id":"free"},{"bike_id":"d7bfdb5e-37bd-4cc5-8fef-4b87e2de44d9","system_id":"levelo_inurba_marseille","lat":43.29529,"lon":5.385581,"is_reserved":false,"is_disabled":false,"rental_uris":{"android":"levelo://app?vid=d7bfdb5e-37bd-4cc5-8fef-4b87e2de44d9","ios":"levelo://app?vid=d7bfdb5e-37bd-4cc5-8fef-4b87e2de44d9"},"vehicle_type_id":"4","last_reported":1687287943,"current_range_meters":4400,"station_id":"ce4bgih2rcd13ifvqba0","pricing_plan_id":"free"},{"bike_id":"045baaab-84f4-4081-ae8a-6a28aecacd56","system_id":"levelo_inurba_marseille","lat":43.29529,"lon":5.385581,"is_reserved":false,"is_disabled":false,"rental_uris":{"android":"levelo://app?vid=045baaab-84f4-4081-ae8a-6a28aecacd56","ios":"levelo://app?vid=045baaab-84f4-4081-ae8a-6a28aecacd56"},"vehicle_type_id":"4","last_reported":1687287943,"current_range_meters":19600,"station_id":"ce4bgih2rcd13ifvqba0","pricing_plan_id":"free"},{"bike_id":"397cb4b9-8a75-464e-b655-61b80d04483f","system_id":"levelo_inurba_marseille","lat":43.290779,"lon":5.371482,"is_reserved":false,"is_disabled":false,"rental_uris":{"android":"levelo://app?vid=397cb4b9-8a75-464e-b655-61b80d04483f","ios":"levelo://app?vid=397cb4b9-8a75-464e-b655-61b80d04483f"},"vehicle_type_id":"4","last_reported":1687287943,"current_range_meters":0,"station_id":"ce4bh5p2rcd13ifvqe4g","pricing_plan_id":"free"},{"bike_id":"aa082003-e961-48cf-9e5f-33c112459f89","system_id":"levelo_inurba_marseille","lat":43.302008,"lon":5.394694,"is_reserved":false,"is_disabled":false,"rental_uris":{"android":"levelo://app?vid=aa082003-e961-48cf-9e5f-33c112459f89","ios":"levelo://app?vid=aa082003-e961-48cf-9e5f-33c112459f89"},"vehicle_type_id":"4","last_reported":1687287943,"current_range_meters":13600,"station_id":"ce4bh0p2rcd13ifvqd70","pricing_plan_id":"free"},{"bike_id":"2cc8bfb3-fb89-4432-b710-b631c3ec6cc3","system_id":"levelo_inurba_marseille","lat":43.294162,"lon":5.386292,"is_reserved":false,"is_disabled":false,"rental_uris":{"android":"levelo://app?vid=2cc8bfb3-fb89-4432-b710-b631c3ec6cc3","ios":"levelo://app?vid=2cc8bfb3-fb89-4432-b710-b631c3ec6cc3"},"vehicle_type_id":"4","last_reported":1687287943,"current_range_meters":11200,"station_id":"ce4bh2h2rcd13ifvqdh0","pricing_plan_id":"free"},{"bike_id":"29199ef2-5a4e-424c-89d1-bcdb13118c78","system_id":"levelo_inurba_marseille","lat":43.294162,"lon":5.386292,"is_reserved":false,"is_disabled":false,"rental_uris":{"android":"levelo://app?vid=29199ef2-5a4e-424c-89d1-bcdb13118c78","ios":"levelo://app?vid=29199ef2-5a4e-424c-89d1-bcdb13118c78"},"vehicle_type_id":"4","last_reported":1687287943,"current_range_meters":30000,"station_id":"ce4bh2h2rcd13ifvqdh0","pricing_plan_id":"free"},{"bike_id":"3f8a925a-6a54-4259-a38f-9cf091aab246","system_id":"levelo_inurba_marseille","lat":43.29419,"lon":5.38623,"is_reserved":false,"is_disabled":false,"rental_uris":{"android":"levelo://app?vid=3f8a925a-6a54-4259-a38f-9cf091aab246","ios":"levelo://app?vid=3f8a925a-6a54-4259-a38f-9cf091aab246"},"vehicle_type_id":"4","last_reported":1687287943,"current_range_meters":31200,"station_id":"ce4bh2h2rcd13ifvqdh0","pricing_plan_id":"free"},{"bike_id":"01eb0812-4558-4aea-bf50-ad066f363f38","system_id":"levelo_inurba_marseille","lat":43.28954,"lon":5.36435,"is_reserved":false,"is_disabled":false,"rental_uris":{"android":"levelo://app?vid=01eb0812-4558-4aea-bf50-ad066f363f38","ios":"levelo://app?vid=01eb0812-4558-4aea-bf50-ad066f363f38"},"vehicle_type_id":"4","last_reported":1687287943,"current_range_meters":6000,"station_id":"","pricing_plan_id":"free"},{"bike_id":"1b637627-da6a-4dd5-9ea4-9d26d6cafe90","system_id":"levelo_inurba_marseille","lat":43.289184,"lon":5.366408,"is_reserved":false,"is_disabled":false,"rental_uris":{"android":"levelo://app?vid=1b637627-da6a-4dd5-9ea4-9d26d6cafe90","ios":"levelo://app?vid=1b637627-da6a-4dd5-9ea4-9d26d6cafe90"},"vehicle_type_id":"4","last_reported":1687287943,"current_range_meters":31200,"station_id":"ce4bhap2rcd13ifvqek0","pricing_plan_id":"free"},{"bike_id":"0609f09b-61e5-40d1-a057-3a5b9409ddd1","system_id":"levelo_inurba_marseille","lat":43.294153,"lon":5.386305,"is_reserved":false,"is_disabled":false,"rental_uris":{"android":"levelo://app?vid=0609f09b-61e5-40d1-a057-3a5b9409ddd1","ios":"levelo://app?vid=0609f09b-61e5-40d1-a057-3a5b9409ddd1"},"vehicle_type_id":"4","last_reported":1687287943,"current_range_meters":23600,"station_id":"ce4bh2h2rcd13ifvqdh0","pricing_plan_id":"free"},{"bike_id":"64d31aab-68b7-4fb8-a2af-870e77fb4c20","system_id":"levelo_inurba_marseille","lat":43.289184,"lon":5.366408,"is_reserved":false,"is_disabled":false,"rental_uris":{"android":"levelo://app?vid=64d31aab-68b7-4fb8-a2af-870e77fb4c20","ios":"levelo://app?vid=64d31aab-68b7-4fb8-a2af-870e77fb4c20"},"vehicle_type_id":"4","last_reported":1687287943,"current_range_meters":0,"station_id":"ce4bhap2rcd13ifvqek0","pricing_plan_id":"free"},{"bike_id":"f913a5f6-ec54-4cd5-a671-cd808a355916","system_id":"levelo_inurba_marseille","lat":43.289184,"lon":5.366408,"is_reserved":false,"is_disabled":false,"rental_uris":{"android":"levelo://app?vid=f913a5f6-ec54-4cd5-a671-cd808a355916","ios":"levelo://app?vid=f913a5f6-ec54-4cd5-a671-cd808a355916"},"vehicle_type_id":"4","last_reported":1687287943,"current_range_meters":29200,"station_id":"ce4bhap2rcd13ifvqek0","pricing_plan_id":"free"},{"bike_id":"7382a73e-cdb3-4890-a36d-ea634aeed312","system_id":"levelo_inurba_marseille","lat":43.289184,"lon":5.366408,"is_reserved":false,"is_disabled":false,"rental_uris":{"android":"levelo://app?vid=7382a73e-cdb3-4890-a36d-ea634aeed312","ios":"levelo://app?vid=7382a73e-cdb3-4890-a36d-ea634aeed312"},"vehicle_type_id":"4","last_reported":1687287943,"current_range_meters":11600,"station_id":"ce4bhap2rcd13ifvqek0","pricing_plan_id":"free"},{"bike_id":"1a8fe91e-5aa7-4c87-8a84-6d1d0b72b8d2","system_id":"levelo_inurba_marseille","lat":43.289184,"lon":5.366408,"is_reserved":false,"is_disabled":false,"rental_uris":{"android":"levelo://app?vid=1a8fe91e-5aa7-4c87-8a84-6d1d0b72b8d2","ios":"levelo://app?vid=1a8fe91e-5aa7-4c87-8a84-6d1d0b72b8d2"},"vehicle_type_id":"4","last_reported":1687287943,"current_range_meters":31200,"station_id":"ce4bhap2rcd13ifvqek0","pricing_plan_id":"free"},{"bike_id":"bf806780-bfee-448c-9a17-2b28bdc6e4df","system_id":"levelo_inurba_marseille","lat":43.289184,"lon":5.366408,"is_reserved":false,"is_disabled":false,"rental_uris":{"android":"levelo://app?vid=bf806780-bfee-448c-9a17-2b28bdc6e4df","ios":"levelo://app?vid=bf806780-bfee-448c-9a17-2b28bdc6e4df"},"vehicle_type_id":"4","last_reported":1687287943,"current_range_meters":10400,"station_id":"ce4bhap2rcd13ifvqek0","pricing_plan_id":"free"},{"bike_id":"a60caa9b-21ef-445d-8333-ef2797a36af5","system_id":"levelo_inurba_marseille","lat":43.289184,"lon":5.366408,"is_reserved":false,"is_disabled":false,"rental_uris":{"android":"levelo://app?vid=a60caa9b-21ef-445d-8333-ef2797a36af5","ios":"levelo://app?vid=a60caa9b-21ef-445d-8333-ef2797a36af5"},"vehicle_type_id":"4","last_reported":1687287943,"current_range_meters":18400,"station_id":"ce4bhap2rcd13ifvqek0","pricing_plan_id":"free"},{"bike_id":"e9a72b12-e4f8-4397-b26b-6219566ffd09","system_id":"levelo_inurba_marseille","lat":43.289184,"lon":5.366408,"is_reserved":false,"is_disabled":false,"rental_uris":{"android":"levelo://app?vid=e9a72b12-e4f8-4397-b26b-6219566ffd09","ios":"levelo://app?vid=e9a72b12-e4f8-4397-b26b-6219566ffd09"},"vehicle_type_id":"4","last_reported":1687287943,"current_range_meters":30400,"station_id":"ce4bhap2rcd13ifvqek0","pricing_plan_id":"free"},{"bike_id":"7a5001d0-4334-40f1-9012-8a6a3c2d844e","system_id":"levelo_inurba_marseille","lat":43.292644,"lon":5.384257,"is_reserved":false,"is_disabled":false,"rental_uris":{"android":"levelo://app?vid=7a5001d0-4334-40f1-9012-8a6a3c2d844e","ios":"levelo://app?vid=7a5001d0-4334-40f1-9012-8a6a3c2d844e"},"vehicle_type_id":"4","last_reported":1687287943,"current_range_meters":12800,"station_id":"ce4bh692rcd13ifvqea0","pricing_plan_id":"free"},{"bike_id":"f339d6f7-11c9-4a4d-af5c-836882067cc7","system_id":"levelo_inurba_marseille","lat":43.292644,"lon":5.384257,"is_reserved":false,"is_disabled":false,"rental_uris":{"android":"levelo://app?vid=f339d6f7-11c9-4a4d-af5c-836882067cc7","ios":"levelo://app?vid=f339d6f7-11c9-4a4d-af5c-836882067cc7"},"vehicle_type_id":"4","last_reported":1687287943,"current_range_meters":12000,"station_id":"ce4bh692rcd13ifvqea0","pricing_plan_id":"free"},{"bike_id":"70c95a3d-6759-485c-9ffd-4023c3d4df8e","system_id":"levelo_inurba_marseille","lat":43.29265,"lon":5.38425,"is_reserved":false,"is_disabled":false,"rental_uris":{"android":"levelo://app?vid=70c95a3d-6759-485c-9ffd-4023c3d4df8e","ios":"levelo://app?vid=70c95a3d-6759-485c-9ffd-4023c3d4df8e"},"vehicle_type_id":"4","last_reported":1687287943,"current_range_meters":0,"station_id":"ce4bh692rcd13ifvqea0","pricing_plan_id":"free"},{"bike_id":"87b88639-752b-42c6-9c02-6241e5fd68e6","system_id":"levelo_inurba_marseille","lat":43.292644,"lon":5.384257,"is_reserved":false,"is_disabled":false,"rental_uris":{"android":"levelo://app?vid=87b88639-752b-42c6-9c02-6241e5fd68e6","ios":"levelo://app?vid=87b88639-752b-42c6-9c02-6241e5fd68e6"},"vehicle_type_id":"4","last_reported":1687287943,"current_range_meters":11200,"station_id":"ce4bh692rcd13ifvqea0","pricing_plan_id":"free"},{"bike_id":"9b1a103c-ff4c-40b9-93f3-50e9f316f0c3","system_id":"levelo_inurba_marseille","lat":43.292644,"lon":5.384257,"is_reserved":false,"is_disabled":false,"rental_uris":{"android":"levelo://app?vid=9b1a103c-ff4c-40b9-93f3-50e9f316f0c3","ios":"levelo://app?vid=9b1a103c-ff4c-40b9-93f3-50e9f316f0c3"},"vehicle_type_id":"4","last_reported":1687287943,"current_range_meters":11600,"station_id":"ce4bh692rcd13ifvqea0","pricing_plan_id":"free"},{"bike_id":"1ab710d7-9873-4706-abab-6d25e43901e2","system_id":"levelo_inurba_marseille","lat":43.292644,"lon":5.384257,"is_reserved":false,"is_disabled":false,"rental_uris":{"android":"levelo://app?vid=1ab710d7-9873-4706-abab-6d25e43901e2","ios":"levelo://app?vid=1ab710d7-9873-4706-abab-6d25e43901e2"},"vehicle_type_id":"4","last_reported":1687287943,"current_range_meters":22800,"station_id":"ce4bh692rcd13ifvqea0","pricing_plan_id":"free"},{"bike_id":"27e78303-907e-42b2-b1ad-06ba1cbcc61f","system_id":"levelo_inurba_marseille","lat":43.304296,"lon":5.397513,"is_reserved":false,"is_disabled":false,"rental_uris":{"android":"levelo://app?vid=27e78303-907e-42b2-b1ad-06ba1cbcc61f","ios":"levelo://app?vid=27e78303-907e-42b2-b1ad-06ba1cbcc61f"},"vehicle_type_id":"4","last_reported":1687287943,"current_range_meters":17600,"station_id":"ce4bh092rcd13ifvqd20","pricing_plan_id":"free"},{"bike_id":"6046d68a-fff3-411f-ac90-3852b10447e1","system_id":"levelo_inurba_marseille","lat":43.304274,"lon":5.397513,"is_reserved":false,"is_disabled":false,"rental_uris":{"android":"levelo://app?vid=6046d68a-fff3-411f-ac90-3852b10447e1","ios":"levelo://app?vid=6046d68a-fff3-411f-ac90-3852b10447e1"},"vehicle_type_id":"4","last_reported":1687287943,"current_range_meters":7200,"station_id":"ce4bh092rcd13ifvqd20","pricing_plan_id":"free"},{"bike_id":"38eb09af-7166-42b9-865e-84246929498f","system_id":"levelo_inurba_marseille","lat":43.29253,"lon":5.38441,"is_reserved":false,"is_disabled":false,"rental_uris":{"android":"levelo://app?vid=38eb09af-7166-42b9-865e-84246929498f","ios":"levelo://app?vid=38eb09af-7166-42b9-865e-84246929498f"},"vehicle_type_id":"4","last_reported":1687287943,"current_range_meters":31200,"station_id":"ce4bh692rcd13ifvqea0","pricing_plan_id":"free"},{"bike_id":"caae3184-2761-4447-892b-122d5d31c622","system_id":"levelo_inurba_marseille","lat":43.30304,"lon":5.39692,"is_reserved":false,"is_disabled":false,"rental_uris":{"android":"levelo://app?vid=caae3184-2761-4447-892b-122d5d31c622","ios":"levelo://app?vid=caae3184-2761-4447-892b-122d5d31c622"},"vehicle_type_id":"4","last_reported":1687287943,"current_range_meters":18400,"station_id":"ce4bh092rcd13ifvqd20","pricing_plan_id":"free"},{"bike_id":"06d817da-6b26-4ac5-a53e-339ea6bb2212","system_id":"levelo_inurba_marseille","lat":43.30404,"lon":5.3975,"is_reserved":false,"is_disabled":false,"rental_uris":{"android":"levelo://app?vid=06d817da-6b26-4ac5-a53e-339ea6bb2212","ios":"levelo://app?vid=06d817da-6b26-4ac5-a53e-339ea6bb2212"},"vehicle_type_id":"4","last_reported":1687287943,"current_range_meters":16000,"station_id":"ce4bh092rcd13ifvqd20","pricing_plan_id":"free"},{"bike_id":"408c484d-b623-491e-b389-bf20155d7b08","system_id":"levelo_inurba_marseille","lat":43.290995,"lon":5.381361,"is_reserved":false,"is_disabled":false,"rental_uris":{"android":"levelo://app?vid=408c484d-b623-491e-b389-bf20155d7b08","ios":"levelo://app?vid=408c484d-b623-491e-b389-bf20155d7b08"},"vehicle_type_id":"4","last_reported":1687287943,"current_range_meters":6800,"station_id":"ce4bh512rcd13ifvqe2g","pricing_plan_id":"free"},{"bike_id":"6523ebbd-b89b-4692-9fca-da5ec6530eca","system_id":"levelo_inurba_marseille","lat":43.290995,"lon":5.381361,"is_reserved":false,"is_disabled":false,"rental_uris":{"android":"levelo://app?vid=6523ebbd-b89b-4692-9fca-da5ec6530eca","ios":"levelo://app?vid=6523ebbd-b89b-4692-9fca-da5ec6530eca"},"vehicle_type_id":"4","last_reported":1687287943,"current_range_meters":31200,"station_id":"ce4bh512rcd13ifvqe2g","pricing_plan_id":"free"},{"bike_id":"8331dcfb-0854-4c00-8f69-2fa4715362db","system_id":"levelo_inurba_marseille","lat":43.290866,"lon":5.381239,"is_reserved":false,"is_disabled":false,"rental_uris":{"android":"levelo://app?vid=8331dcfb-0854-4c00-8f69-2fa4715362db","ios":"levelo://app?vid=8331dcfb-0854-4c00-8f69-2fa4715362db"},"vehicle_type_id":"4","last_reported":1687287943,"current_range_meters":31200,"station_id":"ce4bh512rcd13ifvqe2g","pricing_plan_id":"free"},{"bike_id":"477c2468-c507-406e-8b2d-0a7b91cb5386","system_id":"levelo_inurba_marseille","lat":43.297815,"lon":5.393548,"is_reserved":false,"is_disabled":false,"rental_uris":{"android":"levelo://app?vid=477c2468-c507-406e-8b2d-0a7b91cb5386","ios":"levelo://app?vid=477c2468-c507-406e-8b2d-0a7b91cb5386"},"vehicle_type_id":"4","last_reported":1687287943,"current_range_meters":14400,"station_id":"chh1huq6cuj3fo74tm60","pricing_plan_id":"free"},{"bike_id":"49b9818e-d3ee-4cba-89a9-a62e32756dcd","system_id":"levelo_inurba_marseille","lat":43.297815,"lon":5.393548,"is_reserved":false,"is_disabled":false,"rental_uris":{"android":"levelo://app?vid=49b9818e-d3ee-4cba-89a9-a62e32756dcd","ios":"levelo://app?vid=49b9818e-d3ee-4cba-89a9-a62e32756dcd"},"vehicle_type_id":"4","last_reported":1687287943,"current_range_meters":17600,"station_id":"chh1huq6cuj3fo74tm60","pricing_plan_id":"free"},{"bike_id":"e532fdbd-fb2f-4753-be28-766dec91e3d5","system_id":"levelo_inurba_marseille","lat":43.290249,"lon":5.381232,"is_reserved":false,"is_disabled":false,"rental_uris":{"android":"levelo://app?vid=e532fdbd-fb2f-4753-be28-766dec91e3d5","ios":"levelo://app?vid=e532fdbd-fb2f-4753-be28-766dec91e3d5"},"vehicle_type_id":"4","last_reported":1687287943,"current_range_meters":31200,"station_id":"ce4bh4p2rcd13ifvqe1g","pricing_plan_id":"free"},{"bike_id":"8ee7c206-0a5f-4f01-b955-4f809383abf7","system_id":"levelo_inurba_marseille","lat":43.2902,"lon":5.38118,"is_reserved":false,"is_disabled":false,"rental_uris":{"android":"levelo://app?vid=8ee7c206-0a5f-4f01-b955-4f809383abf7","ios":"levelo://app?vid=8ee7c206-0a5f-4f01-b955-4f809383abf7"},"vehicle_type_id":"4","last_reported":1687287943,"current_range_meters":31200,"station_id":"ce4bh4p2rcd13ifvqe1g","pricing_plan_id":"free"},{"bike_id":"3408a557-d0e4-465c-8bdf-992158d500ed","system_id":"levelo_inurba_marseille","lat":43.290174,"lon":5.381247,"is_reserved":false,"is_disabled":false,"rental_uris":{"android":"levelo://app?vid=3408a557-d0e4-465c-8bdf-992158d500ed","ios":"levelo://app?vid=3408a557-d0e4-465c-8bdf-992158d500ed"},"vehicle_type_id":"4","last_reported":1687287943,"current_range_meters":29200,"station_id":"ce4bh4p2rcd13ifvqe1g","pricing_plan_id":"free"},{"bike_id":"c2ce7015-53eb-4d82-afad-153372793cd0","system_id":"levelo_inurba_marseille","lat":43.290171,"lon":5.381243,"is_reserved":false,"is_disabled":false,"rental_uris":{"android":"levelo://app?vid=c2ce7015-53eb-4d82-afad-153372793cd0","ios":"levelo://app?vid=c2ce7015-53eb-4d82-afad-153372793cd0"},"vehicle_type_id":"4","last_reported":1687287943,"current_range_meters":31200,"station_id":"ce4bh4p2rcd13ifvqe1g","pricing_plan_id":"free"},{"bike_id":"d8f28906-1907-4782-8e8c-5c23db04fce8","system_id":"levelo_inurba_marseille","lat":43.290166,"lon":5.381235,"is_reserved":false,"is_disabled":false,"rental_uris":{"android":"levelo://app?vid=d8f28906-1907-4782-8e8c-5c23db04fce8","ios":"levelo://app?vid=d8f28906-1907-4782-8e8c-5c23db04fce8"},"vehicle_type_id":"4","last_reported":1687287943,"current_range_meters":31200,"station_id":"","pricing_plan_id":"free"},{"bike_id":"6e73d602-93d7-494f-9afd-fe2c0d3d9594","system_id":"levelo_inurba_marseille","lat":43.290175,"lon":5.381285,"is_reserved":false,"is_disabled":false,"rental_uris":{"android":"levelo://app?vid=6e73d602-93d7-494f-9afd-fe2c0d3d9594","ios":"levelo://app?vid=6e73d602-93d7-494f-9afd-fe2c0d3d9594"},"vehicle_type_id":"4","last_reported":1687287943,"current_range_meters":31200,"station_id":"ce4bh4p2rcd13ifvqe1g","pricing_plan_id":"free"},{"bike_id":"63e231fc-75f0-419f-878a-183af92d2c29","system_id":"levelo_inurba_marseille","lat":43.29018,"lon":5.38138,"is_reserved":false,"is_disabled":false,"rental_uris":{"android":"levelo://app?vid=63e231fc-75f0-419f-878a-183af92d2c29","ios":"levelo://app?vid=63e231fc-75f0-419f-878a-183af92d2c29"},"vehicle_type_id":"4","last_reported":1687287943,"current_range_meters":16400,"station_id":"ce4bh4p2rcd13ifvqe1g","pricing_plan_id":"free"},{"bike_id":"d1d11884-ea4c-4205-a84c-8d9215b509c9","system_id":"levelo_inurba_marseille","lat":43.2901,"lon":5.381269,"is_reserved":false,"is_disabled":false,"rental_uris":{"android":"levelo://app?vid=d1d11884-ea4c-4205-a84c-8d9215b509c9","ios":"levelo://app?vid=d1d11884-ea4c-4205-a84c-8d9215b509c9"},"vehicle_type_id":"4","last_reported":1687287943,"current_range_meters":31200,"station_id":"ce4bh4p2rcd13ifvqe1g","pricing_plan_id":"free"},{"bike_id":"b706c640-15b8-4e85-89ff-2b806b4ad3c4","system_id":"levelo_inurba_marseille","lat":43.2901,"lon":5.381269,"is_reserved":false,"is_disabled":false,"rental_uris":{"android":"levelo://app?vid=b706c640-15b8-4e85-89ff-2b806b4ad3c4","ios":"levelo://app?vid=b706c640-15b8-4e85-89ff-2b806b4ad3c4"},"vehicle_type_id":"4","last_reported":1687287943,"current_range_meters":28000,"station_id":"ce4bh4p2rcd13ifvqe1g","pricing_plan_id":"free"},{"bike_id":"2b8a9239-b41d-4f84-a041-9f1a6be257e6","system_id":"levelo_inurba_marseille","lat":43.28847,"lon":5.35874,"is_reserved":false,"is_disabled":false,"rental_uris":{"android":"levelo://app?vid=2b8a9239-b41d-4f84-a041-9f1a6be257e6","ios":"levelo://app?vid=2b8a9239-b41d-4f84-a041-9f1a6be257e6"},"vehicle_type_id":"4","last_reported":1687287943,"current_range_meters":1600,"station_id":"","pricing_plan_id":"free"},{"bike_id":"2a292b91-50aa-4d4e-b0b0-b514d3a91ec7","system_id":"levelo_inurba_marseille","lat":43.28847,"lon":5.35873,"is_reserved":false,"is_disabled":false,"rental_uris":{"android":"levelo://app?vid=2a292b91-50aa-4d4e-b0b0-b514d3a91ec7","ios":"levelo://app?vid=2a292b91-50aa-4d4e-b0b0-b514d3a91ec7"},"vehicle_type_id":"4","last_reported":1687287943,"current_range_meters":400,"station_id":"","pricing_plan_id":"free"},{"bike_id":"e18e7bce-ab06-4330-9d79-7650dd7906ec","system_id":"levelo_inurba_marseille","lat":43.28849,"lon":5.35851,"is_reserved":false,"is_disabled":false,"rental_uris":{"android":"levelo://app?vid=e18e7bce-ab06-4330-9d79-7650dd7906ec","ios":"levelo://app?vid=e18e7bce-ab06-4330-9d79-7650dd7906ec"},"vehicle_type_id":"4","last_reported":1687287943,"current_range_meters":19600,"station_id":"ce4bhb12rcd13ifvqem0","pricing_plan_id":"free"},{"bike_id":"828bf858-99d1-4e83-a8f7-f8c80323e568","system_id":"levelo_inurba_marseille","lat":43.28843,"lon":5.35861,"is_reserved":false,"is_disabled":false,"rental_uris":{"android":"levelo://app?vid=828bf858-99d1-4e83-a8f7-f8c80323e568","ios":"levelo://app?vid=828bf858-99d1-4e83-a8f7-f8c80323e568"},"vehicle_type_id":"4","last_reported":1687287943,"current_range_meters":6000,"station_id":"ce4bhb12rcd13ifvqem0","pricing_plan_id":"free"},{"bike_id":"d14d18db-af77-49fa-8dbf-0ecbb7b4af14","system_id":"levelo_inurba_marseille","lat":43.28838,"lon":5.35864,"is_reserved":false,"is_disabled":false,"rental_uris":{"android":"levelo://app?vid=d14d18db-af77-49fa-8dbf-0ecbb7b4af14","ios":"levelo://app?vid=d14d18db-af77-49fa-8dbf-0ecbb7b4af14"},"vehicle_type_id":"4","last_reported":1687287943,"current_range_meters":31200,"station_id":"ce4bhb12rcd13ifvqem0","pricing_plan_id":"free"},{"bike_id":"c7e964bd-7f19-4419-ba5c-f550195f9133","system_id":"levelo_inurba_marseille","lat":43.28856,"lon":5.358371,"is_reserved":false,"is_disabled":false,"rental_uris":{"android":"levelo://app?vid=c7e964bd-7f19-4419-ba5c-f550195f9133","ios":"levelo://app?vid=c7e964bd-7f19-4419-ba5c-f550195f9133"},"vehicle_type_id":"4","last_reported":1687287943,"current_range_meters":31200,"station_id":"ce4bhb12rcd13ifvqem0","pricing_plan_id":"free"},{"bike_id":"b64ffd0d-b036-442c-83ea-24c0e25d3a90","system_id":"levelo_inurba_marseille","lat":43.309371,"lon":5.401449,"is_reserved":false,"is_disabled":false,"rental_uris":{"android":"levelo://app?vid=b64ffd0d-b036-442c-83ea-24c0e25d3a90","ios":"levelo://app?vid=b64ffd0d-b036-442c-83ea-24c0e25d3a90"},"vehicle_type_id":"4","last_reported":1687287943,"current_range_meters":4800,"station_id":"ce4bgvp2rcd13ifvqct0","pricing_plan_id":"free"},{"bike_id":"f80d5290-aa5d-4667-9b81-46910ad48ac6","system_id":"levelo_inurba_marseille","lat":43.309371,"lon":5.401449,"is_reserved":false,"is_disabled":false,"rental_uris":{"android":"levelo://app?vid=f80d5290-aa5d-4667-9b81-46910ad48ac6","ios":"levelo://app?vid=f80d5290-aa5d-4667-9b81-46910ad48ac6"},"vehicle_type_id":"4","last_reported":1687287943,"current_range_meters":2000,"station_id":"ce4bgvp2rcd13ifvqct0","pricing_plan_id":"free"},{"bike_id":"9b005e5e-3674-4446-94d7-f9d0dcc441b6","system_id":"levelo_inurba_marseille","lat":43.309371,"lon":5.401449,"is_reserved":false,"is_disabled":false,"rental_uris":{"android":"levelo://app?vid=9b005e5e-3674-4446-94d7-f9d0dcc441b6","ios":"levelo://app?vid=9b005e5e-3674-4446-94d7-f9d0dcc441b6"},"vehicle_type_id":"4","last_reported":1687287943,"current_range_meters":4000,"station_id":"ce4bgvp2rcd13ifvqct0","pricing_plan_id":"free"},{"bike_id":"ed57fd2d-3e96-417d-a04e-8596187afbdc","system_id":"levelo_inurba_marseille","lat":43.306412,"lon":5.401035,"is_reserved":false,"is_disabled":false,"rental_uris":{"android":"levelo://app?vid=ed57fd2d-3e96-417d-a04e-8596187afbdc","ios":"levelo://app?vid=ed57fd2d-3e96-417d-a04e-8596187afbdc"},"vehicle_type_id":"4","last_reported":1687287943,"current_range_meters":18000,"station_id":"ce4bh112rcd13ifvqda0","pricing_plan_id":"free"},{"bike_id":"14e3d718-dba5-4e72-b0b2-10e8f53c7468","system_id":"levelo_inurba_marseille","lat":43.301117,"lon":5.398795,"is_reserved":false,"is_disabled":false,"rental_uris":{"android":"levelo://app?vid=14e3d718-dba5-4e72-b0b2-10e8f53c7468","ios":"levelo://app?vid=14e3d718-dba5-4e72-b0b2-10e8f53c7468"},"vehicle_type_id":"4","last_reported":1687287943,"current_range_meters":15200,"station_id":"ce4bh0h2rcd13ifvqd40","pricing_plan_id":"free"},{"bike_id":"c3ca491e-0474-4587-a34c-368165322775","system_id":"levelo_inurba_marseille","lat":43.301117,"lon":5.398795,"is_reserved":false,"is_disabled":false,"rental_uris":{"android":"levelo://app?vid=c3ca491e-0474-4587-a34c-368165322775","ios":"levelo://app?vid=c3ca491e-0474-4587-a34c-368165322775"},"vehicle_type_id":"4","last_reported":1687287943,"current_range_meters":21600,"station_id":"ce4bh0h2rcd13ifvqd40","pricing_plan_id":"free"},{"bike_id":"47bcb94d-b5f6-4637-8509-3698f3d6472a","system_id":"levelo_inurba_marseille","lat":43.301117,"lon":5.398795,"is_reserved":false,"is_disabled":false,"rental_uris":{"android":"levelo://app?vid=47bcb94d-b5f6-4637-8509-3698f3d6472a","ios":"levelo://app?vid=47bcb94d-b5f6-4637-8509-3698f3d6472a"},"vehicle_type_id":"4","last_reported":1687287943,"current_range_meters":5200,"station_id":"ce4bh0h2rcd13ifvqd40","pricing_plan_id":"free"},{"bike_id":"ccec59b6-a924-4dde-9a71-649eba1f3d37","system_id":"levelo_inurba_marseille","lat":43.301117,"lon":5.398795,"is_reserved":false,"is_disabled":false,"rental_uris":{"android":"levelo://app?vid=ccec59b6-a924-4dde-9a71-649eba1f3d37","ios":"levelo://app?vid=ccec59b6-a924-4dde-9a71-649eba1f3d37"},"vehicle_type_id":"4","last_reported":1687287943,"current_range_meters":15200,"station_id":"ce4bh0h2rcd13ifvqd40","pricing_plan_id":"free"},{"bike_id":"90ac790d-c542-4d62-ad97-b57f2332f906","system_id":"levelo_inurba_marseille","lat":43.301117,"lon":5.398795,"is_reserved":false,"is_disabled":false,"rental_uris":{"android":"levelo://app?vid=90ac790d-c542-4d62-ad97-b57f2332f906","ios":"levelo://app?vid=90ac790d-c542-4d62-ad97-b57f2332f906"},"vehicle_type_id":"4","last_reported":1687287943,"current_range_meters":3200,"station_id":"ce4bh0h2rcd13ifvqd40","pricing_plan_id":"free"},{"bike_id":"a9f69acc-41a4-4197-96cb-18f2bcb212aa","system_id":"levelo_inurba_marseille","lat":43.301117,"lon":5.398795,"is_reserved":false,"is_disabled":false,"rental_uris":{"android":"levelo://app?vid=a9f69acc-41a4-4197-96cb-18f2bcb212aa","ios":"levelo://app?vid=a9f69acc-41a4-4197-96cb-18f2bcb212aa"},"vehicle_type_id":"4","last_reported":1687287943,"current_range_meters":2400,"station_id":"ce4bh0h2rcd13ifvqd40","pricing_plan_id":"free"},{"bike_id":"fa020c06-37eb-41fb-9859-3646690505db","system_id":"levelo_inurba_marseille","lat":43.286961,"lon":5.373785,"is_reserved":false,"is_disabled":false,"rental_uris":{"android":"levelo://app?vid=fa020c06-37eb-41fb-9859-3646690505db","ios":"levelo://app?vid=fa020c06-37eb-41fb-9859-3646690505db"},"vehicle_type_id":"4","last_reported":1687287943,"current_range_meters":5600,"station_id":"ce4bh3p2rcd13ifvqdq0","pricing_plan_id":"free"},{"bike_id":"5054e3ca-0890-4b45-969a-d7115d72bb9a","system_id":"levelo_inurba_marseille","lat":43.286961,"lon":5.373785,"is_reserved":false,"is_disabled":false,"rental_uris":{"android":"levelo://app?vid=5054e3ca-0890-4b45-969a-d7115d72bb9a","ios":"levelo://app?vid=5054e3ca-0890-4b45-969a-d7115d72bb9a"},"vehicle_type_id":"4","last_reported":1687287943,"current_range_meters":23200,"station_id":"ce4bh3p2rcd13ifvqdq0","pricing_plan_id":"free"},{"bike_id":"f32cb309-ac5c-4bce-9b5e-565c2f998a59","system_id":"levelo_inurba_marseille","lat":43.29876,"lon":5.39737,"is_reserved":false,"is_disabled":false,"rental_uris":{"android":"levelo://app?vid=f32cb309-ac5c-4bce-9b5e-565c2f998a59","ios":"levelo://app?vid=f32cb309-ac5c-4bce-9b5e-565c2f998a59"},"vehicle_type_id":"4","last_reported":1687287943,"current_range_meters":30800,"station_id":"ce4bh0h2rcd13ifvqd50","pricing_plan_id":"free"},{"bike_id":"c76037a2-c80a-4d84-90f5-00474b839724","system_id":"levelo_inurba_marseille","lat":43.287,"lon":5.37375,"is_reserved":false,"is_disabled":false,"rental_uris":{"android":"levelo://app?vid=c76037a2-c80a-4d84-90f5-00474b839724","ios":"levelo://app?vid=c76037a2-c80a-4d84-90f5-00474b839724"},"vehicle_type_id":"4","last_reported":1687287943,"current_range_meters":29200,"station_id":"ce4bh3p2rcd13ifvqdq0","pricing_plan_id":"free"},{"bike_id":"e951add2-798c-4618-a72a-a40a88d87448","system_id":"levelo_inurba_marseille","lat":43.295196,"lon":5.39397,"is_reserved":false,"is_disabled":false,"rental_uris":{"android":"levelo://app?vid=e951add2-798c-4618-a72a-a40a88d87448","ios":"levelo://app?vid=e951add2-798c-4618-a72a-a40a88d87448"},"vehicle_type_id":"4","last_reported":1687287943,"current_range_meters":8000,"station_id":"ce4bh292rcd13ifvqdf0","pricing_plan_id":"free"},{"bike_id":"9aeac4e5-4193-46f9-863f-b757ee72f6be","system_id":"levelo_inurba_marseille","lat":43.286593,"lon":5.363346,"is_reserved":false,"is_disabled":false,"rental_uris":{"android":"levelo://app?vid=9aeac4e5-4193-46f9-863f-b757ee72f6be","ios":"levelo://app?vid=9aeac4e5-4193-46f9-863f-b757ee72f6be"},"vehicle_type_id":"4","last_reported":1687287943,"current_range_meters":29200,"station_id":"ce4bhah2rcd13ifvqej0","pricing_plan_id":"free"},{"bike_id":"51a42284-aaff-406c-8ef6-f0c21ad49dc7","system_id":"levelo_inurba_marseille","lat":43.286593,"lon":5.363346,"is_reserved":false,"is_disabled":false,"rental_uris":{"android":"levelo://app?vid=51a42284-aaff-406c-8ef6-f0c21ad49dc7","ios":"levelo://app?vid=51a42284-aaff-406c-8ef6-f0c21ad49dc7"},"vehicle_type_id":"4","last_reported":1687287943,"current_range_meters":7600,"station_id":"ce4bhah2rcd13ifvqej0","pricing_plan_id":"free"},{"bike_id":"26a78582-e2ee-4495-bc9e-2daf0c692872","system_id":"levelo_inurba_marseille","lat":43.286593,"lon":5.363346,"is_reserved":false,"is_disabled":false,"rental_uris":{"android":"levelo://app?vid=26a78582-e2ee-4495-bc9e-2daf0c692872","ios":"levelo://app?vid=26a78582-e2ee-4495-bc9e-2daf0c692872"},"vehicle_type_id":"4","last_reported":1687287943,"current_range_meters":22400,"station_id":"ce4bhah2rcd13ifvqej0","pricing_plan_id":"free"},{"bike_id":"b893aece-7403-4ae4-b714-da9573c8a0cf","system_id":"levelo_inurba_marseille","lat":43.286961,"lon":5.373785,"is_reserved":false,"is_disabled":false,"rental_uris":{"android":"levelo://app?vid=b893aece-7403-4ae4-b714-da9573c8a0cf","ios":"levelo://app?vid=b893aece-7403-4ae4-b714-da9573c8a0cf"},"vehicle_type_id":"4","last_reported":1687287943,"current_range_meters":0,"station_id":"ce4bh3p2rcd13ifvqdq0","pricing_plan_id":"free"},{"bike_id":"4f3bee13-31b7-4f18-9df0-5b44f222c048","system_id":"levelo_inurba_marseille","lat":43.29524,"lon":5.39404,"is_reserved":false,"is_disabled":false,"rental_uris":{"android":"levelo://app?vid=4f3bee13-31b7-4f18-9df0-5b44f222c048","ios":"levelo://app?vid=4f3bee13-31b7-4f18-9df0-5b44f222c048"},"vehicle_type_id":"4","last_reported":1687287943,"current_range_meters":10000,"station_id":"ce4bh292rcd13ifvqdf0","pricing_plan_id":"free"},{"bike_id":"e3ec115b-dc29-4a3f-b07f-92adf2051303","system_id":"levelo_inurba_marseille","lat":43.286961,"lon":5.373785,"is_reserved":false,"is_disabled":false,"rental_uris":{"android":"levelo://app?vid=e3ec115b-dc29-4a3f-b07f-92adf2051303","ios":"levelo://app?vid=e3ec115b-dc29-4a3f-b07f-92adf2051303"},"vehicle_type_id":"4","last_reported":1687287943,"current_range_meters":26000,"station_id":"ce4bh3p2rcd13ifvqdq0","pricing_plan_id":"free"},{"bike_id":"e98b1d69-bde9-457a-9287-1b24b6f85e96","system_id":"levelo_inurba_marseille","lat":43.286039,"lon":5.370679,"is_reserved":false,"is_disabled":false,"rental_uris":{"android":"levelo://app?vid=e98b1d69-bde9-457a-9287-1b24b6f85e96","ios":"levelo://app?vid=e98b1d69-bde9-457a-9287-1b24b6f85e96"},"vehicle_type_id":"4","last_reported":1687287943,"current_range_meters":27200,"station_id":"ce4bht12rcd13ifvqi60","pricing_plan_id":"free"},{"bike_id":"5420aa91-6ebf-438c-a68b-7f6b92a81f94","system_id":"levelo_inurba_marseille","lat":43.290336,"lon":5.386425,"is_reserved":false,"is_disabled":false,"rental_uris":{"android":"levelo://app?vid=5420aa91-6ebf-438c-a68b-7f6b92a81f94","ios":"levelo://app?vid=5420aa91-6ebf-438c-a68b-7f6b92a81f94"},"vehicle_type_id":"4","last_reported":1687287943,"current_range_meters":0,"station_id":"ce4bh4p2rcd13ifvqe0g","pricing_plan_id":"free"},{"bike_id":"a3955602-62bc-42b0-a252-7473622f49cf","system_id":"levelo_inurba_marseille","lat":43.290336,"lon":5.386425,"is_reserved":false,"is_disabled":false,"rental_uris":{"android":"levelo://app?vid=a3955602-62bc-42b0-a252-7473622f49cf","ios":"levelo://app?vid=a3955602-62bc-42b0-a252-7473622f49cf"},"vehicle_type_id":"4","last_reported":1687287943,"current_range_meters":6000,"station_id":"ce4bh4p2rcd13ifvqe0g","pricing_plan_id":"free"},{"bike_id":"495a0f79-aa31-488e-b7e8-140405beabe1","system_id":"levelo_inurba_marseille","lat":43.290336,"lon":5.386425,"is_reserved":false,"is_disabled":false,"rental_uris":{"android":"levelo://app?vid=495a0f79-aa31-488e-b7e8-140405beabe1","ios":"levelo://app?vid=495a0f79-aa31-488e-b7e8-140405beabe1"},"vehicle_type_id":"4","last_reported":1687287943,"current_range_meters":26000,"station_id":"ce4bh4p2rcd13ifvqe0g","pricing_plan_id":"free"},{"bike_id":"e9bfbcd4-ff0c-4a60-a7fe-f90d864174f3","system_id":"levelo_inurba_marseille","lat":43.286039,"lon":5.370679,"is_reserved":false,"is_disabled":false,"rental_uris":{"android":"levelo://app?vid=e9bfbcd4-ff0c-4a60-a7fe-f90d864174f3","ios":"levelo://app?vid=e9bfbcd4-ff0c-4a60-a7fe-f90d864174f3"},"vehicle_type_id":"4","last_reported":1687287943,"current_range_meters":20800,"station_id":"ce4bht12rcd13ifvqi60","pricing_plan_id":"free"},{"bike_id":"21562506-4f5f-43ad-aac5-c51d4162fe9d","system_id":"levelo_inurba_marseille","lat":43.286199,"lon":5.37059,"is_reserved":false,"is_disabled":false,"rental_uris":{"android":"levelo://app?vid=21562506-4f5f-43ad-aac5-c51d4162fe9d","ios":"levelo://app?vid=21562506-4f5f-43ad-aac5-c51d4162fe9d"},"vehicle_type_id":"4","last_reported":1687287943,"current_range_meters":14400,"station_id":"","pricing_plan_id":"free"},{"bike_id":"04581c80-bc8b-40c6-b51f-2e367874a667","system_id":"levelo_inurba_marseille","lat":43.286039,"lon":5.370679,"is_reserved":false,"is_disabled":false,"rental_uris":{"android":"levelo://app?vid=04581c80-bc8b-40c6-b51f-2e367874a667","ios":"levelo://app?vid=04581c80-bc8b-40c6-b51f-2e367874a667"},"vehicle_type_id":"4","last_reported":1687287943,"current_range_meters":31200,"station_id":"ce4bht12rcd13ifvqi60","pricing_plan_id":"free"},{"bike_id":"c5b3dfcf-7545-4dd0-af2c-140a135ff17b","system_id":"levelo_inurba_marseille","lat":43.286039,"lon":5.370679,"is_reserved":false,"is_disabled":false,"rental_uris":{"android":"levelo://app?vid=c5b3dfcf-7545-4dd0-af2c-140a135ff17b","ios":"levelo://app?vid=c5b3dfcf-7545-4dd0-af2c-140a135ff17b"},"vehicle_type_id":"4","last_reported":1687287943,"current_range_meters":13600,"station_id":"ce4bht12rcd13ifvqi60","pricing_plan_id":"free"},{"bike_id":"3c70a16b-117c-43f4-b742-c4acfdf6cf1e","system_id":"levelo_inurba_marseille","lat":43.286039,"lon":5.370681,"is_reserved":false,"is_disabled":false,"rental_uris":{"android":"levelo://app?vid=3c70a16b-117c-43f4-b742-c4acfdf6cf1e","ios":"levelo://app?vid=3c70a16b-117c-43f4-b742-c4acfdf6cf1e"},"vehicle_type_id":"4","last_reported":1687287943,"current_range_meters":6400,"station_id":"ce4bht12rcd13ifvqi60","pricing_plan_id":"free"},{"bike_id":"5626af29-9ded-4339-8a4f-ae5eb09432c3","system_id":"levelo_inurba_marseille","lat":43.286039,"lon":5.370679,"is_reserved":false,"is_disabled":false,"rental_uris":{"android":"levelo://app?vid=5626af29-9ded-4339-8a4f-ae5eb09432c3","ios":"levelo://app?vid=5626af29-9ded-4339-8a4f-ae5eb09432c3"},"vehicle_type_id":"4","last_reported":1687287943,"current_range_meters":31200,"station_id":"ce4bht12rcd13ifvqi60","pricing_plan_id":"free"},{"bike_id":"8e6d9723-a531-48b3-a516-dc7d4ee8fc6d","system_id":"levelo_inurba_marseille","lat":43.286039,"lon":5.370681,"is_reserved":false,"is_disabled":false,"rental_uris":{"android":"levelo://app?vid=8e6d9723-a531-48b3-a516-dc7d4ee8fc6d","ios":"levelo://app?vid=8e6d9723-a531-48b3-a516-dc7d4ee8fc6d"},"vehicle_type_id":"4","last_reported":1687287943,"current_range_meters":31200,"station_id":"ce4bht12rcd13ifvqi60","pricing_plan_id":"free"},{"bike_id":"f392ea7e-db25-4121-884c-0358b3a49b19","system_id":"levelo_inurba_marseille","lat":43.287184,"lon":5.37937,"is_reserved":false,"is_disabled":false,"rental_uris":{"android":"levelo://app?vid=f392ea7e-db25-4121-884c-0358b3a49b19","ios":"levelo://app?vid=f392ea7e-db25-4121-884c-0358b3a49b19"},"vehicle_type_id":"4","last_reported":1687287943,"current_range_meters":31200,"station_id":"ce4bh9p2rcd13ifvqec0","pricing_plan_id":"free"},{"bike_id":"f8f78460-02b7-44fd-98c1-102c46301621","system_id":"levelo_inurba_marseille","lat":43.316517,"lon":5.404375,"is_reserved":false,"is_disabled":false,"rental_uris":{"android":"levelo://app?vid=f8f78460-02b7-44fd-98c1-102c46301621","ios":"levelo://app?vid=f8f78460-02b7-44fd-98c1-102c46301621"},"vehicle_type_id":"4","last_reported":1687287943,"current_range_meters":14000,"station_id":"ce4bh012rcd13ifvqd00","pricing_plan_id":"free"},{"bike_id":"f783f788-6853-41f0-91b3-1825183470b9","system_id":"levelo_inurba_marseille","lat":43.291994,"lon":5.392907,"is_reserved":false,"is_disabled":false,"rental_uris":{"android":"levelo://app?vid=f783f788-6853-41f0-91b3-1825183470b9","ios":"levelo://app?vid=f783f788-6853-41f0-91b3-1825183470b9"},"vehicle_type_id":"4","last_reported":1687287943,"current_range_meters":9200,"station_id":"ce4bh192rcd13ifvqdd0","pricing_plan_id":"free"},{"bike_id":"aaa6c642-961e-4394-a11c-1e020f3b51cb","system_id":"levelo_inurba_marseille","lat":43.291994,"lon":5.392907,"is_reserved":false,"is_disabled":false,"rental_uris":{"android":"levelo://app?vid=aaa6c642-961e-4394-a11c-1e020f3b51cb","ios":"levelo://app?vid=aaa6c642-961e-4394-a11c-1e020f3b51cb"},"vehicle_type_id":"4","last_reported":1687287943,"current_range_meters":26000,"station_id":"ce4bh192rcd13ifvqdd0","pricing_plan_id":"free"},{"bike_id":"a7fc1897-79df-49f5-b5a0-3a86b7ed938b","system_id":"levelo_inurba_marseille","lat":43.33348,"lon":5.39375,"is_reserved":false,"is_disabled":false,"rental_uris":{"android":"levelo://app?vid=a7fc1897-79df-49f5-b5a0-3a86b7ed938b","ios":"levelo://app?vid=a7fc1897-79df-49f5-b5a0-3a86b7ed938b"},"vehicle_type_id":"4","last_reported":1687287943,"current_range_meters":0,"station_id":"","pricing_plan_id":"free"},{"bike_id":"c45c133c-7e18-4892-ad2a-838c1064d748","system_id":"levelo_inurba_marseille","lat":43.284594,"lon":5.358891,"is_reserved":false,"is_disabled":false,"rental_uris":{"android":"levelo://app?vid=c45c133c-7e18-4892-ad2a-838c1064d748","ios":"levelo://app?vid=c45c133c-7e18-4892-ad2a-838c1064d748"},"vehicle_type_id":"4","last_reported":1687287943,"current_range_meters":18400,"station_id":"ce4bhah2rcd13ifvqei0","pricing_plan_id":"free"},{"bike_id":"3fd99d80-0a68-4688-9845-e694dcb9c3de","system_id":"levelo_inurba_marseille","lat":43.284534,"lon":5.358662,"is_reserved":false,"is_disabled":false,"rental_uris":{"android":"levelo://app?vid=3fd99d80-0a68-4688-9845-e694dcb9c3de","ios":"levelo://app?vid=3fd99d80-0a68-4688-9845-e694dcb9c3de"},"vehicle_type_id":"4","last_reported":1687287943,"current_range_meters":31200,"station_id":"ce4bhah2rcd13ifvqei0","pricing_plan_id":"free"},{"bike_id":"d647fc1f-ba57-4927-b2d6-f4aac7f53f35","system_id":"levelo_inurba_marseille","lat":43.28459,"lon":5.35886,"is_reserved":false,"is_disabled":false,"rental_uris":{"android":"levelo://app?vid=d647fc1f-ba57-4927-b2d6-f4aac7f53f35","ios":"levelo://app?vid=d647fc1f-ba57-4927-b2d6-f4aac7f53f35"},"vehicle_type_id":"4","last_reported":1687287943,"current_range_meters":31200,"station_id":"ce4bhah2rcd13ifvqei0","pricing_plan_id":"free"},{"bike_id":"06803be0-9b72-4d0b-a2b6-390e6a5c9ee3","system_id":"levelo_inurba_marseille","lat":43.28458,"lon":5.35889,"is_reserved":false,"is_disabled":false,"rental_uris":{"android":"levelo://app?vid=06803be0-9b72-4d0b-a2b6-390e6a5c9ee3","ios":"levelo://app?vid=06803be0-9b72-4d0b-a2b6-390e6a5c9ee3"},"vehicle_type_id":"4","last_reported":1687287943,"current_range_meters":21200,"station_id":"ce4bhah2rcd13ifvqei0","pricing_plan_id":"free"},{"bike_id":"054a0811-dce0-4a61-b3a6-2bc6d1632259","system_id":"levelo_inurba_marseille","lat":43.284534,"lon":5.358662,"is_reserved":false,"is_disabled":false,"rental_uris":{"android":"levelo://app?vid=054a0811-dce0-4a61-b3a6-2bc6d1632259","ios":"levelo://app?vid=054a0811-dce0-4a61-b3a6-2bc6d1632259"},"vehicle_type_id":"4","last_reported":1687287943,"current_range_meters":30400,"station_id":"ce4bhah2rcd13ifvqei0","pricing_plan_id":"free"},{"bike_id":"78e17254-29a2-4b88-9cf1-ae8e54ec40d5","system_id":"levelo_inurba_marseille","lat":43.284534,"lon":5.358662,"is_reserved":false,"is_disabled":false,"rental_uris":{"android":"levelo://app?vid=78e17254-29a2-4b88-9cf1-ae8e54ec40d5","ios":"levelo://app?vid=78e17254-29a2-4b88-9cf1-ae8e54ec40d5"},"vehicle_type_id":"4","last_reported":1687287943,"current_range_meters":28400,"station_id":"ce4bhah2rcd13ifvqei0","pricing_plan_id":"free"},{"bike_id":"f34775ed-3944-40dc-b7ce-25e6bce63d76","system_id":"levelo_inurba_marseille","lat":43.284534,"lon":5.358662,"is_reserved":false,"is_disabled":false,"rental_uris":{"android":"levelo://app?vid=f34775ed-3944-40dc-b7ce-25e6bce63d76","ios":"levelo://app?vid=f34775ed-3944-40dc-b7ce-25e6bce63d76"},"vehicle_type_id":"4","last_reported":1687287943,"current_range_meters":31200,"station_id":"ce4bhah2rcd13ifvqei0","pricing_plan_id":"free"},{"bike_id":"d2dba084-b9d7-4bc6-9e17-5db825357a5b","system_id":"levelo_inurba_marseille","lat":43.28619,"lon":5.35109,"is_reserved":false,"is_disabled":false,"rental_uris":{"android":"levelo://app?vid=d2dba084-b9d7-4bc6-9e17-5db825357a5b","ios":"levelo://app?vid=d2dba084-b9d7-4bc6-9e17-5db825357a5b"},"vehicle_type_id":"4","last_reported":1687287943,"current_range_meters":23600,"station_id":"ce4bhch2rcd13ifvqeug","pricing_plan_id":"free"},{"bike_id":"7d5342a7-9cfd-4fe4-af7d-10b72572457e","system_id":"levelo_inurba_marseille","lat":43.285856,"lon":5.350771,"is_reserved":false,"is_disabled":false,"rental_uris":{"android":"levelo://app?vid=7d5342a7-9cfd-4fe4-af7d-10b72572457e","ios":"levelo://app?vid=7d5342a7-9cfd-4fe4-af7d-10b72572457e"},"vehicle_type_id":"4","last_reported":1687287943,"current_range_meters":24000,"station_id":"ce4bhch2rcd13ifvqeug","pricing_plan_id":"free"},{"bike_id":"1fc6a9b4-8ba8-40bb-8c97-d1dd1addcce7","system_id":"levelo_inurba_marseille","lat":43.28611,"lon":5.35104,"is_reserved":false,"is_disabled":false,"rental_uris":{"android":"levelo://app?vid=1fc6a9b4-8ba8-40bb-8c97-d1dd1addcce7","ios":"levelo://app?vid=1fc6a9b4-8ba8-40bb-8c97-d1dd1addcce7"},"vehicle_type_id":"4","last_reported":1687287943,"current_range_meters":17600,"station_id":"ce4bhch2rcd13ifvqeug","pricing_plan_id":"free"},{"bike_id":"aeac572f-88af-4703-beaa-21089d5e35a4","system_id":"levelo_inurba_marseille","lat":43.28611,"lon":5.35097,"is_reserved":false,"is_disabled":false,"rental_uris":{"android":"levelo://app?vid=aeac572f-88af-4703-beaa-21089d5e35a4","ios":"levelo://app?vid=aeac572f-88af-4703-beaa-21089d5e35a4"},"vehicle_type_id":"4","last_reported":1687287943,"current_range_meters":7200,"station_id":"ce4bhch2rcd13ifvqeug","pricing_plan_id":"free"},{"bike_id":"9e72b8ae-ff16-4108-877a-0665b03cb85f","system_id":"levelo_inurba_marseille","lat":43.28608,"lon":5.35097,"is_reserved":false,"is_disabled":false,"rental_uris":{"android":"levelo://app?vid=9e72b8ae-ff16-4108-877a-0665b03cb85f","ios":"levelo://app?vid=9e72b8ae-ff16-4108-877a-0665b03cb85f"},"vehicle_type_id":"4","last_reported":1687287943,"current_range_meters":0,"station_id":"ce4bhch2rcd13ifvqeug","pricing_plan_id":"free"},{"bike_id":"a1592d0f-f473-4443-afeb-7fe01a5a4a59","system_id":"levelo_inurba_marseille","lat":43.295713,"lon":5.399639,"is_reserved":false,"is_disabled":false,"rental_uris":{"android":"levelo://app?vid=a1592d0f-f473-4443-afeb-7fe01a5a4a59","ios":"levelo://app?vid=a1592d0f-f473-4443-afeb-7fe01a5a4a59"},"vehicle_type_id":"4","last_reported":1687287943,"current_range_meters":29600,"station_id":"ce4bh312rcd13ifvqdj0","pricing_plan_id":"free"},{"bike_id":"2478dd12-d52f-45b8-9db3-8ccb908a3367","system_id":"levelo_inurba_marseille","lat":43.286595,"lon":5.386795,"is_reserved":false,"is_disabled":false,"rental_uris":{"android":"levelo://app?vid=2478dd12-d52f-45b8-9db3-8ccb908a3367","ios":"levelo://app?vid=2478dd12-d52f-45b8-9db3-8ccb908a3367"},"vehicle_type_id":"4","last_reported":1687287943,"current_range_meters":24800,"station_id":"ce4bh492rcd13ifvqdug","pricing_plan_id":"free"},{"bike_id":"a0294cbe-ddff-445e-81c2-60a75d245509","system_id":"levelo_inurba_marseille","lat":43.32192,"lon":5.40581,"is_reserved":false,"is_disabled":false,"rental_uris":{"android":"levelo://app?vid=a0294cbe-ddff-445e-81c2-60a75d245509","ios":"levelo://app?vid=a0294cbe-ddff-445e-81c2-60a75d245509"},"vehicle_type_id":"4","last_reported":1687287943,"current_range_meters":17200,"station_id":"","pricing_plan_id":"free"},{"bike_id":"68094a04-bb1d-4c12-be79-ebead61d4cb8","system_id":"levelo_inurba_marseille","lat":43.28664,"lon":5.38659,"is_reserved":false,"is_disabled":false,"rental_uris":{"android":"levelo://app?vid=68094a04-bb1d-4c12-be79-ebead61d4cb8","ios":"levelo://app?vid=68094a04-bb1d-4c12-be79-ebead61d4cb8"},"vehicle_type_id":"4","last_reported":1687287943,"current_range_meters":31200,"station_id":"ce4bh492rcd13ifvqdug","pricing_plan_id":"free"},{"bike_id":"f6fda2f2-04f1-4377-bae3-2fc212d95c47","system_id":"levelo_inurba_marseille","lat":43.3423,"lon":5.36186,"is_reserved":false,"is_disabled":false,"rental_uris":{"android":"levelo://app?vid=f6fda2f2-04f1-4377-bae3-2fc212d95c47","ios":"levelo://app?vid=f6fda2f2-04f1-4377-bae3-2fc212d95c47"},"vehicle_type_id":"4","last_reported":1687287943,"current_range_meters":9600,"station_id":"","pricing_plan_id":"free"},{"bike_id":"1b5cab66-590b-460a-9914-864900fba592","system_id":"levelo_inurba_marseille","lat":43.33725,"lon":5.39179,"is_reserved":false,"is_disabled":false,"rental_uris":{"android":"levelo://app?vid=1b5cab66-590b-460a-9914-864900fba592","ios":"levelo://app?vid=1b5cab66-590b-460a-9914-864900fba592"},"vehicle_type_id":"4","last_reported":1687287943,"current_range_meters":7600,"station_id":"","pricing_plan_id":"free"},{"bike_id":"d7b29256-fc07-4272-a85c-ecffd4d1832a","system_id":"levelo_inurba_marseille","lat":43.33723,"lon":5.39185,"is_reserved":false,"is_disabled":false,"rental_uris":{"android":"levelo://app?vid=d7b29256-fc07-4272-a85c-ecffd4d1832a","ios":"levelo://app?vid=d7b29256-fc07-4272-a85c-ecffd4d1832a"},"vehicle_type_id":"4","last_reported":1687287943,"current_range_meters":10800,"station_id":"","pricing_plan_id":"free"},{"bike_id":"5b2482f2-bb69-4954-b7cf-e075b1760e43","system_id":"levelo_inurba_marseille","lat":43.32335,"lon":5.40619,"is_reserved":false,"is_disabled":false,"rental_uris":{"android":"levelo://app?vid=5b2482f2-bb69-4954-b7cf-e075b1760e43","ios":"levelo://app?vid=5b2482f2-bb69-4954-b7cf-e075b1760e43"},"vehicle_type_id":"4","last_reported":1687287943,"current_range_meters":20800,"station_id":"ce4bhq92rcd13ifvqhjg","pricing_plan_id":"free"},{"bike_id":"64766038-4d37-4bbb-8324-fdd09852a999","system_id":"levelo_inurba_marseille","lat":43.33722,"lon":5.39201,"is_reserved":false,"is_disabled":false,"rental_uris":{"android":"levelo://app?vid=64766038-4d37-4bbb-8324-fdd09852a999","ios":"levelo://app?vid=64766038-4d37-4bbb-8324-fdd09852a999"},"vehicle_type_id":"4","last_reported":1687287943,"current_range_meters":16800,"station_id":"","pricing_plan_id":"free"},{"bike_id":"3c93e75d-1921-431d-8673-92d6689faf88","system_id":"levelo_inurba_marseille","lat":43.33728,"lon":5.39192,"is_reserved":false,"is_disabled":false,"rental_uris":{"android":"levelo://app?vid=3c93e75d-1921-431d-8673-92d6689faf88","ios":"levelo://app?vid=3c93e75d-1921-431d-8673-92d6689faf88"},"vehicle_type_id":"4","last_reported":1687287943,"current_range_meters":18400,"station_id":"","pricing_plan_id":"free"},{"bike_id":"72b806da-fd6e-4a2d-9aa4-f96735584d68","system_id":"levelo_inurba_marseille","lat":43.28481,"lon":5.38413,"is_reserved":false,"is_disabled":false,"rental_uris":{"android":"levelo://app?vid=72b806da-fd6e-4a2d-9aa4-f96735584d68","ios":"levelo://app?vid=72b806da-fd6e-4a2d-9aa4-f96735584d68"},"vehicle_type_id":"4","last_reported":1687287943,"current_range_meters":16400,"station_id":"ce4bh512rcd13ifvqe3g","pricing_plan_id":"free"},{"bike_id":"f2cca97b-2c3e-4ecd-9ff8-456240eccf06","system_id":"levelo_inurba_marseille","lat":43.284787,"lon":5.384116,"is_reserved":false,"is_disabled":false,"rental_uris":{"android":"levelo://app?vid=f2cca97b-2c3e-4ecd-9ff8-456240eccf06","ios":"levelo://app?vid=f2cca97b-2c3e-4ecd-9ff8-456240eccf06"},"vehicle_type_id":"4","last_reported":1687287943,"current_range_meters":15600,"station_id":"ce4bh512rcd13ifvqe3g","pricing_plan_id":"free"},{"bike_id":"2ab3067a-47da-4cde-86af-6367d29fcbf5","system_id":"levelo_inurba_marseille","lat":43.284787,"lon":5.384116,"is_reserved":false,"is_disabled":false,"rental_uris":{"android":"levelo://app?vid=2ab3067a-47da-4cde-86af-6367d29fcbf5","ios":"levelo://app?vid=2ab3067a-47da-4cde-86af-6367d29fcbf5"},"vehicle_type_id":"4","last_reported":1687287943,"current_range_meters":12000,"station_id":"ce4bh512rcd13ifvqe3g","pricing_plan_id":"free"},{"bike_id":"00b4d942-d645-4a17-a320-9c02b5ecca68","system_id":"levelo_inurba_marseille","lat":43.288501,"lon":5.393087,"is_reserved":false,"is_disabled":false,"rental_uris":{"android":"levelo://app?vid=00b4d942-d645-4a17-a320-9c02b5ecca68","ios":"levelo://app?vid=00b4d942-d645-4a17-a320-9c02b5ecca68"},"vehicle_type_id":"4","last_reported":1687287943,"current_range_meters":13200,"station_id":"ce4bh2p2rcd13ifvqdi0","pricing_plan_id":"free"},{"bike_id":"3b0cc24b-6215-4276-8f7f-f15f2bb663ae","system_id":"levelo_inurba_marseille","lat":43.283498,"lon":5.380948,"is_reserved":false,"is_disabled":false,"rental_uris":{"android":"levelo://app?vid=3b0cc24b-6215-4276-8f7f-f15f2bb663ae","ios":"levelo://app?vid=3b0cc24b-6215-4276-8f7f-f15f2bb663ae"},"vehicle_type_id":"4","last_reported":1687287943,"current_range_meters":1200,"station_id":"ce4bh412rcd13ifvqdr0","pricing_plan_id":"free"},{"bike_id":"16e5fedd-6e86-436a-a0a2-72c7cd60a6ea","system_id":"levelo_inurba_marseille","lat":43.32181,"lon":5.40794,"is_reserved":false,"is_disabled":false,"rental_uris":{"android":"levelo://app?vid=16e5fedd-6e86-436a-a0a2-72c7cd60a6ea","ios":"levelo://app?vid=16e5fedd-6e86-436a-a0a2-72c7cd60a6ea"},"vehicle_type_id":"4","last_reported":1687287943,"current_range_meters":22800,"station_id":"","pricing_plan_id":"free"},{"bike_id":"e9e2d1ba-de81-40b5-8285-9e3d6d18de7b","system_id":"levelo_inurba_marseille","lat":43.284217,"lon":5.349697,"is_reserved":false,"is_disabled":false,"rental_uris":{"android":"levelo://app?vid=e9e2d1ba-de81-40b5-8285-9e3d6d18de7b","ios":"levelo://app?vid=e9e2d1ba-de81-40b5-8285-9e3d6d18de7b"},"vehicle_type_id":"4","last_reported":1687287943,"current_range_meters":0,"station_id":"ce4bhbh2rcd13ifvqepg","pricing_plan_id":"free"},{"bike_id":"1c54a700-0305-44d5-a30c-bfdd7b1279aa","system_id":"levelo_inurba_marseille","lat":43.289363,"lon":5.396322,"is_reserved":false,"is_disabled":false,"rental_uris":{"android":"levelo://app?vid=1c54a700-0305-44d5-a30c-bfdd7b1279aa","ios":"levelo://app?vid=1c54a700-0305-44d5-a30c-bfdd7b1279aa"},"vehicle_type_id":"4","last_reported":1687287943,"current_range_meters":31200,"station_id":"ce4bh3h2rcd13ifvqdn0","pricing_plan_id":"free"},{"bike_id":"1944f956-b29d-4bba-bea4-a664997509cf","system_id":"levelo_inurba_marseille","lat":43.292724,"lon":5.401131,"is_reserved":false,"is_disabled":false,"rental_uris":{"android":"levelo://app?vid=1944f956-b29d-4bba-bea4-a664997509cf","ios":"levelo://app?vid=1944f956-b29d-4bba-bea4-a664997509cf"},"vehicle_type_id":"4","last_reported":1687287943,"current_range_meters":400,"station_id":"ce4bh312rcd13ifvqdk0","pricing_plan_id":"free"},{"bike_id":"0b543d7c-3fb4-4e17-b703-40a28bc215b9","system_id":"levelo_inurba_marseille","lat":43.292724,"lon":5.401131,"is_reserved":false,"is_disabled":false,"rental_uris":{"android":"levelo://app?vid=0b543d7c-3fb4-4e17-b703-40a28bc215b9","ios":"levelo://app?vid=0b543d7c-3fb4-4e17-b703-40a28bc215b9"},"vehicle_type_id":"4","last_reported":1687287943,"current_range_meters":400,"station_id":"ce4bh312rcd13ifvqdk0","pricing_plan_id":"free"},{"bike_id":"69254eb4-1f7b-4609-8fc1-3449d69f4fa6","system_id":"levelo_inurba_marseille","lat":43.292724,"lon":5.401131,"is_reserved":false,"is_disabled":false,"rental_uris":{"android":"levelo://app?vid=69254eb4-1f7b-4609-8fc1-3449d69f4fa6","ios":"levelo://app?vid=69254eb4-1f7b-4609-8fc1-3449d69f4fa6"},"vehicle_type_id":"4","last_reported":1687287943,"current_range_meters":400,"station_id":"ce4bh312rcd13ifvqdk0","pricing_plan_id":"free"},{"bike_id":"29300c6e-54b6-4ce7-9c72-fa502bacd184","system_id":"levelo_inurba_marseille","lat":43.282637,"lon":5.350604,"is_reserved":false,"is_disabled":false,"rental_uris":{"android":"levelo://app?vid=29300c6e-54b6-4ce7-9c72-fa502bacd184","ios":"levelo://app?vid=29300c6e-54b6-4ce7-9c72-fa502bacd184"},"vehicle_type_id":"4","last_reported":1687287943,"current_range_meters":2400,"station_id":"","pricing_plan_id":"free"},{"bike_id":"b6013f3b-d0b8-485c-ab5b-dcefd2e7a15d","system_id":"levelo_inurba_marseille","lat":43.28039,"lon":5.369297,"is_reserved":false,"is_disabled":false,"rental_uris":{"android":"levelo://app?vid=b6013f3b-d0b8-485c-ab5b-dcefd2e7a15d","ios":"levelo://app?vid=b6013f3b-d0b8-485c-ab5b-dcefd2e7a15d"},"vehicle_type_id":"4","last_reported":1687287943,"current_range_meters":11600,"station_id":"ce4bha12rcd13ifvqef0","pricing_plan_id":"free"},{"bike_id":"9064fe79-f0b6-4203-84f4-698fe07fd37e","system_id":"levelo_inurba_marseille","lat":43.2804,"lon":5.36938,"is_reserved":false,"is_disabled":false,"rental_uris":{"android":"levelo://app?vid=9064fe79-f0b6-4203-84f4-698fe07fd37e","ios":"levelo://app?vid=9064fe79-f0b6-4203-84f4-698fe07fd37e"},"vehicle_type_id":"4","last_reported":1687287943,"current_range_meters":17200,"station_id":"ce4bha12rcd13ifvqef0","pricing_plan_id":"free"},{"bike_id":"434eff29-018c-411d-a07a-2e0ac2da6102","system_id":"levelo_inurba_marseille","lat":43.28039,"lon":5.369297,"is_reserved":false,"is_disabled":false,"rental_uris":{"android":"levelo://app?vid=434eff29-018c-411d-a07a-2e0ac2da6102","ios":"levelo://app?vid=434eff29-018c-411d-a07a-2e0ac2da6102"},"vehicle_type_id":"4","last_reported":1687287943,"current_range_meters":0,"station_id":"ce4bha12rcd13ifvqef0","pricing_plan_id":"free"},{"bike_id":"b56869d9-cbaa-435c-8bf5-76c108000e3c","system_id":"levelo_inurba_marseille","lat":43.280382,"lon":5.369291,"is_reserved":false,"is_disabled":false,"rental_uris":{"android":"levelo://app?vid=b56869d9-cbaa-435c-8bf5-76c108000e3c","ios":"levelo://app?vid=b56869d9-cbaa-435c-8bf5-76c108000e3c"},"vehicle_type_id":"4","last_reported":1687287943,"current_range_meters":21600,"station_id":"ce4bha12rcd13ifvqef0","pricing_plan_id":"free"},{"bike_id":"4989b521-664d-4a8e-af69-f942665c60c0","system_id":"levelo_inurba_marseille","lat":43.280382,"lon":5.369291,"is_reserved":false,"is_disabled":false,"rental_uris":{"android":"levelo://app?vid=4989b521-664d-4a8e-af69-f942665c60c0","ios":"levelo://app?vid=4989b521-664d-4a8e-af69-f942665c60c0"},"vehicle_type_id":"4","last_reported":1687287943,"current_range_meters":30400,"station_id":"ce4bha12rcd13ifvqef0","pricing_plan_id":"free"},{"bike_id":"6489e7e3-d34f-49e8-999e-49aeabad95fc","system_id":"levelo_inurba_marseille","lat":43.28039,"lon":5.369297,"is_reserved":false,"is_disabled":false,"rental_uris":{"android":"levelo://app?vid=6489e7e3-d34f-49e8-999e-49aeabad95fc","ios":"levelo://app?vid=6489e7e3-d34f-49e8-999e-49aeabad95fc"},"vehicle_type_id":"4","last_reported":1687287943,"current_range_meters":29200,"station_id":"ce4bha12rcd13ifvqef0","pricing_plan_id":"free"},{"bike_id":"89b9cae9-9606-4bbf-8de2-484f0b073f26","system_id":"levelo_inurba_marseille","lat":43.28039,"lon":5.369297,"is_reserved":false,"is_disabled":false,"rental_uris":{"android":"levelo://app?vid=89b9cae9-9606-4bbf-8de2-484f0b073f26","ios":"levelo://app?vid=89b9cae9-9606-4bbf-8de2-484f0b073f26"},"vehicle_type_id":"4","last_reported":1687287943,"current_range_meters":12800,"station_id":"ce4bha12rcd13ifvqef0","pricing_plan_id":"free"},{"bike_id":"a0b29f5d-9167-42dd-bbc4-6e80ed59a6ce","system_id":"levelo_inurba_marseille","lat":43.28039,"lon":5.369297,"is_reserved":false,"is_disabled":false,"rental_uris":{"android":"levelo://app?vid=a0b29f5d-9167-42dd-bbc4-6e80ed59a6ce","ios":"levelo://app?vid=a0b29f5d-9167-42dd-bbc4-6e80ed59a6ce"},"vehicle_type_id":"4","last_reported":1687287943,"current_range_meters":20800,"station_id":"ce4bha12rcd13ifvqef0","pricing_plan_id":"free"},{"bike_id":"3c61871c-bd65-4380-8b62-f2187458c6cf","system_id":"levelo_inurba_marseille","lat":43.28026,"lon":5.36936,"is_reserved":false,"is_disabled":false,"rental_uris":{"android":"levelo://app?vid=3c61871c-bd65-4380-8b62-f2187458c6cf","ios":"levelo://app?vid=3c61871c-bd65-4380-8b62-f2187458c6cf"},"vehicle_type_id":"4","last_reported":1687287943,"current_range_meters":19200,"station_id":"ce4bha12rcd13ifvqef0","pricing_plan_id":"free"},{"bike_id":"e4c81029-f7f1-4983-9f7f-a2a2d5f60ba3","system_id":"levelo_inurba_marseille","lat":43.290426,"lon":5.399584,"is_reserved":false,"is_disabled":false,"rental_uris":{"android":"levelo://app?vid=e4c81029-f7f1-4983-9f7f-a2a2d5f60ba3","ios":"levelo://app?vid=e4c81029-f7f1-4983-9f7f-a2a2d5f60ba3"},"vehicle_type_id":"4","last_reported":1687287943,"current_range_meters":6800,"station_id":"","pricing_plan_id":"free"},{"bike_id":"93848a33-53d8-4158-9463-1dbe98dafe8f","system_id":"levelo_inurba_marseille","lat":43.29041,"lon":5.399634,"is_reserved":false,"is_disabled":false,"rental_uris":{"android":"levelo://app?vid=93848a33-53d8-4158-9463-1dbe98dafe8f","ios":"levelo://app?vid=93848a33-53d8-4158-9463-1dbe98dafe8f"},"vehicle_type_id":"4","last_reported":1687287943,"current_range_meters":14800,"station_id":"ce4bh392rcd13ifvqdm0","pricing_plan_id":"free"},{"bike_id":"02a56d39-9758-4a2d-ac1c-41f404e77c51","system_id":"levelo_inurba_marseille","lat":43.281044,"lon":5.378308,"is_reserved":false,"is_disabled":false,"rental_uris":{"android":"levelo://app?vid=02a56d39-9758-4a2d-ac1c-41f404e77c51","ios":"levelo://app?vid=02a56d39-9758-4a2d-ac1c-41f404e77c51"},"vehicle_type_id":"4","last_reported":1687287943,"current_range_meters":18400,"station_id":"ce4bha12rcd13ifvqee0","pricing_plan_id":"free"},{"bike_id":"9d7cbf84-6435-4265-8c4a-f935275a41bb","system_id":"levelo_inurba_marseille","lat":43.296263,"lon":5.40601,"is_reserved":false,"is_disabled":false,"rental_uris":{"android":"levelo://app?vid=9d7cbf84-6435-4265-8c4a-f935275a41bb","ios":"levelo://app?vid=9d7cbf84-6435-4265-8c4a-f935275a41bb"},"vehicle_type_id":"4","last_reported":1687287943,"current_range_meters":12400,"station_id":"ce4bh0h2rcd13ifvqd60","pricing_plan_id":"free"},{"bike_id":"1aba50f2-1c49-4d64-a27c-ca94e5f3a8bb","system_id":"levelo_inurba_marseille","lat":43.296263,"lon":5.40601,"is_reserved":false,"is_disabled":false,"rental_uris":{"android":"levelo://app?vid=1aba50f2-1c49-4d64-a27c-ca94e5f3a8bb","ios":"levelo://app?vid=1aba50f2-1c49-4d64-a27c-ca94e5f3a8bb"},"vehicle_type_id":"4","last_reported":1687287943,"current_range_meters":3600,"station_id":"ce4bh0h2rcd13ifvqd60","pricing_plan_id":"free"},{"bike_id":"0d694f54-6326-455c-b21a-879ac781fa02","system_id":"levelo_inurba_marseille","lat":43.284462,"lon":5.392121,"is_reserved":false,"is_disabled":false,"rental_uris":{"android":"levelo://app?vid=0d694f54-6326-455c-b21a-879ac781fa02","ios":"levelo://app?vid=0d694f54-6326-455c-b21a-879ac781fa02"},"vehicle_type_id":"4","last_reported":1687287943,"current_range_meters":9600,"station_id":"ce4bhoh2rcd13ifvqh5g","pricing_plan_id":"free"},{"bike_id":"95ac1b89-c415-4dca-a249-9b745880bab2","system_id":"levelo_inurba_marseille","lat":43.28567,"lon":5.39499,"is_reserved":false,"is_disabled":false,"rental_uris":{"android":"levelo://app?vid=95ac1b89-c415-4dca-a249-9b745880bab2","ios":"levelo://app?vid=95ac1b89-c415-4dca-a249-9b745880bab2"},"vehicle_type_id":"4","last_reported":1687287943,"current_range_meters":3200,"station_id":"ce4bh292rcd13ifvqdg0","pricing_plan_id":"free"},{"bike_id":"ff22564b-7f59-4dba-a7bd-0f1bc5689db1","system_id":"levelo_inurba_marseille","lat":43.3266,"lon":5.40979,"is_reserved":false,"is_disabled":false,"rental_uris":{"android":"levelo://app?vid=ff22564b-7f59-4dba-a7bd-0f1bc5689db1","ios":"levelo://app?vid=ff22564b-7f59-4dba-a7bd-0f1bc5689db1"},"vehicle_type_id":"4","last_reported":1687287943,"current_range_meters":25200,"station_id":"ce4bhpp2rcd13ifvqhgg","pricing_plan_id":"free"},{"bike_id":"7a5f1dab-0115-4817-9dc9-6580ff55f2fe","system_id":"levelo_inurba_marseille","lat":43.326605,"lon":5.409903,"is_reserved":false,"is_disabled":false,"rental_uris":{"android":"levelo://app?vid=7a5f1dab-0115-4817-9dc9-6580ff55f2fe","ios":"levelo://app?vid=7a5f1dab-0115-4817-9dc9-6580ff55f2fe"},"vehicle_type_id":"4","last_reported":1687287943,"current_range_meters":24800,"station_id":"ce4bhpp2rcd13ifvqhgg","pricing_plan_id":"free"},{"bike_id":"2ee38622-4bc8-4ca9-9366-2d8841f1fd3c","system_id":"levelo_inurba_marseille","lat":43.326605,"lon":5.409903,"is_reserved":false,"is_disabled":false,"rental_uris":{"android":"levelo://app?vid=2ee38622-4bc8-4ca9-9366-2d8841f1fd3c","ios":"levelo://app?vid=2ee38622-4bc8-4ca9-9366-2d8841f1fd3c"},"vehicle_type_id":"4","last_reported":1687287943,"current_range_meters":18800,"station_id":"ce4bhpp2rcd13ifvqhgg","pricing_plan_id":"free"},{"bike_id":"fe952f27-2efe-40c2-9d68-7d5bdf4ebdec","system_id":"levelo_inurba_marseille","lat":43.304188,"lon":5.412904,"is_reserved":false,"is_disabled":false,"rental_uris":{"android":"levelo://app?vid=fe952f27-2efe-40c2-9d68-7d5bdf4ebdec","ios":"levelo://app?vid=fe952f27-2efe-40c2-9d68-7d5bdf4ebdec"},"vehicle_type_id":"4","last_reported":1687287943,"current_range_meters":400,"station_id":"ce4bhop2rcd13ifvqh8g","pricing_plan_id":"free"},{"bike_id":"ecdb43f2-a3a5-4ed5-b340-8bb26bc88297","system_id":"levelo_inurba_marseille","lat":43.304188,"lon":5.412904,"is_reserved":false,"is_disabled":false,"rental_uris":{"android":"levelo://app?vid=ecdb43f2-a3a5-4ed5-b340-8bb26bc88297","ios":"levelo://app?vid=ecdb43f2-a3a5-4ed5-b340-8bb26bc88297"},"vehicle_type_id":"4","last_reported":1687287943,"current_range_meters":26800,"station_id":"ce4bhop2rcd13ifvqh8g","pricing_plan_id":"free"},{"bike_id":"423d89d0-8040-42a6-aba7-149da37cbe7d","system_id":"levelo_inurba_marseille","lat":43.279087,"lon":5.380114,"is_reserved":false,"is_disabled":false,"rental_uris":{"android":"levelo://app?vid=423d89d0-8040-42a6-aba7-149da37cbe7d","ios":"levelo://app?vid=423d89d0-8040-42a6-aba7-149da37cbe7d"},"vehicle_type_id":"4","last_reported":1687287943,"current_range_meters":18800,"station_id":"ce4bhf92rcd13ifvqf50","pricing_plan_id":"free"},{"bike_id":"07ef8b80-b17d-45c4-99e6-6a8689b8f178","system_id":"levelo_inurba_marseille","lat":43.279087,"lon":5.380114,"is_reserved":false,"is_disabled":false,"rental_uris":{"android":"levelo://app?vid=07ef8b80-b17d-45c4-99e6-6a8689b8f178","ios":"levelo://app?vid=07ef8b80-b17d-45c4-99e6-6a8689b8f178"},"vehicle_type_id":"4","last_reported":1687287943,"current_range_meters":4000,"station_id":"ce4bhf92rcd13ifvqf50","pricing_plan_id":"free"},{"bike_id":"7220a15b-a471-414d-9a61-9566f174eff3","system_id":"levelo_inurba_marseille","lat":43.287154,"lon":5.399979,"is_reserved":false,"is_disabled":false,"rental_uris":{"android":"levelo://app?vid=7220a15b-a471-414d-9a61-9566f174eff3","ios":"levelo://app?vid=7220a15b-a471-414d-9a61-9566f174eff3"},"vehicle_type_id":"4","last_reported":1687287943,"current_range_meters":28800,"station_id":"ce4bho92rcd13ifvqh3g","pricing_plan_id":"free"},{"bike_id":"49598c66-33f6-4daf-a809-267aa26413e4","system_id":"levelo_inurba_marseille","lat":43.287154,"lon":5.399979,"is_reserved":false,"is_disabled":false,"rental_uris":{"android":"levelo://app?vid=49598c66-33f6-4daf-a809-267aa26413e4","ios":"levelo://app?vid=49598c66-33f6-4daf-a809-267aa26413e4"},"vehicle_type_id":"4","last_reported":1687287943,"current_range_meters":31200,"station_id":"ce4bho92rcd13ifvqh3g","pricing_plan_id":"free"},{"bike_id":"a3fe2938-d9bb-4545-a9b4-e5e190fb20be","system_id":"levelo_inurba_marseille","lat":43.320045,"lon":5.415048,"is_reserved":false,"is_disabled":false,"rental_uris":{"android":"levelo://app?vid=a3fe2938-d9bb-4545-a9b4-e5e190fb20be","ios":"levelo://app?vid=a3fe2938-d9bb-4545-a9b4-e5e190fb20be"},"vehicle_type_id":"4","last_reported":1687287943,"current_range_meters":22400,"station_id":"ce4bhq92rcd13ifvqhkg","pricing_plan_id":"free"},{"bike_id":"9cae9cef-7b29-4221-add3-5ff20c33eb6e","system_id":"levelo_inurba_marseille","lat":43.320045,"lon":5.415046,"is_reserved":false,"is_disabled":false,"rental_uris":{"android":"levelo://app?vid=9cae9cef-7b29-4221-add3-5ff20c33eb6e","ios":"levelo://app?vid=9cae9cef-7b29-4221-add3-5ff20c33eb6e"},"vehicle_type_id":"4","last_reported":1687287943,"current_range_meters":30000,"station_id":"ce4bhq92rcd13ifvqhkg","pricing_plan_id":"free"},{"bike_id":"5b155bb2-cedc-4cb4-a201-e2a36efcf1ba","system_id":"levelo_inurba_marseille","lat":43.320045,"lon":5.415046,"is_reserved":false,"is_disabled":false,"rental_uris":{"android":"levelo://app?vid=5b155bb2-cedc-4cb4-a201-e2a36efcf1ba","ios":"levelo://app?vid=5b155bb2-cedc-4cb4-a201-e2a36efcf1ba"},"vehicle_type_id":"4","last_reported":1687287943,"current_range_meters":31200,"station_id":"ce4bhq92rcd13ifvqhkg","pricing_plan_id":"free"},{"bike_id":"f7d647fa-8bbc-4bc4-88de-c8646137922b","system_id":"levelo_inurba_marseille","lat":43.320045,"lon":5.415048,"is_reserved":false,"is_disabled":false,"rental_uris":{"android":"levelo://app?vid=f7d647fa-8bbc-4bc4-88de-c8646137922b","ios":"levelo://app?vid=f7d647fa-8bbc-4bc4-88de-c8646137922b"},"vehicle_type_id":"4","last_reported":1687287943,"current_range_meters":30400,"station_id":"ce4bhq92rcd13ifvqhkg","pricing_plan_id":"free"},{"bike_id":"ec7b618d-f3e5-40b6-9ca0-c47d17034929","system_id":"levelo_inurba_marseille","lat":43.320045,"lon":5.415048,"is_reserved":false,"is_disabled":false,"rental_uris":{"android":"levelo://app?vid=ec7b618d-f3e5-40b6-9ca0-c47d17034929","ios":"levelo://app?vid=ec7b618d-f3e5-40b6-9ca0-c47d17034929"},"vehicle_type_id":"4","last_reported":1687287943,"current_range_meters":32000,"station_id":"ce4bhq92rcd13ifvqhkg","pricing_plan_id":"free"},{"bike_id":"e16eab1b-11d6-41d9-a819-5aa326e93db6","system_id":"levelo_inurba_marseille","lat":43.320045,"lon":5.415048,"is_reserved":false,"is_disabled":false,"rental_uris":{"android":"levelo://app?vid=e16eab1b-11d6-41d9-a819-5aa326e93db6","ios":"levelo://app?vid=e16eab1b-11d6-41d9-a819-5aa326e93db6"},"vehicle_type_id":"4","last_reported":1687287943,"current_range_meters":30400,"station_id":"ce4bhq92rcd13ifvqhkg","pricing_plan_id":"free"},{"bike_id":"93bc3da6-afda-4a7b-bc75-f0db40010514","system_id":"levelo_inurba_marseille","lat":43.320045,"lon":5.415046,"is_reserved":false,"is_disabled":false,"rental_uris":{"android":"levelo://app?vid=93bc3da6-afda-4a7b-bc75-f0db40010514","ios":"levelo://app?vid=93bc3da6-afda-4a7b-bc75-f0db40010514"},"vehicle_type_id":"4","last_reported":1687287943,"current_range_meters":30400,"station_id":"ce4bhq92rcd13ifvqhkg","pricing_plan_id":"free"},