{"last_updated":1698357972,"ttl":30,"version":"2.2","data":{"bikes":[{"bike_id":"b8913fd4-a7e8-4bbd-9ef7-8d5051d75965","system_id":"levelo_inurba_marseille","lat":43.313391,"lon":5.36706,"is_reserved":false,"is_disabled":false,"rental_uris":{"android":"levelo://app?vid=b8913fd4-a7e8-4bbd-9ef7-8d5051d75965","ios":"levelo://app?vid=b8913fd4-a7e8-4bbd-9ef7-8d5051d75965"},"vehicle_type_id":"4","last_reported":1698357972,"current_range_meters":0,"station_id":"ce4bgr92rcd13ifvqc6g","pricing_plan_id":"free"},{"bike_id":"bad6fb66-4d2a-4206-8f07-1d73ae8b6c1a","system_id":"levelo_inurba_marseille","lat":43.31352,"lon":5.36714,"is_reserved":false,"is_disabled":false,"rental_uris":{"android":"levelo://app?vid=bad6fb66-4d2a-4206-8f07-1d73ae8b6c1a","ios":"levelo://app?vid=bad6fb66-4d2a-4206-8f07-1d73ae8b6c1a"},"vehicle_type_id":"4","last_reported":1698357972,"current_range_meters":0,"station_id":"ce4bgr92rcd13ifvqc6g","pricing_plan_id":"free"},{"bike_id":"5a098830-6e68-4eda-bc03-f0576a008423","system_id":"levelo_inurba_marseille","lat":43.313391,"lon":5.36706,"is_reserved":false,"is_disabled":false,"rental_uris":{"android":"levelo://app?vid=5a098830-6e68-4eda-bc03-f0576a008423","ios":"levelo://app?vid=5a098830-6e68-4eda-bc03-f0576a008423"},"vehicle_type_id":"4","last_reported":1698357972,"current_range_meters":24000,"station_id":"ce4bgr92rcd13ifvqc6g","pricing_plan_id":"free"},{"bike_id":"f5c58904-aeb7-4548-b4b5-9f5e83f269ce","system_id":"levelo_inurba_marseille","lat":43.309797,"lon":5.368093,"is_reserved":false,"is_disabled":false,"rental_uris":{"android":"levelo://app?vid=f5c58904-aeb7-4548-b4b5-9f5e83f269ce","ios":"levelo://app?vid=f5c58904-aeb7-4548-b4b5-9f5e83f269ce"},"vehicle_type_id":"4","last_reported":1698357972,"current_range_meters":0,"station_id":"ce4bgn92rcd13ifvqbvg","pricing_plan_id":"free"},{"bike_id":"dbbdea51-7e3d-4271-bd96-c3aabecbd7e2","system_id":"levelo_inurba_marseille","lat":43.315783,"lon":5.372523,"is_reserved":false,"is_disabled":false,"rental_uris":{"android":"levelo://app?vid=dbbdea51-7e3d-4271-bd96-c3aabecbd7e2","ios":"levelo://app?vid=dbbdea51-7e3d-4271-bd96-c3aabecbd7e2"},"vehicle_type_id":"4","last_reported":1698357972,"current_range_meters":14400,"station_id":"","pricing_plan_id":"free"},{"bike_id":"e2d1df0d-946a-43dc-9c51-09bb27b6f5e2","system_id":"levelo_inurba_marseille","lat":43.309034,"lon":5.371783,"is_reserved":false,"is_disabled":false,"rental_uris":{"android":"levelo://app?vid=e2d1df0d-946a-43dc-9c51-09bb27b6f5e2","ios":"levelo://app?vid=e2d1df0d-946a-43dc-9c51-09bb27b6f5e2"},"vehicle_type_id":"4","last_reported":1698357972,"current_range_meters":10000,"station_id":"ce4bguh2rcd13ifvqckg","pricing_plan_id":"free"},{"bike_id":"cf04d626-4cf4-4f35-a4f3-10bebc31c564","system_id":"levelo_inurba_marseille","lat":43.318056,"lon":5.373188,"is_reserved":false,"is_disabled":false,"rental_uris":{"android":"levelo://app?vid=cf04d626-4cf4-4f35-a4f3-10bebc31c564","ios":"levelo://app?vid=cf04d626-4cf4-4f35-a4f3-10bebc31c564"},"vehicle_type_id":"4","last_reported":1698357972,"current_range_meters":3600,"station_id":"","pricing_plan_id":"free"},{"bike_id":"6a87f19c-c887-4ca0-bc71-a6dd1b4b6b40","system_id":"levelo_inurba_marseille","lat":43.305368,"lon":5.367343,"is_reserved":false,"is_disabled":false,"rental_uris":{"android":"levelo://app?vid=6a87f19c-c887-4ca0-bc71-a6dd1b4b6b40","ios":"levelo://app?vid=6a87f19c-c887-4ca0-bc71-a6dd1b4b6b40"},"vehicle_type_id":"4","last_reported":1698357972,"current_range_meters":0,"station_id":"ce4bgrp2rcd13ifvqc9g","pricing_plan_id":"free"},{"bike_id":"f252b071-dddd-4e5f-ad07-506846af6d1a","system_id":"levelo_inurba_marseille","lat":43.30543,"lon":5.36527,"is_reserved":false,"is_disabled":false,"rental_uris":{"android":"levelo://app?vid=f252b071-dddd-4e5f-ad07-506846af6d1a","ios":"levelo://app?vid=f252b071-dddd-4e5f-ad07-506846af6d1a"},"vehicle_type_id":"4","last_reported":1698357972,"current_range_meters":27600,"station_id":"ce4bgs12rcd13ifvqcag","pricing_plan_id":"free"},{"bike_id":"e9d8a6b7-0962-46a5-be34-414413df4a43","system_id":"levelo_inurba_marseille","lat":43.30598,"lon":5.37229,"is_reserved":false,"is_disabled":false,"rental_uris":{"android":"levelo://app?vid=e9d8a6b7-0962-46a5-be34-414413df4a43","ios":"levelo://app?vid=e9d8a6b7-0962-46a5-be34-414413df4a43"},"vehicle_type_id":"4","last_reported":1698357972,"current_range_meters":19600,"station_id":"ce4bgqh2rcd13ifvqc4g","pricing_plan_id":"free"},{"bike_id":"2f8fffa9-6033-4de0-bdad-ec5f95f49da1","system_id":"levelo_inurba_marseille","lat":43.305989,"lon":5.37225,"is_reserved":false,"is_disabled":false,"rental_uris":{"android":"levelo://app?vid=2f8fffa9-6033-4de0-bdad-ec5f95f49da1","ios":"levelo://app?vid=2f8fffa9-6033-4de0-bdad-ec5f95f49da1"},"vehicle_type_id":"4","last_reported":1698357972,"current_range_meters":26400,"station_id":"ce4bgqh2rcd13ifvqc4g","pricing_plan_id":"free"},{"bike_id":"712435c4-fac7-488e-ba58-182a795be26c","system_id":"levelo_inurba_marseille","lat":43.311125,"lon":5.377624,"is_reserved":false,"is_disabled":false,"rental_uris":{"android":"levelo://app?vid=712435c4-fac7-488e-ba58-182a795be26c","ios":"levelo://app?vid=712435c4-fac7-488e-ba58-182a795be26c"},"vehicle_type_id":"4","last_reported":1698357972,"current_range_meters":8000,"station_id":"ce4bgt92rcd13ifvqcg0","pricing_plan_id":"free"},{"bike_id":"7f1f957c-9e77-4654-b882-3d45fa08f9d2","system_id":"levelo_inurba_marseille","lat":43.311125,"lon":5.377624,"is_reserved":false,"is_disabled":false,"rental_uris":{"android":"levelo://app?vid=7f1f957c-9e77-4654-b882-3d45fa08f9d2","ios":"levelo://app?vid=7f1f957c-9e77-4654-b882-3d45fa08f9d2"},"vehicle_type_id":"4","last_reported":1698357972,"current_range_meters":9600,"station_id":"ce4bgt92rcd13ifvqcg0","pricing_plan_id":"free"},{"bike_id":"2fe6addf-3f28-4e18-9be7-8e324eee151f","system_id":"levelo_inurba_marseille","lat":43.30501,"lon":5.37088,"is_reserved":false,"is_disabled":false,"rental_uris":{"android":"levelo://app?vid=2fe6addf-3f28-4e18-9be7-8e324eee151f","ios":"levelo://app?vid=2fe6addf-3f28-4e18-9be7-8e324eee151f"},"vehicle_type_id":"4","last_reported":1698357972,"current_range_meters":8800,"station_id":"","pricing_plan_id":"free"},{"bike_id":"5157c626-93b9-48ce-ab32-14a2dfa229fa","system_id":"levelo_inurba_marseille","lat":43.317075,"lon":5.377367,"is_reserved":false,"is_disabled":false,"rental_uris":{"android":"levelo://app?vid=5157c626-93b9-48ce-ab32-14a2dfa229fa","ios":"levelo://app?vid=5157c626-93b9-48ce-ab32-14a2dfa229fa"},"vehicle_type_id":"4","last_reported":1698357972,"current_range_meters":27600,"station_id":"ce4bgth2rcd13ifvqch0","pricing_plan_id":"free"},{"bike_id":"ad2622fc-6a31-47ff-a6b0-012b621e4519","system_id":"levelo_inurba_marseille","lat":43.317075,"lon":5.377367,"is_reserved":false,"is_disabled":false,"rental_uris":{"android":"levelo://app?vid=ad2622fc-6a31-47ff-a6b0-012b621e4519","ios":"levelo://app?vid=ad2622fc-6a31-47ff-a6b0-012b621e4519"},"vehicle_type_id":"4","last_reported":1698357972,"current_range_meters":25200,"station_id":"ce4bgth2rcd13ifvqch0","pricing_plan_id":"free"},{"bike_id":"49be05fc-d426-4bcc-9c7a-9d6bfc674fdf","system_id":"levelo_inurba_marseille","lat":43.315293,"lon":5.380349,"is_reserved":false,"is_disabled":false,"rental_uris":{"android":"levelo://app?vid=49be05fc-d426-4bcc-9c7a-9d6bfc674fdf","ios":"levelo://app?vid=49be05fc-d426-4bcc-9c7a-9d6bfc674fdf"},"vehicle_type_id":"4","last_reported":1698357972,"current_range_meters":12400,"station_id":"ce4bhsp2rcd13ifvqi50","pricing_plan_id":"free"},{"bike_id":"c886c8f2-d669-441a-b08a-070060e871d5","system_id":"levelo_inurba_marseille","lat":43.301939,"lon":5.366286,"is_reserved":false,"is_disabled":false,"rental_uris":{"android":"levelo://app?vid=c886c8f2-d669-441a-b08a-070060e871d5","ios":"levelo://app?vid=c886c8f2-d669-441a-b08a-070060e871d5"},"vehicle_type_id":"4","last_reported":1698357972,"current_range_meters":25600,"station_id":"ce4bgrh2rcd13ifvqc8g","pricing_plan_id":"free"},{"bike_id":"c01bf00f-3948-4fb3-a501-7fd45f1e8a71","system_id":"levelo_inurba_marseille","lat":43.308012,"lon":5.381511,"is_reserved":false,"is_disabled":false,"rental_uris":{"android":"levelo://app?vid=c01bf00f-3948-4fb3-a501-7fd45f1e8a71","ios":"levelo://app?vid=c01bf00f-3948-4fb3-a501-7fd45f1e8a71"},"vehicle_type_id":"4","last_reported":1698357972,"current_range_meters":5600,"station_id":"ce4bgt12rcd13ifvqce0","pricing_plan_id":"free"},{"bike_id":"7712df59-9b15-4c2b-9bf7-1be5acc7b323","system_id":"levelo_inurba_marseille","lat":43.308012,"lon":5.381511,"is_reserved":false,"is_disabled":false,"rental_uris":{"android":"levelo://app?vid=7712df59-9b15-4c2b-9bf7-1be5acc7b323","ios":"levelo://app?vid=7712df59-9b15-4c2b-9bf7-1be5acc7b323"},"vehicle_type_id":"4","last_reported":1698357972,"current_range_meters":13600,"station_id":"ce4bgt12rcd13ifvqce0","pricing_plan_id":"free"},{"bike_id":"b1a518ec-7ba0-405b-bc38-f4f0043656a6","system_id":"levelo_inurba_marseille","lat":43.308012,"lon":5.381511,"is_reserved":false,"is_disabled":false,"rental_uris":{"android":"levelo://app?vid=b1a518ec-7ba0-405b-bc38-f4f0043656a6","ios":"levelo://app?vid=b1a518ec-7ba0-405b-bc38-f4f0043656a6"},"vehicle_type_id":"4","last_reported":1698357972,"current_range_meters":22000,"station_id":"ce4bgt12rcd13ifvqce0","pricing_plan_id":"free"},{"bike_id":"b5ddd8d1-10f0-4016-938d-0efde7a85134","system_id":"levelo_inurba_marseille","lat":43.30796,"lon":5.38161,"is_reserved":false,"is_disabled":false,"rental_uris":{"android":"levelo://app?vid=b5ddd8d1-10f0-4016-938d-0efde7a85134","ios":"levelo://app?vid=b5ddd8d1-10f0-4016-938d-0efde7a85134"},"vehicle_type_id":"4","last_reported":1698357972,"current_range_meters":800,"station_id":"ce4bgt12rcd13ifvqce0","pricing_plan_id":"free"},{"bike_id":"c2f5096a-227b-47c5-8500-385d363eb95b","system_id":"levelo_inurba_marseille","lat":43.308012,"lon":5.381511,"is_reserved":false,"is_disabled":false,"rental_uris":{"android":"levelo://app?vid=c2f5096a-227b-47c5-8500-385d363eb95b","ios":"levelo://app?vid=c2f5096a-227b-47c5-8500-385d363eb95b"},"vehicle_type_id":"4","last_reported":1698357972,"current_range_meters":22000,"station_id":"ce4bgt12rcd13ifvqce0","pricing_plan_id":"free"},{"bike_id":"43ca1f8d-a5dc-4cc1-8fe6-d6c5b3b1c883","system_id":"levelo_inurba_marseille","lat":43.308012,"lon":5.381511,"is_reserved":false,"is_disabled":false,"rental_uris":{"android":"levelo://app?vid=43ca1f8d-a5dc-4cc1-8fe6-d6c5b3b1c883","ios":"levelo://app?vid=43ca1f8d-a5dc-4cc1-8fe6-d6c5b3b1c883"},"vehicle_type_id":"4","last_reported":1698357972,"current_range_meters":0,"station_id":"ce4bgt12rcd13ifvqce0","pricing_plan_id":"free"},{"bike_id":"3dc089d5-5d96-4d23-8a15-b570d07d3c7d","system_id":"levelo_inurba_marseille","lat":43.304606,"lon":5.379026,"is_reserved":false,"is_disabled":false,"rental_uris":{"android":"levelo://app?vid=3dc089d5-5d96-4d23-8a15-b570d07d3c7d","ios":"levelo://app?vid=3dc089d5-5d96-4d23-8a15-b570d07d3c7d"},"vehicle_type_id":"4","last_reported":1698357972,"current_range_meters":18800,"station_id":"ce4bgup2rcd13ifvqcn0","pricing_plan_id":"free"},{"bike_id":"1047bcc5-10ff-460b-bd6f-eac1d4a67db4","system_id":"levelo_inurba_marseille","lat":43.31745,"lon":5.382537,"is_reserved":false,"is_disabled":false,"rental_uris":{"android":"levelo://app?vid=1047bcc5-10ff-460b-bd6f-eac1d4a67db4","ios":"levelo://app?vid=1047bcc5-10ff-460b-bd6f-eac1d4a67db4"},"vehicle_type_id":"4","last_reported":1698357972,"current_range_meters":0,"station_id":"","pricing_plan_id":"free"},{"bike_id":"bbf9c5d5-2a6f-41ab-85bc-29b392e1e988","system_id":"levelo_inurba_marseille","lat":43.313571,"lon":5.384829,"is_reserved":false,"is_disabled":false,"rental_uris":{"android":"levelo://app?vid=bbf9c5d5-2a6f-41ab-85bc-29b392e1e988","ios":"levelo://app?vid=bbf9c5d5-2a6f-41ab-85bc-29b392e1e988"},"vehicle_type_id":"4","last_reported":1698357972,"current_range_meters":23200,"station_id":"ce4bgt92rcd13ifvqcf0","pricing_plan_id":"free"},{"bike_id":"9f550596-ae09-4b18-b82b-967124a6986f","system_id":"levelo_inurba_marseille","lat":43.301429,"lon":5.37413,"is_reserved":false,"is_disabled":false,"rental_uris":{"android":"levelo://app?vid=9f550596-ae09-4b18-b82b-967124a6986f","ios":"levelo://app?vid=9f550596-ae09-4b18-b82b-967124a6986f"},"vehicle_type_id":"4","last_reported":1698357972,"current_range_meters":24000,"station_id":"ce4bgs92rcd13ifvqcc0","pricing_plan_id":"free"},{"bike_id":"2c960347-c366-45f7-a87b-7841ce2d3ef4","system_id":"levelo_inurba_marseille","lat":43.302784,"lon":5.377158,"is_reserved":false,"is_disabled":false,"rental_uris":{"android":"levelo://app?vid=2c960347-c366-45f7-a87b-7841ce2d3ef4","ios":"levelo://app?vid=2c960347-c366-45f7-a87b-7841ce2d3ef4"},"vehicle_type_id":"4","last_reported":1698357972,"current_range_meters":27200,"station_id":"ce4bguh2rcd13ifvqcj0","pricing_plan_id":"free"},{"bike_id":"46e59620-997e-486c-a36f-24a6f0541ad5","system_id":"levelo_inurba_marseille","lat":43.319937,"lon":5.381563,"is_reserved":false,"is_disabled":false,"rental_uris":{"android":"levelo://app?vid=46e59620-997e-486c-a36f-24a6f0541ad5","ios":"levelo://app?vid=46e59620-997e-486c-a36f-24a6f0541ad5"},"vehicle_type_id":"4","last_reported":1698357972,"current_range_meters":9200,"station_id":"","pricing_plan_id":"free"},{"bike_id":"ff5860a4-b7e2-4698-b66b-fd68f1919d11","system_id":"levelo_inurba_marseille","lat":43.313571,"lon":5.384829,"is_reserved":false,"is_disabled":false,"rental_uris":{"android":"levelo://app?vid=ff5860a4-b7e2-4698-b66b-fd68f1919d11","ios":"levelo://app?vid=ff5860a4-b7e2-4698-b66b-fd68f1919d11"},"vehicle_type_id":"4","last_reported":1698357972,"current_range_meters":14000,"station_id":"ce4bgt92rcd13ifvqcf0","pricing_plan_id":"free"},{"bike_id":"5e2358d1-432f-475d-a2d4-b492f5d14ba1","system_id":"levelo_inurba_marseille","lat":43.313571,"lon":5.384829,"is_reserved":false,"is_disabled":false,"rental_uris":{"android":"levelo://app?vid=5e2358d1-432f-475d-a2d4-b492f5d14ba1","ios":"levelo://app?vid=5e2358d1-432f-475d-a2d4-b492f5d14ba1"},"vehicle_type_id":"4","last_reported":1698357972,"current_range_meters":24400,"station_id":"ce4bgt92rcd13ifvqcf0","pricing_plan_id":"free"},{"bike_id":"effd5dba-c5d8-4932-809f-efc8df8cadd8","system_id":"levelo_inurba_marseille","lat":43.313571,"lon":5.384829,"is_reserved":false,"is_disabled":false,"rental_uris":{"android":"levelo://app?vid=effd5dba-c5d8-4932-809f-efc8df8cadd8","ios":"levelo://app?vid=effd5dba-c5d8-4932-809f-efc8df8cadd8"},"vehicle_type_id":"4","last_reported":1698357972,"current_range_meters":4400,"station_id":"ce4bgt92rcd13ifvqcf0","pricing_plan_id":"free"},{"bike_id":"58760f64-c88d-41e8-b0e5-a4aae3fdb6af","system_id":"levelo_inurba_marseille","lat":43.313571,"lon":5.384829,"is_reserved":false,"is_disabled":false,"rental_uris":{"android":"levelo://app?vid=58760f64-c88d-41e8-b0e5-a4aae3fdb6af","ios":"levelo://app?vid=58760f64-c88d-41e8-b0e5-a4aae3fdb6af"},"vehicle_type_id":"4","last_reported":1698357972,"current_range_meters":16400,"station_id":"ce4bgt92rcd13ifvqcf0","pricing_plan_id":"free"},{"bike_id":"e34e6484-87ec-4c57-9515-8cc0eab937e3","system_id":"levelo_inurba_marseille","lat":43.313571,"lon":5.384829,"is_reserved":false,"is_disabled":false,"rental_uris":{"android":"levelo://app?vid=e34e6484-87ec-4c57-9515-8cc0eab937e3","ios":"levelo://app?vid=e34e6484-87ec-4c57-9515-8cc0eab937e3"},"vehicle_type_id":"4","last_reported":1698357972,"current_range_meters":8400,"station_id":"ce4bgt92rcd13ifvqcf0","pricing_plan_id":"free"},{"bike_id":"ee692ce1-bef7-4bf6-949e-1ae6d12a6c8e","system_id":"levelo_inurba_marseille","lat":43.299724,"lon":5.371829,"is_reserved":false,"is_disabled":false,"rental_uris":{"android":"levelo://app?vid=ee692ce1-bef7-4bf6-949e-1ae6d12a6c8e","ios":"levelo://app?vid=ee692ce1-bef7-4bf6-949e-1ae6d12a6c8e"},"vehicle_type_id":"4","last_reported":1698357972,"current_range_meters":2400,"station_id":"ce4bgr92rcd13ifvqc7g","pricing_plan_id":"free"},{"bike_id":"81eed579-a107-4a6b-893c-e1267319e8ee","system_id":"levelo_inurba_marseille","lat":43.299724,"lon":5.371829,"is_reserved":false,"is_disabled":false,"rental_uris":{"android":"levelo://app?vid=81eed579-a107-4a6b-893c-e1267319e8ee","ios":"levelo://app?vid=81eed579-a107-4a6b-893c-e1267319e8ee"},"vehicle_type_id":"4","last_reported":1698357972,"current_range_meters":22800,"station_id":"ce4bgr92rcd13ifvqc7g","pricing_plan_id":"free"},{"bike_id":"29a02688-ff89-42b0-8c69-e347c2f688d2","system_id":"levelo_inurba_marseille","lat":43.299724,"lon":5.371829,"is_reserved":false,"is_disabled":false,"rental_uris":{"android":"levelo://app?vid=29a02688-ff89-42b0-8c69-e347c2f688d2","ios":"levelo://app?vid=29a02688-ff89-42b0-8c69-e347c2f688d2"},"vehicle_type_id":"4","last_reported":1698357972,"current_range_meters":14800,"station_id":"ce4bgr92rcd13ifvqc7g","pricing_plan_id":"free"},{"bike_id":"97997ef7-b347-4148-ba57-9a15ecc4912d","system_id":"levelo_inurba_marseille","lat":43.320945,"lon":5.38306,"is_reserved":false,"is_disabled":false,"rental_uris":{"android":"levelo://app?vid=97997ef7-b347-4148-ba57-9a15ecc4912d","ios":"levelo://app?vid=97997ef7-b347-4148-ba57-9a15ecc4912d"},"vehicle_type_id":"4","last_reported":1698357972,"current_range_meters":0,"station_id":"","pricing_plan_id":"free"},{"bike_id":"ff3b5bd7-2bce-4280-b0d8-a3db16b1423f","system_id":"levelo_inurba_marseille","lat":43.298433,"lon":5.362774,"is_reserved":false,"is_disabled":false,"rental_uris":{"android":"levelo://app?vid=ff3b5bd7-2bce-4280-b0d8-a3db16b1423f","ios":"levelo://app?vid=ff3b5bd7-2bce-4280-b0d8-a3db16b1423f"},"vehicle_type_id":"4","last_reported":1698357972,"current_range_meters":23200,"station_id":"ce4bgpp2rcd13ifvqc3g","pricing_plan_id":"free"},{"bike_id":"5a7f2282-6a22-45fe-92f3-ecfd3c2759ff","system_id":"levelo_inurba_marseille","lat":43.305364,"lon":5.384119,"is_reserved":false,"is_disabled":false,"rental_uris":{"android":"levelo://app?vid=5a7f2282-6a22-45fe-92f3-ecfd3c2759ff","ios":"levelo://app?vid=5a7f2282-6a22-45fe-92f3-ecfd3c2759ff"},"vehicle_type_id":"4","last_reported":1698357972,"current_range_meters":10400,"station_id":"ce4bgg92rcd13ifvqb30","pricing_plan_id":"free"},{"bike_id":"7028177e-8160-46e9-b766-161b5e804a1e","system_id":"levelo_inurba_marseille","lat":43.298433,"lon":5.362774,"is_reserved":false,"is_disabled":false,"rental_uris":{"android":"levelo://app?vid=7028177e-8160-46e9-b766-161b5e804a1e","ios":"levelo://app?vid=7028177e-8160-46e9-b766-161b5e804a1e"},"vehicle_type_id":"4","last_reported":1698357972,"current_range_meters":24800,"station_id":"ce4bgpp2rcd13ifvqc3g","pricing_plan_id":"free"},{"bike_id":"961dec48-402b-4797-97de-f8b67fbf73c6","system_id":"levelo_inurba_marseille","lat":43.298433,"lon":5.362774,"is_reserved":false,"is_disabled":false,"rental_uris":{"android":"levelo://app?vid=961dec48-402b-4797-97de-f8b67fbf73c6","ios":"levelo://app?vid=961dec48-402b-4797-97de-f8b67fbf73c6"},"vehicle_type_id":"4","last_reported":1698357972,"current_range_meters":25200,"station_id":"ce4bgpp2rcd13ifvqc3g","pricing_plan_id":"free"},{"bike_id":"dcda1973-b1e0-48bb-b340-ba07b8e64a20","system_id":"levelo_inurba_marseille","lat":43.298433,"lon":5.362774,"is_reserved":false,"is_disabled":false,"rental_uris":{"android":"levelo://app?vid=dcda1973-b1e0-48bb-b340-ba07b8e64a20","ios":"levelo://app?vid=dcda1973-b1e0-48bb-b340-ba07b8e64a20"},"vehicle_type_id":"4","last_reported":1698357972,"current_range_meters":26400,"station_id":"ce4bgpp2rcd13ifvqc3g","pricing_plan_id":"free"},{"bike_id":"7e69cc48-4da4-4cd2-98c8-e4711d550be5","system_id":"levelo_inurba_marseille","lat":43.298433,"lon":5.362774,"is_reserved":false,"is_disabled":false,"rental_uris":{"android":"levelo://app?vid=7e69cc48-4da4-4cd2-98c8-e4711d550be5","ios":"levelo://app?vid=7e69cc48-4da4-4cd2-98c8-e4711d550be5"},"vehicle_type_id":"4","last_reported":1698357972,"current_range_meters":29200,"station_id":"ce4bgpp2rcd13ifvqc3g","pricing_plan_id":"free"},{"bike_id":"246bc270-c207-4123-ba8e-ae75237fbdb8","system_id":"levelo_inurba_marseille","lat":43.298433,"lon":5.362774,"is_reserved":false,"is_disabled":false,"rental_uris":{"android":"levelo://app?vid=246bc270-c207-4123-ba8e-ae75237fbdb8","ios":"levelo://app?vid=246bc270-c207-4123-ba8e-ae75237fbdb8"},"vehicle_type_id":"4","last_reported":1698357972,"current_range_meters":31200,"station_id":"ce4bgpp2rcd13ifvqc3g","pricing_plan_id":"free"},{"bike_id":"0ec72a90-aebc-485f-88e1-543e94aa7608","system_id":"levelo_inurba_marseille","lat":43.298433,"lon":5.362774,"is_reserved":false,"is_disabled":false,"rental_uris":{"android":"levelo://app?vid=0ec72a90-aebc-485f-88e1-543e94aa7608","ios":"levelo://app?vid=0ec72a90-aebc-485f-88e1-543e94aa7608"},"vehicle_type_id":"4","last_reported":1698357972,"current_range_meters":31200,"station_id":"ce4bgpp2rcd13ifvqc3g","pricing_plan_id":"free"},{"bike_id":"833a0712-69e0-45b5-8917-189d768118d7","system_id":"levelo_inurba_marseille","lat":43.298433,"lon":5.362774,"is_reserved":false,"is_disabled":false,"rental_uris":{"android":"levelo://app?vid=833a0712-69e0-45b5-8917-189d768118d7","ios":"levelo://app?vid=833a0712-69e0-45b5-8917-189d768118d7"},"vehicle_type_id":"4","last_reported":1698357972,"current_range_meters":26400,"station_id":"ce4bgpp2rcd13ifvqc3g","pricing_plan_id":"free"},{"bike_id":"8127c54b-e756-40b5-b097-e205fe57aeb1","system_id":"levelo_inurba_marseille","lat":43.298433,"lon":5.362774,"is_reserved":false,"is_disabled":false,"rental_uris":{"android":"levelo://app?vid=8127c54b-e756-40b5-b097-e205fe57aeb1","ios":"levelo://app?vid=8127c54b-e756-40b5-b097-e205fe57aeb1"},"vehicle_type_id":"4","last_reported":1698357972,"current_range_meters":28000,"station_id":"ce4bgpp2rcd13ifvqc3g","pricing_plan_id":"free"},{"bike_id":"f5fb9b80-a6bb-48fe-a946-86c22f026457","system_id":"levelo_inurba_marseille","lat":43.298433,"lon":5.362774,"is_reserved":false,"is_disabled":false,"rental_uris":{"android":"levelo://app?vid=f5fb9b80-a6bb-48fe-a946-86c22f026457","ios":"levelo://app?vid=f5fb9b80-a6bb-48fe-a946-86c22f026457"},"vehicle_type_id":"4","last_reported":1698357972,"current_range_meters":31200,"station_id":"ce4bgpp2rcd13ifvqc3g","pricing_plan_id":"free"},{"bike_id":"eb0c9504-a0a1-4106-a622-423de2298f7a","system_id":"levelo_inurba_marseille","lat":43.298433,"lon":5.362774,"is_reserved":false,"is_disabled":false,"rental_uris":{"android":"levelo://app?vid=eb0c9504-a0a1-4106-a622-423de2298f7a","ios":"levelo://app?vid=eb0c9504-a0a1-4106-a622-423de2298f7a"},"vehicle_type_id":"4","last_reported":1698357972,"current_range_meters":27200,"station_id":"ce4bgpp2rcd13ifvqc3g","pricing_plan_id":"free"},{"bike_id":"32eebd9a-d1a5-4472-93e6-397797da6433","system_id":"levelo_inurba_marseille","lat":43.311722,"lon":5.387247,"is_reserved":false,"is_disabled":false,"rental_uris":{"android":"levelo://app?vid=32eebd9a-d1a5-4472-93e6-397797da6433","ios":"levelo://app?vid=32eebd9a-d1a5-4472-93e6-397797da6433"},"vehicle_type_id":"4","last_reported":1698357972,"current_range_meters":3600,"station_id":"ce4bgv12rcd13ifvqcp0","pricing_plan_id":"free"},{"bike_id":"0fc5e744-393c-43f8-95a4-a3ce3fe41602","system_id":"levelo_inurba_marseille","lat":43.311722,"lon":5.387247,"is_reserved":false,"is_disabled":false,"rental_uris":{"android":"levelo://app?vid=0fc5e744-393c-43f8-95a4-a3ce3fe41602","ios":"levelo://app?vid=0fc5e744-393c-43f8-95a4-a3ce3fe41602"},"vehicle_type_id":"4","last_reported":1698357972,"current_range_meters":26400,"station_id":"ce4bgv12rcd13ifvqcp0","pricing_plan_id":"free"},{"bike_id":"b69f2c2f-e5e9-4185-9f62-3015b2132b58","system_id":"levelo_inurba_marseille","lat":43.311722,"lon":5.387247,"is_reserved":false,"is_disabled":false,"rental_uris":{"android":"levelo://app?vid=b69f2c2f-e5e9-4185-9f62-3015b2132b58","ios":"levelo://app?vid=b69f2c2f-e5e9-4185-9f62-3015b2132b58"},"vehicle_type_id":"4","last_reported":1698357972,"current_range_meters":25600,"station_id":"ce4bgv12rcd13ifvqcp0","pricing_plan_id":"free"},{"bike_id":"0b5c4a93-a829-4bbb-a50f-b8327cba654f","system_id":"levelo_inurba_marseille","lat":43.311722,"lon":5.387247,"is_reserved":false,"is_disabled":false,"rental_uris":{"android":"levelo://app?vid=0b5c4a93-a829-4bbb-a50f-b8327cba654f","ios":"levelo://app?vid=0b5c4a93-a829-4bbb-a50f-b8327cba654f"},"vehicle_type_id":"4","last_reported":1698357972,"current_range_meters":28800,"station_id":"ce4bgv12rcd13ifvqcp0","pricing_plan_id":"free"},{"bike_id":"d222d535-d45d-4060-a514-40a57465b506","system_id":"levelo_inurba_marseille","lat":43.297774,"lon":5.370875,"is_reserved":false,"is_disabled":false,"rental_uris":{"android":"levelo://app?vid=d222d535-d45d-4060-a514-40a57465b506","ios":"levelo://app?vid=d222d535-d45d-4060-a514-40a57465b506"},"vehicle_type_id":"4","last_reported":1698357972,"current_range_meters":22400,"station_id":"ce4bgop2rcd13ifvqc1g","pricing_plan_id":"free"},{"bike_id":"7b472b9e-8cdd-4b79-85e8-9ead6358fbda","system_id":"levelo_inurba_marseille","lat":43.3283,"lon":5.36688,"is_reserved":false,"is_disabled":false,"rental_uris":{"android":"levelo://app?vid=7b472b9e-8cdd-4b79-85e8-9ead6358fbda","ios":"levelo://app?vid=7b472b9e-8cdd-4b79-85e8-9ead6358fbda"},"vehicle_type_id":"4","last_reported":1698357972,"current_range_meters":11600,"station_id":"ce4bhs92rcd13ifvqi0g","pricing_plan_id":"free"},{"bike_id":"2bf09692-7151-4aba-9fa7-8ce1d6106004","system_id":"levelo_inurba_marseille","lat":43.328303,"lon":5.366873,"is_reserved":false,"is_disabled":false,"rental_uris":{"android":"levelo://app?vid=2bf09692-7151-4aba-9fa7-8ce1d6106004","ios":"levelo://app?vid=2bf09692-7151-4aba-9fa7-8ce1d6106004"},"vehicle_type_id":"4","last_reported":1698357972,"current_range_meters":19200,"station_id":"","pricing_plan_id":"free"},{"bike_id":"b3e63496-ef57-4fe7-9649-3ee98b2a4e91","system_id":"levelo_inurba_marseille","lat":43.32831,"lon":5.36697,"is_reserved":false,"is_disabled":false,"rental_uris":{"android":"levelo://app?vid=b3e63496-ef57-4fe7-9649-3ee98b2a4e91","ios":"levelo://app?vid=b3e63496-ef57-4fe7-9649-3ee98b2a4e91"},"vehicle_type_id":"4","last_reported":1698357972,"current_range_meters":16000,"station_id":"ce4bhs92rcd13ifvqi0g","pricing_plan_id":"free"},{"bike_id":"a7f1da11-477d-46e1-91f2-018a257733ac","system_id":"levelo_inurba_marseille","lat":43.32832,"lon":5.36693,"is_reserved":false,"is_disabled":false,"rental_uris":{"android":"levelo://app?vid=a7f1da11-477d-46e1-91f2-018a257733ac","ios":"levelo://app?vid=a7f1da11-477d-46e1-91f2-018a257733ac"},"vehicle_type_id":"4","last_reported":1698357972,"current_range_meters":6800,"station_id":"ce4bhs92rcd13ifvqi0g","pricing_plan_id":"free"},{"bike_id":"7c5b20d2-f439-4147-8381-823021bb16e8","system_id":"levelo_inurba_marseille","lat":43.328371,"lon":5.366909,"is_reserved":false,"is_disabled":false,"rental_uris":{"android":"levelo://app?vid=7c5b20d2-f439-4147-8381-823021bb16e8","ios":"levelo://app?vid=7c5b20d2-f439-4147-8381-823021bb16e8"},"vehicle_type_id":"4","last_reported":1698357972,"current_range_meters":400,"station_id":"ce4bhs92rcd13ifvqi0g","pricing_plan_id":"free"},{"bike_id":"4064cc22-40fb-4582-81a4-d292c5a6bb47","system_id":"levelo_inurba_marseille","lat":43.2968,"lon":5.37291,"is_reserved":false,"is_disabled":false,"rental_uris":{"android":"levelo://app?vid=4064cc22-40fb-4582-81a4-d292c5a6bb47","ios":"levelo://app?vid=4064cc22-40fb-4582-81a4-d292c5a6bb47"},"vehicle_type_id":"4","last_reported":1698357972,"current_range_meters":27200,"station_id":"ce4bgk12rcd13ifvqbj0","pricing_plan_id":"free"},{"bike_id":"29dff67d-2b6c-488a-a033-a13c954675db","system_id":"levelo_inurba_marseille","lat":43.296131,"lon":5.370773,"is_reserved":false,"is_disabled":false,"rental_uris":{"android":"levelo://app?vid=29dff67d-2b6c-488a-a033-a13c954675db","ios":"levelo://app?vid=29dff67d-2b6c-488a-a033-a13c954675db"},"vehicle_type_id":"4","last_reported":1698357972,"current_range_meters":28800,"station_id":"ce4bgnh2rcd13ifvqc0g","pricing_plan_id":"free"},{"bike_id":"f3d0381f-7a2d-409e-a12f-bd3d9095653d","system_id":"levelo_inurba_marseille","lat":43.329673,"lon":5.365468,"is_reserved":false,"is_disabled":false,"rental_uris":{"android":"levelo://app?vid=f3d0381f-7a2d-409e-a12f-bd3d9095653d","ios":"levelo://app?vid=f3d0381f-7a2d-409e-a12f-bd3d9095653d"},"vehicle_type_id":"4","last_reported":1698357972,"current_range_meters":11600,"station_id":"","pricing_plan_id":"free"},{"bike_id":"2c7939c1-1d13-4f02-b38d-dbfefa012545","system_id":"levelo_inurba_marseille","lat":43.29573,"lon":5.367355,"is_reserved":false,"is_disabled":false,"rental_uris":{"android":"levelo://app?vid=2c7939c1-1d13-4f02-b38d-dbfefa012545","ios":"levelo://app?vid=2c7939c1-1d13-4f02-b38d-dbfefa012545"},"vehicle_type_id":"4","last_reported":1698357972,"current_range_meters":0,"station_id":"ce4bgph2rcd13ifvqc2g","pricing_plan_id":"free"},{"bike_id":"60cbaeca-e648-44bc-ae0d-05e4f8845cef","system_id":"levelo_inurba_marseille","lat":43.299028,"lon":5.381509,"is_reserved":false,"is_disabled":false,"rental_uris":{"android":"levelo://app?vid=60cbaeca-e648-44bc-ae0d-05e4f8845cef","ios":"levelo://app?vid=60cbaeca-e648-44bc-ae0d-05e4f8845cef"},"vehicle_type_id":"4","last_reported":1698357972,"current_range_meters":8800,"station_id":"ce4bgj12rcd13ifvqbc0","pricing_plan_id":"free"},{"bike_id":"c1deccb7-9c2a-4804-b1e5-7713ee60aadb","system_id":"levelo_inurba_marseille","lat":43.299028,"lon":5.381509,"is_reserved":false,"is_disabled":false,"rental_uris":{"android":"levelo://app?vid=c1deccb7-9c2a-4804-b1e5-7713ee60aadb","ios":"levelo://app?vid=c1deccb7-9c2a-4804-b1e5-7713ee60aadb"},"vehicle_type_id":"4","last_reported":1698357972,"current_range_meters":11200,"station_id":"ce4bgj12rcd13ifvqbc0","pricing_plan_id":"free"},{"bike_id":"b5a228ec-dba5-4e48-90e3-4d95b306c00d","system_id":"levelo_inurba_marseille","lat":43.296921,"lon":5.376579,"is_reserved":false,"is_disabled":false,"rental_uris":{"android":"levelo://app?vid=b5a228ec-dba5-4e48-90e3-4d95b306c00d","ios":"levelo://app?vid=b5a228ec-dba5-4e48-90e3-4d95b306c00d"},"vehicle_type_id":"4","last_reported":1698357972,"current_range_meters":26800,"station_id":"ce4bgkh2rcd13ifvqbl0","pricing_plan_id":"free"},{"bike_id":"cfc661ad-803f-419e-aa2a-4277625e43d4","system_id":"levelo_inurba_marseille","lat":43.309589,"lon":5.390258,"is_reserved":false,"is_disabled":false,"rental_uris":{"android":"levelo://app?vid=cfc661ad-803f-419e-aa2a-4277625e43d4","ios":"levelo://app?vid=cfc661ad-803f-419e-aa2a-4277625e43d4"},"vehicle_type_id":"4","last_reported":1698357972,"current_range_meters":25600,"station_id":"ce4bgup2rcd13ifvqco0","pricing_plan_id":"free"},{"bike_id":"ece252df-cfe1-49e8-b035-e624626557a9","system_id":"levelo_inurba_marseille","lat":43.317557,"lon":5.390173,"is_reserved":false,"is_disabled":false,"rental_uris":{"android":"levelo://app?vid=ece252df-cfe1-49e8-b035-e624626557a9","ios":"levelo://app?vid=ece252df-cfe1-49e8-b035-e624626557a9"},"vehicle_type_id":"4","last_reported":1698357972,"current_range_meters":13600,"station_id":"ce4bhqp2rcd13ifvqhng","pricing_plan_id":"free"},{"bike_id":"f481484c-75dc-4bca-98a3-109bbb22363c","system_id":"levelo_inurba_marseille","lat":43.317478,"lon":5.390115,"is_reserved":false,"is_disabled":false,"rental_uris":{"android":"levelo://app?vid=f481484c-75dc-4bca-98a3-109bbb22363c","ios":"levelo://app?vid=f481484c-75dc-4bca-98a3-109bbb22363c"},"vehicle_type_id":"4","last_reported":1698357972,"current_range_meters":11200,"station_id":"","pricing_plan_id":"free"},{"bike_id":"25e41252-343c-421c-8172-66ac68dce585","system_id":"levelo_inurba_marseille","lat":43.317557,"lon":5.390173,"is_reserved":false,"is_disabled":false,"rental_uris":{"android":"levelo://app?vid=25e41252-343c-421c-8172-66ac68dce585","ios":"levelo://app?vid=25e41252-343c-421c-8172-66ac68dce585"},"vehicle_type_id":"4","last_reported":1698357972,"current_range_meters":20400,"station_id":"ce4bhqp2rcd13ifvqhng","pricing_plan_id":"free"},{"bike_id":"490d717c-3c72-4ba4-97ea-0ebfb88b270e","system_id":"levelo_inurba_marseille","lat":43.296281,"lon":5.377037,"is_reserved":false,"is_disabled":false,"rental_uris":{"android":"levelo://app?vid=490d717c-3c72-4ba4-97ea-0ebfb88b270e","ios":"levelo://app?vid=490d717c-3c72-4ba4-97ea-0ebfb88b270e"},"vehicle_type_id":"4","last_reported":1698357972,"current_range_meters":16400,"station_id":"ce4bgi92rcd13ifvqb90","pricing_plan_id":"free"},{"bike_id":"1b61b141-6b9d-445a-8419-d5c6130ac78c","system_id":"levelo_inurba_marseille","lat":43.29969,"lon":5.38493,"is_reserved":false,"is_disabled":false,"rental_uris":{"android":"levelo://app?vid=1b61b141-6b9d-445a-8419-d5c6130ac78c","ios":"levelo://app?vid=1b61b141-6b9d-445a-8419-d5c6130ac78c"},"vehicle_type_id":"4","last_reported":1698357972,"current_range_meters":0,"station_id":"ce4bgj92rcd13ifvqbd0","pricing_plan_id":"free"},{"bike_id":"50ba0a4e-dc52-4b36-bbea-ef74378b458b","system_id":"levelo_inurba_marseille","lat":43.29698,"lon":5.3812,"is_reserved":false,"is_disabled":false,"rental_uris":{"android":"levelo://app?vid=50ba0a4e-dc52-4b36-bbea-ef74378b458b","ios":"levelo://app?vid=50ba0a4e-dc52-4b36-bbea-ef74378b458b"},"vehicle_type_id":"4","last_reported":1698357972,"current_range_meters":800,"station_id":"","pricing_plan_id":"free"},{"bike_id":"cef65dd8-e2a9-4bc6-9bda-0dd66b80ef3f","system_id":"levelo_inurba_marseille","lat":43.323775,"lon":5.388322,"is_reserved":false,"is_disabled":false,"rental_uris":{"android":"levelo://app?vid=cef65dd8-e2a9-4bc6-9bda-0dd66b80ef3f","ios":"levelo://app?vid=cef65dd8-e2a9-4bc6-9bda-0dd66b80ef3f"},"vehicle_type_id":"4","last_reported":1698357972,"current_range_meters":20800,"station_id":"","pricing_plan_id":"free"},{"bike_id":"5e7629c7-7626-4cc0-9939-2688e2172afc","system_id":"levelo_inurba_marseille","lat":43.32367,"lon":5.388836,"is_reserved":false,"is_disabled":false,"rental_uris":{"android":"levelo://app?vid=5e7629c7-7626-4cc0-9939-2688e2172afc","ios":"levelo://app?vid=5e7629c7-7626-4cc0-9939-2688e2172afc"},"vehicle_type_id":"4","last_reported":1698357972,"current_range_meters":5200,"station_id":"ce4bhqp2rcd13ifvqhog","pricing_plan_id":"free"},{"bike_id":"09fa9d39-a5fc-45e0-8d77-a617872af8db","system_id":"levelo_inurba_marseille","lat":43.32367,"lon":5.388836,"is_reserved":false,"is_disabled":false,"rental_uris":{"android":"levelo://app?vid=09fa9d39-a5fc-45e0-8d77-a617872af8db","ios":"levelo://app?vid=09fa9d39-a5fc-45e0-8d77-a617872af8db"},"vehicle_type_id":"4","last_reported":1698357972,"current_range_meters":17200,"station_id":"ce4bhqp2rcd13ifvqhog","pricing_plan_id":"free"},{"bike_id":"eb5bc363-d62b-4f46-aa7f-e66fa55022c2","system_id":"levelo_inurba_marseille","lat":43.324107,"lon":5.388927,"is_reserved":false,"is_disabled":false,"rental_uris":{"android":"levelo://app?vid=eb5bc363-d62b-4f46-aa7f-e66fa55022c2","ios":"levelo://app?vid=eb5bc363-d62b-4f46-aa7f-e66fa55022c2"},"vehicle_type_id":"4","last_reported":1698357972,"current_range_meters":21600,"station_id":"ce4bhqp2rcd13ifvqhog","pricing_plan_id":"free"},{"bike_id":"bbab7e28-ee01-4080-b12e-dd8baccd43d0","system_id":"levelo_inurba_marseille","lat":43.32394,"lon":5.389747,"is_reserved":false,"is_disabled":false,"rental_uris":{"android":"levelo://app?vid=bbab7e28-ee01-4080-b12e-dd8baccd43d0","ios":"levelo://app?vid=bbab7e28-ee01-4080-b12e-dd8baccd43d0"},"vehicle_type_id":"4","last_reported":1698357972,"current_range_meters":15200,"station_id":"","pricing_plan_id":"free"},{"bike_id":"ecd7bd0b-ee2d-4762-adc5-7a3021f6a7d2","system_id":"levelo_inurba_marseille","lat":43.293093,"lon":5.374505,"is_reserved":false,"is_disabled":false,"rental_uris":{"android":"levelo://app?vid=ecd7bd0b-ee2d-4762-adc5-7a3021f6a7d2","ios":"levelo://app?vid=ecd7bd0b-ee2d-4762-adc5-7a3021f6a7d2"},"vehicle_type_id":"4","last_reported":1698357972,"current_range_meters":0,"station_id":"ce4bgi12rcd13ifvqb70","pricing_plan_id":"free"},{"bike_id":"228bd985-539e-4df7-bbcb-32c7b3ed9966","system_id":"levelo_inurba_marseille","lat":43.292311,"lon":5.360731,"is_reserved":false,"is_disabled":false,"rental_uris":{"android":"levelo://app?vid=228bd985-539e-4df7-bbcb-32c7b3ed9966","ios":"levelo://app?vid=228bd985-539e-4df7-bbcb-32c7b3ed9966"},"vehicle_type_id":"4","last_reported":1698357972,"current_range_meters":4000,"station_id":"ce4bhbh2rcd13ifvqeqg","pricing_plan_id":"free"},{"bike_id":"eb36023b-e960-436d-8502-f308ce0f7251","system_id":"levelo_inurba_marseille","lat":43.29213,"lon":5.36063,"is_reserved":false,"is_disabled":false,"rental_uris":{"android":"levelo://app?vid=eb36023b-e960-436d-8502-f308ce0f7251","ios":"levelo://app?vid=eb36023b-e960-436d-8502-f308ce0f7251"},"vehicle_type_id":"4","last_reported":1698357972,"current_range_meters":26400,"station_id":"ce4bhbh2rcd13ifvqeqg","pricing_plan_id":"free"},{"bike_id":"6e8b61c1-9ebe-4ccb-9f9b-ffc82c694565","system_id":"levelo_inurba_marseille","lat":43.29264,"lon":5.37632,"is_reserved":false,"is_disabled":false,"rental_uris":{"android":"levelo://app?vid=6e8b61c1-9ebe-4ccb-9f9b-ffc82c694565","ios":"levelo://app?vid=6e8b61c1-9ebe-4ccb-9f9b-ffc82c694565"},"vehicle_type_id":"4","last_reported":1698357972,"current_range_meters":0,"station_id":"ce4bgi12rcd13ifvqb80","pricing_plan_id":"free"},{"bike_id":"583849a5-0d41-4204-bd52-8d99b01ddea9","system_id":"levelo_inurba_marseille","lat":43.291675,"lon":5.371583,"is_reserved":false,"is_disabled":false,"rental_uris":{"android":"levelo://app?vid=583849a5-0d41-4204-bd52-8d99b01ddea9","ios":"levelo://app?vid=583849a5-0d41-4204-bd52-8d99b01ddea9"},"vehicle_type_id":"4","last_reported":1698357972,"current_range_meters":26400,"station_id":"ce4bha92rcd13ifvqeh0","pricing_plan_id":"free"},{"bike_id":"d04ac309-84d2-4758-b6c7-03da465827a7","system_id":"levelo_inurba_marseille","lat":43.291671,"lon":5.371575,"is_reserved":false,"is_disabled":false,"rental_uris":{"android":"levelo://app?vid=d04ac309-84d2-4758-b6c7-03da465827a7","ios":"levelo://app?vid=d04ac309-84d2-4758-b6c7-03da465827a7"},"vehicle_type_id":"4","last_reported":1698357972,"current_range_meters":29600,"station_id":"ce4bha92rcd13ifvqeh0","pricing_plan_id":"free"},{"bike_id":"db842c2b-3ca4-4ae6-9422-3cfb385d3cde","system_id":"levelo_inurba_marseille","lat":43.31072,"lon":5.39631,"is_reserved":false,"is_disabled":false,"rental_uris":{"android":"levelo://app?vid=db842c2b-3ca4-4ae6-9422-3cfb385d3cde","ios":"levelo://app?vid=db842c2b-3ca4-4ae6-9422-3cfb385d3cde"},"vehicle_type_id":"4","last_reported":1698357972,"current_range_meters":4000,"station_id":"","pricing_plan_id":"free"},{"bike_id":"b11a2e6f-fd0a-4d15-9bb6-ea9d35d4b32f","system_id":"levelo_inurba_marseille","lat":43.326732,"lon":5.389466,"is_reserved":false,"is_disabled":false,"rental_uris":{"android":"levelo://app?vid=b11a2e6f-fd0a-4d15-9bb6-ea9d35d4b32f","ios":"levelo://app?vid=b11a2e6f-fd0a-4d15-9bb6-ea9d35d4b32f"},"vehicle_type_id":"4","last_reported":1698357972,"current_range_meters":26800,"station_id":"","pricing_plan_id":"free"},{"bike_id":"09d4e7e4-5801-4d63-8060-7a9d51ca010b","system_id":"levelo_inurba_marseille","lat":43.309038,"lon":5.396546,"is_reserved":false,"is_disabled":false,"rental_uris":{"android":"levelo://app?vid=09d4e7e4-5801-4d63-8060-7a9d51ca010b","ios":"levelo://app?vid=09d4e7e4-5801-4d63-8060-7a9d51ca010b"},"vehicle_type_id":"4","last_reported":1698357972,"current_range_meters":5600,"station_id":"ce4bh012rcd13ifvqcv0","pricing_plan_id":"free"},{"bike_id":"0838bcbf-6eee-4f49-b9b2-d220f9970dce","system_id":"levelo_inurba_marseille","lat":43.309038,"lon":5.396546,"is_reserved":false,"is_disabled":false,"rental_uris":{"android":"levelo://app?vid=0838bcbf-6eee-4f49-b9b2-d220f9970dce","ios":"levelo://app?vid=0838bcbf-6eee-4f49-b9b2-d220f9970dce"},"vehicle_type_id":"4","last_reported":1698357972,"current_range_meters":30000,"station_id":"ce4bh012rcd13ifvqcv0","pricing_plan_id":"free"},{"bike_id":"bba39dd5-a81e-465a-84d3-5f42f65119db","system_id":"levelo_inurba_marseille","lat":43.309047,"lon":5.396551,"is_reserved":false,"is_disabled":false,"rental_uris":{"android":"levelo://app?vid=bba39dd5-a81e-465a-84d3-5f42f65119db","ios":"levelo://app?vid=bba39dd5-a81e-465a-84d3-5f42f65119db"},"vehicle_type_id":"4","last_reported":1698357972,"current_range_meters":28400,"station_id":"ce4bh012rcd13ifvqcv0","pricing_plan_id":"free"},{"bike_id":"c865379a-68f7-4118-9ac2-66ef0f42ba73","system_id":"levelo_inurba_marseille","lat":43.309038,"lon":5.396546,"is_reserved":false,"is_disabled":false,"rental_uris":{"android":"levelo://app?vid=c865379a-68f7-4118-9ac2-66ef0f42ba73","ios":"levelo://app?vid=c865379a-68f7-4118-9ac2-66ef0f42ba73"},"vehicle_type_id":"4","last_reported":1698357972,"current_range_meters":31200,"station_id":"ce4bh012rcd13ifvqcv0","pricing_plan_id":"free"},{"bike_id":"e95f2fbb-6e6a-4d8b-84a7-7e85837354f6","system_id":"levelo_inurba_marseille","lat":43.309038,"lon":5.396546,"is_reserved":false,"is_disabled":false,"rental_uris":{"android":"levelo://app?vid=e95f2fbb-6e6a-4d8b-84a7-7e85837354f6","ios":"levelo://app?vid=e95f2fbb-6e6a-4d8b-84a7-7e85837354f6"},"vehicle_type_id":"4","last_reported":1698357972,"current_range_meters":31200,"station_id":"ce4bh012rcd13ifvqcv0","pricing_plan_id":"free"},{"bike_id":"2ce86162-9c3b-4bb6-b3ce-ca57c7b9ee8c","system_id":"levelo_inurba_marseille","lat":43.309038,"lon":5.396546,"is_reserved":false,"is_disabled":false,"rental_uris":{"android":"levelo://app?vid=2ce86162-9c3b-4bb6-b3ce-ca57c7b9ee8c","ios":"levelo://app?vid=2ce86162-9c3b-4bb6-b3ce-ca57c7b9ee8c"},"vehicle_type_id":"4","last_reported":1698357972,"current_range_meters":31200,"station_id":"ce4bh012rcd13ifvqcv0","pricing_plan_id":"free"},{"bike_id":"37ed3f83-8a0e-4d8e-b253-a46c36f3eee8","system_id":"levelo_inurba_marseille","lat":43.308864,"lon":5.396376,"is_reserved":false,"is_disabled":false,"rental_uris":{"android":"levelo://app?vid=37ed3f83-8a0e-4d8e-b253-a46c36f3eee8","ios":"levelo://app?vid=37ed3f83-8a0e-4d8e-b253-a46c36f3eee8"},"vehicle_type_id":"4","last_reported":1698357972,"current_range_meters":20400,"station_id":"ce4bh012rcd13ifvqcv0","pricing_plan_id":"free"},{"bike_id":"3b771744-6c0f-438a-a147-43e6e8aaff54","system_id":"levelo_inurba_marseille","lat":43.29191,"lon":5.35804,"is_reserved":false,"is_disabled":false,"rental_uris":{"android":"levelo://app?vid=3b771744-6c0f-438a-a147-43e6e8aaff54","ios":"levelo://app?vid=3b771744-6c0f-438a-a147-43e6e8aaff54"},"vehicle_type_id":"4","last_reported":1698357972,"current_range_meters":22800,"station_id":"ce4bhb12rcd13ifvqel0","pricing_plan_id":"free"},{"bike_id":"bced65d4-f95d-4ca7-9ce5-6ae38d7ac6da","system_id":"levelo_inurba_marseille","lat":43.291902,"lon":5.358066,"is_reserved":false,"is_disabled":false,"rental_uris":{"android":"levelo://app?vid=bced65d4-f95d-4ca7-9ce5-6ae38d7ac6da","ios":"levelo://app?vid=bced65d4-f95d-4ca7-9ce5-6ae38d7ac6da"},"vehicle_type_id":"4","last_reported":1698357972,"current_range_meters":14000,"station_id":"ce4bhb12rcd13ifvqel0","pricing_plan_id":"free"},{"bike_id":"ec013e18-cbd0-4f38-8d7c-cffb52c96db1","system_id":"levelo_inurba_marseille","lat":43.31324,"lon":5.3969,"is_reserved":false,"is_disabled":false,"rental_uris":{"android":"levelo://app?vid=ec013e18-cbd0-4f38-8d7c-cffb52c96db1","ios":"levelo://app?vid=ec013e18-cbd0-4f38-8d7c-cffb52c96db1"},"vehicle_type_id":"4","last_reported":1698357972,"current_range_meters":30000,"station_id":"ce4bgvp2rcd13ifvqcu0","pricing_plan_id":"free"},{"bike_id":"74a08fec-8d04-4099-9cdb-6a88bc8733e4","system_id":"levelo_inurba_marseille","lat":43.29191,"lon":5.35801,"is_reserved":false,"is_disabled":false,"rental_uris":{"android":"levelo://app?vid=74a08fec-8d04-4099-9cdb-6a88bc8733e4","ios":"levelo://app?vid=74a08fec-8d04-4099-9cdb-6a88bc8733e4"},"vehicle_type_id":"4","last_reported":1698357972,"current_range_meters":16400,"station_id":"ce4bhb12rcd13ifvqel0","pricing_plan_id":"free"},{"bike_id":"8fd92eac-6fce-48db-b801-19fa67136f98","system_id":"levelo_inurba_marseille","lat":43.31325,"lon":5.39691,"is_reserved":false,"is_disabled":false,"rental_uris":{"android":"levelo://app?vid=8fd92eac-6fce-48db-b801-19fa67136f98","ios":"levelo://app?vid=8fd92eac-6fce-48db-b801-19fa67136f98"},"vehicle_type_id":"4","last_reported":1698357972,"current_range_meters":14400,"station_id":"ce4bgvp2rcd13ifvqcu0","pricing_plan_id":"free"},{"bike_id":"dfacef70-8b7b-4446-92a4-92241579bc69","system_id":"levelo_inurba_marseille","lat":43.313291,"lon":5.396838,"is_reserved":false,"is_disabled":false,"rental_uris":{"android":"levelo://app?vid=dfacef70-8b7b-4446-92a4-92241579bc69","ios":"levelo://app?vid=dfacef70-8b7b-4446-92a4-92241579bc69"},"vehicle_type_id":"4","last_reported":1698357972,"current_range_meters":4000,"station_id":"ce4bgvp2rcd13ifvqcu0","pricing_plan_id":"free"},{"bike_id":"9311829a-230d-4ec8-aca9-741dd60effb4","system_id":"levelo_inurba_marseille","lat":43.309038,"lon":5.396546,"is_reserved":false,"is_disabled":false,"rental_uris":{"android":"levelo://app?vid=9311829a-230d-4ec8-aca9-741dd60effb4","ios":"levelo://app?vid=9311829a-230d-4ec8-aca9-741dd60effb4"},"vehicle_type_id":"4","last_reported":1698357972,"current_range_meters":26000,"station_id":"ce4bh012rcd13ifvqcv0","pricing_plan_id":"free"},{"bike_id":"1da6cc5b-ee3e-414c-9c36-4ed4f030edcf","system_id":"levelo_inurba_marseille","lat":43.313263,"lon":5.39694,"is_reserved":false,"is_disabled":false,"rental_uris":{"android":"levelo://app?vid=1da6cc5b-ee3e-414c-9c36-4ed4f030edcf","ios":"levelo://app?vid=1da6cc5b-ee3e-414c-9c36-4ed4f030edcf"},"vehicle_type_id":"4","last_reported":1698357972,"current_range_meters":0,"station_id":"ce4bgvp2rcd13ifvqcu0","pricing_plan_id":"free"},{"bike_id":"06b83785-26d6-46d8-b1df-e0e63f3ece80","system_id":"levelo_inurba_marseille","lat":43.309038,"lon":5.396546,"is_reserved":false,"is_disabled":false,"rental_uris":{"android":"levelo://app?vid=06b83785-26d6-46d8-b1df-e0e63f3ece80","ios":"levelo://app?vid=06b83785-26d6-46d8-b1df-e0e63f3ece80"},"vehicle_type_id":"4","last_reported":1698357972,"current_range_meters":28800,"station_id":"ce4bh012rcd13ifvqcv0","pricing_plan_id":"free"},{"bike_id":"6f4b0669-2504-4721-a7c7-298db0c5b367","system_id":"levelo_inurba_marseille","lat":43.309038,"lon":5.396546,"is_reserved":false,"is_disabled":false,"rental_uris":{"android":"levelo://app?vid=6f4b0669-2504-4721-a7c7-298db0c5b367","ios":"levelo://app?vid=6f4b0669-2504-4721-a7c7-298db0c5b367"},"vehicle_type_id":"4","last_reported":1698357972,"current_range_meters":4800,"station_id":"ce4bh012rcd13ifvqcv0","pricing_plan_id":"free"},{"bike_id":"df2b3191-fd59-4c32-81db-453fb48a3c49","system_id":"levelo_inurba_marseille","lat":43.309038,"lon":5.396546,"is_reserved":false,"is_disabled":false,"rental_uris":{"android":"levelo://app?vid=df2b3191-fd59-4c32-81db-453fb48a3c49","ios":"levelo://app?vid=df2b3191-fd59-4c32-81db-453fb48a3c49"},"vehicle_type_id":"4","last_reported":1698357972,"current_range_meters":7600,"station_id":"ce4bh012rcd13ifvqcv0","pricing_plan_id":"free"},{"bike_id":"ed97be2c-881f-440a-91fb-e326fd53f316","system_id":"levelo_inurba_marseille","lat":43.309038,"lon":5.396546,"is_reserved":false,"is_disabled":false,"rental_uris":{"android":"levelo://app?vid=ed97be2c-881f-440a-91fb-e326fd53f316","ios":"levelo://app?vid=ed97be2c-881f-440a-91fb-e326fd53f316"},"vehicle_type_id":"4","last_reported":1698357972,"current_range_meters":22400,"station_id":"ce4bh012rcd13ifvqcv0","pricing_plan_id":"free"},{"bike_id":"126d4670-e812-40c6-9f2a-535ee2ec9a6b","system_id":"levelo_inurba_marseille","lat":43.33219,"lon":5.38149,"is_reserved":false,"is_disabled":false,"rental_uris":{"android":"levelo://app?vid=126d4670-e812-40c6-9f2a-535ee2ec9a6b","ios":"levelo://app?vid=126d4670-e812-40c6-9f2a-535ee2ec9a6b"},"vehicle_type_id":"4","last_reported":1698357972,"current_range_meters":2000,"station_id":"","pricing_plan_id":"free"},{"bike_id":"a7f17507-076c-41e0-9e76-fecbcf8fefb3","system_id":"levelo_inurba_marseille","lat":43.308503,"lon":5.396958,"is_reserved":false,"is_disabled":false,"rental_uris":{"android":"levelo://app?vid=a7f17507-076c-41e0-9e76-fecbcf8fefb3","ios":"levelo://app?vid=a7f17507-076c-41e0-9e76-fecbcf8fefb3"},"vehicle_type_id":"4","last_reported":1698357972,"current_range_meters":29200,"station_id":"ce4bh0p2rcd13ifvqd70","pricing_plan_id":"free"},{"bike_id":"6a3ae142-0a9b-4b4b-8276-8ec5a63cf98f","system_id":"levelo_inurba_marseille","lat":43.29907,"lon":5.39165,"is_reserved":false,"is_disabled":false,"rental_uris":{"android":"levelo://app?vid=6a3ae142-0a9b-4b4b-8276-8ec5a63cf98f","ios":"levelo://app?vid=6a3ae142-0a9b-4b4b-8276-8ec5a63cf98f"},"vehicle_type_id":"4","last_reported":1698357972,"current_range_meters":0,"station_id":"","pricing_plan_id":"free"},{"bike_id":"d445e7dc-8f39-4198-8d15-1838ad42556e","system_id":"levelo_inurba_marseille","lat":43.302156,"lon":5.394707,"is_reserved":false,"is_disabled":false,"rental_uris":{"android":"levelo://app?vid=d445e7dc-8f39-4198-8d15-1838ad42556e","ios":"levelo://app?vid=d445e7dc-8f39-4198-8d15-1838ad42556e"},"vehicle_type_id":"4","last_reported":1698357972,"current_range_meters":11200,"station_id":"ce4bh0p2rcd13ifvqd70","pricing_plan_id":"free"},{"bike_id":"d17ad875-3cb6-412e-ace1-8930afe48429","system_id":"levelo_inurba_marseille","lat":43.290624,"lon":5.359245,"is_reserved":false,"is_disabled":false,"rental_uris":{"android":"levelo://app?vid=d17ad875-3cb6-412e-ace1-8930afe48429","ios":"levelo://app?vid=d17ad875-3cb6-412e-ace1-8930afe48429"},"vehicle_type_id":"4","last_reported":1698357972,"current_range_meters":30400,"station_id":"ce4bha92rcd13ifvqeg0","pricing_plan_id":"free"},{"bike_id":"3ba9337c-3a4c-4b79-bb22-9c08f678ee27","system_id":"levelo_inurba_marseille","lat":43.3339,"lon":5.37907,"is_reserved":false,"is_disabled":false,"rental_uris":{"android":"levelo://app?vid=3ba9337c-3a4c-4b79-bb22-9c08f678ee27","ios":"levelo://app?vid=3ba9337c-3a4c-4b79-bb22-9c08f678ee27"},"vehicle_type_id":"4","last_reported":1698357972,"current_range_meters":21200,"station_id":"","pricing_plan_id":"free"},{"bike_id":"732c6e7b-b591-422e-9a4b-786075df6f16","system_id":"levelo_inurba_marseille","lat":43.28953,"lon":5.36399,"is_reserved":false,"is_disabled":false,"rental_uris":{"android":"levelo://app?vid=732c6e7b-b591-422e-9a4b-786075df6f16","ios":"levelo://app?vid=732c6e7b-b591-422e-9a4b-786075df6f16"},"vehicle_type_id":"4","last_reported":1698357972,"current_range_meters":9200,"station_id":"ce4bhc92rcd13ifvqetg","pricing_plan_id":"free"},{"bike_id":"c007a4c9-cfb2-48d5-9dbb-142e5a71e5f8","system_id":"levelo_inurba_marseille","lat":43.289468,"lon":5.363719,"is_reserved":false,"is_disabled":false,"rental_uris":{"android":"levelo://app?vid=c007a4c9-cfb2-48d5-9dbb-142e5a71e5f8","ios":"levelo://app?vid=c007a4c9-cfb2-48d5-9dbb-142e5a71e5f8"},"vehicle_type_id":"4","last_reported":1698357972,"current_range_meters":19200,"station_id":"ce4bhc92rcd13ifvqetg","pricing_plan_id":"free"},{"bike_id":"c6b72150-d914-4df0-882e-f3392686af8c","system_id":"levelo_inurba_marseille","lat":43.289468,"lon":5.363719,"is_reserved":false,"is_disabled":false,"rental_uris":{"android":"levelo://app?vid=c6b72150-d914-4df0-882e-f3392686af8c","ios":"levelo://app?vid=c6b72150-d914-4df0-882e-f3392686af8c"},"vehicle_type_id":"4","last_reported":1698357972,"current_range_meters":26800,"station_id":"ce4bhc92rcd13ifvqetg","pricing_plan_id":"free"},{"bike_id":"3d28a5fd-b5cb-448d-a4f9-f4843048e091","system_id":"levelo_inurba_marseille","lat":43.289184,"lon":5.366408,"is_reserved":false,"is_disabled":false,"rental_uris":{"android":"levelo://app?vid=3d28a5fd-b5cb-448d-a4f9-f4843048e091","ios":"levelo://app?vid=3d28a5fd-b5cb-448d-a4f9-f4843048e091"},"vehicle_type_id":"4","last_reported":1698357972,"current_range_meters":5200,"station_id":"ce4bhap2rcd13ifvqek0","pricing_plan_id":"free"},{"bike_id":"328fb4ba-45d5-4673-9505-2ae5fbf0a10a","system_id":"levelo_inurba_marseille","lat":43.330442,"lon":5.389148,"is_reserved":false,"is_disabled":false,"rental_uris":{"android":"levelo://app?vid=328fb4ba-45d5-4673-9505-2ae5fbf0a10a","ios":"levelo://app?vid=328fb4ba-45d5-4673-9505-2ae5fbf0a10a"},"vehicle_type_id":"4","last_reported":1698357972,"current_range_meters":16400,"station_id":"ce4bhr92rcd13ifvqhrg","pricing_plan_id":"free"},{"bike_id":"afa934b0-d45b-4ccf-9771-7d7e5dde2f6c","system_id":"levelo_inurba_marseille","lat":43.290104,"lon":5.356111,"is_reserved":false,"is_disabled":false,"rental_uris":{"android":"levelo://app?vid=afa934b0-d45b-4ccf-9771-7d7e5dde2f6c","ios":"levelo://app?vid=afa934b0-d45b-4ccf-9771-7d7e5dde2f6c"},"vehicle_type_id":"4","last_reported":1698357972,"current_range_meters":3600,"station_id":"ce4bhb92rcd13ifvqen0","pricing_plan_id":"free"},{"bike_id":"ab52d65b-dfbd-4acf-a626-c6bf3d3dd0f3","system_id":"levelo_inurba_marseille","lat":43.290103,"lon":5.356114,"is_reserved":false,"is_disabled":false,"rental_uris":{"android":"levelo://app?vid=ab52d65b-dfbd-4acf-a626-c6bf3d3dd0f3","ios":"levelo://app?vid=ab52d65b-dfbd-4acf-a626-c6bf3d3dd0f3"},"vehicle_type_id":"4","last_reported":1698357972,"current_range_meters":2400,"station_id":"ce4bhb92rcd13ifvqen0","pricing_plan_id":"free"},{"bike_id":"b8365f8b-b2c5-4f55-8e60-a20315cb04d7","system_id":"levelo_inurba_marseille","lat":43.290995,"lon":5.381361,"is_reserved":false,"is_disabled":false,"rental_uris":{"android":"levelo://app?vid=b8365f8b-b2c5-4f55-8e60-a20315cb04d7","ios":"levelo://app?vid=b8365f8b-b2c5-4f55-8e60-a20315cb04d7"},"vehicle_type_id":"4","last_reported":1698357972,"current_range_meters":0,"station_id":"ce4bh512rcd13ifvqe2g","pricing_plan_id":"free"},{"bike_id":"8f25f490-dda2-4df9-abce-2436a1996109","system_id":"levelo_inurba_marseille","lat":43.297928,"lon":5.393432,"is_reserved":false,"is_disabled":false,"rental_uris":{"android":"levelo://app?vid=8f25f490-dda2-4df9-abce-2436a1996109","ios":"levelo://app?vid=8f25f490-dda2-4df9-abce-2436a1996109"},"vehicle_type_id":"4","last_reported":1698357972,"current_range_meters":2000,"station_id":"chh1huq6cuj3fo74tm60","pricing_plan_id":"free"},{"bike_id":"9c45652b-c754-4cac-b6fa-1e9263298357","system_id":"levelo_inurba_marseille","lat":43.297823,"lon":5.393376,"is_reserved":false,"is_disabled":false,"rental_uris":{"android":"levelo://app?vid=9c45652b-c754-4cac-b6fa-1e9263298357","ios":"levelo://app?vid=9c45652b-c754-4cac-b6fa-1e9263298357"},"vehicle_type_id":"4","last_reported":1698357972,"current_range_meters":10800,"station_id":"chh1huq6cuj3fo74tm60","pricing_plan_id":"free"},{"bike_id":"67de2047-76bc-4d6d-8966-60e7b4e6ba88","system_id":"levelo_inurba_marseille","lat":43.297913,"lon":5.393493,"is_reserved":false,"is_disabled":false,"rental_uris":{"android":"levelo://app?vid=67de2047-76bc-4d6d-8966-60e7b4e6ba88","ios":"levelo://app?vid=67de2047-76bc-4d6d-8966-60e7b4e6ba88"},"vehicle_type_id":"4","last_reported":1698357972,"current_range_meters":9200,"station_id":"chh1huq6cuj3fo74tm60","pricing_plan_id":"free"},{"bike_id":"97272e57-b42d-4f6a-ba04-5cdc26df220d","system_id":"levelo_inurba_marseille","lat":43.29525,"lon":5.390257,"is_reserved":false,"is_disabled":false,"rental_uris":{"android":"levelo://app?vid=97272e57-b42d-4f6a-ba04-5cdc26df220d","ios":"levelo://app?vid=97272e57-b42d-4f6a-ba04-5cdc26df220d"},"vehicle_type_id":"4","last_reported":1698357972,"current_range_meters":0,"station_id":"ce4bh3p2rcd13ifvqdp0","pricing_plan_id":"free"},{"bike_id":"2806d0cc-4af1-448a-85c6-87e62fc29e3f","system_id":"levelo_inurba_marseille","lat":43.29794,"lon":5.39355,"is_reserved":false,"is_disabled":false,"rental_uris":{"android":"levelo://app?vid=2806d0cc-4af1-448a-85c6-87e62fc29e3f","ios":"levelo://app?vid=2806d0cc-4af1-448a-85c6-87e62fc29e3f"},"vehicle_type_id":"4","last_reported":1698357972,"current_range_meters":26800,"station_id":"chh1huq6cuj3fo74tm60","pricing_plan_id":"free"},{"bike_id":"ae9fe179-7300-4b2a-829a-45acdd82b830","system_id":"levelo_inurba_marseille","lat":43.297815,"lon":5.393548,"is_reserved":false,"is_disabled":false,"rental_uris":{"android":"levelo://app?vid=ae9fe179-7300-4b2a-829a-45acdd82b830","ios":"levelo://app?vid=ae9fe179-7300-4b2a-829a-45acdd82b830"},"vehicle_type_id":"4","last_reported":1698357972,"current_range_meters":29200,"station_id":"chh1huq6cuj3fo74tm60","pricing_plan_id":"free"},{"bike_id":"9a5dc01e-e610-4f09-b6ca-73706e0749d9","system_id":"levelo_inurba_marseille","lat":43.289741,"lon":5.378306,"is_reserved":false,"is_disabled":false,"rental_uris":{"android":"levelo://app?vid=9a5dc01e-e610-4f09-b6ca-73706e0749d9","ios":"levelo://app?vid=9a5dc01e-e610-4f09-b6ca-73706e0749d9"},"vehicle_type_id":"4","last_reported":1698357972,"current_range_meters":19600,"station_id":"ce4bh9p2rcd13ifvqed0","pricing_plan_id":"free"},{"bike_id":"2632b656-9bc8-44e3-b9bb-62262cd038d6","system_id":"levelo_inurba_marseille","lat":43.297854,"lon":5.393548,"is_reserved":false,"is_disabled":false,"rental_uris":{"android":"levelo://app?vid=2632b656-9bc8-44e3-b9bb-62262cd038d6","ios":"levelo://app?vid=2632b656-9bc8-44e3-b9bb-62262cd038d6"},"vehicle_type_id":"4","last_reported":1698357972,"current_range_meters":30400,"station_id":"chh1huq6cuj3fo74tm60","pricing_plan_id":"free"},{"bike_id":"bfdee478-73c2-45e2-89b0-c168fd5023c7","system_id":"levelo_inurba_marseille","lat":43.297847,"lon":5.393599,"is_reserved":false,"is_disabled":false,"rental_uris":{"android":"levelo://app?vid=bfdee478-73c2-45e2-89b0-c168fd5023c7","ios":"levelo://app?vid=bfdee478-73c2-45e2-89b0-c168fd5023c7"},"vehicle_type_id":"4","last_reported":1698357972,"current_range_meters":30400,"station_id":"chh1huq6cuj3fo74tm60","pricing_plan_id":"free"},{"bike_id":"48caa21f-5e4d-4aee-89d3-707d70ab5fdd","system_id":"levelo_inurba_marseille","lat":43.295169,"lon":5.390426,"is_reserved":false,"is_disabled":false,"rental_uris":{"android":"levelo://app?vid=48caa21f-5e4d-4aee-89d3-707d70ab5fdd","ios":"levelo://app?vid=48caa21f-5e4d-4aee-89d3-707d70ab5fdd"},"vehicle_type_id":"4","last_reported":1698357972,"current_range_meters":17600,"station_id":"ce4bh3p2rcd13ifvqdp0","pricing_plan_id":"free"},{"bike_id":"c237b1d1-8061-47fd-a809-25b2f6aacccb","system_id":"levelo_inurba_marseille","lat":43.28856,"lon":5.358371,"is_reserved":false,"is_disabled":false,"rental_uris":{"android":"levelo://app?vid=c237b1d1-8061-47fd-a809-25b2f6aacccb","ios":"levelo://app?vid=c237b1d1-8061-47fd-a809-25b2f6aacccb"},"vehicle_type_id":"4","last_reported":1698357972,"current_range_meters":0,"station_id":"ce4bhb12rcd13ifvqem0","pricing_plan_id":"free"},{"bike_id":"6512f27c-5b1b-46b0-9fcc-8915b108f2a4","system_id":"levelo_inurba_marseille","lat":43.28856,"lon":5.358371,"is_reserved":false,"is_disabled":false,"rental_uris":{"android":"levelo://app?vid=6512f27c-5b1b-46b0-9fcc-8915b108f2a4","ios":"levelo://app?vid=6512f27c-5b1b-46b0-9fcc-8915b108f2a4"},"vehicle_type_id":"4","last_reported":1698357972,"current_range_meters":22400,"station_id":"ce4bhb12rcd13ifvqem0","pricing_plan_id":"free"},{"bike_id":"36a07af5-a1f0-4bf5-959c-9778bc5f00d3","system_id":"levelo_inurba_marseille","lat":43.28856,"lon":5.358371,"is_reserved":false,"is_disabled":false,"rental_uris":{"android":"levelo://app?vid=36a07af5-a1f0-4bf5-959c-9778bc5f00d3","ios":"levelo://app?vid=36a07af5-a1f0-4bf5-959c-9778bc5f00d3"},"vehicle_type_id":"4","last_reported":1698357972,"current_range_meters":20000,"station_id":"ce4bhb12rcd13ifvqem0","pricing_plan_id":"free"},{"bike_id":"aaf7b50a-8c9c-40f0-b32a-4cee3bbaadd5","system_id":"levelo_inurba_marseille","lat":43.28856,"lon":5.358371,"is_reserved":false,"is_disabled":false,"rental_uris":{"android":"levelo://app?vid=aaf7b50a-8c9c-40f0-b32a-4cee3bbaadd5","ios":"levelo://app?vid=aaf7b50a-8c9c-40f0-b32a-4cee3bbaadd5"},"vehicle_type_id":"4","last_reported":1698357972,"current_range_meters":22800,"station_id":"ce4bhb12rcd13ifvqem0","pricing_plan_id":"free"},{"bike_id":"74ffec3a-5c98-4b44-8d85-a8629470f767","system_id":"levelo_inurba_marseille","lat":43.28856,"lon":5.358371,"is_reserved":false,"is_disabled":false,"rental_uris":{"android":"levelo://app?vid=74ffec3a-5c98-4b44-8d85-a8629470f767","ios":"levelo://app?vid=74ffec3a-5c98-4b44-8d85-a8629470f767"},"vehicle_type_id":"4","last_reported":1698357972,"current_range_meters":31200,"station_id":"ce4bhb12rcd13ifvqem0","pricing_plan_id":"free"},{"bike_id":"273b4e50-354d-4fc5-bbb3-b6b9fa59133e","system_id":"levelo_inurba_marseille","lat":43.28856,"lon":5.358371,"is_reserved":false,"is_disabled":false,"rental_uris":{"android":"levelo://app?vid=273b4e50-354d-4fc5-bbb3-b6b9fa59133e","ios":"levelo://app?vid=273b4e50-354d-4fc5-bbb3-b6b9fa59133e"},"vehicle_type_id":"4","last_reported":1698357972,"current_range_meters":32000,"station_id":"ce4bhb12rcd13ifvqem0","pricing_plan_id":"free"},{"bike_id":"5f238095-c17a-43f4-b5d8-2f2880264da8","system_id":"levelo_inurba_marseille","lat":43.28856,"lon":5.358371,"is_reserved":false,"is_disabled":false,"rental_uris":{"android":"levelo://app?vid=5f238095-c17a-43f4-b5d8-2f2880264da8","ios":"levelo://app?vid=5f238095-c17a-43f4-b5d8-2f2880264da8"},"vehicle_type_id":"4","last_reported":1698357972,"current_range_meters":7600,"station_id":"ce4bhb12rcd13ifvqem0","pricing_plan_id":"free"},{"bike_id":"103b28b5-c581-4d56-9af7-78fad068f042","system_id":"levelo_inurba_marseille","lat":43.28856,"lon":5.358371,"is_reserved":false,"is_disabled":false,"rental_uris":{"android":"levelo://app?vid=103b28b5-c581-4d56-9af7-78fad068f042","ios":"levelo://app?vid=103b28b5-c581-4d56-9af7-78fad068f042"},"vehicle_type_id":"4","last_reported":1698357972,"current_range_meters":24400,"station_id":"ce4bhb12rcd13ifvqem0","pricing_plan_id":"free"},{"bike_id":"0a67f959-885c-45e2-87bc-aa89a40eaa8c","system_id":"levelo_inurba_marseille","lat":43.295713,"lon":5.399639,"is_reserved":false,"is_disabled":false,"rental_uris":{"android":"levelo://app?vid=0a67f959-885c-45e2-87bc-aa89a40eaa8c","ios":"levelo://app?vid=0a67f959-885c-45e2-87bc-aa89a40eaa8c"},"vehicle_type_id":"4","last_reported":1698357972,"current_range_meters":31200,"station_id":"ce4bh312rcd13ifvqdj0","pricing_plan_id":"free"},{"bike_id":"6b3d72db-02c7-45db-bb5e-ca98d6b23b50","system_id":"levelo_inurba_marseille","lat":43.3093,"lon":5.40141,"is_reserved":false,"is_disabled":false,"rental_uris":{"android":"levelo://app?vid=6b3d72db-02c7-45db-bb5e-ca98d6b23b50","ios":"levelo://app?vid=6b3d72db-02c7-45db-bb5e-ca98d6b23b50"},"vehicle_type_id":"4","last_reported":1698357972,"current_range_meters":0,"station_id":"ce4bgvp2rcd13ifvqct0","pricing_plan_id":"free"},{"bike_id":"53fe46d2-e0a3-47e6-ad45-bd8474daf5be","system_id":"levelo_inurba_marseille","lat":43.30937,"lon":5.40144,"is_reserved":false,"is_disabled":false,"rental_uris":{"android":"levelo://app?vid=53fe46d2-e0a3-47e6-ad45-bd8474daf5be","ios":"levelo://app?vid=53fe46d2-e0a3-47e6-ad45-bd8474daf5be"},"vehicle_type_id":"4","last_reported":1698357972,"current_range_meters":26400,"station_id":"ce4bgvp2rcd13ifvqct0","pricing_plan_id":"free"},{"bike_id":"9f887929-1e29-4ba8-9a44-88e8cd546c03","system_id":"levelo_inurba_marseille","lat":43.30662,"lon":5.40079,"is_reserved":false,"is_disabled":false,"rental_uris":{"android":"levelo://app?vid=9f887929-1e29-4ba8-9a44-88e8cd546c03","ios":"levelo://app?vid=9f887929-1e29-4ba8-9a44-88e8cd546c03"},"vehicle_type_id":"4","last_reported":1698357972,"current_range_meters":1200,"station_id":"ce4bh112rcd13ifvqda0","pricing_plan_id":"free"},{"bike_id":"471ec662-c9d3-4e43-878b-e25d3af38073","system_id":"levelo_inurba_marseille","lat":43.306412,"lon":5.401035,"is_reserved":false,"is_disabled":false,"rental_uris":{"android":"levelo://app?vid=471ec662-c9d3-4e43-878b-e25d3af38073","ios":"levelo://app?vid=471ec662-c9d3-4e43-878b-e25d3af38073"},"vehicle_type_id":"4","last_reported":1698357972,"current_range_meters":30000,"station_id":"ce4bh112rcd13ifvqda0","pricing_plan_id":"free"},{"bike_id":"67669660-6cbe-4d81-9e42-8ae27d1c7720","system_id":"levelo_inurba_marseille","lat":43.30642,"lon":5.401031,"is_reserved":false,"is_disabled":false,"rental_uris":{"android":"levelo://app?vid=67669660-6cbe-4d81-9e42-8ae27d1c7720","ios":"levelo://app?vid=67669660-6cbe-4d81-9e42-8ae27d1c7720"},"vehicle_type_id":"4","last_reported":1698357972,"current_range_meters":12400,"station_id":"ce4bh112rcd13ifvqda0","pricing_plan_id":"free"},{"bike_id":"10ac8d14-6b36-404f-80dd-3bac639b8cbd","system_id":"levelo_inurba_marseille","lat":43.30642,"lon":5.401031,"is_reserved":false,"is_disabled":false,"rental_uris":{"android":"levelo://app?vid=10ac8d14-6b36-404f-80dd-3bac639b8cbd","ios":"levelo://app?vid=10ac8d14-6b36-404f-80dd-3bac639b8cbd"},"vehicle_type_id":"4","last_reported":1698357972,"current_range_meters":25200,"station_id":"ce4bh112rcd13ifvqda0","pricing_plan_id":"free"},{"bike_id":"5d7cf04e-c62a-4cfd-a630-2a495a3d2fa3","system_id":"levelo_inurba_marseille","lat":43.30642,"lon":5.401031,"is_reserved":false,"is_disabled":false,"rental_uris":{"android":"levelo://app?vid=5d7cf04e-c62a-4cfd-a630-2a495a3d2fa3","ios":"levelo://app?vid=5d7cf04e-c62a-4cfd-a630-2a495a3d2fa3"},"vehicle_type_id":"4","last_reported":1698357972,"current_range_meters":4800,"station_id":"ce4bh112rcd13ifvqda0","pricing_plan_id":"free"},{"bike_id":"4adb3097-54f3-4ae0-9c4c-79211240a69a","system_id":"levelo_inurba_marseille","lat":43.301117,"lon":5.398795,"is_reserved":false,"is_disabled":false,"rental_uris":{"android":"levelo://app?vid=4adb3097-54f3-4ae0-9c4c-79211240a69a","ios":"levelo://app?vid=4adb3097-54f3-4ae0-9c4c-79211240a69a"},"vehicle_type_id":"4","last_reported":1698357972,"current_range_meters":13600,"station_id":"ce4bh0h2rcd13ifvqd40","pricing_plan_id":"free"},{"bike_id":"b034f4eb-c4a5-42ca-9b3b-7983cb9ca9ff","system_id":"levelo_inurba_marseille","lat":43.301117,"lon":5.398795,"is_reserved":false,"is_disabled":false,"rental_uris":{"android":"levelo://app?vid=b034f4eb-c4a5-42ca-9b3b-7983cb9ca9ff","ios":"levelo://app?vid=b034f4eb-c4a5-42ca-9b3b-7983cb9ca9ff"},"vehicle_type_id":"4","last_reported":1698357972,"current_range_meters":31200,"station_id":"ce4bh0h2rcd13ifvqd40","pricing_plan_id":"free"},{"bike_id":"03186c6b-5a57-48a5-a7a3-652c11a612f0","system_id":"levelo_inurba_marseille","lat":43.301253,"lon":5.39858,"is_reserved":false,"is_disabled":false,"rental_uris":{"android":"levelo://app?vid=03186c6b-5a57-48a5-a7a3-652c11a612f0","ios":"levelo://app?vid=03186c6b-5a57-48a5-a7a3-652c11a612f0"},"vehicle_type_id":"4","last_reported":1698357972,"current_range_meters":4400,"station_id":"ce4bh0h2rcd13ifvqd40","pricing_plan_id":"free"},{"bike_id":"6525955a-30af-4ec2-ab96-435237b14afa","system_id":"levelo_inurba_marseille","lat":43.30119,"lon":5.39856,"is_reserved":false,"is_disabled":false,"rental_uris":{"android":"levelo://app?vid=6525955a-30af-4ec2-ab96-435237b14afa","ios":"levelo://app?vid=6525955a-30af-4ec2-ab96-435237b14afa"},"vehicle_type_id":"4","last_reported":1698357972,"current_range_meters":32000,"station_id":"ce4bh0h2rcd13ifvqd40","pricing_plan_id":"free"},{"bike_id":"db7736dc-a780-4cd0-a5c8-97a369b46640","system_id":"levelo_inurba_marseille","lat":43.301117,"lon":5.398795,"is_reserved":false,"is_disabled":false,"rental_uris":{"android":"levelo://app?vid=db7736dc-a780-4cd0-a5c8-97a369b46640","ios":"levelo://app?vid=db7736dc-a780-4cd0-a5c8-97a369b46640"},"vehicle_type_id":"4","last_reported":1698357972,"current_range_meters":31200,"station_id":"ce4bh0h2rcd13ifvqd40","pricing_plan_id":"free"},{"bike_id":"660d6ed7-22a0-42ef-b25e-5d46b2b3481e","system_id":"levelo_inurba_marseille","lat":43.289184,"lon":5.366408,"is_reserved":false,"is_disabled":false,"rental_uris":{"android":"levelo://app?vid=660d6ed7-22a0-42ef-b25e-5d46b2b3481e","ios":"levelo://app?vid=660d6ed7-22a0-42ef-b25e-5d46b2b3481e"},"vehicle_type_id":"4","last_reported":1698357972,"current_range_meters":6000,"station_id":"ce4bhap2rcd13ifvqek0","pricing_plan_id":"free"},{"bike_id":"f5184829-d73f-4187-ad9f-c1a574747752","system_id":"levelo_inurba_marseille","lat":43.28727,"lon":5.36078,"is_reserved":false,"is_disabled":false,"rental_uris":{"android":"levelo://app?vid=f5184829-d73f-4187-ad9f-c1a574747752","ios":"levelo://app?vid=f5184829-d73f-4187-ad9f-c1a574747752"},"vehicle_type_id":"4","last_reported":1698357972,"current_range_meters":14000,"station_id":"cki0cbj6b192h4jlfktg","pricing_plan_id":"free"},{"bike_id":"c7db2c9d-b0b6-4e65-889e-67383628e35b","system_id":"levelo_inurba_marseille","lat":43.28727,"lon":5.36078,"is_reserved":false,"is_disabled":false,"rental_uris":{"android":"levelo://app?vid=c7db2c9d-b0b6-4e65-889e-67383628e35b","ios":"levelo://app?vid=c7db2c9d-b0b6-4e65-889e-67383628e35b"},"vehicle_type_id":"4","last_reported":1698357972,"current_range_meters":28400,"station_id":"cki0cbj6b192h4jlfktg","pricing_plan_id":"free"},{"bike_id":"093ac43b-f336-476c-816e-f14d9261c038","system_id":"levelo_inurba_marseille","lat":43.28727,"lon":5.36078,"is_reserved":false,"is_disabled":false,"rental_uris":{"android":"levelo://app?vid=093ac43b-f336-476c-816e-f14d9261c038","ios":"levelo://app?vid=093ac43b-f336-476c-816e-f14d9261c038"},"vehicle_type_id":"4","last_reported":1698357972,"current_range_meters":11600,"station_id":"cki0cbj6b192h4jlfktg","pricing_plan_id":"free"},{"bike_id":"8f40a77a-ccd1-4434-90fa-3dc169c2d9a1","system_id":"levelo_inurba_marseille","lat":43.286591,"lon":5.363346,"is_reserved":false,"is_disabled":false,"rental_uris":{"android":"levelo://app?vid=8f40a77a-ccd1-4434-90fa-3dc169c2d9a1","ios":"levelo://app?vid=8f40a77a-ccd1-4434-90fa-3dc169c2d9a1"},"vehicle_type_id":"4","last_reported":1698357972,"current_range_meters":31200,"station_id":"ce4bhah2rcd13ifvqej0","pricing_plan_id":"free"},{"bike_id":"41791e0a-2b8c-417b-a934-cdfdc076becf","system_id":"levelo_inurba_marseille","lat":43.286591,"lon":5.363346,"is_reserved":false,"is_disabled":false,"rental_uris":{"android":"levelo://app?vid=41791e0a-2b8c-417b-a934-cdfdc076becf","ios":"levelo://app?vid=41791e0a-2b8c-417b-a934-cdfdc076becf"},"vehicle_type_id":"4","last_reported":1698357972,"current_range_meters":4400,"station_id":"ce4bhah2rcd13ifvqej0","pricing_plan_id":"free"},{"bike_id":"024d5f51-284a-4918-84c6-0dc2e4addfd7","system_id":"levelo_inurba_marseille","lat":43.286591,"lon":5.363346,"is_reserved":false,"is_disabled":false,"rental_uris":{"android":"levelo://app?vid=024d5f51-284a-4918-84c6-0dc2e4addfd7","ios":"levelo://app?vid=024d5f51-284a-4918-84c6-0dc2e4addfd7"},"vehicle_type_id":"4","last_reported":1698357972,"current_range_meters":18800,"station_id":"ce4bhah2rcd13ifvqej0","pricing_plan_id":"free"},{"bike_id":"bd43e9df-fea5-49b7-8211-033d7a9662cc","system_id":"levelo_inurba_marseille","lat":43.286591,"lon":5.363346,"is_reserved":false,"is_disabled":false,"rental_uris":{"android":"levelo://app?vid=bd43e9df-fea5-49b7-8211-033d7a9662cc","ios":"levelo://app?vid=bd43e9df-fea5-49b7-8211-033d7a9662cc"},"vehicle_type_id":"4","last_reported":1698357972,"current_range_meters":30000,"station_id":"ce4bhah2rcd13ifvqej0","pricing_plan_id":"free"},{"bike_id":"7d4d1d8f-112e-441e-a309-71f225179ff4","system_id":"levelo_inurba_marseille","lat":43.286961,"lon":5.373785,"is_reserved":false,"is_disabled":false,"rental_uris":{"android":"levelo://app?vid=7d4d1d8f-112e-441e-a309-71f225179ff4","ios":"levelo://app?vid=7d4d1d8f-112e-441e-a309-71f225179ff4"},"vehicle_type_id":"4","last_reported":1698357972,"current_range_meters":0,"station_id":"ce4bh3p2rcd13ifvqdq0","pricing_plan_id":"free"},{"bike_id":"74effae8-f8ea-4422-9069-984f62c31d3d","system_id":"levelo_inurba_marseille","lat":43.286591,"lon":5.363346,"is_reserved":false,"is_disabled":false,"rental_uris":{"android":"levelo://app?vid=74effae8-f8ea-4422-9069-984f62c31d3d","ios":"levelo://app?vid=74effae8-f8ea-4422-9069-984f62c31d3d"},"vehicle_type_id":"4","last_reported":1698357972,"current_range_meters":25600,"station_id":"ce4bhah2rcd13ifvqej0","pricing_plan_id":"free"},{"bike_id":"55fdb233-c799-4146-8772-0e3b7e53a32c","system_id":"levelo_inurba_marseille","lat":43.286961,"lon":5.373785,"is_reserved":false,"is_disabled":false,"rental_uris":{"android":"levelo://app?vid=55fdb233-c799-4146-8772-0e3b7e53a32c","ios":"levelo://app?vid=55fdb233-c799-4146-8772-0e3b7e53a32c"},"vehicle_type_id":"4","last_reported":1698357972,"current_range_meters":2000,"station_id":"ce4bh3p2rcd13ifvqdq0","pricing_plan_id":"free"},{"bike_id":"210f76b1-476e-42bf-8a3b-5c6babdb2962","system_id":"levelo_inurba_marseille","lat":43.286593,"lon":5.363346,"is_reserved":false,"is_disabled":false,"rental_uris":{"android":"levelo://app?vid=210f76b1-476e-42bf-8a3b-5c6babdb2962","ios":"levelo://app?vid=210f76b1-476e-42bf-8a3b-5c6babdb2962"},"vehicle_type_id":"4","last_reported":1698357972,"current_range_meters":0,"station_id":"ce4bhah2rcd13ifvqej0","pricing_plan_id":"free"},{"bike_id":"7d3af10e-4a60-4fe5-b191-c958f5f7b274","system_id":"levelo_inurba_marseille","lat":43.286961,"lon":5.373785,"is_reserved":false,"is_disabled":false,"rental_uris":{"android":"levelo://app?vid=7d3af10e-4a60-4fe5-b191-c958f5f7b274","ios":"levelo://app?vid=7d3af10e-4a60-4fe5-b191-c958f5f7b274"},"vehicle_type_id":"4","last_reported":1698357972,"current_range_meters":30400,"station_id":"ce4bh3p2rcd13ifvqdq0","pricing_plan_id":"free"},{"bike_id":"e83c9d5a-a844-4ac7-bb93-f5e0df980361","system_id":"levelo_inurba_marseille","lat":43.286593,"lon":5.363346,"is_reserved":false,"is_disabled":false,"rental_uris":{"android":"levelo://app?vid=e83c9d5a-a844-4ac7-bb93-f5e0df980361","ios":"levelo://app?vid=e83c9d5a-a844-4ac7-bb93-f5e0df980361"},"vehicle_type_id":"4","last_reported":1698357972,"current_range_meters":18000,"station_id":"ce4bhah2rcd13ifvqej0","pricing_plan_id":"free"},{"bike_id":"9fb770be-ac11-4c89-843d-689d4c8d561b","system_id":"levelo_inurba_marseille","lat":43.286593,"lon":5.363346,"is_reserved":false,"is_disabled":false,"rental_uris":{"android":"levelo://app?vid=9fb770be-ac11-4c89-843d-689d4c8d561b","ios":"levelo://app?vid=9fb770be-ac11-4c89-843d-689d4c8d561b"},"vehicle_type_id":"4","last_reported":1698357972,"current_range_meters":23200,"station_id":"ce4bhah2rcd13ifvqej0","pricing_plan_id":"free"},{"bike_id":"30926d66-e3cc-4432-a2bd-0fdd6fb014df","system_id":"levelo_inurba_marseille","lat":43.295196,"lon":5.39397,"is_reserved":false,"is_disabled":false,"rental_uris":{"android":"levelo://app?vid=30926d66-e3cc-4432-a2bd-0fdd6fb014df","ios":"levelo://app?vid=30926d66-e3cc-4432-a2bd-0fdd6fb014df"},"vehicle_type_id":"4","last_reported":1698357972,"current_range_meters":31200,"station_id":"ce4bh292rcd13ifvqdf0","pricing_plan_id":"free"},{"bike_id":"2cf6be09-029f-4822-ac57-fb418c77c98b","system_id":"levelo_inurba_marseille","lat":43.319179,"lon":5.407725,"is_reserved":false,"is_disabled":false,"rental_uris":{"android":"levelo://app?vid=2cf6be09-029f-4822-ac57-fb418c77c98b","ios":"levelo://app?vid=2cf6be09-029f-4822-ac57-fb418c77c98b"},"vehicle_type_id":"4","last_reported":1698357972,"current_range_meters":12000,"station_id":"ce4bhq12rcd13ifvqhig","pricing_plan_id":"free"},{"bike_id":"2b1d0f5c-1121-49e5-b895-5f33949f7097","system_id":"levelo_inurba_marseille","lat":43.29035,"lon":5.38652,"is_reserved":false,"is_disabled":false,"rental_uris":{"android":"levelo://app?vid=2b1d0f5c-1121-49e5-b895-5f33949f7097","ios":"levelo://app?vid=2b1d0f5c-1121-49e5-b895-5f33949f7097"},"vehicle_type_id":"4","last_reported":1698357972,"current_range_meters":15200,"station_id":"ce4bh4p2rcd13ifvqe0g","pricing_plan_id":"free"},{"bike_id":"237c2e2c-6cb2-4fb4-8f9a-8967233c2b49","system_id":"levelo_inurba_marseille","lat":43.286039,"lon":5.370681,"is_reserved":false,"is_disabled":false,"rental_uris":{"android":"levelo://app?vid=237c2e2c-6cb2-4fb4-8f9a-8967233c2b49","ios":"levelo://app?vid=237c2e2c-6cb2-4fb4-8f9a-8967233c2b49"},"vehicle_type_id":"4","last_reported":1698357972,"current_range_meters":14000,"station_id":"ce4bht12rcd13ifvqi60","pricing_plan_id":"free"},{"bike_id":"2b4f86e8-dd43-408d-b031-dad80b8d6651","system_id":"levelo_inurba_marseille","lat":43.286039,"lon":5.370681,"is_reserved":false,"is_disabled":false,"rental_uris":{"android":"levelo://app?vid=2b4f86e8-dd43-408d-b031-dad80b8d6651","ios":"levelo://app?vid=2b4f86e8-dd43-408d-b031-dad80b8d6651"},"vehicle_type_id":"4","last_reported":1698357972,"current_range_meters":13600,"station_id":"ce4bht12rcd13ifvqi60","pricing_plan_id":"free"},{"bike_id":"bc368e20-93c0-495a-bb4f-cd8ed7ee7f0d","system_id":"levelo_inurba_marseille","lat":43.335307,"lon":5.388143,"is_reserved":false,"is_disabled":false,"rental_uris":{"android":"levelo://app?vid=bc368e20-93c0-495a-bb4f-cd8ed7ee7f0d","ios":"levelo://app?vid=bc368e20-93c0-495a-bb4f-cd8ed7ee7f0d"},"vehicle_type_id":"4","last_reported":1698357972,"current_range_meters":0,"station_id":"","pricing_plan_id":"free"},{"bike_id":"f5181bdc-3fb4-479b-9a75-decacc7a19a3","system_id":"levelo_inurba_marseille","lat":43.285079,"lon":5.359406,"is_reserved":false,"is_disabled":false,"rental_uris":{"android":"levelo://app?vid=f5181bdc-3fb4-479b-9a75-decacc7a19a3","ios":"levelo://app?vid=f5181bdc-3fb4-479b-9a75-decacc7a19a3"},"vehicle_type_id":"4","last_reported":1698357972,"current_range_meters":26000,"station_id":"ce4bhah2rcd13ifvqei0","pricing_plan_id":"free"},{"bike_id":"088e7924-456e-4889-bce4-d0cfa9171d85","system_id":"levelo_inurba_marseille","lat":43.291994,"lon":5.392907,"is_reserved":false,"is_disabled":false,"rental_uris":{"android":"levelo://app?vid=088e7924-456e-4889-bce4-d0cfa9171d85","ios":"levelo://app?vid=088e7924-456e-4889-bce4-d0cfa9171d85"},"vehicle_type_id":"4","last_reported":1698357972,"current_range_meters":25200,"station_id":"ce4bh192rcd13ifvqdd0","pricing_plan_id":"free"},{"bike_id":"6b798707-f69f-41b9-866d-c05f437010ea","system_id":"levelo_inurba_marseille","lat":43.291994,"lon":5.392907,"is_reserved":false,"is_disabled":false,"rental_uris":{"android":"levelo://app?vid=6b798707-f69f-41b9-866d-c05f437010ea","ios":"levelo://app?vid=6b798707-f69f-41b9-866d-c05f437010ea"},"vehicle_type_id":"4","last_reported":1698357972,"current_range_meters":4400,"station_id":"ce4bh192rcd13ifvqdd0","pricing_plan_id":"free"},{"bike_id":"ce74f6da-7658-469d-b558-5b38769082cb","system_id":"levelo_inurba_marseille","lat":43.291994,"lon":5.392907,"is_reserved":false,"is_disabled":false,"rental_uris":{"android":"levelo://app?vid=ce74f6da-7658-469d-b558-5b38769082cb","ios":"levelo://app?vid=ce74f6da-7658-469d-b558-5b38769082cb"},"vehicle_type_id":"4","last_reported":1698357972,"current_range_meters":8400,"station_id":"ce4bh192rcd13ifvqdd0","pricing_plan_id":"free"},{"bike_id":"7ed7edaa-ff0b-4be3-8ced-48a9838d6100","system_id":"levelo_inurba_marseille","lat":43.28469,"lon":5.35901,"is_reserved":false,"is_disabled":false,"rental_uris":{"android":"levelo://app?vid=7ed7edaa-ff0b-4be3-8ced-48a9838d6100","ios":"levelo://app?vid=7ed7edaa-ff0b-4be3-8ced-48a9838d6100"},"vehicle_type_id":"4","last_reported":1698357972,"current_range_meters":14000,"station_id":"ce4bhah2rcd13ifvqei0","pricing_plan_id":"free"},{"bike_id":"183def37-1386-4a12-a047-67aedcf55967","system_id":"levelo_inurba_marseille","lat":43.28465,"lon":5.35899,"is_reserved":false,"is_disabled":false,"rental_uris":{"android":"levelo://app?vid=183def37-1386-4a12-a047-67aedcf55967","ios":"levelo://app?vid=183def37-1386-4a12-a047-67aedcf55967"},"vehicle_type_id":"4","last_reported":1698357972,"current_range_meters":23600,"station_id":"ce4bhah2rcd13ifvqei0","pricing_plan_id":"free"},{"bike_id":"6e14d56a-a117-4f39-83cb-b4db63834c6c","system_id":"levelo_inurba_marseille","lat":43.28465,"lon":5.35885,"is_reserved":false,"is_disabled":false,"rental_uris":{"android":"levelo://app?vid=6e14d56a-a117-4f39-83cb-b4db63834c6c","ios":"levelo://app?vid=6e14d56a-a117-4f39-83cb-b4db63834c6c"},"vehicle_type_id":"4","last_reported":1698357972,"current_range_meters":24400,"station_id":"ce4bhah2rcd13ifvqei0","pricing_plan_id":"free"},{"bike_id":"7185daa5-fbc0-43db-a858-d478eff48f8c","system_id":"levelo_inurba_marseille","lat":43.28461,"lon":5.35893,"is_reserved":false,"is_disabled":false,"rental_uris":{"android":"levelo://app?vid=7185daa5-fbc0-43db-a858-d478eff48f8c","ios":"levelo://app?vid=7185daa5-fbc0-43db-a858-d478eff48f8c"},"vehicle_type_id":"4","last_reported":1698357972,"current_range_meters":25200,"station_id":"ce4bhah2rcd13ifvqei0","pricing_plan_id":"free"},{"bike_id":"d5c723da-2e09-4c65-aa8a-412b48c6f934","system_id":"levelo_inurba_marseille","lat":43.284615,"lon":5.35883,"is_reserved":false,"is_disabled":false,"rental_uris":{"android":"levelo://app?vid=d5c723da-2e09-4c65-aa8a-412b48c6f934","ios":"levelo://app?vid=d5c723da-2e09-4c65-aa8a-412b48c6f934"},"vehicle_type_id":"4","last_reported":1698357972,"current_range_meters":6800,"station_id":"ce4bhah2rcd13ifvqei0","pricing_plan_id":"free"},{"bike_id":"87aee81f-4200-4d81-afb3-90e8eec619bf","system_id":"levelo_inurba_marseille","lat":43.284601,"lon":5.358896,"is_reserved":false,"is_disabled":false,"rental_uris":{"android":"levelo://app?vid=87aee81f-4200-4d81-afb3-90e8eec619bf","ios":"levelo://app?vid=87aee81f-4200-4d81-afb3-90e8eec619bf"},"vehicle_type_id":"4","last_reported":1698357972,"current_range_meters":13600,"station_id":"ce4bhah2rcd13ifvqei0","pricing_plan_id":"free"},{"bike_id":"54ff11a2-e3d1-454e-ac9f-5b8dfc24c27d","system_id":"levelo_inurba_marseille","lat":43.28462,"lon":5.35876,"is_reserved":false,"is_disabled":false,"rental_uris":{"android":"levelo://app?vid=54ff11a2-e3d1-454e-ac9f-5b8dfc24c27d","ios":"levelo://app?vid=54ff11a2-e3d1-454e-ac9f-5b8dfc24c27d"},"vehicle_type_id":"4","last_reported":1698357972,"current_range_meters":2400,"station_id":"ce4bhah2rcd13ifvqei0","pricing_plan_id":"free"},{"bike_id":"f7a9341e-504a-4e88-b392-3acefeeb140e","system_id":"levelo_inurba_marseille","lat":43.28459,"lon":5.3589,"is_reserved":false,"is_disabled":false,"rental_uris":{"android":"levelo://app?vid=f7a9341e-504a-4e88-b392-3acefeeb140e","ios":"levelo://app?vid=f7a9341e-504a-4e88-b392-3acefeeb140e"},"vehicle_type_id":"4","last_reported":1698357972,"current_range_meters":12000,"station_id":"ce4bhah2rcd13ifvqei0","pricing_plan_id":"free"},{"bike_id":"d6d0a06b-1905-4286-9edc-cc53c82d5c93","system_id":"levelo_inurba_marseille","lat":43.28459,"lon":5.35879,"is_reserved":false,"is_disabled":false,"rental_uris":{"android":"levelo://app?vid=d6d0a06b-1905-4286-9edc-cc53c82d5c93","ios":"levelo://app?vid=d6d0a06b-1905-4286-9edc-cc53c82d5c93"},"vehicle_type_id":"4","last_reported":1698357972,"current_range_meters":27200,"station_id":"ce4bhah2rcd13ifvqei0","pricing_plan_id":"free"},{"bike_id":"4571873c-38e6-4f84-80cd-4a298d3161fe","system_id":"levelo_inurba_marseille","lat":43.28458,"lon":5.35884,"is_reserved":false,"is_disabled":false,"rental_uris":{"android":"levelo://app?vid=4571873c-38e6-4f84-80cd-4a298d3161fe","ios":"levelo://app?vid=4571873c-38e6-4f84-80cd-4a298d3161fe"},"vehicle_type_id":"4","last_reported":1698357972,"current_range_meters":15200,"station_id":"ce4bhah2rcd13ifvqei0","pricing_plan_id":"free"},{"bike_id":"78853a7f-7e18-47c2-9cbb-f32f48e15430","system_id":"levelo_inurba_marseille","lat":43.28454,"lon":5.358835,"is_reserved":false,"is_disabled":false,"rental_uris":{"android":"levelo://app?vid=78853a7f-7e18-47c2-9cbb-f32f48e15430","ios":"levelo://app?vid=78853a7f-7e18-47c2-9cbb-f32f48e15430"},"vehicle_type_id":"4","last_reported":1698357972,"current_range_meters":5600,"station_id":"ce4bhah2rcd13ifvqei0","pricing_plan_id":"free"},{"bike_id":"ccbcd672-1503-46cb-871f-6be9ef4245b1","system_id":"levelo_inurba_marseille","lat":43.284172,"lon":5.37511,"is_reserved":false,"is_disabled":false,"rental_uris":{"android":"levelo://app?vid=ccbcd672-1503-46cb-871f-6be9ef4245b1","ios":"levelo://app?vid=ccbcd672-1503-46cb-871f-6be9ef4245b1"},"vehicle_type_id":"4","last_reported":1698357972,"current_range_meters":400,"station_id":"ce4bh412rcd13ifvqds0","pricing_plan_id":"free"},{"bike_id":"fbcddbb9-b494-46cf-90b5-85201669ce84","system_id":"levelo_inurba_marseille","lat":43.295713,"lon":5.399639,"is_reserved":false,"is_disabled":false,"rental_uris":{"android":"levelo://app?vid=fbcddbb9-b494-46cf-90b5-85201669ce84","ios":"levelo://app?vid=fbcddbb9-b494-46cf-90b5-85201669ce84"},"vehicle_type_id":"4","last_reported":1698357972,"current_range_meters":27600,"station_id":"ce4bh312rcd13ifvqdj0","pricing_plan_id":"free"},{"bike_id":"9487b707-9832-42e4-a771-ac3dce2690d3","system_id":"levelo_inurba_marseille","lat":43.283998,"lon":5.375062,"is_reserved":false,"is_disabled":false,"rental_uris":{"android":"levelo://app?vid=9487b707-9832-42e4-a771-ac3dce2690d3","ios":"levelo://app?vid=9487b707-9832-42e4-a771-ac3dce2690d3"},"vehicle_type_id":"4","last_reported":1698357972,"current_range_meters":31200,"station_id":"ce4bh412rcd13ifvqds0","pricing_plan_id":"free"},{"bike_id":"7894c1bb-8711-4476-9eee-137bd92cf0ff","system_id":"levelo_inurba_marseille","lat":43.295713,"lon":5.399639,"is_reserved":false,"is_disabled":false,"rental_uris":{"android":"levelo://app?vid=7894c1bb-8711-4476-9eee-137bd92cf0ff","ios":"levelo://app?vid=7894c1bb-8711-4476-9eee-137bd92cf0ff"},"vehicle_type_id":"4","last_reported":1698357972,"current_range_meters":31600,"station_id":"ce4bh312rcd13ifvqdj0","pricing_plan_id":"free"},{"bike_id":"4cf5a939-0f4d-4fea-9fb1-bee910a91105","system_id":"levelo_inurba_marseille","lat":43.295713,"lon":5.399639,"is_reserved":false,"is_disabled":false,"rental_uris":{"android":"levelo://app?vid=4cf5a939-0f4d-4fea-9fb1-bee910a91105","ios":"levelo://app?vid=4cf5a939-0f4d-4fea-9fb1-bee910a91105"},"vehicle_type_id":"4","last_reported":1698357972,"current_range_meters":28800,"station_id":"ce4bh312rcd13ifvqdj0","pricing_plan_id":"free"},{"bike_id":"bdbc685f-8e47-415a-9382-f6b9dc9af1a9","system_id":"levelo_inurba_marseille","lat":43.284096,"lon":5.375156,"is_reserved":false,"is_disabled":false,"rental_uris":{"android":"levelo://app?vid=bdbc685f-8e47-415a-9382-f6b9dc9af1a9","ios":"levelo://app?vid=bdbc685f-8e47-415a-9382-f6b9dc9af1a9"},"vehicle_type_id":"4","last_reported":1698357972,"current_range_meters":14400,"station_id":"ce4bh412rcd13ifvqds0","pricing_plan_id":"free"},{"bike_id":"685cb152-dd95-4035-a80f-a18e6ad8926d","system_id":"levelo_inurba_marseille","lat":43.295713,"lon":5.399639,"is_reserved":false,"is_disabled":false,"rental_uris":{"android":"levelo://app?vid=685cb152-dd95-4035-a80f-a18e6ad8926d","ios":"levelo://app?vid=685cb152-dd95-4035-a80f-a18e6ad8926d"},"vehicle_type_id":"4","last_reported":1698357972,"current_range_meters":31200,"station_id":"ce4bh312rcd13ifvqdj0","pricing_plan_id":"free"},{"bike_id":"ccbb4ee0-422f-4c05-a9ec-97870976c4e7","system_id":"levelo_inurba_marseille","lat":43.295713,"lon":5.399639,"is_reserved":false,"is_disabled":false,"rental_uris":{"android":"levelo://app?vid=ccbb4ee0-422f-4c05-a9ec-97870976c4e7","ios":"levelo://app?vid=ccbb4ee0-422f-4c05-a9ec-97870976c4e7"},"vehicle_type_id":"4","last_reported":1698357972,"current_range_meters":31600,"station_id":"ce4bh312rcd13ifvqdj0","pricing_plan_id":"free"},{"bike_id":"6848c611-163c-4397-8a33-9d77c09002e9","system_id":"levelo_inurba_marseille","lat":43.295713,"lon":5.399639,"is_reserved":false,"is_disabled":false,"rental_uris":{"android":"levelo://app?vid=6848c611-163c-4397-8a33-9d77c09002e9","ios":"levelo://app?vid=6848c611-163c-4397-8a33-9d77c09002e9"},"vehicle_type_id":"4","last_reported":1698357972,"current_range_meters":24000,"station_id":"ce4bh312rcd13ifvqdj0","pricing_plan_id":"free"},{"bike_id":"0e4bf55c-c27e-49dd-b0e9-8acd0baf005d","system_id":"levelo_inurba_marseille","lat":43.295713,"lon":5.399639,"is_reserved":false,"is_disabled":false,"rental_uris":{"android":"levelo://app?vid=0e4bf55c-c27e-49dd-b0e9-8acd0baf005d","ios":"levelo://app?vid=0e4bf55c-c27e-49dd-b0e9-8acd0baf005d"},"vehicle_type_id":"4","last_reported":1698357972,"current_range_meters":31200,"station_id":"ce4bh312rcd13ifvqdj0","pricing_plan_id":"free"},{"bike_id":"e28e63fe-5345-4bfc-9991-3daebb3e62b9","system_id":"levelo_inurba_marseille","lat":43.295713,"lon":5.399639,"is_reserved":false,"is_disabled":false,"rental_uris":{"android":"levelo://app?vid=e28e63fe-5345-4bfc-9991-3daebb3e62b9","ios":"levelo://app?vid=e28e63fe-5345-4bfc-9991-3daebb3e62b9"},"vehicle_type_id":"4","last_reported":1698357972,"current_range_meters":31200,"station_id":"ce4bh312rcd13ifvqdj0","pricing_plan_id":"free"},{"bike_id":"0f55b85f-829c-4447-abee-be7bfdc39d0f","system_id":"levelo_inurba_marseille","lat":43.284016,"lon":5.375173,"is_reserved":false,"is_disabled":false,"rental_uris":{"android":"levelo://app?vid=0f55b85f-829c-4447-abee-be7bfdc39d0f","ios":"levelo://app?vid=0f55b85f-829c-4447-abee-be7bfdc39d0f"},"vehicle_type_id":"4","last_reported":1698357972,"current_range_meters":31200,"station_id":"ce4bh412rcd13ifvqds0","pricing_plan_id":"free"},{"bike_id":"d3748560-398b-493e-b915-e5a728c45d13","system_id":"levelo_inurba_marseille","lat":43.319179,"lon":5.407725,"is_reserved":false,"is_disabled":false,"rental_uris":{"android":"levelo://app?vid=d3748560-398b-493e-b915-e5a728c45d13","ios":"levelo://app?vid=d3748560-398b-493e-b915-e5a728c45d13"},"vehicle_type_id":"4","last_reported":1698357972,"current_range_meters":13600,"station_id":"ce4bhq12rcd13ifvqhig","pricing_plan_id":"free"},{"bike_id":"18ff1f34-2c4b-4968-a376-37ec91878cbc","system_id":"levelo_inurba_marseille","lat":43.319179,"lon":5.407725,"is_reserved":false,"is_disabled":false,"rental_uris":{"android":"levelo://app?vid=18ff1f34-2c4b-4968-a376-37ec91878cbc","ios":"levelo://app?vid=18ff1f34-2c4b-4968-a376-37ec91878cbc"},"vehicle_type_id":"4","last_reported":1698357972,"current_range_meters":10000,"station_id":"ce4bhq12rcd13ifvqhig","pricing_plan_id":"free"},{"bike_id":"a04dca67-8317-445e-90d6-5788929468fd","system_id":"levelo_inurba_marseille","lat":43.33674,"lon":5.39198,"is_reserved":false,"is_disabled":false,"rental_uris":{"android":"levelo://app?vid=a04dca67-8317-445e-90d6-5788929468fd","ios":"levelo://app?vid=a04dca67-8317-445e-90d6-5788929468fd"},"vehicle_type_id":"4","last_reported":1698357972,"current_range_meters":12000,"station_id":"","pricing_plan_id":"free"},{"bike_id":"58151d52-000e-4f58-9173-3c2ae081e146","system_id":"levelo_inurba_marseille","lat":43.337168,"lon":5.391825,"is_reserved":false,"is_disabled":false,"rental_uris":{"android":"levelo://app?vid=58151d52-000e-4f58-9173-3c2ae081e146","ios":"levelo://app?vid=58151d52-000e-4f58-9173-3c2ae081e146"},"vehicle_type_id":"4","last_reported":1698357972,"current_range_meters":22800,"station_id":"ce4bhr92rcd13ifvqhsg","pricing_plan_id":"free"},{"bike_id":"023aab67-f221-4b0c-a2f9-b9c8c5a8d582","system_id":"levelo_inurba_marseille","lat":43.33717,"lon":5.391857,"is_reserved":false,"is_disabled":false,"rental_uris":{"android":"levelo://app?vid=023aab67-f221-4b0c-a2f9-b9c8c5a8d582","ios":"levelo://app?vid=023aab67-f221-4b0c-a2f9-b9c8c5a8d582"},"vehicle_type_id":"4","last_reported":1698357972,"current_range_meters":2000,"station_id":"ce4bhr92rcd13ifvqhsg","pricing_plan_id":"free"},{"bike_id":"bd3ad878-c73a-4e25-b4a1-20ae7cef7d6a","system_id":"levelo_inurba_marseille","lat":43.323464,"lon":5.406297,"is_reserved":false,"is_disabled":false,"rental_uris":{"android":"levelo://app?vid=bd3ad878-c73a-4e25-b4a1-20ae7cef7d6a","ios":"levelo://app?vid=bd3ad878-c73a-4e25-b4a1-20ae7cef7d6a"},"vehicle_type_id":"4","last_reported":1698357972,"current_range_meters":15600,"station_id":"ce4bhq92rcd13ifvqhjg","pricing_plan_id":"free"},{"bike_id":"07b016a6-e829-42f7-bd77-b60225a97761","system_id":"levelo_inurba_marseille","lat":43.323464,"lon":5.406297,"is_reserved":false,"is_disabled":false,"rental_uris":{"android":"levelo://app?vid=07b016a6-e829-42f7-bd77-b60225a97761","ios":"levelo://app?vid=07b016a6-e829-42f7-bd77-b60225a97761"},"vehicle_type_id":"4","last_reported":1698357972,"current_range_meters":11600,"station_id":"ce4bhq92rcd13ifvqhjg","pricing_plan_id":"free"},{"bike_id":"4a63deda-2798-4708-8db7-19ba8690ef11","system_id":"levelo_inurba_marseille","lat":43.284793,"lon":5.384119,"is_reserved":false,"is_disabled":false,"rental_uris":{"android":"levelo://app?vid=4a63deda-2798-4708-8db7-19ba8690ef11","ios":"levelo://app?vid=4a63deda-2798-4708-8db7-19ba8690ef11"},"vehicle_type_id":"4","last_reported":1698357972,"current_range_meters":4800,"station_id":"ce4bh512rcd13ifvqe3g","pricing_plan_id":"free"},{"bike_id":"d6e0f25c-aaad-4436-9a20-7d785d7e759e","system_id":"levelo_inurba_marseille","lat":43.32521,"lon":5.40572,"is_reserved":false,"is_disabled":false,"rental_uris":{"android":"levelo://app?vid=d6e0f25c-aaad-4436-9a20-7d785d7e759e","ios":"levelo://app?vid=d6e0f25c-aaad-4436-9a20-7d785d7e759e"},"vehicle_type_id":"4","last_reported":1698357972,"current_range_meters":0,"station_id":"","pricing_plan_id":"free"},{"bike_id":"2f666bbb-190f-4291-ade2-95e2c0cfd815","system_id":"levelo_inurba_marseille","lat":43.325281,"lon":5.405683,"is_reserved":false,"is_disabled":false,"rental_uris":{"android":"levelo://app?vid=2f666bbb-190f-4291-ade2-95e2c0cfd815","ios":"levelo://app?vid=2f666bbb-190f-4291-ade2-95e2c0cfd815"},"vehicle_type_id":"4","last_reported":1698357972,"current_range_meters":24400,"station_id":"","pricing_plan_id":"free"},{"bike_id":"af1ebfed-6903-4fb0-bcc5-7c2a7640d01f","system_id":"levelo_inurba_marseille","lat":43.283498,"lon":5.380948,"is_reserved":false,"is_disabled":false,"rental_uris":{"android":"levelo://app?vid=af1ebfed-6903-4fb0-bcc5-7c2a7640d01f","ios":"levelo://app?vid=af1ebfed-6903-4fb0-bcc5-7c2a7640d01f"},"vehicle_type_id":"4","last_reported":1698357972,"current_range_meters":11200,"station_id":"ce4bh412rcd13ifvqdr0","pricing_plan_id":"free"},{"bike_id":"2faa2b7c-f406-43b4-a834-03df393bde92","system_id":"levelo_inurba_marseille","lat":43.284219,"lon":5.3497,"is_reserved":false,"is_disabled":false,"rental_uris":{"android":"levelo://app?vid=2faa2b7c-f406-43b4-a834-03df393bde92","ios":"levelo://app?vid=2faa2b7c-f406-43b4-a834-03df393bde92"},"vehicle_type_id":"4","last_reported":1698357972,"current_range_meters":400,"station_id":"ce4bhbh2rcd13ifvqepg","pricing_plan_id":"free"},{"bike_id":"34e5eec3-d85c-4fd3-940d-3bce2ce9300a","system_id":"levelo_inurba_marseille","lat":43.29274,"lon":5.40115,"is_reserved":false,"is_disabled":false,"rental_uris":{"android":"levelo://app?vid=34e5eec3-d85c-4fd3-940d-3bce2ce9300a","ios":"levelo://app?vid=34e5eec3-d85c-4fd3-940d-3bce2ce9300a"},"vehicle_type_id":"4","last_reported":1698357972,"current_range_meters":0,"station_id":"ce4bh312rcd13ifvqdk0","pricing_plan_id":"free"},{"bike_id":"16b62504-076d-4aec-928e-cf7cffba3098","system_id":"levelo_inurba_marseille","lat":43.292724,"lon":5.401131,"is_reserved":false,"is_disabled":false,"rental_uris":{"android":"levelo://app?vid=16b62504-076d-4aec-928e-cf7cffba3098","ios":"levelo://app?vid=16b62504-076d-4aec-928e-cf7cffba3098"},"vehicle_type_id":"4","last_reported":1698357972,"current_range_meters":30000,"station_id":"ce4bh312rcd13ifvqdk0","pricing_plan_id":"free"},{"bike_id":"df6fd779-1a1b-4c1e-9ad3-1f4e9bb6241b","system_id":"levelo_inurba_marseille","lat":43.292724,"lon":5.401131,"is_reserved":false,"is_disabled":false,"rental_uris":{"android":"levelo://app?vid=df6fd779-1a1b-4c1e-9ad3-1f4e9bb6241b","ios":"levelo://app?vid=df6fd779-1a1b-4c1e-9ad3-1f4e9bb6241b"},"vehicle_type_id":"4","last_reported":1698357972,"current_range_meters":4000,"station_id":"ce4bh312rcd13ifvqdk0","pricing_plan_id":"free"},{"bike_id":"a6e42c8d-a639-40f8-ac84-93d84edf8a47","system_id":"levelo_inurba_marseille","lat":43.282754,"lon":5.350519,"is_reserved":false,"is_disabled":false,"rental_uris":{"android":"levelo://app?vid=a6e42c8d-a639-40f8-ac84-93d84edf8a47","ios":"levelo://app?vid=a6e42c8d-a639-40f8-ac84-93d84edf8a47"},"vehicle_type_id":"4","last_reported":1698357972,"current_range_meters":29200,"station_id":"ce4bhbp2rcd13ifvqerg","pricing_plan_id":"free"},{"bike_id":"e8b893cf-c212-4080-99a7-8c87627aefc2","system_id":"levelo_inurba_marseille","lat":43.282715,"lon":5.350637,"is_reserved":false,"is_disabled":false,"rental_uris":{"android":"levelo://app?vid=e8b893cf-c212-4080-99a7-8c87627aefc2","ios":"levelo://app?vid=e8b893cf-c212-4080-99a7-8c87627aefc2"},"vehicle_type_id":"4","last_reported":1698357972,"current_range_meters":31200,"station_id":"ce4bhbp2rcd13ifvqerg","pricing_plan_id":"free"},{"bike_id":"49a6032d-7994-4ca0-bfb6-6724ffd67292","system_id":"levelo_inurba_marseille","lat":43.282744,"lon":5.350533,"is_reserved":false,"is_disabled":false,"rental_uris":{"android":"levelo://app?vid=49a6032d-7994-4ca0-bfb6-6724ffd67292","ios":"levelo://app?vid=49a6032d-7994-4ca0-bfb6-6724ffd67292"},"vehicle_type_id":"4","last_reported":1698357972,"current_range_meters":23600,"station_id":"ce4bhbp2rcd13ifvqerg","pricing_plan_id":"free"},{"bike_id":"7f717374-de65-458a-8eb8-0339129a9acc","system_id":"levelo_inurba_marseille","lat":43.282754,"lon":5.350519,"is_reserved":false,"is_disabled":false,"rental_uris":{"android":"levelo://app?vid=7f717374-de65-458a-8eb8-0339129a9acc","ios":"levelo://app?vid=7f717374-de65-458a-8eb8-0339129a9acc"},"vehicle_type_id":"4","last_reported":1698357972,"current_range_meters":31200,"station_id":"ce4bhbp2rcd13ifvqerg","pricing_plan_id":"free"},{"bike_id":"c0449154-414a-4a97-8c66-4ecd834e8e24","system_id":"levelo_inurba_marseille","lat":43.280382,"lon":5.369291,"is_reserved":false,"is_disabled":false,"rental_uris":{"android":"levelo://app?vid=c0449154-414a-4a97-8c66-4ecd834e8e24","ios":"levelo://app?vid=c0449154-414a-4a97-8c66-4ecd834e8e24"},"vehicle_type_id":"4","last_reported":1698357972,"current_range_meters":31200,"station_id":"ce4bha12rcd13ifvqef0","pricing_plan_id":"free"},{"bike_id":"eae608c4-d84e-4731-b7f0-fdf7ef265fdf","system_id":"levelo_inurba_marseille","lat":43.28039,"lon":5.369297,"is_reserved":false,"is_disabled":false,"rental_uris":{"android":"levelo://app?vid=eae608c4-d84e-4731-b7f0-fdf7ef265fdf","ios":"levelo://app?vid=eae608c4-d84e-4731-b7f0-fdf7ef265fdf"},"vehicle_type_id":"4","last_reported":1698357972,"current_range_meters":29200,"station_id":"ce4bha12rcd13ifvqef0","pricing_plan_id":"free"},{"bike_id":"77a36b93-e47c-4023-9d12-bb4f9db102c7","system_id":"levelo_inurba_marseille","lat":43.280382,"lon":5.369291,"is_reserved":false,"is_disabled":false,"rental_uris":{"android":"levelo://app?vid=77a36b93-e47c-4023-9d12-bb4f9db102c7","ios":"levelo://app?vid=77a36b93-e47c-4023-9d12-bb4f9db102c7"},"vehicle_type_id":"4","last_reported":1698357972,"current_range_meters":8000,"station_id":"ce4bha12rcd13ifvqef0","pricing_plan_id":"free"},{"bike_id":"6c1c4097-3332-4538-b0b3-9530094b4adb","system_id":"levelo_inurba_marseille","lat":43.290415,"lon":5.399601,"is_reserved":false,"is_disabled":false,"rental_uris":{"android":"levelo://app?vid=6c1c4097-3332-4538-b0b3-9530094b4adb","ios":"levelo://app?vid=6c1c4097-3332-4538-b0b3-9530094b4adb"},"vehicle_type_id":"4","last_reported":1698357972,"current_range_meters":0,"station_id":"ce4bh392rcd13ifvqdm0","pricing_plan_id":"free"},{"bike_id":"1ca242fe-6084-4f9b-8b54-35d465872844","system_id":"levelo_inurba_marseille","lat":43.29041,"lon":5.399634,"is_reserved":false,"is_disabled":false,"rental_uris":{"android":"levelo://app?vid=1ca242fe-6084-4f9b-8b54-35d465872844","ios":"levelo://app?vid=1ca242fe-6084-4f9b-8b54-35d465872844"},"vehicle_type_id":"4","last_reported":1698357972,"current_range_meters":22400,"station_id":"ce4bh392rcd13ifvqdm0","pricing_plan_id":"free"},{"bike_id":"0a816ee7-5d93-46e3-a567-cd27a8a28a7e","system_id":"levelo_inurba_marseille","lat":43.281044,"lon":5.378308,"is_reserved":false,"is_disabled":false,"rental_uris":{"android":"levelo://app?vid=0a816ee7-5d93-46e3-a567-cd27a8a28a7e","ios":"levelo://app?vid=0a816ee7-5d93-46e3-a567-cd27a8a28a7e"},"vehicle_type_id":"4","last_reported":1698357972,"current_range_meters":7200,"station_id":"ce4bha12rcd13ifvqee0","pricing_plan_id":"free"},{"bike_id":"a57d0fdb-b213-4e44-87aa-9e931832f41a","system_id":"levelo_inurba_marseille","lat":43.336569,"lon":5.398701,"is_reserved":false,"is_disabled":false,"rental_uris":{"android":"levelo://app?vid=a57d0fdb-b213-4e44-87aa-9e931832f41a","ios":"levelo://app?vid=a57d0fdb-b213-4e44-87aa-9e931832f41a"},"vehicle_type_id":"4","last_reported":1698357972,"current_range_meters":0,"station_id":"","pricing_plan_id":"free"},{"bike_id":"2e54ac32-6169-46aa-ac37-1215d17d9720","system_id":"levelo_inurba_marseille","lat":43.284462,"lon":5.392121,"is_reserved":false,"is_disabled":false,"rental_uris":{"android":"levelo://app?vid=2e54ac32-6169-46aa-ac37-1215d17d9720","ios":"levelo://app?vid=2e54ac32-6169-46aa-ac37-1215d17d9720"},"vehicle_type_id":"4","last_reported":1698357972,"current_range_meters":0,"station_id":"ce4bhoh2rcd13ifvqh5g","pricing_plan_id":"free"},