{"last_updated":1762891877,"ttl":60,"version":"2.2","data":{"bikes":[{"bike_id":"d7db12ce-11cc-4c98-8751-ac59baa5d7aa","system_id":"levelo_inurba_marseille","lat":43.337444,"lon":5.374475,"is_reserved":false,"is_disabled":false,"rental_uris":{"android":"levelo://app?vid=d7db12ce-11cc-4c98-8751-ac59baa5d7aa","ios":"levelo://app?vid=d7db12ce-11cc-4c98-8751-ac59baa5d7aa"},"vehicle_type_id":"4","last_reported":1762891877,"current_range_meters":0,"station_id":"","pricing_plan_id":"cebpf4jnsgd1na2vs0mg"},{"bike_id":"b4582bc0-21fa-4717-911d-87c868127486","system_id":"levelo_inurba_marseille","lat":43.31536,"lon":5.3803,"is_reserved":false,"is_disabled":false,"rental_uris":{"android":"levelo://app?vid=b4582bc0-21fa-4717-911d-87c868127486","ios":"levelo://app?vid=b4582bc0-21fa-4717-911d-87c868127486"},"vehicle_type_id":"4","last_reported":1762891877,"current_range_meters":3200,"station_id":"ce4bhsp2rcd13ifvqi50","pricing_plan_id":"cebpf4jnsgd1na2vs0mg"},{"bike_id":"1b267de1-bcca-40ed-87d1-2e39c381830d","system_id":"levelo_inurba_marseille","lat":43.225342,"lon":5.348387,"is_reserved":false,"is_disabled":false,"rental_uris":{"android":"levelo://app?vid=1b267de1-bcca-40ed-87d1-2e39c381830d","ios":"levelo://app?vid=1b267de1-bcca-40ed-87d1-2e39c381830d"},"vehicle_type_id":"4","last_reported":1762891877,"current_range_meters":3200,"station_id":"","pricing_plan_id":"cebpf4jnsgd1na2vs0mg"},{"bike_id":"653cd1b2-09fb-446a-b9a7-1badbc538d8c","system_id":"levelo_inurba_marseille","lat":43.23811,"lon":5.36599,"is_reserved":false,"is_disabled":false,"rental_uris":{"android":"levelo://app?vid=653cd1b2-09fb-446a-b9a7-1badbc538d8c","ios":"levelo://app?vid=653cd1b2-09fb-446a-b9a7-1badbc538d8c"},"vehicle_type_id":"4","last_reported":1762891877,"current_range_meters":3600,"station_id":"st_d3nk18o9ro0c73en2l3g","pricing_plan_id":"cebpf4jnsgd1na2vs0mg"},{"bike_id":"41aeabc1-9035-4e06-a213-c274eace9205","system_id":"levelo_inurba_marseille","lat":43.28862,"lon":5.4251,"is_reserved":false,"is_disabled":false,"rental_uris":{"android":"levelo://app?vid=41aeabc1-9035-4e06-a213-c274eace9205","ios":"levelo://app?vid=41aeabc1-9035-4e06-a213-c274eace9205"},"vehicle_type_id":"4","last_reported":1762891877,"current_range_meters":3600,"station_id":"st_d3b462108ojc7389ooeg","pricing_plan_id":"cebpf4jnsgd1na2vs0mg"},{"bike_id":"40c8d12f-4615-4e80-b581-43f69d0a8a86","system_id":"levelo_inurba_marseille","lat":43.29529,"lon":5.38547,"is_reserved":false,"is_disabled":false,"rental_uris":{"android":"levelo://app?vid=40c8d12f-4615-4e80-b581-43f69d0a8a86","ios":"levelo://app?vid=40c8d12f-4615-4e80-b581-43f69d0a8a86"},"vehicle_type_id":"4","last_reported":1762891877,"current_range_meters":3600,"station_id":"ce4bgih2rcd13ifvqba0","pricing_plan_id":"cebpf4jnsgd1na2vs0mg"},{"bike_id":"e81695ea-a0e8-40ea-a9b1-d8eee4c097e3","system_id":"levelo_inurba_marseille","lat":43.30404,"lon":5.41282,"is_reserved":false,"is_disabled":false,"rental_uris":{"android":"levelo://app?vid=e81695ea-a0e8-40ea-a9b1-d8eee4c097e3","ios":"levelo://app?vid=e81695ea-a0e8-40ea-a9b1-d8eee4c097e3"},"vehicle_type_id":"4","last_reported":1762891877,"current_range_meters":4000,"station_id":"ce4bhop2rcd13ifvqh8g","pricing_plan_id":"cebpf4jnsgd1na2vs0mg"},{"bike_id":"eb71260a-307f-4c5e-85bf-480dcd60ab87","system_id":"levelo_inurba_marseille","lat":43.262269,"lon":5.404485,"is_reserved":false,"is_disabled":false,"rental_uris":{"android":"levelo://app?vid=eb71260a-307f-4c5e-85bf-480dcd60ab87","ios":"levelo://app?vid=eb71260a-307f-4c5e-85bf-480dcd60ab87"},"vehicle_type_id":"4","last_reported":1762891877,"current_range_meters":4400,"station_id":"ce4bhmh2rcd13ifvqgmg","pricing_plan_id":"cebpf4jnsgd1na2vs0mg"},{"bike_id":"ff826ddc-f738-472d-99a2-c3d559e906fc","system_id":"levelo_inurba_marseille","lat":43.292633,"lon":5.384382,"is_reserved":false,"is_disabled":false,"rental_uris":{"android":"levelo://app?vid=ff826ddc-f738-472d-99a2-c3d559e906fc","ios":"levelo://app?vid=ff826ddc-f738-472d-99a2-c3d559e906fc"},"vehicle_type_id":"4","last_reported":1762891877,"current_range_meters":4400,"station_id":"","pricing_plan_id":"cebpf4jnsgd1na2vs0mg"},{"bike_id":"d91f7b77-628b-406f-9c6d-db5e5cfcadca","system_id":"levelo_inurba_marseille","lat":43.28482,"lon":5.48376,"is_reserved":false,"is_disabled":false,"rental_uris":{"android":"levelo://app?vid=d91f7b77-628b-406f-9c6d-db5e5cfcadca","ios":"levelo://app?vid=d91f7b77-628b-406f-9c6d-db5e5cfcadca"},"vehicle_type_id":"4","last_reported":1762891877,"current_range_meters":4400,"station_id":"st_d3svhcjqgbts73a3dn0g","pricing_plan_id":"cebpf4jnsgd1na2vs0mg"},{"bike_id":"66661ed5-e93a-45f1-ab29-016a58ad20d2","system_id":"levelo_inurba_marseille","lat":43.28071,"lon":5.3968,"is_reserved":false,"is_disabled":false,"rental_uris":{"android":"levelo://app?vid=66661ed5-e93a-45f1-ab29-016a58ad20d2","ios":"levelo://app?vid=66661ed5-e93a-45f1-ab29-016a58ad20d2"},"vehicle_type_id":"4","last_reported":1762891877,"current_range_meters":4400,"station_id":"ce4bho12rcd13ifvqh2g","pricing_plan_id":"cebpf4jnsgd1na2vs0mg"},{"bike_id":"15741435-245e-4e4d-a14c-f564231b8eff","system_id":"levelo_inurba_marseille","lat":43.27969,"lon":5.41031,"is_reserved":false,"is_disabled":false,"rental_uris":{"android":"levelo://app?vid=15741435-245e-4e4d-a14c-f564231b8eff","ios":"levelo://app?vid=15741435-245e-4e4d-a14c-f564231b8eff"},"vehicle_type_id":"4","last_reported":1762891877,"current_range_meters":4400,"station_id":"ce4bhnp2rcd13ifvqh0g","pricing_plan_id":"cebpf4jnsgd1na2vs0mg"},{"bike_id":"56252eb9-8e9f-40dd-80e3-62657c8ad531","system_id":"levelo_inurba_marseille","lat":43.288524,"lon":5.393242,"is_reserved":false,"is_disabled":false,"rental_uris":{"android":"levelo://app?vid=56252eb9-8e9f-40dd-80e3-62657c8ad531","ios":"levelo://app?vid=56252eb9-8e9f-40dd-80e3-62657c8ad531"},"vehicle_type_id":"4","last_reported":1762891877,"current_range_meters":4800,"station_id":"","pricing_plan_id":"cebpf4jnsgd1na2vs0mg"},{"bike_id":"d21c96bb-7dfa-49e5-b911-6eb653f04193","system_id":"levelo_inurba_marseille","lat":43.30457,"lon":5.39717,"is_reserved":false,"is_disabled":false,"rental_uris":{"android":"levelo://app?vid=d21c96bb-7dfa-49e5-b911-6eb653f04193","ios":"levelo://app?vid=d21c96bb-7dfa-49e5-b911-6eb653f04193"},"vehicle_type_id":"4","last_reported":1762891877,"current_range_meters":4800,"station_id":"ce4bh092rcd13ifvqd20","pricing_plan_id":"cebpf4jnsgd1na2vs0mg"},{"bike_id":"4386e18a-fc30-4ce0-8ece-c45d88abff12","system_id":"levelo_inurba_marseille","lat":43.29723,"lon":5.36574,"is_reserved":false,"is_disabled":false,"rental_uris":{"android":"levelo://app?vid=4386e18a-fc30-4ce0-8ece-c45d88abff12","ios":"levelo://app?vid=4386e18a-fc30-4ce0-8ece-c45d88abff12"},"vehicle_type_id":"4","last_reported":1762891877,"current_range_meters":5600,"station_id":"ce4bgn12rcd13ifvqbt0","pricing_plan_id":"cebpf4jnsgd1na2vs0mg"},{"bike_id":"64d841ee-cd4a-4b84-a83d-853cd5bd5dc9","system_id":"levelo_inurba_marseille","lat":43.31328,"lon":5.3969,"is_reserved":false,"is_disabled":false,"rental_uris":{"android":"levelo://app?vid=64d841ee-cd4a-4b84-a83d-853cd5bd5dc9","ios":"levelo://app?vid=64d841ee-cd4a-4b84-a83d-853cd5bd5dc9"},"vehicle_type_id":"4","last_reported":1762891877,"current_range_meters":5600,"station_id":"ce4bgvp2rcd13ifvqcu0","pricing_plan_id":"cebpf4jnsgd1na2vs0mg"},{"bike_id":"355d0a72-63a4-43ac-addc-15604eb0aa69","system_id":"levelo_inurba_marseille","lat":43.29924,"lon":5.36394,"is_reserved":false,"is_disabled":false,"rental_uris":{"android":"levelo://app?vid=355d0a72-63a4-43ac-addc-15604eb0aa69","ios":"levelo://app?vid=355d0a72-63a4-43ac-addc-15604eb0aa69"},"vehicle_type_id":"4","last_reported":1762891877,"current_range_meters":5600,"station_id":"","pricing_plan_id":"cebpf4jnsgd1na2vs0mg"},{"bike_id":"285edc02-c40d-4315-906b-2d38b29ac259","system_id":"levelo_inurba_marseille","lat":43.33764,"lon":5.37468,"is_reserved":false,"is_disabled":false,"rental_uris":{"android":"levelo://app?vid=285edc02-c40d-4315-906b-2d38b29ac259","ios":"levelo://app?vid=285edc02-c40d-4315-906b-2d38b29ac259"},"vehicle_type_id":"4","last_reported":1762891877,"current_range_meters":6000,"station_id":"","pricing_plan_id":"cebpf4jnsgd1na2vs0mg"},{"bike_id":"92aeebf5-f122-472f-a3ad-735811254e96","system_id":"levelo_inurba_marseille","lat":43.27807,"lon":5.4071,"is_reserved":false,"is_disabled":false,"rental_uris":{"android":"levelo://app?vid=92aeebf5-f122-472f-a3ad-735811254e96","ios":"levelo://app?vid=92aeebf5-f122-472f-a3ad-735811254e96"},"vehicle_type_id":"4","last_reported":1762891877,"current_range_meters":6000,"station_id":"ce4bhnh2rcd13ifvqgtg","pricing_plan_id":"cebpf4jnsgd1na2vs0mg"},{"bike_id":"cc9de5a3-c53e-410a-afa4-7badb4a0dce3","system_id":"levelo_inurba_marseille","lat":43.28376,"lon":5.3878,"is_reserved":false,"is_disabled":false,"rental_uris":{"android":"levelo://app?vid=cc9de5a3-c53e-410a-afa4-7badb4a0dce3","ios":"levelo://app?vid=cc9de5a3-c53e-410a-afa4-7badb4a0dce3"},"vehicle_type_id":"4","last_reported":1762891877,"current_range_meters":6000,"station_id":"","pricing_plan_id":"cebpf4jnsgd1na2vs0mg"},{"bike_id":"3a003467-3f25-40c0-bcbd-e154611c030f","system_id":"levelo_inurba_marseille","lat":43.31114,"lon":5.3777,"is_reserved":false,"is_disabled":false,"rental_uris":{"android":"levelo://app?vid=3a003467-3f25-40c0-bcbd-e154611c030f","ios":"levelo://app?vid=3a003467-3f25-40c0-bcbd-e154611c030f"},"vehicle_type_id":"4","last_reported":1762891877,"current_range_meters":6000,"station_id":"ce4bgt92rcd13ifvqcg0","pricing_plan_id":"cebpf4jnsgd1na2vs0mg"},{"bike_id":"3e127f70-cf6a-4934-aa04-3bd2aa9faa0a","system_id":"levelo_inurba_marseille","lat":43.27071,"lon":5.42259,"is_reserved":false,"is_disabled":false,"rental_uris":{"android":"levelo://app?vid=3e127f70-cf6a-4934-aa04-3bd2aa9faa0a","ios":"levelo://app?vid=3e127f70-cf6a-4934-aa04-3bd2aa9faa0a"},"vehicle_type_id":"4","last_reported":1762891877,"current_range_meters":6400,"station_id":"ce4bhk92rcd13ifvqgb0","pricing_plan_id":"cebpf4jnsgd1na2vs0mg"},{"bike_id":"835a2061-f34e-4303-ace2-3338a970af74","system_id":"levelo_inurba_marseille","lat":43.33602,"lon":5.41037,"is_reserved":false,"is_disabled":false,"rental_uris":{"android":"levelo://app?vid=835a2061-f34e-4303-ace2-3338a970af74","ios":"levelo://app?vid=835a2061-f34e-4303-ace2-3338a970af74"},"vehicle_type_id":"4","last_reported":1762891877,"current_range_meters":6400,"station_id":"ce4bhqh2rcd13ifvqhmg","pricing_plan_id":"cebpf4jnsgd1na2vs0mg"},{"bike_id":"a153bb7a-facf-4d89-8fb0-01e6272ba505","system_id":"levelo_inurba_marseille","lat":43.26987,"lon":5.38821,"is_reserved":false,"is_disabled":false,"rental_uris":{"android":"levelo://app?vid=a153bb7a-facf-4d89-8fb0-01e6272ba505","ios":"levelo://app?vid=a153bb7a-facf-4d89-8fb0-01e6272ba505"},"vehicle_type_id":"4","last_reported":1762891877,"current_range_meters":6400,"station_id":"","pricing_plan_id":"cebpf4jnsgd1na2vs0mg"},{"bike_id":"9a7c2dc7-2180-4633-bc7e-23c0c093b3c2","system_id":"levelo_inurba_marseille","lat":43.3307,"lon":5.39005,"is_reserved":false,"is_disabled":false,"rental_uris":{"android":"levelo://app?vid=9a7c2dc7-2180-4633-bc7e-23c0c093b3c2","ios":"levelo://app?vid=9a7c2dc7-2180-4633-bc7e-23c0c093b3c2"},"vehicle_type_id":"4","last_reported":1762891877,"current_range_meters":6400,"station_id":"","pricing_plan_id":"cebpf4jnsgd1na2vs0mg"},{"bike_id":"b41e24d8-65c5-426b-bb45-4cabc1a8ec44","system_id":"levelo_inurba_marseille","lat":43.29608,"lon":5.37714,"is_reserved":false,"is_disabled":true,"rental_uris":{"android":"levelo://app?vid=b41e24d8-65c5-426b-bb45-4cabc1a8ec44","ios":"levelo://app?vid=b41e24d8-65c5-426b-bb45-4cabc1a8ec44"},"vehicle_type_id":"4","last_reported":1762891877,"current_range_meters":6400,"station_id":"ce4bgi92rcd13ifvqb90","pricing_plan_id":"cebpf4jnsgd1na2vs0mg"},{"bike_id":"9f6c62a5-a1b7-4108-aa3e-7ee021f6bc65","system_id":"levelo_inurba_marseille","lat":43.28333,"lon":5.38113,"is_reserved":false,"is_disabled":false,"rental_uris":{"android":"levelo://app?vid=9f6c62a5-a1b7-4108-aa3e-7ee021f6bc65","ios":"levelo://app?vid=9f6c62a5-a1b7-4108-aa3e-7ee021f6bc65"},"vehicle_type_id":"4","last_reported":1762891877,"current_range_meters":6400,"station_id":"ce4bh412rcd13ifvqdr0","pricing_plan_id":"cebpf4jnsgd1na2vs0mg"},{"bike_id":"b3724fe1-9df5-4895-9ba9-fbbba5593e5f","system_id":"levelo_inurba_marseille","lat":43.27907,"lon":5.39588,"is_reserved":false,"is_disabled":false,"rental_uris":{"android":"levelo://app?vid=b3724fe1-9df5-4895-9ba9-fbbba5593e5f","ios":"levelo://app?vid=b3724fe1-9df5-4895-9ba9-fbbba5593e5f"},"vehicle_type_id":"4","last_reported":1762891877,"current_range_meters":6800,"station_id":"ce4bhf92rcd13ifvqf40","pricing_plan_id":"cebpf4jnsgd1na2vs0mg"},{"bike_id":"9ade1fe7-d83f-4045-9bd3-74892e77626e","system_id":"levelo_inurba_marseille","lat":43.24083,"lon":5.37757,"is_reserved":false,"is_disabled":true,"rental_uris":{"android":"levelo://app?vid=9ade1fe7-d83f-4045-9bd3-74892e77626e","ios":"levelo://app?vid=9ade1fe7-d83f-4045-9bd3-74892e77626e"},"vehicle_type_id":"4","last_reported":1762891877,"current_range_meters":6800,"station_id":"ce4bhnp2rcd13ifvqgvg","pricing_plan_id":"cebpf4jnsgd1na2vs0mg"},{"bike_id":"d315980f-e55c-4a2b-8743-e45ce3622e8d","system_id":"levelo_inurba_marseille","lat":43.28452,"lon":5.48415,"is_reserved":false,"is_disabled":false,"rental_uris":{"android":"levelo://app?vid=d315980f-e55c-4a2b-8743-e45ce3622e8d","ios":"levelo://app?vid=d315980f-e55c-4a2b-8743-e45ce3622e8d"},"vehicle_type_id":"4","last_reported":1762891877,"current_range_meters":6800,"station_id":"st_d3svhcjqgbts73a3dn0g","pricing_plan_id":"cebpf4jnsgd1na2vs0mg"},{"bike_id":"ae8df7c2-dced-4c87-8be6-83ffc212bba9","system_id":"levelo_inurba_marseille","lat":43.282608,"lon":5.350607,"is_reserved":false,"is_disabled":true,"rental_uris":{"android":"levelo://app?vid=ae8df7c2-dced-4c87-8be6-83ffc212bba9","ios":"levelo://app?vid=ae8df7c2-dced-4c87-8be6-83ffc212bba9"},"vehicle_type_id":"4","last_reported":1762891877,"current_range_meters":6800,"station_id":"ce4bhbp2rcd13ifvqerg","pricing_plan_id":"cebpf4jnsgd1na2vs0mg"},{"bike_id":"f6fdbefe-3a40-47ca-914a-77895baa1fc0","system_id":"levelo_inurba_marseille","lat":43.24076,"lon":5.37746,"is_reserved":false,"is_disabled":false,"rental_uris":{"android":"levelo://app?vid=f6fdbefe-3a40-47ca-914a-77895baa1fc0","ios":"levelo://app?vid=f6fdbefe-3a40-47ca-914a-77895baa1fc0"},"vehicle_type_id":"4","last_reported":1762891877,"current_range_meters":6800,"station_id":"ce4bhnp2rcd13ifvqgvg","pricing_plan_id":"cebpf4jnsgd1na2vs0mg"},{"bike_id":"a8b59da6-3f08-4943-ba0d-ba12842ac9ed","system_id":"levelo_inurba_marseille","lat":43.295501,"lon":5.423021,"is_reserved":false,"is_disabled":false,"rental_uris":{"android":"levelo://app?vid=a8b59da6-3f08-4943-ba0d-ba12842ac9ed","ios":"levelo://app?vid=a8b59da6-3f08-4943-ba0d-ba12842ac9ed"},"vehicle_type_id":"4","last_reported":1762891877,"current_range_meters":6800,"station_id":"ce4bho92rcd13ifvqh3g","pricing_plan_id":"cebpf4jnsgd1na2vs0mg"},{"bike_id":"49105566-0132-4b8c-a6c2-df0cf8a01e10","system_id":"levelo_inurba_marseille","lat":43.29176,"lon":5.39325,"is_reserved":false,"is_disabled":false,"rental_uris":{"android":"levelo://app?vid=49105566-0132-4b8c-a6c2-df0cf8a01e10","ios":"levelo://app?vid=49105566-0132-4b8c-a6c2-df0cf8a01e10"},"vehicle_type_id":"4","last_reported":1762891877,"current_range_meters":6800,"station_id":"ce4bh192rcd13ifvqdd0","pricing_plan_id":"cebpf4jnsgd1na2vs0mg"},{"bike_id":"99f555dd-b87a-4899-bc4d-afec626c1e28","system_id":"levelo_inurba_marseille","lat":43.28472,"lon":5.48402,"is_reserved":false,"is_disabled":false,"rental_uris":{"android":"levelo://app?vid=99f555dd-b87a-4899-bc4d-afec626c1e28","ios":"levelo://app?vid=99f555dd-b87a-4899-bc4d-afec626c1e28"},"vehicle_type_id":"4","last_reported":1762891877,"current_range_meters":6800,"station_id":"","pricing_plan_id":"cebpf4jnsgd1na2vs0mg"},{"bike_id":"272ec4df-f760-4b78-b278-d4935816cd67","system_id":"levelo_inurba_marseille","lat":43.23782,"lon":5.36615,"is_reserved":false,"is_disabled":false,"rental_uris":{"android":"levelo://app?vid=272ec4df-f760-4b78-b278-d4935816cd67","ios":"levelo://app?vid=272ec4df-f760-4b78-b278-d4935816cd67"},"vehicle_type_id":"4","last_reported":1762891877,"current_range_meters":6800,"station_id":"st_d3nk18o9ro0c73en2l3g","pricing_plan_id":"cebpf4jnsgd1na2vs0mg"},{"bike_id":"349b2ad9-adea-4dd9-9ac9-fffb121b5424","system_id":"levelo_inurba_marseille","lat":43.29892,"lon":5.37537,"is_reserved":false,"is_disabled":false,"rental_uris":{"android":"levelo://app?vid=349b2ad9-adea-4dd9-9ac9-fffb121b5424","ios":"levelo://app?vid=349b2ad9-adea-4dd9-9ac9-fffb121b5424"},"vehicle_type_id":"4","last_reported":1762891877,"current_range_meters":7200,"station_id":"","pricing_plan_id":"cebpf4jnsgd1na2vs0mg"},{"bike_id":"c620c9fc-398f-4dca-8fdd-2b652311235d","system_id":"levelo_inurba_marseille","lat":43.21191,"lon":5.35065,"is_reserved":false,"is_disabled":true,"rental_uris":{"android":"levelo://app?vid=c620c9fc-398f-4dca-8fdd-2b652311235d","ios":"levelo://app?vid=c620c9fc-398f-4dca-8fdd-2b652311235d"},"vehicle_type_id":"4","last_reported":1762891877,"current_range_meters":7200,"station_id":"st_cvj6sg6p6f1abm77japg","pricing_plan_id":"cebpf4jnsgd1na2vs0mg"},{"bike_id":"a6bdf21f-a1d2-4def-a11f-b6f07d15f833","system_id":"levelo_inurba_marseille","lat":43.30086,"lon":5.38262,"is_reserved":false,"is_disabled":false,"rental_uris":{"android":"levelo://app?vid=a6bdf21f-a1d2-4def-a11f-b6f07d15f833","ios":"levelo://app?vid=a6bdf21f-a1d2-4def-a11f-b6f07d15f833"},"vehicle_type_id":"4","last_reported":1762891877,"current_range_meters":7200,"station_id":"","pricing_plan_id":"cebpf4jnsgd1na2vs0mg"},{"bike_id":"bc60032f-6b90-46bd-a6c2-bed6c57fa3bc","system_id":"levelo_inurba_marseille","lat":43.30642,"lon":5.40095,"is_reserved":false,"is_disabled":false,"rental_uris":{"android":"levelo://app?vid=bc60032f-6b90-46bd-a6c2-bed6c57fa3bc","ios":"levelo://app?vid=bc60032f-6b90-46bd-a6c2-bed6c57fa3bc"},"vehicle_type_id":"4","last_reported":1762891877,"current_range_meters":7200,"station_id":"ce4bh112rcd13ifvqda0","pricing_plan_id":"cebpf4jnsgd1na2vs0mg"},{"bike_id":"b2be4fa2-44ee-40dc-acc7-1755c74f1c5d","system_id":"levelo_inurba_marseille","lat":43.29759,"lon":5.411,"is_reserved":false,"is_disabled":false,"rental_uris":{"android":"levelo://app?vid=b2be4fa2-44ee-40dc-acc7-1755c74f1c5d","ios":"levelo://app?vid=b2be4fa2-44ee-40dc-acc7-1755c74f1c5d"},"vehicle_type_id":"4","last_reported":1762891877,"current_range_meters":7200,"station_id":"","pricing_plan_id":"cebpf4jnsgd1na2vs0mg"},{"bike_id":"1648104b-81bc-4751-ace2-e97e844cd43d","system_id":"levelo_inurba_marseille","lat":43.28482,"lon":5.48387,"is_reserved":false,"is_disabled":false,"rental_uris":{"android":"levelo://app?vid=1648104b-81bc-4751-ace2-e97e844cd43d","ios":"levelo://app?vid=1648104b-81bc-4751-ace2-e97e844cd43d"},"vehicle_type_id":"4","last_reported":1762891877,"current_range_meters":7200,"station_id":"st_d3svhcjqgbts73a3dn0g","pricing_plan_id":"cebpf4jnsgd1na2vs0mg"},{"bike_id":"bceed336-5ae1-4c0e-aea7-002ce3176899","system_id":"levelo_inurba_marseille","lat":43.280014,"lon":5.400094,"is_reserved":false,"is_disabled":false,"rental_uris":{"android":"levelo://app?vid=bceed336-5ae1-4c0e-aea7-002ce3176899","ios":"levelo://app?vid=bceed336-5ae1-4c0e-aea7-002ce3176899"},"vehicle_type_id":"4","last_reported":1762891877,"current_range_meters":7200,"station_id":"ce4bho92rcd13ifvqh4g","pricing_plan_id":"cebpf4jnsgd1na2vs0mg"},{"bike_id":"8bd4ee00-4635-4b8f-a93f-5fdca4bf725d","system_id":"levelo_inurba_marseille","lat":43.279392,"lon":5.410475,"is_reserved":false,"is_disabled":false,"rental_uris":{"android":"levelo://app?vid=8bd4ee00-4635-4b8f-a93f-5fdca4bf725d","ios":"levelo://app?vid=8bd4ee00-4635-4b8f-a93f-5fdca4bf725d"},"vehicle_type_id":"4","last_reported":1762891877,"current_range_meters":8000,"station_id":"","pricing_plan_id":"cebpf4jnsgd1na2vs0mg"},{"bike_id":"ad96ece5-6a2f-494c-a1cd-bd2ba6aa3023","system_id":"levelo_inurba_marseille","lat":43.24177,"lon":5.39729,"is_reserved":false,"is_disabled":false,"rental_uris":{"android":"levelo://app?vid=ad96ece5-6a2f-494c-a1cd-bd2ba6aa3023","ios":"levelo://app?vid=ad96ece5-6a2f-494c-a1cd-bd2ba6aa3023"},"vehicle_type_id":"4","last_reported":1762891877,"current_range_meters":8000,"station_id":"ce4bhn12rcd13ifvqgpg","pricing_plan_id":"cebpf4jnsgd1na2vs0mg"},{"bike_id":"6e6913ab-5565-44c2-bf61-26805575b411","system_id":"levelo_inurba_marseille","lat":43.29832,"lon":5.44055,"is_reserved":false,"is_disabled":false,"rental_uris":{"android":"levelo://app?vid=6e6913ab-5565-44c2-bf61-26805575b411","ios":"levelo://app?vid=6e6913ab-5565-44c2-bf61-26805575b411"},"vehicle_type_id":"4","last_reported":1762891877,"current_range_meters":8000,"station_id":"st_d3jp68qikq2c7381ktn0","pricing_plan_id":"cebpf4jnsgd1na2vs0mg"},{"bike_id":"30efddd0-6453-4796-81a6-738ca9aad512","system_id":"levelo_inurba_marseille","lat":43.31055,"lon":5.38695,"is_reserved":false,"is_disabled":true,"rental_uris":{"android":"levelo://app?vid=30efddd0-6453-4796-81a6-738ca9aad512","ios":"levelo://app?vid=30efddd0-6453-4796-81a6-738ca9aad512"},"vehicle_type_id":"4","last_reported":1762891877,"current_range_meters":8000,"station_id":"ce4bgv12rcd13ifvqcp0","pricing_plan_id":"cebpf4jnsgd1na2vs0mg"},{"bike_id":"6aa07b68-711b-419b-97fb-4f0267b95509","system_id":"levelo_inurba_marseille","lat":43.29024,"lon":5.38634,"is_reserved":false,"is_disabled":true,"rental_uris":{"android":"levelo://app?vid=6aa07b68-711b-419b-97fb-4f0267b95509","ios":"levelo://app?vid=6aa07b68-711b-419b-97fb-4f0267b95509"},"vehicle_type_id":"4","last_reported":1762891877,"current_range_meters":8400,"station_id":"ce4bh4p2rcd13ifvqe0g","pricing_plan_id":"cebpf4jnsgd1na2vs0mg"},{"bike_id":"a1255a2c-180a-4a2b-9748-505a1e2de20d","system_id":"levelo_inurba_marseille","lat":43.29251,"lon":5.38445,"is_reserved":false,"is_disabled":false,"rental_uris":{"android":"levelo://app?vid=a1255a2c-180a-4a2b-9748-505a1e2de20d","ios":"levelo://app?vid=a1255a2c-180a-4a2b-9748-505a1e2de20d"},"vehicle_type_id":"4","last_reported":1762891877,"current_range_meters":8400,"station_id":"ce4bh692rcd13ifvqea0","pricing_plan_id":"cebpf4jnsgd1na2vs0mg"},{"bike_id":"507abc34-7943-49b2-b36a-ec52a55f43f7","system_id":"levelo_inurba_marseille","lat":43.24078,"lon":5.37759,"is_reserved":false,"is_disabled":false,"rental_uris":{"android":"levelo://app?vid=507abc34-7943-49b2-b36a-ec52a55f43f7","ios":"levelo://app?vid=507abc34-7943-49b2-b36a-ec52a55f43f7"},"vehicle_type_id":"4","last_reported":1762891877,"current_range_meters":8400,"station_id":"ce4bhnp2rcd13ifvqgvg","pricing_plan_id":"cebpf4jnsgd1na2vs0mg"},{"bike_id":"74c3705e-1b0c-4229-b62c-b37dd5c13ca6","system_id":"levelo_inurba_marseille","lat":43.27937,"lon":5.41049,"is_reserved":false,"is_disabled":false,"rental_uris":{"android":"levelo://app?vid=74c3705e-1b0c-4229-b62c-b37dd5c13ca6","ios":"levelo://app?vid=74c3705e-1b0c-4229-b62c-b37dd5c13ca6"},"vehicle_type_id":"4","last_reported":1762891877,"current_range_meters":8400,"station_id":"ce4bhnp2rcd13ifvqh0g","pricing_plan_id":"cebpf4jnsgd1na2vs0mg"},{"bike_id":"d14a3070-960e-421d-b5dc-419b8cc88005","system_id":"levelo_inurba_marseille","lat":43.31606,"lon":5.37612,"is_reserved":false,"is_disabled":false,"rental_uris":{"android":"levelo://app?vid=d14a3070-960e-421d-b5dc-419b8cc88005","ios":"levelo://app?vid=d14a3070-960e-421d-b5dc-419b8cc88005"},"vehicle_type_id":"4","last_reported":1762891877,"current_range_meters":8400,"station_id":"","pricing_plan_id":"cebpf4jnsgd1na2vs0mg"},{"bike_id":"43f8a306-cc16-404a-8b0e-d12dd17b514a","system_id":"levelo_inurba_marseille","lat":43.29273,"lon":5.38447,"is_reserved":false,"is_disabled":false,"rental_uris":{"android":"levelo://app?vid=43f8a306-cc16-404a-8b0e-d12dd17b514a","ios":"levelo://app?vid=43f8a306-cc16-404a-8b0e-d12dd17b514a"},"vehicle_type_id":"4","last_reported":1762891877,"current_range_meters":8800,"station_id":"ce4bh692rcd13ifvqea0","pricing_plan_id":"cebpf4jnsgd1na2vs0mg"},{"bike_id":"520598b3-96c3-46e0-842d-f88d56b5e32a","system_id":"levelo_inurba_marseille","lat":43.272071,"lon":5.391892,"is_reserved":false,"is_disabled":true,"rental_uris":{"android":"levelo://app?vid=520598b3-96c3-46e0-842d-f88d56b5e32a","ios":"levelo://app?vid=520598b3-96c3-46e0-842d-f88d56b5e32a"},"vehicle_type_id":"4","last_reported":1762891877,"current_range_meters":8800,"station_id":"ce4bhhp2rcd13ifvqfm0","pricing_plan_id":"cebpf4jnsgd1na2vs0mg"},{"bike_id":"0a2dcb04-b73c-44da-be8b-9db8405e24cb","system_id":"levelo_inurba_marseille","lat":43.29257,"lon":5.40906,"is_reserved":false,"is_disabled":false,"rental_uris":{"android":"levelo://app?vid=0a2dcb04-b73c-44da-be8b-9db8405e24cb","ios":"levelo://app?vid=0a2dcb04-b73c-44da-be8b-9db8405e24cb"},"vehicle_type_id":"4","last_reported":1762891877,"current_range_meters":8800,"station_id":"ce4bh192rcd13ifvqdc0","pricing_plan_id":"cebpf4jnsgd1na2vs0mg"},{"bike_id":"e45501cc-3d1e-46df-a086-3efed18eb993","system_id":"levelo_inurba_marseille","lat":43.28243,"lon":5.36522,"is_reserved":false,"is_disabled":false,"rental_uris":{"android":"levelo://app?vid=e45501cc-3d1e-46df-a086-3efed18eb993","ios":"levelo://app?vid=e45501cc-3d1e-46df-a086-3efed18eb993"},"vehicle_type_id":"4","last_reported":1762891877,"current_range_meters":8800,"station_id":"","pricing_plan_id":"cebpf4jnsgd1na2vs0mg"},{"bike_id":"e0467342-2ee8-4c36-aeb9-27d25d94ead5","system_id":"levelo_inurba_marseille","lat":43.28148,"lon":5.42641,"is_reserved":false,"is_disabled":true,"rental_uris":{"android":"levelo://app?vid=e0467342-2ee8-4c36-aeb9-27d25d94ead5","ios":"levelo://app?vid=e0467342-2ee8-4c36-aeb9-27d25d94ead5"},"vehicle_type_id":"4","last_reported":1762891877,"current_range_meters":8800,"station_id":"ce4bhnh2rcd13ifvqgug","pricing_plan_id":"cebpf4jnsgd1na2vs0mg"},{"bike_id":"4b75f4f1-28cd-4ac7-9b5c-b069daf52b29","system_id":"levelo_inurba_marseille","lat":43.31857,"lon":5.37362,"is_reserved":false,"is_disabled":false,"rental_uris":{"android":"levelo://app?vid=4b75f4f1-28cd-4ac7-9b5c-b069daf52b29","ios":"levelo://app?vid=4b75f4f1-28cd-4ac7-9b5c-b069daf52b29"},"vehicle_type_id":"4","last_reported":1762891877,"current_range_meters":9200,"station_id":"","pricing_plan_id":"cebpf4jnsgd1na2vs0mg"},{"bike_id":"65d3e7fc-841e-44a1-a61b-0ed8c6d20ca2","system_id":"levelo_inurba_marseille","lat":43.31693,"lon":5.40439,"is_reserved":false,"is_disabled":false,"rental_uris":{"android":"levelo://app?vid=65d3e7fc-841e-44a1-a61b-0ed8c6d20ca2","ios":"levelo://app?vid=65d3e7fc-841e-44a1-a61b-0ed8c6d20ca2"},"vehicle_type_id":"4","last_reported":1762891877,"current_range_meters":9200,"station_id":"ce4bh012rcd13ifvqd00","pricing_plan_id":"cebpf4jnsgd1na2vs0mg"},{"bike_id":"fbb4adc7-67e1-422c-813d-41c673b2d86f","system_id":"levelo_inurba_marseille","lat":43.24545,"lon":5.39521,"is_reserved":false,"is_disabled":false,"rental_uris":{"android":"levelo://app?vid=fbb4adc7-67e1-422c-813d-41c673b2d86f","ios":"levelo://app?vid=fbb4adc7-67e1-422c-813d-41c673b2d86f"},"vehicle_type_id":"4","last_reported":1762891877,"current_range_meters":9200,"station_id":"ce4bhlp2rcd13ifvqgjg","pricing_plan_id":"cebpf4jnsgd1na2vs0mg"},{"bike_id":"38060efd-ed0d-4fc8-a558-2a407ef2a801","system_id":"levelo_inurba_marseille","lat":43.31694,"lon":5.43676,"is_reserved":false,"is_disabled":false,"rental_uris":{"android":"levelo://app?vid=38060efd-ed0d-4fc8-a558-2a407ef2a801","ios":"levelo://app?vid=38060efd-ed0d-4fc8-a558-2a407ef2a801"},"vehicle_type_id":"4","last_reported":1762891877,"current_range_meters":9600,"station_id":"ce4bhp92rcd13ifvqhcg","pricing_plan_id":"cebpf4jnsgd1na2vs0mg"},{"bike_id":"5bb896f2-dec6-4193-88dc-e86ff5a402fd","system_id":"levelo_inurba_marseille","lat":43.29822,"lon":5.44056,"is_reserved":false,"is_disabled":false,"rental_uris":{"android":"levelo://app?vid=5bb896f2-dec6-4193-88dc-e86ff5a402fd","ios":"levelo://app?vid=5bb896f2-dec6-4193-88dc-e86ff5a402fd"},"vehicle_type_id":"4","last_reported":1762891877,"current_range_meters":9600,"station_id":"st_d3jp68qikq2c7381ktn0","pricing_plan_id":"cebpf4jnsgd1na2vs0mg"},{"bike_id":"4585539a-ba80-465b-83a6-4a31cabac938","system_id":"levelo_inurba_marseille","lat":43.28465,"lon":5.48404,"is_reserved":false,"is_disabled":false,"rental_uris":{"android":"levelo://app?vid=4585539a-ba80-465b-83a6-4a31cabac938","ios":"levelo://app?vid=4585539a-ba80-465b-83a6-4a31cabac938"},"vehicle_type_id":"4","last_reported":1762891877,"current_range_meters":9600,"station_id":"st_d3svhcjqgbts73a3dn0g","pricing_plan_id":"cebpf4jnsgd1na2vs0mg"},{"bike_id":"ddecc36d-ee6d-4544-a364-28c6512b4f94","system_id":"levelo_inurba_marseille","lat":43.25823,"lon":5.39432,"is_reserved":false,"is_disabled":false,"rental_uris":{"android":"levelo://app?vid=ddecc36d-ee6d-4544-a364-28c6512b4f94","ios":"levelo://app?vid=ddecc36d-ee6d-4544-a364-28c6512b4f94"},"vehicle_type_id":"4","last_reported":1762891877,"current_range_meters":9600,"station_id":"ce4bhip2rcd13ifvqft0","pricing_plan_id":"cebpf4jnsgd1na2vs0mg"},{"bike_id":"9cf7695e-ca84-42cb-8f23-6c603ed0b0ce","system_id":"levelo_inurba_marseille","lat":43.27911,"lon":5.39581,"is_reserved":false,"is_disabled":false,"rental_uris":{"android":"levelo://app?vid=9cf7695e-ca84-42cb-8f23-6c603ed0b0ce","ios":"levelo://app?vid=9cf7695e-ca84-42cb-8f23-6c603ed0b0ce"},"vehicle_type_id":"4","last_reported":1762891877,"current_range_meters":10000,"station_id":"ce4bhf92rcd13ifvqf40","pricing_plan_id":"cebpf4jnsgd1na2vs0mg"},{"bike_id":"a36e7767-e025-44af-901e-1d9e213118eb","system_id":"levelo_inurba_marseille","lat":43.29895,"lon":5.43646,"is_reserved":false,"is_disabled":false,"rental_uris":{"android":"levelo://app?vid=a36e7767-e025-44af-901e-1d9e213118eb","ios":"levelo://app?vid=a36e7767-e025-44af-901e-1d9e213118eb"},"vehicle_type_id":"4","last_reported":1762891877,"current_range_meters":10000,"station_id":"ce4bhpp2rcd13ifvqhfg","pricing_plan_id":"cebpf4jnsgd1na2vs0mg"},{"bike_id":"62a14efb-5f7a-4e0d-bbfa-d4a60d07f475","system_id":"levelo_inurba_marseille","lat":43.297426,"lon":5.373005,"is_reserved":false,"is_disabled":false,"rental_uris":{"android":"levelo://app?vid=62a14efb-5f7a-4e0d-bbfa-d4a60d07f475","ios":"levelo://app?vid=62a14efb-5f7a-4e0d-bbfa-d4a60d07f475"},"vehicle_type_id":"4","last_reported":1762891877,"current_range_meters":10000,"station_id":"","pricing_plan_id":"cebpf4jnsgd1na2vs0mg"},{"bike_id":"3b94f323-456c-4adb-814b-461c085a26a2","system_id":"levelo_inurba_marseille","lat":43.27914,"lon":5.39572,"is_reserved":false,"is_disabled":false,"rental_uris":{"android":"levelo://app?vid=3b94f323-456c-4adb-814b-461c085a26a2","ios":"levelo://app?vid=3b94f323-456c-4adb-814b-461c085a26a2"},"vehicle_type_id":"4","last_reported":1762891877,"current_range_meters":10000,"station_id":"ce4bhf92rcd13ifvqf40","pricing_plan_id":"cebpf4jnsgd1na2vs0mg"},{"bike_id":"ba55720e-a746-47fa-9d55-2b227006d988","system_id":"levelo_inurba_marseille","lat":43.28864,"lon":5.42514,"is_reserved":false,"is_disabled":false,"rental_uris":{"android":"levelo://app?vid=ba55720e-a746-47fa-9d55-2b227006d988","ios":"levelo://app?vid=ba55720e-a746-47fa-9d55-2b227006d988"},"vehicle_type_id":"4","last_reported":1762891877,"current_range_meters":10000,"station_id":"st_d3b462108ojc7389ooeg","pricing_plan_id":"cebpf4jnsgd1na2vs0mg"},{"bike_id":"f66fdcb4-acc8-4a90-88ec-9926db65e0d3","system_id":"levelo_inurba_marseille","lat":43.28039,"lon":5.369439,"is_reserved":false,"is_disabled":false,"rental_uris":{"android":"levelo://app?vid=f66fdcb4-acc8-4a90-88ec-9926db65e0d3","ios":"levelo://app?vid=f66fdcb4-acc8-4a90-88ec-9926db65e0d3"},"vehicle_type_id":"4","last_reported":1762891877,"current_range_meters":10000,"station_id":"ce4bha12rcd13ifvqef0","pricing_plan_id":"cebpf4jnsgd1na2vs0mg"},{"bike_id":"1a6a1541-946d-47b6-aa3b-4ba55712d39e","system_id":"levelo_inurba_marseille","lat":43.29306,"lon":5.37468,"is_reserved":false,"is_disabled":false,"rental_uris":{"android":"levelo://app?vid=1a6a1541-946d-47b6-aa3b-4ba55712d39e","ios":"levelo://app?vid=1a6a1541-946d-47b6-aa3b-4ba55712d39e"},"vehicle_type_id":"4","last_reported":1762891877,"current_range_meters":10800,"station_id":"ce4bgi12rcd13ifvqb70","pricing_plan_id":"cebpf4jnsgd1na2vs0mg"},{"bike_id":"29e2584a-230c-452d-979b-14506e060750","system_id":"levelo_inurba_marseille","lat":43.28734,"lon":5.36085,"is_reserved":false,"is_disabled":false,"rental_uris":{"android":"levelo://app?vid=29e2584a-230c-452d-979b-14506e060750","ios":"levelo://app?vid=29e2584a-230c-452d-979b-14506e060750"},"vehicle_type_id":"4","last_reported":1762891877,"current_range_meters":10800,"station_id":"cki0cbj6b192h4jlfktg","pricing_plan_id":"cebpf4jnsgd1na2vs0mg"},{"bike_id":"efaa45f3-2d54-4179-9f6a-aa19d3d9a94f","system_id":"levelo_inurba_marseille","lat":43.29937,"lon":5.36567,"is_reserved":false,"is_disabled":false,"rental_uris":{"android":"levelo://app?vid=efaa45f3-2d54-4179-9f6a-aa19d3d9a94f","ios":"levelo://app?vid=efaa45f3-2d54-4179-9f6a-aa19d3d9a94f"},"vehicle_type_id":"4","last_reported":1762891877,"current_range_meters":10800,"station_id":"ce4bgm92rcd13ifvqbr0","pricing_plan_id":"cebpf4jnsgd1na2vs0mg"},{"bike_id":"2fcf4d3c-a434-44fa-9a40-f1656fc70881","system_id":"levelo_inurba_marseille","lat":43.27674,"lon":5.38908,"is_reserved":false,"is_disabled":false,"rental_uris":{"android":"levelo://app?vid=2fcf4d3c-a434-44fa-9a40-f1656fc70881","ios":"levelo://app?vid=2fcf4d3c-a434-44fa-9a40-f1656fc70881"},"vehicle_type_id":"4","last_reported":1762891877,"current_range_meters":10800,"station_id":"ce4bhi12rcd13ifvqfo0","pricing_plan_id":"cebpf4jnsgd1na2vs0mg"},{"bike_id":"80b08912-5c5c-477a-8ae7-5e4dcb821efd","system_id":"levelo_inurba_marseille","lat":43.29268,"lon":5.38437,"is_reserved":false,"is_disabled":false,"rental_uris":{"android":"levelo://app?vid=80b08912-5c5c-477a-8ae7-5e4dcb821efd","ios":"levelo://app?vid=80b08912-5c5c-477a-8ae7-5e4dcb821efd"},"vehicle_type_id":"4","last_reported":1762891877,"current_range_meters":10800,"station_id":"ce4bh692rcd13ifvqea0","pricing_plan_id":"cebpf4jnsgd1na2vs0mg"},{"bike_id":"38c922e6-37cd-47dc-af88-f07475112c2a","system_id":"levelo_inurba_marseille","lat":43.32134,"lon":5.38842,"is_reserved":false,"is_disabled":false,"rental_uris":{"android":"levelo://app?vid=38c922e6-37cd-47dc-af88-f07475112c2a","ios":"levelo://app?vid=38c922e6-37cd-47dc-af88-f07475112c2a"},"vehicle_type_id":"4","last_reported":1762891877,"current_range_meters":10800,"station_id":"","pricing_plan_id":"cebpf4jnsgd1na2vs0mg"},{"bike_id":"14abd541-9f79-4003-92ba-768bbbd06bb6","system_id":"levelo_inurba_marseille","lat":43.30386,"lon":5.42464,"is_reserved":false,"is_disabled":false,"rental_uris":{"android":"levelo://app?vid=14abd541-9f79-4003-92ba-768bbbd06bb6","ios":"levelo://app?vid=14abd541-9f79-4003-92ba-768bbbd06bb6"},"vehicle_type_id":"4","last_reported":1762891877,"current_range_meters":10800,"station_id":"ce4bhoh2rcd13ifvqh6g","pricing_plan_id":"cebpf4jnsgd1na2vs0mg"},{"bike_id":"007b1ae9-a09c-441f-9e7c-48bd56d0ddbe","system_id":"levelo_inurba_marseille","lat":43.26221,"lon":5.40466,"is_reserved":false,"is_disabled":false,"rental_uris":{"android":"levelo://app?vid=007b1ae9-a09c-441f-9e7c-48bd56d0ddbe","ios":"levelo://app?vid=007b1ae9-a09c-441f-9e7c-48bd56d0ddbe"},"vehicle_type_id":"4","last_reported":1762891877,"current_range_meters":10800,"station_id":"ce4bhmh2rcd13ifvqgmg","pricing_plan_id":"cebpf4jnsgd1na2vs0mg"},{"bike_id":"1960523f-0a6e-4b30-80d9-f332576b8781","system_id":"levelo_inurba_marseille","lat":43.30591,"lon":5.39358,"is_reserved":false,"is_disabled":false,"rental_uris":{"android":"levelo://app?vid=1960523f-0a6e-4b30-80d9-f332576b8781","ios":"levelo://app?vid=1960523f-0a6e-4b30-80d9-f332576b8781"},"vehicle_type_id":"4","last_reported":1762891877,"current_range_meters":10800,"station_id":"ce4bh0p2rcd13ifvqd80","pricing_plan_id":"cebpf4jnsgd1na2vs0mg"},{"bike_id":"3871ebcf-4a28-4b22-beb9-9220e15dd9fe","system_id":"levelo_inurba_marseille","lat":43.28476,"lon":5.48395,"is_reserved":false,"is_disabled":false,"rental_uris":{"android":"levelo://app?vid=3871ebcf-4a28-4b22-beb9-9220e15dd9fe","ios":"levelo://app?vid=3871ebcf-4a28-4b22-beb9-9220e15dd9fe"},"vehicle_type_id":"4","last_reported":1762891877,"current_range_meters":10800,"station_id":"st_d3svhcjqgbts73a3dn0g","pricing_plan_id":"cebpf4jnsgd1na2vs0mg"},{"bike_id":"75026184-39d3-4407-a2f5-f0473b7dfb4b","system_id":"levelo_inurba_marseille","lat":43.29588,"lon":5.38103,"is_reserved":false,"is_disabled":false,"rental_uris":{"android":"levelo://app?vid=75026184-39d3-4407-a2f5-f0473b7dfb4b","ios":"levelo://app?vid=75026184-39d3-4407-a2f5-f0473b7dfb4b"},"vehicle_type_id":"4","last_reported":1762891877,"current_range_meters":10800,"station_id":"ce4bgl12rcd13ifvqbo0","pricing_plan_id":"cebpf4jnsgd1na2vs0mg"},{"bike_id":"9f2f73eb-460f-4216-bb9a-409d3f7b0145","system_id":"levelo_inurba_marseille","lat":43.27828,"lon":5.39208,"is_reserved":false,"is_disabled":false,"rental_uris":{"android":"levelo://app?vid=9f2f73eb-460f-4216-bb9a-409d3f7b0145","ios":"levelo://app?vid=9f2f73eb-460f-4216-bb9a-409d3f7b0145"},"vehicle_type_id":"4","last_reported":1762891877,"current_range_meters":10800,"station_id":"ce4bhjp2rcd13ifvqga0","pricing_plan_id":"cebpf4jnsgd1na2vs0mg"},{"bike_id":"d54952de-c2c9-4463-b55a-b35b39e9463c","system_id":"levelo_inurba_marseille","lat":43.29826,"lon":5.44047,"is_reserved":false,"is_disabled":false,"rental_uris":{"android":"levelo://app?vid=d54952de-c2c9-4463-b55a-b35b39e9463c","ios":"levelo://app?vid=d54952de-c2c9-4463-b55a-b35b39e9463c"},"vehicle_type_id":"4","last_reported":1762891877,"current_range_meters":10800,"station_id":"st_d3jp68qikq2c7381ktn0","pricing_plan_id":"cebpf4jnsgd1na2vs0mg"},{"bike_id":"1b5be03e-768e-46f0-b152-16af9f81cff1","system_id":"levelo_inurba_marseille","lat":43.309322,"lon":5.401366,"is_reserved":false,"is_disabled":true,"rental_uris":{"android":"levelo://app?vid=1b5be03e-768e-46f0-b152-16af9f81cff1","ios":"levelo://app?vid=1b5be03e-768e-46f0-b152-16af9f81cff1"},"vehicle_type_id":"4","last_reported":1762891877,"current_range_meters":11200,"station_id":"","pricing_plan_id":"cebpf4jnsgd1na2vs0mg"},{"bike_id":"172a1479-a5a8-4a14-96d6-945fbc77b377","system_id":"levelo_inurba_marseille","lat":43.31988,"lon":5.38134,"is_reserved":false,"is_disabled":false,"rental_uris":{"android":"levelo://app?vid=172a1479-a5a8-4a14-96d6-945fbc77b377","ios":"levelo://app?vid=172a1479-a5a8-4a14-96d6-945fbc77b377"},"vehicle_type_id":"4","last_reported":1762891877,"current_range_meters":11200,"station_id":"ce4bhr12rcd13ifvqhpg","pricing_plan_id":"cebpf4jnsgd1na2vs0mg"},{"bike_id":"47cd0c06-a0e9-420e-9fe4-e791c8f6fe66","system_id":"levelo_inurba_marseille","lat":43.31364,"lon":5.38492,"is_reserved":false,"is_disabled":false,"rental_uris":{"android":"levelo://app?vid=47cd0c06-a0e9-420e-9fe4-e791c8f6fe66","ios":"levelo://app?vid=47cd0c06-a0e9-420e-9fe4-e791c8f6fe66"},"vehicle_type_id":"4","last_reported":1762891877,"current_range_meters":11200,"station_id":"ce4bgt92rcd13ifvqcf0","pricing_plan_id":"cebpf4jnsgd1na2vs0mg"},{"bike_id":"4a8ea99f-b39a-401a-9c8e-0832b530973f","system_id":"levelo_inurba_marseille","lat":43.28428,"lon":5.37517,"is_reserved":false,"is_disabled":false,"rental_uris":{"android":"levelo://app?vid=4a8ea99f-b39a-401a-9c8e-0832b530973f","ios":"levelo://app?vid=4a8ea99f-b39a-401a-9c8e-0832b530973f"},"vehicle_type_id":"4","last_reported":1762891877,"current_range_meters":11200,"station_id":"ce4bh412rcd13ifvqds0","pricing_plan_id":"cebpf4jnsgd1na2vs0mg"},{"bike_id":"36747a50-2956-4552-b2f1-0e3eebcc0f69","system_id":"levelo_inurba_marseille","lat":43.302638,"lon":5.40076,"is_reserved":false,"is_disabled":false,"rental_uris":{"android":"levelo://app?vid=36747a50-2956-4552-b2f1-0e3eebcc0f69","ios":"levelo://app?vid=36747a50-2956-4552-b2f1-0e3eebcc0f69"},"vehicle_type_id":"4","last_reported":1762891877,"current_range_meters":11600,"station_id":"ce4bgvh2rcd13ifvqcs0","pricing_plan_id":"cebpf4jnsgd1na2vs0mg"},{"bike_id":"69bcc9c9-16ef-4b05-a281-a3669c844e4b","system_id":"levelo_inurba_marseille","lat":43.22531,"lon":5.34843,"is_reserved":false,"is_disabled":false,"rental_uris":{"android":"levelo://app?vid=69bcc9c9-16ef-4b05-a281-a3669c844e4b","ios":"levelo://app?vid=69bcc9c9-16ef-4b05-a281-a3669c844e4b"},"vehicle_type_id":"4","last_reported":1762891877,"current_range_meters":11600,"station_id":"","pricing_plan_id":"cebpf4jnsgd1na2vs0mg"},{"bike_id":"722f7e0f-46d9-4be9-997c-6a53c83a7527","system_id":"levelo_inurba_marseille","lat":43.28052,"lon":5.36977,"is_reserved":false,"is_disabled":true,"rental_uris":{"android":"levelo://app?vid=722f7e0f-46d9-4be9-997c-6a53c83a7527","ios":"levelo://app?vid=722f7e0f-46d9-4be9-997c-6a53c83a7527"},"vehicle_type_id":"4","last_reported":1762891877,"current_range_meters":11600,"station_id":"ce4bha12rcd13ifvqef0","pricing_plan_id":"cebpf4jnsgd1na2vs0mg"},{"bike_id":"035e03df-e41b-4cf7-9eb1-51683218cb2e","system_id":"levelo_inurba_marseille","lat":43.295184,"lon":5.393972,"is_reserved":false,"is_disabled":false,"rental_uris":{"android":"levelo://app?vid=035e03df-e41b-4cf7-9eb1-51683218cb2e","ios":"levelo://app?vid=035e03df-e41b-4cf7-9eb1-51683218cb2e"},"vehicle_type_id":"4","last_reported":1762891877,"current_range_meters":11600,"station_id":"ce4bh292rcd13ifvqdf0","pricing_plan_id":"cebpf4jnsgd1na2vs0mg"},{"bike_id":"dc9399a6-68ac-4bce-a28c-89dbbb7d0681","system_id":"levelo_inurba_marseille","lat":43.28768,"lon":5.4083,"is_reserved":false,"is_disabled":true,"rental_uris":{"android":"levelo://app?vid=dc9399a6-68ac-4bce-a28c-89dbbb7d0681","ios":"levelo://app?vid=dc9399a6-68ac-4bce-a28c-89dbbb7d0681"},"vehicle_type_id":"4","last_reported":1762891877,"current_range_meters":11600,"station_id":"","pricing_plan_id":"cebpf4jnsgd1na2vs0mg"},{"bike_id":"1a6a7a0d-3623-4067-a42c-7b7e33091716","system_id":"levelo_inurba_marseille","lat":43.249984,"lon":5.389362,"is_reserved":false,"is_disabled":false,"rental_uris":{"android":"levelo://app?vid=1a6a7a0d-3623-4067-a42c-7b7e33091716","ios":"levelo://app?vid=1a6a7a0d-3623-4067-a42c-7b7e33091716"},"vehicle_type_id":"4","last_reported":1762891877,"current_range_meters":11600,"station_id":"ce4bhgp2rcd13ifvqfd0","pricing_plan_id":"cebpf4jnsgd1na2vs0mg"},{"bike_id":"db778521-cad3-4ccf-bc35-f85097ba2056","system_id":"levelo_inurba_marseille","lat":43.2958,"lon":5.37516,"is_reserved":false,"is_disabled":false,"rental_uris":{"android":"levelo://app?vid=db778521-cad3-4ccf-bc35-f85097ba2056","ios":"levelo://app?vid=db778521-cad3-4ccf-bc35-f85097ba2056"},"vehicle_type_id":"4","last_reported":1762891877,"current_range_meters":12000,"station_id":"ce4bgh92rcd13ifvqb50","pricing_plan_id":"cebpf4jnsgd1na2vs0mg"},{"bike_id":"1672cbaa-9e3d-4da1-8d5e-1feca2a793a1","system_id":"levelo_inurba_marseille","lat":43.29278,"lon":5.3684,"is_reserved":false,"is_disabled":false,"rental_uris":{"android":"levelo://app?vid=1672cbaa-9e3d-4da1-8d5e-1feca2a793a1","ios":"levelo://app?vid=1672cbaa-9e3d-4da1-8d5e-1feca2a793a1"},"vehicle_type_id":"4","last_reported":1762891877,"current_range_meters":12000,"station_id":"ce4bhbp2rcd13ifvqesg","pricing_plan_id":"cebpf4jnsgd1na2vs0mg"},{"bike_id":"5a04390a-ad60-4fd6-bcf6-e75b8899a404","system_id":"levelo_inurba_marseille","lat":43.29037,"lon":5.3996,"is_reserved":false,"is_disabled":true,"rental_uris":{"android":"levelo://app?vid=5a04390a-ad60-4fd6-bcf6-e75b8899a404","ios":"levelo://app?vid=5a04390a-ad60-4fd6-bcf6-e75b8899a404"},"vehicle_type_id":"4","last_reported":1762891877,"current_range_meters":12000,"station_id":"ce4bh392rcd13ifvqdm0","pricing_plan_id":"cebpf4jnsgd1na2vs0mg"},{"bike_id":"ac571466-1dc3-4aea-b277-4afec8514b82","system_id":"levelo_inurba_marseille","lat":43.27959,"lon":5.4101,"is_reserved":false,"is_disabled":false,"rental_uris":{"android":"levelo://app?vid=ac571466-1dc3-4aea-b277-4afec8514b82","ios":"levelo://app?vid=ac571466-1dc3-4aea-b277-4afec8514b82"},"vehicle_type_id":"4","last_reported":1762891877,"current_range_meters":12000,"station_id":"ce4bhnp2rcd13ifvqh0g","pricing_plan_id":"cebpf4jnsgd1na2vs0mg"},{"bike_id":"1f21ee45-6931-4200-84a0-9c6481a03663","system_id":"levelo_inurba_marseille","lat":43.25332,"lon":5.42177,"is_reserved":false,"is_disabled":false,"rental_uris":{"android":"levelo://app?vid=1f21ee45-6931-4200-84a0-9c6481a03663","ios":"levelo://app?vid=1f21ee45-6931-4200-84a0-9c6481a03663"},"vehicle_type_id":"4","last_reported":1762891877,"current_range_meters":12000,"station_id":"st_d2m65c5bi1j21697t3ng","pricing_plan_id":"cebpf4jnsgd1na2vs0mg"},{"bike_id":"04935db2-89a8-46cb-ab55-c0732784dac5","system_id":"levelo_inurba_marseille","lat":43.29264,"lon":5.38446,"is_reserved":false,"is_disabled":false,"rental_uris":{"android":"levelo://app?vid=04935db2-89a8-46cb-ab55-c0732784dac5","ios":"levelo://app?vid=04935db2-89a8-46cb-ab55-c0732784dac5"},"vehicle_type_id":"4","last_reported":1762891877,"current_range_meters":12400,"station_id":"ce4bh692rcd13ifvqea0","pricing_plan_id":"cebpf4jnsgd1na2vs0mg"},{"bike_id":"b9f893f5-d17f-41db-9804-1587bbbfae53","system_id":"levelo_inurba_marseille","lat":43.31688,"lon":5.40467,"is_reserved":false,"is_disabled":false,"rental_uris":{"android":"levelo://app?vid=b9f893f5-d17f-41db-9804-1587bbbfae53","ios":"levelo://app?vid=b9f893f5-d17f-41db-9804-1587bbbfae53"},"vehicle_type_id":"4","last_reported":1762891877,"current_range_meters":12400,"station_id":"ce4bh012rcd13ifvqd00","pricing_plan_id":"cebpf4jnsgd1na2vs0mg"},{"bike_id":"a4fa6491-252e-4621-9e69-e4232817646e","system_id":"levelo_inurba_marseille","lat":43.29585,"lon":5.38062,"is_reserved":false,"is_disabled":false,"rental_uris":{"android":"levelo://app?vid=a4fa6491-252e-4621-9e69-e4232817646e","ios":"levelo://app?vid=a4fa6491-252e-4621-9e69-e4232817646e"},"vehicle_type_id":"4","last_reported":1762891877,"current_range_meters":12400,"station_id":"ce4bgl12rcd13ifvqbo0","pricing_plan_id":"cebpf4jnsgd1na2vs0mg"},{"bike_id":"a1fde1f4-1860-4e49-88db-aacdf02b72c8","system_id":"levelo_inurba_marseille","lat":43.251,"lon":5.40338,"is_reserved":false,"is_disabled":true,"rental_uris":{"android":"levelo://app?vid=a1fde1f4-1860-4e49-88db-aacdf02b72c8","ios":"levelo://app?vid=a1fde1f4-1860-4e49-88db-aacdf02b72c8"},"vehicle_type_id":"4","last_reported":1762891877,"current_range_meters":12400,"station_id":"ce4bhlh2rcd13ifvqgig","pricing_plan_id":"cebpf4jnsgd1na2vs0mg"},{"bike_id":"1a76271a-206d-4efb-a82f-6a45ff76d141","system_id":"levelo_inurba_marseille","lat":43.28934,"lon":5.36641,"is_reserved":false,"is_disabled":false,"rental_uris":{"android":"levelo://app?vid=1a76271a-206d-4efb-a82f-6a45ff76d141","ios":"levelo://app?vid=1a76271a-206d-4efb-a82f-6a45ff76d141"},"vehicle_type_id":"4","last_reported":1762891877,"current_range_meters":12400,"station_id":"ce4bhap2rcd13ifvqek0","pricing_plan_id":"cebpf4jnsgd1na2vs0mg"},{"bike_id":"59de35a0-d792-4236-a994-f94e0f0c2ffc","system_id":"levelo_inurba_marseille","lat":43.286565,"lon":5.385602,"is_reserved":false,"is_disabled":false,"rental_uris":{"android":"levelo://app?vid=59de35a0-d792-4236-a994-f94e0f0c2ffc","ios":"levelo://app?vid=59de35a0-d792-4236-a994-f94e0f0c2ffc"},"vehicle_type_id":"4","last_reported":1762891877,"current_range_meters":12400,"station_id":"ce4bgj92rcd13ifvqbd0","pricing_plan_id":"cebpf4jnsgd1na2vs0mg"},{"bike_id":"8c4f22e8-8f17-4ae5-95d0-b42925f35d5e","system_id":"levelo_inurba_marseille","lat":43.28487,"lon":5.48382,"is_reserved":false,"is_disabled":false,"rental_uris":{"android":"levelo://app?vid=8c4f22e8-8f17-4ae5-95d0-b42925f35d5e","ios":"levelo://app?vid=8c4f22e8-8f17-4ae5-95d0-b42925f35d5e"},"vehicle_type_id":"4","last_reported":1762891877,"current_range_meters":12400,"station_id":"","pricing_plan_id":"cebpf4jnsgd1na2vs0mg"},{"bike_id":"b245a3be-a57e-4cbf-8322-e75d97ee7e98","system_id":"levelo_inurba_marseille","lat":43.275634,"lon":5.384245,"is_reserved":false,"is_disabled":false,"rental_uris":{"android":"levelo://app?vid=b245a3be-a57e-4cbf-8322-e75d97ee7e98","ios":"levelo://app?vid=b245a3be-a57e-4cbf-8322-e75d97ee7e98"},"vehicle_type_id":"4","last_reported":1762891877,"current_range_meters":12400,"station_id":"ce4bhh92rcd13ifvqfi0","pricing_plan_id":"cebpf4jnsgd1na2vs0mg"},{"bike_id":"b168279c-966e-4f97-8577-f8c06e3e1119","system_id":"levelo_inurba_marseille","lat":43.29257,"lon":5.38446,"is_reserved":false,"is_disabled":false,"rental_uris":{"android":"levelo://app?vid=b168279c-966e-4f97-8577-f8c06e3e1119","ios":"levelo://app?vid=b168279c-966e-4f97-8577-f8c06e3e1119"},"vehicle_type_id":"4","last_reported":1762891877,"current_range_meters":12800,"station_id":"ce4bh692rcd13ifvqea0","pricing_plan_id":"cebpf4jnsgd1na2vs0mg"},{"bike_id":"6c695009-8d57-4f14-b25e-253cf9de0b52","system_id":"levelo_inurba_marseille","lat":43.313242,"lon":5.396881,"is_reserved":false,"is_disabled":false,"rental_uris":{"android":"levelo://app?vid=6c695009-8d57-4f14-b25e-253cf9de0b52","ios":"levelo://app?vid=6c695009-8d57-4f14-b25e-253cf9de0b52"},"vehicle_type_id":"4","last_reported":1762891877,"current_range_meters":12800,"station_id":"ce4bgvp2rcd13ifvqcu0","pricing_plan_id":"cebpf4jnsgd1na2vs0mg"},{"bike_id":"84aade2c-4b39-4bce-814f-cfa3d6ed46f7","system_id":"levelo_inurba_marseille","lat":43.28459,"lon":5.48415,"is_reserved":false,"is_disabled":false,"rental_uris":{"android":"levelo://app?vid=84aade2c-4b39-4bce-814f-cfa3d6ed46f7","ios":"levelo://app?vid=84aade2c-4b39-4bce-814f-cfa3d6ed46f7"},"vehicle_type_id":"4","last_reported":1762891877,"current_range_meters":12800,"station_id":"st_d3svhcjqgbts73a3dn0g","pricing_plan_id":"cebpf4jnsgd1na2vs0mg"},{"bike_id":"28e36cd3-4665-4002-a55e-04a45eaa3992","system_id":"levelo_inurba_marseille","lat":43.33161,"lon":5.37667,"is_reserved":false,"is_disabled":false,"rental_uris":{"android":"levelo://app?vid=28e36cd3-4665-4002-a55e-04a45eaa3992","ios":"levelo://app?vid=28e36cd3-4665-4002-a55e-04a45eaa3992"},"vehicle_type_id":"4","last_reported":1762891877,"current_range_meters":12800,"station_id":"st_d46cu089ee8s73dldbu0","pricing_plan_id":"cebpf4jnsgd1na2vs0mg"},{"bike_id":"6eb76fe4-d521-45ac-b954-f34c4b3e34b6","system_id":"levelo_inurba_marseille","lat":43.27653,"lon":5.3892,"is_reserved":false,"is_disabled":false,"rental_uris":{"android":"levelo://app?vid=6eb76fe4-d521-45ac-b954-f34c4b3e34b6","ios":"levelo://app?vid=6eb76fe4-d521-45ac-b954-f34c4b3e34b6"},"vehicle_type_id":"4","last_reported":1762891877,"current_range_meters":12800,"station_id":"ce4bhi12rcd13ifvqfo0","pricing_plan_id":"cebpf4jnsgd1na2vs0mg"},{"bike_id":"2a2eaddf-734b-4280-b7dd-77194534aa95","system_id":"levelo_inurba_marseille","lat":43.29248,"lon":5.38439,"is_reserved":false,"is_disabled":false,"rental_uris":{"android":"levelo://app?vid=2a2eaddf-734b-4280-b7dd-77194534aa95","ios":"levelo://app?vid=2a2eaddf-734b-4280-b7dd-77194534aa95"},"vehicle_type_id":"4","last_reported":1762891877,"current_range_meters":12800,"station_id":"ce4bh692rcd13ifvqea0","pricing_plan_id":"cebpf4jnsgd1na2vs0mg"},{"bike_id":"b259621f-2fe6-4b30-92e0-2292fee32f1f","system_id":"levelo_inurba_marseille","lat":43.2804,"lon":5.36939,"is_reserved":false,"is_disabled":true,"rental_uris":{"android":"levelo://app?vid=b259621f-2fe6-4b30-92e0-2292fee32f1f","ios":"levelo://app?vid=b259621f-2fe6-4b30-92e0-2292fee32f1f"},"vehicle_type_id":"4","last_reported":1762891877,"current_range_meters":12800,"station_id":"ce4bha12rcd13ifvqef0","pricing_plan_id":"cebpf4jnsgd1na2vs0mg"},{"bike_id":"445699dd-a363-445d-97c0-01dd3cb01644","system_id":"levelo_inurba_marseille","lat":43.28009,"lon":5.40003,"is_reserved":false,"is_disabled":false,"rental_uris":{"android":"levelo://app?vid=445699dd-a363-445d-97c0-01dd3cb01644","ios":"levelo://app?vid=445699dd-a363-445d-97c0-01dd3cb01644"},"vehicle_type_id":"4","last_reported":1762891877,"current_range_meters":12800,"station_id":"ce4bho92rcd13ifvqh4g","pricing_plan_id":"cebpf4jnsgd1na2vs0mg"},{"bike_id":"63a93af9-98d9-4fd8-823e-565cc55bf0a6","system_id":"levelo_inurba_marseille","lat":43.29269,"lon":5.37602,"is_reserved":false,"is_disabled":false,"rental_uris":{"android":"levelo://app?vid=63a93af9-98d9-4fd8-823e-565cc55bf0a6","ios":"levelo://app?vid=63a93af9-98d9-4fd8-823e-565cc55bf0a6"},"vehicle_type_id":"4","last_reported":1762891877,"current_range_meters":13600,"station_id":"ce4bgi12rcd13ifvqb80","pricing_plan_id":"cebpf4jnsgd1na2vs0mg"},{"bike_id":"f12f0f0f-1f34-4c6f-9217-a6281a182a4b","system_id":"levelo_inurba_marseille","lat":43.27619,"lon":5.36104,"is_reserved":false,"is_disabled":false,"rental_uris":{"android":"levelo://app?vid=f12f0f0f-1f34-4c6f-9217-a6281a182a4b","ios":"levelo://app?vid=f12f0f0f-1f34-4c6f-9217-a6281a182a4b"},"vehicle_type_id":"4","last_reported":1762891877,"current_range_meters":13600,"station_id":"ce4bgj92rcd13ifvqbe0","pricing_plan_id":"cebpf4jnsgd1na2vs0mg"},{"bike_id":"76fc4c63-a0f2-44a8-a895-ca7619257281","system_id":"levelo_inurba_marseille","lat":43.29588,"lon":5.3809,"is_reserved":false,"is_disabled":false,"rental_uris":{"android":"levelo://app?vid=76fc4c63-a0f2-44a8-a895-ca7619257281","ios":"levelo://app?vid=76fc4c63-a0f2-44a8-a895-ca7619257281"},"vehicle_type_id":"4","last_reported":1762891877,"current_range_meters":13600,"station_id":"ce4bgl12rcd13ifvqbo0","pricing_plan_id":"cebpf4jnsgd1na2vs0mg"},{"bike_id":"5060f8f6-0031-402d-8dcb-99bab37eaa46","system_id":"levelo_inurba_marseille","lat":43.31686,"lon":5.40475,"is_reserved":false,"is_disabled":false,"rental_uris":{"android":"levelo://app?vid=5060f8f6-0031-402d-8dcb-99bab37eaa46","ios":"levelo://app?vid=5060f8f6-0031-402d-8dcb-99bab37eaa46"},"vehicle_type_id":"4","last_reported":1762891877,"current_range_meters":13600,"station_id":"ce4bh012rcd13ifvqd00","pricing_plan_id":"cebpf4jnsgd1na2vs0mg"},{"bike_id":"c3d54e2e-34c7-4083-996e-d27e15abb20b","system_id":"levelo_inurba_marseille","lat":43.31715,"lon":5.40419,"is_reserved":false,"is_disabled":false,"rental_uris":{"android":"levelo://app?vid=c3d54e2e-34c7-4083-996e-d27e15abb20b","ios":"levelo://app?vid=c3d54e2e-34c7-4083-996e-d27e15abb20b"},"vehicle_type_id":"4","last_reported":1762891877,"current_range_meters":13600,"station_id":"","pricing_plan_id":"cebpf4jnsgd1na2vs0mg"},{"bike_id":"c6763638-001a-40c0-bbcd-fdc6def62fa2","system_id":"levelo_inurba_marseille","lat":43.292694,"lon":5.378577,"is_reserved":false,"is_disabled":false,"rental_uris":{"android":"levelo://app?vid=c6763638-001a-40c0-bbcd-fdc6def62fa2","ios":"levelo://app?vid=c6763638-001a-40c0-bbcd-fdc6def62fa2"},"vehicle_type_id":"4","last_reported":1762891877,"current_range_meters":13600,"station_id":"ce4bgjh2rcd13ifvqbf0","pricing_plan_id":"cebpf4jnsgd1na2vs0mg"},{"bike_id":"b700749c-e8e2-432d-a1e8-7c81164c57a8","system_id":"levelo_inurba_marseille","lat":43.28004,"lon":5.40001,"is_reserved":false,"is_disabled":false,"rental_uris":{"android":"levelo://app?vid=b700749c-e8e2-432d-a1e8-7c81164c57a8","ios":"levelo://app?vid=b700749c-e8e2-432d-a1e8-7c81164c57a8"},"vehicle_type_id":"4","last_reported":1762891877,"current_range_meters":13600,"station_id":"ce4bho92rcd13ifvqh4g","pricing_plan_id":"cebpf4jnsgd1na2vs0mg"},{"bike_id":"81b24fcc-0743-4e90-be22-f61bf65fa444","system_id":"levelo_inurba_marseille","lat":43.31724,"lon":5.424,"is_reserved":false,"is_disabled":false,"rental_uris":{"android":"levelo://app?vid=81b24fcc-0743-4e90-be22-f61bf65fa444","ios":"levelo://app?vid=81b24fcc-0743-4e90-be22-f61bf65fa444"},"vehicle_type_id":"4","last_reported":1762891877,"current_range_meters":14000,"station_id":"ce4bhp92rcd13ifvqhbg","pricing_plan_id":"cebpf4jnsgd1na2vs0mg"},{"bike_id":"0ee5ed68-17b0-4de5-8497-c5a52ae4e738","system_id":"levelo_inurba_marseille","lat":43.294373,"lon":5.397396,"is_reserved":false,"is_disabled":false,"rental_uris":{"android":"levelo://app?vid=0ee5ed68-17b0-4de5-8497-c5a52ae4e738","ios":"levelo://app?vid=0ee5ed68-17b0-4de5-8497-c5a52ae4e738"},"vehicle_type_id":"4","last_reported":1762891877,"current_range_meters":14000,"station_id":"ce4bh3h2rcd13ifvqdo0","pricing_plan_id":"cebpf4jnsgd1na2vs0mg"},{"bike_id":"b170fb66-dbdc-4121-9673-2c815fcea0c6","system_id":"levelo_inurba_marseille","lat":43.29271,"lon":5.38439,"is_reserved":false,"is_disabled":false,"rental_uris":{"android":"levelo://app?vid=b170fb66-dbdc-4121-9673-2c815fcea0c6","ios":"levelo://app?vid=b170fb66-dbdc-4121-9673-2c815fcea0c6"},"vehicle_type_id":"4","last_reported":1762891877,"current_range_meters":14000,"station_id":"ce4bh692rcd13ifvqea0","pricing_plan_id":"cebpf4jnsgd1na2vs0mg"},{"bike_id":"d6052278-6619-4aea-94b1-556f59b25baa","system_id":"levelo_inurba_marseille","lat":43.301276,"lon":5.398575,"is_reserved":false,"is_disabled":false,"rental_uris":{"android":"levelo://app?vid=d6052278-6619-4aea-94b1-556f59b25baa","ios":"levelo://app?vid=d6052278-6619-4aea-94b1-556f59b25baa"},"vehicle_type_id":"4","last_reported":1762891877,"current_range_meters":14000,"station_id":"ce4bh0h2rcd13ifvqd40","pricing_plan_id":"cebpf4jnsgd1na2vs0mg"},{"bike_id":"58be3ff3-3206-4b8f-bf9f-31d2a07e9ad7","system_id":"levelo_inurba_marseille","lat":43.29584,"lon":5.38095,"is_reserved":false,"is_disabled":false,"rental_uris":{"android":"levelo://app?vid=58be3ff3-3206-4b8f-bf9f-31d2a07e9ad7","ios":"levelo://app?vid=58be3ff3-3206-4b8f-bf9f-31d2a07e9ad7"},"vehicle_type_id":"4","last_reported":1762891877,"current_range_meters":14000,"station_id":"ce4bgl12rcd13ifvqbo0","pricing_plan_id":"cebpf4jnsgd1na2vs0mg"},{"bike_id":"bb431297-5581-4055-af17-549bd1f184d7","system_id":"levelo_inurba_marseille","lat":43.32368,"lon":5.38878,"is_reserved":false,"is_disabled":false,"rental_uris":{"android":"levelo://app?vid=bb431297-5581-4055-af17-549bd1f184d7","ios":"levelo://app?vid=bb431297-5581-4055-af17-549bd1f184d7"},"vehicle_type_id":"4","last_reported":1762891877,"current_range_meters":14000,"station_id":"ce4bhqp2rcd13ifvqhog","pricing_plan_id":"cebpf4jnsgd1na2vs0mg"},{"bike_id":"230da423-9d7a-4f32-9be8-74df97a4e84a","system_id":"levelo_inurba_marseille","lat":43.28611,"lon":5.35107,"is_reserved":false,"is_disabled":false,"rental_uris":{"android":"levelo://app?vid=230da423-9d7a-4f32-9be8-74df97a4e84a","ios":"levelo://app?vid=230da423-9d7a-4f32-9be8-74df97a4e84a"},"vehicle_type_id":"4","last_reported":1762891877,"current_range_meters":14000,"station_id":"ce4bhch2rcd13ifvqeug","pricing_plan_id":"cebpf4jnsgd1na2vs0mg"},{"bike_id":"55b7e291-072b-4042-a272-a038a9f41f7f","system_id":"levelo_inurba_marseille","lat":43.27947,"lon":5.41026,"is_reserved":false,"is_disabled":false,"rental_uris":{"android":"levelo://app?vid=55b7e291-072b-4042-a272-a038a9f41f7f","ios":"levelo://app?vid=55b7e291-072b-4042-a272-a038a9f41f7f"},"vehicle_type_id":"4","last_reported":1762891877,"current_range_meters":14400,"station_id":"ce4bhnp2rcd13ifvqh0g","pricing_plan_id":"cebpf4jnsgd1na2vs0mg"},{"bike_id":"32162483-923a-4e23-8738-bf029245f9f0","system_id":"levelo_inurba_marseille","lat":43.28491,"lon":5.38421,"is_reserved":false,"is_disabled":true,"rental_uris":{"android":"levelo://app?vid=32162483-923a-4e23-8738-bf029245f9f0","ios":"levelo://app?vid=32162483-923a-4e23-8738-bf029245f9f0"},"vehicle_type_id":"4","last_reported":1762891877,"current_range_meters":14400,"station_id":"ce4bh512rcd13ifvqe3g","pricing_plan_id":"cebpf4jnsgd1na2vs0mg"},{"bike_id":"0caba5c2-3262-4680-98e1-61f7cd8617e3","system_id":"levelo_inurba_marseille","lat":43.29565,"lon":5.39984,"is_reserved":false,"is_disabled":false,"rental_uris":{"android":"levelo://app?vid=0caba5c2-3262-4680-98e1-61f7cd8617e3","ios":"levelo://app?vid=0caba5c2-3262-4680-98e1-61f7cd8617e3"},"vehicle_type_id":"4","last_reported":1762891877,"current_range_meters":14400,"station_id":"ce4bh312rcd13ifvqdj0","pricing_plan_id":"cebpf4jnsgd1na2vs0mg"},{"bike_id":"14c4c79d-54a2-43ff-b01b-d18f58077d1e","system_id":"levelo_inurba_marseille","lat":43.286,"lon":5.35004,"is_reserved":false,"is_disabled":false,"rental_uris":{"android":"levelo://app?vid=14c4c79d-54a2-43ff-b01b-d18f58077d1e","ios":"levelo://app?vid=14c4c79d-54a2-43ff-b01b-d18f58077d1e"},"vehicle_type_id":"4","last_reported":1762891877,"current_range_meters":14800,"station_id":"","pricing_plan_id":"cebpf4jnsgd1na2vs0mg"},{"bike_id":"f09b69fd-4220-4b51-8365-9a85828617f1","system_id":"levelo_inurba_marseille","lat":43.330268,"lon":5.390397,"is_reserved":false,"is_disabled":false,"rental_uris":{"android":"levelo://app?vid=f09b69fd-4220-4b51-8365-9a85828617f1","ios":"levelo://app?vid=f09b69fd-4220-4b51-8365-9a85828617f1"},"vehicle_type_id":"4","last_reported":1762891877,"current_range_meters":14800,"station_id":"ce4bhr92rcd13ifvqhrg","pricing_plan_id":"cebpf4jnsgd1na2vs0mg"},{"bike_id":"c47023ab-2905-4a00-af93-ffd0b768cdc9","system_id":"levelo_inurba_marseille","lat":43.28857,"lon":5.42537,"is_reserved":false,"is_disabled":false,"rental_uris":{"android":"levelo://app?vid=c47023ab-2905-4a00-af93-ffd0b768cdc9","ios":"levelo://app?vid=c47023ab-2905-4a00-af93-ffd0b768cdc9"},"vehicle_type_id":"4","last_reported":1762891877,"current_range_meters":14800,"station_id":"st_d3b462108ojc7389ooeg","pricing_plan_id":"cebpf4jnsgd1na2vs0mg"},{"bike_id":"816ee6d1-f26e-4bc1-b448-91a59f9d6a64","system_id":"levelo_inurba_marseille","lat":43.29523,"lon":5.39402,"is_reserved":false,"is_disabled":false,"rental_uris":{"android":"levelo://app?vid=816ee6d1-f26e-4bc1-b448-91a59f9d6a64","ios":"levelo://app?vid=816ee6d1-f26e-4bc1-b448-91a59f9d6a64"},"vehicle_type_id":"4","last_reported":1762891877,"current_range_meters":14800,"station_id":"ce4bh292rcd13ifvqdf0","pricing_plan_id":"cebpf4jnsgd1na2vs0mg"},{"bike_id":"43599706-aeab-41b2-859f-99807479547f","system_id":"levelo_inurba_marseille","lat":43.25323,"lon":5.42171,"is_reserved":false,"is_disabled":false,"rental_uris":{"android":"levelo://app?vid=43599706-aeab-41b2-859f-99807479547f","ios":"levelo://app?vid=43599706-aeab-41b2-859f-99807479547f"},"vehicle_type_id":"4","last_reported":1762891877,"current_range_meters":14800,"station_id":"st_d2m65c5bi1j21697t3ng","pricing_plan_id":"cebpf4jnsgd1na2vs0mg"},{"bike_id":"50b661f0-112f-4780-95bd-167a8c61a238","system_id":"levelo_inurba_marseille","lat":43.21192,"lon":5.35067,"is_reserved":false,"is_disabled":true,"rental_uris":{"android":"levelo://app?vid=50b661f0-112f-4780-95bd-167a8c61a238","ios":"levelo://app?vid=50b661f0-112f-4780-95bd-167a8c61a238"},"vehicle_type_id":"4","last_reported":1762891877,"current_range_meters":14800,"station_id":"st_cvj6sg6p6f1abm77japg","pricing_plan_id":"cebpf4jnsgd1na2vs0mg"},{"bike_id":"3d770c9b-a332-4c0e-8642-cbac5f42ca30","system_id":"levelo_inurba_marseille","lat":43.29529,"lon":5.38548,"is_reserved":false,"is_disabled":false,"rental_uris":{"android":"levelo://app?vid=3d770c9b-a332-4c0e-8642-cbac5f42ca30","ios":"levelo://app?vid=3d770c9b-a332-4c0e-8642-cbac5f42ca30"},"vehicle_type_id":"4","last_reported":1762891877,"current_range_meters":15200,"station_id":"ce4bgih2rcd13ifvqba0","pricing_plan_id":"cebpf4jnsgd1na2vs0mg"},{"bike_id":"e13b78db-2231-48a0-b9e0-a153f32a43f4","system_id":"levelo_inurba_marseille","lat":43.230515,"lon":5.354956,"is_reserved":false,"is_disabled":false,"rental_uris":{"android":"levelo://app?vid=e13b78db-2231-48a0-b9e0-a153f32a43f4","ios":"levelo://app?vid=e13b78db-2231-48a0-b9e0-a153f32a43f4"},"vehicle_type_id":"4","last_reported":1762891877,"current_range_meters":15200,"station_id":"cpo3342slgdg3j2ifvpg","pricing_plan_id":"cebpf4jnsgd1na2vs0mg"},{"bike_id":"3b15451b-9ca4-4b75-9fab-bb81fed744ea","system_id":"levelo_inurba_marseille","lat":43.30298,"lon":5.39208,"is_reserved":false,"is_disabled":true,"rental_uris":{"android":"levelo://app?vid=3b15451b-9ca4-4b75-9fab-bb81fed744ea","ios":"levelo://app?vid=3b15451b-9ca4-4b75-9fab-bb81fed744ea"},"vehicle_type_id":"4","last_reported":1762891877,"current_range_meters":15200,"station_id":"ce4bgkh2rcd13ifvqbk0","pricing_plan_id":"cebpf4jnsgd1na2vs0mg"},{"bike_id":"d4727bf4-ce00-4ad5-a616-072b6c555b76","system_id":"levelo_inurba_marseille","lat":43.28136,"lon":5.4264,"is_reserved":false,"is_disabled":false,"rental_uris":{"android":"levelo://app?vid=d4727bf4-ce00-4ad5-a616-072b6c555b76","ios":"levelo://app?vid=d4727bf4-ce00-4ad5-a616-072b6c555b76"},"vehicle_type_id":"4","last_reported":1762891877,"current_range_meters":15200,"station_id":"ce4bhnh2rcd13ifvqgug","pricing_plan_id":"cebpf4jnsgd1na2vs0mg"},{"bike_id":"67426fc3-2660-410a-a593-0a1c670d1a69","system_id":"levelo_inurba_marseille","lat":43.28721,"lon":5.36081,"is_reserved":false,"is_disabled":false,"rental_uris":{"android":"levelo://app?vid=67426fc3-2660-410a-a593-0a1c670d1a69","ios":"levelo://app?vid=67426fc3-2660-410a-a593-0a1c670d1a69"},"vehicle_type_id":"4","last_reported":1762891877,"current_range_meters":15200,"station_id":"cki0cbj6b192h4jlfktg","pricing_plan_id":"cebpf4jnsgd1na2vs0mg"},{"bike_id":"cb7a5799-c024-4519-bb5c-6f2896731a81","system_id":"levelo_inurba_marseille","lat":43.33147,"lon":5.37692,"is_reserved":false,"is_disabled":false,"rental_uris":{"android":"levelo://app?vid=cb7a5799-c024-4519-bb5c-6f2896731a81","ios":"levelo://app?vid=cb7a5799-c024-4519-bb5c-6f2896731a81"},"vehicle_type_id":"4","last_reported":1762891877,"current_range_meters":15200,"station_id":"st_d46cu089ee8s73dldbu0","pricing_plan_id":"cebpf4jnsgd1na2vs0mg"},{"bike_id":"90b7b1ac-129d-4f5e-9e36-1417be0b1559","system_id":"levelo_inurba_marseille","lat":43.303775,"lon":5.424772,"is_reserved":false,"is_disabled":true,"rental_uris":{"android":"levelo://app?vid=90b7b1ac-129d-4f5e-9e36-1417be0b1559","ios":"levelo://app?vid=90b7b1ac-129d-4f5e-9e36-1417be0b1559"},"vehicle_type_id":"4","last_reported":1762891877,"current_range_meters":15200,"station_id":"ce4bhoh2rcd13ifvqh6g","pricing_plan_id":"cebpf4jnsgd1na2vs0mg"},{"bike_id":"013a3974-e959-497f-88c4-f662e7244ecd","system_id":"levelo_inurba_marseille","lat":43.25001,"lon":5.38926,"is_reserved":false,"is_disabled":false,"rental_uris":{"android":"levelo://app?vid=013a3974-e959-497f-88c4-f662e7244ecd","ios":"levelo://app?vid=013a3974-e959-497f-88c4-f662e7244ecd"},"vehicle_type_id":"4","last_reported":1762891877,"current_range_meters":15200,"station_id":"ce4bhgp2rcd13ifvqfd0","pricing_plan_id":"cebpf4jnsgd1na2vs0mg"},{"bike_id":"c31c777a-98fe-41ff-97ce-d6c4cffecca1","system_id":"levelo_inurba_marseille","lat":43.29858,"lon":5.38306,"is_reserved":false,"is_disabled":false,"rental_uris":{"android":"levelo://app?vid=c31c777a-98fe-41ff-97ce-d6c4cffecca1","ios":"levelo://app?vid=c31c777a-98fe-41ff-97ce-d6c4cffecca1"},"vehicle_type_id":"4","last_reported":1762891877,"current_range_meters":15200,"station_id":"","pricing_plan_id":"cebpf4jnsgd1na2vs0mg"},{"bike_id":"7853a813-0949-48bc-9da8-6f66b0f8768a","system_id":"levelo_inurba_marseille","lat":43.24382,"lon":5.37083,"is_reserved":false,"is_disabled":true,"rental_uris":{"android":"levelo://app?vid=7853a813-0949-48bc-9da8-6f66b0f8768a","ios":"levelo://app?vid=7853a813-0949-48bc-9da8-6f66b0f8768a"},"vehicle_type_id":"4","last_reported":1762891877,"current_range_meters":15200,"station_id":"ce4bhhh2rcd13ifvqfk0","pricing_plan_id":"cebpf4jnsgd1na2vs0mg"},{"bike_id":"0f91c4cd-ea5a-42f8-9272-beafe4513254","system_id":"levelo_inurba_marseille","lat":43.29528,"lon":5.38544,"is_reserved":false,"is_disabled":false,"rental_uris":{"android":"levelo://app?vid=0f91c4cd-ea5a-42f8-9272-beafe4513254","ios":"levelo://app?vid=0f91c4cd-ea5a-42f8-9272-beafe4513254"},"vehicle_type_id":"4","last_reported":1762891877,"current_range_meters":16000,"station_id":"ce4bgih2rcd13ifvqba0","pricing_plan_id":"cebpf4jnsgd1na2vs0mg"},{"bike_id":"a2426d0b-57f7-406e-b121-bb68a141ebcc","system_id":"levelo_inurba_marseille","lat":43.2791,"lon":5.39587,"is_reserved":false,"is_disabled":false,"rental_uris":{"android":"levelo://app?vid=a2426d0b-57f7-406e-b121-bb68a141ebcc","ios":"levelo://app?vid=a2426d0b-57f7-406e-b121-bb68a141ebcc"},"vehicle_type_id":"4","last_reported":1762891877,"current_range_meters":16000,"station_id":"ce4bhf92rcd13ifvqf40","pricing_plan_id":"cebpf4jnsgd1na2vs0mg"},{"bike_id":"f0413c71-e0c3-427b-98cb-cdf950c219e3","system_id":"levelo_inurba_marseille","lat":43.31004,"lon":5.40052,"is_reserved":false,"is_disabled":false,"rental_uris":{"android":"levelo://app?vid=f0413c71-e0c3-427b-98cb-cdf950c219e3","ios":"levelo://app?vid=f0413c71-e0c3-427b-98cb-cdf950c219e3"},"vehicle_type_id":"4","last_reported":1762891877,"current_range_meters":16000,"station_id":"","pricing_plan_id":"cebpf4jnsgd1na2vs0mg"},{"bike_id":"3664f7af-3e86-419e-b36c-8dae5c863934","system_id":"levelo_inurba_marseille","lat":43.293078,"lon":5.399649,"is_reserved":false,"is_disabled":false,"rental_uris":{"android":"levelo://app?vid=3664f7af-3e86-419e-b36c-8dae5c863934","ios":"levelo://app?vid=3664f7af-3e86-419e-b36c-8dae5c863934"},"vehicle_type_id":"4","last_reported":1762891877,"current_range_meters":16000,"station_id":"","pricing_plan_id":"cebpf4jnsgd1na2vs0mg"},{"bike_id":"e5072903-b867-4d8e-a478-9934ce296bde","system_id":"levelo_inurba_marseille","lat":43.29135,"lon":5.39063,"is_reserved":false,"is_disabled":false,"rental_uris":{"android":"levelo://app?vid=e5072903-b867-4d8e-a478-9934ce296bde","ios":"levelo://app?vid=e5072903-b867-4d8e-a478-9934ce296bde"},"vehicle_type_id":"4","last_reported":1762891877,"current_range_meters":16000,"station_id":"","pricing_plan_id":"cebpf4jnsgd1na2vs0mg"},{"bike_id":"a7363298-4d97-49b2-b2be-3afa160eaad8","system_id":"levelo_inurba_marseille","lat":43.29262,"lon":5.38432,"is_reserved":false,"is_disabled":false,"rental_uris":{"android":"levelo://app?vid=a7363298-4d97-49b2-b2be-3afa160eaad8","ios":"levelo://app?vid=a7363298-4d97-49b2-b2be-3afa160eaad8"},"vehicle_type_id":"4","last_reported":1762891877,"current_range_meters":16000,"station_id":"ce4bh692rcd13ifvqea0","pricing_plan_id":"cebpf4jnsgd1na2vs0mg"},{"bike_id":"456c3b77-50a7-458c-9a10-8138e2e89389","system_id":"levelo_inurba_marseille","lat":43.252167,"lon":5.380375,"is_reserved":false,"is_disabled":false,"rental_uris":{"android":"levelo://app?vid=456c3b77-50a7-458c-9a10-8138e2e89389","ios":"levelo://app?vid=456c3b77-50a7-458c-9a10-8138e2e89389"},"vehicle_type_id":"4","last_reported":1762891877,"current_range_meters":16000,"station_id":"","pricing_plan_id":"cebpf4jnsgd1na2vs0mg"},{"bike_id":"138acbc8-a44a-45ec-9d4e-f41258a8778e","system_id":"levelo_inurba_marseille","lat":43.29818,"lon":5.4407,"is_reserved":false,"is_disabled":false,"rental_uris":{"android":"levelo://app?vid=138acbc8-a44a-45ec-9d4e-f41258a8778e","ios":"levelo://app?vid=138acbc8-a44a-45ec-9d4e-f41258a8778e"},"vehicle_type_id":"4","last_reported":1762891877,"current_range_meters":16000,"station_id":"st_d3jp68qikq2c7381ktn0","pricing_plan_id":"cebpf4jnsgd1na2vs0mg"},{"bike_id":"bea5b510-bd03-4311-9858-b4755df7b315","system_id":"levelo_inurba_marseille","lat":43.247568,"lon":5.389722,"is_reserved":false,"is_disabled":false,"rental_uris":{"android":"levelo://app?vid=bea5b510-bd03-4311-9858-b4755df7b315","ios":"levelo://app?vid=bea5b510-bd03-4311-9858-b4755df7b315"},"vehicle_type_id":"4","last_reported":1762891877,"current_range_meters":16000,"station_id":"ce4bhg12rcd13ifvqf60","pricing_plan_id":"cebpf4jnsgd1na2vs0mg"},{"bike_id":"1ce752b0-fa49-429d-9734-2f06993f4bd6","system_id":"levelo_inurba_marseille","lat":43.31995,"lon":5.38166,"is_reserved":false,"is_disabled":false,"rental_uris":{"android":"levelo://app?vid=1ce752b0-fa49-429d-9734-2f06993f4bd6","ios":"levelo://app?vid=1ce752b0-fa49-429d-9734-2f06993f4bd6"},"vehicle_type_id":"4","last_reported":1762891877,"current_range_meters":16400,"station_id":"ce4bhr12rcd13ifvqhpg","pricing_plan_id":"cebpf4jnsgd1na2vs0mg"},{"bike_id":"9076ae51-9410-4c1b-9986-f30d66fd9259","system_id":"levelo_inurba_marseille","lat":43.23192,"lon":5.35553,"is_reserved":false,"is_disabled":false,"rental_uris":{"android":"levelo://app?vid=9076ae51-9410-4c1b-9986-f30d66fd9259","ios":"levelo://app?vid=9076ae51-9410-4c1b-9986-f30d66fd9259"},"vehicle_type_id":"4","last_reported":1762891877,"current_range_meters":16400,"station_id":"ce4bhu92rcd13ifvqi70","pricing_plan_id":"cebpf4jnsgd1na2vs0mg"},{"bike_id":"558d6336-8c01-4b7e-9c90-98f020bc4f34","system_id":"levelo_inurba_marseille","lat":43.31886,"lon":5.40731,"is_reserved":false,"is_disabled":false,"rental_uris":{"android":"levelo://app?vid=558d6336-8c01-4b7e-9c90-98f020bc4f34","ios":"levelo://app?vid=558d6336-8c01-4b7e-9c90-98f020bc4f34"},"vehicle_type_id":"4","last_reported":1762891877,"current_range_meters":16400,"station_id":"ce4bhq12rcd13ifvqhig","pricing_plan_id":"cebpf4jnsgd1na2vs0mg"},{"bike_id":"9da95f54-f3a7-464d-9f02-f44102ed4e51","system_id":"levelo_inurba_marseille","lat":43.29509,"lon":5.39397,"is_reserved":false,"is_disabled":false,"rental_uris":{"android":"levelo://app?vid=9da95f54-f3a7-464d-9f02-f44102ed4e51","ios":"levelo://app?vid=9da95f54-f3a7-464d-9f02-f44102ed4e51"},"vehicle_type_id":"4","last_reported":1762891877,"current_range_meters":16400,"station_id":"ce4bh292rcd13ifvqdf0","pricing_plan_id":"cebpf4jnsgd1na2vs0mg"},{"bike_id":"811cfd4b-0c66-4d12-bd5f-bd476de90b49","system_id":"levelo_inurba_marseille","lat":43.24957,"lon":5.40481,"is_reserved":false,"is_disabled":false,"rental_uris":{"android":"levelo://app?vid=811cfd4b-0c66-4d12-bd5f-bd476de90b49","ios":"levelo://app?vid=811cfd4b-0c66-4d12-bd5f-bd476de90b49"},"vehicle_type_id":"4","last_reported":1762891877,"current_range_meters":16400,"station_id":"st_d2ngiaodas8pm72gd1h0","pricing_plan_id":"cebpf4jnsgd1na2vs0mg"},{"bike_id":"55f24f19-a4bf-43f3-96d8-f53f1b6a63ab","system_id":"levelo_inurba_marseille","lat":43.280765,"lon":5.396578,"is_reserved":false,"is_disabled":false,"rental_uris":{"android":"levelo://app?vid=55f24f19-a4bf-43f3-96d8-f53f1b6a63ab","ios":"levelo://app?vid=55f24f19-a4bf-43f3-96d8-f53f1b6a63ab"},"vehicle_type_id":"4","last_reported":1762891877,"current_range_meters":16400,"station_id":"ce4bho12rcd13ifvqh2g","pricing_plan_id":"cebpf4jnsgd1na2vs0mg"},{"bike_id":"a503b0aa-9e91-4f7a-ba2f-39ab729b7146","system_id":"levelo_inurba_marseille","lat":43.29772,"lon":5.37101,"is_reserved":false,"is_disabled":false,"rental_uris":{"android":"levelo://app?vid=a503b0aa-9e91-4f7a-ba2f-39ab729b7146","ios":"levelo://app?vid=a503b0aa-9e91-4f7a-ba2f-39ab729b7146"},"vehicle_type_id":"4","last_reported":1762891877,"current_range_meters":16400,"station_id":"ce4bgop2rcd13ifvqc1g","pricing_plan_id":"cebpf4jnsgd1na2vs0mg"},{"bike_id":"e95c7a5e-2ca6-4704-beef-c914118730ac","system_id":"levelo_inurba_marseille","lat":43.233928,"lon":5.412378,"is_reserved":false,"is_disabled":false,"rental_uris":{"android":"levelo://app?vid=e95c7a5e-2ca6-4704-beef-c914118730ac","ios":"levelo://app?vid=e95c7a5e-2ca6-4704-beef-c914118730ac"},"vehicle_type_id":"4","last_reported":1762891877,"current_range_meters":16400,"station_id":"","pricing_plan_id":"cebpf4jnsgd1na2vs0mg"},{"bike_id":"3817c81d-20f6-4209-be43-3b1b480b3ab6","system_id":"levelo_inurba_marseille","lat":43.30085,"lon":5.3907,"is_reserved":false,"is_disabled":false,"rental_uris":{"android":"levelo://app?vid=3817c81d-20f6-4209-be43-3b1b480b3ab6","ios":"levelo://app?vid=3817c81d-20f6-4209-be43-3b1b480b3ab6"},"vehicle_type_id":"4","last_reported":1762891877,"current_range_meters":16800,"station_id":"ce4bh192rcd13ifvqdb0","pricing_plan_id":"cebpf4jnsgd1na2vs0mg"},{"bike_id":"b45213a8-c3b7-48a2-8049-e8ac84b412fd","system_id":"levelo_inurba_marseille","lat":43.29015,"lon":5.38122,"is_reserved":false,"is_disabled":false,"rental_uris":{"android":"levelo://app?vid=b45213a8-c3b7-48a2-8049-e8ac84b412fd","ios":"levelo://app?vid=b45213a8-c3b7-48a2-8049-e8ac84b412fd"},"vehicle_type_id":"4","last_reported":1762891877,"current_range_meters":16800,"station_id":"ce4bh4p2rcd13ifvqe1g","pricing_plan_id":"cebpf4jnsgd1na2vs0mg"},{"bike_id":"01e8cce2-ff84-43ff-914a-c0c695f60ca4","system_id":"levelo_inurba_marseille","lat":43.29447,"lon":5.38023,"is_reserved":false,"is_disabled":false,"rental_uris":{"android":"levelo://app?vid=01e8cce2-ff84-43ff-914a-c0c695f60ca4","ios":"levelo://app?vid=01e8cce2-ff84-43ff-914a-c0c695f60ca4"},"vehicle_type_id":"4","last_reported":1762891877,"current_range_meters":16800,"station_id":"","pricing_plan_id":"cebpf4jnsgd1na2vs0mg"},{"bike_id":"5cd27536-fab1-4368-b5bb-376fc51d3ad6","system_id":"levelo_inurba_marseille","lat":43.308,"lon":5.38162,"is_reserved":false,"is_disabled":false,"rental_uris":{"android":"levelo://app?vid=5cd27536-fab1-4368-b5bb-376fc51d3ad6","ios":"levelo://app?vid=5cd27536-fab1-4368-b5bb-376fc51d3ad6"},"vehicle_type_id":"4","last_reported":1762891877,"current_range_meters":16800,"station_id":"ce4bgt12rcd13ifvqce0","pricing_plan_id":"cebpf4jnsgd1na2vs0mg"},{"bike_id":"91ae7ce9-57e1-4e6a-b81b-8a3d59451a0b","system_id":"levelo_inurba_marseille","lat":43.29264,"lon":5.4092,"is_reserved":false,"is_disabled":false,"rental_uris":{"android":"levelo://app?vid=91ae7ce9-57e1-4e6a-b81b-8a3d59451a0b","ios":"levelo://app?vid=91ae7ce9-57e1-4e6a-b81b-8a3d59451a0b"},"vehicle_type_id":"4","last_reported":1762891877,"current_range_meters":16800,"station_id":"ce4bh192rcd13ifvqdc0","pricing_plan_id":"cebpf4jnsgd1na2vs0mg"},{"bike_id":"5804ac99-3bd4-4091-bff1-7487e9285e0c","system_id":"levelo_inurba_marseille","lat":43.29172,"lon":5.37592,"is_reserved":false,"is_disabled":false,"rental_uris":{"android":"levelo://app?vid=5804ac99-3bd4-4091-bff1-7487e9285e0c","ios":"levelo://app?vid=5804ac99-3bd4-4091-bff1-7487e9285e0c"},"vehicle_type_id":"4","last_reported":1762891877,"current_range_meters":16800,"station_id":"","pricing_plan_id":"cebpf4jnsgd1na2vs0mg"},{"bike_id":"8b027115-1a9e-4312-923f-dbf5aec10ee4","system_id":"levelo_inurba_marseille","lat":43.30238,"lon":5.36511,"is_reserved":false,"is_disabled":false,"rental_uris":{"android":"levelo://app?vid=8b027115-1a9e-4312-923f-dbf5aec10ee4","ios":"levelo://app?vid=8b027115-1a9e-4312-923f-dbf5aec10ee4"},"vehicle_type_id":"4","last_reported":1762891877,"current_range_meters":16800,"station_id":"","pricing_plan_id":"cebpf4jnsgd1na2vs0mg"},{"bike_id":"b07ac3e5-1e4d-4fc8-8675-5d80534a15ce","system_id":"levelo_inurba_marseille","lat":43.29966,"lon":5.36558,"is_reserved":false,"is_disabled":false,"rental_uris":{"android":"levelo://app?vid=b07ac3e5-1e4d-4fc8-8675-5d80534a15ce","ios":"levelo://app?vid=b07ac3e5-1e4d-4fc8-8675-5d80534a15ce"},"vehicle_type_id":"4","last_reported":1762891877,"current_range_meters":16800,"station_id":"ce4bgm92rcd13ifvqbr0","pricing_plan_id":"cebpf4jnsgd1na2vs0mg"},{"bike_id":"a181b69a-fd1c-4d3f-af0e-bfa9a7521c4e","system_id":"levelo_inurba_marseille","lat":43.25344,"lon":5.4217,"is_reserved":false,"is_disabled":false,"rental_uris":{"android":"levelo://app?vid=a181b69a-fd1c-4d3f-af0e-bfa9a7521c4e","ios":"levelo://app?vid=a181b69a-fd1c-4d3f-af0e-bfa9a7521c4e"},"vehicle_type_id":"4","last_reported":1762891877,"current_range_meters":16800,"station_id":"st_d2m65c5bi1j21697t3ng","pricing_plan_id":"cebpf4jnsgd1na2vs0mg"},{"bike_id":"ca832d9b-2460-4423-a8ce-5f7543cdec32","system_id":"levelo_inurba_marseille","lat":43.31344,"lon":5.3967,"is_reserved":false,"is_disabled":false,"rental_uris":{"android":"levelo://app?vid=ca832d9b-2460-4423-a8ce-5f7543cdec32","ios":"levelo://app?vid=ca832d9b-2460-4423-a8ce-5f7543cdec32"},"vehicle_type_id":"4","last_reported":1762891877,"current_range_meters":16800,"station_id":"ce4bgvp2rcd13ifvqcu0","pricing_plan_id":"cebpf4jnsgd1na2vs0mg"},{"bike_id":"3973544f-827b-4a6e-b99a-335120dad7aa","system_id":"levelo_inurba_marseille","lat":43.295143,"lon":5.375063,"is_reserved":false,"is_disabled":false,"rental_uris":{"android":"levelo://app?vid=3973544f-827b-4a6e-b99a-335120dad7aa","ios":"levelo://app?vid=3973544f-827b-4a6e-b99a-335120dad7aa"},"vehicle_type_id":"4","last_reported":1762891877,"current_range_meters":17200,"station_id":"ce4bgkp2rcd13ifvqbmg","pricing_plan_id":"cebpf4jnsgd1na2vs0mg"},{"bike_id":"d5cc277e-ea99-4c95-a1f2-3337d914a35a","system_id":"levelo_inurba_marseille","lat":43.29966,"lon":5.37167,"is_reserved":false,"is_disabled":false,"rental_uris":{"android":"levelo://app?vid=d5cc277e-ea99-4c95-a1f2-3337d914a35a","ios":"levelo://app?vid=d5cc277e-ea99-4c95-a1f2-3337d914a35a"},"vehicle_type_id":"4","last_reported":1762891877,"current_range_meters":17200,"station_id":"ce4bgr92rcd13ifvqc7g","pricing_plan_id":"cebpf4jnsgd1na2vs0mg"},{"bike_id":"4f0960a0-a958-4118-801d-a6cd10335648","system_id":"levelo_inurba_marseille","lat":43.31325,"lon":5.39687,"is_reserved":false,"is_disabled":false,"rental_uris":{"android":"levelo://app?vid=4f0960a0-a958-4118-801d-a6cd10335648","ios":"levelo://app?vid=4f0960a0-a958-4118-801d-a6cd10335648"},"vehicle_type_id":"4","last_reported":1762891877,"current_range_meters":17200,"station_id":"ce4bgvp2rcd13ifvqcu0","pricing_plan_id":"cebpf4jnsgd1na2vs0mg"},{"bike_id":"4106200b-b535-4faf-bbe8-a92e413df539","system_id":"levelo_inurba_marseille","lat":43.295178,"lon":5.394041,"is_reserved":false,"is_disabled":false,"rental_uris":{"android":"levelo://app?vid=4106200b-b535-4faf-bbe8-a92e413df539","ios":"levelo://app?vid=4106200b-b535-4faf-bbe8-a92e413df539"},"vehicle_type_id":"4","last_reported":1762891877,"current_range_meters":17200,"station_id":"ce4bh292rcd13ifvqdf0","pricing_plan_id":"cebpf4jnsgd1na2vs0mg"},{"bike_id":"9ec4153f-30c7-4905-a5c6-4729d1c5b7af","system_id":"levelo_inurba_marseille","lat":43.28719,"lon":5.37949,"is_reserved":false,"is_disabled":false,"rental_uris":{"android":"levelo://app?vid=9ec4153f-30c7-4905-a5c6-4729d1c5b7af","ios":"levelo://app?vid=9ec4153f-30c7-4905-a5c6-4729d1c5b7af"},"vehicle_type_id":"4","last_reported":1762891877,"current_range_meters":17200,"station_id":"ce4bh9p2rcd13ifvqec0","pricing_plan_id":"cebpf4jnsgd1na2vs0mg"},{"bike_id":"d97d1671-36ff-4f0e-b146-69c560265632","system_id":"levelo_inurba_marseille","lat":43.27979,"lon":5.40765,"is_reserved":false,"is_disabled":false,"rental_uris":{"android":"levelo://app?vid=d97d1671-36ff-4f0e-b146-69c560265632","ios":"levelo://app?vid=d97d1671-36ff-4f0e-b146-69c560265632"},"vehicle_type_id":"4","last_reported":1762891877,"current_range_meters":17200,"station_id":"","pricing_plan_id":"cebpf4jnsgd1na2vs0mg"},{"bike_id":"aeeb795d-e107-4499-b766-ed3a9320e345","system_id":"levelo_inurba_marseille","lat":43.26054,"lon":5.39389,"is_reserved":false,"is_disabled":false,"rental_uris":{"android":"levelo://app?vid=aeeb795d-e107-4499-b766-ed3a9320e345","ios":"levelo://app?vid=aeeb795d-e107-4499-b766-ed3a9320e345"},"vehicle_type_id":"4","last_reported":1762891877,"current_range_meters":17200,"station_id":"ce4bhh92rcd13ifvqfj0","pricing_plan_id":"cebpf4jnsgd1na2vs0mg"},{"bike_id":"9585676c-76e5-402e-bb88-17e07a1559b5","system_id":"levelo_inurba_marseille","lat":43.28668,"lon":5.38672,"is_reserved":false,"is_disabled":false,"rental_uris":{"android":"levelo://app?vid=9585676c-76e5-402e-bb88-17e07a1559b5","ios":"levelo://app?vid=9585676c-76e5-402e-bb88-17e07a1559b5"},"vehicle_type_id":"4","last_reported":1762891877,"current_range_meters":17200,"station_id":"ce4bh492rcd13ifvqdug","pricing_plan_id":"cebpf4jnsgd1na2vs0mg"},{"bike_id":"75eb0a8c-4a7d-43c8-b7cb-9fbd78fdeb6e","system_id":"levelo_inurba_marseille","lat":43.23772,"lon":5.36626,"is_reserved":false,"is_disabled":false,"rental_uris":{"android":"levelo://app?vid=75eb0a8c-4a7d-43c8-b7cb-9fbd78fdeb6e","ios":"levelo://app?vid=75eb0a8c-4a7d-43c8-b7cb-9fbd78fdeb6e"},"vehicle_type_id":"4","last_reported":1762891877,"current_range_meters":17200,"station_id":"st_d3nk18o9ro0c73en2l3g","pricing_plan_id":"cebpf4jnsgd1na2vs0mg"},{"bike_id":"b62faa5e-7dbd-47f9-a9f6-23cd5b3d1227","system_id":"levelo_inurba_marseille","lat":43.30911,"lon":5.36849,"is_reserved":false,"is_disabled":false,"rental_uris":{"android":"levelo://app?vid=b62faa5e-7dbd-47f9-a9f6-23cd5b3d1227","ios":"levelo://app?vid=b62faa5e-7dbd-47f9-a9f6-23cd5b3d1227"},"vehicle_type_id":"4","last_reported":1762891877,"current_range_meters":17200,"station_id":"ce4bgn92rcd13ifvqbvg","pricing_plan_id":"cebpf4jnsgd1na2vs0mg"},{"bike_id":"25ff1596-8d93-46ac-bdb5-e25a518d41ee","system_id":"levelo_inurba_marseille","lat":43.28918,"lon":5.38393,"is_reserved":false,"is_disabled":true,"rental_uris":{"android":"levelo://app?vid=25ff1596-8d93-46ac-bdb5-e25a518d41ee","ios":"levelo://app?vid=25ff1596-8d93-46ac-bdb5-e25a518d41ee"},"vehicle_type_id":"4","last_reported":1762891877,"current_range_meters":17200,"station_id":"ce4bh612rcd13ifvqe6g","pricing_plan_id":"cebpf4jnsgd1na2vs0mg"},{"bike_id":"a38b499d-f66f-4f43-bcf5-7ca9af21ec79","system_id":"levelo_inurba_marseille","lat":43.2815,"lon":5.42641,"is_reserved":false,"is_disabled":false,"rental_uris":{"android":"levelo://app?vid=a38b499d-f66f-4f43-bcf5-7ca9af21ec79","ios":"levelo://app?vid=a38b499d-f66f-4f43-bcf5-7ca9af21ec79"},"vehicle_type_id":"4","last_reported":1762891877,"current_range_meters":17200,"station_id":"ce4bhnh2rcd13ifvqgug","pricing_plan_id":"cebpf4jnsgd1na2vs0mg"},{"bike_id":"2bccb523-1eaf-4cea-87ae-5a77f3315ae6","system_id":"levelo_inurba_marseille","lat":43.29628,"lon":5.3771,"is_reserved":false,"is_disabled":false,"rental_uris":{"android":"levelo://app?vid=2bccb523-1eaf-4cea-87ae-5a77f3315ae6","ios":"levelo://app?vid=2bccb523-1eaf-4cea-87ae-5a77f3315ae6"},"vehicle_type_id":"4","last_reported":1762891877,"current_range_meters":17600,"station_id":"ce4bgi92rcd13ifvqb90","pricing_plan_id":"cebpf4jnsgd1na2vs0mg"},{"bike_id":"d6d9a3e0-e0aa-4aa2-bf84-1c4e64c5c8a2","system_id":"levelo_inurba_marseille","lat":43.25539,"lon":5.3909,"is_reserved":false,"is_disabled":false,"rental_uris":{"android":"levelo://app?vid=d6d9a3e0-e0aa-4aa2-bf84-1c4e64c5c8a2","ios":"levelo://app?vid=d6d9a3e0-e0aa-4aa2-bf84-1c4e64c5c8a2"},"vehicle_type_id":"4","last_reported":1762891877,"current_range_meters":17600,"station_id":"","pricing_plan_id":"cebpf4jnsgd1na2vs0mg"},{"bike_id":"e3df63a1-f3d2-4d82-8bf6-df212c4e8b69","system_id":"levelo_inurba_marseille","lat":43.28483,"lon":5.48396,"is_reserved":false,"is_disabled":false,"rental_uris":{"android":"levelo://app?vid=e3df63a1-f3d2-4d82-8bf6-df212c4e8b69","ios":"levelo://app?vid=e3df63a1-f3d2-4d82-8bf6-df212c4e8b69"},"vehicle_type_id":"4","last_reported":1762891877,"current_range_meters":17600,"station_id":"st_d3svhcjqgbts73a3dn0g","pricing_plan_id":"cebpf4jnsgd1na2vs0mg"},{"bike_id":"4a75a27c-50de-4bbd-a626-fc1051103d57","system_id":"levelo_inurba_marseille","lat":43.23195,"lon":5.35553,"is_reserved":false,"is_disabled":false,"rental_uris":{"android":"levelo://app?vid=4a75a27c-50de-4bbd-a626-fc1051103d57","ios":"levelo://app?vid=4a75a27c-50de-4bbd-a626-fc1051103d57"},"vehicle_type_id":"4","last_reported":1762891877,"current_range_meters":17600,"station_id":"ce4bhu92rcd13ifvqi70","pricing_plan_id":"cebpf4jnsgd1na2vs0mg"},{"bike_id":"7debdec4-db33-4dad-83bf-2f83639d0f53","system_id":"levelo_inurba_marseille","lat":43.24986,"lon":5.38935,"is_reserved":false,"is_disabled":false,"rental_uris":{"android":"levelo://app?vid=7debdec4-db33-4dad-83bf-2f83639d0f53","ios":"levelo://app?vid=7debdec4-db33-4dad-83bf-2f83639d0f53"},"vehicle_type_id":"4","last_reported":1762891877,"current_range_meters":17600,"station_id":"ce4bhgp2rcd13ifvqfd0","pricing_plan_id":"cebpf4jnsgd1na2vs0mg"},{"bike_id":"21fe7fe0-4a90-40b7-bede-72c672d5b3b9","system_id":"levelo_inurba_marseille","lat":43.32355,"lon":5.36749,"is_reserved":false,"is_disabled":false,"rental_uris":{"android":"levelo://app?vid=21fe7fe0-4a90-40b7-bede-72c672d5b3b9","ios":"levelo://app?vid=21fe7fe0-4a90-40b7-bede-72c672d5b3b9"},"vehicle_type_id":"4","last_reported":1762891877,"current_range_meters":18000,"station_id":"ce4bhsh2rcd13ifvqi2g","pricing_plan_id":"cebpf4jnsgd1na2vs0mg"},{"bike_id":"21a1c427-8a44-4cdc-bdc4-820ecb76f74b","system_id":"levelo_inurba_marseille","lat":43.308868,"lon":5.396513,"is_reserved":false,"is_disabled":false,"rental_uris":{"android":"levelo://app?vid=21a1c427-8a44-4cdc-bdc4-820ecb76f74b","ios":"levelo://app?vid=21a1c427-8a44-4cdc-bdc4-820ecb76f74b"},"vehicle_type_id":"4","last_reported":1762891877,"current_range_meters":18000,"station_id":"ce4bh012rcd13ifvqcv0","pricing_plan_id":"cebpf4jnsgd1na2vs0mg"},{"bike_id":"5e6e0c2c-5aff-425c-b9f5-69ee0b364303","system_id":"levelo_inurba_marseille","lat":43.23189,"lon":5.35537,"is_reserved":false,"is_disabled":false,"rental_uris":{"android":"levelo://app?vid=5e6e0c2c-5aff-425c-b9f5-69ee0b364303","ios":"levelo://app?vid=5e6e0c2c-5aff-425c-b9f5-69ee0b364303"},"vehicle_type_id":"4","last_reported":1762891877,"current_range_meters":18000,"station_id":"ce4bhu92rcd13ifvqi70","pricing_plan_id":"cebpf4jnsgd1na2vs0mg"},{"bike_id":"c87d49cf-734d-463f-aad1-fad6864686cb","system_id":"levelo_inurba_marseille","lat":43.30697,"lon":5.42249,"is_reserved":false,"is_disabled":false,"rental_uris":{"android":"levelo://app?vid=c87d49cf-734d-463f-aad1-fad6864686cb","ios":"levelo://app?vid=c87d49cf-734d-463f-aad1-fad6864686cb"},"vehicle_type_id":"4","last_reported":1762891877,"current_range_meters":18000,"station_id":"","pricing_plan_id":"cebpf4jnsgd1na2vs0mg"},{"bike_id":"68d1e22a-dbd7-4fcb-9c88-fac686cf775e","system_id":"levelo_inurba_marseille","lat":43.33766,"lon":5.37481,"is_reserved":false,"is_disabled":false,"rental_uris":{"android":"levelo://app?vid=68d1e22a-dbd7-4fcb-9c88-fac686cf775e","ios":"levelo://app?vid=68d1e22a-dbd7-4fcb-9c88-fac686cf775e"},"vehicle_type_id":"4","last_reported":1762891877,"current_range_meters":18000,"station_id":"","pricing_plan_id":"cebpf4jnsgd1na2vs0mg"},{"bike_id":"419ce9f8-3bd6-4e9f-8279-2d86083847b6","system_id":"levelo_inurba_marseille","lat":43.29266,"lon":5.38445,"is_reserved":false,"is_disabled":false,"rental_uris":{"android":"levelo://app?vid=419ce9f8-3bd6-4e9f-8279-2d86083847b6","ios":"levelo://app?vid=419ce9f8-3bd6-4e9f-8279-2d86083847b6"},"vehicle_type_id":"4","last_reported":1762891877,"current_range_meters":18000,"station_id":"ce4bh692rcd13ifvqea0","pricing_plan_id":"cebpf4jnsgd1na2vs0mg"},{"bike_id":"7f40f0c5-ec52-4f82-a8ba-51ca788fb557","system_id":"levelo_inurba_marseille","lat":43.30931,"lon":5.39652,"is_reserved":false,"is_disabled":false,"rental_uris":{"android":"levelo://app?vid=7f40f0c5-ec52-4f82-a8ba-51ca788fb557","ios":"levelo://app?vid=7f40f0c5-ec52-4f82-a8ba-51ca788fb557"},"vehicle_type_id":"4","last_reported":1762891877,"current_range_meters":18000,"station_id":"ce4bh012rcd13ifvqcv0","pricing_plan_id":"cebpf4jnsgd1na2vs0mg"},{"bike_id":"56f7e345-e8c4-4edf-905a-4a5b681afc15","system_id":"levelo_inurba_marseille","lat":43.30327,"lon":5.40435,"is_reserved":false,"is_disabled":false,"rental_uris":{"android":"levelo://app?vid=56f7e345-e8c4-4edf-905a-4a5b681afc15","ios":"levelo://app?vid=56f7e345-e8c4-4edf-905a-4a5b681afc15"},"vehicle_type_id":"4","last_reported":1762891877,"current_range_meters":18000,"station_id":"ce4bh012rcd13ifvqd10","pricing_plan_id":"cebpf4jnsgd1na2vs0mg"},{"bike_id":"84026268-d7e2-40d8-8c7f-b2e30263873c","system_id":"levelo_inurba_marseille","lat":43.22936,"lon":5.35379,"is_reserved":false,"is_disabled":false,"rental_uris":{"android":"levelo://app?vid=84026268-d7e2-40d8-8c7f-b2e30263873c","ios":"levelo://app?vid=84026268-d7e2-40d8-8c7f-b2e30263873c"},"vehicle_type_id":"4","last_reported":1762891877,"current_range_meters":18800,"station_id":"cpo3532slgdg3j2ikp40","pricing_plan_id":"cebpf4jnsgd1na2vs0mg"},{"bike_id":"8bc3fe3e-6b9a-4b5a-9f5f-2a7883be02e1","system_id":"levelo_inurba_marseille","lat":43.3075,"lon":5.37162,"is_reserved":false,"is_disabled":false,"rental_uris":{"android":"levelo://app?vid=8bc3fe3e-6b9a-4b5a-9f5f-2a7883be02e1","ios":"levelo://app?vid=8bc3fe3e-6b9a-4b5a-9f5f-2a7883be02e1"},"vehicle_type_id":"4","last_reported":1762891877,"current_range_meters":18800,"station_id":"","pricing_plan_id":"cebpf4jnsgd1na2vs0mg"},{"bike_id":"c22fce2f-af95-4414-8249-7e1709b8e538","system_id":"levelo_inurba_marseille","lat":43.25339,"lon":5.42178,"is_reserved":false,"is_disabled":false,"rental_uris":{"android":"levelo://app?vid=c22fce2f-af95-4414-8249-7e1709b8e538","ios":"levelo://app?vid=c22fce2f-af95-4414-8249-7e1709b8e538"},"vehicle_type_id":"4","last_reported":1762891877,"current_range_meters":18800,"station_id":"st_d2m65c5bi1j21697t3ng","pricing_plan_id":"cebpf4jnsgd1na2vs0mg"},{"bike_id":"e51f6c7c-0fd0-4469-bc44-ad743ad6ed36","system_id":"levelo_inurba_marseille","lat":43.30647,"lon":5.375613,"is_reserved":false,"is_disabled":false,"rental_uris":{"android":"levelo://app?vid=e51f6c7c-0fd0-4469-bc44-ad743ad6ed36","ios":"levelo://app?vid=e51f6c7c-0fd0-4469-bc44-ad743ad6ed36"},"vehicle_type_id":"4","last_reported":1762891877,"current_range_meters":18800,"station_id":"ce4bgv92rcd13ifvqcq0","pricing_plan_id":"cebpf4jnsgd1na2vs0mg"},{"bike_id":"9c99c8b9-4a95-4961-b29d-13f4473ae52f","system_id":"levelo_inurba_marseille","lat":43.30888,"lon":5.37187,"is_reserved":false,"is_disabled":false,"rental_uris":{"android":"levelo://app?vid=9c99c8b9-4a95-4961-b29d-13f4473ae52f","ios":"levelo://app?vid=9c99c8b9-4a95-4961-b29d-13f4473ae52f"},"vehicle_type_id":"4","last_reported":1762891877,"current_range_meters":18800,"station_id":"ce4bguh2rcd13ifvqckg","pricing_plan_id":"cebpf4jnsgd1na2vs0mg"},{"bike_id":"65f02636-4ec0-4b0a-a748-f609f9120a58","system_id":"levelo_inurba_marseille","lat":43.284,"lon":5.37526,"is_reserved":false,"is_disabled":false,"rental_uris":{"android":"levelo://app?vid=65f02636-4ec0-4b0a-a748-f609f9120a58","ios":"levelo://app?vid=65f02636-4ec0-4b0a-a748-f609f9120a58"},"vehicle_type_id":"4","last_reported":1762891877,"current_range_meters":18800,"station_id":"","pricing_plan_id":"cebpf4jnsgd1na2vs0mg"},{"bike_id":"0528378f-1b50-41df-b328-6686306ee922","system_id":"levelo_inurba_marseille","lat":43.2161,"lon":5.34443,"is_reserved":false,"is_disabled":false,"rental_uris":{"android":"levelo://app?vid=0528378f-1b50-41df-b328-6686306ee922","ios":"levelo://app?vid=0528378f-1b50-41df-b328-6686306ee922"},"vehicle_type_id":"4","last_reported":1762891877,"current_range_meters":18800,"station_id":"","pricing_plan_id":"cebpf4jnsgd1na2vs0mg"},{"bike_id":"0e1ba582-c06a-482f-b7d0-001c3f3645ce","system_id":"levelo_inurba_marseille","lat":43.31361,"lon":5.38493,"is_reserved":false,"is_disabled":false,"rental_uris":{"android":"levelo://app?vid=0e1ba582-c06a-482f-b7d0-001c3f3645ce","ios":"levelo://app?vid=0e1ba582-c06a-482f-b7d0-001c3f3645ce"},"vehicle_type_id":"4","last_reported":1762891877,"current_range_meters":18800,"station_id":"ce4bgt92rcd13ifvqcf0","pricing_plan_id":"cebpf4jnsgd1na2vs0mg"},{"bike_id":"47b1f308-123a-4f3d-bd00-7930ede1c782","system_id":"levelo_inurba_marseille","lat":43.25442,"lon":5.41857,"is_reserved":false,"is_disabled":false,"rental_uris":{"android":"levelo://app?vid=47b1f308-123a-4f3d-bd00-7930ede1c782","ios":"levelo://app?vid=47b1f308-123a-4f3d-bd00-7930ede1c782"},"vehicle_type_id":"4","last_reported":1762891877,"current_range_meters":18800,"station_id":"","pricing_plan_id":"cebpf4jnsgd1na2vs0mg"},{"bike_id":"6c4d02e5-bce9-45af-8446-e07b99ad5b76","system_id":"levelo_inurba_marseille","lat":43.29016,"lon":5.3572,"is_reserved":false,"is_disabled":false,"rental_uris":{"android":"levelo://app?vid=6c4d02e5-bce9-45af-8446-e07b99ad5b76","ios":"levelo://app?vid=6c4d02e5-bce9-45af-8446-e07b99ad5b76"},"vehicle_type_id":"4","last_reported":1762891877,"current_range_meters":18800,"station_id":"","pricing_plan_id":"cebpf4jnsgd1na2vs0mg"},{"bike_id":"0f2e167a-7d89-4055-85a0-53269b85f1f4","system_id":"levelo_inurba_marseille","lat":43.28164,"lon":5.42629,"is_reserved":false,"is_disabled":false,"rental_uris":{"android":"levelo://app?vid=0f2e167a-7d89-4055-85a0-53269b85f1f4","ios":"levelo://app?vid=0f2e167a-7d89-4055-85a0-53269b85f1f4"},"vehicle_type_id":"4","last_reported":1762891877,"current_range_meters":18800,"station_id":"ce4bhnh2rcd13ifvqgug","pricing_plan_id":"cebpf4jnsgd1na2vs0mg"},{"bike_id":"ef8f49e5-0be1-48cb-9cf1-4513139c3f05","system_id":"levelo_inurba_marseille","lat":43.295284,"lon":5.38547,"is_reserved":false,"is_disabled":false,"rental_uris":{"android":"levelo://app?vid=ef8f49e5-0be1-48cb-9cf1-4513139c3f05","ios":"levelo://app?vid=ef8f49e5-0be1-48cb-9cf1-4513139c3f05"},"vehicle_type_id":"4","last_reported":1762891877,"current_range_meters":19200,"station_id":"ce4bgih2rcd13ifvqba0","pricing_plan_id":"cebpf4jnsgd1na2vs0mg"},{"bike_id":"6418340e-0d22-4824-ba95-f54271b6387f","system_id":"levelo_inurba_marseille","lat":43.28415,"lon":5.37516,"is_reserved":false,"is_disabled":false,"rental_uris":{"android":"levelo://app?vid=6418340e-0d22-4824-ba95-f54271b6387f","ios":"levelo://app?vid=6418340e-0d22-4824-ba95-f54271b6387f"},"vehicle_type_id":"4","last_reported":1762891877,"current_range_meters":19200,"station_id":"ce4bh412rcd13ifvqds0","pricing_plan_id":"cebpf4jnsgd1na2vs0mg"},{"bike_id":"52d4b8ef-bd3b-4594-9933-6de587b7e338","system_id":"levelo_inurba_marseille","lat":43.229216,"lon":5.353816,"is_reserved":false,"is_disabled":false,"rental_uris":{"android":"levelo://app?vid=52d4b8ef-bd3b-4594-9933-6de587b7e338","ios":"levelo://app?vid=52d4b8ef-bd3b-4594-9933-6de587b7e338"},"vehicle_type_id":"4","last_reported":1762891877,"current_range_meters":19200,"station_id":"cpo3532slgdg3j2ikp40","pricing_plan_id":"cebpf4jnsgd1na2vs0mg"},{"bike_id":"9f77fce6-b576-455d-a43d-b1e175676c28","system_id":"levelo_inurba_marseille","lat":43.33773,"lon":5.37473,"is_reserved":false,"is_disabled":false,"rental_uris":{"android":"levelo://app?vid=9f77fce6-b576-455d-a43d-b1e175676c28","ios":"levelo://app?vid=9f77fce6-b576-455d-a43d-b1e175676c28"},"vehicle_type_id":"4","last_reported":1762891877,"current_range_meters":19200,"station_id":"","pricing_plan_id":"cebpf4jnsgd1na2vs0mg"},{"bike_id":"66d89f5b-51bf-4936-a6ea-bbb7174bdfa0","system_id":"levelo_inurba_marseille","lat":43.31363,"lon":5.38482,"is_reserved":false,"is_disabled":false,"rental_uris":{"android":"levelo://app?vid=66d89f5b-51bf-4936-a6ea-bbb7174bdfa0","ios":"levelo://app?vid=66d89f5b-51bf-4936-a6ea-bbb7174bdfa0"},"vehicle_type_id":"4","last_reported":1762891877,"current_range_meters":19200,"station_id":"ce4bgt92rcd13ifvqcf0","pricing_plan_id":"cebpf4jnsgd1na2vs0mg"},{"bike_id":"ee697c20-efde-406f-bc53-760479b31147","system_id":"levelo_inurba_marseille","lat":43.26503,"lon":5.39542,"is_reserved":false,"is_disabled":false,"rental_uris":{"android":"levelo://app?vid=ee697c20-efde-406f-bc53-760479b31147","ios":"levelo://app?vid=ee697c20-efde-406f-bc53-760479b31147"},"vehicle_type_id":"4","last_reported":1762891877,"current_range_meters":19200,"station_id":"ce4bhi12rcd13ifvqfq0","pricing_plan_id":"cebpf4jnsgd1na2vs0mg"},{"bike_id":"a48dc282-7357-40f9-afe2-39ddd0587c54","system_id":"levelo_inurba_marseille","lat":43.2931,"lon":5.37179,"is_reserved":false,"is_disabled":false,"rental_uris":{"android":"levelo://app?vid=a48dc282-7357-40f9-afe2-39ddd0587c54","ios":"levelo://app?vid=a48dc282-7357-40f9-afe2-39ddd0587c54"},"vehicle_type_id":"4","last_reported":1762891877,"current_range_meters":19200,"station_id":"ce4bgh92rcd13ifvqb40","pricing_plan_id":"cebpf4jnsgd1na2vs0mg"},{"bike_id":"762b87d6-536c-4680-afcb-373ebb8d352a","system_id":"levelo_inurba_marseille","lat":43.29613,"lon":5.37727,"is_reserved":false,"is_disabled":false,"rental_uris":{"android":"levelo://app?vid=762b87d6-536c-4680-afcb-373ebb8d352a","ios":"levelo://app?vid=762b87d6-536c-4680-afcb-373ebb8d352a"},"vehicle_type_id":"4","last_reported":1762891877,"current_range_meters":19600,"station_id":"ce4bgi92rcd13ifvqb90","pricing_plan_id":"cebpf4jnsgd1na2vs0mg"},{"bike_id":"1f10aa07-17b5-420e-b6f2-b695d3cbb769","system_id":"levelo_inurba_marseille","lat":43.30598,"lon":5.3936,"is_reserved":false,"is_disabled":true,"rental_uris":{"android":"levelo://app?vid=1f10aa07-17b5-420e-b6f2-b695d3cbb769","ios":"levelo://app?vid=1f10aa07-17b5-420e-b6f2-b695d3cbb769"},"vehicle_type_id":"4","last_reported":1762891877,"current_range_meters":19600,"station_id":"ce4bh0p2rcd13ifvqd80","pricing_plan_id":"cebpf4jnsgd1na2vs0mg"},{"bike_id":"d87483e3-252c-47e6-9327-6f894c88b293","system_id":"levelo_inurba_marseille","lat":43.29995,"lon":5.38088,"is_reserved":false,"is_disabled":false,"rental_uris":{"android":"levelo://app?vid=d87483e3-252c-47e6-9327-6f894c88b293","ios":"levelo://app?vid=d87483e3-252c-47e6-9327-6f894c88b293"},"vehicle_type_id":"4","last_reported":1762891877,"current_range_meters":19600,"station_id":"","pricing_plan_id":"cebpf4jnsgd1na2vs0mg"},