{"last_updated":1761654049,"ttl":60,"version":"2.2","data":{"bikes":[{"bike_id":"dd539c3d-8244-460c-97df-764a86a3f675","system_id":"levelo_inurba_marseille","lat":43.286285,"lon":5.359264,"is_reserved":false,"is_disabled":false,"rental_uris":{"android":"levelo://app?vid=dd539c3d-8244-460c-97df-764a86a3f675","ios":"levelo://app?vid=dd539c3d-8244-460c-97df-764a86a3f675"},"vehicle_type_id":"4","last_reported":1761654049,"current_range_meters":2800,"station_id":"","pricing_plan_id":"cebpf4jnsgd1na2vs0mg"},{"bike_id":"8f03dbd3-4725-4ee1-b820-25018ab5619b","system_id":"levelo_inurba_marseille","lat":43.30898,"lon":5.37182,"is_reserved":false,"is_disabled":false,"rental_uris":{"android":"levelo://app?vid=8f03dbd3-4725-4ee1-b820-25018ab5619b","ios":"levelo://app?vid=8f03dbd3-4725-4ee1-b820-25018ab5619b"},"vehicle_type_id":"4","last_reported":1761654049,"current_range_meters":3200,"station_id":"ce4bguh2rcd13ifvqckg","pricing_plan_id":"cebpf4jnsgd1na2vs0mg"},{"bike_id":"0b9d93d7-ea30-4204-b916-4411f7cf1475","system_id":"levelo_inurba_marseille","lat":43.303,"lon":5.3921,"is_reserved":false,"is_disabled":false,"rental_uris":{"android":"levelo://app?vid=0b9d93d7-ea30-4204-b916-4411f7cf1475","ios":"levelo://app?vid=0b9d93d7-ea30-4204-b916-4411f7cf1475"},"vehicle_type_id":"4","last_reported":1761654049,"current_range_meters":3200,"station_id":"ce4bgkh2rcd13ifvqbk0","pricing_plan_id":"cebpf4jnsgd1na2vs0mg"},{"bike_id":"9731ce69-981c-467b-a67b-0ab4a1920263","system_id":"levelo_inurba_marseille","lat":43.28906,"lon":5.35436,"is_reserved":false,"is_disabled":false,"rental_uris":{"android":"levelo://app?vid=9731ce69-981c-467b-a67b-0ab4a1920263","ios":"levelo://app?vid=9731ce69-981c-467b-a67b-0ab4a1920263"},"vehicle_type_id":"4","last_reported":1761654049,"current_range_meters":3200,"station_id":"ce4bhbp2rcd13ifvqerg","pricing_plan_id":"cebpf4jnsgd1na2vs0mg"},{"bike_id":"6372b586-324c-495f-afa4-778d31e429be","system_id":"levelo_inurba_marseille","lat":43.21744,"lon":5.34606,"is_reserved":false,"is_disabled":false,"rental_uris":{"android":"levelo://app?vid=6372b586-324c-495f-afa4-778d31e429be","ios":"levelo://app?vid=6372b586-324c-495f-afa4-778d31e429be"},"vehicle_type_id":"4","last_reported":1761654049,"current_range_meters":3600,"station_id":"","pricing_plan_id":"cebpf4jnsgd1na2vs0mg"},{"bike_id":"1cbc2e1d-b15b-4605-a97d-21fdec1fe0d9","system_id":"levelo_inurba_marseille","lat":43.28611,"lon":5.35098,"is_reserved":false,"is_disabled":false,"rental_uris":{"android":"levelo://app?vid=1cbc2e1d-b15b-4605-a97d-21fdec1fe0d9","ios":"levelo://app?vid=1cbc2e1d-b15b-4605-a97d-21fdec1fe0d9"},"vehicle_type_id":"4","last_reported":1761654049,"current_range_meters":4000,"station_id":"ce4bhch2rcd13ifvqeug","pricing_plan_id":"cebpf4jnsgd1na2vs0mg"},{"bike_id":"c5670090-28e4-4a30-8b52-6f97e9f95071","system_id":"levelo_inurba_marseille","lat":43.29642,"lon":5.39173,"is_reserved":false,"is_disabled":false,"rental_uris":{"android":"levelo://app?vid=c5670090-28e4-4a30-8b52-6f97e9f95071","ios":"levelo://app?vid=c5670090-28e4-4a30-8b52-6f97e9f95071"},"vehicle_type_id":"4","last_reported":1761654049,"current_range_meters":4000,"station_id":"","pricing_plan_id":"cebpf4jnsgd1na2vs0mg"},{"bike_id":"c5bb853f-d274-4eb2-b0f9-c9b5b41fea56","system_id":"levelo_inurba_marseille","lat":43.231477,"lon":5.437168,"is_reserved":false,"is_disabled":false,"rental_uris":{"android":"levelo://app?vid=c5bb853f-d274-4eb2-b0f9-c9b5b41fea56","ios":"levelo://app?vid=c5bb853f-d274-4eb2-b0f9-c9b5b41fea56"},"vehicle_type_id":"4","last_reported":1761654049,"current_range_meters":4400,"station_id":"ce4bhmp2rcd13ifvqgog","pricing_plan_id":"cebpf4jnsgd1na2vs0mg"},{"bike_id":"41d45b45-3a52-4b5a-b2b3-1e62d5490ada","system_id":"levelo_inurba_marseille","lat":43.28502,"lon":5.44084,"is_reserved":false,"is_disabled":false,"rental_uris":{"android":"levelo://app?vid=41d45b45-3a52-4b5a-b2b3-1e62d5490ada","ios":"levelo://app?vid=41d45b45-3a52-4b5a-b2b3-1e62d5490ada"},"vehicle_type_id":"4","last_reported":1761654049,"current_range_meters":4400,"station_id":"st_d3j3df2ikq2c7380ej80","pricing_plan_id":"cebpf4jnsgd1na2vs0mg"},{"bike_id":"af098c45-f999-410d-9670-d16787218470","system_id":"levelo_inurba_marseille","lat":43.30192,"lon":5.366353,"is_reserved":false,"is_disabled":false,"rental_uris":{"android":"levelo://app?vid=af098c45-f999-410d-9670-d16787218470","ios":"levelo://app?vid=af098c45-f999-410d-9670-d16787218470"},"vehicle_type_id":"4","last_reported":1761654049,"current_range_meters":4400,"station_id":"ce4bgrh2rcd13ifvqc8g","pricing_plan_id":"cebpf4jnsgd1na2vs0mg"},{"bike_id":"29aaf1a0-5d8e-461e-b414-230d733c598d","system_id":"levelo_inurba_marseille","lat":43.30541,"lon":5.38427,"is_reserved":false,"is_disabled":false,"rental_uris":{"android":"levelo://app?vid=29aaf1a0-5d8e-461e-b414-230d733c598d","ios":"levelo://app?vid=29aaf1a0-5d8e-461e-b414-230d733c598d"},"vehicle_type_id":"4","last_reported":1761654049,"current_range_meters":4400,"station_id":"ce4bgg92rcd13ifvqb30","pricing_plan_id":"cebpf4jnsgd1na2vs0mg"},{"bike_id":"bf4fb6d9-8e17-4729-b4eb-c070bd799ae0","system_id":"levelo_inurba_marseille","lat":43.27209,"lon":5.39185,"is_reserved":false,"is_disabled":false,"rental_uris":{"android":"levelo://app?vid=bf4fb6d9-8e17-4729-b4eb-c070bd799ae0","ios":"levelo://app?vid=bf4fb6d9-8e17-4729-b4eb-c070bd799ae0"},"vehicle_type_id":"4","last_reported":1761654049,"current_range_meters":4800,"station_id":"ce4bhhp2rcd13ifvqfm0","pricing_plan_id":"cebpf4jnsgd1na2vs0mg"},{"bike_id":"1b8b63ec-7548-4816-b198-44e2162337ac","system_id":"levelo_inurba_marseille","lat":43.306438,"lon":5.400786,"is_reserved":false,"is_disabled":true,"rental_uris":{"android":"levelo://app?vid=1b8b63ec-7548-4816-b198-44e2162337ac","ios":"levelo://app?vid=1b8b63ec-7548-4816-b198-44e2162337ac"},"vehicle_type_id":"4","last_reported":1761654049,"current_range_meters":4800,"station_id":"ce4bh112rcd13ifvqda0","pricing_plan_id":"cebpf4jnsgd1na2vs0mg"},{"bike_id":"68ea440b-6a89-4cdf-807a-e8d832a6e22a","system_id":"levelo_inurba_marseille","lat":43.289277,"lon":5.384063,"is_reserved":false,"is_disabled":false,"rental_uris":{"android":"levelo://app?vid=68ea440b-6a89-4cdf-807a-e8d832a6e22a","ios":"levelo://app?vid=68ea440b-6a89-4cdf-807a-e8d832a6e22a"},"vehicle_type_id":"4","last_reported":1761654049,"current_range_meters":4800,"station_id":"ce4bgr92rcd13ifvqc7g","pricing_plan_id":"cebpf4jnsgd1na2vs0mg"},{"bike_id":"52a67fc0-7eaf-49b6-9b05-e09a5497aafa","system_id":"levelo_inurba_marseille","lat":43.2293,"lon":5.35383,"is_reserved":false,"is_disabled":false,"rental_uris":{"android":"levelo://app?vid=52a67fc0-7eaf-49b6-9b05-e09a5497aafa","ios":"levelo://app?vid=52a67fc0-7eaf-49b6-9b05-e09a5497aafa"},"vehicle_type_id":"4","last_reported":1761654049,"current_range_meters":5600,"station_id":"cpo3532slgdg3j2ikp40","pricing_plan_id":"cebpf4jnsgd1na2vs0mg"},{"bike_id":"f522ee56-9e38-4de8-97b6-ef22af1d3ebd","system_id":"levelo_inurba_marseille","lat":43.29573,"lon":5.37522,"is_reserved":false,"is_disabled":false,"rental_uris":{"android":"levelo://app?vid=f522ee56-9e38-4de8-97b6-ef22af1d3ebd","ios":"levelo://app?vid=f522ee56-9e38-4de8-97b6-ef22af1d3ebd"},"vehicle_type_id":"4","last_reported":1761654049,"current_range_meters":5600,"station_id":"ce4bgh92rcd13ifvqb50","pricing_plan_id":"cebpf4jnsgd1na2vs0mg"},{"bike_id":"de5cece4-6186-4ccb-b70e-a25e8bd3fc86","system_id":"levelo_inurba_marseille","lat":43.337444,"lon":5.374475,"is_reserved":false,"is_disabled":false,"rental_uris":{"android":"levelo://app?vid=de5cece4-6186-4ccb-b70e-a25e8bd3fc86","ios":"levelo://app?vid=de5cece4-6186-4ccb-b70e-a25e8bd3fc86"},"vehicle_type_id":"4","last_reported":1761654049,"current_range_meters":5600,"station_id":"","pricing_plan_id":"cebpf4jnsgd1na2vs0mg"},{"bike_id":"8847af5d-c1ad-4d8d-a5c1-273c3b41c105","system_id":"levelo_inurba_marseille","lat":43.33024,"lon":5.39043,"is_reserved":false,"is_disabled":false,"rental_uris":{"android":"levelo://app?vid=8847af5d-c1ad-4d8d-a5c1-273c3b41c105","ios":"levelo://app?vid=8847af5d-c1ad-4d8d-a5c1-273c3b41c105"},"vehicle_type_id":"4","last_reported":1761654049,"current_range_meters":6000,"station_id":"ce4bhr92rcd13ifvqhrg","pricing_plan_id":"cebpf4jnsgd1na2vs0mg"},{"bike_id":"bbd9206b-0ca3-438f-8753-15f6d0208da2","system_id":"levelo_inurba_marseille","lat":43.29704,"lon":5.36619,"is_reserved":false,"is_disabled":false,"rental_uris":{"android":"levelo://app?vid=bbd9206b-0ca3-438f-8753-15f6d0208da2","ios":"levelo://app?vid=bbd9206b-0ca3-438f-8753-15f6d0208da2"},"vehicle_type_id":"4","last_reported":1761654049,"current_range_meters":6000,"station_id":"ce4bgn12rcd13ifvqbt0","pricing_plan_id":"cebpf4jnsgd1na2vs0mg"},{"bike_id":"32b90384-a32e-4b49-a0a2-e1a1222cf827","system_id":"levelo_inurba_marseille","lat":43.26941,"lon":5.4027,"is_reserved":false,"is_disabled":false,"rental_uris":{"android":"levelo://app?vid=32b90384-a32e-4b49-a0a2-e1a1222cf827","ios":"levelo://app?vid=32b90384-a32e-4b49-a0a2-e1a1222cf827"},"vehicle_type_id":"4","last_reported":1761654049,"current_range_meters":6000,"station_id":"cjm6bp8fraef2m0cb0m0","pricing_plan_id":"cebpf4jnsgd1na2vs0mg"},{"bike_id":"3b3fd3cc-d2fe-4c27-a3b1-6f92a6364957","system_id":"levelo_inurba_marseille","lat":43.29615,"lon":5.37725,"is_reserved":false,"is_disabled":false,"rental_uris":{"android":"levelo://app?vid=3b3fd3cc-d2fe-4c27-a3b1-6f92a6364957","ios":"levelo://app?vid=3b3fd3cc-d2fe-4c27-a3b1-6f92a6364957"},"vehicle_type_id":"4","last_reported":1761654049,"current_range_meters":6000,"station_id":"ce4bgi92rcd13ifvqb90","pricing_plan_id":"cebpf4jnsgd1na2vs0mg"},{"bike_id":"64b75b4a-3497-4861-8cc2-90dd62cd9f5e","system_id":"levelo_inurba_marseille","lat":43.293001,"lon":5.434495,"is_reserved":false,"is_disabled":false,"rental_uris":{"android":"levelo://app?vid=64b75b4a-3497-4861-8cc2-90dd62cd9f5e","ios":"levelo://app?vid=64b75b4a-3497-4861-8cc2-90dd62cd9f5e"},"vehicle_type_id":"4","last_reported":1761654049,"current_range_meters":6000,"station_id":"","pricing_plan_id":"cebpf4jnsgd1na2vs0mg"},{"bike_id":"3ea13603-c9ad-4550-9948-b83f47812af6","system_id":"levelo_inurba_marseille","lat":43.29088,"lon":5.36628,"is_reserved":false,"is_disabled":false,"rental_uris":{"android":"levelo://app?vid=3ea13603-c9ad-4550-9948-b83f47812af6","ios":"levelo://app?vid=3ea13603-c9ad-4550-9948-b83f47812af6"},"vehicle_type_id":"4","last_reported":1761654049,"current_range_meters":6000,"station_id":"","pricing_plan_id":"cebpf4jnsgd1na2vs0mg"},{"bike_id":"4ade9d83-f2d5-4d19-a54e-74fbd9ec2b53","system_id":"levelo_inurba_marseille","lat":43.31097,"lon":5.40119,"is_reserved":false,"is_disabled":false,"rental_uris":{"android":"levelo://app?vid=4ade9d83-f2d5-4d19-a54e-74fbd9ec2b53","ios":"levelo://app?vid=4ade9d83-f2d5-4d19-a54e-74fbd9ec2b53"},"vehicle_type_id":"4","last_reported":1761654049,"current_range_meters":6000,"station_id":"","pricing_plan_id":"cebpf4jnsgd1na2vs0mg"},{"bike_id":"c1b9688a-249c-4cd7-9c4c-691a51a5d3ec","system_id":"levelo_inurba_marseille","lat":43.25507,"lon":5.37657,"is_reserved":false,"is_disabled":false,"rental_uris":{"android":"levelo://app?vid=c1b9688a-249c-4cd7-9c4c-691a51a5d3ec","ios":"levelo://app?vid=c1b9688a-249c-4cd7-9c4c-691a51a5d3ec"},"vehicle_type_id":"4","last_reported":1761654049,"current_range_meters":6000,"station_id":"ce4bhh12rcd13ifvqff0","pricing_plan_id":"cebpf4jnsgd1na2vs0mg"},{"bike_id":"e4ccce50-4824-4895-aa8c-033835526f23","system_id":"levelo_inurba_marseille","lat":43.318761,"lon":5.399848,"is_reserved":false,"is_disabled":false,"rental_uris":{"android":"levelo://app?vid=e4ccce50-4824-4895-aa8c-033835526f23","ios":"levelo://app?vid=e4ccce50-4824-4895-aa8c-033835526f23"},"vehicle_type_id":"4","last_reported":1761654049,"current_range_meters":6000,"station_id":"","pricing_plan_id":"cebpf4jnsgd1na2vs0mg"},{"bike_id":"9fd285d9-8a07-4803-865f-56673cf834f4","system_id":"levelo_inurba_marseille","lat":43.30187,"lon":5.36626,"is_reserved":false,"is_disabled":false,"rental_uris":{"android":"levelo://app?vid=9fd285d9-8a07-4803-865f-56673cf834f4","ios":"levelo://app?vid=9fd285d9-8a07-4803-865f-56673cf834f4"},"vehicle_type_id":"4","last_reported":1761654049,"current_range_meters":6000,"station_id":"ce4bgrh2rcd13ifvqc8g","pricing_plan_id":"cebpf4jnsgd1na2vs0mg"},{"bike_id":"a3a9f5a9-1097-4042-b3d0-08e52d9466ae","system_id":"levelo_inurba_marseille","lat":43.2836,"lon":5.38101,"is_reserved":false,"is_disabled":false,"rental_uris":{"android":"levelo://app?vid=a3a9f5a9-1097-4042-b3d0-08e52d9466ae","ios":"levelo://app?vid=a3a9f5a9-1097-4042-b3d0-08e52d9466ae"},"vehicle_type_id":"4","last_reported":1761654049,"current_range_meters":6400,"station_id":"ce4bh412rcd13ifvqdr0","pricing_plan_id":"cebpf4jnsgd1na2vs0mg"},{"bike_id":"c927ebec-63f3-404d-90ca-c626c8d4e773","system_id":"levelo_inurba_marseille","lat":43.27966,"lon":5.38755,"is_reserved":false,"is_disabled":false,"rental_uris":{"android":"levelo://app?vid=c927ebec-63f3-404d-90ca-c626c8d4e773","ios":"levelo://app?vid=c927ebec-63f3-404d-90ca-c626c8d4e773"},"vehicle_type_id":"4","last_reported":1761654049,"current_range_meters":6400,"station_id":"ce4bhg12rcd13ifvqf80","pricing_plan_id":"cebpf4jnsgd1na2vs0mg"},{"bike_id":"e7e08c2a-bbca-4677-9d65-17c8fa539b9f","system_id":"levelo_inurba_marseille","lat":43.27057,"lon":5.40251,"is_reserved":false,"is_disabled":false,"rental_uris":{"android":"levelo://app?vid=e7e08c2a-bbca-4677-9d65-17c8fa539b9f","ios":"levelo://app?vid=e7e08c2a-bbca-4677-9d65-17c8fa539b9f"},"vehicle_type_id":"4","last_reported":1761654049,"current_range_meters":6800,"station_id":"ce4bhk92rcd13ifvqgc0","pricing_plan_id":"cebpf4jnsgd1na2vs0mg"},{"bike_id":"53ff788a-9332-4f1c-8970-9bff76628653","system_id":"levelo_inurba_marseille","lat":43.25719,"lon":5.41112,"is_reserved":false,"is_disabled":false,"rental_uris":{"android":"levelo://app?vid=53ff788a-9332-4f1c-8970-9bff76628653","ios":"levelo://app?vid=53ff788a-9332-4f1c-8970-9bff76628653"},"vehicle_type_id":"4","last_reported":1761654049,"current_range_meters":6800,"station_id":"ce4bhkp2rcd13ifvqgd0","pricing_plan_id":"cebpf4jnsgd1na2vs0mg"},{"bike_id":"c4a6a5ab-f472-4bff-80e2-092ca4fca1a0","system_id":"levelo_inurba_marseille","lat":43.2953,"lon":5.39028,"is_reserved":false,"is_disabled":true,"rental_uris":{"android":"levelo://app?vid=c4a6a5ab-f472-4bff-80e2-092ca4fca1a0","ios":"levelo://app?vid=c4a6a5ab-f472-4bff-80e2-092ca4fca1a0"},"vehicle_type_id":"4","last_reported":1761654049,"current_range_meters":7200,"station_id":"ce4bh3p2rcd13ifvqdp0","pricing_plan_id":"cebpf4jnsgd1na2vs0mg"},{"bike_id":"f3844b01-6671-4776-a69d-a21e20373619","system_id":"levelo_inurba_marseille","lat":43.29965,"lon":5.38494,"is_reserved":false,"is_disabled":false,"rental_uris":{"android":"levelo://app?vid=f3844b01-6671-4776-a69d-a21e20373619","ios":"levelo://app?vid=f3844b01-6671-4776-a69d-a21e20373619"},"vehicle_type_id":"4","last_reported":1761654049,"current_range_meters":7200,"station_id":"ce4bgj92rcd13ifvqbd0","pricing_plan_id":"cebpf4jnsgd1na2vs0mg"},{"bike_id":"ce4af739-90fa-494a-80af-6571d93194d6","system_id":"levelo_inurba_marseille","lat":43.21742,"lon":5.34597,"is_reserved":false,"is_disabled":false,"rental_uris":{"android":"levelo://app?vid=ce4af739-90fa-494a-80af-6571d93194d6","ios":"levelo://app?vid=ce4af739-90fa-494a-80af-6571d93194d6"},"vehicle_type_id":"4","last_reported":1761654049,"current_range_meters":7200,"station_id":"st_cvj6r9ubvosntc0bgbag","pricing_plan_id":"cebpf4jnsgd1na2vs0mg"},{"bike_id":"0ff9ac3d-d132-49a4-9826-da1ef75a3203","system_id":"levelo_inurba_marseille","lat":43.29788,"lon":5.38108,"is_reserved":false,"is_disabled":false,"rental_uris":{"android":"levelo://app?vid=0ff9ac3d-d132-49a4-9826-da1ef75a3203","ios":"levelo://app?vid=0ff9ac3d-d132-49a4-9826-da1ef75a3203"},"vehicle_type_id":"4","last_reported":1761654049,"current_range_meters":8000,"station_id":"ce4bgip2rcd13ifvqbb0","pricing_plan_id":"cebpf4jnsgd1na2vs0mg"},{"bike_id":"95560b5f-8ea8-4033-94ba-80ee0a78620c","system_id":"levelo_inurba_marseille","lat":43.303758,"lon":5.42488,"is_reserved":false,"is_disabled":false,"rental_uris":{"android":"levelo://app?vid=95560b5f-8ea8-4033-94ba-80ee0a78620c","ios":"levelo://app?vid=95560b5f-8ea8-4033-94ba-80ee0a78620c"},"vehicle_type_id":"4","last_reported":1761654049,"current_range_meters":8400,"station_id":"ce4bhoh2rcd13ifvqh6g","pricing_plan_id":"cebpf4jnsgd1na2vs0mg"},{"bike_id":"44d158ea-a438-4505-9c0b-216f28618fc0","system_id":"levelo_inurba_marseille","lat":43.29037,"lon":5.39962,"is_reserved":false,"is_disabled":false,"rental_uris":{"android":"levelo://app?vid=44d158ea-a438-4505-9c0b-216f28618fc0","ios":"levelo://app?vid=44d158ea-a438-4505-9c0b-216f28618fc0"},"vehicle_type_id":"4","last_reported":1761654049,"current_range_meters":8400,"station_id":"ce4bh392rcd13ifvqdm0","pricing_plan_id":"cebpf4jnsgd1na2vs0mg"},{"bike_id":"e07f7e90-86fd-483c-9921-33cdea61a754","system_id":"levelo_inurba_marseille","lat":43.27618,"lon":5.36111,"is_reserved":false,"is_disabled":false,"rental_uris":{"android":"levelo://app?vid=e07f7e90-86fd-483c-9921-33cdea61a754","ios":"levelo://app?vid=e07f7e90-86fd-483c-9921-33cdea61a754"},"vehicle_type_id":"4","last_reported":1761654049,"current_range_meters":8800,"station_id":"ce4bgj92rcd13ifvqbe0","pricing_plan_id":"cebpf4jnsgd1na2vs0mg"},{"bike_id":"36d00787-7e21-4c80-b509-e30b9b71d4d8","system_id":"levelo_inurba_marseille","lat":43.299181,"lon":5.374753,"is_reserved":false,"is_disabled":false,"rental_uris":{"android":"levelo://app?vid=36d00787-7e21-4c80-b509-e30b9b71d4d8","ios":"levelo://app?vid=36d00787-7e21-4c80-b509-e30b9b71d4d8"},"vehicle_type_id":"4","last_reported":1761654049,"current_range_meters":8800,"station_id":"ce4bgjh2rcd13ifvqbg0","pricing_plan_id":"cebpf4jnsgd1na2vs0mg"},{"bike_id":"52175396-97a4-45d8-96a3-b32a318a2ca9","system_id":"levelo_inurba_marseille","lat":43.29266,"lon":5.36857,"is_reserved":false,"is_disabled":false,"rental_uris":{"android":"levelo://app?vid=52175396-97a4-45d8-96a3-b32a318a2ca9","ios":"levelo://app?vid=52175396-97a4-45d8-96a3-b32a318a2ca9"},"vehicle_type_id":"4","last_reported":1761654049,"current_range_meters":8800,"station_id":"ce4bhbp2rcd13ifvqesg","pricing_plan_id":"cebpf4jnsgd1na2vs0mg"},{"bike_id":"f5adc0f6-8f78-420c-a3cc-2381696afa4a","system_id":"levelo_inurba_marseille","lat":43.28887,"lon":5.42513,"is_reserved":false,"is_disabled":true,"rental_uris":{"android":"levelo://app?vid=f5adc0f6-8f78-420c-a3cc-2381696afa4a","ios":"levelo://app?vid=f5adc0f6-8f78-420c-a3cc-2381696afa4a"},"vehicle_type_id":"4","last_reported":1761654049,"current_range_meters":8800,"station_id":"st_d3b462108ojc7389ooeg","pricing_plan_id":"cebpf4jnsgd1na2vs0mg"},{"bike_id":"2319520a-fc10-4ea5-a5ca-d3a4702f6c7b","system_id":"levelo_inurba_marseille","lat":43.29904,"lon":5.43646,"is_reserved":false,"is_disabled":false,"rental_uris":{"android":"levelo://app?vid=2319520a-fc10-4ea5-a5ca-d3a4702f6c7b","ios":"levelo://app?vid=2319520a-fc10-4ea5-a5ca-d3a4702f6c7b"},"vehicle_type_id":"4","last_reported":1761654049,"current_range_meters":9200,"station_id":"ce4bhpp2rcd13ifvqhfg","pricing_plan_id":"cebpf4jnsgd1na2vs0mg"},{"bike_id":"bbbf3dbb-fbe2-4b7e-bfad-c027ca4e1c25","system_id":"levelo_inurba_marseille","lat":43.284782,"lon":5.483928,"is_reserved":false,"is_disabled":false,"rental_uris":{"android":"levelo://app?vid=bbbf3dbb-fbe2-4b7e-bfad-c027ca4e1c25","ios":"levelo://app?vid=bbbf3dbb-fbe2-4b7e-bfad-c027ca4e1c25"},"vehicle_type_id":"4","last_reported":1761654049,"current_range_meters":9200,"station_id":"st_d3svhcjqgbts73a3dn0g","pricing_plan_id":"cebpf4jnsgd1na2vs0mg"},{"bike_id":"37dbeb32-2588-4b05-9784-06d0ae64074f","system_id":"levelo_inurba_marseille","lat":43.217522,"lon":5.34597,"is_reserved":false,"is_disabled":false,"rental_uris":{"android":"levelo://app?vid=37dbeb32-2588-4b05-9784-06d0ae64074f","ios":"levelo://app?vid=37dbeb32-2588-4b05-9784-06d0ae64074f"},"vehicle_type_id":"4","last_reported":1761654049,"current_range_meters":9200,"station_id":"st_cvj6r9ubvosntc0bgbag","pricing_plan_id":"cebpf4jnsgd1na2vs0mg"},{"bike_id":"b3241da2-f8bb-47f5-a1fb-added95072c1","system_id":"levelo_inurba_marseille","lat":43.253371,"lon":5.421779,"is_reserved":false,"is_disabled":false,"rental_uris":{"android":"levelo://app?vid=b3241da2-f8bb-47f5-a1fb-added95072c1","ios":"levelo://app?vid=b3241da2-f8bb-47f5-a1fb-added95072c1"},"vehicle_type_id":"4","last_reported":1761654049,"current_range_meters":9200,"station_id":"st_d2m65c5bi1j21697t3ng","pricing_plan_id":"cebpf4jnsgd1na2vs0mg"},{"bike_id":"eefd622a-23f4-4ae8-ba75-424b910be6b9","system_id":"levelo_inurba_marseille","lat":43.23051,"lon":5.35512,"is_reserved":false,"is_disabled":false,"rental_uris":{"android":"levelo://app?vid=eefd622a-23f4-4ae8-ba75-424b910be6b9","ios":"levelo://app?vid=eefd622a-23f4-4ae8-ba75-424b910be6b9"},"vehicle_type_id":"4","last_reported":1761654049,"current_range_meters":9200,"station_id":"cpo3342slgdg3j2ifvpg","pricing_plan_id":"cebpf4jnsgd1na2vs0mg"},{"bike_id":"b20e62a2-3026-49d5-ae80-3020d9d91cb0","system_id":"levelo_inurba_marseille","lat":43.29931,"lon":5.36529,"is_reserved":false,"is_disabled":false,"rental_uris":{"android":"levelo://app?vid=b20e62a2-3026-49d5-ae80-3020d9d91cb0","ios":"levelo://app?vid=b20e62a2-3026-49d5-ae80-3020d9d91cb0"},"vehicle_type_id":"4","last_reported":1761654049,"current_range_meters":9600,"station_id":"ce4bgm92rcd13ifvqbr0","pricing_plan_id":"cebpf4jnsgd1na2vs0mg"},{"bike_id":"951bb975-0f5c-480c-b267-d13977f345a8","system_id":"levelo_inurba_marseille","lat":43.24812,"lon":5.37461,"is_reserved":false,"is_disabled":false,"rental_uris":{"android":"levelo://app?vid=951bb975-0f5c-480c-b267-d13977f345a8","ios":"levelo://app?vid=951bb975-0f5c-480c-b267-d13977f345a8"},"vehicle_type_id":"4","last_reported":1761654049,"current_range_meters":9600,"station_id":"ce4bhgh2rcd13ifvqfb0","pricing_plan_id":"cebpf4jnsgd1na2vs0mg"},{"bike_id":"eea3c3c3-734f-4fd3-8061-ed84cfe47b38","system_id":"levelo_inurba_marseille","lat":43.325608,"lon":5.391413,"is_reserved":false,"is_disabled":false,"rental_uris":{"android":"levelo://app?vid=eea3c3c3-734f-4fd3-8061-ed84cfe47b38","ios":"levelo://app?vid=eea3c3c3-734f-4fd3-8061-ed84cfe47b38"},"vehicle_type_id":"4","last_reported":1761654049,"current_range_meters":9600,"station_id":"","pricing_plan_id":"cebpf4jnsgd1na2vs0mg"},{"bike_id":"6ed99945-f2d5-4295-9d32-cacbdc3c0c42","system_id":"levelo_inurba_marseille","lat":43.29886,"lon":5.38154,"is_reserved":false,"is_disabled":false,"rental_uris":{"android":"levelo://app?vid=6ed99945-f2d5-4295-9d32-cacbdc3c0c42","ios":"levelo://app?vid=6ed99945-f2d5-4295-9d32-cacbdc3c0c42"},"vehicle_type_id":"4","last_reported":1761654049,"current_range_meters":9600,"station_id":"ce4bgj12rcd13ifvqbc0","pricing_plan_id":"cebpf4jnsgd1na2vs0mg"},{"bike_id":"b90b115e-5171-4e14-966b-e5e406038682","system_id":"levelo_inurba_marseille","lat":43.29278,"lon":5.40119,"is_reserved":false,"is_disabled":false,"rental_uris":{"android":"levelo://app?vid=b90b115e-5171-4e14-966b-e5e406038682","ios":"levelo://app?vid=b90b115e-5171-4e14-966b-e5e406038682"},"vehicle_type_id":"4","last_reported":1761654049,"current_range_meters":10000,"station_id":"ce4bh312rcd13ifvqdk0","pricing_plan_id":"cebpf4jnsgd1na2vs0mg"},{"bike_id":"b444b211-4e18-4ae6-bfff-901d08070240","system_id":"levelo_inurba_marseille","lat":43.2904,"lon":5.37564,"is_reserved":false,"is_disabled":false,"rental_uris":{"android":"levelo://app?vid=b444b211-4e18-4ae6-bfff-901d08070240","ios":"levelo://app?vid=b444b211-4e18-4ae6-bfff-901d08070240"},"vehicle_type_id":"4","last_reported":1761654049,"current_range_meters":10000,"station_id":"ce4bh692rcd13ifvqe90","pricing_plan_id":"cebpf4jnsgd1na2vs0mg"},{"bike_id":"c893b330-8574-4168-bc9f-9c0e71f18de1","system_id":"levelo_inurba_marseille","lat":43.27557,"lon":5.38413,"is_reserved":false,"is_disabled":false,"rental_uris":{"android":"levelo://app?vid=c893b330-8574-4168-bc9f-9c0e71f18de1","ios":"levelo://app?vid=c893b330-8574-4168-bc9f-9c0e71f18de1"},"vehicle_type_id":"4","last_reported":1761654049,"current_range_meters":10800,"station_id":"ce4bhh92rcd13ifvqfi0","pricing_plan_id":"cebpf4jnsgd1na2vs0mg"},{"bike_id":"8de66ceb-f1c7-4da7-8d0e-03c068b11d6e","system_id":"levelo_inurba_marseille","lat":43.29019,"lon":5.38624,"is_reserved":false,"is_disabled":false,"rental_uris":{"android":"levelo://app?vid=8de66ceb-f1c7-4da7-8d0e-03c068b11d6e","ios":"levelo://app?vid=8de66ceb-f1c7-4da7-8d0e-03c068b11d6e"},"vehicle_type_id":"4","last_reported":1761654049,"current_range_meters":10800,"station_id":"ce4bh4p2rcd13ifvqe0g","pricing_plan_id":"cebpf4jnsgd1na2vs0mg"},{"bike_id":"1880ebb9-7edb-463e-976b-226e958b9ebe","system_id":"levelo_inurba_marseille","lat":43.31097,"lon":5.37487,"is_reserved":false,"is_disabled":false,"rental_uris":{"android":"levelo://app?vid=1880ebb9-7edb-463e-976b-226e958b9ebe","ios":"levelo://app?vid=1880ebb9-7edb-463e-976b-226e958b9ebe"},"vehicle_type_id":"4","last_reported":1761654049,"current_range_meters":10800,"station_id":"ce4bgt12rcd13ifvqce0","pricing_plan_id":"cebpf4jnsgd1na2vs0mg"},{"bike_id":"8062c369-ff3b-4a48-b2ef-d270e82c4cf4","system_id":"levelo_inurba_marseille","lat":43.230585,"lon":5.354922,"is_reserved":false,"is_disabled":false,"rental_uris":{"android":"levelo://app?vid=8062c369-ff3b-4a48-b2ef-d270e82c4cf4","ios":"levelo://app?vid=8062c369-ff3b-4a48-b2ef-d270e82c4cf4"},"vehicle_type_id":"4","last_reported":1761654049,"current_range_meters":10800,"station_id":"cpo3342slgdg3j2ifvpg","pricing_plan_id":"cebpf4jnsgd1na2vs0mg"},{"bike_id":"c896b697-d7c3-47ea-81cb-50811f76c96f","system_id":"levelo_inurba_marseille","lat":43.25099,"lon":5.39504,"is_reserved":false,"is_disabled":false,"rental_uris":{"android":"levelo://app?vid=c896b697-d7c3-47ea-81cb-50811f76c96f","ios":"levelo://app?vid=c896b697-d7c3-47ea-81cb-50811f76c96f"},"vehicle_type_id":"4","last_reported":1761654049,"current_range_meters":10800,"station_id":"ce4bhm12rcd13ifvqgkg","pricing_plan_id":"cebpf4jnsgd1na2vs0mg"},{"bike_id":"f3673a60-efd2-465f-aa18-cb0baaf105f7","system_id":"levelo_inurba_marseille","lat":43.31071,"lon":5.40097,"is_reserved":false,"is_disabled":false,"rental_uris":{"android":"levelo://app?vid=f3673a60-efd2-465f-aa18-cb0baaf105f7","ios":"levelo://app?vid=f3673a60-efd2-465f-aa18-cb0baaf105f7"},"vehicle_type_id":"4","last_reported":1761654049,"current_range_meters":10800,"station_id":"","pricing_plan_id":"cebpf4jnsgd1na2vs0mg"},{"bike_id":"d840e009-d66a-4263-964b-f2c1c855217d","system_id":"levelo_inurba_marseille","lat":43.29758,"lon":5.42783,"is_reserved":false,"is_disabled":false,"rental_uris":{"android":"levelo://app?vid=d840e009-d66a-4263-964b-f2c1c855217d","ios":"levelo://app?vid=d840e009-d66a-4263-964b-f2c1c855217d"},"vehicle_type_id":"4","last_reported":1761654049,"current_range_meters":10800,"station_id":"st_d3md5207bmas73dh9klg","pricing_plan_id":"cebpf4jnsgd1na2vs0mg"},{"bike_id":"5946653d-8515-4f37-afac-67891b0071b0","system_id":"levelo_inurba_marseille","lat":43.27315,"lon":5.39078,"is_reserved":false,"is_disabled":false,"rental_uris":{"android":"levelo://app?vid=5946653d-8515-4f37-afac-67891b0071b0","ios":"levelo://app?vid=5946653d-8515-4f37-afac-67891b0071b0"},"vehicle_type_id":"4","last_reported":1761654049,"current_range_meters":11200,"station_id":"ce4bhgp2rcd13ifvqfe0","pricing_plan_id":"cebpf4jnsgd1na2vs0mg"},{"bike_id":"dbcbcef0-4b5f-446e-9d2e-80d991993c2b","system_id":"levelo_inurba_marseille","lat":43.29541,"lon":5.40222,"is_reserved":false,"is_disabled":false,"rental_uris":{"android":"levelo://app?vid=dbcbcef0-4b5f-446e-9d2e-80d991993c2b","ios":"levelo://app?vid=dbcbcef0-4b5f-446e-9d2e-80d991993c2b"},"vehicle_type_id":"4","last_reported":1761654049,"current_range_meters":11200,"station_id":"","pricing_plan_id":"cebpf4jnsgd1na2vs0mg"},{"bike_id":"924808e3-5265-4150-b433-26736ac277ce","system_id":"levelo_inurba_marseille","lat":43.290039,"lon":5.356015,"is_reserved":false,"is_disabled":false,"rental_uris":{"android":"levelo://app?vid=924808e3-5265-4150-b433-26736ac277ce","ios":"levelo://app?vid=924808e3-5265-4150-b433-26736ac277ce"},"vehicle_type_id":"4","last_reported":1761654049,"current_range_meters":11200,"station_id":"ce4bhb92rcd13ifvqen0","pricing_plan_id":"cebpf4jnsgd1na2vs0mg"},{"bike_id":"25cfb39e-b86c-4707-a1c3-41ef44ec5354","system_id":"levelo_inurba_marseille","lat":43.27203,"lon":5.39184,"is_reserved":false,"is_disabled":true,"rental_uris":{"android":"levelo://app?vid=25cfb39e-b86c-4707-a1c3-41ef44ec5354","ios":"levelo://app?vid=25cfb39e-b86c-4707-a1c3-41ef44ec5354"},"vehicle_type_id":"4","last_reported":1761654049,"current_range_meters":11200,"station_id":"ce4bhhp2rcd13ifvqfm0","pricing_plan_id":"cebpf4jnsgd1na2vs0mg"},{"bike_id":"83606acd-ca2f-4aaf-a910-5ded0d67f0cf","system_id":"levelo_inurba_marseille","lat":43.29574,"lon":5.37518,"is_reserved":false,"is_disabled":false,"rental_uris":{"android":"levelo://app?vid=83606acd-ca2f-4aaf-a910-5ded0d67f0cf","ios":"levelo://app?vid=83606acd-ca2f-4aaf-a910-5ded0d67f0cf"},"vehicle_type_id":"4","last_reported":1761654049,"current_range_meters":11200,"station_id":"ce4bgh92rcd13ifvqb50","pricing_plan_id":"cebpf4jnsgd1na2vs0mg"},{"bike_id":"4bf9d265-8b82-4e6d-af96-57b56fdfaed3","system_id":"levelo_inurba_marseille","lat":43.29747,"lon":5.42777,"is_reserved":false,"is_disabled":false,"rental_uris":{"android":"levelo://app?vid=4bf9d265-8b82-4e6d-af96-57b56fdfaed3","ios":"levelo://app?vid=4bf9d265-8b82-4e6d-af96-57b56fdfaed3"},"vehicle_type_id":"4","last_reported":1761654049,"current_range_meters":11600,"station_id":"st_d3md5207bmas73dh9klg","pricing_plan_id":"cebpf4jnsgd1na2vs0mg"},{"bike_id":"44ae9881-7296-4080-88e2-545773f006ee","system_id":"levelo_inurba_marseille","lat":43.30458,"lon":5.37899,"is_reserved":false,"is_disabled":false,"rental_uris":{"android":"levelo://app?vid=44ae9881-7296-4080-88e2-545773f006ee","ios":"levelo://app?vid=44ae9881-7296-4080-88e2-545773f006ee"},"vehicle_type_id":"4","last_reported":1761654049,"current_range_meters":11600,"station_id":"ce4bgup2rcd13ifvqcn0","pricing_plan_id":"cebpf4jnsgd1na2vs0mg"},{"bike_id":"ff806bd2-c7e9-493a-9703-ad992684e451","system_id":"levelo_inurba_marseille","lat":43.296263,"lon":5.377142,"is_reserved":false,"is_disabled":true,"rental_uris":{"android":"levelo://app?vid=ff806bd2-c7e9-493a-9703-ad992684e451","ios":"levelo://app?vid=ff806bd2-c7e9-493a-9703-ad992684e451"},"vehicle_type_id":"4","last_reported":1761654049,"current_range_meters":11600,"station_id":"","pricing_plan_id":"cebpf4jnsgd1na2vs0mg"},{"bike_id":"82a1d2f2-64a9-4186-91e0-3bb6596a849e","system_id":"levelo_inurba_marseille","lat":43.28417,"lon":5.34995,"is_reserved":false,"is_disabled":false,"rental_uris":{"android":"levelo://app?vid=82a1d2f2-64a9-4186-91e0-3bb6596a849e","ios":"levelo://app?vid=82a1d2f2-64a9-4186-91e0-3bb6596a849e"},"vehicle_type_id":"4","last_reported":1761654049,"current_range_meters":11600,"station_id":"ce4bhbh2rcd13ifvqepg","pricing_plan_id":"cebpf4jnsgd1na2vs0mg"},{"bike_id":"ae0b6974-aa5a-4da9-afbb-5c7522a84378","system_id":"levelo_inurba_marseille","lat":43.29007,"lon":5.35615,"is_reserved":false,"is_disabled":false,"rental_uris":{"android":"levelo://app?vid=ae0b6974-aa5a-4da9-afbb-5c7522a84378","ios":"levelo://app?vid=ae0b6974-aa5a-4da9-afbb-5c7522a84378"},"vehicle_type_id":"4","last_reported":1761654049,"current_range_meters":11600,"station_id":"ce4bhb92rcd13ifvqen0","pricing_plan_id":"cebpf4jnsgd1na2vs0mg"},{"bike_id":"5fc5bb21-b83a-4479-a894-b746e336ea5c","system_id":"levelo_inurba_marseille","lat":43.26947,"lon":5.38629,"is_reserved":false,"is_disabled":false,"rental_uris":{"android":"levelo://app?vid=5fc5bb21-b83a-4479-a894-b746e336ea5c","ios":"levelo://app?vid=5fc5bb21-b83a-4479-a894-b746e336ea5c"},"vehicle_type_id":"4","last_reported":1761654049,"current_range_meters":11600,"station_id":"ce4bhh92rcd13ifvqfh0","pricing_plan_id":"cebpf4jnsgd1na2vs0mg"},{"bike_id":"33e10de3-6332-42bf-b480-32d65e0e7f5b","system_id":"levelo_inurba_marseille","lat":43.33717,"lon":5.3919,"is_reserved":false,"is_disabled":false,"rental_uris":{"android":"levelo://app?vid=33e10de3-6332-42bf-b480-32d65e0e7f5b","ios":"levelo://app?vid=33e10de3-6332-42bf-b480-32d65e0e7f5b"},"vehicle_type_id":"4","last_reported":1761654049,"current_range_meters":11600,"station_id":"ce4bhr92rcd13ifvqhsg","pricing_plan_id":"cebpf4jnsgd1na2vs0mg"},{"bike_id":"b5e5ca93-bac9-4e3e-90fd-2ab20ee6702f","system_id":"levelo_inurba_marseille","lat":43.21745,"lon":5.34582,"is_reserved":false,"is_disabled":false,"rental_uris":{"android":"levelo://app?vid=b5e5ca93-bac9-4e3e-90fd-2ab20ee6702f","ios":"levelo://app?vid=b5e5ca93-bac9-4e3e-90fd-2ab20ee6702f"},"vehicle_type_id":"4","last_reported":1761654049,"current_range_meters":12000,"station_id":"st_cvj6r9ubvosntc0bgbag","pricing_plan_id":"cebpf4jnsgd1na2vs0mg"},{"bike_id":"7b1b6fda-acbf-4bcc-9c4e-eb02a7bb672a","system_id":"levelo_inurba_marseille","lat":43.24171,"lon":5.36382,"is_reserved":false,"is_disabled":false,"rental_uris":{"android":"levelo://app?vid=7b1b6fda-acbf-4bcc-9c4e-eb02a7bb672a","ios":"levelo://app?vid=7b1b6fda-acbf-4bcc-9c4e-eb02a7bb672a"},"vehicle_type_id":"4","last_reported":1761654049,"current_range_meters":12000,"station_id":"cpo36qri1sfpv3e86is0","pricing_plan_id":"cebpf4jnsgd1na2vs0mg"},{"bike_id":"939c5ecf-52d1-444e-af87-31b06cee1df0","system_id":"levelo_inurba_marseille","lat":43.29977,"lon":5.38492,"is_reserved":false,"is_disabled":false,"rental_uris":{"android":"levelo://app?vid=939c5ecf-52d1-444e-af87-31b06cee1df0","ios":"levelo://app?vid=939c5ecf-52d1-444e-af87-31b06cee1df0"},"vehicle_type_id":"4","last_reported":1761654049,"current_range_meters":12000,"station_id":"ce4bgj92rcd13ifvqbd0","pricing_plan_id":"cebpf4jnsgd1na2vs0mg"},{"bike_id":"9eb27e8b-0951-4c08-8214-6e629081e2a3","system_id":"levelo_inurba_marseille","lat":43.24167,"lon":5.36402,"is_reserved":false,"is_disabled":false,"rental_uris":{"android":"levelo://app?vid=9eb27e8b-0951-4c08-8214-6e629081e2a3","ios":"levelo://app?vid=9eb27e8b-0951-4c08-8214-6e629081e2a3"},"vehicle_type_id":"4","last_reported":1761654049,"current_range_meters":12000,"station_id":"cpo36qri1sfpv3e86is0","pricing_plan_id":"cebpf4jnsgd1na2vs0mg"},{"bike_id":"a2b53201-7667-4052-8880-18effbe5f792","system_id":"levelo_inurba_marseille","lat":43.28682,"lon":5.38665,"is_reserved":false,"is_disabled":false,"rental_uris":{"android":"levelo://app?vid=a2b53201-7667-4052-8880-18effbe5f792","ios":"levelo://app?vid=a2b53201-7667-4052-8880-18effbe5f792"},"vehicle_type_id":"4","last_reported":1761654049,"current_range_meters":12400,"station_id":"ce4bh492rcd13ifvqdug","pricing_plan_id":"cebpf4jnsgd1na2vs0mg"},{"bike_id":"1b48f07a-6509-479a-b2a3-e1ebebd17894","system_id":"levelo_inurba_marseille","lat":43.30542,"lon":5.36695,"is_reserved":false,"is_disabled":false,"rental_uris":{"android":"levelo://app?vid=1b48f07a-6509-479a-b2a3-e1ebebd17894","ios":"levelo://app?vid=1b48f07a-6509-479a-b2a3-e1ebebd17894"},"vehicle_type_id":"4","last_reported":1761654049,"current_range_meters":12400,"station_id":"ce4bgrp2rcd13ifvqc9g","pricing_plan_id":"cebpf4jnsgd1na2vs0mg"},{"bike_id":"86cfbc71-6ddb-491c-a7f5-124108ed4ed7","system_id":"levelo_inurba_marseille","lat":43.26208,"lon":5.37442,"is_reserved":false,"is_disabled":false,"rental_uris":{"android":"levelo://app?vid=86cfbc71-6ddb-491c-a7f5-124108ed4ed7","ios":"levelo://app?vid=86cfbc71-6ddb-491c-a7f5-124108ed4ed7"},"vehicle_type_id":"4","last_reported":1761654049,"current_range_meters":12400,"station_id":"ce4bhgp2rcd13ifvqfc0","pricing_plan_id":"cebpf4jnsgd1na2vs0mg"},{"bike_id":"6a0e9777-08a7-485a-b69f-ec58c72a9b8a","system_id":"levelo_inurba_marseille","lat":43.30271,"lon":5.37708,"is_reserved":false,"is_disabled":false,"rental_uris":{"android":"levelo://app?vid=6a0e9777-08a7-485a-b69f-ec58c72a9b8a","ios":"levelo://app?vid=6a0e9777-08a7-485a-b69f-ec58c72a9b8a"},"vehicle_type_id":"4","last_reported":1761654049,"current_range_meters":12400,"station_id":"ce4bguh2rcd13ifvqcj0","pricing_plan_id":"cebpf4jnsgd1na2vs0mg"},{"bike_id":"6abb9e09-33f3-43f3-9417-8cc0cf0144f6","system_id":"levelo_inurba_marseille","lat":43.299164,"lon":5.374687,"is_reserved":false,"is_disabled":true,"rental_uris":{"android":"levelo://app?vid=6abb9e09-33f3-43f3-9417-8cc0cf0144f6","ios":"levelo://app?vid=6abb9e09-33f3-43f3-9417-8cc0cf0144f6"},"vehicle_type_id":"4","last_reported":1761654049,"current_range_meters":12400,"station_id":"ce4bgjh2rcd13ifvqbg0","pricing_plan_id":"cebpf4jnsgd1na2vs0mg"},{"bike_id":"382a4c71-2c8d-4248-a3e9-e6b163093e92","system_id":"levelo_inurba_marseille","lat":43.2897,"lon":5.37842,"is_reserved":false,"is_disabled":false,"rental_uris":{"android":"levelo://app?vid=382a4c71-2c8d-4248-a3e9-e6b163093e92","ios":"levelo://app?vid=382a4c71-2c8d-4248-a3e9-e6b163093e92"},"vehicle_type_id":"4","last_reported":1761654049,"current_range_meters":12400,"station_id":"ce4bh9p2rcd13ifvqed0","pricing_plan_id":"cebpf4jnsgd1na2vs0mg"},{"bike_id":"da7305bc-9098-4a3f-9bea-8372d29d8b76","system_id":"levelo_inurba_marseille","lat":43.31244,"lon":5.36909,"is_reserved":false,"is_disabled":false,"rental_uris":{"android":"levelo://app?vid=da7305bc-9098-4a3f-9bea-8372d29d8b76","ios":"levelo://app?vid=da7305bc-9098-4a3f-9bea-8372d29d8b76"},"vehicle_type_id":"4","last_reported":1761654049,"current_range_meters":12400,"station_id":"ce4bgl92rcd13ifvqbq0","pricing_plan_id":"cebpf4jnsgd1na2vs0mg"},{"bike_id":"8558a5c2-c98c-435f-9440-bff6aaf9cb32","system_id":"levelo_inurba_marseille","lat":43.28721,"lon":5.40025,"is_reserved":false,"is_disabled":true,"rental_uris":{"android":"levelo://app?vid=8558a5c2-c98c-435f-9440-bff6aaf9cb32","ios":"levelo://app?vid=8558a5c2-c98c-435f-9440-bff6aaf9cb32"},"vehicle_type_id":"4","last_reported":1761654049,"current_range_meters":12800,"station_id":"ce4bho92rcd13ifvqh3g","pricing_plan_id":"cebpf4jnsgd1na2vs0mg"},{"bike_id":"41e5e4f2-44dd-4c18-8344-1b66a6f1c8d9","system_id":"levelo_inurba_marseille","lat":43.23787,"lon":5.36635,"is_reserved":false,"is_disabled":false,"rental_uris":{"android":"levelo://app?vid=41e5e4f2-44dd-4c18-8344-1b66a6f1c8d9","ios":"levelo://app?vid=41e5e4f2-44dd-4c18-8344-1b66a6f1c8d9"},"vehicle_type_id":"4","last_reported":1761654049,"current_range_meters":12800,"station_id":"st_d3nk18o9ro0c73en2l3g","pricing_plan_id":"cebpf4jnsgd1na2vs0mg"},{"bike_id":"d7b556e6-ac3d-4fe4-b136-c7cd05c756e3","system_id":"levelo_inurba_marseille","lat":43.23064,"lon":5.35487,"is_reserved":false,"is_disabled":false,"rental_uris":{"android":"levelo://app?vid=d7b556e6-ac3d-4fe4-b136-c7cd05c756e3","ios":"levelo://app?vid=d7b556e6-ac3d-4fe4-b136-c7cd05c756e3"},"vehicle_type_id":"4","last_reported":1761654049,"current_range_meters":12800,"station_id":"cpo3342slgdg3j2ifvpg","pricing_plan_id":"cebpf4jnsgd1na2vs0mg"},{"bike_id":"01f2eb66-4c91-4733-82da-fb0ae04b27bc","system_id":"levelo_inurba_marseille","lat":43.27961,"lon":5.38758,"is_reserved":false,"is_disabled":false,"rental_uris":{"android":"levelo://app?vid=01f2eb66-4c91-4733-82da-fb0ae04b27bc","ios":"levelo://app?vid=01f2eb66-4c91-4733-82da-fb0ae04b27bc"},"vehicle_type_id":"4","last_reported":1761654049,"current_range_meters":12800,"station_id":"ce4bhg12rcd13ifvqf80","pricing_plan_id":"cebpf4jnsgd1na2vs0mg"},{"bike_id":"ef1702be-b5aa-445a-9f41-3d5e0bb3f362","system_id":"levelo_inurba_marseille","lat":43.29312,"lon":5.37157,"is_reserved":false,"is_disabled":false,"rental_uris":{"android":"levelo://app?vid=ef1702be-b5aa-445a-9f41-3d5e0bb3f362","ios":"levelo://app?vid=ef1702be-b5aa-445a-9f41-3d5e0bb3f362"},"vehicle_type_id":"4","last_reported":1761654049,"current_range_meters":12800,"station_id":"ce4bgh92rcd13ifvqb40","pricing_plan_id":"cebpf4jnsgd1na2vs0mg"},{"bike_id":"d5ca831f-8041-403e-ada8-7b4196c3d5be","system_id":"levelo_inurba_marseille","lat":43.293714,"lon":5.379385,"is_reserved":false,"is_disabled":false,"rental_uris":{"android":"levelo://app?vid=d5ca831f-8041-403e-ada8-7b4196c3d5be","ios":"levelo://app?vid=d5ca831f-8041-403e-ada8-7b4196c3d5be"},"vehicle_type_id":"4","last_reported":1761654049,"current_range_meters":12800,"station_id":"","pricing_plan_id":"cebpf4jnsgd1na2vs0mg"},{"bike_id":"15f85aec-5db7-4ae6-8b95-81c3db0a6aae","system_id":"levelo_inurba_marseille","lat":43.23149,"lon":5.43726,"is_reserved":false,"is_disabled":false,"rental_uris":{"android":"levelo://app?vid=15f85aec-5db7-4ae6-8b95-81c3db0a6aae","ios":"levelo://app?vid=15f85aec-5db7-4ae6-8b95-81c3db0a6aae"},"vehicle_type_id":"4","last_reported":1761654049,"current_range_meters":12800,"station_id":"ce4bhmp2rcd13ifvqgog","pricing_plan_id":"cebpf4jnsgd1na2vs0mg"},{"bike_id":"fe7446d6-e79b-4cea-a26d-f0b0ca54a597","system_id":"levelo_inurba_marseille","lat":43.217516,"lon":5.346139,"is_reserved":false,"is_disabled":false,"rental_uris":{"android":"levelo://app?vid=fe7446d6-e79b-4cea-a26d-f0b0ca54a597","ios":"levelo://app?vid=fe7446d6-e79b-4cea-a26d-f0b0ca54a597"},"vehicle_type_id":"4","last_reported":1761654049,"current_range_meters":13600,"station_id":"","pricing_plan_id":"cebpf4jnsgd1na2vs0mg"},{"bike_id":"31bfc84c-e801-4c77-ac1b-a4a44df4e911","system_id":"levelo_inurba_marseille","lat":43.2439,"lon":5.37069,"is_reserved":false,"is_disabled":false,"rental_uris":{"android":"levelo://app?vid=31bfc84c-e801-4c77-ac1b-a4a44df4e911","ios":"levelo://app?vid=31bfc84c-e801-4c77-ac1b-a4a44df4e911"},"vehicle_type_id":"4","last_reported":1761654049,"current_range_meters":13600,"station_id":"ce4bhhh2rcd13ifvqfk0","pricing_plan_id":"cebpf4jnsgd1na2vs0mg"},{"bike_id":"1fd266e2-e6c9-4a7e-8908-3af2fd2d0233","system_id":"levelo_inurba_marseille","lat":43.23795,"lon":5.36409,"is_reserved":false,"is_disabled":false,"rental_uris":{"android":"levelo://app?vid=1fd266e2-e6c9-4a7e-8908-3af2fd2d0233","ios":"levelo://app?vid=1fd266e2-e6c9-4a7e-8908-3af2fd2d0233"},"vehicle_type_id":"4","last_reported":1761654049,"current_range_meters":13600,"station_id":"","pricing_plan_id":"cebpf4jnsgd1na2vs0mg"},{"bike_id":"ea6b393b-e9df-4665-ad4f-867561da0f66","system_id":"levelo_inurba_marseille","lat":43.28673,"lon":5.38673,"is_reserved":false,"is_disabled":false,"rental_uris":{"android":"levelo://app?vid=ea6b393b-e9df-4665-ad4f-867561da0f66","ios":"levelo://app?vid=ea6b393b-e9df-4665-ad4f-867561da0f66"},"vehicle_type_id":"4","last_reported":1761654049,"current_range_meters":13600,"station_id":"ce4bh492rcd13ifvqdug","pricing_plan_id":"cebpf4jnsgd1na2vs0mg"},{"bike_id":"68254494-1368-4cc2-bc24-7d91ee588b04","system_id":"levelo_inurba_marseille","lat":43.28466,"lon":5.38402,"is_reserved":false,"is_disabled":false,"rental_uris":{"android":"levelo://app?vid=68254494-1368-4cc2-bc24-7d91ee588b04","ios":"levelo://app?vid=68254494-1368-4cc2-bc24-7d91ee588b04"},"vehicle_type_id":"4","last_reported":1761654049,"current_range_meters":13600,"station_id":"ce4bh512rcd13ifvqe3g","pricing_plan_id":"cebpf4jnsgd1na2vs0mg"},{"bike_id":"e1ca1064-3ac1-495e-b8d2-df8047d11b2e","system_id":"levelo_inurba_marseille","lat":43.28485,"lon":5.48397,"is_reserved":false,"is_disabled":false,"rental_uris":{"android":"levelo://app?vid=e1ca1064-3ac1-495e-b8d2-df8047d11b2e","ios":"levelo://app?vid=e1ca1064-3ac1-495e-b8d2-df8047d11b2e"},"vehicle_type_id":"4","last_reported":1761654049,"current_range_meters":13600,"station_id":"st_d3svhcjqgbts73a3dn0g","pricing_plan_id":"cebpf4jnsgd1na2vs0mg"},{"bike_id":"310e927d-d5b8-4a6f-82be-2d623690659d","system_id":"levelo_inurba_marseille","lat":43.31289,"lon":5.37732,"is_reserved":false,"is_disabled":false,"rental_uris":{"android":"levelo://app?vid=310e927d-d5b8-4a6f-82be-2d623690659d","ios":"levelo://app?vid=310e927d-d5b8-4a6f-82be-2d623690659d"},"vehicle_type_id":"4","last_reported":1761654049,"current_range_meters":14000,"station_id":"","pricing_plan_id":"cebpf4jnsgd1na2vs0mg"},{"bike_id":"db88a8a5-5637-4384-a6d7-41d8f099747a","system_id":"levelo_inurba_marseille","lat":43.312379,"lon":5.368484,"is_reserved":false,"is_disabled":false,"rental_uris":{"android":"levelo://app?vid=db88a8a5-5637-4384-a6d7-41d8f099747a","ios":"levelo://app?vid=db88a8a5-5637-4384-a6d7-41d8f099747a"},"vehicle_type_id":"4","last_reported":1761654049,"current_range_meters":14000,"station_id":"ce4bgr92rcd13ifvqc6g","pricing_plan_id":"cebpf4jnsgd1na2vs0mg"},{"bike_id":"dccef0b1-edb3-49b5-866c-43e10e5763cc","system_id":"levelo_inurba_marseille","lat":43.28884,"lon":5.43776,"is_reserved":false,"is_disabled":false,"rental_uris":{"android":"levelo://app?vid=dccef0b1-edb3-49b5-866c-43e10e5763cc","ios":"levelo://app?vid=dccef0b1-edb3-49b5-866c-43e10e5763cc"},"vehicle_type_id":"4","last_reported":1761654049,"current_range_meters":14000,"station_id":"","pricing_plan_id":"cebpf4jnsgd1na2vs0mg"},{"bike_id":"a60cb070-d57c-4cd2-8d5d-f1d4b549ff3a","system_id":"levelo_inurba_marseille","lat":43.32356,"lon":5.36764,"is_reserved":false,"is_disabled":false,"rental_uris":{"android":"levelo://app?vid=a60cb070-d57c-4cd2-8d5d-f1d4b549ff3a","ios":"levelo://app?vid=a60cb070-d57c-4cd2-8d5d-f1d4b549ff3a"},"vehicle_type_id":"4","last_reported":1761654049,"current_range_meters":14000,"station_id":"ce4bhsh2rcd13ifvqi2g","pricing_plan_id":"cebpf4jnsgd1na2vs0mg"},{"bike_id":"7bd01117-89eb-4a8d-9476-2d71984df50a","system_id":"levelo_inurba_marseille","lat":43.267936,"lon":5.394128,"is_reserved":false,"is_disabled":false,"rental_uris":{"android":"levelo://app?vid=7bd01117-89eb-4a8d-9476-2d71984df50a","ios":"levelo://app?vid=7bd01117-89eb-4a8d-9476-2d71984df50a"},"vehicle_type_id":"4","last_reported":1761654049,"current_range_meters":14000,"station_id":"ce4bhh12rcd13ifvqfg0","pricing_plan_id":"cebpf4jnsgd1na2vs0mg"},{"bike_id":"346d6f79-04b0-4e22-920d-e52df028ef66","system_id":"levelo_inurba_marseille","lat":43.23963,"lon":5.36624,"is_reserved":false,"is_disabled":false,"rental_uris":{"android":"levelo://app?vid=346d6f79-04b0-4e22-920d-e52df028ef66","ios":"levelo://app?vid=346d6f79-04b0-4e22-920d-e52df028ef66"},"vehicle_type_id":"4","last_reported":1761654049,"current_range_meters":14000,"station_id":"ce4bhi12rcd13ifvqfp0","pricing_plan_id":"cebpf4jnsgd1na2vs0mg"},{"bike_id":"2e29e5d5-f02d-4370-b8c2-460ebc9602c5","system_id":"levelo_inurba_marseille","lat":43.27064,"lon":5.40271,"is_reserved":false,"is_disabled":false,"rental_uris":{"android":"levelo://app?vid=2e29e5d5-f02d-4370-b8c2-460ebc9602c5","ios":"levelo://app?vid=2e29e5d5-f02d-4370-b8c2-460ebc9602c5"},"vehicle_type_id":"4","last_reported":1761654049,"current_range_meters":14000,"station_id":"ce4bhk92rcd13ifvqgc0","pricing_plan_id":"cebpf4jnsgd1na2vs0mg"},{"bike_id":"17d14209-b87d-4f4f-b243-a72e9d3335e5","system_id":"levelo_inurba_marseille","lat":43.288948,"lon":5.382084,"is_reserved":false,"is_disabled":false,"rental_uris":{"android":"levelo://app?vid=17d14209-b87d-4f4f-b243-a72e9d3335e5","ios":"levelo://app?vid=17d14209-b87d-4f4f-b243-a72e9d3335e5"},"vehicle_type_id":"4","last_reported":1761654049,"current_range_meters":14000,"station_id":"","pricing_plan_id":"cebpf4jnsgd1na2vs0mg"},{"bike_id":"a1d36066-483f-4245-8f71-981873efc5f9","system_id":"levelo_inurba_marseille","lat":43.24062,"lon":5.37757,"is_reserved":false,"is_disabled":false,"rental_uris":{"android":"levelo://app?vid=a1d36066-483f-4245-8f71-981873efc5f9","ios":"levelo://app?vid=a1d36066-483f-4245-8f71-981873efc5f9"},"vehicle_type_id":"4","last_reported":1761654049,"current_range_meters":14000,"station_id":"ce4bhnp2rcd13ifvqgvg","pricing_plan_id":"cebpf4jnsgd1na2vs0mg"},{"bike_id":"897d1025-cdde-48ec-9b73-6418bafdbbc5","system_id":"levelo_inurba_marseille","lat":43.28073,"lon":5.34763,"is_reserved":false,"is_disabled":false,"rental_uris":{"android":"levelo://app?vid=897d1025-cdde-48ec-9b73-6418bafdbbc5","ios":"levelo://app?vid=897d1025-cdde-48ec-9b73-6418bafdbbc5"},"vehicle_type_id":"4","last_reported":1761654049,"current_range_meters":14000,"station_id":"","pricing_plan_id":"cebpf4jnsgd1na2vs0mg"},{"bike_id":"0514a3f3-67b0-4c2b-ad12-4e0494958384","system_id":"levelo_inurba_marseille","lat":43.24159,"lon":5.39705,"is_reserved":false,"is_disabled":false,"rental_uris":{"android":"levelo://app?vid=0514a3f3-67b0-4c2b-ad12-4e0494958384","ios":"levelo://app?vid=0514a3f3-67b0-4c2b-ad12-4e0494958384"},"vehicle_type_id":"4","last_reported":1761654049,"current_range_meters":14400,"station_id":"ce4bhn12rcd13ifvqgpg","pricing_plan_id":"cebpf4jnsgd1na2vs0mg"},{"bike_id":"1accd802-dce8-4000-92fd-6f19c21d8782","system_id":"levelo_inurba_marseille","lat":43.30416,"lon":5.41285,"is_reserved":false,"is_disabled":false,"rental_uris":{"android":"levelo://app?vid=1accd802-dce8-4000-92fd-6f19c21d8782","ios":"levelo://app?vid=1accd802-dce8-4000-92fd-6f19c21d8782"},"vehicle_type_id":"4","last_reported":1761654049,"current_range_meters":14400,"station_id":"ce4bhop2rcd13ifvqh8g","pricing_plan_id":"cebpf4jnsgd1na2vs0mg"},{"bike_id":"49ed0d39-51fe-4cd4-8527-50556baa8749","system_id":"levelo_inurba_marseille","lat":43.22531,"lon":5.348321,"is_reserved":false,"is_disabled":false,"rental_uris":{"android":"levelo://app?vid=49ed0d39-51fe-4cd4-8527-50556baa8749","ios":"levelo://app?vid=49ed0d39-51fe-4cd4-8527-50556baa8749"},"vehicle_type_id":"4","last_reported":1761654049,"current_range_meters":14400,"station_id":"","pricing_plan_id":"cebpf4jnsgd1na2vs0mg"},{"bike_id":"653b8e05-be85-45e5-8c66-8b8211dfe63a","system_id":"levelo_inurba_marseille","lat":43.225281,"lon":5.348404,"is_reserved":false,"is_disabled":false,"rental_uris":{"android":"levelo://app?vid=653b8e05-be85-45e5-8c66-8b8211dfe63a","ios":"levelo://app?vid=653b8e05-be85-45e5-8c66-8b8211dfe63a"},"vehicle_type_id":"4","last_reported":1761654049,"current_range_meters":14400,"station_id":"","pricing_plan_id":"cebpf4jnsgd1na2vs0mg"},{"bike_id":"e975e8a7-f7cd-4da8-aa29-5220da96c704","system_id":"levelo_inurba_marseille","lat":43.32354,"lon":5.36756,"is_reserved":false,"is_disabled":true,"rental_uris":{"android":"levelo://app?vid=e975e8a7-f7cd-4da8-aa29-5220da96c704","ios":"levelo://app?vid=e975e8a7-f7cd-4da8-aa29-5220da96c704"},"vehicle_type_id":"4","last_reported":1761654049,"current_range_meters":14400,"station_id":"ce4bhsh2rcd13ifvqi2g","pricing_plan_id":"cebpf4jnsgd1na2vs0mg"},{"bike_id":"dced2bcc-e95f-44ce-b7d8-7bb47def612a","system_id":"levelo_inurba_marseille","lat":43.230593,"lon":5.354889,"is_reserved":false,"is_disabled":false,"rental_uris":{"android":"levelo://app?vid=dced2bcc-e95f-44ce-b7d8-7bb47def612a","ios":"levelo://app?vid=dced2bcc-e95f-44ce-b7d8-7bb47def612a"},"vehicle_type_id":"4","last_reported":1761654049,"current_range_meters":14800,"station_id":"cpo3342slgdg3j2ifvpg","pricing_plan_id":"cebpf4jnsgd1na2vs0mg"},{"bike_id":"a672a914-236d-44ae-aa29-af051ad028b8","system_id":"levelo_inurba_marseille","lat":43.32287,"lon":5.38276,"is_reserved":false,"is_disabled":false,"rental_uris":{"android":"levelo://app?vid=a672a914-236d-44ae-aa29-af051ad028b8","ios":"levelo://app?vid=a672a914-236d-44ae-aa29-af051ad028b8"},"vehicle_type_id":"4","last_reported":1761654049,"current_range_meters":14800,"station_id":"ce4bhr12rcd13ifvqhqg","pricing_plan_id":"cebpf4jnsgd1na2vs0mg"},{"bike_id":"f0e92081-7a93-4d76-8582-adf39cbaf116","system_id":"levelo_inurba_marseille","lat":43.259367,"lon":5.409,"is_reserved":false,"is_disabled":false,"rental_uris":{"android":"levelo://app?vid=f0e92081-7a93-4d76-8582-adf39cbaf116","ios":"levelo://app?vid=f0e92081-7a93-4d76-8582-adf39cbaf116"},"vehicle_type_id":"4","last_reported":1761654049,"current_range_meters":14800,"station_id":"ce4bhm92rcd13ifvqglg","pricing_plan_id":"cebpf4jnsgd1na2vs0mg"},{"bike_id":"94e6b0aa-f8c9-477e-8091-c3a189e0f238","system_id":"levelo_inurba_marseille","lat":43.29667,"lon":5.38129,"is_reserved":false,"is_disabled":false,"rental_uris":{"android":"levelo://app?vid=94e6b0aa-f8c9-477e-8091-c3a189e0f238","ios":"levelo://app?vid=94e6b0aa-f8c9-477e-8091-c3a189e0f238"},"vehicle_type_id":"4","last_reported":1761654049,"current_range_meters":15200,"station_id":"","pricing_plan_id":"cebpf4jnsgd1na2vs0mg"},{"bike_id":"ca74f834-fd97-40bb-9620-5cb38a5d3e28","system_id":"levelo_inurba_marseille","lat":43.22926,"lon":5.35389,"is_reserved":false,"is_disabled":false,"rental_uris":{"android":"levelo://app?vid=ca74f834-fd97-40bb-9620-5cb38a5d3e28","ios":"levelo://app?vid=ca74f834-fd97-40bb-9620-5cb38a5d3e28"},"vehicle_type_id":"4","last_reported":1761654049,"current_range_meters":15200,"station_id":"cpo3532slgdg3j2ikp40","pricing_plan_id":"cebpf4jnsgd1na2vs0mg"},{"bike_id":"8d201e94-792f-44cb-927f-43912bc2fb8c","system_id":"levelo_inurba_marseille","lat":43.292595,"lon":5.376198,"is_reserved":false,"is_disabled":false,"rental_uris":{"android":"levelo://app?vid=8d201e94-792f-44cb-927f-43912bc2fb8c","ios":"levelo://app?vid=8d201e94-792f-44cb-927f-43912bc2fb8c"},"vehicle_type_id":"4","last_reported":1761654049,"current_range_meters":15200,"station_id":"ce4bgi12rcd13ifvqb80","pricing_plan_id":"cebpf4jnsgd1na2vs0mg"},{"bike_id":"2be3bf9b-39f4-4c37-8c01-9e9bcabe1c53","system_id":"levelo_inurba_marseille","lat":43.33741,"lon":5.37444,"is_reserved":false,"is_disabled":false,"rental_uris":{"android":"levelo://app?vid=2be3bf9b-39f4-4c37-8c01-9e9bcabe1c53","ios":"levelo://app?vid=2be3bf9b-39f4-4c37-8c01-9e9bcabe1c53"},"vehicle_type_id":"4","last_reported":1761654049,"current_range_meters":15200,"station_id":"","pricing_plan_id":"cebpf4jnsgd1na2vs0mg"},{"bike_id":"391ea9da-1fb3-409b-be1f-2afa93e0e963","system_id":"levelo_inurba_marseille","lat":43.30546,"lon":5.36559,"is_reserved":false,"is_disabled":false,"rental_uris":{"android":"levelo://app?vid=391ea9da-1fb3-409b-be1f-2afa93e0e963","ios":"levelo://app?vid=391ea9da-1fb3-409b-be1f-2afa93e0e963"},"vehicle_type_id":"4","last_reported":1761654049,"current_range_meters":15200,"station_id":"ce4bgs12rcd13ifvqcag","pricing_plan_id":"cebpf4jnsgd1na2vs0mg"},{"bike_id":"04bdf183-6a0e-4b3b-affd-5ca2e90c502b","system_id":"levelo_inurba_marseille","lat":43.217516,"lon":5.346069,"is_reserved":false,"is_disabled":false,"rental_uris":{"android":"levelo://app?vid=04bdf183-6a0e-4b3b-affd-5ca2e90c502b","ios":"levelo://app?vid=04bdf183-6a0e-4b3b-affd-5ca2e90c502b"},"vehicle_type_id":"4","last_reported":1761654049,"current_range_meters":15200,"station_id":"","pricing_plan_id":"cebpf4jnsgd1na2vs0mg"},{"bike_id":"4ddfb4bb-556a-4528-9867-2221062f07d7","system_id":"levelo_inurba_marseille","lat":43.25924,"lon":5.40893,"is_reserved":false,"is_disabled":false,"rental_uris":{"android":"levelo://app?vid=4ddfb4bb-556a-4528-9867-2221062f07d7","ios":"levelo://app?vid=4ddfb4bb-556a-4528-9867-2221062f07d7"},"vehicle_type_id":"4","last_reported":1761654049,"current_range_meters":15200,"station_id":"ce4bhm92rcd13ifvqglg","pricing_plan_id":"cebpf4jnsgd1na2vs0mg"},{"bike_id":"f700f4b6-b033-4d85-b25b-c49a8a263da0","system_id":"levelo_inurba_marseille","lat":43.25825,"lon":5.39434,"is_reserved":false,"is_disabled":false,"rental_uris":{"android":"levelo://app?vid=f700f4b6-b033-4d85-b25b-c49a8a263da0","ios":"levelo://app?vid=f700f4b6-b033-4d85-b25b-c49a8a263da0"},"vehicle_type_id":"4","last_reported":1761654049,"current_range_meters":15200,"station_id":"ce4bhip2rcd13ifvqft0","pricing_plan_id":"cebpf4jnsgd1na2vs0mg"},{"bike_id":"b5821bab-7159-4d11-ae27-a8bfd4f60bfb","system_id":"levelo_inurba_marseille","lat":43.26204,"lon":5.37446,"is_reserved":false,"is_disabled":false,"rental_uris":{"android":"levelo://app?vid=b5821bab-7159-4d11-ae27-a8bfd4f60bfb","ios":"levelo://app?vid=b5821bab-7159-4d11-ae27-a8bfd4f60bfb"},"vehicle_type_id":"4","last_reported":1761654049,"current_range_meters":15200,"station_id":"ce4bhgp2rcd13ifvqfc0","pricing_plan_id":"cebpf4jnsgd1na2vs0mg"},{"bike_id":"ae8ebe94-fc0f-4409-8f77-39eb5c613a67","system_id":"levelo_inurba_marseille","lat":43.337444,"lon":5.374475,"is_reserved":false,"is_disabled":false,"rental_uris":{"android":"levelo://app?vid=ae8ebe94-fc0f-4409-8f77-39eb5c613a67","ios":"levelo://app?vid=ae8ebe94-fc0f-4409-8f77-39eb5c613a67"},"vehicle_type_id":"4","last_reported":1761654049,"current_range_meters":16000,"station_id":"","pricing_plan_id":"cebpf4jnsgd1na2vs0mg"},{"bike_id":"f4ae8a8d-d71a-4e48-9339-66550bde7b84","system_id":"levelo_inurba_marseille","lat":43.296782,"lon":5.378637,"is_reserved":false,"is_disabled":true,"rental_uris":{"android":"levelo://app?vid=f4ae8a8d-d71a-4e48-9339-66550bde7b84","ios":"levelo://app?vid=f4ae8a8d-d71a-4e48-9339-66550bde7b84"},"vehicle_type_id":"4","last_reported":1761654049,"current_range_meters":16000,"station_id":"","pricing_plan_id":"cebpf4jnsgd1na2vs0mg"},{"bike_id":"19a88a43-3257-42fc-8e02-beec319d2590","system_id":"levelo_inurba_marseille","lat":43.30175,"lon":5.36613,"is_reserved":false,"is_disabled":false,"rental_uris":{"android":"levelo://app?vid=19a88a43-3257-42fc-8e02-beec319d2590","ios":"levelo://app?vid=19a88a43-3257-42fc-8e02-beec319d2590"},"vehicle_type_id":"4","last_reported":1761654049,"current_range_meters":16000,"station_id":"ce4bgrh2rcd13ifvqc8g","pricing_plan_id":"cebpf4jnsgd1na2vs0mg"},{"bike_id":"dc3f4f27-0c87-4208-8c15-6b40e049f762","system_id":"levelo_inurba_marseille","lat":43.231555,"lon":5.437056,"is_reserved":false,"is_disabled":false,"rental_uris":{"android":"levelo://app?vid=dc3f4f27-0c87-4208-8c15-6b40e049f762","ios":"levelo://app?vid=dc3f4f27-0c87-4208-8c15-6b40e049f762"},"vehicle_type_id":"4","last_reported":1761654049,"current_range_meters":16400,"station_id":"","pricing_plan_id":"cebpf4jnsgd1na2vs0mg"},{"bike_id":"d1425065-7c28-4f58-9df6-1c1e4c9294c2","system_id":"levelo_inurba_marseille","lat":43.28221,"lon":5.39078,"is_reserved":false,"is_disabled":false,"rental_uris":{"android":"levelo://app?vid=d1425065-7c28-4f58-9df6-1c1e4c9294c2","ios":"levelo://app?vid=d1425065-7c28-4f58-9df6-1c1e4c9294c2"},"vehicle_type_id":"4","last_reported":1761654049,"current_range_meters":16400,"station_id":"ce4bhn92rcd13ifvqgsg","pricing_plan_id":"cebpf4jnsgd1na2vs0mg"},{"bike_id":"706b5342-b48f-4a2c-afbe-f94b752c6378","system_id":"levelo_inurba_marseille","lat":43.30606,"lon":5.37232,"is_reserved":false,"is_disabled":false,"rental_uris":{"android":"levelo://app?vid=706b5342-b48f-4a2c-afbe-f94b752c6378","ios":"levelo://app?vid=706b5342-b48f-4a2c-afbe-f94b752c6378"},"vehicle_type_id":"4","last_reported":1761654049,"current_range_meters":16400,"station_id":"ce4bgqh2rcd13ifvqc4g","pricing_plan_id":"cebpf4jnsgd1na2vs0mg"},{"bike_id":"32d7653e-b033-4183-b4c0-f44169bb9067","system_id":"levelo_inurba_marseille","lat":43.32702,"lon":5.39201,"is_reserved":false,"is_disabled":false,"rental_uris":{"android":"levelo://app?vid=32d7653e-b033-4183-b4c0-f44169bb9067","ios":"levelo://app?vid=32d7653e-b033-4183-b4c0-f44169bb9067"},"vehicle_type_id":"4","last_reported":1761654049,"current_range_meters":16400,"station_id":"","pricing_plan_id":"cebpf4jnsgd1na2vs0mg"},{"bike_id":"452e8e6e-6805-4d8b-9b13-79df7a637126","system_id":"levelo_inurba_marseille","lat":43.24386,"lon":5.37034,"is_reserved":false,"is_disabled":false,"rental_uris":{"android":"levelo://app?vid=452e8e6e-6805-4d8b-9b13-79df7a637126","ios":"levelo://app?vid=452e8e6e-6805-4d8b-9b13-79df7a637126"},"vehicle_type_id":"4","last_reported":1761654049,"current_range_meters":16400,"station_id":"ce4bhhh2rcd13ifvqfk0","pricing_plan_id":"cebpf4jnsgd1na2vs0mg"},{"bike_id":"b563f47f-bb68-4136-8ea2-6d4cb06b750e","system_id":"levelo_inurba_marseille","lat":43.299847,"lon":5.400937,"is_reserved":false,"is_disabled":false,"rental_uris":{"android":"levelo://app?vid=b563f47f-bb68-4136-8ea2-6d4cb06b750e","ios":"levelo://app?vid=b563f47f-bb68-4136-8ea2-6d4cb06b750e"},"vehicle_type_id":"4","last_reported":1761654049,"current_range_meters":16800,"station_id":"ce4bgup2rcd13ifvqcn0","pricing_plan_id":"cebpf4jnsgd1na2vs0mg"},{"bike_id":"a76ebe14-4d78-4115-8155-4046bfdb7fc8","system_id":"levelo_inurba_marseille","lat":43.303097,"lon":5.379377,"is_reserved":false,"is_disabled":false,"rental_uris":{"android":"levelo://app?vid=a76ebe14-4d78-4115-8155-4046bfdb7fc8","ios":"levelo://app?vid=a76ebe14-4d78-4115-8155-4046bfdb7fc8"},"vehicle_type_id":"4","last_reported":1761654049,"current_range_meters":16800,"station_id":"ce4bgup2rcd13ifvqcn0","pricing_plan_id":"cebpf4jnsgd1na2vs0mg"},{"bike_id":"fc689893-6350-4e0a-916a-a88878849e6a","system_id":"levelo_inurba_marseille","lat":43.30378,"lon":5.42478,"is_reserved":false,"is_disabled":false,"rental_uris":{"android":"levelo://app?vid=fc689893-6350-4e0a-916a-a88878849e6a","ios":"levelo://app?vid=fc689893-6350-4e0a-916a-a88878849e6a"},"vehicle_type_id":"4","last_reported":1761654049,"current_range_meters":16800,"station_id":"ce4bhoh2rcd13ifvqh6g","pricing_plan_id":"cebpf4jnsgd1na2vs0mg"},{"bike_id":"2e799c52-4490-43a4-b6ca-66c98344a4e0","system_id":"levelo_inurba_marseille","lat":43.30602,"lon":5.3722,"is_reserved":false,"is_disabled":false,"rental_uris":{"android":"levelo://app?vid=2e799c52-4490-43a4-b6ca-66c98344a4e0","ios":"levelo://app?vid=2e799c52-4490-43a4-b6ca-66c98344a4e0"},"vehicle_type_id":"4","last_reported":1761654049,"current_range_meters":16800,"station_id":"ce4bgqh2rcd13ifvqc4g","pricing_plan_id":"cebpf4jnsgd1na2vs0mg"},{"bike_id":"8892c35d-6bfd-41c1-a44b-1b646fc53c9b","system_id":"levelo_inurba_marseille","lat":43.23041,"lon":5.35499,"is_reserved":false,"is_disabled":false,"rental_uris":{"android":"levelo://app?vid=8892c35d-6bfd-41c1-a44b-1b646fc53c9b","ios":"levelo://app?vid=8892c35d-6bfd-41c1-a44b-1b646fc53c9b"},"vehicle_type_id":"4","last_reported":1761654049,"current_range_meters":17200,"station_id":"cpo3342slgdg3j2ifvpg","pricing_plan_id":"cebpf4jnsgd1na2vs0mg"},{"bike_id":"88b67406-da47-4206-a8cb-846ec94f0977","system_id":"levelo_inurba_marseille","lat":43.281045,"lon":5.378276,"is_reserved":false,"is_disabled":false,"rental_uris":{"android":"levelo://app?vid=88b67406-da47-4206-a8cb-846ec94f0977","ios":"levelo://app?vid=88b67406-da47-4206-a8cb-846ec94f0977"},"vehicle_type_id":"4","last_reported":1761654049,"current_range_meters":17200,"station_id":"ce4bha12rcd13ifvqee0","pricing_plan_id":"cebpf4jnsgd1na2vs0mg"},{"bike_id":"99373ff4-c6ad-47a3-8ec0-acdae6a78daf","system_id":"levelo_inurba_marseille","lat":43.30536,"lon":5.3654,"is_reserved":false,"is_disabled":false,"rental_uris":{"android":"levelo://app?vid=99373ff4-c6ad-47a3-8ec0-acdae6a78daf","ios":"levelo://app?vid=99373ff4-c6ad-47a3-8ec0-acdae6a78daf"},"vehicle_type_id":"4","last_reported":1761654049,"current_range_meters":17200,"station_id":"ce4bgs12rcd13ifvqcag","pricing_plan_id":"cebpf4jnsgd1na2vs0mg"},{"bike_id":"85a7df2c-8dcf-46f5-826c-c18168f09c7e","system_id":"levelo_inurba_marseille","lat":43.230638,"lon":5.354928,"is_reserved":false,"is_disabled":false,"rental_uris":{"android":"levelo://app?vid=85a7df2c-8dcf-46f5-826c-c18168f09c7e","ios":"levelo://app?vid=85a7df2c-8dcf-46f5-826c-c18168f09c7e"},"vehicle_type_id":"4","last_reported":1761654049,"current_range_meters":17200,"station_id":"cpo3342slgdg3j2ifvpg","pricing_plan_id":"cebpf4jnsgd1na2vs0mg"},{"bike_id":"d729c0db-f8e3-4a17-9c0f-f35d2bace2da","system_id":"levelo_inurba_marseille","lat":43.313521,"lon":5.367056,"is_reserved":false,"is_disabled":false,"rental_uris":{"android":"levelo://app?vid=d729c0db-f8e3-4a17-9c0f-f35d2bace2da","ios":"levelo://app?vid=d729c0db-f8e3-4a17-9c0f-f35d2bace2da"},"vehicle_type_id":"4","last_reported":1761654049,"current_range_meters":17200,"station_id":"ce4bgqh2rcd13ifvqc5g","pricing_plan_id":"cebpf4jnsgd1na2vs0mg"},{"bike_id":"02dd205b-e97c-4104-9683-066d2523fd3f","system_id":"levelo_inurba_marseille","lat":43.23063,"lon":5.35466,"is_reserved":false,"is_disabled":false,"rental_uris":{"android":"levelo://app?vid=02dd205b-e97c-4104-9683-066d2523fd3f","ios":"levelo://app?vid=02dd205b-e97c-4104-9683-066d2523fd3f"},"vehicle_type_id":"4","last_reported":1761654049,"current_range_meters":17200,"station_id":"cpo3342slgdg3j2ifvpg","pricing_plan_id":"cebpf4jnsgd1na2vs0mg"},{"bike_id":"f79a84f4-55d0-4441-8119-340765a2973b","system_id":"levelo_inurba_marseille","lat":43.25924,"lon":5.40895,"is_reserved":false,"is_disabled":false,"rental_uris":{"android":"levelo://app?vid=f79a84f4-55d0-4441-8119-340765a2973b","ios":"levelo://app?vid=f79a84f4-55d0-4441-8119-340765a2973b"},"vehicle_type_id":"4","last_reported":1761654049,"current_range_meters":17600,"station_id":"ce4bhm92rcd13ifvqglg","pricing_plan_id":"cebpf4jnsgd1na2vs0mg"},{"bike_id":"d2f4ea73-d40d-4278-869d-326caa328ad0","system_id":"levelo_inurba_marseille","lat":43.26191,"lon":5.37447,"is_reserved":false,"is_disabled":false,"rental_uris":{"android":"levelo://app?vid=d2f4ea73-d40d-4278-869d-326caa328ad0","ios":"levelo://app?vid=d2f4ea73-d40d-4278-869d-326caa328ad0"},"vehicle_type_id":"4","last_reported":1761654049,"current_range_meters":17600,"station_id":"ce4bhgp2rcd13ifvqfc0","pricing_plan_id":"cebpf4jnsgd1na2vs0mg"},{"bike_id":"a5b9631c-fc00-4689-bef7-803838a946a9","system_id":"levelo_inurba_marseille","lat":43.2315,"lon":5.43736,"is_reserved":false,"is_disabled":false,"rental_uris":{"android":"levelo://app?vid=a5b9631c-fc00-4689-bef7-803838a946a9","ios":"levelo://app?vid=a5b9631c-fc00-4689-bef7-803838a946a9"},"vehicle_type_id":"4","last_reported":1761654049,"current_range_meters":17600,"station_id":"ce4bhmp2rcd13ifvqgog","pricing_plan_id":"cebpf4jnsgd1na2vs0mg"},{"bike_id":"7e2c67ba-5858-48cd-a796-fe26967bd9ec","system_id":"levelo_inurba_marseille","lat":43.24674,"lon":5.38159,"is_reserved":false,"is_disabled":false,"rental_uris":{"android":"levelo://app?vid=7e2c67ba-5858-48cd-a796-fe26967bd9ec","ios":"levelo://app?vid=7e2c67ba-5858-48cd-a796-fe26967bd9ec"},"vehicle_type_id":"4","last_reported":1761654049,"current_range_meters":17600,"station_id":"ce4bhih2rcd13ifvqfr0","pricing_plan_id":"cebpf4jnsgd1na2vs0mg"},{"bike_id":"a35ab817-46db-4108-9694-bc481caee482","system_id":"levelo_inurba_marseille","lat":43.28268,"lon":5.35062,"is_reserved":false,"is_disabled":false,"rental_uris":{"android":"levelo://app?vid=a35ab817-46db-4108-9694-bc481caee482","ios":"levelo://app?vid=a35ab817-46db-4108-9694-bc481caee482"},"vehicle_type_id":"4","last_reported":1761654049,"current_range_meters":18000,"station_id":"ce4bhbp2rcd13ifvqerg","pricing_plan_id":"cebpf4jnsgd1na2vs0mg"},{"bike_id":"aa0e7e4b-f890-4f53-a40a-615d9f77115a","system_id":"levelo_inurba_marseille","lat":43.321071,"lon":5.367741,"is_reserved":false,"is_disabled":false,"rental_uris":{"android":"levelo://app?vid=aa0e7e4b-f890-4f53-a40a-615d9f77115a","ios":"levelo://app?vid=aa0e7e4b-f890-4f53-a40a-615d9f77115a"},"vehicle_type_id":"4","last_reported":1761654049,"current_range_meters":18000,"station_id":"ce4bhrh2rcd13ifvqhug","pricing_plan_id":"cebpf4jnsgd1na2vs0mg"},{"bike_id":"1ff14011-1bb3-49a1-9941-97d38a0c81be","system_id":"levelo_inurba_marseille","lat":43.25083,"lon":5.39517,"is_reserved":false,"is_disabled":false,"rental_uris":{"android":"levelo://app?vid=1ff14011-1bb3-49a1-9941-97d38a0c81be","ios":"levelo://app?vid=1ff14011-1bb3-49a1-9941-97d38a0c81be"},"vehicle_type_id":"4","last_reported":1761654049,"current_range_meters":18000,"station_id":"ce4bhm12rcd13ifvqgkg","pricing_plan_id":"cebpf4jnsgd1na2vs0mg"},{"bike_id":"8743deb1-3e1b-4fe6-ab63-b75dc0a57f17","system_id":"levelo_inurba_marseille","lat":43.23064,"lon":5.35483,"is_reserved":false,"is_disabled":false,"rental_uris":{"android":"levelo://app?vid=8743deb1-3e1b-4fe6-ab63-b75dc0a57f17","ios":"levelo://app?vid=8743deb1-3e1b-4fe6-ab63-b75dc0a57f17"},"vehicle_type_id":"4","last_reported":1761654049,"current_range_meters":18000,"station_id":"cpo3342slgdg3j2ifvpg","pricing_plan_id":"cebpf4jnsgd1na2vs0mg"},{"bike_id":"7f425ad8-b04c-4581-ba89-29787be45f2c","system_id":"levelo_inurba_marseille","lat":43.28259,"lon":5.35066,"is_reserved":false,"is_disabled":false,"rental_uris":{"android":"levelo://app?vid=7f425ad8-b04c-4581-ba89-29787be45f2c","ios":"levelo://app?vid=7f425ad8-b04c-4581-ba89-29787be45f2c"},"vehicle_type_id":"4","last_reported":1761654049,"current_range_meters":18800,"station_id":"ce4bhbp2rcd13ifvqerg","pricing_plan_id":"cebpf4jnsgd1na2vs0mg"},{"bike_id":"f4dc36c7-6111-46e3-863e-30c22df8c912","system_id":"levelo_inurba_marseille","lat":43.26776,"lon":5.39392,"is_reserved":false,"is_disabled":false,"rental_uris":{"android":"levelo://app?vid=f4dc36c7-6111-46e3-863e-30c22df8c912","ios":"levelo://app?vid=f4dc36c7-6111-46e3-863e-30c22df8c912"},"vehicle_type_id":"4","last_reported":1761654049,"current_range_meters":18800,"station_id":"ce4bhh12rcd13ifvqfg0","pricing_plan_id":"cebpf4jnsgd1na2vs0mg"},{"bike_id":"cf532674-ded9-4c61-87c1-a0668ebf0df3","system_id":"levelo_inurba_marseille","lat":43.24066,"lon":5.37738,"is_reserved":false,"is_disabled":false,"rental_uris":{"android":"levelo://app?vid=cf532674-ded9-4c61-87c1-a0668ebf0df3","ios":"levelo://app?vid=cf532674-ded9-4c61-87c1-a0668ebf0df3"},"vehicle_type_id":"4","last_reported":1761654049,"current_range_meters":18800,"station_id":"ce4bhnp2rcd13ifvqgvg","pricing_plan_id":"cebpf4jnsgd1na2vs0mg"},{"bike_id":"5173cdf8-4df1-4c25-b140-d54dc40662ea","system_id":"levelo_inurba_marseille","lat":43.29003,"lon":5.35607,"is_reserved":false,"is_disabled":false,"rental_uris":{"android":"levelo://app?vid=5173cdf8-4df1-4c25-b140-d54dc40662ea","ios":"levelo://app?vid=5173cdf8-4df1-4c25-b140-d54dc40662ea"},"vehicle_type_id":"4","last_reported":1761654049,"current_range_meters":18800,"station_id":"ce4bhb92rcd13ifvqen0","pricing_plan_id":"cebpf4jnsgd1na2vs0mg"},{"bike_id":"2132007d-6c66-4765-83a4-c0c04e961c2f","system_id":"levelo_inurba_marseille","lat":43.29937,"lon":5.36542,"is_reserved":false,"is_disabled":false,"rental_uris":{"android":"levelo://app?vid=2132007d-6c66-4765-83a4-c0c04e961c2f","ios":"levelo://app?vid=2132007d-6c66-4765-83a4-c0c04e961c2f"},"vehicle_type_id":"4","last_reported":1761654049,"current_range_meters":18800,"station_id":"ce4bgm92rcd13ifvqbr0","pricing_plan_id":"cebpf4jnsgd1na2vs0mg"},{"bike_id":"96b93a83-82f2-4d31-acb8-139fbce4500d","system_id":"levelo_inurba_marseille","lat":43.229281,"lon":5.353641,"is_reserved":false,"is_disabled":false,"rental_uris":{"android":"levelo://app?vid=96b93a83-82f2-4d31-acb8-139fbce4500d","ios":"levelo://app?vid=96b93a83-82f2-4d31-acb8-139fbce4500d"},"vehicle_type_id":"4","last_reported":1761654049,"current_range_meters":18800,"station_id":"cpo3532slgdg3j2ikp40","pricing_plan_id":"cebpf4jnsgd1na2vs0mg"},{"bike_id":"6ce8387a-7217-4885-b90c-41215d188545","system_id":"levelo_inurba_marseille","lat":43.288673,"lon":5.409315,"is_reserved":false,"is_disabled":false,"rental_uris":{"android":"levelo://app?vid=6ce8387a-7217-4885-b90c-41215d188545","ios":"levelo://app?vid=6ce8387a-7217-4885-b90c-41215d188545"},"vehicle_type_id":"4","last_reported":1761654049,"current_range_meters":18800,"station_id":"","pricing_plan_id":"cebpf4jnsgd1na2vs0mg"},{"bike_id":"3c172d5e-4be3-4447-81d6-5d4b4efa8bc0","system_id":"levelo_inurba_marseille","lat":43.265404,"lon":5.385414,"is_reserved":false,"is_disabled":false,"rental_uris":{"android":"levelo://app?vid=3c172d5e-4be3-4447-81d6-5d4b4efa8bc0","ios":"levelo://app?vid=3c172d5e-4be3-4447-81d6-5d4b4efa8bc0"},"vehicle_type_id":"4","last_reported":1761654049,"current_range_meters":18800,"station_id":"","pricing_plan_id":"cebpf4jnsgd1na2vs0mg"},{"bike_id":"941eca81-61b6-4376-acbb-773a2fc9f625","system_id":"levelo_inurba_marseille","lat":43.320936,"lon":5.367755,"is_reserved":false,"is_disabled":false,"rental_uris":{"android":"levelo://app?vid=941eca81-61b6-4376-acbb-773a2fc9f625","ios":"levelo://app?vid=941eca81-61b6-4376-acbb-773a2fc9f625"},"vehicle_type_id":"4","last_reported":1761654049,"current_range_meters":19200,"station_id":"ce4bhrh2rcd13ifvqhug","pricing_plan_id":"cebpf4jnsgd1na2vs0mg"},{"bike_id":"6d8da19b-0143-43ba-a2b6-b774a32597d4","system_id":"levelo_inurba_marseille","lat":43.28142,"lon":5.34777,"is_reserved":false,"is_disabled":false,"rental_uris":{"android":"levelo://app?vid=6d8da19b-0143-43ba-a2b6-b774a32597d4","ios":"levelo://app?vid=6d8da19b-0143-43ba-a2b6-b774a32597d4"},"vehicle_type_id":"4","last_reported":1761654049,"current_range_meters":19200,"station_id":"","pricing_plan_id":"cebpf4jnsgd1na2vs0mg"},{"bike_id":"14fed8bf-0e52-4b67-9780-8d00ed00b796","system_id":"levelo_inurba_marseille","lat":43.2509,"lon":5.395249,"is_reserved":false,"is_disabled":false,"rental_uris":{"android":"levelo://app?vid=14fed8bf-0e52-4b67-9780-8d00ed00b796","ios":"levelo://app?vid=14fed8bf-0e52-4b67-9780-8d00ed00b796"},"vehicle_type_id":"4","last_reported":1761654049,"current_range_meters":19200,"station_id":"ce4bhm12rcd13ifvqgkg","pricing_plan_id":"cebpf4jnsgd1na2vs0mg"},{"bike_id":"ff391fbc-364d-4e72-b979-e452cf14c45d","system_id":"levelo_inurba_marseille","lat":43.33717,"lon":5.39183,"is_reserved":false,"is_disabled":false,"rental_uris":{"android":"levelo://app?vid=ff391fbc-364d-4e72-b979-e452cf14c45d","ios":"levelo://app?vid=ff391fbc-364d-4e72-b979-e452cf14c45d"},"vehicle_type_id":"4","last_reported":1761654049,"current_range_meters":19200,"station_id":"ce4bhr92rcd13ifvqhsg","pricing_plan_id":"cebpf4jnsgd1na2vs0mg"},{"bike_id":"313ba948-c3d9-4eda-bea1-7f852b61ef8a","system_id":"levelo_inurba_marseille","lat":43.250878,"lon":5.39527,"is_reserved":false,"is_disabled":false,"rental_uris":{"android":"levelo://app?vid=313ba948-c3d9-4eda-bea1-7f852b61ef8a","ios":"levelo://app?vid=313ba948-c3d9-4eda-bea1-7f852b61ef8a"},"vehicle_type_id":"4","last_reported":1761654049,"current_range_meters":19200,"station_id":"ce4bhm12rcd13ifvqgkg","pricing_plan_id":"cebpf4jnsgd1na2vs0mg"},{"bike_id":"f6adb9c1-4a78-4322-baec-aa5f6f5d93b6","system_id":"levelo_inurba_marseille","lat":43.225321,"lon":5.348302,"is_reserved":false,"is_disabled":false,"rental_uris":{"android":"levelo://app?vid=f6adb9c1-4a78-4322-baec-aa5f6f5d93b6","ios":"levelo://app?vid=f6adb9c1-4a78-4322-baec-aa5f6f5d93b6"},"vehicle_type_id":"4","last_reported":1761654049,"current_range_meters":19200,"station_id":"","pricing_plan_id":"cebpf4jnsgd1na2vs0mg"},{"bike_id":"8e2dcd31-6a9c-4b7f-a366-5e2640173d3c","system_id":"levelo_inurba_marseille","lat":43.22947,"lon":5.35393,"is_reserved":false,"is_disabled":false,"rental_uris":{"android":"levelo://app?vid=8e2dcd31-6a9c-4b7f-a366-5e2640173d3c","ios":"levelo://app?vid=8e2dcd31-6a9c-4b7f-a366-5e2640173d3c"},"vehicle_type_id":"4","last_reported":1761654049,"current_range_meters":19600,"station_id":"cpo3532slgdg3j2ikp40","pricing_plan_id":"cebpf4jnsgd1na2vs0mg"},{"bike_id":"ed1250cc-0f9b-4349-b7a3-0b2a7326c3f9","system_id":"levelo_inurba_marseille","lat":43.28941,"lon":5.36637,"is_reserved":false,"is_disabled":false,"rental_uris":{"android":"levelo://app?vid=ed1250cc-0f9b-4349-b7a3-0b2a7326c3f9","ios":"levelo://app?vid=ed1250cc-0f9b-4349-b7a3-0b2a7326c3f9"},"vehicle_type_id":"4","last_reported":1761654049,"current_range_meters":19600,"station_id":"ce4bhap2rcd13ifvqek0","pricing_plan_id":"cebpf4jnsgd1na2vs0mg"},{"bike_id":"54b14a5b-1cb9-4119-885b-796c26f33979","system_id":"levelo_inurba_marseille","lat":43.33023,"lon":5.39039,"is_reserved":false,"is_disabled":false,"rental_uris":{"android":"levelo://app?vid=54b14a5b-1cb9-4119-885b-796c26f33979","ios":"levelo://app?vid=54b14a5b-1cb9-4119-885b-796c26f33979"},"vehicle_type_id":"4","last_reported":1761654049,"current_range_meters":19600,"station_id":"ce4bhr92rcd13ifvqhrg","pricing_plan_id":"cebpf4jnsgd1na2vs0mg"},{"bike_id":"faee4aed-34d1-4e59-9f3e-bc2337688920","system_id":"levelo_inurba_marseille","lat":43.31715,"lon":5.43694,"is_reserved":false,"is_disabled":true,"rental_uris":{"android":"levelo://app?vid=faee4aed-34d1-4e59-9f3e-bc2337688920","ios":"levelo://app?vid=faee4aed-34d1-4e59-9f3e-bc2337688920"},"vehicle_type_id":"4","last_reported":1761654049,"current_range_meters":19600,"station_id":"ce4bhp92rcd13ifvqhcg","pricing_plan_id":"cebpf4jnsgd1na2vs0mg"},{"bike_id":"3ecd2193-21d9-4a3b-84a6-0ec598c9f344","system_id":"levelo_inurba_marseille","lat":43.28459,"lon":5.384,"is_reserved":false,"is_disabled":false,"rental_uris":{"android":"levelo://app?vid=3ecd2193-21d9-4a3b-84a6-0ec598c9f344","ios":"levelo://app?vid=3ecd2193-21d9-4a3b-84a6-0ec598c9f344"},"vehicle_type_id":"4","last_reported":1761654049,"current_range_meters":19600,"station_id":"ce4bh512rcd13ifvqe3g","pricing_plan_id":"cebpf4jnsgd1na2vs0mg"},{"bike_id":"1d2f5121-1156-406d-9bfb-6de607efd7cf","system_id":"levelo_inurba_marseille","lat":43.25933,"lon":5.4093,"is_reserved":false,"is_disabled":false,"rental_uris":{"android":"levelo://app?vid=1d2f5121-1156-406d-9bfb-6de607efd7cf","ios":"levelo://app?vid=1d2f5121-1156-406d-9bfb-6de607efd7cf"},"vehicle_type_id":"4","last_reported":1761654049,"current_range_meters":19600,"station_id":"ce4bhm92rcd13ifvqglg","pricing_plan_id":"cebpf4jnsgd1na2vs0mg"},{"bike_id":"4f24d0df-7b9a-48fa-a400-a6a0ae0f4ff8","system_id":"levelo_inurba_marseille","lat":43.24167,"lon":5.39717,"is_reserved":false,"is_disabled":false,"rental_uris":{"android":"levelo://app?vid=4f24d0df-7b9a-48fa-a400-a6a0ae0f4ff8","ios":"levelo://app?vid=4f24d0df-7b9a-48fa-a400-a6a0ae0f4ff8"},"vehicle_type_id":"4","last_reported":1761654049,"current_range_meters":19600,"station_id":"ce4bhn12rcd13ifvqgpg","pricing_plan_id":"cebpf4jnsgd1na2vs0mg"},{"bike_id":"e3260d53-1f31-4048-a6b1-57d9b1375877","system_id":"levelo_inurba_marseille","lat":43.2852,"lon":5.44113,"is_reserved":false,"is_disabled":false,"rental_uris":{"android":"levelo://app?vid=e3260d53-1f31-4048-a6b1-57d9b1375877","ios":"levelo://app?vid=e3260d53-1f31-4048-a6b1-57d9b1375877"},"vehicle_type_id":"4","last_reported":1761654049,"current_range_meters":20000,"station_id":"st_d3j3df2ikq2c7380ej80","pricing_plan_id":"cebpf4jnsgd1na2vs0mg"},{"bike_id":"3d00cf23-a66b-47a1-8eb3-f05af16b09a1","system_id":"levelo_inurba_marseille","lat":43.24396,"lon":5.37075,"is_reserved":false,"is_disabled":false,"rental_uris":{"android":"levelo://app?vid=3d00cf23-a66b-47a1-8eb3-f05af16b09a1","ios":"levelo://app?vid=3d00cf23-a66b-47a1-8eb3-f05af16b09a1"},"vehicle_type_id":"4","last_reported":1761654049,"current_range_meters":20000,"station_id":"ce4bhhh2rcd13ifvqfk0","pricing_plan_id":"cebpf4jnsgd1na2vs0mg"},{"bike_id":"39d094ac-6017-4390-8e80-c3e2498dcfcf","system_id":"levelo_inurba_marseille","lat":43.24614,"lon":5.43147,"is_reserved":false,"is_disabled":false,"rental_uris":{"android":"levelo://app?vid=39d094ac-6017-4390-8e80-c3e2498dcfcf","ios":"levelo://app?vid=39d094ac-6017-4390-8e80-c3e2498dcfcf"},"vehicle_type_id":"4","last_reported":1761654049,"current_range_meters":20000,"station_id":"st_d2m6c4gdas8pm72e190g","pricing_plan_id":"cebpf4jnsgd1na2vs0mg"},{"bike_id":"a498331b-f9a3-4a57-8d96-1ed500a00267","system_id":"levelo_inurba_marseille","lat":43.28978,"lon":5.387,"is_reserved":false,"is_disabled":false,"rental_uris":{"android":"levelo://app?vid=a498331b-f9a3-4a57-8d96-1ed500a00267","ios":"levelo://app?vid=a498331b-f9a3-4a57-8d96-1ed500a00267"},"vehicle_type_id":"4","last_reported":1761654049,"current_range_meters":20000,"station_id":"ce4bh4p2rcd13ifvqe0g","pricing_plan_id":"cebpf4jnsgd1na2vs0mg"},{"bike_id":"43785a65-fe3d-466c-a9a5-041b18944f49","system_id":"levelo_inurba_marseille","lat":43.28615,"lon":5.35106,"is_reserved":false,"is_disabled":false,"rental_uris":{"android":"levelo://app?vid=43785a65-fe3d-466c-a9a5-041b18944f49","ios":"levelo://app?vid=43785a65-fe3d-466c-a9a5-041b18944f49"},"vehicle_type_id":"4","last_reported":1761654049,"current_range_meters":20000,"station_id":"ce4bhch2rcd13ifvqeug","pricing_plan_id":"cebpf4jnsgd1na2vs0mg"},{"bike_id":"7d9fda53-801d-4d6d-898d-9697c78ce100","system_id":"levelo_inurba_marseille","lat":43.27052,"lon":5.40228,"is_reserved":false,"is_disabled":false,"rental_uris":{"android":"levelo://app?vid=7d9fda53-801d-4d6d-898d-9697c78ce100","ios":"levelo://app?vid=7d9fda53-801d-4d6d-898d-9697c78ce100"},"vehicle_type_id":"4","last_reported":1761654049,"current_range_meters":20000,"station_id":"ce4bhk92rcd13ifvqgc0","pricing_plan_id":"cebpf4jnsgd1na2vs0mg"},{"bike_id":"75dc66b3-0d26-400d-85b7-e985f64e2136","system_id":"levelo_inurba_marseille","lat":43.28996,"lon":5.43697,"is_reserved":false,"is_disabled":false,"rental_uris":{"android":"levelo://app?vid=75dc66b3-0d26-400d-85b7-e985f64e2136","ios":"levelo://app?vid=75dc66b3-0d26-400d-85b7-e985f64e2136"},"vehicle_type_id":"4","last_reported":1761654049,"current_range_meters":20400,"station_id":"","pricing_plan_id":"cebpf4jnsgd1na2vs0mg"},{"bike_id":"1a34b5a4-3c1e-479b-b6f5-76f97d5c5c52","system_id":"levelo_inurba_marseille","lat":43.285305,"lon":5.440981,"is_reserved":false,"is_disabled":false,"rental_uris":{"android":"levelo://app?vid=1a34b5a4-3c1e-479b-b6f5-76f97d5c5c52","ios":"levelo://app?vid=1a34b5a4-3c1e-479b-b6f5-76f97d5c5c52"},"vehicle_type_id":"4","last_reported":1761654049,"current_range_meters":20400,"station_id":"st_d3j3df2ikq2c7380ej80","pricing_plan_id":"cebpf4jnsgd1na2vs0mg"},{"bike_id":"e283886f-13d4-4fe8-9af3-a19ccc79f056","system_id":"levelo_inurba_marseille","lat":43.25006,"lon":5.3892,"is_reserved":false,"is_disabled":false,"rental_uris":{"android":"levelo://app?vid=e283886f-13d4-4fe8-9af3-a19ccc79f056","ios":"levelo://app?vid=e283886f-13d4-4fe8-9af3-a19ccc79f056"},"vehicle_type_id":"4","last_reported":1761654049,"current_range_meters":20400,"station_id":"ce4bhgp2rcd13ifvqfd0","pricing_plan_id":"cebpf4jnsgd1na2vs0mg"},{"bike_id":"68fb8eb8-a4bc-4ad1-8fdc-7879d671900c","system_id":"levelo_inurba_marseille","lat":43.28425,"lon":5.3499,"is_reserved":false,"is_disabled":false,"rental_uris":{"android":"levelo://app?vid=68fb8eb8-a4bc-4ad1-8fdc-7879d671900c","ios":"levelo://app?vid=68fb8eb8-a4bc-4ad1-8fdc-7879d671900c"},"vehicle_type_id":"4","last_reported":1761654049,"current_range_meters":20400,"station_id":"ce4bhbh2rcd13ifvqepg","pricing_plan_id":"cebpf4jnsgd1na2vs0mg"},{"bike_id":"723a003b-69e7-40c1-8770-b8861d0b490a","system_id":"levelo_inurba_marseille","lat":43.22933,"lon":5.35394,"is_reserved":false,"is_disabled":false,"rental_uris":{"android":"levelo://app?vid=723a003b-69e7-40c1-8770-b8861d0b490a","ios":"levelo://app?vid=723a003b-69e7-40c1-8770-b8861d0b490a"},"vehicle_type_id":"4","last_reported":1761654049,"current_range_meters":20400,"station_id":"cpo3532slgdg3j2ikp40","pricing_plan_id":"cebpf4jnsgd1na2vs0mg"},{"bike_id":"a049967b-d347-4414-83a8-1154d36b087e","system_id":"levelo_inurba_marseille","lat":43.24391,"lon":5.37085,"is_reserved":false,"is_disabled":false,"rental_uris":{"android":"levelo://app?vid=a049967b-d347-4414-83a8-1154d36b087e","ios":"levelo://app?vid=a049967b-d347-4414-83a8-1154d36b087e"},"vehicle_type_id":"4","last_reported":1761654049,"current_range_meters":20400,"station_id":"ce4bhhh2rcd13ifvqfk0","pricing_plan_id":"cebpf4jnsgd1na2vs0mg"},{"bike_id":"6eab395f-908f-4e05-896e-00982c676b97","system_id":"levelo_inurba_marseille","lat":43.26554,"lon":5.37284,"is_reserved":false,"is_disabled":false,"rental_uris":{"android":"levelo://app?vid=6eab395f-908f-4e05-896e-00982c676b97","ios":"levelo://app?vid=6eab395f-908f-4e05-896e-00982c676b97"},"vehicle_type_id":"4","last_reported":1761654049,"current_range_meters":20400,"station_id":"ce4bhg12rcd13ifvqf70","pricing_plan_id":"cebpf4jnsgd1na2vs0mg"},{"bike_id":"36b87f57-baa6-4d7e-b4c8-35675113e45f","system_id":"levelo_inurba_marseille","lat":43.244068,"lon":5.396516,"is_reserved":false,"is_disabled":false,"rental_uris":{"android":"levelo://app?vid=36b87f57-baa6-4d7e-b4c8-35675113e45f","ios":"levelo://app?vid=36b87f57-baa6-4d7e-b4c8-35675113e45f"},"vehicle_type_id":"4","last_reported":1761654049,"current_range_meters":20800,"station_id":"ce4bhlp2rcd13ifvqgjg","pricing_plan_id":"cebpf4jnsgd1na2vs0mg"},{"bike_id":"edc72fb2-7f14-4c75-8c38-0a11b9902215","system_id":"levelo_inurba_marseille","lat":43.23953,"lon":5.36641,"is_reserved":false,"is_disabled":false,"rental_uris":{"android":"levelo://app?vid=edc72fb2-7f14-4c75-8c38-0a11b9902215","ios":"levelo://app?vid=edc72fb2-7f14-4c75-8c38-0a11b9902215"},"vehicle_type_id":"4","last_reported":1761654049,"current_range_meters":20800,"station_id":"ce4bhi12rcd13ifvqfp0","pricing_plan_id":"cebpf4jnsgd1na2vs0mg"},{"bike_id":"26fe4e43-6685-4528-a529-fbd524981758","system_id":"levelo_inurba_marseille","lat":43.240693,"lon":5.377477,"is_reserved":false,"is_disabled":false,"rental_uris":{"android":"levelo://app?vid=26fe4e43-6685-4528-a529-fbd524981758","ios":"levelo://app?vid=26fe4e43-6685-4528-a529-fbd524981758"},"vehicle_type_id":"4","last_reported":1761654049,"current_range_meters":20800,"station_id":"ce4bhnp2rcd13ifvqgvg","pricing_plan_id":"cebpf4jnsgd1na2vs0mg"},{"bike_id":"db0d7fd2-78fb-49f2-88b1-362741a795cb","system_id":"levelo_inurba_marseille","lat":43.337444,"lon":5.374475,"is_reserved":false,"is_disabled":false,"rental_uris":{"android":"levelo://app?vid=db0d7fd2-78fb-49f2-88b1-362741a795cb","ios":"levelo://app?vid=db0d7fd2-78fb-49f2-88b1-362741a795cb"},"vehicle_type_id":"4","last_reported":1761654049,"current_range_meters":21600,"station_id":"","pricing_plan_id":"cebpf4jnsgd1na2vs0mg"},{"bike_id":"d9a6a1f6-ad3e-4d83-b3dd-5f0ef903b947","system_id":"levelo_inurba_marseille","lat":43.230866,"lon":5.354803,"is_reserved":false,"is_disabled":false,"rental_uris":{"android":"levelo://app?vid=d9a6a1f6-ad3e-4d83-b3dd-5f0ef903b947","ios":"levelo://app?vid=d9a6a1f6-ad3e-4d83-b3dd-5f0ef903b947"},"vehicle_type_id":"4","last_reported":1761654049,"current_range_meters":21600,"station_id":"","pricing_plan_id":"cebpf4jnsgd1na2vs0mg"},{"bike_id":"fbb75000-48f5-4dbe-aa37-aa4a8d769d08","system_id":"levelo_inurba_marseille","lat":43.22928,"lon":5.35375,"is_reserved":false,"is_disabled":false,"rental_uris":{"android":"levelo://app?vid=fbb75000-48f5-4dbe-aa37-aa4a8d769d08","ios":"levelo://app?vid=fbb75000-48f5-4dbe-aa37-aa4a8d769d08"},"vehicle_type_id":"4","last_reported":1761654049,"current_range_meters":21600,"station_id":"cpo3532slgdg3j2ikp40","pricing_plan_id":"cebpf4jnsgd1na2vs0mg"},{"bike_id":"556c95c4-e39d-4a50-b32b-6e1b11658636","system_id":"levelo_inurba_marseille","lat":43.241708,"lon":5.363995,"is_reserved":false,"is_disabled":false,"rental_uris":{"android":"levelo://app?vid=556c95c4-e39d-4a50-b32b-6e1b11658636","ios":"levelo://app?vid=556c95c4-e39d-4a50-b32b-6e1b11658636"},"vehicle_type_id":"4","last_reported":1761654049,"current_range_meters":21600,"station_id":"cpo36qri1sfpv3e86is0","pricing_plan_id":"cebpf4jnsgd1na2vs0mg"},{"bike_id":"7e8c1e26-ecbd-4814-afed-2c8de011139c","system_id":"levelo_inurba_marseille","lat":43.2668,"lon":5.38282,"is_reserved":false,"is_disabled":false,"rental_uris":{"android":"levelo://app?vid=7e8c1e26-ecbd-4814-afed-2c8de011139c","ios":"levelo://app?vid=7e8c1e26-ecbd-4814-afed-2c8de011139c"},"vehicle_type_id":"4","last_reported":1761654049,"current_range_meters":22000,"station_id":"ce4bhg92rcd13ifvqf90","pricing_plan_id":"cebpf4jnsgd1na2vs0mg"},{"bike_id":"2f9cc83b-5b96-4433-a926-c8d3abdc3475","system_id":"levelo_inurba_marseille","lat":43.29587,"lon":5.37516,"is_reserved":false,"is_disabled":false,"rental_uris":{"android":"levelo://app?vid=2f9cc83b-5b96-4433-a926-c8d3abdc3475","ios":"levelo://app?vid=2f9cc83b-5b96-4433-a926-c8d3abdc3475"},"vehicle_type_id":"4","last_reported":1761654049,"current_range_meters":22000,"station_id":"ce4bgh92rcd13ifvqb50","pricing_plan_id":"cebpf4jnsgd1na2vs0mg"},{"bike_id":"47e1e78b-045c-462a-97bf-cd3a9dfd847d","system_id":"levelo_inurba_marseille","lat":43.29834,"lon":5.36281,"is_reserved":false,"is_disabled":false,"rental_uris":{"android":"levelo://app?vid=47e1e78b-045c-462a-97bf-cd3a9dfd847d","ios":"levelo://app?vid=47e1e78b-045c-462a-97bf-cd3a9dfd847d"},"vehicle_type_id":"4","last_reported":1761654049,"current_range_meters":22000,"station_id":"ce4bgpp2rcd13ifvqc3g","pricing_plan_id":"cebpf4jnsgd1na2vs0mg"},{"bike_id":"a0474314-7ae2-4494-9e0f-783c40c1c91a","system_id":"levelo_inurba_marseille","lat":43.22923,"lon":5.35372,"is_reserved":false,"is_disabled":false,"rental_uris":{"android":"levelo://app?vid=a0474314-7ae2-4494-9e0f-783c40c1c91a","ios":"levelo://app?vid=a0474314-7ae2-4494-9e0f-783c40c1c91a"},"vehicle_type_id":"4","last_reported":1761654049,"current_range_meters":22000,"station_id":"cpo3532slgdg3j2ikp40","pricing_plan_id":"cebpf4jnsgd1na2vs0mg"},{"bike_id":"10f93dc6-6449-4692-8355-ef41450915f5","system_id":"levelo_inurba_marseille","lat":43.27207,"lon":5.39176,"is_reserved":false,"is_disabled":false,"rental_uris":{"android":"levelo://app?vid=10f93dc6-6449-4692-8355-ef41450915f5","ios":"levelo://app?vid=10f93dc6-6449-4692-8355-ef41450915f5"},"vehicle_type_id":"4","last_reported":1761654049,"current_range_meters":22000,"station_id":"ce4bhhp2rcd13ifvqfm0","pricing_plan_id":"cebpf4jnsgd1na2vs0mg"},{"bike_id":"74d682ec-7f1c-4aa7-822b-0f0977be3f38","system_id":"levelo_inurba_marseille","lat":43.24205,"lon":5.36382,"is_reserved":false,"is_disabled":false,"rental_uris":{"android":"levelo://app?vid=74d682ec-7f1c-4aa7-822b-0f0977be3f38","ios":"levelo://app?vid=74d682ec-7f1c-4aa7-822b-0f0977be3f38"},"vehicle_type_id":"4","last_reported":1761654049,"current_range_meters":22000,"station_id":"cpo36qri1sfpv3e86is0","pricing_plan_id":"cebpf4jnsgd1na2vs0mg"},{"bike_id":"48a10761-c8e4-4754-bd36-dda7626a0acc","system_id":"levelo_inurba_marseille","lat":43.30546,"lon":5.365658,"is_reserved":false,"is_disabled":false,"rental_uris":{"android":"levelo://app?vid=48a10761-c8e4-4754-bd36-dda7626a0acc","ios":"levelo://app?vid=48a10761-c8e4-4754-bd36-dda7626a0acc"},"vehicle_type_id":"4","last_reported":1761654049,"current_range_meters":22000,"station_id":"ce4bgs12rcd13ifvqcag","pricing_plan_id":"cebpf4jnsgd1na2vs0mg"},{"bike_id":"e27d8dba-3057-434b-857d-2d3bf43465a3","system_id":"levelo_inurba_marseille","lat":43.27812,"lon":5.40713,"is_reserved":false,"is_disabled":false,"rental_uris":{"android":"levelo://app?vid=e27d8dba-3057-434b-857d-2d3bf43465a3","ios":"levelo://app?vid=e27d8dba-3057-434b-857d-2d3bf43465a3"},"vehicle_type_id":"4","last_reported":1761654049,"current_range_meters":22400,"station_id":"ce4bhnh2rcd13ifvqgtg","pricing_plan_id":"cebpf4jnsgd1na2vs0mg"},{"bike_id":"0aaccd4f-3ae6-4377-997d-dfcefde2220d","system_id":"levelo_inurba_marseille","lat":43.23966,"lon":5.36628,"is_reserved":false,"is_disabled":false,"rental_uris":{"android":"levelo://app?vid=0aaccd4f-3ae6-4377-997d-dfcefde2220d","ios":"levelo://app?vid=0aaccd4f-3ae6-4377-997d-dfcefde2220d"},"vehicle_type_id":"4","last_reported":1761654049,"current_range_meters":22400,"station_id":"ce4bhi12rcd13ifvqfp0","pricing_plan_id":"cebpf4jnsgd1na2vs0mg"},{"bike_id":"2628ef73-b54c-4c13-9e7f-2d45a29a6ef5","system_id":"levelo_inurba_marseille","lat":43.31491,"lon":5.37308,"is_reserved":false,"is_disabled":false,"rental_uris":{"android":"levelo://app?vid=2628ef73-b54c-4c13-9e7f-2d45a29a6ef5","ios":"levelo://app?vid=2628ef73-b54c-4c13-9e7f-2d45a29a6ef5"},"vehicle_type_id":"4","last_reported":1761654049,"current_range_meters":22400,"station_id":"ce4bgt12rcd13ifvqcd0","pricing_plan_id":"cebpf4jnsgd1na2vs0mg"},{"bike_id":"6fa77929-e505-416b-9afd-2bfca1b80818","system_id":"levelo_inurba_marseille","lat":43.30901,"lon":5.36869,"is_reserved":false,"is_disabled":false,"rental_uris":{"android":"levelo://app?vid=6fa77929-e505-416b-9afd-2bfca1b80818","ios":"levelo://app?vid=6fa77929-e505-416b-9afd-2bfca1b80818"},"vehicle_type_id":"4","last_reported":1761654049,"current_range_meters":22400,"station_id":"ce4bgn92rcd13ifvqbvg","pricing_plan_id":"cebpf4jnsgd1na2vs0mg"},{"bike_id":"51f5d3a4-5ca4-428d-8c3a-6dc58c961bd7","system_id":"levelo_inurba_marseille","lat":43.31211,"lon":5.36858,"is_reserved":false,"is_disabled":false,"rental_uris":{"android":"levelo://app?vid=51f5d3a4-5ca4-428d-8c3a-6dc58c961bd7","ios":"levelo://app?vid=51f5d3a4-5ca4-428d-8c3a-6dc58c961bd7"},"vehicle_type_id":"4","last_reported":1761654049,"current_range_meters":22400,"station_id":"ce4bgl92rcd13ifvqbq0","pricing_plan_id":"cebpf4jnsgd1na2vs0mg"},{"bike_id":"8cf5652d-66d9-4bcf-bf4d-8904475a9e10","system_id":"levelo_inurba_marseille","lat":43.296016,"lon":5.38097,"is_reserved":false,"is_disabled":false,"rental_uris":{"android":"levelo://app?vid=8cf5652d-66d9-4bcf-bf4d-8904475a9e10","ios":"levelo://app?vid=8cf5652d-66d9-4bcf-bf4d-8904475a9e10"},"vehicle_type_id":"4","last_reported":1761654049,"current_range_meters":22400,"station_id":"ce4bgl12rcd13ifvqbo0","pricing_plan_id":"cebpf4jnsgd1na2vs0mg"},{"bike_id":"e0fbdcc5-6675-4290-bb45-c9c73d698af6","system_id":"levelo_inurba_marseille","lat":43.22562,"lon":5.41632,"is_reserved":false,"is_disabled":false,"rental_uris":{"android":"levelo://app?vid=e0fbdcc5-6675-4290-bb45-c9c73d698af6","ios":"levelo://app?vid=e0fbdcc5-6675-4290-bb45-c9c73d698af6"},"vehicle_type_id":"4","last_reported":1761654049,"current_range_meters":22400,"station_id":"st_d2o4gvlbi1j2169b742g","pricing_plan_id":"cebpf4jnsgd1na2vs0mg"},{"bike_id":"e7648629-0488-45b6-9788-6dcb1c23e80a","system_id":"levelo_inurba_marseille","lat":43.30917,"lon":5.3687,"is_reserved":false,"is_disabled":false,"rental_uris":{"android":"levelo://app?vid=e7648629-0488-45b6-9788-6dcb1c23e80a","ios":"levelo://app?vid=e7648629-0488-45b6-9788-6dcb1c23e80a"},"vehicle_type_id":"4","last_reported":1761654049,"current_range_meters":22400,"station_id":"ce4bgn92rcd13ifvqbvg","pricing_plan_id":"cebpf4jnsgd1na2vs0mg"},{"bike_id":"9d19aa12-f7d8-4182-8cd0-6d800ec08c05","system_id":"levelo_inurba_marseille","lat":43.276166,"lon":5.360981,"is_reserved":false,"is_disabled":true,"rental_uris":{"android":"levelo://app?vid=9d19aa12-f7d8-4182-8cd0-6d800ec08c05","ios":"levelo://app?vid=9d19aa12-f7d8-4182-8cd0-6d800ec08c05"},"vehicle_type_id":"4","last_reported":1761654049,"current_range_meters":22400,"station_id":"ce4bgj92rcd13ifvqbe0","pricing_plan_id":"cebpf4jnsgd1na2vs0mg"},{"bike_id":"f9671be5-f4f8-448a-b864-5b9de57677c4","system_id":"levelo_inurba_marseille","lat":43.29921,"lon":5.37492,"is_reserved":false,"is_disabled":false,"rental_uris":{"android":"levelo://app?vid=f9671be5-f4f8-448a-b864-5b9de57677c4","ios":"levelo://app?vid=f9671be5-f4f8-448a-b864-5b9de57677c4"},"vehicle_type_id":"4","last_reported":1761654049,"current_range_meters":22400,"station_id":"ce4bgjh2rcd13ifvqbg0","pricing_plan_id":"cebpf4jnsgd1na2vs0mg"},{"bike_id":"f1fd0721-ff1a-4bd5-988e-a77e52cf7919","system_id":"levelo_inurba_marseille","lat":43.321103,"lon":5.367692,"is_reserved":false,"is_disabled":false,"rental_uris":{"android":"levelo://app?vid=f1fd0721-ff1a-4bd5-988e-a77e52cf7919","ios":"levelo://app?vid=f1fd0721-ff1a-4bd5-988e-a77e52cf7919"},"vehicle_type_id":"4","last_reported":1761654049,"current_range_meters":22800,"station_id":"ce4bhrh2rcd13ifvqhug","pricing_plan_id":"cebpf4jnsgd1na2vs0mg"},{"bike_id":"a0257cb7-6e09-4e57-9074-9166ca511388","system_id":"levelo_inurba_marseille","lat":43.22577,"lon":5.41633,"is_reserved":false,"is_disabled":false,"rental_uris":{"android":"levelo://app?vid=a0257cb7-6e09-4e57-9074-9166ca511388","ios":"levelo://app?vid=a0257cb7-6e09-4e57-9074-9166ca511388"},"vehicle_type_id":"4","last_reported":1761654049,"current_range_meters":22800,"station_id":"st_d2o4gvlbi1j2169b742g","pricing_plan_id":"cebpf4jnsgd1na2vs0mg"},{"bike_id":"3ae55b5e-2e2e-4c57-811d-a0779f10eeea","system_id":"levelo_inurba_marseille","lat":43.25521,"lon":5.37673,"is_reserved":false,"is_disabled":false,"rental_uris":{"android":"levelo://app?vid=3ae55b5e-2e2e-4c57-811d-a0779f10eeea","ios":"levelo://app?vid=3ae55b5e-2e2e-4c57-811d-a0779f10eeea"},"vehicle_type_id":"4","last_reported":1761654049,"current_range_meters":22800,"station_id":"ce4bhh12rcd13ifvqff0","pricing_plan_id":"cebpf4jnsgd1na2vs0mg"},{"bike_id":"f5aa09e5-d97d-4991-991f-acf2b2d323eb","system_id":"levelo_inurba_marseille","lat":43.217478,"lon":5.346052,"is_reserved":false,"is_disabled":false,"rental_uris":{"android":"levelo://app?vid=f5aa09e5-d97d-4991-991f-acf2b2d323eb","ios":"levelo://app?vid=f5aa09e5-d97d-4991-991f-acf2b2d323eb"},"vehicle_type_id":"4","last_reported":1761654049,"current_range_meters":22800,"station_id":"","pricing_plan_id":"cebpf4jnsgd1na2vs0mg"},{"bike_id":"cd14ddf7-fd4c-467d-9de5-6b88d966db5b","system_id":"levelo_inurba_marseille","lat":43.33939,"lon":5.39772,"is_reserved":false,"is_disabled":false,"rental_uris":{"android":"levelo://app?vid=cd14ddf7-fd4c-467d-9de5-6b88d966db5b","ios":"levelo://app?vid=cd14ddf7-fd4c-467d-9de5-6b88d966db5b"},"vehicle_type_id":"4","last_reported":1761654049,"current_range_meters":22800,"station_id":"","pricing_plan_id":"cebpf4jnsgd1na2vs0mg"},{"bike_id":"e0a09ebd-2e76-4cbc-a8c0-937f80db38d4","system_id":"levelo_inurba_marseille","lat":43.217437,"lon":5.34607,"is_reserved":false,"is_disabled":false,"rental_uris":{"android":"levelo://app?vid=e0a09ebd-2e76-4cbc-a8c0-937f80db38d4","ios":"levelo://app?vid=e0a09ebd-2e76-4cbc-a8c0-937f80db38d4"},"vehicle_type_id":"4","last_reported":1761654049,"current_range_meters":22800,"station_id":"","pricing_plan_id":"cebpf4jnsgd1na2vs0mg"},{"bike_id":"b9fe0f42-3cde-4378-a532-73d9f742fa4f","system_id":"levelo_inurba_marseille","lat":43.28449,"lon":5.35881,"is_reserved":false,"is_disabled":false,"rental_uris":{"android":"levelo://app?vid=b9fe0f42-3cde-4378-a532-73d9f742fa4f","ios":"levelo://app?vid=b9fe0f42-3cde-4378-a532-73d9f742fa4f"},"vehicle_type_id":"4","last_reported":1761654049,"current_range_meters":22800,"station_id":"ce4bhah2rcd13ifvqei0","pricing_plan_id":"cebpf4jnsgd1na2vs0mg"},{"bike_id":"de83384f-3f6d-4387-a1b7-6c3b790cfbb5","system_id":"levelo_inurba_marseille","lat":43.31403,"lon":5.36686,"is_reserved":false,"is_disabled":false,"rental_uris":{"android":"levelo://app?vid=de83384f-3f6d-4387-a1b7-6c3b790cfbb5","ios":"levelo://app?vid=de83384f-3f6d-4387-a1b7-6c3b790cfbb5"},"vehicle_type_id":"4","last_reported":1761654049,"current_range_meters":22800,"station_id":"","pricing_plan_id":"cebpf4jnsgd1na2vs0mg"},{"bike_id":"5dad549c-22f5-4fe4-be34-75c579151a18","system_id":"levelo_inurba_marseille","lat":43.24059,"lon":5.37755,"is_reserved":false,"is_disabled":false,"rental_uris":{"android":"levelo://app?vid=5dad549c-22f5-4fe4-be34-75c579151a18","ios":"levelo://app?vid=5dad549c-22f5-4fe4-be34-75c579151a18"},"vehicle_type_id":"4","last_reported":1761654049,"current_range_meters":23200,"station_id":"ce4bhnp2rcd13ifvqgvg","pricing_plan_id":"cebpf4jnsgd1na2vs0mg"},{"bike_id":"88889c4e-3118-4d7f-a73c-1931c9e73bce","system_id":"levelo_inurba_marseille","lat":43.26213,"lon":5.3744,"is_reserved":false,"is_disabled":false,"rental_uris":{"android":"levelo://app?vid=88889c4e-3118-4d7f-a73c-1931c9e73bce","ios":"levelo://app?vid=88889c4e-3118-4d7f-a73c-1931c9e73bce"},"vehicle_type_id":"4","last_reported":1761654049,"current_range_meters":23200,"station_id":"ce4bhgp2rcd13ifvqfc0","pricing_plan_id":"cebpf4jnsgd1na2vs0mg"},{"bike_id":"1c3fcfc8-1d41-453e-a80c-77758ea9e916","system_id":"levelo_inurba_marseille","lat":43.284875,"lon":5.48391,"is_reserved":false,"is_disabled":false,"rental_uris":{"android":"levelo://app?vid=1c3fcfc8-1d41-453e-a80c-77758ea9e916","ios":"levelo://app?vid=1c3fcfc8-1d41-453e-a80c-77758ea9e916"},"vehicle_type_id":"4","last_reported":1761654049,"current_range_meters":23200,"station_id":"st_d3svhcjqgbts73a3dn0g","pricing_plan_id":"cebpf4jnsgd1na2vs0mg"},{"bike_id":"c8294615-1cbe-47b3-9911-1ebc7793cb38","system_id":"levelo_inurba_marseille","lat":43.28425,"lon":5.34986,"is_reserved":false,"is_disabled":false,"rental_uris":{"android":"levelo://app?vid=c8294615-1cbe-47b3-9911-1ebc7793cb38","ios":"levelo://app?vid=c8294615-1cbe-47b3-9911-1ebc7793cb38"},"vehicle_type_id":"4","last_reported":1761654049,"current_range_meters":23200,"station_id":"ce4bhbh2rcd13ifvqepg","pricing_plan_id":"cebpf4jnsgd1na2vs0mg"},{"bike_id":"e79927bd-9b4b-4067-adc1-bb0cfb26e43d","system_id":"levelo_inurba_marseille","lat":43.284097,"lon":5.375015,"is_reserved":false,"is_disabled":false,"rental_uris":{"android":"levelo://app?vid=e79927bd-9b4b-4067-adc1-bb0cfb26e43d","ios":"levelo://app?vid=e79927bd-9b4b-4067-adc1-bb0cfb26e43d"},"vehicle_type_id":"4","last_reported":1761654049,"current_range_meters":23200,"station_id":"ce4bhgh2rcd13ifvqfa0","pricing_plan_id":"cebpf4jnsgd1na2vs0mg"},{"bike_id":"e7e727c2-a137-4f94-8828-adcc43b80462","system_id":"levelo_inurba_marseille","lat":43.31371,"lon":5.36707,"is_reserved":false,"is_disabled":false,"rental_uris":{"android":"levelo://app?vid=e7e727c2-a137-4f94-8828-adcc43b80462","ios":"levelo://app?vid=e7e727c2-a137-4f94-8828-adcc43b80462"},"vehicle_type_id":"4","last_reported":1761654049,"current_range_meters":23200,"station_id":"ce4bgr92rcd13ifvqc6g","pricing_plan_id":"cebpf4jnsgd1na2vs0mg"},