{"last_updated":1778480814,"ttl":60,"version":"2.2","data":{"bikes":[{"bike_id":"627cc100-671d-4fe7-9282-c17c464f1784","system_id":"levelo_inurba_marseille","lat":43.2668,"lon":5.38271,"is_reserved":false,"is_disabled":false,"rental_uris":{"android":"levelo://app?vid=627cc100-671d-4fe7-9282-c17c464f1784","ios":"levelo://app?vid=627cc100-671d-4fe7-9282-c17c464f1784"},"vehicle_type_id":"4","last_reported":1778480815,"current_range_meters":2800,"station_id":"ce4bhg92rcd13ifvqf90","pricing_plan_id":"cebpf4jnsgd1na2vs0mg"},{"bike_id":"723ca23b-a00c-4255-8fa2-fa768d0903e6","system_id":"levelo_inurba_marseille","lat":43.31429,"lon":5.39781,"is_reserved":false,"is_disabled":false,"rental_uris":{"android":"levelo://app?vid=723ca23b-a00c-4255-8fa2-fa768d0903e6","ios":"levelo://app?vid=723ca23b-a00c-4255-8fa2-fa768d0903e6"},"vehicle_type_id":"4","last_reported":1778480815,"current_range_meters":2800,"station_id":"","pricing_plan_id":"cebpf4jnsgd1na2vs0mg"},{"bike_id":"5a371028-d3c7-40cb-b9e9-cf455a483fef","system_id":"levelo_inurba_marseille","lat":43.23909,"lon":5.3745,"is_reserved":false,"is_disabled":false,"rental_uris":{"android":"levelo://app?vid=5a371028-d3c7-40cb-b9e9-cf455a483fef","ios":"levelo://app?vid=5a371028-d3c7-40cb-b9e9-cf455a483fef"},"vehicle_type_id":"4","last_reported":1778480815,"current_range_meters":2800,"station_id":"st_d6sm7csbq4hs73f8fpjg","pricing_plan_id":"cebpf4jnsgd1na2vs0mg"},{"bike_id":"c13ec480-4207-40a5-92f3-088c10b40099","system_id":"levelo_inurba_marseille","lat":43.28001,"lon":5.41672,"is_reserved":false,"is_disabled":false,"rental_uris":{"android":"levelo://app?vid=c13ec480-4207-40a5-92f3-088c10b40099","ios":"levelo://app?vid=c13ec480-4207-40a5-92f3-088c10b40099"},"vehicle_type_id":"4","last_reported":1778480815,"current_range_meters":2800,"station_id":"ce4bho12rcd13ifvqh1g","pricing_plan_id":"cebpf4jnsgd1na2vs0mg"},{"bike_id":"373dc90a-4f95-41aa-88d5-b7cfbda16b7f","system_id":"levelo_inurba_marseille","lat":43.29192,"lon":5.35792,"is_reserved":false,"is_disabled":false,"rental_uris":{"android":"levelo://app?vid=373dc90a-4f95-41aa-88d5-b7cfbda16b7f","ios":"levelo://app?vid=373dc90a-4f95-41aa-88d5-b7cfbda16b7f"},"vehicle_type_id":"4","last_reported":1778480815,"current_range_meters":2800,"station_id":"ce4bhb12rcd13ifvqel0","pricing_plan_id":"cebpf4jnsgd1na2vs0mg"},{"bike_id":"b801e03b-d6d8-4111-91c2-b154934f5d05","system_id":"levelo_inurba_marseille","lat":43.29038,"lon":5.37569,"is_reserved":false,"is_disabled":false,"rental_uris":{"android":"levelo://app?vid=b801e03b-d6d8-4111-91c2-b154934f5d05","ios":"levelo://app?vid=b801e03b-d6d8-4111-91c2-b154934f5d05"},"vehicle_type_id":"4","last_reported":1778480815,"current_range_meters":2800,"station_id":"ce4bh692rcd13ifvqe90","pricing_plan_id":"cebpf4jnsgd1na2vs0mg"},{"bike_id":"4ebbc5ef-49ba-4c38-9baf-5d1bd68a094d","system_id":"levelo_inurba_marseille","lat":43.29669,"lon":5.38051,"is_reserved":false,"is_disabled":false,"rental_uris":{"android":"levelo://app?vid=4ebbc5ef-49ba-4c38-9baf-5d1bd68a094d","ios":"levelo://app?vid=4ebbc5ef-49ba-4c38-9baf-5d1bd68a094d"},"vehicle_type_id":"4","last_reported":1778480815,"current_range_meters":3200,"station_id":"","pricing_plan_id":"cebpf4jnsgd1na2vs0mg"},{"bike_id":"5fdf3fb5-d1b6-4f1e-a9d5-a7f254ecca8b","system_id":"levelo_inurba_marseille","lat":43.27547,"lon":5.384,"is_reserved":false,"is_disabled":false,"rental_uris":{"android":"levelo://app?vid=5fdf3fb5-d1b6-4f1e-a9d5-a7f254ecca8b","ios":"levelo://app?vid=5fdf3fb5-d1b6-4f1e-a9d5-a7f254ecca8b"},"vehicle_type_id":"4","last_reported":1778480815,"current_range_meters":3200,"station_id":"ce4bhh92rcd13ifvqfi0","pricing_plan_id":"cebpf4jnsgd1na2vs0mg"},{"bike_id":"c2f23d40-cbee-47e5-b72f-aac7d7040e3a","system_id":"levelo_inurba_marseille","lat":43.28207,"lon":5.38192,"is_reserved":false,"is_disabled":false,"rental_uris":{"android":"levelo://app?vid=c2f23d40-cbee-47e5-b72f-aac7d7040e3a","ios":"levelo://app?vid=c2f23d40-cbee-47e5-b72f-aac7d7040e3a"},"vehicle_type_id":"4","last_reported":1778480815,"current_range_meters":3200,"station_id":"","pricing_plan_id":"cebpf4jnsgd1na2vs0mg"},{"bike_id":"e2b9c9b3-74a1-4359-9e5c-d5ed3ab30329","system_id":"levelo_inurba_marseille","lat":43.29341,"lon":5.38003,"is_reserved":false,"is_disabled":false,"rental_uris":{"android":"levelo://app?vid=e2b9c9b3-74a1-4359-9e5c-d5ed3ab30329","ios":"levelo://app?vid=e2b9c9b3-74a1-4359-9e5c-d5ed3ab30329"},"vehicle_type_id":"4","last_reported":1778480815,"current_range_meters":3200,"station_id":"","pricing_plan_id":"cebpf4jnsgd1na2vs0mg"},{"bike_id":"ad4c0fb0-ec8c-4917-b081-b85239a2c170","system_id":"levelo_inurba_marseille","lat":43.30377,"lon":5.4248,"is_reserved":false,"is_disabled":false,"rental_uris":{"android":"levelo://app?vid=ad4c0fb0-ec8c-4917-b081-b85239a2c170","ios":"levelo://app?vid=ad4c0fb0-ec8c-4917-b081-b85239a2c170"},"vehicle_type_id":"4","last_reported":1778480815,"current_range_meters":3200,"station_id":"ce4bhoh2rcd13ifvqh6g","pricing_plan_id":"cebpf4jnsgd1na2vs0mg"},{"bike_id":"dc101bef-bd1f-418e-8ddb-dd69f28c2330","system_id":"levelo_inurba_marseille","lat":43.2606,"lon":5.39391,"is_reserved":false,"is_disabled":false,"rental_uris":{"android":"levelo://app?vid=dc101bef-bd1f-418e-8ddb-dd69f28c2330","ios":"levelo://app?vid=dc101bef-bd1f-418e-8ddb-dd69f28c2330"},"vehicle_type_id":"4","last_reported":1778480815,"current_range_meters":3200,"station_id":"ce4bhh92rcd13ifvqfj0","pricing_plan_id":"cebpf4jnsgd1na2vs0mg"},{"bike_id":"847c1960-a1bc-4d1a-8954-28bb223e729d","system_id":"levelo_inurba_marseille","lat":43.25123,"lon":5.40294,"is_reserved":false,"is_disabled":false,"rental_uris":{"android":"levelo://app?vid=847c1960-a1bc-4d1a-8954-28bb223e729d","ios":"levelo://app?vid=847c1960-a1bc-4d1a-8954-28bb223e729d"},"vehicle_type_id":"4","last_reported":1778480815,"current_range_meters":3200,"station_id":"ce4bhlh2rcd13ifvqgig","pricing_plan_id":"cebpf4jnsgd1na2vs0mg"},{"bike_id":"d7c5c7e5-d0e6-461d-9b98-7fe654fc9c02","system_id":"levelo_inurba_marseille","lat":43.28314,"lon":5.35093,"is_reserved":false,"is_disabled":true,"rental_uris":{"android":"levelo://app?vid=d7c5c7e5-d0e6-461d-9b98-7fe654fc9c02","ios":"levelo://app?vid=d7c5c7e5-d0e6-461d-9b98-7fe654fc9c02"},"vehicle_type_id":"4","last_reported":1778480815,"current_range_meters":3200,"station_id":"","pricing_plan_id":"cebpf4jnsgd1na2vs0mg"},{"bike_id":"c6ea8857-6388-4452-8841-fcbb65aec569","system_id":"levelo_inurba_marseille","lat":43.23892,"lon":5.37447,"is_reserved":false,"is_disabled":true,"rental_uris":{"android":"levelo://app?vid=c6ea8857-6388-4452-8841-fcbb65aec569","ios":"levelo://app?vid=c6ea8857-6388-4452-8841-fcbb65aec569"},"vehicle_type_id":"4","last_reported":1778480815,"current_range_meters":3200,"station_id":"st_d6sm7csbq4hs73f8fpjg","pricing_plan_id":"cebpf4jnsgd1na2vs0mg"},{"bike_id":"df95b88a-8bbb-4cab-b6ab-de4de96b7973","system_id":"levelo_inurba_marseille","lat":43.23165,"lon":5.43695,"is_reserved":false,"is_disabled":false,"rental_uris":{"android":"levelo://app?vid=df95b88a-8bbb-4cab-b6ab-de4de96b7973","ios":"levelo://app?vid=df95b88a-8bbb-4cab-b6ab-de4de96b7973"},"vehicle_type_id":"4","last_reported":1778480815,"current_range_meters":3200,"station_id":"ce4bhmp2rcd13ifvqgog","pricing_plan_id":"cebpf4jnsgd1na2vs0mg"},{"bike_id":"a14268ae-4ce7-4928-a3c9-e1c1c780b158","system_id":"levelo_inurba_marseille","lat":43.28629,"lon":5.4014,"is_reserved":false,"is_disabled":false,"rental_uris":{"android":"levelo://app?vid=a14268ae-4ce7-4928-a3c9-e1c1c780b158","ios":"levelo://app?vid=a14268ae-4ce7-4928-a3c9-e1c1c780b158"},"vehicle_type_id":"4","last_reported":1778480815,"current_range_meters":3200,"station_id":"","pricing_plan_id":"cebpf4jnsgd1na2vs0mg"},{"bike_id":"206d0257-924f-44b2-848a-c3793bb042d2","system_id":"levelo_inurba_marseille","lat":43.27451,"lon":5.39402,"is_reserved":false,"is_disabled":true,"rental_uris":{"android":"levelo://app?vid=206d0257-924f-44b2-848a-c3793bb042d2","ios":"levelo://app?vid=206d0257-924f-44b2-848a-c3793bb042d2"},"vehicle_type_id":"4","last_reported":1778480815,"current_range_meters":3600,"station_id":"ce4bhdp2rcd13ifvqf20","pricing_plan_id":"cebpf4jnsgd1na2vs0mg"},{"bike_id":"8645914a-ef55-42c9-b253-dfca0f08716e","system_id":"levelo_inurba_marseille","lat":43.3212,"lon":5.36758,"is_reserved":false,"is_disabled":false,"rental_uris":{"android":"levelo://app?vid=8645914a-ef55-42c9-b253-dfca0f08716e","ios":"levelo://app?vid=8645914a-ef55-42c9-b253-dfca0f08716e"},"vehicle_type_id":"4","last_reported":1778480815,"current_range_meters":3600,"station_id":"ce4bhrh2rcd13ifvqhug","pricing_plan_id":"cebpf4jnsgd1na2vs0mg"},{"bike_id":"abef5b6c-1ccc-45e4-8c2e-19519fcf785d","system_id":"levelo_inurba_marseille","lat":43.31351,"lon":5.36716,"is_reserved":false,"is_disabled":false,"rental_uris":{"android":"levelo://app?vid=abef5b6c-1ccc-45e4-8c2e-19519fcf785d","ios":"levelo://app?vid=abef5b6c-1ccc-45e4-8c2e-19519fcf785d"},"vehicle_type_id":"4","last_reported":1778480815,"current_range_meters":3600,"station_id":"ce4bgr92rcd13ifvqc6g","pricing_plan_id":"cebpf4jnsgd1na2vs0mg"},{"bike_id":"1aacab34-8d6b-4103-8c30-df8f21e6b398","system_id":"levelo_inurba_marseille","lat":43.29493,"lon":5.37431,"is_reserved":false,"is_disabled":true,"rental_uris":{"android":"levelo://app?vid=1aacab34-8d6b-4103-8c30-df8f21e6b398","ios":"levelo://app?vid=1aacab34-8d6b-4103-8c30-df8f21e6b398"},"vehicle_type_id":"4","last_reported":1778480815,"current_range_meters":3600,"station_id":"","pricing_plan_id":"cebpf4jnsgd1na2vs0mg"},{"bike_id":"2e94dd12-e1ba-4921-80e2-0115f1a42a93","system_id":"levelo_inurba_marseille","lat":43.25726,"lon":5.41106,"is_reserved":false,"is_disabled":false,"rental_uris":{"android":"levelo://app?vid=2e94dd12-e1ba-4921-80e2-0115f1a42a93","ios":"levelo://app?vid=2e94dd12-e1ba-4921-80e2-0115f1a42a93"},"vehicle_type_id":"4","last_reported":1778480815,"current_range_meters":3600,"station_id":"ce4bhkp2rcd13ifvqgd0","pricing_plan_id":"cebpf4jnsgd1na2vs0mg"},{"bike_id":"73f00e24-5b30-4eac-984c-0d2f5951b32d","system_id":"levelo_inurba_marseille","lat":43.28481,"lon":5.48384,"is_reserved":false,"is_disabled":false,"rental_uris":{"android":"levelo://app?vid=73f00e24-5b30-4eac-984c-0d2f5951b32d","ios":"levelo://app?vid=73f00e24-5b30-4eac-984c-0d2f5951b32d"},"vehicle_type_id":"4","last_reported":1778480815,"current_range_meters":3600,"station_id":"","pricing_plan_id":"cebpf4jnsgd1na2vs0mg"},{"bike_id":"2acb02d1-186c-4409-b7bd-a355fb3e274c","system_id":"levelo_inurba_marseille","lat":43.2551,"lon":5.37638,"is_reserved":false,"is_disabled":false,"rental_uris":{"android":"levelo://app?vid=2acb02d1-186c-4409-b7bd-a355fb3e274c","ios":"levelo://app?vid=2acb02d1-186c-4409-b7bd-a355fb3e274c"},"vehicle_type_id":"4","last_reported":1778480815,"current_range_meters":3600,"station_id":"ce4bhh12rcd13ifvqff0","pricing_plan_id":"cebpf4jnsgd1na2vs0mg"},{"bike_id":"91fb6717-aeef-4b3a-be8a-93abc0646463","system_id":"levelo_inurba_marseille","lat":43.25526,"lon":5.37656,"is_reserved":false,"is_disabled":false,"rental_uris":{"android":"levelo://app?vid=91fb6717-aeef-4b3a-be8a-93abc0646463","ios":"levelo://app?vid=91fb6717-aeef-4b3a-be8a-93abc0646463"},"vehicle_type_id":"4","last_reported":1778480815,"current_range_meters":3600,"station_id":"ce4bhh12rcd13ifvqff0","pricing_plan_id":"cebpf4jnsgd1na2vs0mg"},{"bike_id":"d16fce62-dd6c-4a89-aebb-887e241ec9ba","system_id":"levelo_inurba_marseille","lat":43.28453,"lon":5.38565,"is_reserved":false,"is_disabled":false,"rental_uris":{"android":"levelo://app?vid=d16fce62-dd6c-4a89-aebb-887e241ec9ba","ios":"levelo://app?vid=d16fce62-dd6c-4a89-aebb-887e241ec9ba"},"vehicle_type_id":"4","last_reported":1778480815,"current_range_meters":3600,"station_id":"ce4bh8p2rcd13ifvqeb0","pricing_plan_id":"cebpf4jnsgd1na2vs0mg"},{"bike_id":"e249e880-1aae-4849-b8b9-9d830ce5e058","system_id":"levelo_inurba_marseille","lat":43.24667,"lon":5.3814,"is_reserved":false,"is_disabled":false,"rental_uris":{"android":"levelo://app?vid=e249e880-1aae-4849-b8b9-9d830ce5e058","ios":"levelo://app?vid=e249e880-1aae-4849-b8b9-9d830ce5e058"},"vehicle_type_id":"4","last_reported":1778480815,"current_range_meters":3600,"station_id":"ce4bhih2rcd13ifvqfr0","pricing_plan_id":"cebpf4jnsgd1na2vs0mg"},{"bike_id":"b19d737f-aaa9-4896-b494-f58a195f2525","system_id":"levelo_inurba_marseille","lat":43.25105,"lon":5.40323,"is_reserved":false,"is_disabled":false,"rental_uris":{"android":"levelo://app?vid=b19d737f-aaa9-4896-b494-f58a195f2525","ios":"levelo://app?vid=b19d737f-aaa9-4896-b494-f58a195f2525"},"vehicle_type_id":"4","last_reported":1778480815,"current_range_meters":4000,"station_id":"ce4bhlh2rcd13ifvqgig","pricing_plan_id":"cebpf4jnsgd1na2vs0mg"},{"bike_id":"37b581d4-a78c-4db1-8701-3ab33cd83c8a","system_id":"levelo_inurba_marseille","lat":43.30131,"lon":5.43116,"is_reserved":false,"is_disabled":true,"rental_uris":{"android":"levelo://app?vid=37b581d4-a78c-4db1-8701-3ab33cd83c8a","ios":"levelo://app?vid=37b581d4-a78c-4db1-8701-3ab33cd83c8a"},"vehicle_type_id":"4","last_reported":1778480815,"current_range_meters":4000,"station_id":"st_d3js3co5814s73ftftug","pricing_plan_id":"cebpf4jnsgd1na2vs0mg"},{"bike_id":"fc9021dd-6a45-4eae-9ef5-c862bf514c41","system_id":"levelo_inurba_marseille","lat":43.29913,"lon":5.37462,"is_reserved":false,"is_disabled":true,"rental_uris":{"android":"levelo://app?vid=fc9021dd-6a45-4eae-9ef5-c862bf514c41","ios":"levelo://app?vid=fc9021dd-6a45-4eae-9ef5-c862bf514c41"},"vehicle_type_id":"4","last_reported":1778480815,"current_range_meters":4000,"station_id":"","pricing_plan_id":"cebpf4jnsgd1na2vs0mg"},{"bike_id":"bb09b7d0-2f0b-442b-8af2-7b1544629c3f","system_id":"levelo_inurba_marseille","lat":43.30159,"lon":5.38081,"is_reserved":false,"is_disabled":false,"rental_uris":{"android":"levelo://app?vid=bb09b7d0-2f0b-442b-8af2-7b1544629c3f","ios":"levelo://app?vid=bb09b7d0-2f0b-442b-8af2-7b1544629c3f"},"vehicle_type_id":"4","last_reported":1778480815,"current_range_meters":4000,"station_id":"","pricing_plan_id":"cebpf4jnsgd1na2vs0mg"},{"bike_id":"18ce8587-878a-4858-b601-9d7adf009359","system_id":"levelo_inurba_marseille","lat":43.27172,"lon":5.39156,"is_reserved":false,"is_disabled":false,"rental_uris":{"android":"levelo://app?vid=18ce8587-878a-4858-b601-9d7adf009359","ios":"levelo://app?vid=18ce8587-878a-4858-b601-9d7adf009359"},"vehicle_type_id":"4","last_reported":1778480815,"current_range_meters":4400,"station_id":"ce4bhhp2rcd13ifvqfm0","pricing_plan_id":"cebpf4jnsgd1na2vs0mg"},{"bike_id":"67218ca1-9f27-43b8-8de7-c65da5456279","system_id":"levelo_inurba_marseille","lat":43.28377,"lon":5.38635,"is_reserved":false,"is_disabled":false,"rental_uris":{"android":"levelo://app?vid=67218ca1-9f27-43b8-8de7-c65da5456279","ios":"levelo://app?vid=67218ca1-9f27-43b8-8de7-c65da5456279"},"vehicle_type_id":"4","last_reported":1778480815,"current_range_meters":4400,"station_id":"ce4bh492rcd13ifvqdvg","pricing_plan_id":"cebpf4jnsgd1na2vs0mg"},{"bike_id":"d81dad67-31a6-4edd-9dbd-d24a6bfa2f8d","system_id":"levelo_inurba_marseille","lat":43.297066,"lon":5.376863,"is_reserved":false,"is_disabled":false,"rental_uris":{"android":"levelo://app?vid=d81dad67-31a6-4edd-9dbd-d24a6bfa2f8d","ios":"levelo://app?vid=d81dad67-31a6-4edd-9dbd-d24a6bfa2f8d"},"vehicle_type_id":"4","last_reported":1778480815,"current_range_meters":4400,"station_id":"ce4bgkh2rcd13ifvqbl0","pricing_plan_id":"cebpf4jnsgd1na2vs0mg"},{"bike_id":"be7383ac-c2d2-402b-8bfc-4584706b845c","system_id":"levelo_inurba_marseille","lat":43.26355,"lon":5.41071,"is_reserved":false,"is_disabled":false,"rental_uris":{"android":"levelo://app?vid=be7383ac-c2d2-402b-8bfc-4584706b845c","ios":"levelo://app?vid=be7383ac-c2d2-402b-8bfc-4584706b845c"},"vehicle_type_id":"4","last_reported":1778480815,"current_range_meters":4400,"station_id":"st_d4e5ca6na9uc73bfl5fg","pricing_plan_id":"cebpf4jnsgd1na2vs0mg"},{"bike_id":"e6a1e974-5975-4ced-baeb-91ef0e775ae3","system_id":"levelo_inurba_marseille","lat":43.30092,"lon":5.39083,"is_reserved":false,"is_disabled":true,"rental_uris":{"android":"levelo://app?vid=e6a1e974-5975-4ced-baeb-91ef0e775ae3","ios":"levelo://app?vid=e6a1e974-5975-4ced-baeb-91ef0e775ae3"},"vehicle_type_id":"4","last_reported":1778480815,"current_range_meters":4400,"station_id":"ce4bh192rcd13ifvqdb0","pricing_plan_id":"cebpf4jnsgd1na2vs0mg"},{"bike_id":"0a05611e-0736-4afa-a8af-ba20ed08e362","system_id":"levelo_inurba_marseille","lat":43.28618,"lon":5.35103,"is_reserved":false,"is_disabled":true,"rental_uris":{"android":"levelo://app?vid=0a05611e-0736-4afa-a8af-ba20ed08e362","ios":"levelo://app?vid=0a05611e-0736-4afa-a8af-ba20ed08e362"},"vehicle_type_id":"4","last_reported":1778480815,"current_range_meters":4400,"station_id":"ce4bhch2rcd13ifvqeug","pricing_plan_id":"cebpf4jnsgd1na2vs0mg"},{"bike_id":"377a8e46-2f88-4c9f-a9bd-31dc66023b10","system_id":"levelo_inurba_marseille","lat":43.25513,"lon":5.37638,"is_reserved":false,"is_disabled":false,"rental_uris":{"android":"levelo://app?vid=377a8e46-2f88-4c9f-a9bd-31dc66023b10","ios":"levelo://app?vid=377a8e46-2f88-4c9f-a9bd-31dc66023b10"},"vehicle_type_id":"4","last_reported":1778480815,"current_range_meters":4400,"station_id":"ce4bhh12rcd13ifvqff0","pricing_plan_id":"cebpf4jnsgd1na2vs0mg"},{"bike_id":"89bdea9c-d861-4eda-8128-66d6f942d629","system_id":"levelo_inurba_marseille","lat":43.25325,"lon":5.42143,"is_reserved":false,"is_disabled":true,"rental_uris":{"android":"levelo://app?vid=89bdea9c-d861-4eda-8128-66d6f942d629","ios":"levelo://app?vid=89bdea9c-d861-4eda-8128-66d6f942d629"},"vehicle_type_id":"4","last_reported":1778480815,"current_range_meters":4400,"station_id":"st_d2m65c5bi1j21697t3ng","pricing_plan_id":"cebpf4jnsgd1na2vs0mg"},{"bike_id":"1b30392a-f2d4-431b-94a8-cc27a2f048f7","system_id":"levelo_inurba_marseille","lat":43.30541,"lon":5.36711,"is_reserved":false,"is_disabled":false,"rental_uris":{"android":"levelo://app?vid=1b30392a-f2d4-431b-94a8-cc27a2f048f7","ios":"levelo://app?vid=1b30392a-f2d4-431b-94a8-cc27a2f048f7"},"vehicle_type_id":"4","last_reported":1778480815,"current_range_meters":4400,"station_id":"ce4bgrp2rcd13ifvqc9g","pricing_plan_id":"cebpf4jnsgd1na2vs0mg"},{"bike_id":"d6705967-1cae-4bbd-804d-3a278dd1bd54","system_id":"levelo_inurba_marseille","lat":43.28481,"lon":5.48394,"is_reserved":false,"is_disabled":false,"rental_uris":{"android":"levelo://app?vid=d6705967-1cae-4bbd-804d-3a278dd1bd54","ios":"levelo://app?vid=d6705967-1cae-4bbd-804d-3a278dd1bd54"},"vehicle_type_id":"4","last_reported":1778480815,"current_range_meters":4800,"station_id":"","pricing_plan_id":"cebpf4jnsgd1na2vs0mg"},{"bike_id":"b5f29cd1-9b76-4e43-a4e7-d260fbddd313","system_id":"levelo_inurba_marseille","lat":43.3275,"lon":5.3665,"is_reserved":false,"is_disabled":false,"rental_uris":{"android":"levelo://app?vid=b5f29cd1-9b76-4e43-a4e7-d260fbddd313","ios":"levelo://app?vid=b5f29cd1-9b76-4e43-a4e7-d260fbddd313"},"vehicle_type_id":"4","last_reported":1778480815,"current_range_meters":4800,"station_id":"","pricing_plan_id":"cebpf4jnsgd1na2vs0mg"},{"bike_id":"e63a5941-d3a7-4540-8e7b-046de8340e61","system_id":"levelo_inurba_marseille","lat":43.23194,"lon":5.35521,"is_reserved":false,"is_disabled":false,"rental_uris":{"android":"levelo://app?vid=e63a5941-d3a7-4540-8e7b-046de8340e61","ios":"levelo://app?vid=e63a5941-d3a7-4540-8e7b-046de8340e61"},"vehicle_type_id":"4","last_reported":1778480815,"current_range_meters":4800,"station_id":"ce4bhu92rcd13ifvqi70","pricing_plan_id":"cebpf4jnsgd1na2vs0mg"},{"bike_id":"17feee3d-14a2-4b18-8dff-03ee5c3e2e03","system_id":"levelo_inurba_marseille","lat":43.27503,"lon":5.42458,"is_reserved":false,"is_disabled":false,"rental_uris":{"android":"levelo://app?vid=17feee3d-14a2-4b18-8dff-03ee5c3e2e03","ios":"levelo://app?vid=17feee3d-14a2-4b18-8dff-03ee5c3e2e03"},"vehicle_type_id":"4","last_reported":1778480815,"current_range_meters":4800,"station_id":"ce4bhn92rcd13ifvqgrg","pricing_plan_id":"cebpf4jnsgd1na2vs0mg"},{"bike_id":"54c7ca05-00a9-473a-ae03-1ae6132f4324","system_id":"levelo_inurba_marseille","lat":43.29861,"lon":5.39718,"is_reserved":false,"is_disabled":true,"rental_uris":{"android":"levelo://app?vid=54c7ca05-00a9-473a-ae03-1ae6132f4324","ios":"levelo://app?vid=54c7ca05-00a9-473a-ae03-1ae6132f4324"},"vehicle_type_id":"4","last_reported":1778480815,"current_range_meters":4800,"station_id":"ce4bh0h2rcd13ifvqd50","pricing_plan_id":"cebpf4jnsgd1na2vs0mg"},{"bike_id":"ba3b0bb0-d7aa-4bca-af74-a078074975ac","system_id":"levelo_inurba_marseille","lat":43.31177,"lon":5.38707,"is_reserved":false,"is_disabled":false,"rental_uris":{"android":"levelo://app?vid=ba3b0bb0-d7aa-4bca-af74-a078074975ac","ios":"levelo://app?vid=ba3b0bb0-d7aa-4bca-af74-a078074975ac"},"vehicle_type_id":"4","last_reported":1778480815,"current_range_meters":4800,"station_id":"ce4bgv12rcd13ifvqcp0","pricing_plan_id":"cebpf4jnsgd1na2vs0mg"},{"bike_id":"eb9f6596-7490-41ca-9a86-d62a85762301","system_id":"levelo_inurba_marseille","lat":43.3089,"lon":5.37194,"is_reserved":false,"is_disabled":false,"rental_uris":{"android":"levelo://app?vid=eb9f6596-7490-41ca-9a86-d62a85762301","ios":"levelo://app?vid=eb9f6596-7490-41ca-9a86-d62a85762301"},"vehicle_type_id":"4","last_reported":1778480815,"current_range_meters":4800,"station_id":"ce4bguh2rcd13ifvqckg","pricing_plan_id":"cebpf4jnsgd1na2vs0mg"},{"bike_id":"f33a6285-9a77-4727-be46-dfaa32ff1624","system_id":"levelo_inurba_marseille","lat":43.24634,"lon":5.43148,"is_reserved":false,"is_disabled":false,"rental_uris":{"android":"levelo://app?vid=f33a6285-9a77-4727-be46-dfaa32ff1624","ios":"levelo://app?vid=f33a6285-9a77-4727-be46-dfaa32ff1624"},"vehicle_type_id":"4","last_reported":1778480815,"current_range_meters":4800,"station_id":"st_d2m6c4gdas8pm72e190g","pricing_plan_id":"cebpf4jnsgd1na2vs0mg"},{"bike_id":"3703415e-979b-44ac-b750-14a7547698c7","system_id":"levelo_inurba_marseille","lat":43.28623,"lon":5.35082,"is_reserved":false,"is_disabled":true,"rental_uris":{"android":"levelo://app?vid=3703415e-979b-44ac-b750-14a7547698c7","ios":"levelo://app?vid=3703415e-979b-44ac-b750-14a7547698c7"},"vehicle_type_id":"4","last_reported":1778480815,"current_range_meters":4800,"station_id":"ce4bhch2rcd13ifvqeug","pricing_plan_id":"cebpf4jnsgd1na2vs0mg"},{"bike_id":"23bf2028-deda-4d95-bc9e-caf888ec9db3","system_id":"levelo_inurba_marseille","lat":43.30888,"lon":5.41211,"is_reserved":false,"is_disabled":false,"rental_uris":{"android":"levelo://app?vid=23bf2028-deda-4d95-bc9e-caf888ec9db3","ios":"levelo://app?vid=23bf2028-deda-4d95-bc9e-caf888ec9db3"},"vehicle_type_id":"4","last_reported":1778480815,"current_range_meters":4800,"station_id":"","pricing_plan_id":"cebpf4jnsgd1na2vs0mg"},{"bike_id":"0d89526f-6017-46d2-8b47-5caa87907cb2","system_id":"levelo_inurba_marseille","lat":43.27953,"lon":5.38748,"is_reserved":false,"is_disabled":false,"rental_uris":{"android":"levelo://app?vid=0d89526f-6017-46d2-8b47-5caa87907cb2","ios":"levelo://app?vid=0d89526f-6017-46d2-8b47-5caa87907cb2"},"vehicle_type_id":"4","last_reported":1778480815,"current_range_meters":4800,"station_id":"ce4bhg12rcd13ifvqf80","pricing_plan_id":"cebpf4jnsgd1na2vs0mg"},{"bike_id":"9b9b58a7-c33f-4d77-9180-45c846a3517a","system_id":"levelo_inurba_marseille","lat":43.30313,"lon":5.36893,"is_reserved":false,"is_disabled":false,"rental_uris":{"android":"levelo://app?vid=9b9b58a7-c33f-4d77-9180-45c846a3517a","ios":"levelo://app?vid=9b9b58a7-c33f-4d77-9180-45c846a3517a"},"vehicle_type_id":"4","last_reported":1778480815,"current_range_meters":4800,"station_id":"ce4bgqh2rcd13ifvqc5g","pricing_plan_id":"cebpf4jnsgd1na2vs0mg"},{"bike_id":"44ee2362-fe04-4866-ae78-314487a1c926","system_id":"levelo_inurba_marseille","lat":43.26064,"lon":5.38618,"is_reserved":false,"is_disabled":false,"rental_uris":{"android":"levelo://app?vid=44ee2362-fe04-4866-ae78-314487a1c926","ios":"levelo://app?vid=44ee2362-fe04-4866-ae78-314487a1c926"},"vehicle_type_id":"4","last_reported":1778480815,"current_range_meters":4800,"station_id":"","pricing_plan_id":"cebpf4jnsgd1na2vs0mg"},{"bike_id":"733da0ee-4c70-4fa9-b226-8117106f9a96","system_id":"levelo_inurba_marseille","lat":43.25561,"lon":5.38239,"is_reserved":false,"is_disabled":false,"rental_uris":{"android":"levelo://app?vid=733da0ee-4c70-4fa9-b226-8117106f9a96","ios":"levelo://app?vid=733da0ee-4c70-4fa9-b226-8117106f9a96"},"vehicle_type_id":"4","last_reported":1778480815,"current_range_meters":4800,"station_id":"ce4bhih2rcd13ifvqfs0","pricing_plan_id":"cebpf4jnsgd1na2vs0mg"},{"bike_id":"efc3e06a-87da-4cd9-8ec4-be9b0d01a28d","system_id":"levelo_inurba_marseille","lat":43.28205,"lon":5.39055,"is_reserved":false,"is_disabled":false,"rental_uris":{"android":"levelo://app?vid=efc3e06a-87da-4cd9-8ec4-be9b0d01a28d","ios":"levelo://app?vid=efc3e06a-87da-4cd9-8ec4-be9b0d01a28d"},"vehicle_type_id":"4","last_reported":1778480815,"current_range_meters":4800,"station_id":"ce4bhn92rcd13ifvqgsg","pricing_plan_id":"cebpf4jnsgd1na2vs0mg"},{"bike_id":"1039be4f-e3bb-4ac7-88ac-2702575bae63","system_id":"levelo_inurba_marseille","lat":43.23965,"lon":5.36616,"is_reserved":false,"is_disabled":false,"rental_uris":{"android":"levelo://app?vid=1039be4f-e3bb-4ac7-88ac-2702575bae63","ios":"levelo://app?vid=1039be4f-e3bb-4ac7-88ac-2702575bae63"},"vehicle_type_id":"4","last_reported":1778480815,"current_range_meters":5600,"station_id":"ce4bhi12rcd13ifvqfp0","pricing_plan_id":"cebpf4jnsgd1na2vs0mg"},{"bike_id":"04318cd3-98ea-450b-b5f3-4a7277c0604c","system_id":"levelo_inurba_marseille","lat":43.24639,"lon":5.43146,"is_reserved":false,"is_disabled":false,"rental_uris":{"android":"levelo://app?vid=04318cd3-98ea-450b-b5f3-4a7277c0604c","ios":"levelo://app?vid=04318cd3-98ea-450b-b5f3-4a7277c0604c"},"vehicle_type_id":"4","last_reported":1778480815,"current_range_meters":5600,"station_id":"st_d2m6c4gdas8pm72e190g","pricing_plan_id":"cebpf4jnsgd1na2vs0mg"},{"bike_id":"35693135-8f79-42dd-b68e-6f35f1df5427","system_id":"levelo_inurba_marseille","lat":43.29777,"lon":5.38097,"is_reserved":false,"is_disabled":false,"rental_uris":{"android":"levelo://app?vid=35693135-8f79-42dd-b68e-6f35f1df5427","ios":"levelo://app?vid=35693135-8f79-42dd-b68e-6f35f1df5427"},"vehicle_type_id":"4","last_reported":1778480815,"current_range_meters":5600,"station_id":"ce4bgip2rcd13ifvqbb0","pricing_plan_id":"cebpf4jnsgd1na2vs0mg"},{"bike_id":"3ee18444-a5a8-4d64-ae10-f4ab9ef0e92b","system_id":"levelo_inurba_marseille","lat":43.28258,"lon":5.35038,"is_reserved":false,"is_disabled":false,"rental_uris":{"android":"levelo://app?vid=3ee18444-a5a8-4d64-ae10-f4ab9ef0e92b","ios":"levelo://app?vid=3ee18444-a5a8-4d64-ae10-f4ab9ef0e92b"},"vehicle_type_id":"4","last_reported":1778480815,"current_range_meters":5600,"station_id":"ce4bhbp2rcd13ifvqerg","pricing_plan_id":"cebpf4jnsgd1na2vs0mg"},{"bike_id":"d4b82220-b80f-4072-9d63-30aaa267b9e0","system_id":"levelo_inurba_marseille","lat":43.30545,"lon":5.36698,"is_reserved":false,"is_disabled":false,"rental_uris":{"android":"levelo://app?vid=d4b82220-b80f-4072-9d63-30aaa267b9e0","ios":"levelo://app?vid=d4b82220-b80f-4072-9d63-30aaa267b9e0"},"vehicle_type_id":"4","last_reported":1778480815,"current_range_meters":5600,"station_id":"ce4bgrp2rcd13ifvqc9g","pricing_plan_id":"cebpf4jnsgd1na2vs0mg"},{"bike_id":"44ba616c-102d-4859-acf6-1c3a43efa65a","system_id":"levelo_inurba_marseille","lat":43.26234,"lon":5.40448,"is_reserved":false,"is_disabled":false,"rental_uris":{"android":"levelo://app?vid=44ba616c-102d-4859-acf6-1c3a43efa65a","ios":"levelo://app?vid=44ba616c-102d-4859-acf6-1c3a43efa65a"},"vehicle_type_id":"4","last_reported":1778480815,"current_range_meters":5600,"station_id":"ce4bhmh2rcd13ifvqgmg","pricing_plan_id":"cebpf4jnsgd1na2vs0mg"},{"bike_id":"77b3d37b-8f45-44fe-b681-2e376ba276f0","system_id":"levelo_inurba_marseille","lat":43.22571,"lon":5.41625,"is_reserved":false,"is_disabled":false,"rental_uris":{"android":"levelo://app?vid=77b3d37b-8f45-44fe-b681-2e376ba276f0","ios":"levelo://app?vid=77b3d37b-8f45-44fe-b681-2e376ba276f0"},"vehicle_type_id":"4","last_reported":1778480815,"current_range_meters":5600,"station_id":"st_d2o4gvlbi1j2169b742g","pricing_plan_id":"cebpf4jnsgd1na2vs0mg"},{"bike_id":"02ae0fe2-abcb-4337-9de8-2e2bfefcca29","system_id":"levelo_inurba_marseille","lat":43.249474,"lon":5.404926,"is_reserved":false,"is_disabled":false,"rental_uris":{"android":"levelo://app?vid=02ae0fe2-abcb-4337-9de8-2e2bfefcca29","ios":"levelo://app?vid=02ae0fe2-abcb-4337-9de8-2e2bfefcca29"},"vehicle_type_id":"4","last_reported":1778480815,"current_range_meters":5600,"station_id":"","pricing_plan_id":"cebpf4jnsgd1na2vs0mg"},{"bike_id":"328fc79b-6804-4d01-af71-228a208e5176","system_id":"levelo_inurba_marseille","lat":43.23311,"lon":5.35795,"is_reserved":false,"is_disabled":false,"rental_uris":{"android":"levelo://app?vid=328fc79b-6804-4d01-af71-228a208e5176","ios":"levelo://app?vid=328fc79b-6804-4d01-af71-228a208e5176"},"vehicle_type_id":"4","last_reported":1778480815,"current_range_meters":5600,"station_id":"","pricing_plan_id":"cebpf4jnsgd1na2vs0mg"},{"bike_id":"ab03262e-d635-49b4-8b87-442129f8ad2e","system_id":"levelo_inurba_marseille","lat":43.28399,"lon":5.375,"is_reserved":false,"is_disabled":false,"rental_uris":{"android":"levelo://app?vid=ab03262e-d635-49b4-8b87-442129f8ad2e","ios":"levelo://app?vid=ab03262e-d635-49b4-8b87-442129f8ad2e"},"vehicle_type_id":"4","last_reported":1778480815,"current_range_meters":5600,"station_id":"ce4bh412rcd13ifvqds0","pricing_plan_id":"cebpf4jnsgd1na2vs0mg"},{"bike_id":"b862eede-0823-42c5-bc70-a246ef3ad915","system_id":"levelo_inurba_marseille","lat":43.30276,"lon":5.37705,"is_reserved":false,"is_disabled":false,"rental_uris":{"android":"levelo://app?vid=b862eede-0823-42c5-bc70-a246ef3ad915","ios":"levelo://app?vid=b862eede-0823-42c5-bc70-a246ef3ad915"},"vehicle_type_id":"4","last_reported":1778480815,"current_range_meters":5600,"station_id":"ce4bguh2rcd13ifvqcj0","pricing_plan_id":"cebpf4jnsgd1na2vs0mg"},{"bike_id":"910cb3e1-0716-408a-9f58-d92863b77812","system_id":"levelo_inurba_marseille","lat":43.2905,"lon":5.35911,"is_reserved":false,"is_disabled":false,"rental_uris":{"android":"levelo://app?vid=910cb3e1-0716-408a-9f58-d92863b77812","ios":"levelo://app?vid=910cb3e1-0716-408a-9f58-d92863b77812"},"vehicle_type_id":"4","last_reported":1778480815,"current_range_meters":5600,"station_id":"ce4bha92rcd13ifvqeg0","pricing_plan_id":"cebpf4jnsgd1na2vs0mg"},{"bike_id":"7a1685d6-5443-4151-bfa9-48a1a6141ca1","system_id":"levelo_inurba_marseille","lat":43.28742,"lon":5.46691,"is_reserved":false,"is_disabled":false,"rental_uris":{"android":"levelo://app?vid=7a1685d6-5443-4151-bfa9-48a1a6141ca1","ios":"levelo://app?vid=7a1685d6-5443-4151-bfa9-48a1a6141ca1"},"vehicle_type_id":"4","last_reported":1778480815,"current_range_meters":5600,"station_id":"st_d6tc3vkotcvc738tfjhg","pricing_plan_id":"cebpf4jnsgd1na2vs0mg"},{"bike_id":"f32857a5-3156-4e24-8ea5-fc953060e51f","system_id":"levelo_inurba_marseille","lat":43.29029,"lon":5.38638,"is_reserved":false,"is_disabled":false,"rental_uris":{"android":"levelo://app?vid=f32857a5-3156-4e24-8ea5-fc953060e51f","ios":"levelo://app?vid=f32857a5-3156-4e24-8ea5-fc953060e51f"},"vehicle_type_id":"4","last_reported":1778480815,"current_range_meters":6000,"station_id":"ce4bh4p2rcd13ifvqe0g","pricing_plan_id":"cebpf4jnsgd1na2vs0mg"},{"bike_id":"b9de0ca6-fd2a-4603-80e9-fb5945739045","system_id":"levelo_inurba_marseille","lat":43.28164,"lon":5.4267,"is_reserved":false,"is_disabled":false,"rental_uris":{"android":"levelo://app?vid=b9de0ca6-fd2a-4603-80e9-fb5945739045","ios":"levelo://app?vid=b9de0ca6-fd2a-4603-80e9-fb5945739045"},"vehicle_type_id":"4","last_reported":1778480815,"current_range_meters":6000,"station_id":"ce4bhnh2rcd13ifvqgug","pricing_plan_id":"cebpf4jnsgd1na2vs0mg"},{"bike_id":"a8c2b891-dc5e-4292-aa83-307d2e8c7830","system_id":"levelo_inurba_marseille","lat":43.26359,"lon":5.41046,"is_reserved":false,"is_disabled":false,"rental_uris":{"android":"levelo://app?vid=a8c2b891-dc5e-4292-aa83-307d2e8c7830","ios":"levelo://app?vid=a8c2b891-dc5e-4292-aa83-307d2e8c7830"},"vehicle_type_id":"4","last_reported":1778480815,"current_range_meters":6000,"station_id":"st_d4e5ca6na9uc73bfl5fg","pricing_plan_id":"cebpf4jnsgd1na2vs0mg"},{"bike_id":"dc3f3c77-2ef7-4eb2-9e12-e788324cba13","system_id":"levelo_inurba_marseille","lat":43.28403,"lon":5.37499,"is_reserved":false,"is_disabled":false,"rental_uris":{"android":"levelo://app?vid=dc3f3c77-2ef7-4eb2-9e12-e788324cba13","ios":"levelo://app?vid=dc3f3c77-2ef7-4eb2-9e12-e788324cba13"},"vehicle_type_id":"4","last_reported":1778480815,"current_range_meters":6000,"station_id":"ce4bh412rcd13ifvqds0","pricing_plan_id":"cebpf4jnsgd1na2vs0mg"},{"bike_id":"97d46dd5-6b94-45d0-9645-b1217451173c","system_id":"levelo_inurba_marseille","lat":43.33768,"lon":5.3744,"is_reserved":false,"is_disabled":false,"rental_uris":{"android":"levelo://app?vid=97d46dd5-6b94-45d0-9645-b1217451173c","ios":"levelo://app?vid=97d46dd5-6b94-45d0-9645-b1217451173c"},"vehicle_type_id":"4","last_reported":1778480815,"current_range_meters":6000,"station_id":"","pricing_plan_id":"cebpf4jnsgd1na2vs0mg"},{"bike_id":"d7b316cc-f667-4cf9-9226-07fb0b2b4b44","system_id":"levelo_inurba_marseille","lat":43.31505,"lon":5.37311,"is_reserved":false,"is_disabled":false,"rental_uris":{"android":"levelo://app?vid=d7b316cc-f667-4cf9-9226-07fb0b2b4b44","ios":"levelo://app?vid=d7b316cc-f667-4cf9-9226-07fb0b2b4b44"},"vehicle_type_id":"4","last_reported":1778480815,"current_range_meters":6000,"station_id":"ce4bgt12rcd13ifvqcd0","pricing_plan_id":"cebpf4jnsgd1na2vs0mg"},{"bike_id":"7a55cea0-fb18-4ae3-8d05-e6520bed9b73","system_id":"levelo_inurba_marseille","lat":43.32113,"lon":5.36794,"is_reserved":false,"is_disabled":false,"rental_uris":{"android":"levelo://app?vid=7a55cea0-fb18-4ae3-8d05-e6520bed9b73","ios":"levelo://app?vid=7a55cea0-fb18-4ae3-8d05-e6520bed9b73"},"vehicle_type_id":"4","last_reported":1778480815,"current_range_meters":6000,"station_id":"ce4bhrh2rcd13ifvqhug","pricing_plan_id":"cebpf4jnsgd1na2vs0mg"},{"bike_id":"a743c9de-3d11-4b53-98e9-45fddabd2db4","system_id":"levelo_inurba_marseille","lat":43.28939,"lon":5.39665,"is_reserved":false,"is_disabled":false,"rental_uris":{"android":"levelo://app?vid=a743c9de-3d11-4b53-98e9-45fddabd2db4","ios":"levelo://app?vid=a743c9de-3d11-4b53-98e9-45fddabd2db4"},"vehicle_type_id":"4","last_reported":1778480815,"current_range_meters":6000,"station_id":"ce4bh3h2rcd13ifvqdn0","pricing_plan_id":"cebpf4jnsgd1na2vs0mg"},{"bike_id":"ef3f9738-c4f7-4e33-9bdc-18d156a38709","system_id":"levelo_inurba_marseille","lat":43.24959,"lon":5.405,"is_reserved":false,"is_disabled":false,"rental_uris":{"android":"levelo://app?vid=ef3f9738-c4f7-4e33-9bdc-18d156a38709","ios":"levelo://app?vid=ef3f9738-c4f7-4e33-9bdc-18d156a38709"},"vehicle_type_id":"4","last_reported":1778480815,"current_range_meters":6000,"station_id":"st_d2ngiaodas8pm72gd1h0","pricing_plan_id":"cebpf4jnsgd1na2vs0mg"},{"bike_id":"63cb6157-5785-47b6-add8-04dad3600871","system_id":"levelo_inurba_marseille","lat":43.24067,"lon":5.37756,"is_reserved":false,"is_disabled":false,"rental_uris":{"android":"levelo://app?vid=63cb6157-5785-47b6-add8-04dad3600871","ios":"levelo://app?vid=63cb6157-5785-47b6-add8-04dad3600871"},"vehicle_type_id":"4","last_reported":1778480815,"current_range_meters":6000,"station_id":"ce4bhnp2rcd13ifvqgvg","pricing_plan_id":"cebpf4jnsgd1na2vs0mg"},{"bike_id":"f7325664-231f-4d91-adea-08851f268f90","system_id":"levelo_inurba_marseille","lat":43.33175,"lon":5.37692,"is_reserved":false,"is_disabled":false,"rental_uris":{"android":"levelo://app?vid=f7325664-231f-4d91-adea-08851f268f90","ios":"levelo://app?vid=f7325664-231f-4d91-adea-08851f268f90"},"vehicle_type_id":"4","last_reported":1778480815,"current_range_meters":6000,"station_id":"st_d46cu089ee8s73dldbu0","pricing_plan_id":"cebpf4jnsgd1na2vs0mg"},{"bike_id":"0afde808-295b-46aa-a50c-99557887cf37","system_id":"levelo_inurba_marseille","lat":43.30183,"lon":5.39948,"is_reserved":false,"is_disabled":false,"rental_uris":{"android":"levelo://app?vid=0afde808-295b-46aa-a50c-99557887cf37","ios":"levelo://app?vid=0afde808-295b-46aa-a50c-99557887cf37"},"vehicle_type_id":"4","last_reported":1778480815,"current_range_meters":6400,"station_id":"","pricing_plan_id":"cebpf4jnsgd1na2vs0mg"},{"bike_id":"50b9163b-20cf-4836-b9a5-535132894940","system_id":"levelo_inurba_marseille","lat":43.28877,"lon":5.42537,"is_reserved":false,"is_disabled":false,"rental_uris":{"android":"levelo://app?vid=50b9163b-20cf-4836-b9a5-535132894940","ios":"levelo://app?vid=50b9163b-20cf-4836-b9a5-535132894940"},"vehicle_type_id":"4","last_reported":1778480815,"current_range_meters":6400,"station_id":"st_d3b462108ojc7389ooeg","pricing_plan_id":"cebpf4jnsgd1na2vs0mg"},{"bike_id":"75b03510-91a6-421d-a640-953b58d6745b","system_id":"levelo_inurba_marseille","lat":43.29488,"lon":5.43308,"is_reserved":false,"is_disabled":false,"rental_uris":{"android":"levelo://app?vid=75b03510-91a6-421d-a640-953b58d6745b","ios":"levelo://app?vid=75b03510-91a6-421d-a640-953b58d6745b"},"vehicle_type_id":"4","last_reported":1778480815,"current_range_meters":6400,"station_id":"st_d3j5ugp08ojc73fj9d10","pricing_plan_id":"cebpf4jnsgd1na2vs0mg"},{"bike_id":"88f94a2d-9e83-435c-8c78-79839468d82b","system_id":"levelo_inurba_marseille","lat":43.3246,"lon":5.38447,"is_reserved":false,"is_disabled":false,"rental_uris":{"android":"levelo://app?vid=88f94a2d-9e83-435c-8c78-79839468d82b","ios":"levelo://app?vid=88f94a2d-9e83-435c-8c78-79839468d82b"},"vehicle_type_id":"4","last_reported":1778480815,"current_range_meters":6400,"station_id":"","pricing_plan_id":"cebpf4jnsgd1na2vs0mg"},{"bike_id":"79aa59fa-6751-41c7-a444-975395d5fe72","system_id":"levelo_inurba_marseille","lat":43.30156,"lon":5.3809,"is_reserved":false,"is_disabled":false,"rental_uris":{"android":"levelo://app?vid=79aa59fa-6751-41c7-a444-975395d5fe72","ios":"levelo://app?vid=79aa59fa-6751-41c7-a444-975395d5fe72"},"vehicle_type_id":"4","last_reported":1778480815,"current_range_meters":6400,"station_id":"ce4bgjp2rcd13ifvqbh0","pricing_plan_id":"cebpf4jnsgd1na2vs0mg"},{"bike_id":"fead0082-95a2-43ea-889d-2d3099afaff8","system_id":"levelo_inurba_marseille","lat":43.29865,"lon":5.38105,"is_reserved":false,"is_disabled":false,"rental_uris":{"android":"levelo://app?vid=fead0082-95a2-43ea-889d-2d3099afaff8","ios":"levelo://app?vid=fead0082-95a2-43ea-889d-2d3099afaff8"},"vehicle_type_id":"4","last_reported":1778480815,"current_range_meters":6400,"station_id":"","pricing_plan_id":"cebpf4jnsgd1na2vs0mg"},{"bike_id":"931e37ed-d91a-4f80-acc2-0371059dc627","system_id":"levelo_inurba_marseille","lat":43.231415,"lon":5.437223,"is_reserved":false,"is_disabled":false,"rental_uris":{"android":"levelo://app?vid=931e37ed-d91a-4f80-acc2-0371059dc627","ios":"levelo://app?vid=931e37ed-d91a-4f80-acc2-0371059dc627"},"vehicle_type_id":"4","last_reported":1778480815,"current_range_meters":6400,"station_id":"ce4bhmp2rcd13ifvqgog","pricing_plan_id":"cebpf4jnsgd1na2vs0mg"},{"bike_id":"75d2347f-2003-486c-9b8c-5479848cc328","system_id":"levelo_inurba_marseille","lat":43.3028,"lon":5.37708,"is_reserved":false,"is_disabled":false,"rental_uris":{"android":"levelo://app?vid=75d2347f-2003-486c-9b8c-5479848cc328","ios":"levelo://app?vid=75d2347f-2003-486c-9b8c-5479848cc328"},"vehicle_type_id":"4","last_reported":1778480815,"current_range_meters":6400,"station_id":"ce4bguh2rcd13ifvqcj0","pricing_plan_id":"cebpf4jnsgd1na2vs0mg"},{"bike_id":"c4133bb0-107f-4779-bba9-4a862c7fa098","system_id":"levelo_inurba_marseille","lat":43.24667,"lon":5.38162,"is_reserved":false,"is_disabled":false,"rental_uris":{"android":"levelo://app?vid=c4133bb0-107f-4779-bba9-4a862c7fa098","ios":"levelo://app?vid=c4133bb0-107f-4779-bba9-4a862c7fa098"},"vehicle_type_id":"4","last_reported":1778480815,"current_range_meters":6400,"station_id":"ce4bhih2rcd13ifvqfr0","pricing_plan_id":"cebpf4jnsgd1na2vs0mg"},{"bike_id":"4d86a120-b9ed-4269-b0c2-35a7308f2c70","system_id":"levelo_inurba_marseille","lat":43.26071,"lon":5.39359,"is_reserved":false,"is_disabled":false,"rental_uris":{"android":"levelo://app?vid=4d86a120-b9ed-4269-b0c2-35a7308f2c70","ios":"levelo://app?vid=4d86a120-b9ed-4269-b0c2-35a7308f2c70"},"vehicle_type_id":"4","last_reported":1778480815,"current_range_meters":6800,"station_id":"ce4bhh92rcd13ifvqfj0","pricing_plan_id":"cebpf4jnsgd1na2vs0mg"},{"bike_id":"5300de55-6d15-4d29-873a-03b403bfe59f","system_id":"levelo_inurba_marseille","lat":43.289496,"lon":5.363836,"is_reserved":false,"is_disabled":false,"rental_uris":{"android":"levelo://app?vid=5300de55-6d15-4d29-873a-03b403bfe59f","ios":"levelo://app?vid=5300de55-6d15-4d29-873a-03b403bfe59f"},"vehicle_type_id":"4","last_reported":1778480815,"current_range_meters":6800,"station_id":"ce4bhc92rcd13ifvqetg","pricing_plan_id":"cebpf4jnsgd1na2vs0mg"},{"bike_id":"f6f40374-43fa-47de-b3a0-6f7526ff03b2","system_id":"levelo_inurba_marseille","lat":43.24065,"lon":5.37755,"is_reserved":false,"is_disabled":false,"rental_uris":{"android":"levelo://app?vid=f6f40374-43fa-47de-b3a0-6f7526ff03b2","ios":"levelo://app?vid=f6f40374-43fa-47de-b3a0-6f7526ff03b2"},"vehicle_type_id":"4","last_reported":1778480815,"current_range_meters":6800,"station_id":"ce4bhnp2rcd13ifvqgvg","pricing_plan_id":"cebpf4jnsgd1na2vs0mg"},{"bike_id":"40326dfc-c43c-49b9-91fd-f253b800ccf8","system_id":"levelo_inurba_marseille","lat":43.28712,"lon":5.37947,"is_reserved":false,"is_disabled":true,"rental_uris":{"android":"levelo://app?vid=40326dfc-c43c-49b9-91fd-f253b800ccf8","ios":"levelo://app?vid=40326dfc-c43c-49b9-91fd-f253b800ccf8"},"vehicle_type_id":"4","last_reported":1778480815,"current_range_meters":6800,"station_id":"ce4bh9p2rcd13ifvqec0","pricing_plan_id":"cebpf4jnsgd1na2vs0mg"},{"bike_id":"760a8a3d-59a0-4bb5-a1ee-970d1dceb035","system_id":"levelo_inurba_marseille","lat":43.31355,"lon":5.36724,"is_reserved":false,"is_disabled":false,"rental_uris":{"android":"levelo://app?vid=760a8a3d-59a0-4bb5-a1ee-970d1dceb035","ios":"levelo://app?vid=760a8a3d-59a0-4bb5-a1ee-970d1dceb035"},"vehicle_type_id":"4","last_reported":1778480815,"current_range_meters":6800,"station_id":"ce4bgr92rcd13ifvqc6g","pricing_plan_id":"cebpf4jnsgd1na2vs0mg"},{"bike_id":"0dcd9e07-6d51-43a0-a152-2b832789618c","system_id":"levelo_inurba_marseille","lat":43.283478,"lon":5.381027,"is_reserved":false,"is_disabled":false,"rental_uris":{"android":"levelo://app?vid=0dcd9e07-6d51-43a0-a152-2b832789618c","ios":"levelo://app?vid=0dcd9e07-6d51-43a0-a152-2b832789618c"},"vehicle_type_id":"4","last_reported":1778480815,"current_range_meters":6800,"station_id":"ce4bh412rcd13ifvqdr0","pricing_plan_id":"cebpf4jnsgd1na2vs0mg"},{"bike_id":"d4556e06-b5cb-46cd-aeba-f33029d0b868","system_id":"levelo_inurba_marseille","lat":43.28941,"lon":5.36661,"is_reserved":false,"is_disabled":true,"rental_uris":{"android":"levelo://app?vid=d4556e06-b5cb-46cd-aeba-f33029d0b868","ios":"levelo://app?vid=d4556e06-b5cb-46cd-aeba-f33029d0b868"},"vehicle_type_id":"4","last_reported":1778480815,"current_range_meters":6800,"station_id":"ce4bhap2rcd13ifvqek0","pricing_plan_id":"cebpf4jnsgd1na2vs0mg"},{"bike_id":"b680a5d1-df59-4f40-ba9f-f53abe2152c2","system_id":"levelo_inurba_marseille","lat":43.28403,"lon":5.34968,"is_reserved":false,"is_disabled":false,"rental_uris":{"android":"levelo://app?vid=b680a5d1-df59-4f40-ba9f-f53abe2152c2","ios":"levelo://app?vid=b680a5d1-df59-4f40-ba9f-f53abe2152c2"},"vehicle_type_id":"4","last_reported":1778480815,"current_range_meters":6800,"station_id":"","pricing_plan_id":"cebpf4jnsgd1na2vs0mg"},{"bike_id":"42754939-af34-4ee1-9644-e8e2f0bc495f","system_id":"levelo_inurba_marseille","lat":43.31703,"lon":5.40471,"is_reserved":false,"is_disabled":false,"rental_uris":{"android":"levelo://app?vid=42754939-af34-4ee1-9644-e8e2f0bc495f","ios":"levelo://app?vid=42754939-af34-4ee1-9644-e8e2f0bc495f"},"vehicle_type_id":"4","last_reported":1778480815,"current_range_meters":6800,"station_id":"ce4bh012rcd13ifvqd00","pricing_plan_id":"cebpf4jnsgd1na2vs0mg"},{"bike_id":"5a7a2ca9-785c-47be-8953-c76c763ce37e","system_id":"levelo_inurba_marseille","lat":43.26233,"lon":5.38769,"is_reserved":false,"is_disabled":false,"rental_uris":{"android":"levelo://app?vid=5a7a2ca9-785c-47be-8953-c76c763ce37e","ios":"levelo://app?vid=5a7a2ca9-785c-47be-8953-c76c763ce37e"},"vehicle_type_id":"4","last_reported":1778480815,"current_range_meters":6800,"station_id":"","pricing_plan_id":"cebpf4jnsgd1na2vs0mg"},{"bike_id":"7f61603e-7837-4d61-8bb1-3988e6057af0","system_id":"levelo_inurba_marseille","lat":43.29603,"lon":5.37726,"is_reserved":false,"is_disabled":false,"rental_uris":{"android":"levelo://app?vid=7f61603e-7837-4d61-8bb1-3988e6057af0","ios":"levelo://app?vid=7f61603e-7837-4d61-8bb1-3988e6057af0"},"vehicle_type_id":"4","last_reported":1778480815,"current_range_meters":6800,"station_id":"ce4bgi92rcd13ifvqb90","pricing_plan_id":"cebpf4jnsgd1na2vs0mg"},{"bike_id":"160c00dc-8c7e-4bae-9d49-cb387b689e8d","system_id":"levelo_inurba_marseille","lat":43.24635,"lon":5.43145,"is_reserved":false,"is_disabled":false,"rental_uris":{"android":"levelo://app?vid=160c00dc-8c7e-4bae-9d49-cb387b689e8d","ios":"levelo://app?vid=160c00dc-8c7e-4bae-9d49-cb387b689e8d"},"vehicle_type_id":"4","last_reported":1778480815,"current_range_meters":6800,"station_id":"st_d2m6c4gdas8pm72e190g","pricing_plan_id":"cebpf4jnsgd1na2vs0mg"},{"bike_id":"4172aff9-b246-4560-b519-b87d0289bb09","system_id":"levelo_inurba_marseille","lat":43.29272,"lon":5.40121,"is_reserved":false,"is_disabled":false,"rental_uris":{"android":"levelo://app?vid=4172aff9-b246-4560-b519-b87d0289bb09","ios":"levelo://app?vid=4172aff9-b246-4560-b519-b87d0289bb09"},"vehicle_type_id":"4","last_reported":1778480815,"current_range_meters":6800,"station_id":"ce4bh312rcd13ifvqdk0","pricing_plan_id":"cebpf4jnsgd1na2vs0mg"},{"bike_id":"dec258b3-c130-43be-aabb-2d11497a2264","system_id":"levelo_inurba_marseille","lat":43.2462,"lon":5.43165,"is_reserved":false,"is_disabled":false,"rental_uris":{"android":"levelo://app?vid=dec258b3-c130-43be-aabb-2d11497a2264","ios":"levelo://app?vid=dec258b3-c130-43be-aabb-2d11497a2264"},"vehicle_type_id":"4","last_reported":1778480815,"current_range_meters":6800,"station_id":"st_d2m6c4gdas8pm72e190g","pricing_plan_id":"cebpf4jnsgd1na2vs0mg"},{"bike_id":"90d38ae2-9066-4f2a-9e2c-5675bf34e2cc","system_id":"levelo_inurba_marseille","lat":43.26958,"lon":5.3862,"is_reserved":false,"is_disabled":false,"rental_uris":{"android":"levelo://app?vid=90d38ae2-9066-4f2a-9e2c-5675bf34e2cc","ios":"levelo://app?vid=90d38ae2-9066-4f2a-9e2c-5675bf34e2cc"},"vehicle_type_id":"4","last_reported":1778480815,"current_range_meters":6800,"station_id":"ce4bhh92rcd13ifvqfh0","pricing_plan_id":"cebpf4jnsgd1na2vs0mg"},{"bike_id":"dc3d872f-b541-4dd3-a578-2855f0ad8694","system_id":"levelo_inurba_marseille","lat":43.33154,"lon":5.37683,"is_reserved":false,"is_disabled":false,"rental_uris":{"android":"levelo://app?vid=dc3d872f-b541-4dd3-a578-2855f0ad8694","ios":"levelo://app?vid=dc3d872f-b541-4dd3-a578-2855f0ad8694"},"vehicle_type_id":"4","last_reported":1778480815,"current_range_meters":6800,"station_id":"st_d46cu089ee8s73dldbu0","pricing_plan_id":"cebpf4jnsgd1na2vs0mg"},{"bike_id":"0a69c15d-9b30-469e-9063-1ba4c113aa45","system_id":"levelo_inurba_marseille","lat":43.31341,"lon":5.36724,"is_reserved":false,"is_disabled":false,"rental_uris":{"android":"levelo://app?vid=0a69c15d-9b30-469e-9063-1ba4c113aa45","ios":"levelo://app?vid=0a69c15d-9b30-469e-9063-1ba4c113aa45"},"vehicle_type_id":"4","last_reported":1778480815,"current_range_meters":6800,"station_id":"ce4bgr92rcd13ifvqc6g","pricing_plan_id":"cebpf4jnsgd1na2vs0mg"},{"bike_id":"46fc08b2-f5c5-4b3c-82e6-90f163ffe582","system_id":"levelo_inurba_marseille","lat":43.24814,"lon":5.37462,"is_reserved":false,"is_disabled":false,"rental_uris":{"android":"levelo://app?vid=46fc08b2-f5c5-4b3c-82e6-90f163ffe582","ios":"levelo://app?vid=46fc08b2-f5c5-4b3c-82e6-90f163ffe582"},"vehicle_type_id":"4","last_reported":1778480815,"current_range_meters":7200,"station_id":"ce4bhgh2rcd13ifvqfb0","pricing_plan_id":"cebpf4jnsgd1na2vs0mg"},{"bike_id":"2a88c8d6-901a-46de-936e-8ca8169700e0","system_id":"levelo_inurba_marseille","lat":43.24637,"lon":5.38865,"is_reserved":false,"is_disabled":false,"rental_uris":{"android":"levelo://app?vid=2a88c8d6-901a-46de-936e-8ca8169700e0","ios":"levelo://app?vid=2a88c8d6-901a-46de-936e-8ca8169700e0"},"vehicle_type_id":"4","last_reported":1778480815,"current_range_meters":7200,"station_id":"ce4bhg12rcd13ifvqf60","pricing_plan_id":"cebpf4jnsgd1na2vs0mg"},{"bike_id":"42969dc5-e5aa-4529-8cb9-d8543f680591","system_id":"levelo_inurba_marseille","lat":43.31484,"lon":5.37312,"is_reserved":false,"is_disabled":false,"rental_uris":{"android":"levelo://app?vid=42969dc5-e5aa-4529-8cb9-d8543f680591","ios":"levelo://app?vid=42969dc5-e5aa-4529-8cb9-d8543f680591"},"vehicle_type_id":"4","last_reported":1778480815,"current_range_meters":7200,"station_id":"ce4bgt12rcd13ifvqcd0","pricing_plan_id":"cebpf4jnsgd1na2vs0mg"},{"bike_id":"43508dde-469c-4176-8d9a-ef9992e89043","system_id":"levelo_inurba_marseille","lat":43.31349,"lon":5.36689,"is_reserved":false,"is_disabled":false,"rental_uris":{"android":"levelo://app?vid=43508dde-469c-4176-8d9a-ef9992e89043","ios":"levelo://app?vid=43508dde-469c-4176-8d9a-ef9992e89043"},"vehicle_type_id":"4","last_reported":1778480815,"current_range_meters":7200,"station_id":"ce4bgr92rcd13ifvqc6g","pricing_plan_id":"cebpf4jnsgd1na2vs0mg"},{"bike_id":"14577b48-3072-4ab9-b9c2-8dec83f5860e","system_id":"levelo_inurba_marseille","lat":43.28359,"lon":5.38092,"is_reserved":false,"is_disabled":true,"rental_uris":{"android":"levelo://app?vid=14577b48-3072-4ab9-b9c2-8dec83f5860e","ios":"levelo://app?vid=14577b48-3072-4ab9-b9c2-8dec83f5860e"},"vehicle_type_id":"4","last_reported":1778480815,"current_range_meters":7200,"station_id":"ce4bh412rcd13ifvqdr0","pricing_plan_id":"cebpf4jnsgd1na2vs0mg"},{"bike_id":"d408f7a4-799c-42f6-984d-a550f89c7e22","system_id":"levelo_inurba_marseille","lat":43.30522,"lon":5.36677,"is_reserved":false,"is_disabled":false,"rental_uris":{"android":"levelo://app?vid=d408f7a4-799c-42f6-984d-a550f89c7e22","ios":"levelo://app?vid=d408f7a4-799c-42f6-984d-a550f89c7e22"},"vehicle_type_id":"4","last_reported":1778480815,"current_range_meters":7200,"station_id":"ce4bgrp2rcd13ifvqc9g","pricing_plan_id":"cebpf4jnsgd1na2vs0mg"},{"bike_id":"a5d6933b-d56b-4291-aa61-26dfb66725ec","system_id":"levelo_inurba_marseille","lat":43.28244,"lon":5.38882,"is_reserved":false,"is_disabled":false,"rental_uris":{"android":"levelo://app?vid=a5d6933b-d56b-4291-aa61-26dfb66725ec","ios":"levelo://app?vid=a5d6933b-d56b-4291-aa61-26dfb66725ec"},"vehicle_type_id":"4","last_reported":1778480815,"current_range_meters":7200,"station_id":"","pricing_plan_id":"cebpf4jnsgd1na2vs0mg"},{"bike_id":"e00293db-1799-404b-abd2-4f7bd5b8e141","system_id":"levelo_inurba_marseille","lat":43.28946,"lon":5.39625,"is_reserved":false,"is_disabled":false,"rental_uris":{"android":"levelo://app?vid=e00293db-1799-404b-abd2-4f7bd5b8e141","ios":"levelo://app?vid=e00293db-1799-404b-abd2-4f7bd5b8e141"},"vehicle_type_id":"4","last_reported":1778480815,"current_range_meters":7200,"station_id":"ce4bh3h2rcd13ifvqdn0","pricing_plan_id":"cebpf4jnsgd1na2vs0mg"},{"bike_id":"cc24ffa9-df91-47bf-9721-80745ab00ec4","system_id":"levelo_inurba_marseille","lat":43.25498,"lon":5.37653,"is_reserved":false,"is_disabled":false,"rental_uris":{"android":"levelo://app?vid=cc24ffa9-df91-47bf-9721-80745ab00ec4","ios":"levelo://app?vid=cc24ffa9-df91-47bf-9721-80745ab00ec4"},"vehicle_type_id":"4","last_reported":1778480815,"current_range_meters":7200,"station_id":"ce4bhh12rcd13ifvqff0","pricing_plan_id":"cebpf4jnsgd1na2vs0mg"},{"bike_id":"e9279d48-19cc-4bb3-a42d-1bd4eaced262","system_id":"levelo_inurba_marseille","lat":43.25006,"lon":5.38923,"is_reserved":false,"is_disabled":false,"rental_uris":{"android":"levelo://app?vid=e9279d48-19cc-4bb3-a42d-1bd4eaced262","ios":"levelo://app?vid=e9279d48-19cc-4bb3-a42d-1bd4eaced262"},"vehicle_type_id":"4","last_reported":1778480815,"current_range_meters":7200,"station_id":"ce4bhgp2rcd13ifvqfd0","pricing_plan_id":"cebpf4jnsgd1na2vs0mg"},{"bike_id":"bd8b3ad4-0770-4af7-a251-21c75d1f3523","system_id":"levelo_inurba_marseille","lat":43.31365,"lon":5.38497,"is_reserved":false,"is_disabled":false,"rental_uris":{"android":"levelo://app?vid=bd8b3ad4-0770-4af7-a251-21c75d1f3523","ios":"levelo://app?vid=bd8b3ad4-0770-4af7-a251-21c75d1f3523"},"vehicle_type_id":"4","last_reported":1778480815,"current_range_meters":7200,"station_id":"ce4bgt92rcd13ifvqcf0","pricing_plan_id":"cebpf4jnsgd1na2vs0mg"},{"bike_id":"88049ccf-a823-49be-a699-eb2ad440588f","system_id":"levelo_inurba_marseille","lat":43.25872,"lon":5.39906,"is_reserved":false,"is_disabled":true,"rental_uris":{"android":"levelo://app?vid=88049ccf-a823-49be-a699-eb2ad440588f","ios":"levelo://app?vid=88049ccf-a823-49be-a699-eb2ad440588f"},"vehicle_type_id":"4","last_reported":1778480815,"current_range_meters":7200,"station_id":"ce4bhl92rcd13ifvqghg","pricing_plan_id":"cebpf4jnsgd1na2vs0mg"},{"bike_id":"0fcc3bc7-d989-4715-8f7a-0082ed67a971","system_id":"levelo_inurba_marseille","lat":43.28946,"lon":5.36389,"is_reserved":false,"is_disabled":false,"rental_uris":{"android":"levelo://app?vid=0fcc3bc7-d989-4715-8f7a-0082ed67a971","ios":"levelo://app?vid=0fcc3bc7-d989-4715-8f7a-0082ed67a971"},"vehicle_type_id":"4","last_reported":1778480815,"current_range_meters":7200,"station_id":"ce4bhc92rcd13ifvqetg","pricing_plan_id":"cebpf4jnsgd1na2vs0mg"},{"bike_id":"37409ad7-cee1-4dfb-a145-8d4a03d1d2cf","system_id":"levelo_inurba_marseille","lat":43.24625,"lon":5.4315,"is_reserved":false,"is_disabled":false,"rental_uris":{"android":"levelo://app?vid=37409ad7-cee1-4dfb-a145-8d4a03d1d2cf","ios":"levelo://app?vid=37409ad7-cee1-4dfb-a145-8d4a03d1d2cf"},"vehicle_type_id":"4","last_reported":1778480815,"current_range_meters":8000,"station_id":"st_d2m6c4gdas8pm72e190g","pricing_plan_id":"cebpf4jnsgd1na2vs0mg"},{"bike_id":"a160de82-cbeb-4636-a59c-e6b8c1082eb5","system_id":"levelo_inurba_marseille","lat":43.29114,"lon":5.38139,"is_reserved":false,"is_disabled":false,"rental_uris":{"android":"levelo://app?vid=a160de82-cbeb-4636-a59c-e6b8c1082eb5","ios":"levelo://app?vid=a160de82-cbeb-4636-a59c-e6b8c1082eb5"},"vehicle_type_id":"4","last_reported":1778480815,"current_range_meters":8000,"station_id":"ce4bh512rcd13ifvqe2g","pricing_plan_id":"cebpf4jnsgd1na2vs0mg"},{"bike_id":"a689c208-6c2b-4a95-81ae-77dcf72d227d","system_id":"levelo_inurba_marseille","lat":43.27222,"lon":5.39162,"is_reserved":false,"is_disabled":false,"rental_uris":{"android":"levelo://app?vid=a689c208-6c2b-4a95-81ae-77dcf72d227d","ios":"levelo://app?vid=a689c208-6c2b-4a95-81ae-77dcf72d227d"},"vehicle_type_id":"4","last_reported":1778480815,"current_range_meters":8000,"station_id":"ce4bhhp2rcd13ifvqfm0","pricing_plan_id":"cebpf4jnsgd1na2vs0mg"},{"bike_id":"ec684cce-aebd-4dfc-8bf3-1ad842eda1b0","system_id":"levelo_inurba_marseille","lat":43.3237,"lon":5.38884,"is_reserved":false,"is_disabled":false,"rental_uris":{"android":"levelo://app?vid=ec684cce-aebd-4dfc-8bf3-1ad842eda1b0","ios":"levelo://app?vid=ec684cce-aebd-4dfc-8bf3-1ad842eda1b0"},"vehicle_type_id":"4","last_reported":1778480815,"current_range_meters":8000,"station_id":"ce4bhqp2rcd13ifvqhog","pricing_plan_id":"cebpf4jnsgd1na2vs0mg"},{"bike_id":"97018414-c55b-4598-81d9-42a06d4723fe","system_id":"levelo_inurba_marseille","lat":43.26382,"lon":5.4106,"is_reserved":false,"is_disabled":false,"rental_uris":{"android":"levelo://app?vid=97018414-c55b-4598-81d9-42a06d4723fe","ios":"levelo://app?vid=97018414-c55b-4598-81d9-42a06d4723fe"},"vehicle_type_id":"4","last_reported":1778480815,"current_range_meters":8000,"station_id":"st_d4e5ca6na9uc73bfl5fg","pricing_plan_id":"cebpf4jnsgd1na2vs0mg"},{"bike_id":"c8b8ec28-493e-4601-b7df-a01f03403f4a","system_id":"levelo_inurba_marseille","lat":43.24405,"lon":5.37049,"is_reserved":false,"is_disabled":false,"rental_uris":{"android":"levelo://app?vid=c8b8ec28-493e-4601-b7df-a01f03403f4a","ios":"levelo://app?vid=c8b8ec28-493e-4601-b7df-a01f03403f4a"},"vehicle_type_id":"4","last_reported":1778480815,"current_range_meters":8000,"station_id":"ce4bhhh2rcd13ifvqfk0","pricing_plan_id":"cebpf4jnsgd1na2vs0mg"},{"bike_id":"21fe8eaa-3838-42a7-807c-db3e4750b010","system_id":"levelo_inurba_marseille","lat":43.29575,"lon":5.37518,"is_reserved":false,"is_disabled":false,"rental_uris":{"android":"levelo://app?vid=21fe8eaa-3838-42a7-807c-db3e4750b010","ios":"levelo://app?vid=21fe8eaa-3838-42a7-807c-db3e4750b010"},"vehicle_type_id":"4","last_reported":1778480815,"current_range_meters":8000,"station_id":"ce4bgh92rcd13ifvqb50","pricing_plan_id":"cebpf4jnsgd1na2vs0mg"},{"bike_id":"19ecf298-9a0e-43ed-97a5-06419c69b4aa","system_id":"levelo_inurba_marseille","lat":43.31448,"lon":5.37369,"is_reserved":false,"is_disabled":false,"rental_uris":{"android":"levelo://app?vid=19ecf298-9a0e-43ed-97a5-06419c69b4aa","ios":"levelo://app?vid=19ecf298-9a0e-43ed-97a5-06419c69b4aa"},"vehicle_type_id":"4","last_reported":1778480815,"current_range_meters":8000,"station_id":"","pricing_plan_id":"cebpf4jnsgd1na2vs0mg"},{"bike_id":"7569cac8-b1a7-483b-9d72-93a4bef9d381","system_id":"levelo_inurba_marseille","lat":43.29299,"lon":5.37423,"is_reserved":false,"is_disabled":true,"rental_uris":{"android":"levelo://app?vid=7569cac8-b1a7-483b-9d72-93a4bef9d381","ios":"levelo://app?vid=7569cac8-b1a7-483b-9d72-93a4bef9d381"},"vehicle_type_id":"4","last_reported":1778480815,"current_range_meters":8000,"station_id":"ce4bgi12rcd13ifvqb70","pricing_plan_id":"cebpf4jnsgd1na2vs0mg"},{"bike_id":"44b82dc4-674a-446b-8c81-727d389f2177","system_id":"levelo_inurba_marseille","lat":43.28696,"lon":5.46682,"is_reserved":false,"is_disabled":false,"rental_uris":{"android":"levelo://app?vid=44b82dc4-674a-446b-8c81-727d389f2177","ios":"levelo://app?vid=44b82dc4-674a-446b-8c81-727d389f2177"},"vehicle_type_id":"4","last_reported":1778480815,"current_range_meters":8000,"station_id":"st_d6tc3vkotcvc738tfjhg","pricing_plan_id":"cebpf4jnsgd1na2vs0mg"},{"bike_id":"08d66599-56da-4017-8845-11edb4efecdf","system_id":"levelo_inurba_marseille","lat":43.24667,"lon":5.38175,"is_reserved":false,"is_disabled":true,"rental_uris":{"android":"levelo://app?vid=08d66599-56da-4017-8845-11edb4efecdf","ios":"levelo://app?vid=08d66599-56da-4017-8845-11edb4efecdf"},"vehicle_type_id":"4","last_reported":1778480815,"current_range_meters":8000,"station_id":"ce4bhih2rcd13ifvqfr0","pricing_plan_id":"cebpf4jnsgd1na2vs0mg"},{"bike_id":"0aa0f504-94fe-42c5-a1d6-d8ddfb182735","system_id":"levelo_inurba_marseille","lat":43.24313,"lon":5.38779,"is_reserved":false,"is_disabled":false,"rental_uris":{"android":"levelo://app?vid=0aa0f504-94fe-42c5-a1d6-d8ddfb182735","ios":"levelo://app?vid=0aa0f504-94fe-42c5-a1d6-d8ddfb182735"},"vehicle_type_id":"4","last_reported":1778480815,"current_range_meters":8000,"station_id":"","pricing_plan_id":"cebpf4jnsgd1na2vs0mg"},{"bike_id":"9079a0b7-622c-4af0-9a02-529117624bb2","system_id":"levelo_inurba_marseille","lat":43.239,"lon":5.37444,"is_reserved":false,"is_disabled":false,"rental_uris":{"android":"levelo://app?vid=9079a0b7-622c-4af0-9a02-529117624bb2","ios":"levelo://app?vid=9079a0b7-622c-4af0-9a02-529117624bb2"},"vehicle_type_id":"4","last_reported":1778480815,"current_range_meters":8000,"station_id":"st_d6sm7csbq4hs73f8fpjg","pricing_plan_id":"cebpf4jnsgd1na2vs0mg"},{"bike_id":"02d9ab6f-1d17-43fd-ac45-026869ca0e1e","system_id":"levelo_inurba_marseille","lat":43.25515,"lon":5.37657,"is_reserved":false,"is_disabled":true,"rental_uris":{"android":"levelo://app?vid=02d9ab6f-1d17-43fd-ac45-026869ca0e1e","ios":"levelo://app?vid=02d9ab6f-1d17-43fd-ac45-026869ca0e1e"},"vehicle_type_id":"4","last_reported":1778480815,"current_range_meters":8000,"station_id":"ce4bhh12rcd13ifvqff0","pricing_plan_id":"cebpf4jnsgd1na2vs0mg"},{"bike_id":"c9c35407-3fb0-4e45-958f-4c16a3684670","system_id":"levelo_inurba_marseille","lat":43.30086,"lon":5.39071,"is_reserved":false,"is_disabled":true,"rental_uris":{"android":"levelo://app?vid=c9c35407-3fb0-4e45-958f-4c16a3684670","ios":"levelo://app?vid=c9c35407-3fb0-4e45-958f-4c16a3684670"},"vehicle_type_id":"4","last_reported":1778480815,"current_range_meters":8000,"station_id":"ce4bh192rcd13ifvqdb0","pricing_plan_id":"cebpf4jnsgd1na2vs0mg"},{"bike_id":"eb77a4c1-971a-4242-88f3-b2ec5c06ea79","system_id":"levelo_inurba_marseille","lat":43.33146,"lon":5.37689,"is_reserved":false,"is_disabled":false,"rental_uris":{"android":"levelo://app?vid=eb77a4c1-971a-4242-88f3-b2ec5c06ea79","ios":"levelo://app?vid=eb77a4c1-971a-4242-88f3-b2ec5c06ea79"},"vehicle_type_id":"4","last_reported":1778480815,"current_range_meters":8000,"station_id":"st_d46cu089ee8s73dldbu0","pricing_plan_id":"cebpf4jnsgd1na2vs0mg"},{"bike_id":"a39d298a-a46c-4857-857e-c25199ff365b","system_id":"levelo_inurba_marseille","lat":43.23162,"lon":5.43716,"is_reserved":false,"is_disabled":false,"rental_uris":{"android":"levelo://app?vid=a39d298a-a46c-4857-857e-c25199ff365b","ios":"levelo://app?vid=a39d298a-a46c-4857-857e-c25199ff365b"},"vehicle_type_id":"4","last_reported":1778480815,"current_range_meters":8000,"station_id":"ce4bhmp2rcd13ifvqgog","pricing_plan_id":"cebpf4jnsgd1na2vs0mg"},{"bike_id":"7214c20a-8159-4d8d-b0a5-eb27b10450ea","system_id":"levelo_inurba_marseille","lat":43.30959,"lon":5.39078,"is_reserved":false,"is_disabled":false,"rental_uris":{"android":"levelo://app?vid=7214c20a-8159-4d8d-b0a5-eb27b10450ea","ios":"levelo://app?vid=7214c20a-8159-4d8d-b0a5-eb27b10450ea"},"vehicle_type_id":"4","last_reported":1778480815,"current_range_meters":8000,"station_id":"ce4bgup2rcd13ifvqco0","pricing_plan_id":"cebpf4jnsgd1na2vs0mg"},{"bike_id":"2c0e16ff-3e97-4320-8049-ea252e739fac","system_id":"levelo_inurba_marseille","lat":43.31488,"lon":5.37299,"is_reserved":false,"is_disabled":false,"rental_uris":{"android":"levelo://app?vid=2c0e16ff-3e97-4320-8049-ea252e739fac","ios":"levelo://app?vid=2c0e16ff-3e97-4320-8049-ea252e739fac"},"vehicle_type_id":"4","last_reported":1778480815,"current_range_meters":8000,"station_id":"ce4bgt12rcd13ifvqcd0","pricing_plan_id":"cebpf4jnsgd1na2vs0mg"},{"bike_id":"9aad11a4-9a52-4fec-9725-ef5ceb82088c","system_id":"levelo_inurba_marseille","lat":43.24628,"lon":5.43137,"is_reserved":false,"is_disabled":true,"rental_uris":{"android":"levelo://app?vid=9aad11a4-9a52-4fec-9725-ef5ceb82088c","ios":"levelo://app?vid=9aad11a4-9a52-4fec-9725-ef5ceb82088c"},"vehicle_type_id":"4","last_reported":1778480815,"current_range_meters":8000,"station_id":"st_d2m6c4gdas8pm72e190g","pricing_plan_id":"cebpf4jnsgd1na2vs0mg"},{"bike_id":"6475484d-b81f-4683-86cb-42cee51dc03a","system_id":"levelo_inurba_marseille","lat":43.28487,"lon":5.38579,"is_reserved":false,"is_disabled":false,"rental_uris":{"android":"levelo://app?vid=6475484d-b81f-4683-86cb-42cee51dc03a","ios":"levelo://app?vid=6475484d-b81f-4683-86cb-42cee51dc03a"},"vehicle_type_id":"4","last_reported":1778480815,"current_range_meters":8000,"station_id":"ce4bh8p2rcd13ifvqeb0","pricing_plan_id":"cebpf4jnsgd1na2vs0mg"},{"bike_id":"563ef100-3138-4469-8b50-aa4d1882de3b","system_id":"levelo_inurba_marseille","lat":43.30134,"lon":5.3809,"is_reserved":false,"is_disabled":false,"rental_uris":{"android":"levelo://app?vid=563ef100-3138-4469-8b50-aa4d1882de3b","ios":"levelo://app?vid=563ef100-3138-4469-8b50-aa4d1882de3b"},"vehicle_type_id":"4","last_reported":1778480815,"current_range_meters":8000,"station_id":"ce4bgjp2rcd13ifvqbh0","pricing_plan_id":"cebpf4jnsgd1na2vs0mg"},{"bike_id":"b8b5cb12-88d7-4f4c-ba7f-39382f313467","system_id":"levelo_inurba_marseille","lat":43.21213,"lon":5.35067,"is_reserved":false,"is_disabled":false,"rental_uris":{"android":"levelo://app?vid=b8b5cb12-88d7-4f4c-ba7f-39382f313467","ios":"levelo://app?vid=b8b5cb12-88d7-4f4c-ba7f-39382f313467"},"vehicle_type_id":"4","last_reported":1778480815,"current_range_meters":8000,"station_id":"st_cvj6sg6p6f1abm77japg","pricing_plan_id":"cebpf4jnsgd1na2vs0mg"},{"bike_id":"d41dd175-5bfe-48c4-8352-4a80d32b168e","system_id":"levelo_inurba_marseille","lat":43.25002,"lon":5.38919,"is_reserved":false,"is_disabled":false,"rental_uris":{"android":"levelo://app?vid=d41dd175-5bfe-48c4-8352-4a80d32b168e","ios":"levelo://app?vid=d41dd175-5bfe-48c4-8352-4a80d32b168e"},"vehicle_type_id":"4","last_reported":1778480815,"current_range_meters":8000,"station_id":"ce4bhgp2rcd13ifvqfd0","pricing_plan_id":"cebpf4jnsgd1na2vs0mg"},{"bike_id":"9385a7db-a696-47a2-8c9b-9a34adad8836","system_id":"levelo_inurba_marseille","lat":43.30493,"lon":5.36599,"is_reserved":false,"is_disabled":false,"rental_uris":{"android":"levelo://app?vid=9385a7db-a696-47a2-8c9b-9a34adad8836","ios":"levelo://app?vid=9385a7db-a696-47a2-8c9b-9a34adad8836"},"vehicle_type_id":"4","last_reported":1778480815,"current_range_meters":8400,"station_id":"","pricing_plan_id":"cebpf4jnsgd1na2vs0mg"},{"bike_id":"15165216-6908-4be7-a34c-973f08423e24","system_id":"levelo_inurba_marseille","lat":43.29258,"lon":5.38428,"is_reserved":false,"is_disabled":false,"rental_uris":{"android":"levelo://app?vid=15165216-6908-4be7-a34c-973f08423e24","ios":"levelo://app?vid=15165216-6908-4be7-a34c-973f08423e24"},"vehicle_type_id":"4","last_reported":1778480815,"current_range_meters":8400,"station_id":"ce4bh692rcd13ifvqea0","pricing_plan_id":"cebpf4jnsgd1na2vs0mg"},{"bike_id":"29a7eadc-8c9a-4fbe-8370-c1df414fba9e","system_id":"levelo_inurba_marseille","lat":43.31453,"lon":5.37375,"is_reserved":false,"is_disabled":true,"rental_uris":{"android":"levelo://app?vid=29a7eadc-8c9a-4fbe-8370-c1df414fba9e","ios":"levelo://app?vid=29a7eadc-8c9a-4fbe-8370-c1df414fba9e"},"vehicle_type_id":"4","last_reported":1778480815,"current_range_meters":8400,"station_id":"","pricing_plan_id":"cebpf4jnsgd1na2vs0mg"},{"bike_id":"1245d83f-44fe-44f4-a80e-1ecc79af8378","system_id":"levelo_inurba_marseille","lat":43.31166,"lon":5.38707,"is_reserved":false,"is_disabled":false,"rental_uris":{"android":"levelo://app?vid=1245d83f-44fe-44f4-a80e-1ecc79af8378","ios":"levelo://app?vid=1245d83f-44fe-44f4-a80e-1ecc79af8378"},"vehicle_type_id":"4","last_reported":1778480815,"current_range_meters":8400,"station_id":"ce4bgv12rcd13ifvqcp0","pricing_plan_id":"cebpf4jnsgd1na2vs0mg"},{"bike_id":"cf7ae309-d891-460e-ab87-bc46e8324309","system_id":"levelo_inurba_marseille","lat":43.3354,"lon":5.37463,"is_reserved":false,"is_disabled":false,"rental_uris":{"android":"levelo://app?vid=cf7ae309-d891-460e-ab87-bc46e8324309","ios":"levelo://app?vid=cf7ae309-d891-460e-ab87-bc46e8324309"},"vehicle_type_id":"4","last_reported":1778480815,"current_range_meters":8400,"station_id":"st_d46tts09ee8s73dlu43g","pricing_plan_id":"cebpf4jnsgd1na2vs0mg"},{"bike_id":"7ad6c23d-da3d-484b-8ea0-e69c557b3891","system_id":"levelo_inurba_marseille","lat":43.26565,"lon":5.39,"is_reserved":false,"is_disabled":false,"rental_uris":{"android":"levelo://app?vid=7ad6c23d-da3d-484b-8ea0-e69c557b3891","ios":"levelo://app?vid=7ad6c23d-da3d-484b-8ea0-e69c557b3891"},"vehicle_type_id":"4","last_reported":1778480815,"current_range_meters":8400,"station_id":"ce4bhe12rcd13ifvqf30","pricing_plan_id":"cebpf4jnsgd1na2vs0mg"},{"bike_id":"b233b27a-3fe3-4ec6-9774-ea6c7bd9bb49","system_id":"levelo_inurba_marseille","lat":43.297028,"lon":5.376905,"is_reserved":false,"is_disabled":true,"rental_uris":{"android":"levelo://app?vid=b233b27a-3fe3-4ec6-9774-ea6c7bd9bb49","ios":"levelo://app?vid=b233b27a-3fe3-4ec6-9774-ea6c7bd9bb49"},"vehicle_type_id":"4","last_reported":1778480815,"current_range_meters":8400,"station_id":"ce4bgkh2rcd13ifvqbl0","pricing_plan_id":"cebpf4jnsgd1na2vs0mg"},{"bike_id":"0bb97876-57ef-4d3a-813d-206f73945879","system_id":"levelo_inurba_marseille","lat":43.24806,"lon":5.3745,"is_reserved":false,"is_disabled":false,"rental_uris":{"android":"levelo://app?vid=0bb97876-57ef-4d3a-813d-206f73945879","ios":"levelo://app?vid=0bb97876-57ef-4d3a-813d-206f73945879"},"vehicle_type_id":"4","last_reported":1778480815,"current_range_meters":8400,"station_id":"ce4bhgh2rcd13ifvqfb0","pricing_plan_id":"cebpf4jnsgd1na2vs0mg"},{"bike_id":"ac3d0288-806c-484d-a53f-2698f9156917","system_id":"levelo_inurba_marseille","lat":43.26058,"lon":5.39407,"is_reserved":false,"is_disabled":false,"rental_uris":{"android":"levelo://app?vid=ac3d0288-806c-484d-a53f-2698f9156917","ios":"levelo://app?vid=ac3d0288-806c-484d-a53f-2698f9156917"},"vehicle_type_id":"4","last_reported":1778480815,"current_range_meters":8400,"station_id":"ce4bhh92rcd13ifvqfj0","pricing_plan_id":"cebpf4jnsgd1na2vs0mg"},{"bike_id":"a60c00bf-7fbe-4a0b-9f34-8ab8a66dfdaf","system_id":"levelo_inurba_marseille","lat":43.2706,"lon":5.4029,"is_reserved":false,"is_disabled":false,"rental_uris":{"android":"levelo://app?vid=a60c00bf-7fbe-4a0b-9f34-8ab8a66dfdaf","ios":"levelo://app?vid=a60c00bf-7fbe-4a0b-9f34-8ab8a66dfdaf"},"vehicle_type_id":"4","last_reported":1778480815,"current_range_meters":8400,"station_id":"ce4bhk92rcd13ifvqgc0","pricing_plan_id":"cebpf4jnsgd1na2vs0mg"},{"bike_id":"51c33c4f-93e3-4914-8b70-f8494a43df13","system_id":"levelo_inurba_marseille","lat":43.28427,"lon":5.37502,"is_reserved":false,"is_disabled":true,"rental_uris":{"android":"levelo://app?vid=51c33c4f-93e3-4914-8b70-f8494a43df13","ios":"levelo://app?vid=51c33c4f-93e3-4914-8b70-f8494a43df13"},"vehicle_type_id":"4","last_reported":1778480815,"current_range_meters":8400,"station_id":"ce4bh412rcd13ifvqds0","pricing_plan_id":"cebpf4jnsgd1na2vs0mg"},{"bike_id":"662c8520-bfe6-4791-897f-ed06d541dc6e","system_id":"levelo_inurba_marseille","lat":43.27082,"lon":5.38305,"is_reserved":false,"is_disabled":false,"rental_uris":{"android":"levelo://app?vid=662c8520-bfe6-4791-897f-ed06d541dc6e","ios":"levelo://app?vid=662c8520-bfe6-4791-897f-ed06d541dc6e"},"vehicle_type_id":"4","last_reported":1778480815,"current_range_meters":8400,"station_id":"st_d3n2fo6cfp8s73cte1j0","pricing_plan_id":"cebpf4jnsgd1na2vs0mg"},{"bike_id":"3846189f-ef8a-4416-862e-758a0e9d0921","system_id":"levelo_inurba_marseille","lat":43.24677,"lon":5.38145,"is_reserved":false,"is_disabled":true,"rental_uris":{"android":"levelo://app?vid=3846189f-ef8a-4416-862e-758a0e9d0921","ios":"levelo://app?vid=3846189f-ef8a-4416-862e-758a0e9d0921"},"vehicle_type_id":"4","last_reported":1778480815,"current_range_meters":8400,"station_id":"ce4bhih2rcd13ifvqfr0","pricing_plan_id":"cebpf4jnsgd1na2vs0mg"},{"bike_id":"4c50ceb6-cdba-4a6f-be3f-66ed2699630e","system_id":"levelo_inurba_marseille","lat":43.28502,"lon":5.3857,"is_reserved":false,"is_disabled":false,"rental_uris":{"android":"levelo://app?vid=4c50ceb6-cdba-4a6f-be3f-66ed2699630e","ios":"levelo://app?vid=4c50ceb6-cdba-4a6f-be3f-66ed2699630e"},"vehicle_type_id":"4","last_reported":1778480815,"current_range_meters":8400,"station_id":"ce4bh8p2rcd13ifvqeb0","pricing_plan_id":"cebpf4jnsgd1na2vs0mg"},{"bike_id":"2045449d-114f-47cf-8791-7d12be9f5d63","system_id":"levelo_inurba_marseille","lat":43.29798,"lon":5.44051,"is_reserved":false,"is_disabled":false,"rental_uris":{"android":"levelo://app?vid=2045449d-114f-47cf-8791-7d12be9f5d63","ios":"levelo://app?vid=2045449d-114f-47cf-8791-7d12be9f5d63"},"vehicle_type_id":"4","last_reported":1778480815,"current_range_meters":8400,"station_id":"st_d3jp68qikq2c7381ktn0","pricing_plan_id":"cebpf4jnsgd1na2vs0mg"},{"bike_id":"bd9cbf98-e058-4992-a7be-95490be9dbcf","system_id":"levelo_inurba_marseille","lat":43.28694,"lon":5.37934,"is_reserved":false,"is_disabled":false,"rental_uris":{"android":"levelo://app?vid=bd9cbf98-e058-4992-a7be-95490be9dbcf","ios":"levelo://app?vid=bd9cbf98-e058-4992-a7be-95490be9dbcf"},"vehicle_type_id":"4","last_reported":1778480815,"current_range_meters":8400,"station_id":"ce4bh9p2rcd13ifvqec0","pricing_plan_id":"cebpf4jnsgd1na2vs0mg"},{"bike_id":"ffb34908-81f0-450d-91ec-59fc53e9ad76","system_id":"levelo_inurba_marseille","lat":43.33959,"lon":5.41662,"is_reserved":false,"is_disabled":false,"rental_uris":{"android":"levelo://app?vid=ffb34908-81f0-450d-91ec-59fc53e9ad76","ios":"levelo://app?vid=ffb34908-81f0-450d-91ec-59fc53e9ad76"},"vehicle_type_id":"4","last_reported":1778480815,"current_range_meters":8400,"station_id":"","pricing_plan_id":"cebpf4jnsgd1na2vs0mg"},{"bike_id":"369803e0-cf2f-4230-a91a-a5b633dc7de3","system_id":"levelo_inurba_marseille","lat":43.33166,"lon":5.3767,"is_reserved":false,"is_disabled":false,"rental_uris":{"android":"levelo://app?vid=369803e0-cf2f-4230-a91a-a5b633dc7de3","ios":"levelo://app?vid=369803e0-cf2f-4230-a91a-a5b633dc7de3"},"vehicle_type_id":"4","last_reported":1778480815,"current_range_meters":8400,"station_id":"st_d46cu089ee8s73dldbu0","pricing_plan_id":"cebpf4jnsgd1na2vs0mg"},{"bike_id":"aff06b5f-2b19-4d50-9622-720fc5c1fc9e","system_id":"levelo_inurba_marseille","lat":43.28423,"lon":5.37492,"is_reserved":false,"is_disabled":false,"rental_uris":{"android":"levelo://app?vid=aff06b5f-2b19-4d50-9622-720fc5c1fc9e","ios":"levelo://app?vid=aff06b5f-2b19-4d50-9622-720fc5c1fc9e"},"vehicle_type_id":"4","last_reported":1778480815,"current_range_meters":8400,"station_id":"ce4bh412rcd13ifvqds0","pricing_plan_id":"cebpf4jnsgd1na2vs0mg"},{"bike_id":"d4aff205-73f1-42ee-8e1f-95ea17a0f3d5","system_id":"levelo_inurba_marseille","lat":43.28893,"lon":5.37803,"is_reserved":false,"is_disabled":false,"rental_uris":{"android":"levelo://app?vid=d4aff205-73f1-42ee-8e1f-95ea17a0f3d5","ios":"levelo://app?vid=d4aff205-73f1-42ee-8e1f-95ea17a0f3d5"},"vehicle_type_id":"4","last_reported":1778480815,"current_range_meters":8400,"station_id":"","pricing_plan_id":"cebpf4jnsgd1na2vs0mg"},{"bike_id":"46c8e1d3-f668-4908-8789-6877efd11ae3","system_id":"levelo_inurba_marseille","lat":43.299271,"lon":5.374873,"is_reserved":false,"is_disabled":false,"rental_uris":{"android":"levelo://app?vid=46c8e1d3-f668-4908-8789-6877efd11ae3","ios":"levelo://app?vid=46c8e1d3-f668-4908-8789-6877efd11ae3"},"vehicle_type_id":"4","last_reported":1778480815,"current_range_meters":8400,"station_id":"ce4bgjh2rcd13ifvqbg0","pricing_plan_id":"cebpf4jnsgd1na2vs0mg"},{"bike_id":"1fa4b452-9d0c-43b3-a29a-3d70cafac9f2","system_id":"levelo_inurba_marseille","lat":43.32238,"lon":5.36884,"is_reserved":false,"is_disabled":false,"rental_uris":{"android":"levelo://app?vid=1fa4b452-9d0c-43b3-a29a-3d70cafac9f2","ios":"levelo://app?vid=1fa4b452-9d0c-43b3-a29a-3d70cafac9f2"},"vehicle_type_id":"4","last_reported":1778480815,"current_range_meters":8400,"station_id":"","pricing_plan_id":"cebpf4jnsgd1na2vs0mg"},{"bike_id":"e1503575-8d47-4546-b8cd-a7397d82e305","system_id":"levelo_inurba_marseille","lat":43.28875,"lon":5.42521,"is_reserved":false,"is_disabled":false,"rental_uris":{"android":"levelo://app?vid=e1503575-8d47-4546-b8cd-a7397d82e305","ios":"levelo://app?vid=e1503575-8d47-4546-b8cd-a7397d82e305"},"vehicle_type_id":"4","last_reported":1778480815,"current_range_meters":8400,"station_id":"st_d3b462108ojc7389ooeg","pricing_plan_id":"cebpf4jnsgd1na2vs0mg"},{"bike_id":"c6183ae8-b965-4ecd-95e9-0ccc9c5d8555","system_id":"levelo_inurba_marseille","lat":43.30163,"lon":5.38092,"is_reserved":false,"is_disabled":false,"rental_uris":{"android":"levelo://app?vid=c6183ae8-b965-4ecd-95e9-0ccc9c5d8555","ios":"levelo://app?vid=c6183ae8-b965-4ecd-95e9-0ccc9c5d8555"},"vehicle_type_id":"4","last_reported":1778480815,"current_range_meters":8400,"station_id":"ce4bgjp2rcd13ifvqbh0","pricing_plan_id":"cebpf4jnsgd1na2vs0mg"},{"bike_id":"9d4784b8-10a9-4863-8ff2-38cf427d852c","system_id":"levelo_inurba_marseille","lat":43.23901,"lon":5.37454,"is_reserved":false,"is_disabled":true,"rental_uris":{"android":"levelo://app?vid=9d4784b8-10a9-4863-8ff2-38cf427d852c","ios":"levelo://app?vid=9d4784b8-10a9-4863-8ff2-38cf427d852c"},"vehicle_type_id":"4","last_reported":1778480815,"current_range_meters":8400,"station_id":"st_d6sm7csbq4hs73f8fpjg","pricing_plan_id":"cebpf4jnsgd1na2vs0mg"},{"bike_id":"168f4a9e-736f-4dd7-91dd-519b879aa5a5","system_id":"levelo_inurba_marseille","lat":43.32506,"lon":5.4148,"is_reserved":false,"is_disabled":false,"rental_uris":{"android":"levelo://app?vid=168f4a9e-736f-4dd7-91dd-519b879aa5a5","ios":"levelo://app?vid=168f4a9e-736f-4dd7-91dd-519b879aa5a5"},"vehicle_type_id":"4","last_reported":1778480815,"current_range_meters":8400,"station_id":"ce4bhq12rcd13ifvqhhg","pricing_plan_id":"cebpf4jnsgd1na2vs0mg"},{"bike_id":"20795dd9-ec32-401d-b22c-15f4537a78b5","system_id":"levelo_inurba_marseille","lat":43.25731,"lon":5.41116,"is_reserved":false,"is_disabled":false,"rental_uris":{"android":"levelo://app?vid=20795dd9-ec32-401d-b22c-15f4537a78b5","ios":"levelo://app?vid=20795dd9-ec32-401d-b22c-15f4537a78b5"},"vehicle_type_id":"4","last_reported":1778480815,"current_range_meters":8400,"station_id":"ce4bhkp2rcd13ifvqgd0","pricing_plan_id":"cebpf4jnsgd1na2vs0mg"},{"bike_id":"eea44eb9-13bb-40d8-b929-ea5b2cf488f4","system_id":"levelo_inurba_marseille","lat":43.28281,"lon":5.35077,"is_reserved":false,"is_disabled":true,"rental_uris":{"android":"levelo://app?vid=eea44eb9-13bb-40d8-b929-ea5b2cf488f4","ios":"levelo://app?vid=eea44eb9-13bb-40d8-b929-ea5b2cf488f4"},"vehicle_type_id":"4","last_reported":1778480815,"current_range_meters":8800,"station_id":"ce4bhbp2rcd13ifvqerg","pricing_plan_id":"cebpf4jnsgd1na2vs0mg"},{"bike_id":"d403f592-2a17-4272-b0ba-13c5e9f0777a","system_id":"levelo_inurba_marseille","lat":43.30136,"lon":5.38083,"is_reserved":false,"is_disabled":false,"rental_uris":{"android":"levelo://app?vid=d403f592-2a17-4272-b0ba-13c5e9f0777a","ios":"levelo://app?vid=d403f592-2a17-4272-b0ba-13c5e9f0777a"},"vehicle_type_id":"4","last_reported":1778480815,"current_range_meters":8800,"station_id":"ce4bgjp2rcd13ifvqbh0","pricing_plan_id":"cebpf4jnsgd1na2vs0mg"},{"bike_id":"7cfaa185-98a8-4d31-bb6e-1dc32a5397f7","system_id":"levelo_inurba_marseille","lat":43.26955,"lon":5.40232,"is_reserved":false,"is_disabled":true,"rental_uris":{"android":"levelo://app?vid=7cfaa185-98a8-4d31-bb6e-1dc32a5397f7","ios":"levelo://app?vid=7cfaa185-98a8-4d31-bb6e-1dc32a5397f7"},"vehicle_type_id":"4","last_reported":1778480815,"current_range_meters":8800,"station_id":"cjm6bp8fraef2m0cb0m0","pricing_plan_id":"cebpf4jnsgd1na2vs0mg"},{"bike_id":"b2acc746-abb2-4d0a-ae75-c8428132f38c","system_id":"levelo_inurba_marseille","lat":43.29039,"lon":5.39953,"is_reserved":false,"is_disabled":false,"rental_uris":{"android":"levelo://app?vid=b2acc746-abb2-4d0a-ae75-c8428132f38c","ios":"levelo://app?vid=b2acc746-abb2-4d0a-ae75-c8428132f38c"},"vehicle_type_id":"4","last_reported":1778480815,"current_range_meters":8800,"station_id":"ce4bh392rcd13ifvqdm0","pricing_plan_id":"cebpf4jnsgd1na2vs0mg"},{"bike_id":"6ff26e1e-c165-48e6-a586-46f84a81bf64","system_id":"levelo_inurba_marseille","lat":43.30827,"lon":5.36651,"is_reserved":false,"is_disabled":false,"rental_uris":{"android":"levelo://app?vid=6ff26e1e-c165-48e6-a586-46f84a81bf64","ios":"levelo://app?vid=6ff26e1e-c165-48e6-a586-46f84a81bf64"},"vehicle_type_id":"4","last_reported":1778480815,"current_range_meters":8800,"station_id":"","pricing_plan_id":"cebpf4jnsgd1na2vs0mg"},{"bike_id":"5e16a763-1b64-44f2-b790-753d56bfcc65","system_id":"levelo_inurba_marseille","lat":43.24806,"lon":5.37459,"is_reserved":false,"is_disabled":false,"rental_uris":{"android":"levelo://app?vid=5e16a763-1b64-44f2-b790-753d56bfcc65","ios":"levelo://app?vid=5e16a763-1b64-44f2-b790-753d56bfcc65"},"vehicle_type_id":"4","last_reported":1778480815,"current_range_meters":8800,"station_id":"ce4bhgh2rcd13ifvqfb0","pricing_plan_id":"cebpf4jnsgd1na2vs0mg"},{"bike_id":"632db9d3-8cc5-4073-a96c-be6c818eb1fd","system_id":"levelo_inurba_marseille","lat":43.25733,"lon":5.41093,"is_reserved":false,"is_disabled":false,"rental_uris":{"android":"levelo://app?vid=632db9d3-8cc5-4073-a96c-be6c818eb1fd","ios":"levelo://app?vid=632db9d3-8cc5-4073-a96c-be6c818eb1fd"},"vehicle_type_id":"4","last_reported":1778480815,"current_range_meters":8800,"station_id":"ce4bhkp2rcd13ifvqgd0","pricing_plan_id":"cebpf4jnsgd1na2vs0mg"},{"bike_id":"c4f414e1-7178-4462-8af7-1c76a82c77ae","system_id":"levelo_inurba_marseille","lat":43.279643,"lon":5.387515,"is_reserved":false,"is_disabled":false,"rental_uris":{"android":"levelo://app?vid=c4f414e1-7178-4462-8af7-1c76a82c77ae","ios":"levelo://app?vid=c4f414e1-7178-4462-8af7-1c76a82c77ae"},"vehicle_type_id":"4","last_reported":1778480815,"current_range_meters":8800,"station_id":"ce4bhg12rcd13ifvqf80","pricing_plan_id":"cebpf4jnsgd1na2vs0mg"},{"bike_id":"a88393fb-e020-4992-9ade-1e877d92414b","system_id":"levelo_inurba_marseille","lat":43.23182,"lon":5.35539,"is_reserved":false,"is_disabled":true,"rental_uris":{"android":"levelo://app?vid=a88393fb-e020-4992-9ade-1e877d92414b","ios":"levelo://app?vid=a88393fb-e020-4992-9ade-1e877d92414b"},"vehicle_type_id":"4","last_reported":1778480815,"current_range_meters":8800,"station_id":"ce4bhu92rcd13ifvqi70","pricing_plan_id":"cebpf4jnsgd1na2vs0mg"},{"bike_id":"cf5626c9-98bc-4030-b443-4d9a425ac84c","system_id":"levelo_inurba_marseille","lat":43.2837,"lon":5.38649,"is_reserved":false,"is_disabled":true,"rental_uris":{"android":"levelo://app?vid=cf5626c9-98bc-4030-b443-4d9a425ac84c","ios":"levelo://app?vid=cf5626c9-98bc-4030-b443-4d9a425ac84c"},"vehicle_type_id":"4","last_reported":1778480815,"current_range_meters":8800,"station_id":"ce4bh492rcd13ifvqdvg","pricing_plan_id":"cebpf4jnsgd1na2vs0mg"},{"bike_id":"a8edc939-76ff-450f-a9b5-e2850fb2ebd2","system_id":"levelo_inurba_marseille","lat":43.29898,"lon":5.39724,"is_reserved":false,"is_disabled":true,"rental_uris":{"android":"levelo://app?vid=a8edc939-76ff-450f-a9b5-e2850fb2ebd2","ios":"levelo://app?vid=a8edc939-76ff-450f-a9b5-e2850fb2ebd2"},"vehicle_type_id":"4","last_reported":1778480815,"current_range_meters":8800,"station_id":"ce4bh0h2rcd13ifvqd50","pricing_plan_id":"cebpf4jnsgd1na2vs0mg"},{"bike_id":"d7dbf59b-5468-472d-b78e-c8fcdde2744f","system_id":"levelo_inurba_marseille","lat":43.2315,"lon":5.43713,"is_reserved":false,"is_disabled":false,"rental_uris":{"android":"levelo://app?vid=d7dbf59b-5468-472d-b78e-c8fcdde2744f","ios":"levelo://app?vid=d7dbf59b-5468-472d-b78e-c8fcdde2744f"},"vehicle_type_id":"4","last_reported":1778480815,"current_range_meters":8800,"station_id":"ce4bhmp2rcd13ifvqgog","pricing_plan_id":"cebpf4jnsgd1na2vs0mg"},{"bike_id":"eaa46970-3ae2-41f2-a7df-b5b40f3e2ef9","system_id":"levelo_inurba_marseille","lat":43.28716,"lon":5.37947,"is_reserved":false,"is_disabled":false,"rental_uris":{"android":"levelo://app?vid=eaa46970-3ae2-41f2-a7df-b5b40f3e2ef9","ios":"levelo://app?vid=eaa46970-3ae2-41f2-a7df-b5b40f3e2ef9"},"vehicle_type_id":"4","last_reported":1778480815,"current_range_meters":8800,"station_id":"ce4bh9p2rcd13ifvqec0","pricing_plan_id":"cebpf4jnsgd1na2vs0mg"},{"bike_id":"1b7a675b-bb76-459e-9faa-5111a72b77a2","system_id":"levelo_inurba_marseille","lat":43.2408,"lon":5.37755,"is_reserved":false,"is_disabled":false,"rental_uris":{"android":"levelo://app?vid=1b7a675b-bb76-459e-9faa-5111a72b77a2","ios":"levelo://app?vid=1b7a675b-bb76-459e-9faa-5111a72b77a2"},"vehicle_type_id":"4","last_reported":1778480815,"current_range_meters":8800,"station_id":"ce4bhnp2rcd13ifvqgvg","pricing_plan_id":"cebpf4jnsgd1na2vs0mg"},{"bike_id":"63fb50bb-626e-4c8c-a904-a1887ca132bf","system_id":"levelo_inurba_marseille","lat":43.25495,"lon":5.37643,"is_reserved":false,"is_disabled":false,"rental_uris":{"android":"levelo://app?vid=63fb50bb-626e-4c8c-a904-a1887ca132bf","ios":"levelo://app?vid=63fb50bb-626e-4c8c-a904-a1887ca132bf"},"vehicle_type_id":"4","last_reported":1778480815,"current_range_meters":8800,"station_id":"ce4bhh12rcd13ifvqff0","pricing_plan_id":"cebpf4jnsgd1na2vs0mg"},{"bike_id":"3bbef853-8ca4-4578-af76-53af3f57b62d","system_id":"levelo_inurba_marseille","lat":43.27955,"lon":5.38717,"is_reserved":false,"is_disabled":false,"rental_uris":{"android":"levelo://app?vid=3bbef853-8ca4-4578-af76-53af3f57b62d","ios":"levelo://app?vid=3bbef853-8ca4-4578-af76-53af3f57b62d"},"vehicle_type_id":"4","last_reported":1778480815,"current_range_meters":9200,"station_id":"ce4bhg12rcd13ifvqf80","pricing_plan_id":"cebpf4jnsgd1na2vs0mg"},{"bike_id":"c91df724-5b59-4289-b01a-509c9ed50268","system_id":"levelo_inurba_marseille","lat":43.23905,"lon":5.37522,"is_reserved":false,"is_disabled":false,"rental_uris":{"android":"levelo://app?vid=c91df724-5b59-4289-b01a-509c9ed50268","ios":"levelo://app?vid=c91df724-5b59-4289-b01a-509c9ed50268"},"vehicle_type_id":"4","last_reported":1778480815,"current_range_meters":9200,"station_id":"st_d6sm7csbq4hs73f8fpjg","pricing_plan_id":"cebpf4jnsgd1na2vs0mg"},{"bike_id":"2a15f532-2d52-4f08-85d5-53f0f8106724","system_id":"levelo_inurba_marseille","lat":43.31354,"lon":5.36728,"is_reserved":false,"is_disabled":false,"rental_uris":{"android":"levelo://app?vid=2a15f532-2d52-4f08-85d5-53f0f8106724","ios":"levelo://app?vid=2a15f532-2d52-4f08-85d5-53f0f8106724"},"vehicle_type_id":"4","last_reported":1778480815,"current_range_meters":9200,"station_id":"ce4bgr92rcd13ifvqc6g","pricing_plan_id":"cebpf4jnsgd1na2vs0mg"},{"bike_id":"4305602e-34b3-468d-881b-8be0ea146d09","system_id":"levelo_inurba_marseille","lat":43.28488,"lon":5.3844,"is_reserved":false,"is_disabled":false,"rental_uris":{"android":"levelo://app?vid=4305602e-34b3-468d-881b-8be0ea146d09","ios":"levelo://app?vid=4305602e-34b3-468d-881b-8be0ea146d09"},"vehicle_type_id":"4","last_reported":1778480815,"current_range_meters":9200,"station_id":"ce4bh512rcd13ifvqe3g","pricing_plan_id":"cebpf4jnsgd1na2vs0mg"},{"bike_id":"f686b01a-c70f-439e-97a0-39cc13ce32f3","system_id":"levelo_inurba_marseille","lat":43.2408,"lon":5.37743,"is_reserved":false,"is_disabled":false,"rental_uris":{"android":"levelo://app?vid=f686b01a-c70f-439e-97a0-39cc13ce32f3","ios":"levelo://app?vid=f686b01a-c70f-439e-97a0-39cc13ce32f3"},"vehicle_type_id":"4","last_reported":1778480815,"current_range_meters":9200,"station_id":"ce4bhnp2rcd13ifvqgvg","pricing_plan_id":"cebpf4jnsgd1na2vs0mg"},{"bike_id":"f08fd671-6039-42d3-9555-565586ddb900","system_id":"levelo_inurba_marseille","lat":43.23193,"lon":5.3555,"is_reserved":false,"is_disabled":false,"rental_uris":{"android":"levelo://app?vid=f08fd671-6039-42d3-9555-565586ddb900","ios":"levelo://app?vid=f08fd671-6039-42d3-9555-565586ddb900"},"vehicle_type_id":"4","last_reported":1778480815,"current_range_meters":9200,"station_id":"ce4bhu92rcd13ifvqi70","pricing_plan_id":"cebpf4jnsgd1na2vs0mg"},{"bike_id":"b06dc624-9d1b-44bd-b8d1-2da3c164f736","system_id":"levelo_inurba_marseille","lat":43.30496,"lon":5.45999,"is_reserved":false,"is_disabled":false,"rental_uris":{"android":"levelo://app?vid=b06dc624-9d1b-44bd-b8d1-2da3c164f736","ios":"levelo://app?vid=b06dc624-9d1b-44bd-b8d1-2da3c164f736"},"vehicle_type_id":"4","last_reported":1778480815,"current_range_meters":9200,"station_id":"","pricing_plan_id":"cebpf4jnsgd1na2vs0mg"},{"bike_id":"a477a1a3-f071-4e56-a635-b34d7283b460","system_id":"levelo_inurba_marseille","lat":43.33536,"lon":5.37464,"is_reserved":false,"is_disabled":false,"rental_uris":{"android":"levelo://app?vid=a477a1a3-f071-4e56-a635-b34d7283b460","ios":"levelo://app?vid=a477a1a3-f071-4e56-a635-b34d7283b460"},"vehicle_type_id":"4","last_reported":1778480815,"current_range_meters":9200,"station_id":"st_d46tts09ee8s73dlu43g","pricing_plan_id":"cebpf4jnsgd1na2vs0mg"},{"bike_id":"2a797fda-e483-434a-b1a7-cbf2cc08a508","system_id":"levelo_inurba_marseille","lat":43.27923,"lon":5.39593,"is_reserved":false,"is_disabled":false,"rental_uris":{"android":"levelo://app?vid=2a797fda-e483-434a-b1a7-cbf2cc08a508","ios":"levelo://app?vid=2a797fda-e483-434a-b1a7-cbf2cc08a508"},"vehicle_type_id":"4","last_reported":1778480815,"current_range_meters":9200,"station_id":"ce4bhf92rcd13ifvqf40","pricing_plan_id":"cebpf4jnsgd1na2vs0mg"},{"bike_id":"b255a234-1fad-45aa-b27d-3238bd4363c2","system_id":"levelo_inurba_marseille","lat":43.29533,"lon":5.3903,"is_reserved":false,"is_disabled":true,"rental_uris":{"android":"levelo://app?vid=b255a234-1fad-45aa-b27d-3238bd4363c2","ios":"levelo://app?vid=b255a234-1fad-45aa-b27d-3238bd4363c2"},"vehicle_type_id":"4","last_reported":1778480815,"current_range_meters":9200,"station_id":"ce4bh3p2rcd13ifvqdp0","pricing_plan_id":"cebpf4jnsgd1na2vs0mg"},{"bike_id":"3ff89c8d-983c-4dd5-8364-153b22c4cced","system_id":"levelo_inurba_marseille","lat":43.26216,"lon":5.37914,"is_reserved":false,"is_disabled":true,"rental_uris":{"android":"levelo://app?vid=3ff89c8d-983c-4dd5-8364-153b22c4cced","ios":"levelo://app?vid=3ff89c8d-983c-4dd5-8364-153b22c4cced"},"vehicle_type_id":"4","last_reported":1778480815,"current_range_meters":9200,"station_id":"ce4bhjp2rcd13ifvqg90","pricing_plan_id":"cebpf4jnsgd1na2vs0mg"},{"bike_id":"89057c05-c72e-4f5a-a0db-f5b7c4f54905","system_id":"levelo_inurba_marseille","lat":43.27954,"lon":5.41049,"is_reserved":false,"is_disabled":true,"rental_uris":{"android":"levelo://app?vid=89057c05-c72e-4f5a-a0db-f5b7c4f54905","ios":"levelo://app?vid=89057c05-c72e-4f5a-a0db-f5b7c4f54905"},"vehicle_type_id":"4","last_reported":1778480815,"current_range_meters":9200,"station_id":"ce4bhnp2rcd13ifvqh0g","pricing_plan_id":"cebpf4jnsgd1na2vs0mg"},{"bike_id":"21c79f79-2675-47dd-8e02-d47f39db332a","system_id":"levelo_inurba_marseille","lat":43.2901,"lon":5.3862,"is_reserved":false,"is_disabled":false,"rental_uris":{"android":"levelo://app?vid=21c79f79-2675-47dd-8e02-d47f39db332a","ios":"levelo://app?vid=21c79f79-2675-47dd-8e02-d47f39db332a"},"vehicle_type_id":"4","last_reported":1778480815,"current_range_meters":9200,"station_id":"ce4bh4p2rcd13ifvqe0g","pricing_plan_id":"cebpf4jnsgd1na2vs0mg"},{"bike_id":"9f334ae5-1042-4422-9579-97ff4fa58c69","system_id":"levelo_inurba_marseille","lat":43.24958,"lon":5.40498,"is_reserved":false,"is_disabled":false,"rental_uris":{"android":"levelo://app?vid=9f334ae5-1042-4422-9579-97ff4fa58c69","ios":"levelo://app?vid=9f334ae5-1042-4422-9579-97ff4fa58c69"},"vehicle_type_id":"4","last_reported":1778480815,"current_range_meters":9200,"station_id":"st_d2ngiaodas8pm72gd1h0","pricing_plan_id":"cebpf4jnsgd1na2vs0mg"},{"bike_id":"de15025b-6ccd-4c02-a679-94e68edc9c98","system_id":"levelo_inurba_marseille","lat":43.28794,"lon":5.42424,"is_reserved":false,"is_disabled":false,"rental_uris":{"android":"levelo://app?vid=de15025b-6ccd-4c02-a679-94e68edc9c98","ios":"levelo://app?vid=de15025b-6ccd-4c02-a679-94e68edc9c98"},"vehicle_type_id":"4","last_reported":1778480815,"current_range_meters":9200,"station_id":"","pricing_plan_id":"cebpf4jnsgd1na2vs0mg"},{"bike_id":"8e4b050e-78bc-4587-a179-01ce687f4825","system_id":"levelo_inurba_marseille","lat":43.24646,"lon":5.3887,"is_reserved":false,"is_disabled":false,"rental_uris":{"android":"levelo://app?vid=8e4b050e-78bc-4587-a179-01ce687f4825","ios":"levelo://app?vid=8e4b050e-78bc-4587-a179-01ce687f4825"},"vehicle_type_id":"4","last_reported":1778480815,"current_range_meters":9200,"station_id":"ce4bhg12rcd13ifvqf60","pricing_plan_id":"cebpf4jnsgd1na2vs0mg"},{"bike_id":"e3b32efc-f569-4792-8761-60c097854bfa","system_id":"levelo_inurba_marseille","lat":43.29205,"lon":5.42691,"is_reserved":false,"is_disabled":false,"rental_uris":{"android":"levelo://app?vid=e3b32efc-f569-4792-8761-60c097854bfa","ios":"levelo://app?vid=e3b32efc-f569-4792-8761-60c097854bfa"},"vehicle_type_id":"4","last_reported":1778480815,"current_range_meters":9200,"station_id":"","pricing_plan_id":"cebpf4jnsgd1na2vs0mg"},{"bike_id":"914b94a4-bf59-4af5-993a-5a5d7a6154fb","system_id":"levelo_inurba_marseille","lat":43.3174,"lon":5.39002,"is_reserved":false,"is_disabled":true,"rental_uris":{"android":"levelo://app?vid=914b94a4-bf59-4af5-993a-5a5d7a6154fb","ios":"levelo://app?vid=914b94a4-bf59-4af5-993a-5a5d7a6154fb"},"vehicle_type_id":"4","last_reported":1778480815,"current_range_meters":9200,"station_id":"ce4bhqp2rcd13ifvqhng","pricing_plan_id":"cebpf4jnsgd1na2vs0mg"},{"bike_id":"3d635ac5-5a9d-4ccb-a2ae-7125267d9eca","system_id":"levelo_inurba_marseille","lat":43.23154,"lon":5.43705,"is_reserved":false,"is_disabled":false,"rental_uris":{"android":"levelo://app?vid=3d635ac5-5a9d-4ccb-a2ae-7125267d9eca","ios":"levelo://app?vid=3d635ac5-5a9d-4ccb-a2ae-7125267d9eca"},"vehicle_type_id":"4","last_reported":1778480815,"current_range_meters":9600,"station_id":"ce4bhmp2rcd13ifvqgog","pricing_plan_id":"cebpf4jnsgd1na2vs0mg"},{"bike_id":"028e5f20-5146-49f3-a7db-aadde221fb20","system_id":"levelo_inurba_marseille","lat":43.31698,"lon":5.40478,"is_reserved":false,"is_disabled":false,"rental_uris":{"android":"levelo://app?vid=028e5f20-5146-49f3-a7db-aadde221fb20","ios":"levelo://app?vid=028e5f20-5146-49f3-a7db-aadde221fb20"},"vehicle_type_id":"4","last_reported":1778480815,"current_range_meters":9600,"station_id":"ce4bh012rcd13ifvqd00","pricing_plan_id":"cebpf4jnsgd1na2vs0mg"},{"bike_id":"76e2cb7e-a3d8-4f18-bb99-2fd829487c78","system_id":"levelo_inurba_marseille","lat":43.29578,"lon":5.36741,"is_reserved":false,"is_disabled":false,"rental_uris":{"android":"levelo://app?vid=76e2cb7e-a3d8-4f18-bb99-2fd829487c78","ios":"levelo://app?vid=76e2cb7e-a3d8-4f18-bb99-2fd829487c78"},"vehicle_type_id":"4","last_reported":1778480815,"current_range_meters":9600,"station_id":"ce4bgph2rcd13ifvqc2g","pricing_plan_id":"cebpf4jnsgd1na2vs0mg"},{"bike_id":"3ba83b48-1d42-4a86-bc26-b35cdac413f5","system_id":"levelo_inurba_marseille","lat":43.3315,"lon":5.37684,"is_reserved":false,"is_disabled":false,"rental_uris":{"android":"levelo://app?vid=3ba83b48-1d42-4a86-bc26-b35cdac413f5","ios":"levelo://app?vid=3ba83b48-1d42-4a86-bc26-b35cdac413f5"},"vehicle_type_id":"4","last_reported":1778480815,"current_range_meters":9600,"station_id":"st_d46cu089ee8s73dldbu0","pricing_plan_id":"cebpf4jnsgd1na2vs0mg"},{"bike_id":"5290b77f-a94a-405c-853e-24c69feb981b","system_id":"levelo_inurba_marseille","lat":43.2954,"lon":5.3903,"is_reserved":false,"is_disabled":true,"rental_uris":{"android":"levelo://app?vid=5290b77f-a94a-405c-853e-24c69feb981b","ios":"levelo://app?vid=5290b77f-a94a-405c-853e-24c69feb981b"},"vehicle_type_id":"4","last_reported":1778480815,"current_range_meters":9600,"station_id":"ce4bh3p2rcd13ifvqdp0","pricing_plan_id":"cebpf4jnsgd1na2vs0mg"},{"bike_id":"77f5d1ec-fc0e-4df1-a5c4-fcac1e260c2e","system_id":"levelo_inurba_marseille","lat":43.30319,"lon":5.36916,"is_reserved":false,"is_disabled":false,"rental_uris":{"android":"levelo://app?vid=77f5d1ec-fc0e-4df1-a5c4-fcac1e260c2e","ios":"levelo://app?vid=77f5d1ec-fc0e-4df1-a5c4-fcac1e260c2e"},"vehicle_type_id":"4","last_reported":1778480815,"current_range_meters":9600,"station_id":"ce4bgqh2rcd13ifvqc5g","pricing_plan_id":"cebpf4jnsgd1na2vs0mg"},{"bike_id":"b1e6688e-754f-4e7f-a454-8b6a12b583dd","system_id":"levelo_inurba_marseille","lat":43.26563,"lon":5.40324,"is_reserved":false,"is_disabled":false,"rental_uris":{"android":"levelo://app?vid=b1e6688e-754f-4e7f-a454-8b6a12b583dd","ios":"levelo://app?vid=b1e6688e-754f-4e7f-a454-8b6a12b583dd"},"vehicle_type_id":"4","last_reported":1778480815,"current_range_meters":9600,"station_id":"ce4bhmp2rcd13ifvqgng","pricing_plan_id":"cebpf4jnsgd1na2vs0mg"},{"bike_id":"d870d989-5acd-4ee2-afe8-cbd1fdc8e0d7","system_id":"levelo_inurba_marseille","lat":43.26219,"lon":5.38771,"is_reserved":false,"is_disabled":false,"rental_uris":{"android":"levelo://app?vid=d870d989-5acd-4ee2-afe8-cbd1fdc8e0d7","ios":"levelo://app?vid=d870d989-5acd-4ee2-afe8-cbd1fdc8e0d7"},"vehicle_type_id":"4","last_reported":1778480815,"current_range_meters":9600,"station_id":"","pricing_plan_id":"cebpf4jnsgd1na2vs0mg"},{"bike_id":"4f18cdc6-2754-4e35-b28d-f4a2d6d9cc43","system_id":"levelo_inurba_marseille","lat":43.28483,"lon":5.4839,"is_reserved":false,"is_disabled":false,"rental_uris":{"android":"levelo://app?vid=4f18cdc6-2754-4e35-b28d-f4a2d6d9cc43","ios":"levelo://app?vid=4f18cdc6-2754-4e35-b28d-f4a2d6d9cc43"},"vehicle_type_id":"4","last_reported":1778480815,"current_range_meters":10000,"station_id":"","pricing_plan_id":"cebpf4jnsgd1na2vs0mg"},{"bike_id":"911e9589-3255-44b1-85eb-11666cbfd703","system_id":"levelo_inurba_marseille","lat":43.24069,"lon":5.3776,"is_reserved":false,"is_disabled":false,"rental_uris":{"android":"levelo://app?vid=911e9589-3255-44b1-85eb-11666cbfd703","ios":"levelo://app?vid=911e9589-3255-44b1-85eb-11666cbfd703"},"vehicle_type_id":"4","last_reported":1778480815,"current_range_meters":10000,"station_id":"ce4bhnp2rcd13ifvqgvg","pricing_plan_id":"cebpf4jnsgd1na2vs0mg"},{"bike_id":"0d2d414f-dd84-4626-82be-55bee2d3fb3e","system_id":"levelo_inurba_marseille","lat":43.26244,"lon":5.40453,"is_reserved":false,"is_disabled":false,"rental_uris":{"android":"levelo://app?vid=0d2d414f-dd84-4626-82be-55bee2d3fb3e","ios":"levelo://app?vid=0d2d414f-dd84-4626-82be-55bee2d3fb3e"},"vehicle_type_id":"4","last_reported":1778480815,"current_range_meters":10000,"station_id":"ce4bhmh2rcd13ifvqgmg","pricing_plan_id":"cebpf4jnsgd1na2vs0mg"},{"bike_id":"0e878a8e-436f-4105-ab93-160527ca3db6","system_id":"levelo_inurba_marseille","lat":43.31348,"lon":5.36719,"is_reserved":false,"is_disabled":false,"rental_uris":{"android":"levelo://app?vid=0e878a8e-436f-4105-ab93-160527ca3db6","ios":"levelo://app?vid=0e878a8e-436f-4105-ab93-160527ca3db6"},"vehicle_type_id":"4","last_reported":1778480815,"current_range_meters":10000,"station_id":"ce4bgr92rcd13ifvqc6g","pricing_plan_id":"cebpf4jnsgd1na2vs0mg"},{"bike_id":"e3fc809b-0b7d-4b43-887f-6b7484873c61","system_id":"levelo_inurba_marseille","lat":43.23221,"lon":5.35525,"is_reserved":false,"is_disabled":false,"rental_uris":{"android":"levelo://app?vid=e3fc809b-0b7d-4b43-887f-6b7484873c61","ios":"levelo://app?vid=e3fc809b-0b7d-4b43-887f-6b7484873c61"},"vehicle_type_id":"4","last_reported":1778480815,"current_range_meters":10000,"station_id":"ce4bhu92rcd13ifvqi70","pricing_plan_id":"cebpf4jnsgd1na2vs0mg"},{"bike_id":"d865f9a0-14b6-46bd-bba4-d835d1328292","system_id":"levelo_inurba_marseille","lat":43.31194,"lon":5.38713,"is_reserved":false,"is_disabled":true,"rental_uris":{"android":"levelo://app?vid=d865f9a0-14b6-46bd-bba4-d835d1328292","ios":"levelo://app?vid=d865f9a0-14b6-46bd-bba4-d835d1328292"},"vehicle_type_id":"4","last_reported":1778480815,"current_range_meters":10000,"station_id":"ce4bgv12rcd13ifvqcp0","pricing_plan_id":"cebpf4jnsgd1na2vs0mg"},{"bike_id":"eac60d9d-a01f-43a1-8955-71b0e0b7b660","system_id":"levelo_inurba_marseille","lat":43.28873,"lon":5.39338,"is_reserved":false,"is_disabled":false,"rental_uris":{"android":"levelo://app?vid=eac60d9d-a01f-43a1-8955-71b0e0b7b660","ios":"levelo://app?vid=eac60d9d-a01f-43a1-8955-71b0e0b7b660"},"vehicle_type_id":"4","last_reported":1778480815,"current_range_meters":10000,"station_id":"ce4bh2p2rcd13ifvqdi0","pricing_plan_id":"cebpf4jnsgd1na2vs0mg"},{"bike_id":"6763b0b4-a7d8-410f-aaf8-3fadc4644b7c","system_id":"levelo_inurba_marseille","lat":43.29194,"lon":5.39959,"is_reserved":false,"is_disabled":false,"rental_uris":{"android":"levelo://app?vid=6763b0b4-a7d8-410f-aaf8-3fadc4644b7c","ios":"levelo://app?vid=6763b0b4-a7d8-410f-aaf8-3fadc4644b7c"},"vehicle_type_id":"4","last_reported":1778480815,"current_range_meters":10000,"station_id":"ce4bh312rcd13ifvqdk0","pricing_plan_id":"cebpf4jnsgd1na2vs0mg"},{"bike_id":"be5f4577-3b4a-485a-8c4b-23d34115983e","system_id":"levelo_inurba_marseille","lat":43.31337,"lon":5.36743,"is_reserved":false,"is_disabled":false,"rental_uris":{"android":"levelo://app?vid=be5f4577-3b4a-485a-8c4b-23d34115983e","ios":"levelo://app?vid=be5f4577-3b4a-485a-8c4b-23d34115983e"},"vehicle_type_id":"4","last_reported":1778480815,"current_range_meters":10000,"station_id":"ce4bgr92rcd13ifvqc6g","pricing_plan_id":"cebpf4jnsgd1na2vs0mg"},{"bike_id":"8de3e2aa-00df-4e48-ac24-764efb227e87","system_id":"levelo_inurba_marseille","lat":43.25718,"lon":5.41112,"is_reserved":false,"is_disabled":false,"rental_uris":{"android":"levelo://app?vid=8de3e2aa-00df-4e48-ac24-764efb227e87","ios":"levelo://app?vid=8de3e2aa-00df-4e48-ac24-764efb227e87"},"vehicle_type_id":"4","last_reported":1778480815,"current_range_meters":10000,"station_id":"ce4bhkp2rcd13ifvqgd0","pricing_plan_id":"cebpf4jnsgd1na2vs0mg"},