{"last_updated":1784750700,"ttl":60,"version":"2.2","data":{"bikes":[{"bike_id":"7ef36254-6bb3-448c-8d77-979d957d54b6","system_id":"levelo_inurba_marseille","lat":43.337444,"lon":5.374475,"is_reserved":false,"is_disabled":false,"rental_uris":{"android":"levelo://app?vid=7ef36254-6bb3-448c-8d77-979d957d54b6","ios":"levelo://app?vid=7ef36254-6bb3-448c-8d77-979d957d54b6"},"vehicle_type_id":"4","last_reported":1784750701,"current_range_meters":0,"station_id":"","pricing_plan_id":"cebpf4jnsgd1na2vs0mg"},{"bike_id":"21fe2e98-0432-4b40-a81f-10dd00b0f57d","system_id":"levelo_inurba_marseille","lat":43.337444,"lon":5.374475,"is_reserved":false,"is_disabled":false,"rental_uris":{"android":"levelo://app?vid=21fe2e98-0432-4b40-a81f-10dd00b0f57d","ios":"levelo://app?vid=21fe2e98-0432-4b40-a81f-10dd00b0f57d"},"vehicle_type_id":"4","last_reported":1784750701,"current_range_meters":0,"station_id":"","pricing_plan_id":"cebpf4jnsgd1na2vs0mg"},{"bike_id":"a005102a-45c6-430f-8cd7-a0a69490bbf0","system_id":"levelo_inurba_marseille","lat":43.33528,"lon":5.375,"is_reserved":false,"is_disabled":false,"rental_uris":{"android":"levelo://app?vid=a005102a-45c6-430f-8cd7-a0a69490bbf0","ios":"levelo://app?vid=a005102a-45c6-430f-8cd7-a0a69490bbf0"},"vehicle_type_id":"4","last_reported":1784750701,"current_range_meters":33600,"station_id":"st_d46tts09ee8s73dlu43g","pricing_plan_id":"cebpf4jnsgd1na2vs0mg"},{"bike_id":"f2aeada4-d048-4168-ae8b-a39a1980b9ca","system_id":"levelo_inurba_marseille","lat":43.297095,"lon":5.376951,"is_reserved":false,"is_disabled":false,"rental_uris":{"android":"levelo://app?vid=f2aeada4-d048-4168-ae8b-a39a1980b9ca","ios":"levelo://app?vid=f2aeada4-d048-4168-ae8b-a39a1980b9ca"},"vehicle_type_id":"4","last_reported":1784750701,"current_range_meters":30400,"station_id":"ce4bgkh2rcd13ifvqbl0","pricing_plan_id":"cebpf4jnsgd1na2vs0mg"},{"bike_id":"a664db7f-6820-4a41-b297-acf7f3f36f7d","system_id":"levelo_inurba_marseille","lat":43.30532,"lon":5.36566,"is_reserved":false,"is_disabled":true,"rental_uris":{"android":"levelo://app?vid=a664db7f-6820-4a41-b297-acf7f3f36f7d","ios":"levelo://app?vid=a664db7f-6820-4a41-b297-acf7f3f36f7d"},"vehicle_type_id":"4","last_reported":1784750701,"current_range_meters":0,"station_id":"ce4bgs12rcd13ifvqcag","pricing_plan_id":"cebpf4jnsgd1na2vs0mg"},{"bike_id":"910edd9b-3f88-46ff-af53-0deba1c167b6","system_id":"levelo_inurba_marseille","lat":43.23958,"lon":5.36626,"is_reserved":false,"is_disabled":false,"rental_uris":{"android":"levelo://app?vid=910edd9b-3f88-46ff-af53-0deba1c167b6","ios":"levelo://app?vid=910edd9b-3f88-46ff-af53-0deba1c167b6"},"vehicle_type_id":"4","last_reported":1784750701,"current_range_meters":38400,"station_id":"ce4bhi12rcd13ifvqfp0","pricing_plan_id":"cebpf4jnsgd1na2vs0mg"},{"bike_id":"57ede7ee-94ad-4148-8c65-3cb6b12a5cee","system_id":"levelo_inurba_marseille","lat":43.29692,"lon":5.36628,"is_reserved":false,"is_disabled":false,"rental_uris":{"android":"levelo://app?vid=57ede7ee-94ad-4148-8c65-3cb6b12a5cee","ios":"levelo://app?vid=57ede7ee-94ad-4148-8c65-3cb6b12a5cee"},"vehicle_type_id":"4","last_reported":1784750701,"current_range_meters":22800,"station_id":"ce4bgn12rcd13ifvqbt0","pricing_plan_id":"cebpf4jnsgd1na2vs0mg"},{"bike_id":"eaf6c4bf-604d-4dd8-b4de-52f6da479651","system_id":"levelo_inurba_marseille","lat":43.25094,"lon":5.39545,"is_reserved":false,"is_disabled":false,"rental_uris":{"android":"levelo://app?vid=eaf6c4bf-604d-4dd8-b4de-52f6da479651","ios":"levelo://app?vid=eaf6c4bf-604d-4dd8-b4de-52f6da479651"},"vehicle_type_id":"4","last_reported":1784750701,"current_range_meters":36000,"station_id":"ce4bhm12rcd13ifvqgkg","pricing_plan_id":"cebpf4jnsgd1na2vs0mg"},{"bike_id":"f2c26268-2002-48c9-a2f8-8f76ed8a8540","system_id":"levelo_inurba_marseille","lat":43.23892,"lon":5.37454,"is_reserved":false,"is_disabled":false,"rental_uris":{"android":"levelo://app?vid=f2c26268-2002-48c9-a2f8-8f76ed8a8540","ios":"levelo://app?vid=f2c26268-2002-48c9-a2f8-8f76ed8a8540"},"vehicle_type_id":"4","last_reported":1784750701,"current_range_meters":39200,"station_id":"st_d6sm7csbq4hs73f8fpjg","pricing_plan_id":"cebpf4jnsgd1na2vs0mg"},{"bike_id":"fc079d15-0938-45f7-80b7-6e7d703b61d8","system_id":"levelo_inurba_marseille","lat":43.28412,"lon":5.3752,"is_reserved":false,"is_disabled":false,"rental_uris":{"android":"levelo://app?vid=fc079d15-0938-45f7-80b7-6e7d703b61d8","ios":"levelo://app?vid=fc079d15-0938-45f7-80b7-6e7d703b61d8"},"vehicle_type_id":"4","last_reported":1784750701,"current_range_meters":39200,"station_id":"ce4bh412rcd13ifvqds0","pricing_plan_id":"cebpf4jnsgd1na2vs0mg"},{"bike_id":"72706276-fb69-4388-946e-2b4fb06a5929","system_id":"levelo_inurba_marseille","lat":43.33048,"lon":5.39166,"is_reserved":false,"is_disabled":false,"rental_uris":{"android":"levelo://app?vid=72706276-fb69-4388-946e-2b4fb06a5929","ios":"levelo://app?vid=72706276-fb69-4388-946e-2b4fb06a5929"},"vehicle_type_id":"4","last_reported":1784750701,"current_range_meters":5600,"station_id":"","pricing_plan_id":"cebpf4jnsgd1na2vs0mg"},{"bike_id":"d2d76f64-ed2a-42f7-a991-3f986d128400","system_id":"levelo_inurba_marseille","lat":43.28463,"lon":5.35895,"is_reserved":false,"is_disabled":false,"rental_uris":{"android":"levelo://app?vid=d2d76f64-ed2a-42f7-a991-3f986d128400","ios":"levelo://app?vid=d2d76f64-ed2a-42f7-a991-3f986d128400"},"vehicle_type_id":"4","last_reported":1784750701,"current_range_meters":28800,"station_id":"ce4bhah2rcd13ifvqei0","pricing_plan_id":"cebpf4jnsgd1na2vs0mg"},{"bike_id":"1914db54-2477-43de-b8a3-251c739d9c91","system_id":"levelo_inurba_marseille","lat":43.30796,"lon":5.38162,"is_reserved":false,"is_disabled":false,"rental_uris":{"android":"levelo://app?vid=1914db54-2477-43de-b8a3-251c739d9c91","ios":"levelo://app?vid=1914db54-2477-43de-b8a3-251c739d9c91"},"vehicle_type_id":"4","last_reported":1784750701,"current_range_meters":18800,"station_id":"ce4bgt12rcd13ifvqce0","pricing_plan_id":"cebpf4jnsgd1na2vs0mg"},{"bike_id":"10ad0a9f-3c3b-45c2-8514-d34f29e37fe1","system_id":"levelo_inurba_marseille","lat":43.24392,"lon":5.37048,"is_reserved":false,"is_disabled":false,"rental_uris":{"android":"levelo://app?vid=10ad0a9f-3c3b-45c2-8514-d34f29e37fe1","ios":"levelo://app?vid=10ad0a9f-3c3b-45c2-8514-d34f29e37fe1"},"vehicle_type_id":"4","last_reported":1784750701,"current_range_meters":34000,"station_id":"ce4bhhh2rcd13ifvqfk0","pricing_plan_id":"cebpf4jnsgd1na2vs0mg"},{"bike_id":"88a93748-460a-4bb1-a74c-74d5d0f1b9c3","system_id":"levelo_inurba_marseille","lat":43.29847,"lon":5.36286,"is_reserved":false,"is_disabled":false,"rental_uris":{"android":"levelo://app?vid=88a93748-460a-4bb1-a74c-74d5d0f1b9c3","ios":"levelo://app?vid=88a93748-460a-4bb1-a74c-74d5d0f1b9c3"},"vehicle_type_id":"4","last_reported":1784750701,"current_range_meters":39200,"station_id":"ce4bgpp2rcd13ifvqc3g","pricing_plan_id":"cebpf4jnsgd1na2vs0mg"},{"bike_id":"a278d1de-69f6-4411-9626-a144bc8f62c6","system_id":"levelo_inurba_marseille","lat":43.28402,"lon":5.37527,"is_reserved":false,"is_disabled":false,"rental_uris":{"android":"levelo://app?vid=a278d1de-69f6-4411-9626-a144bc8f62c6","ios":"levelo://app?vid=a278d1de-69f6-4411-9626-a144bc8f62c6"},"vehicle_type_id":"4","last_reported":1784750701,"current_range_meters":32000,"station_id":"ce4bh412rcd13ifvqds0","pricing_plan_id":"cebpf4jnsgd1na2vs0mg"},{"bike_id":"4aa30d2f-d710-4786-a7a6-fdc6e379a564","system_id":"levelo_inurba_marseille","lat":43.24821,"lon":5.37469,"is_reserved":false,"is_disabled":false,"rental_uris":{"android":"levelo://app?vid=4aa30d2f-d710-4786-a7a6-fdc6e379a564","ios":"levelo://app?vid=4aa30d2f-d710-4786-a7a6-fdc6e379a564"},"vehicle_type_id":"4","last_reported":1784750701,"current_range_meters":39200,"station_id":"ce4bhgh2rcd13ifvqfb0","pricing_plan_id":"cebpf4jnsgd1na2vs0mg"},{"bike_id":"3101f7ce-d802-418d-8fba-8e517979d361","system_id":"levelo_inurba_marseille","lat":43.24168,"lon":5.36386,"is_reserved":false,"is_disabled":false,"rental_uris":{"android":"levelo://app?vid=3101f7ce-d802-418d-8fba-8e517979d361","ios":"levelo://app?vid=3101f7ce-d802-418d-8fba-8e517979d361"},"vehicle_type_id":"4","last_reported":1784750701,"current_range_meters":14000,"station_id":"cpo36qri1sfpv3e86is0","pricing_plan_id":"cebpf4jnsgd1na2vs0mg"},{"bike_id":"45c49d7a-ce5a-4cef-92b3-a6a99f7ffcbc","system_id":"levelo_inurba_marseille","lat":43.31764,"lon":5.39011,"is_reserved":false,"is_disabled":false,"rental_uris":{"android":"levelo://app?vid=45c49d7a-ce5a-4cef-92b3-a6a99f7ffcbc","ios":"levelo://app?vid=45c49d7a-ce5a-4cef-92b3-a6a99f7ffcbc"},"vehicle_type_id":"4","last_reported":1784750701,"current_range_meters":39200,"station_id":"ce4bhqp2rcd13ifvqhng","pricing_plan_id":"cebpf4jnsgd1na2vs0mg"},{"bike_id":"ac1b9429-16a9-44aa-9aa0-b9dccf2f29e2","system_id":"levelo_inurba_marseille","lat":43.2893,"lon":5.36636,"is_reserved":false,"is_disabled":false,"rental_uris":{"android":"levelo://app?vid=ac1b9429-16a9-44aa-9aa0-b9dccf2f29e2","ios":"levelo://app?vid=ac1b9429-16a9-44aa-9aa0-b9dccf2f29e2"},"vehicle_type_id":"4","last_reported":1784750701,"current_range_meters":9600,"station_id":"ce4bhap2rcd13ifvqek0","pricing_plan_id":"cebpf4jnsgd1na2vs0mg"},{"bike_id":"0334278a-f526-4865-9991-40008fe349be","system_id":"levelo_inurba_marseille","lat":43.2809,"lon":5.39683,"is_reserved":false,"is_disabled":true,"rental_uris":{"android":"levelo://app?vid=0334278a-f526-4865-9991-40008fe349be","ios":"levelo://app?vid=0334278a-f526-4865-9991-40008fe349be"},"vehicle_type_id":"4","last_reported":1784750701,"current_range_meters":38000,"station_id":"ce4bho12rcd13ifvqh2g","pricing_plan_id":"cebpf4jnsgd1na2vs0mg"},{"bike_id":"7666c1e0-a7c1-44cd-af6b-12dc8537d3c6","system_id":"levelo_inurba_marseille","lat":43.30593,"lon":5.37208,"is_reserved":false,"is_disabled":false,"rental_uris":{"android":"levelo://app?vid=7666c1e0-a7c1-44cd-af6b-12dc8537d3c6","ios":"levelo://app?vid=7666c1e0-a7c1-44cd-af6b-12dc8537d3c6"},"vehicle_type_id":"4","last_reported":1784750701,"current_range_meters":21600,"station_id":"","pricing_plan_id":"cebpf4jnsgd1na2vs0mg"},{"bike_id":"2a9c97b0-cd5c-4441-bc1f-53ee793c08f9","system_id":"levelo_inurba_marseille","lat":43.24802,"lon":5.37437,"is_reserved":false,"is_disabled":false,"rental_uris":{"android":"levelo://app?vid=2a9c97b0-cd5c-4441-bc1f-53ee793c08f9","ios":"levelo://app?vid=2a9c97b0-cd5c-4441-bc1f-53ee793c08f9"},"vehicle_type_id":"4","last_reported":1784750701,"current_range_meters":39200,"station_id":"ce4bhgh2rcd13ifvqfb0","pricing_plan_id":"cebpf4jnsgd1na2vs0mg"},{"bike_id":"7b893c3a-f50d-4ab1-b4e5-684f550fde57","system_id":"levelo_inurba_marseille","lat":43.31476,"lon":5.37326,"is_reserved":false,"is_disabled":true,"rental_uris":{"android":"levelo://app?vid=7b893c3a-f50d-4ab1-b4e5-684f550fde57","ios":"levelo://app?vid=7b893c3a-f50d-4ab1-b4e5-684f550fde57"},"vehicle_type_id":"4","last_reported":1784750701,"current_range_meters":7200,"station_id":"ce4bgt12rcd13ifvqcd0","pricing_plan_id":"cebpf4jnsgd1na2vs0mg"},{"bike_id":"18e1dcfd-328c-49d1-aa7a-bd2ed4b17f5e","system_id":"levelo_inurba_marseille","lat":43.24395,"lon":5.37072,"is_reserved":false,"is_disabled":false,"rental_uris":{"android":"levelo://app?vid=18e1dcfd-328c-49d1-aa7a-bd2ed4b17f5e","ios":"levelo://app?vid=18e1dcfd-328c-49d1-aa7a-bd2ed4b17f5e"},"vehicle_type_id":"4","last_reported":1784750701,"current_range_meters":16400,"station_id":"ce4bhhh2rcd13ifvqfk0","pricing_plan_id":"cebpf4jnsgd1na2vs0mg"},{"bike_id":"1b6631e4-156f-48cb-b746-60b07cd04812","system_id":"levelo_inurba_marseille","lat":43.29002,"lon":5.35623,"is_reserved":false,"is_disabled":false,"rental_uris":{"android":"levelo://app?vid=1b6631e4-156f-48cb-b746-60b07cd04812","ios":"levelo://app?vid=1b6631e4-156f-48cb-b746-60b07cd04812"},"vehicle_type_id":"4","last_reported":1784750701,"current_range_meters":39200,"station_id":"ce4bhb92rcd13ifvqen0","pricing_plan_id":"cebpf4jnsgd1na2vs0mg"},{"bike_id":"51c9d168-94e4-41e0-90a4-bc83f1a86ce9","system_id":"levelo_inurba_marseille","lat":43.27365,"lon":5.36251,"is_reserved":false,"is_disabled":false,"rental_uris":{"android":"levelo://app?vid=51c9d168-94e4-41e0-90a4-bc83f1a86ce9","ios":"levelo://app?vid=51c9d168-94e4-41e0-90a4-bc83f1a86ce9"},"vehicle_type_id":"4","last_reported":1784750701,"current_range_meters":10000,"station_id":"ce4bhbh2rcd13ifvqeo0","pricing_plan_id":"cebpf4jnsgd1na2vs0mg"},{"bike_id":"612ff0dc-8af6-4772-8f28-94b0e73cc139","system_id":"levelo_inurba_marseille","lat":43.27601,"lon":5.36127,"is_reserved":false,"is_disabled":false,"rental_uris":{"android":"levelo://app?vid=612ff0dc-8af6-4772-8f28-94b0e73cc139","ios":"levelo://app?vid=612ff0dc-8af6-4772-8f28-94b0e73cc139"},"vehicle_type_id":"4","last_reported":1784750701,"current_range_meters":39200,"station_id":"ce4bgj92rcd13ifvqbe0","pricing_plan_id":"cebpf4jnsgd1na2vs0mg"},{"bike_id":"88f157b4-5d1a-4fb4-9ec9-eefd21aa816e","system_id":"levelo_inurba_marseille","lat":43.28459,"lon":5.35877,"is_reserved":false,"is_disabled":false,"rental_uris":{"android":"levelo://app?vid=88f157b4-5d1a-4fb4-9ec9-eefd21aa816e","ios":"levelo://app?vid=88f157b4-5d1a-4fb4-9ec9-eefd21aa816e"},"vehicle_type_id":"4","last_reported":1784750701,"current_range_meters":30000,"station_id":"ce4bhah2rcd13ifvqei0","pricing_plan_id":"cebpf4jnsgd1na2vs0mg"},{"bike_id":"bb6740e4-f2f7-43af-b7fb-56cb5beb6d3d","system_id":"levelo_inurba_marseille","lat":43.28362,"lon":5.38628,"is_reserved":false,"is_disabled":false,"rental_uris":{"android":"levelo://app?vid=bb6740e4-f2f7-43af-b7fb-56cb5beb6d3d","ios":"levelo://app?vid=bb6740e4-f2f7-43af-b7fb-56cb5beb6d3d"},"vehicle_type_id":"4","last_reported":1784750701,"current_range_meters":32000,"station_id":"ce4bh492rcd13ifvqdvg","pricing_plan_id":"cebpf4jnsgd1na2vs0mg"},{"bike_id":"78c965f0-3dcc-4c2d-9473-61c3fb2cbec4","system_id":"levelo_inurba_marseille","lat":43.28345,"lon":5.38113,"is_reserved":false,"is_disabled":false,"rental_uris":{"android":"levelo://app?vid=78c965f0-3dcc-4c2d-9473-61c3fb2cbec4","ios":"levelo://app?vid=78c965f0-3dcc-4c2d-9473-61c3fb2cbec4"},"vehicle_type_id":"4","last_reported":1784750701,"current_range_meters":26000,"station_id":"ce4bh412rcd13ifvqdr0","pricing_plan_id":"cebpf4jnsgd1na2vs0mg"},{"bike_id":"9b19b41c-50d2-41da-a57f-3c8307d1a116","system_id":"levelo_inurba_marseille","lat":43.30089,"lon":5.39069,"is_reserved":false,"is_disabled":false,"rental_uris":{"android":"levelo://app?vid=9b19b41c-50d2-41da-a57f-3c8307d1a116","ios":"levelo://app?vid=9b19b41c-50d2-41da-a57f-3c8307d1a116"},"vehicle_type_id":"4","last_reported":1784750701,"current_range_meters":6800,"station_id":"ce4bh192rcd13ifvqdb0","pricing_plan_id":"cebpf4jnsgd1na2vs0mg"},{"bike_id":"48ec8f90-1104-4b2b-a4c3-bec2a8b6fd20","system_id":"levelo_inurba_marseille","lat":43.28483,"lon":5.35913,"is_reserved":false,"is_disabled":false,"rental_uris":{"android":"levelo://app?vid=48ec8f90-1104-4b2b-a4c3-bec2a8b6fd20","ios":"levelo://app?vid=48ec8f90-1104-4b2b-a4c3-bec2a8b6fd20"},"vehicle_type_id":"4","last_reported":1784750701,"current_range_meters":31200,"station_id":"","pricing_plan_id":"cebpf4jnsgd1na2vs0mg"},{"bike_id":"0666263b-4018-4bcf-8b9b-1611b045feb4","system_id":"levelo_inurba_marseille","lat":43.28828,"lon":5.35859,"is_reserved":false,"is_disabled":false,"rental_uris":{"android":"levelo://app?vid=0666263b-4018-4bcf-8b9b-1611b045feb4","ios":"levelo://app?vid=0666263b-4018-4bcf-8b9b-1611b045feb4"},"vehicle_type_id":"4","last_reported":1784750701,"current_range_meters":39200,"station_id":"ce4bhb12rcd13ifvqem0","pricing_plan_id":"cebpf4jnsgd1na2vs0mg"},{"bike_id":"a338cea5-f797-4d31-b718-3121663ee29c","system_id":"levelo_inurba_marseille","lat":43.30392,"lon":5.37913,"is_reserved":false,"is_disabled":false,"rental_uris":{"android":"levelo://app?vid=a338cea5-f797-4d31-b718-3121663ee29c","ios":"levelo://app?vid=a338cea5-f797-4d31-b718-3121663ee29c"},"vehicle_type_id":"4","last_reported":1784750701,"current_range_meters":32800,"station_id":"","pricing_plan_id":"cebpf4jnsgd1na2vs0mg"},{"bike_id":"2d9b4fdc-e240-4c3a-ba91-40ca77d9a762","system_id":"levelo_inurba_marseille","lat":43.28199,"lon":5.34742,"is_reserved":false,"is_disabled":false,"rental_uris":{"android":"levelo://app?vid=2d9b4fdc-e240-4c3a-ba91-40ca77d9a762","ios":"levelo://app?vid=2d9b4fdc-e240-4c3a-ba91-40ca77d9a762"},"vehicle_type_id":"4","last_reported":1784750701,"current_range_meters":35600,"station_id":"","pricing_plan_id":"cebpf4jnsgd1na2vs0mg"},{"bike_id":"28f45640-5226-43a0-81ad-a42c7c9f447e","system_id":"levelo_inurba_marseille","lat":43.28964,"lon":5.37837,"is_reserved":false,"is_disabled":false,"rental_uris":{"android":"levelo://app?vid=28f45640-5226-43a0-81ad-a42c7c9f447e","ios":"levelo://app?vid=28f45640-5226-43a0-81ad-a42c7c9f447e"},"vehicle_type_id":"4","last_reported":1784750701,"current_range_meters":39200,"station_id":"ce4bh9p2rcd13ifvqed0","pricing_plan_id":"cebpf4jnsgd1na2vs0mg"},{"bike_id":"1f1d5c81-a3ea-48d7-b4dd-10c18318316d","system_id":"levelo_inurba_marseille","lat":43.29529,"lon":5.37514,"is_reserved":false,"is_disabled":false,"rental_uris":{"android":"levelo://app?vid=1f1d5c81-a3ea-48d7-b4dd-10c18318316d","ios":"levelo://app?vid=1f1d5c81-a3ea-48d7-b4dd-10c18318316d"},"vehicle_type_id":"4","last_reported":1784750701,"current_range_meters":3600,"station_id":"ce4bgkp2rcd13ifvqbmg","pricing_plan_id":"cebpf4jnsgd1na2vs0mg"},{"bike_id":"a7c9489a-3c37-4218-bc38-92c335aa3a8a","system_id":"levelo_inurba_marseille","lat":43.28479,"lon":5.48387,"is_reserved":false,"is_disabled":false,"rental_uris":{"android":"levelo://app?vid=a7c9489a-3c37-4218-bc38-92c335aa3a8a","ios":"levelo://app?vid=a7c9489a-3c37-4218-bc38-92c335aa3a8a"},"vehicle_type_id":"4","last_reported":1784750701,"current_range_meters":4400,"station_id":"st_d3svhcjqgbts73a3dn0g","pricing_plan_id":"cebpf4jnsgd1na2vs0mg"},{"bike_id":"d809e793-503c-4575-9620-f79ad1294eeb","system_id":"levelo_inurba_marseille","lat":43.29255,"lon":5.38442,"is_reserved":false,"is_disabled":false,"rental_uris":{"android":"levelo://app?vid=d809e793-503c-4575-9620-f79ad1294eeb","ios":"levelo://app?vid=d809e793-503c-4575-9620-f79ad1294eeb"},"vehicle_type_id":"4","last_reported":1784750701,"current_range_meters":36800,"station_id":"ce4bh692rcd13ifvqea0","pricing_plan_id":"cebpf4jnsgd1na2vs0mg"},{"bike_id":"b4a84a03-8380-4ead-838e-21f3cf0d177c","system_id":"levelo_inurba_marseille","lat":43.32294,"lon":5.38299,"is_reserved":false,"is_disabled":false,"rental_uris":{"android":"levelo://app?vid=b4a84a03-8380-4ead-838e-21f3cf0d177c","ios":"levelo://app?vid=b4a84a03-8380-4ead-838e-21f3cf0d177c"},"vehicle_type_id":"4","last_reported":1784750701,"current_range_meters":24400,"station_id":"ce4bhr12rcd13ifvqhqg","pricing_plan_id":"cebpf4jnsgd1na2vs0mg"},{"bike_id":"b8e856c1-a581-416f-b4a7-9d85023fcbcd","system_id":"levelo_inurba_marseille","lat":43.2867,"lon":5.36348,"is_reserved":false,"is_disabled":false,"rental_uris":{"android":"levelo://app?vid=b8e856c1-a581-416f-b4a7-9d85023fcbcd","ios":"levelo://app?vid=b8e856c1-a581-416f-b4a7-9d85023fcbcd"},"vehicle_type_id":"4","last_reported":1784750701,"current_range_meters":9600,"station_id":"ce4bhah2rcd13ifvqej0","pricing_plan_id":"cebpf4jnsgd1na2vs0mg"},{"bike_id":"5aa3ca14-34f8-4cf6-bf98-84664ad40ed9","system_id":"levelo_inurba_marseille","lat":43.32374,"lon":5.38871,"is_reserved":false,"is_disabled":false,"rental_uris":{"android":"levelo://app?vid=5aa3ca14-34f8-4cf6-bf98-84664ad40ed9","ios":"levelo://app?vid=5aa3ca14-34f8-4cf6-bf98-84664ad40ed9"},"vehicle_type_id":"4","last_reported":1784750701,"current_range_meters":36400,"station_id":"ce4bhqp2rcd13ifvqhog","pricing_plan_id":"cebpf4jnsgd1na2vs0mg"},{"bike_id":"20e3174d-30ad-40f9-aaea-253a3b84f4f6","system_id":"levelo_inurba_marseille","lat":43.2618,"lon":5.37531,"is_reserved":false,"is_disabled":true,"rental_uris":{"android":"levelo://app?vid=20e3174d-30ad-40f9-aaea-253a3b84f4f6","ios":"levelo://app?vid=20e3174d-30ad-40f9-aaea-253a3b84f4f6"},"vehicle_type_id":"4","last_reported":1784750701,"current_range_meters":1600,"station_id":"","pricing_plan_id":"cebpf4jnsgd1na2vs0mg"},{"bike_id":"e786ace6-cd2c-4839-9190-57f10affb5c4","system_id":"levelo_inurba_marseille","lat":43.28623,"lon":5.3511,"is_reserved":false,"is_disabled":false,"rental_uris":{"android":"levelo://app?vid=e786ace6-cd2c-4839-9190-57f10affb5c4","ios":"levelo://app?vid=e786ace6-cd2c-4839-9190-57f10affb5c4"},"vehicle_type_id":"4","last_reported":1784750701,"current_range_meters":6800,"station_id":"ce4bhch2rcd13ifvqeug","pricing_plan_id":"cebpf4jnsgd1na2vs0mg"},{"bike_id":"0547f557-b090-4345-9140-124bc0c4fa4e","system_id":"levelo_inurba_marseille","lat":43.33159,"lon":5.37693,"is_reserved":false,"is_disabled":false,"rental_uris":{"android":"levelo://app?vid=0547f557-b090-4345-9140-124bc0c4fa4e","ios":"levelo://app?vid=0547f557-b090-4345-9140-124bc0c4fa4e"},"vehicle_type_id":"4","last_reported":1784750701,"current_range_meters":32400,"station_id":"st_d46cu089ee8s73dldbu0","pricing_plan_id":"cebpf4jnsgd1na2vs0mg"},{"bike_id":"a4e34098-8c0f-4326-9772-a08c7f6b76fa","system_id":"levelo_inurba_marseille","lat":43.27057,"lon":5.42291,"is_reserved":false,"is_disabled":false,"rental_uris":{"android":"levelo://app?vid=a4e34098-8c0f-4326-9772-a08c7f6b76fa","ios":"levelo://app?vid=a4e34098-8c0f-4326-9772-a08c7f6b76fa"},"vehicle_type_id":"4","last_reported":1784750701,"current_range_meters":36400,"station_id":"ce4bhk92rcd13ifvqgb0","pricing_plan_id":"cebpf4jnsgd1na2vs0mg"},{"bike_id":"8b48f329-937d-4f33-bc8e-cc3992c67190","system_id":"levelo_inurba_marseille","lat":43.29614,"lon":5.37178,"is_reserved":false,"is_disabled":true,"rental_uris":{"android":"levelo://app?vid=8b48f329-937d-4f33-bc8e-cc3992c67190","ios":"levelo://app?vid=8b48f329-937d-4f33-bc8e-cc3992c67190"},"vehicle_type_id":"4","last_reported":1784750701,"current_range_meters":34800,"station_id":"","pricing_plan_id":"cebpf4jnsgd1na2vs0mg"},{"bike_id":"262b3eb6-2d30-40b2-9c53-31baed5f9863","system_id":"levelo_inurba_marseille","lat":43.27053,"lon":5.40317,"is_reserved":false,"is_disabled":false,"rental_uris":{"android":"levelo://app?vid=262b3eb6-2d30-40b2-9c53-31baed5f9863","ios":"levelo://app?vid=262b3eb6-2d30-40b2-9c53-31baed5f9863"},"vehicle_type_id":"4","last_reported":1784750701,"current_range_meters":19600,"station_id":"","pricing_plan_id":"cebpf4jnsgd1na2vs0mg"},{"bike_id":"8b562077-0b2d-4ba7-9c42-d2ae7ded6fde","system_id":"levelo_inurba_marseille","lat":43.26479,"lon":5.39548,"is_reserved":false,"is_disabled":false,"rental_uris":{"android":"levelo://app?vid=8b562077-0b2d-4ba7-9c42-d2ae7ded6fde","ios":"levelo://app?vid=8b562077-0b2d-4ba7-9c42-d2ae7ded6fde"},"vehicle_type_id":"4","last_reported":1784750701,"current_range_meters":17200,"station_id":"ce4bhi12rcd13ifvqfq0","pricing_plan_id":"cebpf4jnsgd1na2vs0mg"},{"bike_id":"b4ac26d0-963a-4a25-bf7e-8083e1294ae5","system_id":"levelo_inurba_marseille","lat":43.23958,"lon":5.36626,"is_reserved":false,"is_disabled":false,"rental_uris":{"android":"levelo://app?vid=b4ac26d0-963a-4a25-bf7e-8083e1294ae5","ios":"levelo://app?vid=b4ac26d0-963a-4a25-bf7e-8083e1294ae5"},"vehicle_type_id":"4","last_reported":1784750701,"current_range_meters":31200,"station_id":"ce4bhi12rcd13ifvqfp0","pricing_plan_id":"cebpf4jnsgd1na2vs0mg"},{"bike_id":"06195112-6882-4fb6-b232-8620d1008b12","system_id":"levelo_inurba_marseille","lat":43.29274,"lon":5.36834,"is_reserved":false,"is_disabled":false,"rental_uris":{"android":"levelo://app?vid=06195112-6882-4fb6-b232-8620d1008b12","ios":"levelo://app?vid=06195112-6882-4fb6-b232-8620d1008b12"},"vehicle_type_id":"4","last_reported":1784750701,"current_range_meters":38800,"station_id":"","pricing_plan_id":"cebpf4jnsgd1na2vs0mg"},{"bike_id":"244d3552-7c6e-4506-b3f9-204197c04df7","system_id":"levelo_inurba_marseille","lat":43.23964,"lon":5.36639,"is_reserved":false,"is_disabled":false,"rental_uris":{"android":"levelo://app?vid=244d3552-7c6e-4506-b3f9-204197c04df7","ios":"levelo://app?vid=244d3552-7c6e-4506-b3f9-204197c04df7"},"vehicle_type_id":"4","last_reported":1784750701,"current_range_meters":27600,"station_id":"ce4bhi12rcd13ifvqfp0","pricing_plan_id":"cebpf4jnsgd1na2vs0mg"},{"bike_id":"3a295aff-6816-4af7-ac5a-87a5bd41c1cd","system_id":"levelo_inurba_marseille","lat":43.28473,"lon":5.48397,"is_reserved":false,"is_disabled":false,"rental_uris":{"android":"levelo://app?vid=3a295aff-6816-4af7-ac5a-87a5bd41c1cd","ios":"levelo://app?vid=3a295aff-6816-4af7-ac5a-87a5bd41c1cd"},"vehicle_type_id":"4","last_reported":1784750701,"current_range_meters":26000,"station_id":"st_d3svhcjqgbts73a3dn0g","pricing_plan_id":"cebpf4jnsgd1na2vs0mg"},{"bike_id":"fb8c69a1-2d10-43aa-a11e-fc89ac08b391","system_id":"levelo_inurba_marseille","lat":43.29231,"lon":5.36068,"is_reserved":false,"is_disabled":false,"rental_uris":{"android":"levelo://app?vid=fb8c69a1-2d10-43aa-a11e-fc89ac08b391","ios":"levelo://app?vid=fb8c69a1-2d10-43aa-a11e-fc89ac08b391"},"vehicle_type_id":"4","last_reported":1784750701,"current_range_meters":40000,"station_id":"","pricing_plan_id":"cebpf4jnsgd1na2vs0mg"},{"bike_id":"7b1a34a9-9772-429a-ac81-dbcf3805788e","system_id":"levelo_inurba_marseille","lat":43.27871,"lon":5.35554,"is_reserved":false,"is_disabled":false,"rental_uris":{"android":"levelo://app?vid=7b1a34a9-9772-429a-ac81-dbcf3805788e","ios":"levelo://app?vid=7b1a34a9-9772-429a-ac81-dbcf3805788e"},"vehicle_type_id":"4","last_reported":1784750701,"current_range_meters":16400,"station_id":"","pricing_plan_id":"cebpf4jnsgd1na2vs0mg"},{"bike_id":"aa391704-cb81-469a-8f7c-4fac615a81b3","system_id":"levelo_inurba_marseille","lat":43.2842,"lon":5.37522,"is_reserved":false,"is_disabled":false,"rental_uris":{"android":"levelo://app?vid=aa391704-cb81-469a-8f7c-4fac615a81b3","ios":"levelo://app?vid=aa391704-cb81-469a-8f7c-4fac615a81b3"},"vehicle_type_id":"4","last_reported":1784750701,"current_range_meters":18800,"station_id":"ce4bh412rcd13ifvqds0","pricing_plan_id":"cebpf4jnsgd1na2vs0mg"},{"bike_id":"b3615f38-9ae4-47b3-be0f-27da959fb130","system_id":"levelo_inurba_marseille","lat":43.26566,"lon":5.39649,"is_reserved":false,"is_disabled":false,"rental_uris":{"android":"levelo://app?vid=b3615f38-9ae4-47b3-be0f-27da959fb130","ios":"levelo://app?vid=b3615f38-9ae4-47b3-be0f-27da959fb130"},"vehicle_type_id":"4","last_reported":1784750701,"current_range_meters":13600,"station_id":"","pricing_plan_id":"cebpf4jnsgd1na2vs0mg"},{"bike_id":"60e054f0-dbfa-4ec9-a725-31650d8b160e","system_id":"levelo_inurba_marseille","lat":43.29045,"lon":5.35913,"is_reserved":false,"is_disabled":false,"rental_uris":{"android":"levelo://app?vid=60e054f0-dbfa-4ec9-a725-31650d8b160e","ios":"levelo://app?vid=60e054f0-dbfa-4ec9-a725-31650d8b160e"},"vehicle_type_id":"4","last_reported":1784750701,"current_range_meters":38000,"station_id":"ce4bha92rcd13ifvqeg0","pricing_plan_id":"cebpf4jnsgd1na2vs0mg"},{"bike_id":"8094c541-617a-4d8d-a8a0-d0bafcd084c1","system_id":"levelo_inurba_marseille","lat":43.27809,"lon":5.40691,"is_reserved":false,"is_disabled":false,"rental_uris":{"android":"levelo://app?vid=8094c541-617a-4d8d-a8a0-d0bafcd084c1","ios":"levelo://app?vid=8094c541-617a-4d8d-a8a0-d0bafcd084c1"},"vehicle_type_id":"4","last_reported":1784750701,"current_range_meters":39200,"station_id":"ce4bhnh2rcd13ifvqgtg","pricing_plan_id":"cebpf4jnsgd1na2vs0mg"},{"bike_id":"01d9a676-01f3-4b98-beb9-e0a1a490c722","system_id":"levelo_inurba_marseille","lat":43.28103,"lon":5.42629,"is_reserved":false,"is_disabled":false,"rental_uris":{"android":"levelo://app?vid=01d9a676-01f3-4b98-beb9-e0a1a490c722","ios":"levelo://app?vid=01d9a676-01f3-4b98-beb9-e0a1a490c722"},"vehicle_type_id":"4","last_reported":1784750701,"current_range_meters":28000,"station_id":"","pricing_plan_id":"cebpf4jnsgd1na2vs0mg"},{"bike_id":"f765bc46-853b-4f5f-a0cf-13f9a2c85881","system_id":"levelo_inurba_marseille","lat":43.32111,"lon":5.36773,"is_reserved":false,"is_disabled":false,"rental_uris":{"android":"levelo://app?vid=f765bc46-853b-4f5f-a0cf-13f9a2c85881","ios":"levelo://app?vid=f765bc46-853b-4f5f-a0cf-13f9a2c85881"},"vehicle_type_id":"4","last_reported":1784750701,"current_range_meters":32000,"station_id":"ce4bhrh2rcd13ifvqhug","pricing_plan_id":"cebpf4jnsgd1na2vs0mg"},{"bike_id":"091b09c4-2057-4ee5-baf9-ea2bb0338192","system_id":"levelo_inurba_marseille","lat":43.24798,"lon":5.37441,"is_reserved":false,"is_disabled":false,"rental_uris":{"android":"levelo://app?vid=091b09c4-2057-4ee5-baf9-ea2bb0338192","ios":"levelo://app?vid=091b09c4-2057-4ee5-baf9-ea2bb0338192"},"vehicle_type_id":"4","last_reported":1784750701,"current_range_meters":37600,"station_id":"ce4bhgh2rcd13ifvqfb0","pricing_plan_id":"cebpf4jnsgd1na2vs0mg"},{"bike_id":"c469d1f0-e1f3-4009-933d-1f7d58ff00a5","system_id":"levelo_inurba_marseille","lat":43.25852,"lon":5.399,"is_reserved":false,"is_disabled":false,"rental_uris":{"android":"levelo://app?vid=c469d1f0-e1f3-4009-933d-1f7d58ff00a5","ios":"levelo://app?vid=c469d1f0-e1f3-4009-933d-1f7d58ff00a5"},"vehicle_type_id":"4","last_reported":1784750701,"current_range_meters":25600,"station_id":"","pricing_plan_id":"cebpf4jnsgd1na2vs0mg"},{"bike_id":"cf018048-2387-49ea-bf45-48ad047fb488","system_id":"levelo_inurba_marseille","lat":43.28917,"lon":5.38406,"is_reserved":false,"is_disabled":false,"rental_uris":{"android":"levelo://app?vid=cf018048-2387-49ea-bf45-48ad047fb488","ios":"levelo://app?vid=cf018048-2387-49ea-bf45-48ad047fb488"},"vehicle_type_id":"4","last_reported":1784750701,"current_range_meters":20400,"station_id":"ce4bh612rcd13ifvqe6g","pricing_plan_id":"cebpf4jnsgd1na2vs0mg"},{"bike_id":"a13e16e4-e177-431d-8bef-33b38f696e96","system_id":"levelo_inurba_marseille","lat":43.26759,"lon":5.3998,"is_reserved":false,"is_disabled":false,"rental_uris":{"android":"levelo://app?vid=a13e16e4-e177-431d-8bef-33b38f696e96","ios":"levelo://app?vid=a13e16e4-e177-431d-8bef-33b38f696e96"},"vehicle_type_id":"4","last_reported":1784750701,"current_range_meters":24400,"station_id":"","pricing_plan_id":"cebpf4jnsgd1na2vs0mg"},{"bike_id":"2d7109ad-46e8-47c3-91fe-8fafb72b67c5","system_id":"levelo_inurba_marseille","lat":43.31891,"lon":5.36819,"is_reserved":false,"is_disabled":false,"rental_uris":{"android":"levelo://app?vid=2d7109ad-46e8-47c3-91fe-8fafb72b67c5","ios":"levelo://app?vid=2d7109ad-46e8-47c3-91fe-8fafb72b67c5"},"vehicle_type_id":"4","last_reported":1784750701,"current_range_meters":6800,"station_id":"st_d6o2h0d0559c73evc1b0","pricing_plan_id":"cebpf4jnsgd1na2vs0mg"},{"bike_id":"3281dc6c-da59-4ffa-a4e6-15741ec6bf20","system_id":"levelo_inurba_marseille","lat":43.27812,"lon":5.40719,"is_reserved":false,"is_disabled":false,"rental_uris":{"android":"levelo://app?vid=3281dc6c-da59-4ffa-a4e6-15741ec6bf20","ios":"levelo://app?vid=3281dc6c-da59-4ffa-a4e6-15741ec6bf20"},"vehicle_type_id":"4","last_reported":1784750701,"current_range_meters":26800,"station_id":"ce4bhnh2rcd13ifvqgtg","pricing_plan_id":"cebpf4jnsgd1na2vs0mg"},{"bike_id":"de84f93e-2efe-44dd-902e-99315be80f66","system_id":"levelo_inurba_marseille","lat":43.24159,"lon":5.36358,"is_reserved":false,"is_disabled":false,"rental_uris":{"android":"levelo://app?vid=de84f93e-2efe-44dd-902e-99315be80f66","ios":"levelo://app?vid=de84f93e-2efe-44dd-902e-99315be80f66"},"vehicle_type_id":"4","last_reported":1784750701,"current_range_meters":35600,"station_id":"cpo36qri1sfpv3e86is0","pricing_plan_id":"cebpf4jnsgd1na2vs0mg"},{"bike_id":"ea142b19-b865-4c2f-822b-85c0e34bd442","system_id":"levelo_inurba_marseille","lat":43.29264,"lon":5.38493,"is_reserved":false,"is_disabled":false,"rental_uris":{"android":"levelo://app?vid=ea142b19-b865-4c2f-822b-85c0e34bd442","ios":"levelo://app?vid=ea142b19-b865-4c2f-822b-85c0e34bd442"},"vehicle_type_id":"4","last_reported":1784750701,"current_range_meters":22800,"station_id":"","pricing_plan_id":"cebpf4jnsgd1na2vs0mg"},{"bike_id":"d9ff262c-d011-4fca-95f5-e88b971173f4","system_id":"levelo_inurba_marseille","lat":43.30151,"lon":5.38778,"is_reserved":false,"is_disabled":false,"rental_uris":{"android":"levelo://app?vid=d9ff262c-d011-4fca-95f5-e88b971173f4","ios":"levelo://app?vid=d9ff262c-d011-4fca-95f5-e88b971173f4"},"vehicle_type_id":"4","last_reported":1784750701,"current_range_meters":17600,"station_id":"ce4bghh2rcd13ifvqb60","pricing_plan_id":"cebpf4jnsgd1na2vs0mg"},{"bike_id":"6f30f7ac-da72-4d29-9288-d6b4b3da7411","system_id":"levelo_inurba_marseille","lat":43.24392,"lon":5.37073,"is_reserved":false,"is_disabled":false,"rental_uris":{"android":"levelo://app?vid=6f30f7ac-da72-4d29-9288-d6b4b3da7411","ios":"levelo://app?vid=6f30f7ac-da72-4d29-9288-d6b4b3da7411"},"vehicle_type_id":"4","last_reported":1784750701,"current_range_meters":25600,"station_id":"ce4bhhh2rcd13ifvqfk0","pricing_plan_id":"cebpf4jnsgd1na2vs0mg"},{"bike_id":"d6e30c27-1641-4cb1-98ef-611871bdd179","system_id":"levelo_inurba_marseille","lat":43.29521,"lon":5.39041,"is_reserved":false,"is_disabled":false,"rental_uris":{"android":"levelo://app?vid=d6e30c27-1641-4cb1-98ef-611871bdd179","ios":"levelo://app?vid=d6e30c27-1641-4cb1-98ef-611871bdd179"},"vehicle_type_id":"4","last_reported":1784750701,"current_range_meters":7200,"station_id":"ce4bh3p2rcd13ifvqdp0","pricing_plan_id":"cebpf4jnsgd1na2vs0mg"},{"bike_id":"ae53a257-4982-4644-ab84-9e51870acb5e","system_id":"levelo_inurba_marseille","lat":43.25501,"lon":5.37661,"is_reserved":false,"is_disabled":false,"rental_uris":{"android":"levelo://app?vid=ae53a257-4982-4644-ab84-9e51870acb5e","ios":"levelo://app?vid=ae53a257-4982-4644-ab84-9e51870acb5e"},"vehicle_type_id":"4","last_reported":1784750701,"current_range_meters":13600,"station_id":"ce4bhh12rcd13ifvqff0","pricing_plan_id":"cebpf4jnsgd1na2vs0mg"},{"bike_id":"06a47a70-c4aa-4b09-8775-c059e958d2f4","system_id":"levelo_inurba_marseille","lat":43.28406,"lon":5.37519,"is_reserved":false,"is_disabled":false,"rental_uris":{"android":"levelo://app?vid=06a47a70-c4aa-4b09-8775-c059e958d2f4","ios":"levelo://app?vid=06a47a70-c4aa-4b09-8775-c059e958d2f4"},"vehicle_type_id":"4","last_reported":1784750701,"current_range_meters":24800,"station_id":"ce4bh412rcd13ifvqds0","pricing_plan_id":"cebpf4jnsgd1na2vs0mg"},{"bike_id":"2b538a36-7ac6-45f4-8b03-72a300e78d65","system_id":"levelo_inurba_marseille","lat":43.2551,"lon":5.37653,"is_reserved":false,"is_disabled":false,"rental_uris":{"android":"levelo://app?vid=2b538a36-7ac6-45f4-8b03-72a300e78d65","ios":"levelo://app?vid=2b538a36-7ac6-45f4-8b03-72a300e78d65"},"vehicle_type_id":"4","last_reported":1784750701,"current_range_meters":16000,"station_id":"ce4bhh12rcd13ifvqff0","pricing_plan_id":"cebpf4jnsgd1na2vs0mg"},{"bike_id":"b482fb71-725b-4a83-9429-cde57d2db1db","system_id":"levelo_inurba_marseille","lat":43.29681,"lon":5.37741,"is_reserved":false,"is_disabled":false,"rental_uris":{"android":"levelo://app?vid=b482fb71-725b-4a83-9429-cde57d2db1db","ios":"levelo://app?vid=b482fb71-725b-4a83-9429-cde57d2db1db"},"vehicle_type_id":"4","last_reported":1784750701,"current_range_meters":22000,"station_id":"","pricing_plan_id":"cebpf4jnsgd1na2vs0mg"},{"bike_id":"db926255-9b62-4416-86ad-31d0fd2b185c","system_id":"levelo_inurba_marseille","lat":43.30593,"lon":5.39357,"is_reserved":false,"is_disabled":false,"rental_uris":{"android":"levelo://app?vid=db926255-9b62-4416-86ad-31d0fd2b185c","ios":"levelo://app?vid=db926255-9b62-4416-86ad-31d0fd2b185c"},"vehicle_type_id":"4","last_reported":1784750701,"current_range_meters":22400,"station_id":"ce4bh0p2rcd13ifvqd80","pricing_plan_id":"cebpf4jnsgd1na2vs0mg"},{"bike_id":"1ffd6e8d-c4af-44c4-b5ee-8153d663260f","system_id":"levelo_inurba_marseille","lat":43.29192,"lon":5.3934,"is_reserved":false,"is_disabled":true,"rental_uris":{"android":"levelo://app?vid=1ffd6e8d-c4af-44c4-b5ee-8153d663260f","ios":"levelo://app?vid=1ffd6e8d-c4af-44c4-b5ee-8153d663260f"},"vehicle_type_id":"4","last_reported":1784750701,"current_range_meters":22400,"station_id":"ce4bh192rcd13ifvqdd0","pricing_plan_id":"cebpf4jnsgd1na2vs0mg"},{"bike_id":"65b58bcf-4346-49dc-8a22-60f4aed99d77","system_id":"levelo_inurba_marseille","lat":43.24168,"lon":5.36409,"is_reserved":false,"is_disabled":false,"rental_uris":{"android":"levelo://app?vid=65b58bcf-4346-49dc-8a22-60f4aed99d77","ios":"levelo://app?vid=65b58bcf-4346-49dc-8a22-60f4aed99d77"},"vehicle_type_id":"4","last_reported":1784750701,"current_range_meters":8000,"station_id":"cpo36qri1sfpv3e86is0","pricing_plan_id":"cebpf4jnsgd1na2vs0mg"},{"bike_id":"bbca161b-6509-4632-8a00-35e03d0e51f1","system_id":"levelo_inurba_marseille","lat":43.29901,"lon":5.38141,"is_reserved":false,"is_disabled":false,"rental_uris":{"android":"levelo://app?vid=bbca161b-6509-4632-8a00-35e03d0e51f1","ios":"levelo://app?vid=bbca161b-6509-4632-8a00-35e03d0e51f1"},"vehicle_type_id":"4","last_reported":1784750701,"current_range_meters":4000,"station_id":"ce4bgj12rcd13ifvqbc0","pricing_plan_id":"cebpf4jnsgd1na2vs0mg"},{"bike_id":"856c1d79-33bf-4dc6-a3ad-e8a03c6a267d","system_id":"levelo_inurba_marseille","lat":43.2902,"lon":5.37536,"is_reserved":false,"is_disabled":true,"rental_uris":{"android":"levelo://app?vid=856c1d79-33bf-4dc6-a3ad-e8a03c6a267d","ios":"levelo://app?vid=856c1d79-33bf-4dc6-a3ad-e8a03c6a267d"},"vehicle_type_id":"4","last_reported":1784750701,"current_range_meters":33200,"station_id":"ce4bh692rcd13ifvqe90","pricing_plan_id":"cebpf4jnsgd1na2vs0mg"},{"bike_id":"516809fd-57ac-4047-a9eb-53f833b12f7d","system_id":"levelo_inurba_marseille","lat":43.28616,"lon":5.35124,"is_reserved":false,"is_disabled":false,"rental_uris":{"android":"levelo://app?vid=516809fd-57ac-4047-a9eb-53f833b12f7d","ios":"levelo://app?vid=516809fd-57ac-4047-a9eb-53f833b12f7d"},"vehicle_type_id":"4","last_reported":1784750701,"current_range_meters":39200,"station_id":"ce4bhch2rcd13ifvqeug","pricing_plan_id":"cebpf4jnsgd1na2vs0mg"},{"bike_id":"2bbb3aeb-b508-42f7-910e-0c84ff3ada82","system_id":"levelo_inurba_marseille","lat":43.31203,"lon":5.39002,"is_reserved":false,"is_disabled":false,"rental_uris":{"android":"levelo://app?vid=2bbb3aeb-b508-42f7-910e-0c84ff3ada82","ios":"levelo://app?vid=2bbb3aeb-b508-42f7-910e-0c84ff3ada82"},"vehicle_type_id":"4","last_reported":1784750701,"current_range_meters":12000,"station_id":"","pricing_plan_id":"cebpf4jnsgd1na2vs0mg"},{"bike_id":"f9dec18f-7a25-4414-8cb6-57f511e96bcc","system_id":"levelo_inurba_marseille","lat":43.29585,"lon":5.37711,"is_reserved":false,"is_disabled":false,"rental_uris":{"android":"levelo://app?vid=f9dec18f-7a25-4414-8cb6-57f511e96bcc","ios":"levelo://app?vid=f9dec18f-7a25-4414-8cb6-57f511e96bcc"},"vehicle_type_id":"4","last_reported":1784750701,"current_range_meters":23200,"station_id":"ce4bgi92rcd13ifvqb90","pricing_plan_id":"cebpf4jnsgd1na2vs0mg"},{"bike_id":"f1288106-a8c3-4624-ad2a-44299213b3e2","system_id":"levelo_inurba_marseille","lat":43.29593,"lon":5.36762,"is_reserved":false,"is_disabled":true,"rental_uris":{"android":"levelo://app?vid=f1288106-a8c3-4624-ad2a-44299213b3e2","ios":"levelo://app?vid=f1288106-a8c3-4624-ad2a-44299213b3e2"},"vehicle_type_id":"4","last_reported":1784750701,"current_range_meters":2800,"station_id":"","pricing_plan_id":"cebpf4jnsgd1na2vs0mg"},{"bike_id":"0b6c16d4-519b-43a7-aaff-bef940bcdb32","system_id":"levelo_inurba_marseille","lat":43.27375,"lon":5.36266,"is_reserved":false,"is_disabled":false,"rental_uris":{"android":"levelo://app?vid=0b6c16d4-519b-43a7-aaff-bef940bcdb32","ios":"levelo://app?vid=0b6c16d4-519b-43a7-aaff-bef940bcdb32"},"vehicle_type_id":"4","last_reported":1784750701,"current_range_meters":24000,"station_id":"ce4bhbh2rcd13ifvqeo0","pricing_plan_id":"cebpf4jnsgd1na2vs0mg"},{"bike_id":"ab907c16-2123-44c2-912f-95e0f2737c03","system_id":"levelo_inurba_marseille","lat":43.30392,"lon":5.42721,"is_reserved":false,"is_disabled":true,"rental_uris":{"android":"levelo://app?vid=ab907c16-2123-44c2-912f-95e0f2737c03","ios":"levelo://app?vid=ab907c16-2123-44c2-912f-95e0f2737c03"},"vehicle_type_id":"4","last_reported":1784750701,"current_range_meters":22800,"station_id":"","pricing_plan_id":"cebpf4jnsgd1na2vs0mg"},{"bike_id":"7ea947c2-6348-4b4e-960a-27b32eb29d3b","system_id":"levelo_inurba_marseille","lat":43.27994,"lon":5.38696,"is_reserved":false,"is_disabled":false,"rental_uris":{"android":"levelo://app?vid=7ea947c2-6348-4b4e-960a-27b32eb29d3b","ios":"levelo://app?vid=7ea947c2-6348-4b4e-960a-27b32eb29d3b"},"vehicle_type_id":"4","last_reported":1784750701,"current_range_meters":18800,"station_id":"ce4bhg12rcd13ifvqf80","pricing_plan_id":"cebpf4jnsgd1na2vs0mg"},{"bike_id":"1fb2f5a3-8d7e-4823-bf6a-5fef2cc785f8","system_id":"levelo_inurba_marseille","lat":43.31754,"lon":5.39015,"is_reserved":false,"is_disabled":false,"rental_uris":{"android":"levelo://app?vid=1fb2f5a3-8d7e-4823-bf6a-5fef2cc785f8","ios":"levelo://app?vid=1fb2f5a3-8d7e-4823-bf6a-5fef2cc785f8"},"vehicle_type_id":"4","last_reported":1784750701,"current_range_meters":28000,"station_id":"ce4bhqp2rcd13ifvqhng","pricing_plan_id":"cebpf4jnsgd1na2vs0mg"},{"bike_id":"e2487522-4a71-4f0e-93e8-8dac9d9f776e","system_id":"levelo_inurba_marseille","lat":43.28403,"lon":5.35006,"is_reserved":false,"is_disabled":false,"rental_uris":{"android":"levelo://app?vid=e2487522-4a71-4f0e-93e8-8dac9d9f776e","ios":"levelo://app?vid=e2487522-4a71-4f0e-93e8-8dac9d9f776e"},"vehicle_type_id":"4","last_reported":1784750701,"current_range_meters":39200,"station_id":"ce4bhbh2rcd13ifvqepg","pricing_plan_id":"cebpf4jnsgd1na2vs0mg"},{"bike_id":"5a26a324-7be6-4998-86e5-eebbf8b2c06f","system_id":"levelo_inurba_marseille","lat":43.25315,"lon":5.40882,"is_reserved":false,"is_disabled":false,"rental_uris":{"android":"levelo://app?vid=5a26a324-7be6-4998-86e5-eebbf8b2c06f","ios":"levelo://app?vid=5a26a324-7be6-4998-86e5-eebbf8b2c06f"},"vehicle_type_id":"4","last_reported":1784750701,"current_range_meters":25200,"station_id":"","pricing_plan_id":"cebpf4jnsgd1na2vs0mg"},{"bike_id":"c520161e-c250-4161-a55a-6b287776d8da","system_id":"levelo_inurba_marseille","lat":43.28484,"lon":5.48407,"is_reserved":false,"is_disabled":false,"rental_uris":{"android":"levelo://app?vid=c520161e-c250-4161-a55a-6b287776d8da","ios":"levelo://app?vid=c520161e-c250-4161-a55a-6b287776d8da"},"vehicle_type_id":"4","last_reported":1784750701,"current_range_meters":27200,"station_id":"st_d3svhcjqgbts73a3dn0g","pricing_plan_id":"cebpf4jnsgd1na2vs0mg"},{"bike_id":"1be16c68-4af1-419d-93d4-773b2af07f2a","system_id":"levelo_inurba_marseille","lat":43.28537,"lon":5.44113,"is_reserved":false,"is_disabled":false,"rental_uris":{"android":"levelo://app?vid=1be16c68-4af1-419d-93d4-773b2af07f2a","ios":"levelo://app?vid=1be16c68-4af1-419d-93d4-773b2af07f2a"},"vehicle_type_id":"4","last_reported":1784750701,"current_range_meters":36000,"station_id":"st_d3j3df2ikq2c7380ej80","pricing_plan_id":"cebpf4jnsgd1na2vs0mg"},{"bike_id":"d5878d1e-782c-4c26-aa75-af712dc5a0dd","system_id":"levelo_inurba_marseille","lat":43.24807,"lon":5.37483,"is_reserved":false,"is_disabled":false,"rental_uris":{"android":"levelo://app?vid=d5878d1e-782c-4c26-aa75-af712dc5a0dd","ios":"levelo://app?vid=d5878d1e-782c-4c26-aa75-af712dc5a0dd"},"vehicle_type_id":"4","last_reported":1784750701,"current_range_meters":24800,"station_id":"ce4bhgh2rcd13ifvqfb0","pricing_plan_id":"cebpf4jnsgd1na2vs0mg"},{"bike_id":"a7151629-d081-4309-9186-ca8e267e62be","system_id":"levelo_inurba_marseille","lat":43.29611,"lon":5.37757,"is_reserved":false,"is_disabled":false,"rental_uris":{"android":"levelo://app?vid=a7151629-d081-4309-9186-ca8e267e62be","ios":"levelo://app?vid=a7151629-d081-4309-9186-ca8e267e62be"},"vehicle_type_id":"4","last_reported":1784750701,"current_range_meters":31200,"station_id":"ce4bgi92rcd13ifvqb90","pricing_plan_id":"cebpf4jnsgd1na2vs0mg"},{"bike_id":"bcff951d-caed-459b-a39c-aa83c0bed002","system_id":"levelo_inurba_marseille","lat":43.31487,"lon":5.37308,"is_reserved":false,"is_disabled":false,"rental_uris":{"android":"levelo://app?vid=bcff951d-caed-459b-a39c-aa83c0bed002","ios":"levelo://app?vid=bcff951d-caed-459b-a39c-aa83c0bed002"},"vehicle_type_id":"4","last_reported":1784750701,"current_range_meters":39200,"station_id":"ce4bgt12rcd13ifvqcd0","pricing_plan_id":"cebpf4jnsgd1na2vs0mg"},{"bike_id":"3e5c595e-c544-44df-85ba-a5e45fc118b6","system_id":"levelo_inurba_marseille","lat":43.29834,"lon":5.36271,"is_reserved":false,"is_disabled":false,"rental_uris":{"android":"levelo://app?vid=3e5c595e-c544-44df-85ba-a5e45fc118b6","ios":"levelo://app?vid=3e5c595e-c544-44df-85ba-a5e45fc118b6"},"vehicle_type_id":"4","last_reported":1784750701,"current_range_meters":28000,"station_id":"ce4bgpp2rcd13ifvqc3g","pricing_plan_id":"cebpf4jnsgd1na2vs0mg"},{"bike_id":"9c49127c-d038-47c3-9f8c-69e8bb7469b0","system_id":"levelo_inurba_marseille","lat":43.29024,"lon":5.38652,"is_reserved":false,"is_disabled":false,"rental_uris":{"android":"levelo://app?vid=9c49127c-d038-47c3-9f8c-69e8bb7469b0","ios":"levelo://app?vid=9c49127c-d038-47c3-9f8c-69e8bb7469b0"},"vehicle_type_id":"4","last_reported":1784750701,"current_range_meters":18000,"station_id":"ce4bh4p2rcd13ifvqe0g","pricing_plan_id":"cebpf4jnsgd1na2vs0mg"},{"bike_id":"08d8455b-4dd9-4252-9fd2-534179cbd1ea","system_id":"levelo_inurba_marseille","lat":43.274217,"lon":5.394219,"is_reserved":false,"is_disabled":false,"rental_uris":{"android":"levelo://app?vid=08d8455b-4dd9-4252-9fd2-534179cbd1ea","ios":"levelo://app?vid=08d8455b-4dd9-4252-9fd2-534179cbd1ea"},"vehicle_type_id":"4","last_reported":1784750701,"current_range_meters":39200,"station_id":"ce4bhdp2rcd13ifvqf20","pricing_plan_id":"cebpf4jnsgd1na2vs0mg"},{"bike_id":"dbba06b0-854f-46f5-8ab0-ed4f23d95a6c","system_id":"levelo_inurba_marseille","lat":43.29566,"lon":5.38896,"is_reserved":false,"is_disabled":false,"rental_uris":{"android":"levelo://app?vid=dbba06b0-854f-46f5-8ab0-ed4f23d95a6c","ios":"levelo://app?vid=dbba06b0-854f-46f5-8ab0-ed4f23d95a6c"},"vehicle_type_id":"4","last_reported":1784750701,"current_range_meters":8400,"station_id":"","pricing_plan_id":"cebpf4jnsgd1na2vs0mg"},{"bike_id":"3a34f52e-1e5b-45cf-b1c8-7a76d3f0220c","system_id":"levelo_inurba_marseille","lat":43.29232,"lon":5.4175,"is_reserved":false,"is_disabled":false,"rental_uris":{"android":"levelo://app?vid=3a34f52e-1e5b-45cf-b1c8-7a76d3f0220c","ios":"levelo://app?vid=3a34f52e-1e5b-45cf-b1c8-7a76d3f0220c"},"vehicle_type_id":"4","last_reported":1784750701,"current_range_meters":30400,"station_id":"","pricing_plan_id":"cebpf4jnsgd1na2vs0mg"},{"bike_id":"deab0385-0efa-4bfa-9d6c-fc9e57b19cd0","system_id":"levelo_inurba_marseille","lat":43.30035,"lon":5.3697,"is_reserved":false,"is_disabled":true,"rental_uris":{"android":"levelo://app?vid=deab0385-0efa-4bfa-9d6c-fc9e57b19cd0","ios":"levelo://app?vid=deab0385-0efa-4bfa-9d6c-fc9e57b19cd0"},"vehicle_type_id":"4","last_reported":1784750701,"current_range_meters":400,"station_id":"","pricing_plan_id":"cebpf4jnsgd1na2vs0mg"},{"bike_id":"0353fca3-fbdd-4286-a9eb-ebce376c25fa","system_id":"levelo_inurba_marseille","lat":43.2338,"lon":5.41244,"is_reserved":false,"is_disabled":false,"rental_uris":{"android":"levelo://app?vid=0353fca3-fbdd-4286-a9eb-ebce376c25fa","ios":"levelo://app?vid=0353fca3-fbdd-4286-a9eb-ebce376c25fa"},"vehicle_type_id":"4","last_reported":1784750701,"current_range_meters":33200,"station_id":"st_d75pvndhf9lc73cqq3eg","pricing_plan_id":"cebpf4jnsgd1na2vs0mg"},{"bike_id":"b8e43a89-3bb1-4279-9cee-f7b093c9b703","system_id":"levelo_inurba_marseille","lat":43.33718,"lon":5.37415,"is_reserved":false,"is_disabled":false,"rental_uris":{"android":"levelo://app?vid=b8e43a89-3bb1-4279-9cee-f7b093c9b703","ios":"levelo://app?vid=b8e43a89-3bb1-4279-9cee-f7b093c9b703"},"vehicle_type_id":"4","last_reported":1784750701,"current_range_meters":13600,"station_id":"","pricing_plan_id":"cebpf4jnsgd1na2vs0mg"},{"bike_id":"6089a052-6506-42fb-a165-8497c450b60b","system_id":"levelo_inurba_marseille","lat":43.29718,"lon":5.3663,"is_reserved":false,"is_disabled":false,"rental_uris":{"android":"levelo://app?vid=6089a052-6506-42fb-a165-8497c450b60b","ios":"levelo://app?vid=6089a052-6506-42fb-a165-8497c450b60b"},"vehicle_type_id":"4","last_reported":1784750701,"current_range_meters":8400,"station_id":"ce4bgn12rcd13ifvqbt0","pricing_plan_id":"cebpf4jnsgd1na2vs0mg"},{"bike_id":"17ec69e9-f82e-42b7-8fd3-de92d2bea59d","system_id":"levelo_inurba_marseille","lat":43.25334,"lon":5.42157,"is_reserved":false,"is_disabled":false,"rental_uris":{"android":"levelo://app?vid=17ec69e9-f82e-42b7-8fd3-de92d2bea59d","ios":"levelo://app?vid=17ec69e9-f82e-42b7-8fd3-de92d2bea59d"},"vehicle_type_id":"4","last_reported":1784750701,"current_range_meters":22800,"station_id":"st_d2m65c5bi1j21697t3ng","pricing_plan_id":"cebpf4jnsgd1na2vs0mg"},{"bike_id":"5783761d-f3a8-46b4-8c26-9812d8d66703","system_id":"levelo_inurba_marseille","lat":43.22542,"lon":5.34828,"is_reserved":false,"is_disabled":false,"rental_uris":{"android":"levelo://app?vid=5783761d-f3a8-46b4-8c26-9812d8d66703","ios":"levelo://app?vid=5783761d-f3a8-46b4-8c26-9812d8d66703"},"vehicle_type_id":"4","last_reported":1784750701,"current_range_meters":22000,"station_id":"st_cvj5dfep6f1abm77gieg","pricing_plan_id":"cebpf4jnsgd1na2vs0mg"},{"bike_id":"13bbfe3b-874b-44d7-9abb-922c8de23c11","system_id":"levelo_inurba_marseille","lat":43.23264,"lon":5.35403,"is_reserved":false,"is_disabled":false,"rental_uris":{"android":"levelo://app?vid=13bbfe3b-874b-44d7-9abb-922c8de23c11","ios":"levelo://app?vid=13bbfe3b-874b-44d7-9abb-922c8de23c11"},"vehicle_type_id":"4","last_reported":1784750701,"current_range_meters":20800,"station_id":"","pricing_plan_id":"cebpf4jnsgd1na2vs0mg"},{"bike_id":"d7f5e790-34f0-4ef1-94d0-50b661d4939b","system_id":"levelo_inurba_marseille","lat":43.27379,"lon":5.36257,"is_reserved":false,"is_disabled":false,"rental_uris":{"android":"levelo://app?vid=d7f5e790-34f0-4ef1-94d0-50b661d4939b","ios":"levelo://app?vid=d7f5e790-34f0-4ef1-94d0-50b661d4939b"},"vehicle_type_id":"4","last_reported":1784750701,"current_range_meters":8800,"station_id":"ce4bhbh2rcd13ifvqeo0","pricing_plan_id":"cebpf4jnsgd1na2vs0mg"},{"bike_id":"8630ffbe-f147-430f-a60a-a08ef949f3c1","system_id":"levelo_inurba_marseille","lat":43.28671,"lon":5.38676,"is_reserved":false,"is_disabled":true,"rental_uris":{"android":"levelo://app?vid=8630ffbe-f147-430f-a60a-a08ef949f3c1","ios":"levelo://app?vid=8630ffbe-f147-430f-a60a-a08ef949f3c1"},"vehicle_type_id":"4","last_reported":1784750701,"current_range_meters":0,"station_id":"ce4bh492rcd13ifvqdug","pricing_plan_id":"cebpf4jnsgd1na2vs0mg"},{"bike_id":"6f3889ac-1afa-4fe6-8848-f0752dbe7d77","system_id":"levelo_inurba_marseille","lat":43.26558,"lon":5.39047,"is_reserved":false,"is_disabled":false,"rental_uris":{"android":"levelo://app?vid=6f3889ac-1afa-4fe6-8848-f0752dbe7d77","ios":"levelo://app?vid=6f3889ac-1afa-4fe6-8848-f0752dbe7d77"},"vehicle_type_id":"4","last_reported":1784750701,"current_range_meters":8400,"station_id":"ce4bhe12rcd13ifvqf30","pricing_plan_id":"cebpf4jnsgd1na2vs0mg"},{"bike_id":"6ed5f8c3-6da8-4cec-bfad-13253a432d70","system_id":"levelo_inurba_marseille","lat":43.29396,"lon":5.38594,"is_reserved":false,"is_disabled":true,"rental_uris":{"android":"levelo://app?vid=6ed5f8c3-6da8-4cec-bfad-13253a432d70","ios":"levelo://app?vid=6ed5f8c3-6da8-4cec-bfad-13253a432d70"},"vehicle_type_id":"4","last_reported":1784750701,"current_range_meters":31200,"station_id":"","pricing_plan_id":"cebpf4jnsgd1na2vs0mg"},{"bike_id":"2abfcdfb-2eb0-4480-932d-1071dc8638d6","system_id":"levelo_inurba_marseille","lat":43.33528,"lon":5.37461,"is_reserved":false,"is_disabled":false,"rental_uris":{"android":"levelo://app?vid=2abfcdfb-2eb0-4480-932d-1071dc8638d6","ios":"levelo://app?vid=2abfcdfb-2eb0-4480-932d-1071dc8638d6"},"vehicle_type_id":"4","last_reported":1784750701,"current_range_meters":39200,"station_id":"st_d46tts09ee8s73dlu43g","pricing_plan_id":"cebpf4jnsgd1na2vs0mg"},{"bike_id":"0dee0085-d5a5-4c48-b3f1-a323bb744f3d","system_id":"levelo_inurba_marseille","lat":43.22555,"lon":5.41611,"is_reserved":false,"is_disabled":false,"rental_uris":{"android":"levelo://app?vid=0dee0085-d5a5-4c48-b3f1-a323bb744f3d","ios":"levelo://app?vid=0dee0085-d5a5-4c48-b3f1-a323bb744f3d"},"vehicle_type_id":"4","last_reported":1784750701,"current_range_meters":30400,"station_id":"st_d2o4gvlbi1j2169b742g","pricing_plan_id":"cebpf4jnsgd1na2vs0mg"},{"bike_id":"589bc921-31be-458b-a0b7-d712c5f2b103","system_id":"levelo_inurba_marseille","lat":43.27166,"lon":5.40991,"is_reserved":false,"is_disabled":false,"rental_uris":{"android":"levelo://app?vid=589bc921-31be-458b-a0b7-d712c5f2b103","ios":"levelo://app?vid=589bc921-31be-458b-a0b7-d712c5f2b103"},"vehicle_type_id":"4","last_reported":1784750701,"current_range_meters":3600,"station_id":"ce4bhl12rcd13ifvqgf0","pricing_plan_id":"cebpf4jnsgd1na2vs0mg"},{"bike_id":"109f7b78-db75-44b6-bad8-d0e646e20a64","system_id":"levelo_inurba_marseille","lat":43.28996,"lon":5.35598,"is_reserved":false,"is_disabled":false,"rental_uris":{"android":"levelo://app?vid=109f7b78-db75-44b6-bad8-d0e646e20a64","ios":"levelo://app?vid=109f7b78-db75-44b6-bad8-d0e646e20a64"},"vehicle_type_id":"4","last_reported":1784750701,"current_range_meters":20400,"station_id":"ce4bhb92rcd13ifvqen0","pricing_plan_id":"cebpf4jnsgd1na2vs0mg"},{"bike_id":"0b2c45f2-fdaa-45fe-9511-e6426cab85f6","system_id":"levelo_inurba_marseille","lat":43.27488,"lon":5.42444,"is_reserved":false,"is_disabled":false,"rental_uris":{"android":"levelo://app?vid=0b2c45f2-fdaa-45fe-9511-e6426cab85f6","ios":"levelo://app?vid=0b2c45f2-fdaa-45fe-9511-e6426cab85f6"},"vehicle_type_id":"4","last_reported":1784750701,"current_range_meters":18000,"station_id":"ce4bhn92rcd13ifvqgrg","pricing_plan_id":"cebpf4jnsgd1na2vs0mg"},{"bike_id":"ec5b93ba-ec96-40fc-8bfd-b17e77283d5c","system_id":"levelo_inurba_marseille","lat":43.29619,"lon":5.37157,"is_reserved":false,"is_disabled":false,"rental_uris":{"android":"levelo://app?vid=ec5b93ba-ec96-40fc-8bfd-b17e77283d5c","ios":"levelo://app?vid=ec5b93ba-ec96-40fc-8bfd-b17e77283d5c"},"vehicle_type_id":"4","last_reported":1784750701,"current_range_meters":39200,"station_id":"","pricing_plan_id":"cebpf4jnsgd1na2vs0mg"},{"bike_id":"0a04c1b9-3a2a-4aae-8584-9ab3c78e579b","system_id":"levelo_inurba_marseille","lat":43.25505,"lon":5.37653,"is_reserved":false,"is_disabled":false,"rental_uris":{"android":"levelo://app?vid=0a04c1b9-3a2a-4aae-8584-9ab3c78e579b","ios":"levelo://app?vid=0a04c1b9-3a2a-4aae-8584-9ab3c78e579b"},"vehicle_type_id":"4","last_reported":1784750701,"current_range_meters":8800,"station_id":"ce4bhh12rcd13ifvqff0","pricing_plan_id":"cebpf4jnsgd1na2vs0mg"},{"bike_id":"dad5eff3-cb3a-4459-ba39-741abe4a6c6c","system_id":"levelo_inurba_marseille","lat":43.3209,"lon":5.36781,"is_reserved":false,"is_disabled":false,"rental_uris":{"android":"levelo://app?vid=dad5eff3-cb3a-4459-ba39-741abe4a6c6c","ios":"levelo://app?vid=dad5eff3-cb3a-4459-ba39-741abe4a6c6c"},"vehicle_type_id":"4","last_reported":1784750701,"current_range_meters":7200,"station_id":"ce4bhrh2rcd13ifvqhug","pricing_plan_id":"cebpf4jnsgd1na2vs0mg"},{"bike_id":"8db15661-0fa1-40eb-9cbb-a8ce581022b7","system_id":"levelo_inurba_marseille","lat":43.29082,"lon":5.36736,"is_reserved":false,"is_disabled":false,"rental_uris":{"android":"levelo://app?vid=8db15661-0fa1-40eb-9cbb-a8ce581022b7","ios":"levelo://app?vid=8db15661-0fa1-40eb-9cbb-a8ce581022b7"},"vehicle_type_id":"4","last_reported":1784750701,"current_range_meters":5600,"station_id":"","pricing_plan_id":"cebpf4jnsgd1na2vs0mg"},{"bike_id":"31cbfea7-7c32-443e-8db5-dee6edc8c821","system_id":"levelo_inurba_marseille","lat":43.26113,"lon":5.37511,"is_reserved":false,"is_disabled":false,"rental_uris":{"android":"levelo://app?vid=31cbfea7-7c32-443e-8db5-dee6edc8c821","ios":"levelo://app?vid=31cbfea7-7c32-443e-8db5-dee6edc8c821"},"vehicle_type_id":"4","last_reported":1784750701,"current_range_meters":39200,"station_id":"","pricing_plan_id":"cebpf4jnsgd1na2vs0mg"},{"bike_id":"430c2cf1-b239-4165-a49c-25a0dd75c22a","system_id":"levelo_inurba_marseille","lat":43.2481,"lon":5.37484,"is_reserved":false,"is_disabled":false,"rental_uris":{"android":"levelo://app?vid=430c2cf1-b239-4165-a49c-25a0dd75c22a","ios":"levelo://app?vid=430c2cf1-b239-4165-a49c-25a0dd75c22a"},"vehicle_type_id":"4","last_reported":1784750701,"current_range_meters":25200,"station_id":"ce4bhgh2rcd13ifvqfb0","pricing_plan_id":"cebpf4jnsgd1na2vs0mg"},{"bike_id":"8d8673aa-a69c-4d74-931d-06b8f35221f4","system_id":"levelo_inurba_marseille","lat":43.26693,"lon":5.41994,"is_reserved":false,"is_disabled":false,"rental_uris":{"android":"levelo://app?vid=8d8673aa-a69c-4d74-931d-06b8f35221f4","ios":"levelo://app?vid=8d8673aa-a69c-4d74-931d-06b8f35221f4"},"vehicle_type_id":"4","last_reported":1784750701,"current_range_meters":25600,"station_id":"","pricing_plan_id":"cebpf4jnsgd1na2vs0mg"},{"bike_id":"8c024520-5ef9-4a9c-a20e-91073dc95666","system_id":"levelo_inurba_marseille","lat":43.299828,"lon":5.371924,"is_reserved":false,"is_disabled":false,"rental_uris":{"android":"levelo://app?vid=8c024520-5ef9-4a9c-a20e-91073dc95666","ios":"levelo://app?vid=8c024520-5ef9-4a9c-a20e-91073dc95666"},"vehicle_type_id":"4","last_reported":1784750701,"current_range_meters":35200,"station_id":"ce4bh4p2rcd13ifvqe1g","pricing_plan_id":"cebpf4jnsgd1na2vs0mg"},{"bike_id":"bb6c1d94-b8a1-4d7e-8e26-2628675f7e1d","system_id":"levelo_inurba_marseille","lat":43.29613,"lon":5.3769,"is_reserved":false,"is_disabled":true,"rental_uris":{"android":"levelo://app?vid=bb6c1d94-b8a1-4d7e-8e26-2628675f7e1d","ios":"levelo://app?vid=bb6c1d94-b8a1-4d7e-8e26-2628675f7e1d"},"vehicle_type_id":"4","last_reported":1784750701,"current_range_meters":20000,"station_id":"ce4bgi92rcd13ifvqb90","pricing_plan_id":"cebpf4jnsgd1na2vs0mg"},{"bike_id":"b4d7c551-5126-4abd-9ca5-5b3e2ee7483d","system_id":"levelo_inurba_marseille","lat":43.27372,"lon":5.36251,"is_reserved":false,"is_disabled":false,"rental_uris":{"android":"levelo://app?vid=b4d7c551-5126-4abd-9ca5-5b3e2ee7483d","ios":"levelo://app?vid=b4d7c551-5126-4abd-9ca5-5b3e2ee7483d"},"vehicle_type_id":"4","last_reported":1784750701,"current_range_meters":4800,"station_id":"ce4bhbh2rcd13ifvqeo0","pricing_plan_id":"cebpf4jnsgd1na2vs0mg"},{"bike_id":"f3a62d13-e812-4968-b0ad-51c39d7d70a9","system_id":"levelo_inurba_marseille","lat":43.27617,"lon":5.36151,"is_reserved":false,"is_disabled":true,"rental_uris":{"android":"levelo://app?vid=f3a62d13-e812-4968-b0ad-51c39d7d70a9","ios":"levelo://app?vid=f3a62d13-e812-4968-b0ad-51c39d7d70a9"},"vehicle_type_id":"4","last_reported":1784750701,"current_range_meters":33200,"station_id":"ce4bgj92rcd13ifvqbe0","pricing_plan_id":"cebpf4jnsgd1na2vs0mg"},{"bike_id":"b32dafbf-a5c0-4300-a4a5-c49326436b4f","system_id":"levelo_inurba_marseille","lat":43.27257,"lon":5.39076,"is_reserved":false,"is_disabled":false,"rental_uris":{"android":"levelo://app?vid=b32dafbf-a5c0-4300-a4a5-c49326436b4f","ios":"levelo://app?vid=b32dafbf-a5c0-4300-a4a5-c49326436b4f"},"vehicle_type_id":"4","last_reported":1784750701,"current_range_meters":27200,"station_id":"","pricing_plan_id":"cebpf4jnsgd1na2vs0mg"},{"bike_id":"1fade11d-8e73-4748-8586-d9741ca55ced","system_id":"levelo_inurba_marseille","lat":43.317152,"lon":5.437034,"is_reserved":false,"is_disabled":false,"rental_uris":{"android":"levelo://app?vid=1fade11d-8e73-4748-8586-d9741ca55ced","ios":"levelo://app?vid=1fade11d-8e73-4748-8586-d9741ca55ced"},"vehicle_type_id":"4","last_reported":1784750701,"current_range_meters":30000,"station_id":"ce4bhp92rcd13ifvqhcg","pricing_plan_id":"cebpf4jnsgd1na2vs0mg"},{"bike_id":"497a8556-8998-42a8-8074-2a7d464db040","system_id":"levelo_inurba_marseille","lat":43.27893,"lon":5.38008,"is_reserved":false,"is_disabled":false,"rental_uris":{"android":"levelo://app?vid=497a8556-8998-42a8-8074-2a7d464db040","ios":"levelo://app?vid=497a8556-8998-42a8-8074-2a7d464db040"},"vehicle_type_id":"4","last_reported":1784750701,"current_range_meters":7200,"station_id":"ce4bhf92rcd13ifvqf50","pricing_plan_id":"cebpf4jnsgd1na2vs0mg"},{"bike_id":"8184ec40-d063-4ef5-b68d-99d09fd0ba05","system_id":"levelo_inurba_marseille","lat":43.29788,"lon":5.38104,"is_reserved":false,"is_disabled":false,"rental_uris":{"android":"levelo://app?vid=8184ec40-d063-4ef5-b68d-99d09fd0ba05","ios":"levelo://app?vid=8184ec40-d063-4ef5-b68d-99d09fd0ba05"},"vehicle_type_id":"4","last_reported":1784750701,"current_range_meters":3200,"station_id":"ce4bgip2rcd13ifvqbb0","pricing_plan_id":"cebpf4jnsgd1na2vs0mg"},{"bike_id":"9ebb7ae0-141a-43ea-a5bc-61b70816efce","system_id":"levelo_inurba_marseille","lat":43.260309,"lon":5.375524,"is_reserved":false,"is_disabled":false,"rental_uris":{"android":"levelo://app?vid=9ebb7ae0-141a-43ea-a5bc-61b70816efce","ios":"levelo://app?vid=9ebb7ae0-141a-43ea-a5bc-61b70816efce"},"vehicle_type_id":"4","last_reported":1784750701,"current_range_meters":38400,"station_id":"","pricing_plan_id":"cebpf4jnsgd1na2vs0mg"},{"bike_id":"75146afd-6944-4808-9153-760cee29f303","system_id":"levelo_inurba_marseille","lat":43.24646,"lon":5.37856,"is_reserved":false,"is_disabled":false,"rental_uris":{"android":"levelo://app?vid=75146afd-6944-4808-9153-760cee29f303","ios":"levelo://app?vid=75146afd-6944-4808-9153-760cee29f303"},"vehicle_type_id":"4","last_reported":1784750701,"current_range_meters":24400,"station_id":"","pricing_plan_id":"cebpf4jnsgd1na2vs0mg"},{"bike_id":"fa1ebf0e-0294-458b-9d53-54151cd2a3b5","system_id":"levelo_inurba_marseille","lat":43.29591,"lon":5.38125,"is_reserved":false,"is_disabled":false,"rental_uris":{"android":"levelo://app?vid=fa1ebf0e-0294-458b-9d53-54151cd2a3b5","ios":"levelo://app?vid=fa1ebf0e-0294-458b-9d53-54151cd2a3b5"},"vehicle_type_id":"4","last_reported":1784750701,"current_range_meters":24400,"station_id":"ce4bgl12rcd13ifvqbo0","pricing_plan_id":"cebpf4jnsgd1na2vs0mg"},{"bike_id":"36f797d9-5b95-4843-b50e-7f80ed979ebf","system_id":"levelo_inurba_marseille","lat":43.25596,"lon":5.38264,"is_reserved":false,"is_disabled":false,"rental_uris":{"android":"levelo://app?vid=36f797d9-5b95-4843-b50e-7f80ed979ebf","ios":"levelo://app?vid=36f797d9-5b95-4843-b50e-7f80ed979ebf"},"vehicle_type_id":"4","last_reported":1784750701,"current_range_meters":25200,"station_id":"ce4bhih2rcd13ifvqfs0","pricing_plan_id":"cebpf4jnsgd1na2vs0mg"},{"bike_id":"a31cea0c-4cff-4f6d-8f93-36842670158b","system_id":"levelo_inurba_marseille","lat":43.2967,"lon":5.36588,"is_reserved":false,"is_disabled":true,"rental_uris":{"android":"levelo://app?vid=a31cea0c-4cff-4f6d-8f93-36842670158b","ios":"levelo://app?vid=a31cea0c-4cff-4f6d-8f93-36842670158b"},"vehicle_type_id":"4","last_reported":1784750701,"current_range_meters":39200,"station_id":"ce4bgn12rcd13ifvqbt0","pricing_plan_id":"cebpf4jnsgd1na2vs0mg"},{"bike_id":"b7134367-3557-4eab-a227-0e1e5ee488c0","system_id":"levelo_inurba_marseille","lat":43.30889,"lon":5.37181,"is_reserved":false,"is_disabled":false,"rental_uris":{"android":"levelo://app?vid=b7134367-3557-4eab-a227-0e1e5ee488c0","ios":"levelo://app?vid=b7134367-3557-4eab-a227-0e1e5ee488c0"},"vehicle_type_id":"4","last_reported":1784750701,"current_range_meters":28000,"station_id":"ce4bguh2rcd13ifvqckg","pricing_plan_id":"cebpf4jnsgd1na2vs0mg"},{"bike_id":"452ac296-b654-4152-89ca-c3c2d6dfb656","system_id":"levelo_inurba_marseille","lat":43.27043,"lon":5.38299,"is_reserved":false,"is_disabled":false,"rental_uris":{"android":"levelo://app?vid=452ac296-b654-4152-89ca-c3c2d6dfb656","ios":"levelo://app?vid=452ac296-b654-4152-89ca-c3c2d6dfb656"},"vehicle_type_id":"4","last_reported":1784750701,"current_range_meters":24400,"station_id":"st_d3n2fo6cfp8s73cte1j0","pricing_plan_id":"cebpf4jnsgd1na2vs0mg"},{"bike_id":"3dcd452f-570f-43d5-97a7-8ea89caf620e","system_id":"levelo_inurba_marseille","lat":43.248,"lon":5.37484,"is_reserved":false,"is_disabled":false,"rental_uris":{"android":"levelo://app?vid=3dcd452f-570f-43d5-97a7-8ea89caf620e","ios":"levelo://app?vid=3dcd452f-570f-43d5-97a7-8ea89caf620e"},"vehicle_type_id":"4","last_reported":1784750701,"current_range_meters":36000,"station_id":"ce4bhgh2rcd13ifvqfb0","pricing_plan_id":"cebpf4jnsgd1na2vs0mg"},{"bike_id":"2e293fdb-8217-4401-8c14-289ceb1671c5","system_id":"levelo_inurba_marseille","lat":43.291886,"lon":5.358025,"is_reserved":false,"is_disabled":false,"rental_uris":{"android":"levelo://app?vid=2e293fdb-8217-4401-8c14-289ceb1671c5","ios":"levelo://app?vid=2e293fdb-8217-4401-8c14-289ceb1671c5"},"vehicle_type_id":"4","last_reported":1784750701,"current_range_meters":38400,"station_id":"ce4bhb12rcd13ifvqel0","pricing_plan_id":"cebpf4jnsgd1na2vs0mg"},{"bike_id":"b6e149ac-230a-48ff-a674-48ad8c1be1cf","system_id":"levelo_inurba_marseille","lat":43.31356,"lon":5.38524,"is_reserved":false,"is_disabled":true,"rental_uris":{"android":"levelo://app?vid=b6e149ac-230a-48ff-a674-48ad8c1be1cf","ios":"levelo://app?vid=b6e149ac-230a-48ff-a674-48ad8c1be1cf"},"vehicle_type_id":"4","last_reported":1784750701,"current_range_meters":34000,"station_id":"ce4bgt92rcd13ifvqcf0","pricing_plan_id":"cebpf4jnsgd1na2vs0mg"},{"bike_id":"425cee52-7ff4-408d-b63f-f1bb20a33257","system_id":"levelo_inurba_marseille","lat":43.27489,"lon":5.42561,"is_reserved":false,"is_disabled":false,"rental_uris":{"android":"levelo://app?vid=425cee52-7ff4-408d-b63f-f1bb20a33257","ios":"levelo://app?vid=425cee52-7ff4-408d-b63f-f1bb20a33257"},"vehicle_type_id":"4","last_reported":1784750701,"current_range_meters":36800,"station_id":"st_d8t4bh7nbrqs73arha60","pricing_plan_id":"cebpf4jnsgd1na2vs0mg"},{"bike_id":"acb6c310-64e8-4ffb-9d0e-3645b38213aa","system_id":"levelo_inurba_marseille","lat":43.22564,"lon":5.41631,"is_reserved":false,"is_disabled":false,"rental_uris":{"android":"levelo://app?vid=acb6c310-64e8-4ffb-9d0e-3645b38213aa","ios":"levelo://app?vid=acb6c310-64e8-4ffb-9d0e-3645b38213aa"},"vehicle_type_id":"4","last_reported":1784750701,"current_range_meters":8000,"station_id":"st_d2o4gvlbi1j2169b742g","pricing_plan_id":"cebpf4jnsgd1na2vs0mg"},{"bike_id":"8c2840c7-fcd6-4382-8d94-c99243e15e3f","system_id":"levelo_inurba_marseille","lat":43.30077,"lon":5.36702,"is_reserved":false,"is_disabled":false,"rental_uris":{"android":"levelo://app?vid=8c2840c7-fcd6-4382-8d94-c99243e15e3f","ios":"levelo://app?vid=8c2840c7-fcd6-4382-8d94-c99243e15e3f"},"vehicle_type_id":"4","last_reported":1784750701,"current_range_meters":26000,"station_id":"","pricing_plan_id":"cebpf4jnsgd1na2vs0mg"},{"bike_id":"2b2d5806-a98a-4b6d-8666-219c96826a65","system_id":"levelo_inurba_marseille","lat":43.33004,"lon":5.39094,"is_reserved":false,"is_disabled":false,"rental_uris":{"android":"levelo://app?vid=2b2d5806-a98a-4b6d-8666-219c96826a65","ios":"levelo://app?vid=2b2d5806-a98a-4b6d-8666-219c96826a65"},"vehicle_type_id":"4","last_reported":1784750701,"current_range_meters":8400,"station_id":"","pricing_plan_id":"cebpf4jnsgd1na2vs0mg"},{"bike_id":"9d4b8430-c687-4ce9-b117-2b375d0afc9f","system_id":"levelo_inurba_marseille","lat":43.24183,"lon":5.36448,"is_reserved":false,"is_disabled":true,"rental_uris":{"android":"levelo://app?vid=9d4b8430-c687-4ce9-b117-2b375d0afc9f","ios":"levelo://app?vid=9d4b8430-c687-4ce9-b117-2b375d0afc9f"},"vehicle_type_id":"4","last_reported":1784750701,"current_range_meters":34000,"station_id":"cpo36qri1sfpv3e86is0","pricing_plan_id":"cebpf4jnsgd1na2vs0mg"},{"bike_id":"a027fa9e-63d1-4854-8ba1-fe67160a5134","system_id":"levelo_inurba_marseille","lat":43.28838,"lon":5.3585,"is_reserved":false,"is_disabled":false,"rental_uris":{"android":"levelo://app?vid=a027fa9e-63d1-4854-8ba1-fe67160a5134","ios":"levelo://app?vid=a027fa9e-63d1-4854-8ba1-fe67160a5134"},"vehicle_type_id":"4","last_reported":1784750701,"current_range_meters":20800,"station_id":"","pricing_plan_id":"cebpf4jnsgd1na2vs0mg"},{"bike_id":"8e661f57-eae5-43a0-9064-850e77532136","system_id":"levelo_inurba_marseille","lat":43.2938,"lon":5.37838,"is_reserved":false,"is_disabled":true,"rental_uris":{"android":"levelo://app?vid=8e661f57-eae5-43a0-9064-850e77532136","ios":"levelo://app?vid=8e661f57-eae5-43a0-9064-850e77532136"},"vehicle_type_id":"4","last_reported":1784750701,"current_range_meters":27200,"station_id":"ce4bgjh2rcd13ifvqbf0","pricing_plan_id":"cebpf4jnsgd1na2vs0mg"},{"bike_id":"01a3dff7-c1ae-4ca7-b80c-0d8c580e9598","system_id":"levelo_inurba_marseille","lat":43.30642,"lon":5.4008,"is_reserved":false,"is_disabled":false,"rental_uris":{"android":"levelo://app?vid=01a3dff7-c1ae-4ca7-b80c-0d8c580e9598","ios":"levelo://app?vid=01a3dff7-c1ae-4ca7-b80c-0d8c580e9598"},"vehicle_type_id":"4","last_reported":1784750701,"current_range_meters":38800,"station_id":"ce4bh112rcd13ifvqda0","pricing_plan_id":"cebpf4jnsgd1na2vs0mg"},{"bike_id":"a83f6dd4-a966-4c48-9c5e-40cd101889e5","system_id":"levelo_inurba_marseille","lat":43.28657,"lon":5.3636,"is_reserved":false,"is_disabled":true,"rental_uris":{"android":"levelo://app?vid=a83f6dd4-a966-4c48-9c5e-40cd101889e5","ios":"levelo://app?vid=a83f6dd4-a966-4c48-9c5e-40cd101889e5"},"vehicle_type_id":"4","last_reported":1784750701,"current_range_meters":27600,"station_id":"ce4bhah2rcd13ifvqej0","pricing_plan_id":"cebpf4jnsgd1na2vs0mg"},{"bike_id":"429123e4-dc43-429b-abc2-42a83c22e46e","system_id":"levelo_inurba_marseille","lat":43.23207,"lon":5.35555,"is_reserved":false,"is_disabled":false,"rental_uris":{"android":"levelo://app?vid=429123e4-dc43-429b-abc2-42a83c22e46e","ios":"levelo://app?vid=429123e4-dc43-429b-abc2-42a83c22e46e"},"vehicle_type_id":"4","last_reported":1784750701,"current_range_meters":28400,"station_id":"ce4bhu92rcd13ifvqi70","pricing_plan_id":"cebpf4jnsgd1na2vs0mg"},{"bike_id":"d4176fdd-97a2-4c8b-af24-a5d62c1ee6a5","system_id":"levelo_inurba_marseille","lat":43.28684,"lon":5.38653,"is_reserved":false,"is_disabled":true,"rental_uris":{"android":"levelo://app?vid=d4176fdd-97a2-4c8b-af24-a5d62c1ee6a5","ios":"levelo://app?vid=d4176fdd-97a2-4c8b-af24-a5d62c1ee6a5"},"vehicle_type_id":"4","last_reported":1784750701,"current_range_meters":30400,"station_id":"ce4bh492rcd13ifvqdug","pricing_plan_id":"cebpf4jnsgd1na2vs0mg"},{"bike_id":"b0d8a8c5-addb-4f2c-9bd4-bfa8885a4cd6","system_id":"levelo_inurba_marseille","lat":43.29622,"lon":5.37154,"is_reserved":false,"is_disabled":false,"rental_uris":{"android":"levelo://app?vid=b0d8a8c5-addb-4f2c-9bd4-bfa8885a4cd6","ios":"levelo://app?vid=b0d8a8c5-addb-4f2c-9bd4-bfa8885a4cd6"},"vehicle_type_id":"4","last_reported":1784750701,"current_range_meters":22000,"station_id":"","pricing_plan_id":"cebpf4jnsgd1na2vs0mg"},{"bike_id":"bace381c-6258-4d80-80f1-070c343af026","system_id":"levelo_inurba_marseille","lat":43.33159,"lon":5.37687,"is_reserved":false,"is_disabled":false,"rental_uris":{"android":"levelo://app?vid=bace381c-6258-4d80-80f1-070c343af026","ios":"levelo://app?vid=bace381c-6258-4d80-80f1-070c343af026"},"vehicle_type_id":"4","last_reported":1784750701,"current_range_meters":8800,"station_id":"st_d46cu089ee8s73dldbu0","pricing_plan_id":"cebpf4jnsgd1na2vs0mg"},{"bike_id":"484e47bb-c244-4caf-825b-8db5ca56ab5f","system_id":"levelo_inurba_marseille","lat":43.24384,"lon":5.37067,"is_reserved":false,"is_disabled":false,"rental_uris":{"android":"levelo://app?vid=484e47bb-c244-4caf-825b-8db5ca56ab5f","ios":"levelo://app?vid=484e47bb-c244-4caf-825b-8db5ca56ab5f"},"vehicle_type_id":"4","last_reported":1784750701,"current_range_meters":37600,"station_id":"ce4bhhh2rcd13ifvqfk0","pricing_plan_id":"cebpf4jnsgd1na2vs0mg"},{"bike_id":"96b5c5f9-2213-4d50-a768-81194203f08d","system_id":"levelo_inurba_marseille","lat":43.337444,"lon":5.374475,"is_reserved":false,"is_disabled":false,"rental_uris":{"android":"levelo://app?vid=96b5c5f9-2213-4d50-a768-81194203f08d","ios":"levelo://app?vid=96b5c5f9-2213-4d50-a768-81194203f08d"},"vehicle_type_id":"4","last_reported":1784750701,"current_range_meters":28000,"station_id":"","pricing_plan_id":"cebpf4jnsgd1na2vs0mg"},{"bike_id":"ddf41a10-2178-4557-8834-ca27c6a60907","system_id":"levelo_inurba_marseille","lat":43.24173,"lon":5.36379,"is_reserved":false,"is_disabled":false,"rental_uris":{"android":"levelo://app?vid=ddf41a10-2178-4557-8834-ca27c6a60907","ios":"levelo://app?vid=ddf41a10-2178-4557-8834-ca27c6a60907"},"vehicle_type_id":"4","last_reported":1784750701,"current_range_meters":39200,"station_id":"cpo36qri1sfpv3e86is0","pricing_plan_id":"cebpf4jnsgd1na2vs0mg"},{"bike_id":"e9e543b0-8ca5-47a6-998c-4902ea53cdd4","system_id":"levelo_inurba_marseille","lat":43.25177,"lon":5.37349,"is_reserved":false,"is_disabled":true,"rental_uris":{"android":"levelo://app?vid=e9e543b0-8ca5-47a6-998c-4902ea53cdd4","ios":"levelo://app?vid=e9e543b0-8ca5-47a6-998c-4902ea53cdd4"},"vehicle_type_id":"4","last_reported":1784750701,"current_range_meters":10800,"station_id":"","pricing_plan_id":"cebpf4jnsgd1na2vs0mg"},{"bike_id":"7b994b50-d1d9-4795-96d3-24bdfc1e5a92","system_id":"levelo_inurba_marseille","lat":43.231574,"lon":5.437026,"is_reserved":false,"is_disabled":false,"rental_uris":{"android":"levelo://app?vid=7b994b50-d1d9-4795-96d3-24bdfc1e5a92","ios":"levelo://app?vid=7b994b50-d1d9-4795-96d3-24bdfc1e5a92"},"vehicle_type_id":"4","last_reported":1784750701,"current_range_meters":20400,"station_id":"","pricing_plan_id":"cebpf4jnsgd1na2vs0mg"},{"bike_id":"3ca835a2-f6fd-48f7-b2d8-9c4bf8c198f9","system_id":"levelo_inurba_marseille","lat":43.2749,"lon":5.41579,"is_reserved":false,"is_disabled":false,"rental_uris":{"android":"levelo://app?vid=3ca835a2-f6fd-48f7-b2d8-9c4bf8c198f9","ios":"levelo://app?vid=3ca835a2-f6fd-48f7-b2d8-9c4bf8c198f9"},"vehicle_type_id":"4","last_reported":1784750701,"current_range_meters":38800,"station_id":"st_d6im8g6chgec73a5pndg","pricing_plan_id":"cebpf4jnsgd1na2vs0mg"},{"bike_id":"deda2dfe-7d09-414c-a275-1d824ec3f2c1","system_id":"levelo_inurba_marseille","lat":43.279983,"lon":5.400053,"is_reserved":false,"is_disabled":false,"rental_uris":{"android":"levelo://app?vid=deda2dfe-7d09-414c-a275-1d824ec3f2c1","ios":"levelo://app?vid=deda2dfe-7d09-414c-a275-1d824ec3f2c1"},"vehicle_type_id":"4","last_reported":1784750701,"current_range_meters":20000,"station_id":"ce4bho92rcd13ifvqh4g","pricing_plan_id":"cebpf4jnsgd1na2vs0mg"},{"bike_id":"0a2a9cec-7ac9-45d2-a3df-11ec4681fd29","system_id":"levelo_inurba_marseille","lat":43.24801,"lon":5.37467,"is_reserved":false,"is_disabled":false,"rental_uris":{"android":"levelo://app?vid=0a2a9cec-7ac9-45d2-a3df-11ec4681fd29","ios":"levelo://app?vid=0a2a9cec-7ac9-45d2-a3df-11ec4681fd29"},"vehicle_type_id":"4","last_reported":1784750701,"current_range_meters":39200,"station_id":"ce4bhgh2rcd13ifvqfb0","pricing_plan_id":"cebpf4jnsgd1na2vs0mg"},{"bike_id":"8f31f3af-0aa6-4421-8e2c-a77a880bef79","system_id":"levelo_inurba_marseille","lat":43.273726,"lon":5.398294,"is_reserved":false,"is_disabled":true,"rental_uris":{"android":"levelo://app?vid=8f31f3af-0aa6-4421-8e2c-a77a880bef79","ios":"levelo://app?vid=8f31f3af-0aa6-4421-8e2c-a77a880bef79"},"vehicle_type_id":"4","last_reported":1784750701,"current_range_meters":6000,"station_id":"","pricing_plan_id":"cebpf4jnsgd1na2vs0mg"},{"bike_id":"e4407750-3e8e-44b0-93f3-932334cfc172","system_id":"levelo_inurba_marseille","lat":43.29195,"lon":5.35795,"is_reserved":false,"is_disabled":false,"rental_uris":{"android":"levelo://app?vid=e4407750-3e8e-44b0-93f3-932334cfc172","ios":"levelo://app?vid=e4407750-3e8e-44b0-93f3-932334cfc172"},"vehicle_type_id":"4","last_reported":1784750701,"current_range_meters":39200,"station_id":"ce4bhb12rcd13ifvqel0","pricing_plan_id":"cebpf4jnsgd1na2vs0mg"},{"bike_id":"94ba4e38-84c8-4128-b74a-623b3f5141e6","system_id":"levelo_inurba_marseille","lat":43.29038,"lon":5.37566,"is_reserved":false,"is_disabled":false,"rental_uris":{"android":"levelo://app?vid=94ba4e38-84c8-4128-b74a-623b3f5141e6","ios":"levelo://app?vid=94ba4e38-84c8-4128-b74a-623b3f5141e6"},"vehicle_type_id":"4","last_reported":1784750701,"current_range_meters":38800,"station_id":"ce4bh692rcd13ifvqe90","pricing_plan_id":"cebpf4jnsgd1na2vs0mg"},{"bike_id":"1a8f7e32-5d47-4694-89a5-a9089b244299","system_id":"levelo_inurba_marseille","lat":43.28089,"lon":5.38479,"is_reserved":false,"is_disabled":false,"rental_uris":{"android":"levelo://app?vid=1a8f7e32-5d47-4694-89a5-a9089b244299","ios":"levelo://app?vid=1a8f7e32-5d47-4694-89a5-a9089b244299"},"vehicle_type_id":"4","last_reported":1784750701,"current_range_meters":4000,"station_id":"","pricing_plan_id":"cebpf4jnsgd1na2vs0mg"},{"bike_id":"a2c9fd6e-925c-4795-ba3f-b9c641931695","system_id":"levelo_inurba_marseille","lat":43.29615,"lon":5.3771,"is_reserved":false,"is_disabled":true,"rental_uris":{"android":"levelo://app?vid=a2c9fd6e-925c-4795-ba3f-b9c641931695","ios":"levelo://app?vid=a2c9fd6e-925c-4795-ba3f-b9c641931695"},"vehicle_type_id":"4","last_reported":1784750701,"current_range_meters":24400,"station_id":"ce4bgi92rcd13ifvqb90","pricing_plan_id":"cebpf4jnsgd1na2vs0mg"},{"bike_id":"faee4801-9f2d-4ee2-93d5-87e7100c9502","system_id":"levelo_inurba_marseille","lat":43.28926,"lon":5.36626,"is_reserved":false,"is_disabled":false,"rental_uris":{"android":"levelo://app?vid=faee4801-9f2d-4ee2-93d5-87e7100c9502","ios":"levelo://app?vid=faee4801-9f2d-4ee2-93d5-87e7100c9502"},"vehicle_type_id":"4","last_reported":1784750701,"current_range_meters":15200,"station_id":"ce4bhap2rcd13ifvqek0","pricing_plan_id":"cebpf4jnsgd1na2vs0mg"},{"bike_id":"d6c26f88-3d7b-4068-a235-4049bb6e9207","system_id":"levelo_inurba_marseille","lat":43.29613,"lon":5.37723,"is_reserved":false,"is_disabled":false,"rental_uris":{"android":"levelo://app?vid=d6c26f88-3d7b-4068-a235-4049bb6e9207","ios":"levelo://app?vid=d6c26f88-3d7b-4068-a235-4049bb6e9207"},"vehicle_type_id":"4","last_reported":1784750701,"current_range_meters":37600,"station_id":"ce4bgi92rcd13ifvqb90","pricing_plan_id":"cebpf4jnsgd1na2vs0mg"},{"bike_id":"7b7c350c-7fa0-4260-b6c2-812c00fe7727","system_id":"levelo_inurba_marseille","lat":43.32099,"lon":5.36755,"is_reserved":false,"is_disabled":false,"rental_uris":{"android":"levelo://app?vid=7b7c350c-7fa0-4260-b6c2-812c00fe7727","ios":"levelo://app?vid=7b7c350c-7fa0-4260-b6c2-812c00fe7727"},"vehicle_type_id":"4","last_reported":1784750701,"current_range_meters":26800,"station_id":"ce4bhrh2rcd13ifvqhug","pricing_plan_id":"cebpf4jnsgd1na2vs0mg"},{"bike_id":"002b6de9-4906-4900-bd53-a26437451aab","system_id":"levelo_inurba_marseille","lat":43.33294,"lon":5.35877,"is_reserved":false,"is_disabled":false,"rental_uris":{"android":"levelo://app?vid=002b6de9-4906-4900-bd53-a26437451aab","ios":"levelo://app?vid=002b6de9-4906-4900-bd53-a26437451aab"},"vehicle_type_id":"4","last_reported":1784750701,"current_range_meters":11600,"station_id":"","pricing_plan_id":"cebpf4jnsgd1na2vs0mg"},{"bike_id":"0a2c90b5-f442-4a2c-ab34-3d05f8375f3d","system_id":"levelo_inurba_marseille","lat":43.29847,"lon":5.36282,"is_reserved":false,"is_disabled":false,"rental_uris":{"android":"levelo://app?vid=0a2c90b5-f442-4a2c-ab34-3d05f8375f3d","ios":"levelo://app?vid=0a2c90b5-f442-4a2c-ab34-3d05f8375f3d"},"vehicle_type_id":"4","last_reported":1784750701,"current_range_meters":26800,"station_id":"ce4bgpp2rcd13ifvqc3g","pricing_plan_id":"cebpf4jnsgd1na2vs0mg"},{"bike_id":"94f1b0ad-aaa9-4b51-806c-9eae39355e9b","system_id":"levelo_inurba_marseille","lat":43.2737,"lon":5.36248,"is_reserved":false,"is_disabled":true,"rental_uris":{"android":"levelo://app?vid=94f1b0ad-aaa9-4b51-806c-9eae39355e9b","ios":"levelo://app?vid=94f1b0ad-aaa9-4b51-806c-9eae39355e9b"},"vehicle_type_id":"4","last_reported":1784750701,"current_range_meters":5600,"station_id":"ce4bhbh2rcd13ifvqeo0","pricing_plan_id":"cebpf4jnsgd1na2vs0mg"},{"bike_id":"3d185dea-3134-4b35-9cee-49aed1f0c978","system_id":"levelo_inurba_marseille","lat":43.24677,"lon":5.38166,"is_reserved":false,"is_disabled":true,"rental_uris":{"android":"levelo://app?vid=3d185dea-3134-4b35-9cee-49aed1f0c978","ios":"levelo://app?vid=3d185dea-3134-4b35-9cee-49aed1f0c978"},"vehicle_type_id":"4","last_reported":1784750701,"current_range_meters":36000,"station_id":"ce4bhih2rcd13ifvqfr0","pricing_plan_id":"cebpf4jnsgd1na2vs0mg"},{"bike_id":"d59836fa-cc94-4caa-8c24-e346fea64424","system_id":"levelo_inurba_marseille","lat":43.29982,"lon":5.38508,"is_reserved":false,"is_disabled":true,"rental_uris":{"android":"levelo://app?vid=d59836fa-cc94-4caa-8c24-e346fea64424","ios":"levelo://app?vid=d59836fa-cc94-4caa-8c24-e346fea64424"},"vehicle_type_id":"4","last_reported":1784750701,"current_range_meters":10000,"station_id":"ce4bgj92rcd13ifvqbd0","pricing_plan_id":"cebpf4jnsgd1na2vs0mg"},{"bike_id":"c667032e-1eeb-4a45-9224-fed8ccf47807","system_id":"levelo_inurba_marseille","lat":43.287032,"lon":5.399916,"is_reserved":false,"is_disabled":false,"rental_uris":{"android":"levelo://app?vid=c667032e-1eeb-4a45-9224-fed8ccf47807","ios":"levelo://app?vid=c667032e-1eeb-4a45-9224-fed8ccf47807"},"vehicle_type_id":"4","last_reported":1784750701,"current_range_meters":21600,"station_id":"","pricing_plan_id":"cebpf4jnsgd1na2vs0mg"},{"bike_id":"961282e5-12c1-45c7-ab07-bc06ae64f0fc","system_id":"levelo_inurba_marseille","lat":43.28928,"lon":5.36641,"is_reserved":false,"is_disabled":false,"rental_uris":{"android":"levelo://app?vid=961282e5-12c1-45c7-ab07-bc06ae64f0fc","ios":"levelo://app?vid=961282e5-12c1-45c7-ab07-bc06ae64f0fc"},"vehicle_type_id":"4","last_reported":1784750701,"current_range_meters":39200,"station_id":"ce4bhap2rcd13ifvqek0","pricing_plan_id":"cebpf4jnsgd1na2vs0mg"},{"bike_id":"1de410cf-6ae7-483b-be11-ae932da9a32c","system_id":"levelo_inurba_marseille","lat":43.25019,"lon":5.38932,"is_reserved":false,"is_disabled":false,"rental_uris":{"android":"levelo://app?vid=1de410cf-6ae7-483b-be11-ae932da9a32c","ios":"levelo://app?vid=1de410cf-6ae7-483b-be11-ae932da9a32c"},"vehicle_type_id":"4","last_reported":1784750701,"current_range_meters":40000,"station_id":"ce4bhgp2rcd13ifvqfd0","pricing_plan_id":"cebpf4jnsgd1na2vs0mg"},{"bike_id":"16c1f100-ded8-41c5-85ce-060e556d650d","system_id":"levelo_inurba_marseille","lat":43.249953,"lon":5.389319,"is_reserved":false,"is_disabled":false,"rental_uris":{"android":"levelo://app?vid=16c1f100-ded8-41c5-85ce-060e556d650d","ios":"levelo://app?vid=16c1f100-ded8-41c5-85ce-060e556d650d"},"vehicle_type_id":"4","last_reported":1784750701,"current_range_meters":39200,"station_id":"ce4bhgp2rcd13ifvqfd0","pricing_plan_id":"cebpf4jnsgd1na2vs0mg"},{"bike_id":"1981d3ef-d7ae-460e-a247-e2f1120f8322","system_id":"levelo_inurba_marseille","lat":43.24573,"lon":5.4197,"is_reserved":false,"is_disabled":false,"rental_uris":{"android":"levelo://app?vid=1981d3ef-d7ae-460e-a247-e2f1120f8322","ios":"levelo://app?vid=1981d3ef-d7ae-460e-a247-e2f1120f8322"},"vehicle_type_id":"4","last_reported":1784750701,"current_range_meters":16800,"station_id":"","pricing_plan_id":"cebpf4jnsgd1na2vs0mg"},{"bike_id":"165f17ce-60d5-4c1f-b561-f2a05656aed3","system_id":"levelo_inurba_marseille","lat":43.24186,"lon":5.36387,"is_reserved":false,"is_disabled":false,"rental_uris":{"android":"levelo://app?vid=165f17ce-60d5-4c1f-b561-f2a05656aed3","ios":"levelo://app?vid=165f17ce-60d5-4c1f-b561-f2a05656aed3"},"vehicle_type_id":"4","last_reported":1784750701,"current_range_meters":31200,"station_id":"cpo36qri1sfpv3e86is0","pricing_plan_id":"cebpf4jnsgd1na2vs0mg"},{"bike_id":"bbb6d84d-52b2-4523-b78b-60cb354411ef","system_id":"levelo_inurba_marseille","lat":43.32093,"lon":5.36781,"is_reserved":false,"is_disabled":false,"rental_uris":{"android":"levelo://app?vid=bbb6d84d-52b2-4523-b78b-60cb354411ef","ios":"levelo://app?vid=bbb6d84d-52b2-4523-b78b-60cb354411ef"},"vehicle_type_id":"4","last_reported":1784750701,"current_range_meters":35600,"station_id":"ce4bhrh2rcd13ifvqhug","pricing_plan_id":"cebpf4jnsgd1na2vs0mg"},{"bike_id":"8a836e41-787b-455d-b6d7-39f01e28f08c","system_id":"levelo_inurba_marseille","lat":43.30215,"lon":5.39502,"is_reserved":false,"is_disabled":false,"rental_uris":{"android":"levelo://app?vid=8a836e41-787b-455d-b6d7-39f01e28f08c","ios":"levelo://app?vid=8a836e41-787b-455d-b6d7-39f01e28f08c"},"vehicle_type_id":"4","last_reported":1784750701,"current_range_meters":4400,"station_id":"ce4bh0p2rcd13ifvqd70","pricing_plan_id":"cebpf4jnsgd1na2vs0mg"},{"bike_id":"7c215944-6de0-44b9-b267-ecfcdb73eb11","system_id":"levelo_inurba_marseille","lat":43.27814,"lon":5.40708,"is_reserved":false,"is_disabled":true,"rental_uris":{"android":"levelo://app?vid=7c215944-6de0-44b9-b267-ecfcdb73eb11","ios":"levelo://app?vid=7c215944-6de0-44b9-b267-ecfcdb73eb11"},"vehicle_type_id":"4","last_reported":1784750701,"current_range_meters":39200,"station_id":"ce4bhnh2rcd13ifvqgtg","pricing_plan_id":"cebpf4jnsgd1na2vs0mg"},{"bike_id":"a9863fcb-8ca0-4220-b083-cb27e96475fe","system_id":"levelo_inurba_marseille","lat":43.23192,"lon":5.35549,"is_reserved":false,"is_disabled":false,"rental_uris":{"android":"levelo://app?vid=a9863fcb-8ca0-4220-b083-cb27e96475fe","ios":"levelo://app?vid=a9863fcb-8ca0-4220-b083-cb27e96475fe"},"vehicle_type_id":"4","last_reported":1784750701,"current_range_meters":8000,"station_id":"ce4bhu92rcd13ifvqi70","pricing_plan_id":"cebpf4jnsgd1na2vs0mg"},{"bike_id":"4eb11efe-633c-4ba5-a7fc-cd69cc83b362","system_id":"levelo_inurba_marseille","lat":43.28856,"lon":5.35846,"is_reserved":false,"is_disabled":false,"rental_uris":{"android":"levelo://app?vid=4eb11efe-633c-4ba5-a7fc-cd69cc83b362","ios":"levelo://app?vid=4eb11efe-633c-4ba5-a7fc-cd69cc83b362"},"vehicle_type_id":"4","last_reported":1784750701,"current_range_meters":36400,"station_id":"ce4bhb12rcd13ifvqem0","pricing_plan_id":"cebpf4jnsgd1na2vs0mg"},{"bike_id":"a8da38aa-f94e-4c2e-80f0-e41e78a1c855","system_id":"levelo_inurba_marseille","lat":43.29789,"lon":5.38096,"is_reserved":false,"is_disabled":true,"rental_uris":{"android":"levelo://app?vid=a8da38aa-f94e-4c2e-80f0-e41e78a1c855","ios":"levelo://app?vid=a8da38aa-f94e-4c2e-80f0-e41e78a1c855"},"vehicle_type_id":"4","last_reported":1784750701,"current_range_meters":38000,"station_id":"ce4bgip2rcd13ifvqbb0","pricing_plan_id":"cebpf4jnsgd1na2vs0mg"},{"bike_id":"00468abf-be1c-478a-ad79-7720ccb9ab32","system_id":"levelo_inurba_marseille","lat":43.30666,"lon":5.40072,"is_reserved":false,"is_disabled":false,"rental_uris":{"android":"levelo://app?vid=00468abf-be1c-478a-ad79-7720ccb9ab32","ios":"levelo://app?vid=00468abf-be1c-478a-ad79-7720ccb9ab32"},"vehicle_type_id":"4","last_reported":1784750701,"current_range_meters":39200,"station_id":"ce4bh112rcd13ifvqda0","pricing_plan_id":"cebpf4jnsgd1na2vs0mg"},{"bike_id":"b5a9d944-9eb1-434c-931a-e7a13d8c2c58","system_id":"levelo_inurba_marseille","lat":43.27404,"lon":5.39397,"is_reserved":false,"is_disabled":true,"rental_uris":{"android":"levelo://app?vid=b5a9d944-9eb1-434c-931a-e7a13d8c2c58","ios":"levelo://app?vid=b5a9d944-9eb1-434c-931a-e7a13d8c2c58"},"vehicle_type_id":"4","last_reported":1784750701,"current_range_meters":39200,"station_id":"ce4bhdp2rcd13ifvqf20","pricing_plan_id":"cebpf4jnsgd1na2vs0mg"},{"bike_id":"354a079f-ed28-41a7-a06b-85ab194fda38","system_id":"levelo_inurba_marseille","lat":43.29433,"lon":5.39761,"is_reserved":false,"is_disabled":false,"rental_uris":{"android":"levelo://app?vid=354a079f-ed28-41a7-a06b-85ab194fda38","ios":"levelo://app?vid=354a079f-ed28-41a7-a06b-85ab194fda38"},"vehicle_type_id":"4","last_reported":1784750701,"current_range_meters":39200,"station_id":"ce4bh3h2rcd13ifvqdo0","pricing_plan_id":"cebpf4jnsgd1na2vs0mg"},{"bike_id":"25d63c03-240b-4596-9842-ae7363543101","system_id":"levelo_inurba_marseille","lat":43.33166,"lon":5.37677,"is_reserved":false,"is_disabled":false,"rental_uris":{"android":"levelo://app?vid=25d63c03-240b-4596-9842-ae7363543101","ios":"levelo://app?vid=25d63c03-240b-4596-9842-ae7363543101"},"vehicle_type_id":"4","last_reported":1784750701,"current_range_meters":38400,"station_id":"st_d46cu089ee8s73dldbu0","pricing_plan_id":"cebpf4jnsgd1na2vs0mg"},{"bike_id":"19dc2830-c912-4360-86ca-5525ad96ecbc","system_id":"levelo_inurba_marseille","lat":43.29633,"lon":5.37167,"is_reserved":false,"is_disabled":false,"rental_uris":{"android":"levelo://app?vid=19dc2830-c912-4360-86ca-5525ad96ecbc","ios":"levelo://app?vid=19dc2830-c912-4360-86ca-5525ad96ecbc"},"vehicle_type_id":"4","last_reported":1784750701,"current_range_meters":39200,"station_id":"ce4bgnh2rcd13ifvqc0g","pricing_plan_id":"cebpf4jnsgd1na2vs0mg"},{"bike_id":"5f4bd8f2-46b8-4996-a65a-101104dcc0cb","system_id":"levelo_inurba_marseille","lat":43.2737,"lon":5.36237,"is_reserved":false,"is_disabled":false,"rental_uris":{"android":"levelo://app?vid=5f4bd8f2-46b8-4996-a65a-101104dcc0cb","ios":"levelo://app?vid=5f4bd8f2-46b8-4996-a65a-101104dcc0cb"},"vehicle_type_id":"4","last_reported":1784750701,"current_range_meters":39200,"station_id":"ce4bhbh2rcd13ifvqeo0","pricing_plan_id":"cebpf4jnsgd1na2vs0mg"},{"bike_id":"b2fda228-5410-47f7-8485-18bd164c8a06","system_id":"levelo_inurba_marseille","lat":43.29527,"lon":5.38552,"is_reserved":false,"is_disabled":false,"rental_uris":{"android":"levelo://app?vid=b2fda228-5410-47f7-8485-18bd164c8a06","ios":"levelo://app?vid=b2fda228-5410-47f7-8485-18bd164c8a06"},"vehicle_type_id":"4","last_reported":1784750701,"current_range_meters":33600,"station_id":"ce4bgih2rcd13ifvqba0","pricing_plan_id":"cebpf4jnsgd1na2vs0mg"},{"bike_id":"f8d90c4e-4908-4f03-845e-3c10c53cb1f4","system_id":"levelo_inurba_marseille","lat":43.30058,"lon":5.40938,"is_reserved":false,"is_disabled":false,"rental_uris":{"android":"levelo://app?vid=f8d90c4e-4908-4f03-845e-3c10c53cb1f4","ios":"levelo://app?vid=f8d90c4e-4908-4f03-845e-3c10c53cb1f4"},"vehicle_type_id":"4","last_reported":1784750701,"current_range_meters":22800,"station_id":"","pricing_plan_id":"cebpf4jnsgd1na2vs0mg"},{"bike_id":"f112eb0f-eda9-44f5-bca5-ec454511f878","system_id":"levelo_inurba_marseille","lat":43.28725,"lon":5.36082,"is_reserved":false,"is_disabled":false,"rental_uris":{"android":"levelo://app?vid=f112eb0f-eda9-44f5-bca5-ec454511f878","ios":"levelo://app?vid=f112eb0f-eda9-44f5-bca5-ec454511f878"},"vehicle_type_id":"4","last_reported":1784750701,"current_range_meters":38000,"station_id":"cki0cbj6b192h4jlfktg","pricing_plan_id":"cebpf4jnsgd1na2vs0mg"},{"bike_id":"65d6656f-ecee-4f25-9237-02f3ee9b2162","system_id":"levelo_inurba_marseille","lat":43.29919,"lon":5.37474,"is_reserved":false,"is_disabled":true,"rental_uris":{"android":"levelo://app?vid=65d6656f-ecee-4f25-9237-02f3ee9b2162","ios":"levelo://app?vid=65d6656f-ecee-4f25-9237-02f3ee9b2162"},"vehicle_type_id":"4","last_reported":1784750701,"current_range_meters":39200,"station_id":"ce4bgjh2rcd13ifvqbg0","pricing_plan_id":"cebpf4jnsgd1na2vs0mg"},{"bike_id":"27e1e4c5-a07c-4ba9-9e46-007cc925fb39","system_id":"levelo_inurba_marseille","lat":43.25349,"lon":5.41691,"is_reserved":false,"is_disabled":false,"rental_uris":{"android":"levelo://app?vid=27e1e4c5-a07c-4ba9-9e46-007cc925fb39","ios":"levelo://app?vid=27e1e4c5-a07c-4ba9-9e46-007cc925fb39"},"vehicle_type_id":"4","last_reported":1784750701,"current_range_meters":9600,"station_id":"","pricing_plan_id":"cebpf4jnsgd1na2vs0mg"},{"bike_id":"ce09f159-77c9-47c0-9d5f-f6c562bd48bf","system_id":"levelo_inurba_marseille","lat":43.29827,"lon":5.36241,"is_reserved":false,"is_disabled":false,"rental_uris":{"android":"levelo://app?vid=ce09f159-77c9-47c0-9d5f-f6c562bd48bf","ios":"levelo://app?vid=ce09f159-77c9-47c0-9d5f-f6c562bd48bf"},"vehicle_type_id":"4","last_reported":1784750701,"current_range_meters":32000,"station_id":"ce4bgpp2rcd13ifvqc3g","pricing_plan_id":"cebpf4jnsgd1na2vs0mg"},{"bike_id":"5817fa68-e0e1-4241-9549-3067eb371848","system_id":"levelo_inurba_marseille","lat":43.265733,"lon":5.390373,"is_reserved":false,"is_disabled":false,"rental_uris":{"android":"levelo://app?vid=5817fa68-e0e1-4241-9549-3067eb371848","ios":"levelo://app?vid=5817fa68-e0e1-4241-9549-3067eb371848"},"vehicle_type_id":"4","last_reported":1784750701,"current_range_meters":36800,"station_id":"cpo3532slgdg3j2ikp40","pricing_plan_id":"cebpf4jnsgd1na2vs0mg"},{"bike_id":"5a87d78f-bce0-4026-a623-b63371d564c6","system_id":"levelo_inurba_marseille","lat":43.29199,"lon":5.35801,"is_reserved":false,"is_disabled":true,"rental_uris":{"android":"levelo://app?vid=5a87d78f-bce0-4026-a623-b63371d564c6","ios":"levelo://app?vid=5a87d78f-bce0-4026-a623-b63371d564c6"},"vehicle_type_id":"4","last_reported":1784750701,"current_range_meters":35200,"station_id":"ce4bhb12rcd13ifvqel0","pricing_plan_id":"cebpf4jnsgd1na2vs0mg"},{"bike_id":"781e8cd4-43a4-48c1-b8bc-b71ab67b78ae","system_id":"levelo_inurba_marseille","lat":43.29191,"lon":5.35821,"is_reserved":false,"is_disabled":false,"rental_uris":{"android":"levelo://app?vid=781e8cd4-43a4-48c1-b8bc-b71ab67b78ae","ios":"levelo://app?vid=781e8cd4-43a4-48c1-b8bc-b71ab67b78ae"},"vehicle_type_id":"4","last_reported":1784750701,"current_range_meters":11200,"station_id":"ce4bhb12rcd13ifvqel0","pricing_plan_id":"cebpf4jnsgd1na2vs0mg"},{"bike_id":"d7add3e0-f752-456d-8293-24e01813e78b","system_id":"levelo_inurba_marseille","lat":43.29534,"lon":5.36432,"is_reserved":false,"is_disabled":false,"rental_uris":{"android":"levelo://app?vid=d7add3e0-f752-456d-8293-24e01813e78b","ios":"levelo://app?vid=d7add3e0-f752-456d-8293-24e01813e78b"},"vehicle_type_id":"4","last_reported":1784750701,"current_range_meters":28800,"station_id":"","pricing_plan_id":"cebpf4jnsgd1na2vs0mg"},{"bike_id":"225cbeaf-0c98-4059-ac78-f84ed4ed29b5","system_id":"levelo_inurba_marseille","lat":43.28972,"lon":5.37839,"is_reserved":false,"is_disabled":false,"rental_uris":{"android":"levelo://app?vid=225cbeaf-0c98-4059-ac78-f84ed4ed29b5","ios":"levelo://app?vid=225cbeaf-0c98-4059-ac78-f84ed4ed29b5"},"vehicle_type_id":"4","last_reported":1784750701,"current_range_meters":38800,"station_id":"ce4bh9p2rcd13ifvqed0","pricing_plan_id":"cebpf4jnsgd1na2vs0mg"},{"bike_id":"9e0dbd72-810d-4197-b56a-e2f6006a9b4c","system_id":"levelo_inurba_marseille","lat":43.29255,"lon":5.38439,"is_reserved":false,"is_disabled":false,"rental_uris":{"android":"levelo://app?vid=9e0dbd72-810d-4197-b56a-e2f6006a9b4c","ios":"levelo://app?vid=9e0dbd72-810d-4197-b56a-e2f6006a9b4c"},"vehicle_type_id":"4","last_reported":1784750701,"current_range_meters":37600,"station_id":"ce4bh692rcd13ifvqea0","pricing_plan_id":"cebpf4jnsgd1na2vs0mg"},{"bike_id":"d71613f8-723e-45d4-9ecc-e0897b41b67e","system_id":"levelo_inurba_marseille","lat":43.31747,"lon":5.39034,"is_reserved":false,"is_disabled":false,"rental_uris":{"android":"levelo://app?vid=d71613f8-723e-45d4-9ecc-e0897b41b67e","ios":"levelo://app?vid=d71613f8-723e-45d4-9ecc-e0897b41b67e"},"vehicle_type_id":"4","last_reported":1784750701,"current_range_meters":36800,"station_id":"ce4bhqp2rcd13ifvqhng","pricing_plan_id":"cebpf4jnsgd1na2vs0mg"},{"bike_id":"c5032ade-04c2-4ad9-acd6-0c757f219d04","system_id":"levelo_inurba_marseille","lat":43.31889,"lon":5.368,"is_reserved":false,"is_disabled":false,"rental_uris":{"android":"levelo://app?vid=c5032ade-04c2-4ad9-acd6-0c757f219d04","ios":"levelo://app?vid=c5032ade-04c2-4ad9-acd6-0c757f219d04"},"vehicle_type_id":"4","last_reported":1784750701,"current_range_meters":10800,"station_id":"st_d6o2h0d0559c73evc1b0","pricing_plan_id":"cebpf4jnsgd1na2vs0mg"},{"bike_id":"479a25b1-c1db-4e38-9802-13b8f5b183f0","system_id":"levelo_inurba_marseille","lat":43.2847,"lon":5.48402,"is_reserved":false,"is_disabled":false,"rental_uris":{"android":"levelo://app?vid=479a25b1-c1db-4e38-9802-13b8f5b183f0","ios":"levelo://app?vid=479a25b1-c1db-4e38-9802-13b8f5b183f0"},"vehicle_type_id":"4","last_reported":1784750701,"current_range_meters":28800,"station_id":"st_d3svhcjqgbts73a3dn0g","pricing_plan_id":"cebpf4jnsgd1na2vs0mg"},{"bike_id":"5ba3de10-889b-4152-aef4-4bff1e010d26","system_id":"levelo_inurba_marseille","lat":43.3211,"lon":5.36783,"is_reserved":false,"is_disabled":false,"rental_uris":{"android":"levelo://app?vid=5ba3de10-889b-4152-aef4-4bff1e010d26","ios":"levelo://app?vid=5ba3de10-889b-4152-aef4-4bff1e010d26"},"vehicle_type_id":"4","last_reported":1784750701,"current_range_meters":10800,"station_id":"ce4bhrh2rcd13ifvqhug","pricing_plan_id":"cebpf4jnsgd1na2vs0mg"},{"bike_id":"4a44625a-98e7-4ffe-9d7a-43dbdd22c4d2","system_id":"levelo_inurba_marseille","lat":43.31444,"lon":5.37484,"is_reserved":false,"is_disabled":false,"rental_uris":{"android":"levelo://app?vid=4a44625a-98e7-4ffe-9d7a-43dbdd22c4d2","ios":"levelo://app?vid=4a44625a-98e7-4ffe-9d7a-43dbdd22c4d2"},"vehicle_type_id":"4","last_reported":1784750701,"current_range_meters":26800,"station_id":"","pricing_plan_id":"cebpf4jnsgd1na2vs0mg"},{"bike_id":"b5f9f7a7-dafb-4ba9-82af-de2ec50b3dac","system_id":"levelo_inurba_marseille","lat":43.28367,"lon":5.38638,"is_reserved":false,"is_disabled":false,"rental_uris":{"android":"levelo://app?vid=b5f9f7a7-dafb-4ba9-82af-de2ec50b3dac","ios":"levelo://app?vid=b5f9f7a7-dafb-4ba9-82af-de2ec50b3dac"},"vehicle_type_id":"4","last_reported":1784750701,"current_range_meters":9600,"station_id":"ce4bh492rcd13ifvqdvg","pricing_plan_id":"cebpf4jnsgd1na2vs0mg"},{"bike_id":"cef8220e-235d-4ecf-9d2e-e93846379baf","system_id":"levelo_inurba_marseille","lat":43.28937,"lon":5.39618,"is_reserved":false,"is_disabled":false,"rental_uris":{"android":"levelo://app?vid=cef8220e-235d-4ecf-9d2e-e93846379baf","ios":"levelo://app?vid=cef8220e-235d-4ecf-9d2e-e93846379baf"},"vehicle_type_id":"4","last_reported":1784750701,"current_range_meters":16800,"station_id":"ce4bh3h2rcd13ifvqdn0","pricing_plan_id":"cebpf4jnsgd1na2vs0mg"},{"bike_id":"a13f0111-9938-4362-bd71-0bd1f0788504","system_id":"levelo_inurba_marseille","lat":43.27902,"lon":5.35314,"is_reserved":false,"is_disabled":true,"rental_uris":{"android":"levelo://app?vid=a13f0111-9938-4362-bd71-0bd1f0788504","ios":"levelo://app?vid=a13f0111-9938-4362-bd71-0bd1f0788504"},"vehicle_type_id":"4","last_reported":1784750701,"current_range_meters":0,"station_id":"","pricing_plan_id":"cebpf4jnsgd1na2vs0mg"},{"bike_id":"cc8568ab-2679-4305-9add-20ef1e360289","system_id":"levelo_inurba_marseille","lat":43.33784,"lon":5.37518,"is_reserved":false,"is_disabled":false,"rental_uris":{"android":"levelo://app?vid=cc8568ab-2679-4305-9add-20ef1e360289","ios":"levelo://app?vid=cc8568ab-2679-4305-9add-20ef1e360289"},"vehicle_type_id":"4","last_reported":1784750701,"current_range_meters":33600,"station_id":"","pricing_plan_id":"cebpf4jnsgd1na2vs0mg"},{"bike_id":"b4b2625b-3a41-4bc1-b411-2a40aac76b64","system_id":"levelo_inurba_marseille","lat":43.29867,"lon":5.39742,"is_reserved":false,"is_disabled":false,"rental_uris":{"android":"levelo://app?vid=b4b2625b-3a41-4bc1-b411-2a40aac76b64","ios":"levelo://app?vid=b4b2625b-3a41-4bc1-b411-2a40aac76b64"},"vehicle_type_id":"4","last_reported":1784750701,"current_range_meters":28800,"station_id":"ce4bh0h2rcd13ifvqd50","pricing_plan_id":"cebpf4jnsgd1na2vs0mg"},{"bike_id":"80f2fcef-357e-49cd-aa72-dbf1de6d4695","system_id":"levelo_inurba_marseille","lat":43.31909,"lon":5.36812,"is_reserved":false,"is_disabled":false,"rental_uris":{"android":"levelo://app?vid=80f2fcef-357e-49cd-aa72-dbf1de6d4695","ios":"levelo://app?vid=80f2fcef-357e-49cd-aa72-dbf1de6d4695"},"vehicle_type_id":"4","last_reported":1784750701,"current_range_meters":17600,"station_id":"st_d6o2h0d0559c73evc1b0","pricing_plan_id":"cebpf4jnsgd1na2vs0mg"},{"bike_id":"da4233c0-c0af-47c9-9d03-bfe159080fb5","system_id":"levelo_inurba_marseille","lat":43.33545,"lon":5.37471,"is_reserved":false,"is_disabled":false,"rental_uris":{"android":"levelo://app?vid=da4233c0-c0af-47c9-9d03-bfe159080fb5","ios":"levelo://app?vid=da4233c0-c0af-47c9-9d03-bfe159080fb5"},"vehicle_type_id":"4","last_reported":1784750701,"current_range_meters":9600,"station_id":"st_d46tts09ee8s73dlu43g","pricing_plan_id":"cebpf4jnsgd1na2vs0mg"},{"bike_id":"d88b45a5-fda5-4824-aaa9-a2ae0cc2364d","system_id":"levelo_inurba_marseille","lat":43.24795,"lon":5.37452,"is_reserved":false,"is_disabled":false,"rental_uris":{"android":"levelo://app?vid=d88b45a5-fda5-4824-aaa9-a2ae0cc2364d","ios":"levelo://app?vid=d88b45a5-fda5-4824-aaa9-a2ae0cc2364d"},"vehicle_type_id":"4","last_reported":1784750701,"current_range_meters":38800,"station_id":"ce4bhgh2rcd13ifvqfb0","pricing_plan_id":"cebpf4jnsgd1na2vs0mg"},{"bike_id":"f31fe3f8-7e1d-48f5-91ed-00f866bfa726","system_id":"levelo_inurba_marseille","lat":43.29516,"lon":5.39035,"is_reserved":false,"is_disabled":false,"rental_uris":{"android":"levelo://app?vid=f31fe3f8-7e1d-48f5-91ed-00f866bfa726","ios":"levelo://app?vid=f31fe3f8-7e1d-48f5-91ed-00f866bfa726"},"vehicle_type_id":"4","last_reported":1784750701,"current_range_meters":20800,"station_id":"ce4bh3p2rcd13ifvqdp0","pricing_plan_id":"cebpf4jnsgd1na2vs0mg"},