{"last_updated":1726665392,"ttl":30,"version":"2.2","data":{"bikes":[{"bike_id":"e7d24c68-c109-4b28-a30d-9556fff92986","system_id":"levelo_inurba_marseille","lat":43.24385,"lon":5.37058,"is_reserved":false,"is_disabled":false,"rental_uris":{"android":"levelo://app?vid=e7d24c68-c109-4b28-a30d-9556fff92986","ios":"levelo://app?vid=e7d24c68-c109-4b28-a30d-9556fff92986"},"vehicle_type_id":"4","last_reported":1726665392,"current_range_meters":24400,"station_id":"ce4bhhh2rcd13ifvqfk0","pricing_plan_id":"cebpf4jnsgd1na2vs0mg"},{"bike_id":"f5e0678d-3c1e-4b9a-bb26-bbd93986695d","system_id":"levelo_inurba_marseille","lat":43.30146,"lon":5.37416,"is_reserved":false,"is_disabled":false,"rental_uris":{"android":"levelo://app?vid=f5e0678d-3c1e-4b9a-bb26-bbd93986695d","ios":"levelo://app?vid=f5e0678d-3c1e-4b9a-bb26-bbd93986695d"},"vehicle_type_id":"4","last_reported":1726665392,"current_range_meters":12000,"station_id":"ce4bgs92rcd13ifvqcc0","pricing_plan_id":"cebpf4jnsgd1na2vs0mg"},{"bike_id":"fa9c798e-6594-4a84-accc-ec8faa512184","system_id":"levelo_inurba_marseille","lat":43.29255,"lon":5.38446,"is_reserved":false,"is_disabled":false,"rental_uris":{"android":"levelo://app?vid=fa9c798e-6594-4a84-accc-ec8faa512184","ios":"levelo://app?vid=fa9c798e-6594-4a84-accc-ec8faa512184"},"vehicle_type_id":"4","last_reported":1726665392,"current_range_meters":38400,"station_id":"ce4bh692rcd13ifvqea0","pricing_plan_id":"cebpf4jnsgd1na2vs0mg"},{"bike_id":"43176770-eaee-4996-86c7-d408161e4ce6","system_id":"levelo_inurba_marseille","lat":43.29896,"lon":5.43665,"is_reserved":false,"is_disabled":false,"rental_uris":{"android":"levelo://app?vid=43176770-eaee-4996-86c7-d408161e4ce6","ios":"levelo://app?vid=43176770-eaee-4996-86c7-d408161e4ce6"},"vehicle_type_id":"4","last_reported":1726665392,"current_range_meters":36800,"station_id":"ce4bhpp2rcd13ifvqhfg","pricing_plan_id":"cebpf4jnsgd1na2vs0mg"},{"bike_id":"f258397c-b499-43de-a30d-fb00b2d36ed0","system_id":"levelo_inurba_marseille","lat":43.28079,"lon":5.39657,"is_reserved":false,"is_disabled":false,"rental_uris":{"android":"levelo://app?vid=f258397c-b499-43de-a30d-fb00b2d36ed0","ios":"levelo://app?vid=f258397c-b499-43de-a30d-fb00b2d36ed0"},"vehicle_type_id":"4","last_reported":1726665392,"current_range_meters":16800,"station_id":"ce4bho12rcd13ifvqh2g","pricing_plan_id":"cebpf4jnsgd1na2vs0mg"},{"bike_id":"124a3748-be74-4263-8662-f127a8133f0d","system_id":"levelo_inurba_marseille","lat":43.311188,"lon":5.369473,"is_reserved":false,"is_disabled":false,"rental_uris":{"android":"levelo://app?vid=124a3748-be74-4263-8662-f127a8133f0d","ios":"levelo://app?vid=124a3748-be74-4263-8662-f127a8133f0d"},"vehicle_type_id":"4","last_reported":1726665392,"current_range_meters":18000,"station_id":"ce4bgl92rcd13ifvqbq0","pricing_plan_id":"cebpf4jnsgd1na2vs0mg"},{"bike_id":"e532fd53-ad12-4848-82ea-70ac934c1c37","system_id":"levelo_inurba_marseille","lat":43.337444,"lon":5.374475,"is_reserved":false,"is_disabled":false,"rental_uris":{"android":"levelo://app?vid=e532fd53-ad12-4848-82ea-70ac934c1c37","ios":"levelo://app?vid=e532fd53-ad12-4848-82ea-70ac934c1c37"},"vehicle_type_id":"4","last_reported":1726665392,"current_range_meters":20000,"station_id":"","pricing_plan_id":"cebpf4jnsgd1na2vs0mg"},{"bike_id":"83f35325-3515-4569-b76f-18759432130e","system_id":"levelo_inurba_marseille","lat":43.30313,"lon":5.36902,"is_reserved":false,"is_disabled":false,"rental_uris":{"android":"levelo://app?vid=83f35325-3515-4569-b76f-18759432130e","ios":"levelo://app?vid=83f35325-3515-4569-b76f-18759432130e"},"vehicle_type_id":"4","last_reported":1726665392,"current_range_meters":33200,"station_id":"ce4bgqh2rcd13ifvqc5g","pricing_plan_id":"cebpf4jnsgd1na2vs0mg"},{"bike_id":"8f5f7a85-7979-48f1-a68b-15e697f6e804","system_id":"levelo_inurba_marseille","lat":43.291901,"lon":5.358047,"is_reserved":false,"is_disabled":false,"rental_uris":{"android":"levelo://app?vid=8f5f7a85-7979-48f1-a68b-15e697f6e804","ios":"levelo://app?vid=8f5f7a85-7979-48f1-a68b-15e697f6e804"},"vehicle_type_id":"4","last_reported":1726665392,"current_range_meters":20400,"station_id":"ce4bgs12rcd13ifvqcag","pricing_plan_id":"cebpf4jnsgd1na2vs0mg"},{"bike_id":"1d5bdacc-c315-47fc-a126-4e9b83fc9a4e","system_id":"levelo_inurba_marseille","lat":43.29021,"lon":5.38133,"is_reserved":false,"is_disabled":false,"rental_uris":{"android":"levelo://app?vid=1d5bdacc-c315-47fc-a126-4e9b83fc9a4e","ios":"levelo://app?vid=1d5bdacc-c315-47fc-a126-4e9b83fc9a4e"},"vehicle_type_id":"4","last_reported":1726665392,"current_range_meters":22400,"station_id":"ce4bh4p2rcd13ifvqe1g","pricing_plan_id":"cebpf4jnsgd1na2vs0mg"},{"bike_id":"e9305e9e-94fd-4fb4-9a7a-95a26da81fe2","system_id":"levelo_inurba_marseille","lat":43.27937,"lon":5.41047,"is_reserved":false,"is_disabled":false,"rental_uris":{"android":"levelo://app?vid=e9305e9e-94fd-4fb4-9a7a-95a26da81fe2","ios":"levelo://app?vid=e9305e9e-94fd-4fb4-9a7a-95a26da81fe2"},"vehicle_type_id":"4","last_reported":1726665392,"current_range_meters":37600,"station_id":"ce4bhnp2rcd13ifvqh0g","pricing_plan_id":"cebpf4jnsgd1na2vs0mg"},{"bike_id":"c2929b4a-9dfb-4cb8-9ae5-ea56e1c219e5","system_id":"levelo_inurba_marseille","lat":43.25496,"lon":5.37647,"is_reserved":false,"is_disabled":false,"rental_uris":{"android":"levelo://app?vid=c2929b4a-9dfb-4cb8-9ae5-ea56e1c219e5","ios":"levelo://app?vid=c2929b4a-9dfb-4cb8-9ae5-ea56e1c219e5"},"vehicle_type_id":"4","last_reported":1726665392,"current_range_meters":6400,"station_id":"ce4bhh12rcd13ifvqff0","pricing_plan_id":"cebpf4jnsgd1na2vs0mg"},{"bike_id":"70d84132-fa02-48de-8e55-2112c0253f7a","system_id":"levelo_inurba_marseille","lat":43.28664,"lon":5.36351,"is_reserved":false,"is_disabled":false,"rental_uris":{"android":"levelo://app?vid=70d84132-fa02-48de-8e55-2112c0253f7a","ios":"levelo://app?vid=70d84132-fa02-48de-8e55-2112c0253f7a"},"vehicle_type_id":"4","last_reported":1726665392,"current_range_meters":23200,"station_id":"ce4bhah2rcd13ifvqej0","pricing_plan_id":"cebpf4jnsgd1na2vs0mg"},{"bike_id":"81702163-97fe-4d9b-bc84-58337cbbf508","system_id":"levelo_inurba_marseille","lat":43.29231,"lon":5.3607,"is_reserved":false,"is_disabled":false,"rental_uris":{"android":"levelo://app?vid=81702163-97fe-4d9b-bc84-58337cbbf508","ios":"levelo://app?vid=81702163-97fe-4d9b-bc84-58337cbbf508"},"vehicle_type_id":"4","last_reported":1726665392,"current_range_meters":36000,"station_id":"ce4bhbh2rcd13ifvqeqg","pricing_plan_id":"cebpf4jnsgd1na2vs0mg"},{"bike_id":"fbaf841e-f153-4955-afd5-e7c7da47f418","system_id":"levelo_inurba_marseille","lat":43.284027,"lon":5.375077,"is_reserved":false,"is_disabled":false,"rental_uris":{"android":"levelo://app?vid=fbaf841e-f153-4955-afd5-e7c7da47f418","ios":"levelo://app?vid=fbaf841e-f153-4955-afd5-e7c7da47f418"},"vehicle_type_id":"4","last_reported":1726665392,"current_range_meters":28400,"station_id":"ce4bh412rcd13ifvqds0","pricing_plan_id":"cebpf4jnsgd1na2vs0mg"},{"bike_id":"103a716b-dbc7-4e49-a7f2-16e378e92b85","system_id":"levelo_inurba_marseille","lat":43.22927,"lon":5.35373,"is_reserved":false,"is_disabled":false,"rental_uris":{"android":"levelo://app?vid=103a716b-dbc7-4e49-a7f2-16e378e92b85","ios":"levelo://app?vid=103a716b-dbc7-4e49-a7f2-16e378e92b85"},"vehicle_type_id":"4","last_reported":1726665392,"current_range_meters":25200,"station_id":"cpo3532slgdg3j2ikp40","pricing_plan_id":"cebpf4jnsgd1na2vs0mg"},{"bike_id":"c8b16021-ad4f-4c1b-80b1-7d1b9c811227","system_id":"levelo_inurba_marseille","lat":43.32366,"lon":5.38882,"is_reserved":false,"is_disabled":false,"rental_uris":{"android":"levelo://app?vid=c8b16021-ad4f-4c1b-80b1-7d1b9c811227","ios":"levelo://app?vid=c8b16021-ad4f-4c1b-80b1-7d1b9c811227"},"vehicle_type_id":"4","last_reported":1726665392,"current_range_meters":9600,"station_id":"ce4bhqp2rcd13ifvqhog","pricing_plan_id":"cebpf4jnsgd1na2vs0mg"},{"bike_id":"e1ee7e78-10da-4d9e-a225-51facc6f4f3b","system_id":"levelo_inurba_marseille","lat":43.30319,"lon":5.36893,"is_reserved":false,"is_disabled":false,"rental_uris":{"android":"levelo://app?vid=e1ee7e78-10da-4d9e-a225-51facc6f4f3b","ios":"levelo://app?vid=e1ee7e78-10da-4d9e-a225-51facc6f4f3b"},"vehicle_type_id":"4","last_reported":1726665392,"current_range_meters":38800,"station_id":"ce4bgqh2rcd13ifvqc5g","pricing_plan_id":"cebpf4jnsgd1na2vs0mg"},{"bike_id":"734aa74e-b926-4042-9aab-1e80809573f6","system_id":"levelo_inurba_marseille","lat":43.28158,"lon":5.40449,"is_reserved":false,"is_disabled":false,"rental_uris":{"android":"levelo://app?vid=734aa74e-b926-4042-9aab-1e80809573f6","ios":"levelo://app?vid=734aa74e-b926-4042-9aab-1e80809573f6"},"vehicle_type_id":"4","last_reported":1726665392,"current_range_meters":27200,"station_id":"","pricing_plan_id":"cebpf4jnsgd1na2vs0mg"},{"bike_id":"506a28f7-0798-49e4-b38f-f0bb95dda86f","system_id":"levelo_inurba_marseille","lat":43.32491,"lon":5.36574,"is_reserved":false,"is_disabled":false,"rental_uris":{"android":"levelo://app?vid=506a28f7-0798-49e4-b38f-f0bb95dda86f","ios":"levelo://app?vid=506a28f7-0798-49e4-b38f-f0bb95dda86f"},"vehicle_type_id":"4","last_reported":1726665392,"current_range_meters":34000,"station_id":"ce4bhs12rcd13ifvqhvg","pricing_plan_id":"cebpf4jnsgd1na2vs0mg"},{"bike_id":"2ead656c-8850-4401-b04f-8b4ba65c4285","system_id":"levelo_inurba_marseille","lat":43.23184,"lon":5.39978,"is_reserved":false,"is_disabled":false,"rental_uris":{"android":"levelo://app?vid=2ead656c-8850-4401-b04f-8b4ba65c4285","ios":"levelo://app?vid=2ead656c-8850-4401-b04f-8b4ba65c4285"},"vehicle_type_id":"4","last_reported":1726665392,"current_range_meters":14400,"station_id":"ce4bhn12rcd13ifvqgqg","pricing_plan_id":"cebpf4jnsgd1na2vs0mg"},{"bike_id":"4511e3e9-3ad2-439e-ab52-877eceaace6f","system_id":"levelo_inurba_marseille","lat":43.30139,"lon":5.38791,"is_reserved":false,"is_disabled":false,"rental_uris":{"android":"levelo://app?vid=4511e3e9-3ad2-439e-ab52-877eceaace6f","ios":"levelo://app?vid=4511e3e9-3ad2-439e-ab52-877eceaace6f"},"vehicle_type_id":"4","last_reported":1726665392,"current_range_meters":38400,"station_id":"ce4bh112rcd13ifvqda0","pricing_plan_id":"cebpf4jnsgd1na2vs0mg"},{"bike_id":"d9b62648-6378-4dbb-9f13-09848203a4fd","system_id":"levelo_inurba_marseille","lat":43.26685,"lon":5.38277,"is_reserved":false,"is_disabled":false,"rental_uris":{"android":"levelo://app?vid=d9b62648-6378-4dbb-9f13-09848203a4fd","ios":"levelo://app?vid=d9b62648-6378-4dbb-9f13-09848203a4fd"},"vehicle_type_id":"4","last_reported":1726665392,"current_range_meters":39200,"station_id":"ce4bhg92rcd13ifvqf90","pricing_plan_id":"cebpf4jnsgd1na2vs0mg"},{"bike_id":"58425c75-426d-4180-a63e-37adedc21aed","system_id":"levelo_inurba_marseille","lat":43.24805,"lon":5.37454,"is_reserved":false,"is_disabled":false,"rental_uris":{"android":"levelo://app?vid=58425c75-426d-4180-a63e-37adedc21aed","ios":"levelo://app?vid=58425c75-426d-4180-a63e-37adedc21aed"},"vehicle_type_id":"4","last_reported":1726665392,"current_range_meters":6400,"station_id":"ce4bhgh2rcd13ifvqfb0","pricing_plan_id":"cebpf4jnsgd1na2vs0mg"},{"bike_id":"2a5808e5-1612-4dc1-a62b-b9c71459256c","system_id":"levelo_inurba_marseille","lat":43.3409,"lon":5.39105,"is_reserved":false,"is_disabled":false,"rental_uris":{"android":"levelo://app?vid=2a5808e5-1612-4dc1-a62b-b9c71459256c","ios":"levelo://app?vid=2a5808e5-1612-4dc1-a62b-b9c71459256c"},"vehicle_type_id":"4","last_reported":1726665392,"current_range_meters":4000,"station_id":"","pricing_plan_id":"cebpf4jnsgd1na2vs0mg"},{"bike_id":"a08a05a1-7e90-4586-bd4e-408a0a83e1f6","system_id":"levelo_inurba_marseille","lat":43.27621,"lon":5.36112,"is_reserved":false,"is_disabled":false,"rental_uris":{"android":"levelo://app?vid=a08a05a1-7e90-4586-bd4e-408a0a83e1f6","ios":"levelo://app?vid=a08a05a1-7e90-4586-bd4e-408a0a83e1f6"},"vehicle_type_id":"4","last_reported":1726665392,"current_range_meters":27600,"station_id":"ce4bgj92rcd13ifvqbe0","pricing_plan_id":"cebpf4jnsgd1na2vs0mg"},{"bike_id":"3189b104-d3cc-46db-92db-e3f69a715943","system_id":"levelo_inurba_marseille","lat":43.29268,"lon":5.3685,"is_reserved":false,"is_disabled":false,"rental_uris":{"android":"levelo://app?vid=3189b104-d3cc-46db-92db-e3f69a715943","ios":"levelo://app?vid=3189b104-d3cc-46db-92db-e3f69a715943"},"vehicle_type_id":"4","last_reported":1726665392,"current_range_meters":22400,"station_id":"ce4bhbp2rcd13ifvqesg","pricing_plan_id":"cebpf4jnsgd1na2vs0mg"},{"bike_id":"727f9231-8787-4571-814a-e82bf3092d06","system_id":"levelo_inurba_marseille","lat":43.28427,"lon":5.3498,"is_reserved":false,"is_disabled":false,"rental_uris":{"android":"levelo://app?vid=727f9231-8787-4571-814a-e82bf3092d06","ios":"levelo://app?vid=727f9231-8787-4571-814a-e82bf3092d06"},"vehicle_type_id":"4","last_reported":1726665392,"current_range_meters":10000,"station_id":"ce4bhbh2rcd13ifvqepg","pricing_plan_id":"cebpf4jnsgd1na2vs0mg"},{"bike_id":"bf88ca0f-0ef9-4e3a-8aca-4feea64e0090","system_id":"levelo_inurba_marseille","lat":43.23151,"lon":5.43716,"is_reserved":false,"is_disabled":false,"rental_uris":{"android":"levelo://app?vid=bf88ca0f-0ef9-4e3a-8aca-4feea64e0090","ios":"levelo://app?vid=bf88ca0f-0ef9-4e3a-8aca-4feea64e0090"},"vehicle_type_id":"4","last_reported":1726665392,"current_range_meters":3200,"station_id":"ce4bhmp2rcd13ifvqgog","pricing_plan_id":"cebpf4jnsgd1na2vs0mg"},{"bike_id":"997cb8ff-7e70-44b8-8b10-0781e0343a19","system_id":"levelo_inurba_marseille","lat":43.29004,"lon":5.3561,"is_reserved":false,"is_disabled":false,"rental_uris":{"android":"levelo://app?vid=997cb8ff-7e70-44b8-8b10-0781e0343a19","ios":"levelo://app?vid=997cb8ff-7e70-44b8-8b10-0781e0343a19"},"vehicle_type_id":"4","last_reported":1726665392,"current_range_meters":38800,"station_id":"ce4bhb92rcd13ifvqen0","pricing_plan_id":"cebpf4jnsgd1na2vs0mg"},{"bike_id":"e951a721-d64c-4609-8103-a21c5c299536","system_id":"levelo_inurba_marseille","lat":43.28074,"lon":5.39654,"is_reserved":false,"is_disabled":false,"rental_uris":{"android":"levelo://app?vid=e951a721-d64c-4609-8103-a21c5c299536","ios":"levelo://app?vid=e951a721-d64c-4609-8103-a21c5c299536"},"vehicle_type_id":"4","last_reported":1726665392,"current_range_meters":31200,"station_id":"ce4bho12rcd13ifvqh2g","pricing_plan_id":"cebpf4jnsgd1na2vs0mg"},{"bike_id":"c2667222-5d26-4d9c-a938-761c480fe584","system_id":"levelo_inurba_marseille","lat":43.33026,"lon":5.39036,"is_reserved":false,"is_disabled":false,"rental_uris":{"android":"levelo://app?vid=c2667222-5d26-4d9c-a938-761c480fe584","ios":"levelo://app?vid=c2667222-5d26-4d9c-a938-761c480fe584"},"vehicle_type_id":"4","last_reported":1726665392,"current_range_meters":10800,"station_id":"ce4bhr92rcd13ifvqhrg","pricing_plan_id":"cebpf4jnsgd1na2vs0mg"},{"bike_id":"d2648441-8611-4e86-b6a3-95e5dd6d09df","system_id":"levelo_inurba_marseille","lat":43.24647,"lon":5.38891,"is_reserved":false,"is_disabled":false,"rental_uris":{"android":"levelo://app?vid=d2648441-8611-4e86-b6a3-95e5dd6d09df","ios":"levelo://app?vid=d2648441-8611-4e86-b6a3-95e5dd6d09df"},"vehicle_type_id":"4","last_reported":1726665392,"current_range_meters":39200,"station_id":"ce4bhg12rcd13ifvqf60","pricing_plan_id":"cebpf4jnsgd1na2vs0mg"},{"bike_id":"f82a94b2-b212-40f9-8fce-150e45a3be33","system_id":"levelo_inurba_marseille","lat":43.262,"lon":5.37933,"is_reserved":false,"is_disabled":false,"rental_uris":{"android":"levelo://app?vid=f82a94b2-b212-40f9-8fce-150e45a3be33","ios":"levelo://app?vid=f82a94b2-b212-40f9-8fce-150e45a3be33"},"vehicle_type_id":"4","last_reported":1726665392,"current_range_meters":18800,"station_id":"ce4bhjp2rcd13ifvqg90","pricing_plan_id":"cebpf4jnsgd1na2vs0mg"},{"bike_id":"74cf48ce-0c7c-49e2-81d6-547ab0656005","system_id":"levelo_inurba_marseille","lat":43.23155,"lon":5.4371,"is_reserved":false,"is_disabled":false,"rental_uris":{"android":"levelo://app?vid=74cf48ce-0c7c-49e2-81d6-547ab0656005","ios":"levelo://app?vid=74cf48ce-0c7c-49e2-81d6-547ab0656005"},"vehicle_type_id":"4","last_reported":1726665392,"current_range_meters":38800,"station_id":"ce4bhmp2rcd13ifvqgog","pricing_plan_id":"cebpf4jnsgd1na2vs0mg"},{"bike_id":"bacf1473-d122-4286-aebc-e8f2b33bf5ad","system_id":"levelo_inurba_marseille","lat":43.23145,"lon":5.43721,"is_reserved":false,"is_disabled":false,"rental_uris":{"android":"levelo://app?vid=bacf1473-d122-4286-aebc-e8f2b33bf5ad","ios":"levelo://app?vid=bacf1473-d122-4286-aebc-e8f2b33bf5ad"},"vehicle_type_id":"4","last_reported":1726665392,"current_range_meters":38800,"station_id":"ce4bhmp2rcd13ifvqgog","pricing_plan_id":"cebpf4jnsgd1na2vs0mg"},{"bike_id":"89dd2259-b42f-40d1-a0e3-64e7255757c3","system_id":"levelo_inurba_marseille","lat":43.29577,"lon":5.3751,"is_reserved":false,"is_disabled":false,"rental_uris":{"android":"levelo://app?vid=89dd2259-b42f-40d1-a0e3-64e7255757c3","ios":"levelo://app?vid=89dd2259-b42f-40d1-a0e3-64e7255757c3"},"vehicle_type_id":"4","last_reported":1726665392,"current_range_meters":9200,"station_id":"ce4bgh92rcd13ifvqb50","pricing_plan_id":"cebpf4jnsgd1na2vs0mg"},{"bike_id":"2d40ac88-8d73-4080-8806-e483867e41ad","system_id":"levelo_inurba_marseille","lat":43.29202,"lon":5.39329,"is_reserved":false,"is_disabled":false,"rental_uris":{"android":"levelo://app?vid=2d40ac88-8d73-4080-8806-e483867e41ad","ios":"levelo://app?vid=2d40ac88-8d73-4080-8806-e483867e41ad"},"vehicle_type_id":"4","last_reported":1726665392,"current_range_meters":6400,"station_id":"ce4bh192rcd13ifvqdd0","pricing_plan_id":"cebpf4jnsgd1na2vs0mg"},{"bike_id":"8e4a7868-c507-4412-811a-2bbd93275fec","system_id":"levelo_inurba_marseille","lat":43.30179,"lon":5.37997,"is_reserved":false,"is_disabled":false,"rental_uris":{"android":"levelo://app?vid=8e4a7868-c507-4412-811a-2bbd93275fec","ios":"levelo://app?vid=8e4a7868-c507-4412-811a-2bbd93275fec"},"vehicle_type_id":"4","last_reported":1726665392,"current_range_meters":39200,"station_id":"ce4bguh2rcd13ifvqcj0","pricing_plan_id":"cebpf4jnsgd1na2vs0mg"},{"bike_id":"f031733d-11fd-45a8-a4a1-0648317d314f","system_id":"levelo_inurba_marseille","lat":43.29978,"lon":5.37179,"is_reserved":false,"is_disabled":false,"rental_uris":{"android":"levelo://app?vid=f031733d-11fd-45a8-a4a1-0648317d314f","ios":"levelo://app?vid=f031733d-11fd-45a8-a4a1-0648317d314f"},"vehicle_type_id":"4","last_reported":1726665392,"current_range_meters":17600,"station_id":"ce4bgr92rcd13ifvqc7g","pricing_plan_id":"cebpf4jnsgd1na2vs0mg"},{"bike_id":"ff20a395-d804-40b7-85da-5e1c7e0a6757","system_id":"levelo_inurba_marseille","lat":43.29907,"lon":5.38156,"is_reserved":false,"is_disabled":false,"rental_uris":{"android":"levelo://app?vid=ff20a395-d804-40b7-85da-5e1c7e0a6757","ios":"levelo://app?vid=ff20a395-d804-40b7-85da-5e1c7e0a6757"},"vehicle_type_id":"4","last_reported":1726665392,"current_range_meters":34800,"station_id":"ce4bgj12rcd13ifvqbc0","pricing_plan_id":"cebpf4jnsgd1na2vs0mg"},{"bike_id":"6edd95f0-13df-4299-b0cb-80aa821df540","system_id":"levelo_inurba_marseille","lat":43.27316,"lon":5.39092,"is_reserved":false,"is_disabled":false,"rental_uris":{"android":"levelo://app?vid=6edd95f0-13df-4299-b0cb-80aa821df540","ios":"levelo://app?vid=6edd95f0-13df-4299-b0cb-80aa821df540"},"vehicle_type_id":"4","last_reported":1726665392,"current_range_meters":10800,"station_id":"ce4bhgp2rcd13ifvqfe0","pricing_plan_id":"cebpf4jnsgd1na2vs0mg"},{"bike_id":"cf5ceb00-b0e9-466c-b9c2-d80774530805","system_id":"levelo_inurba_marseille","lat":43.29435,"lon":5.39753,"is_reserved":false,"is_disabled":false,"rental_uris":{"android":"levelo://app?vid=cf5ceb00-b0e9-466c-b9c2-d80774530805","ios":"levelo://app?vid=cf5ceb00-b0e9-466c-b9c2-d80774530805"},"vehicle_type_id":"4","last_reported":1726665392,"current_range_meters":12800,"station_id":"ce4bh3h2rcd13ifvqdo0","pricing_plan_id":"cebpf4jnsgd1na2vs0mg"},{"bike_id":"058c3d34-ab9b-4f85-94c1-47b01487dcc2","system_id":"levelo_inurba_marseille","lat":43.28279,"lon":5.35077,"is_reserved":false,"is_disabled":false,"rental_uris":{"android":"levelo://app?vid=058c3d34-ab9b-4f85-94c1-47b01487dcc2","ios":"levelo://app?vid=058c3d34-ab9b-4f85-94c1-47b01487dcc2"},"vehicle_type_id":"4","last_reported":1726665392,"current_range_meters":36800,"station_id":"ce4bhbp2rcd13ifvqerg","pricing_plan_id":"cebpf4jnsgd1na2vs0mg"},{"bike_id":"d1dd23b8-c930-4377-8f81-65bd1d34ef83","system_id":"levelo_inurba_marseille","lat":43.28869,"lon":5.35854,"is_reserved":false,"is_disabled":false,"rental_uris":{"android":"levelo://app?vid=d1dd23b8-c930-4377-8f81-65bd1d34ef83","ios":"levelo://app?vid=d1dd23b8-c930-4377-8f81-65bd1d34ef83"},"vehicle_type_id":"4","last_reported":1726665392,"current_range_meters":12800,"station_id":"ce4bhb12rcd13ifvqem0","pricing_plan_id":"cebpf4jnsgd1na2vs0mg"},{"bike_id":"2afcafd5-16bc-4838-9dac-6077bf1f8287","system_id":"levelo_inurba_marseille","lat":43.30796,"lon":5.38165,"is_reserved":false,"is_disabled":false,"rental_uris":{"android":"levelo://app?vid=2afcafd5-16bc-4838-9dac-6077bf1f8287","ios":"levelo://app?vid=2afcafd5-16bc-4838-9dac-6077bf1f8287"},"vehicle_type_id":"4","last_reported":1726665392,"current_range_meters":17200,"station_id":"ce4bgt12rcd13ifvqce0","pricing_plan_id":"cebpf4jnsgd1na2vs0mg"},{"bike_id":"55b5a4cc-060d-4660-b59a-73a2200a56fb","system_id":"levelo_inurba_marseille","lat":43.2315,"lon":5.43722,"is_reserved":false,"is_disabled":false,"rental_uris":{"android":"levelo://app?vid=55b5a4cc-060d-4660-b59a-73a2200a56fb","ios":"levelo://app?vid=55b5a4cc-060d-4660-b59a-73a2200a56fb"},"vehicle_type_id":"4","last_reported":1726665392,"current_range_meters":16800,"station_id":"ce4bhmp2rcd13ifvqgog","pricing_plan_id":"cebpf4jnsgd1na2vs0mg"},{"bike_id":"8ea6a708-68b1-4611-bdb7-f70a6168e26e","system_id":"levelo_inurba_marseille","lat":43.30318,"lon":5.36895,"is_reserved":false,"is_disabled":false,"rental_uris":{"android":"levelo://app?vid=8ea6a708-68b1-4611-bdb7-f70a6168e26e","ios":"levelo://app?vid=8ea6a708-68b1-4611-bdb7-f70a6168e26e"},"vehicle_type_id":"4","last_reported":1726665392,"current_range_meters":36800,"station_id":"ce4bgqh2rcd13ifvqc5g","pricing_plan_id":"cebpf4jnsgd1na2vs0mg"},{"bike_id":"c7f93bf2-2b30-4c5c-aa72-447b3f4a28ea","system_id":"levelo_inurba_marseille","lat":43.29897,"lon":5.43659,"is_reserved":false,"is_disabled":false,"rental_uris":{"android":"levelo://app?vid=c7f93bf2-2b30-4c5c-aa72-447b3f4a28ea","ios":"levelo://app?vid=c7f93bf2-2b30-4c5c-aa72-447b3f4a28ea"},"vehicle_type_id":"4","last_reported":1726665392,"current_range_meters":3600,"station_id":"ce4bhpp2rcd13ifvqhfg","pricing_plan_id":"cebpf4jnsgd1na2vs0mg"},{"bike_id":"c088ca78-e506-4be0-a800-38de461c324a","system_id":"levelo_inurba_marseille","lat":43.243881,"lon":5.370604,"is_reserved":false,"is_disabled":false,"rental_uris":{"android":"levelo://app?vid=c088ca78-e506-4be0-a800-38de461c324a","ios":"levelo://app?vid=c088ca78-e506-4be0-a800-38de461c324a"},"vehicle_type_id":"4","last_reported":1726665392,"current_range_meters":17200,"station_id":"ce4bhhh2rcd13ifvqfk0","pricing_plan_id":"cebpf4jnsgd1na2vs0mg"},{"bike_id":"ed69e130-7cee-4db1-9e10-0d56961305c9","system_id":"levelo_inurba_marseille","lat":43.24174,"lon":5.3639,"is_reserved":false,"is_disabled":false,"rental_uris":{"android":"levelo://app?vid=ed69e130-7cee-4db1-9e10-0d56961305c9","ios":"levelo://app?vid=ed69e130-7cee-4db1-9e10-0d56961305c9"},"vehicle_type_id":"4","last_reported":1726665392,"current_range_meters":26000,"station_id":"cpo36qri1sfpv3e86is0","pricing_plan_id":"cebpf4jnsgd1na2vs0mg"},{"bike_id":"401bb7ed-0ede-41aa-ab9b-948ce139fb3a","system_id":"levelo_inurba_marseille","lat":43.2907,"lon":5.37155,"is_reserved":false,"is_disabled":false,"rental_uris":{"android":"levelo://app?vid=401bb7ed-0ede-41aa-ab9b-948ce139fb3a","ios":"levelo://app?vid=401bb7ed-0ede-41aa-ab9b-948ce139fb3a"},"vehicle_type_id":"4","last_reported":1726665392,"current_range_meters":4800,"station_id":"ce4bh5p2rcd13ifvqe4g","pricing_plan_id":"cebpf4jnsgd1na2vs0mg"},{"bike_id":"97cbea3b-ab97-498e-a8fc-2789e3b785c9","system_id":"levelo_inurba_marseille","lat":43.31724,"lon":5.424,"is_reserved":false,"is_disabled":false,"rental_uris":{"android":"levelo://app?vid=97cbea3b-ab97-498e-a8fc-2789e3b785c9","ios":"levelo://app?vid=97cbea3b-ab97-498e-a8fc-2789e3b785c9"},"vehicle_type_id":"4","last_reported":1726665392,"current_range_meters":27600,"station_id":"ce4bhp92rcd13ifvqhbg","pricing_plan_id":"cebpf4jnsgd1na2vs0mg"},{"bike_id":"1b5a3615-4988-4982-8b62-9226ed5a66a6","system_id":"levelo_inurba_marseille","lat":43.31344,"lon":5.38293,"is_reserved":false,"is_disabled":false,"rental_uris":{"android":"levelo://app?vid=1b5a3615-4988-4982-8b62-9226ed5a66a6","ios":"levelo://app?vid=1b5a3615-4988-4982-8b62-9226ed5a66a6"},"vehicle_type_id":"4","last_reported":1726665392,"current_range_meters":2800,"station_id":"","pricing_plan_id":"cebpf4jnsgd1na2vs0mg"},{"bike_id":"80d1eb54-6334-4c2f-a160-7e4b5cb79537","system_id":"levelo_inurba_marseille","lat":43.29966,"lon":5.41316,"is_reserved":false,"is_disabled":false,"rental_uris":{"android":"levelo://app?vid=80d1eb54-6334-4c2f-a160-7e4b5cb79537","ios":"levelo://app?vid=80d1eb54-6334-4c2f-a160-7e4b5cb79537"},"vehicle_type_id":"4","last_reported":1726665392,"current_range_meters":35200,"station_id":"ce4bhp12rcd13ifvqh9g","pricing_plan_id":"cebpf4jnsgd1na2vs0mg"},{"bike_id":"2d52ebfd-e4ac-4947-991f-1bc9d18a7024","system_id":"levelo_inurba_marseille","lat":43.265656,"lon":5.394895,"is_reserved":false,"is_disabled":false,"rental_uris":{"android":"levelo://app?vid=2d52ebfd-e4ac-4947-991f-1bc9d18a7024","ios":"levelo://app?vid=2d52ebfd-e4ac-4947-991f-1bc9d18a7024"},"vehicle_type_id":"4","last_reported":1726665392,"current_range_meters":28800,"station_id":"ce4bhi12rcd13ifvqfq0","pricing_plan_id":"cebpf4jnsgd1na2vs0mg"},{"bike_id":"8b27ee08-5654-414a-97b9-6c4fedf8bdfe","system_id":"levelo_inurba_marseille","lat":43.29276,"lon":5.40118,"is_reserved":false,"is_disabled":false,"rental_uris":{"android":"levelo://app?vid=8b27ee08-5654-414a-97b9-6c4fedf8bdfe","ios":"levelo://app?vid=8b27ee08-5654-414a-97b9-6c4fedf8bdfe"},"vehicle_type_id":"4","last_reported":1726665392,"current_range_meters":38000,"station_id":"ce4bh312rcd13ifvqdk0","pricing_plan_id":"cebpf4jnsgd1na2vs0mg"},{"bike_id":"64de88cf-d117-4ffb-a8d7-2bf53095d59c","system_id":"levelo_inurba_marseille","lat":43.32369,"lon":5.38868,"is_reserved":false,"is_disabled":false,"rental_uris":{"android":"levelo://app?vid=64de88cf-d117-4ffb-a8d7-2bf53095d59c","ios":"levelo://app?vid=64de88cf-d117-4ffb-a8d7-2bf53095d59c"},"vehicle_type_id":"4","last_reported":1726665392,"current_range_meters":25600,"station_id":"ce4bhqp2rcd13ifvqhog","pricing_plan_id":"cebpf4jnsgd1na2vs0mg"},{"bike_id":"8abb88fe-b598-4c0e-ad7d-b51d9edb6e78","system_id":"levelo_inurba_marseille","lat":43.28723,"lon":5.3794,"is_reserved":false,"is_disabled":false,"rental_uris":{"android":"levelo://app?vid=8abb88fe-b598-4c0e-ad7d-b51d9edb6e78","ios":"levelo://app?vid=8abb88fe-b598-4c0e-ad7d-b51d9edb6e78"},"vehicle_type_id":"4","last_reported":1726665392,"current_range_meters":11600,"station_id":"ce4bh9p2rcd13ifvqec0","pricing_plan_id":"cebpf4jnsgd1na2vs0mg"},{"bike_id":"b88d8bac-711e-49d2-9eee-8f0f2fcec434","system_id":"levelo_inurba_marseille","lat":43.33024,"lon":5.39046,"is_reserved":false,"is_disabled":false,"rental_uris":{"android":"levelo://app?vid=b88d8bac-711e-49d2-9eee-8f0f2fcec434","ios":"levelo://app?vid=b88d8bac-711e-49d2-9eee-8f0f2fcec434"},"vehicle_type_id":"4","last_reported":1726665392,"current_range_meters":25600,"station_id":"ce4bhr92rcd13ifvqhrg","pricing_plan_id":"cebpf4jnsgd1na2vs0mg"},{"bike_id":"bc1e210e-3de2-4ffb-8c8c-6c70178cad8b","system_id":"levelo_inurba_marseille","lat":43.24392,"lon":5.37054,"is_reserved":false,"is_disabled":false,"rental_uris":{"android":"levelo://app?vid=bc1e210e-3de2-4ffb-8c8c-6c70178cad8b","ios":"levelo://app?vid=bc1e210e-3de2-4ffb-8c8c-6c70178cad8b"},"vehicle_type_id":"4","last_reported":1726665392,"current_range_meters":28000,"station_id":"ce4bhhh2rcd13ifvqfk0","pricing_plan_id":"cebpf4jnsgd1na2vs0mg"},{"bike_id":"51c8f926-dd42-4188-8ae9-9d5cbb2f7e71","system_id":"levelo_inurba_marseille","lat":43.24179,"lon":5.39728,"is_reserved":false,"is_disabled":false,"rental_uris":{"android":"levelo://app?vid=51c8f926-dd42-4188-8ae9-9d5cbb2f7e71","ios":"levelo://app?vid=51c8f926-dd42-4188-8ae9-9d5cbb2f7e71"},"vehicle_type_id":"4","last_reported":1726665392,"current_range_meters":19200,"station_id":"ce4bhn12rcd13ifvqgpg","pricing_plan_id":"cebpf4jnsgd1na2vs0mg"},{"bike_id":"2e2254f6-d3ed-4277-af5f-ee204e464f40","system_id":"levelo_inurba_marseille","lat":43.29949,"lon":5.41318,"is_reserved":false,"is_disabled":false,"rental_uris":{"android":"levelo://app?vid=2e2254f6-d3ed-4277-af5f-ee204e464f40","ios":"levelo://app?vid=2e2254f6-d3ed-4277-af5f-ee204e464f40"},"vehicle_type_id":"4","last_reported":1726665392,"current_range_meters":35200,"station_id":"ce4bhp12rcd13ifvqh9g","pricing_plan_id":"cebpf4jnsgd1na2vs0mg"},{"bike_id":"fec5e1d4-a494-4b7c-a879-ec895a3d4d47","system_id":"levelo_inurba_marseille","lat":43.29899,"lon":5.4367,"is_reserved":false,"is_disabled":false,"rental_uris":{"android":"levelo://app?vid=fec5e1d4-a494-4b7c-a879-ec895a3d4d47","ios":"levelo://app?vid=fec5e1d4-a494-4b7c-a879-ec895a3d4d47"},"vehicle_type_id":"4","last_reported":1726665392,"current_range_meters":9600,"station_id":"ce4bhpp2rcd13ifvqhfg","pricing_plan_id":"cebpf4jnsgd1na2vs0mg"},{"bike_id":"52821215-7aa1-4d53-b2d6-f514391eb788","system_id":"levelo_inurba_marseille","lat":43.33758,"lon":5.37456,"is_reserved":false,"is_disabled":false,"rental_uris":{"android":"levelo://app?vid=52821215-7aa1-4d53-b2d6-f514391eb788","ios":"levelo://app?vid=52821215-7aa1-4d53-b2d6-f514391eb788"},"vehicle_type_id":"4","last_reported":1726665392,"current_range_meters":37600,"station_id":"","pricing_plan_id":"cebpf4jnsgd1na2vs0mg"},{"bike_id":"8cb592d9-f82f-4171-894f-8d7ffa6525e5","system_id":"levelo_inurba_marseille","lat":43.23197,"lon":5.35543,"is_reserved":false,"is_disabled":false,"rental_uris":{"android":"levelo://app?vid=8cb592d9-f82f-4171-894f-8d7ffa6525e5","ios":"levelo://app?vid=8cb592d9-f82f-4171-894f-8d7ffa6525e5"},"vehicle_type_id":"4","last_reported":1726665392,"current_range_meters":13600,"station_id":"ce4bhu92rcd13ifvqi70","pricing_plan_id":"cebpf4jnsgd1na2vs0mg"},{"bike_id":"79cad5b6-9cb0-4262-b39c-374cdf1c25d1","system_id":"levelo_inurba_marseille","lat":43.32488,"lon":5.36556,"is_reserved":false,"is_disabled":false,"rental_uris":{"android":"levelo://app?vid=79cad5b6-9cb0-4262-b39c-374cdf1c25d1","ios":"levelo://app?vid=79cad5b6-9cb0-4262-b39c-374cdf1c25d1"},"vehicle_type_id":"4","last_reported":1726665392,"current_range_meters":38000,"station_id":"ce4bhs12rcd13ifvqhvg","pricing_plan_id":"cebpf4jnsgd1na2vs0mg"},{"bike_id":"dcbedd00-18b1-4f8f-a1d1-66bb80031232","system_id":"levelo_inurba_marseille","lat":43.337444,"lon":5.374475,"is_reserved":false,"is_disabled":false,"rental_uris":{"android":"levelo://app?vid=dcbedd00-18b1-4f8f-a1d1-66bb80031232","ios":"levelo://app?vid=dcbedd00-18b1-4f8f-a1d1-66bb80031232"},"vehicle_type_id":"4","last_reported":1726665392,"current_range_meters":17200,"station_id":"ce4bh392rcd13ifvqdl0","pricing_plan_id":"cebpf4jnsgd1na2vs0mg"},{"bike_id":"daac9658-a567-45fc-b39b-75f2a37ae17b","system_id":"levelo_inurba_marseille","lat":43.293671,"lon":5.378553,"is_reserved":false,"is_disabled":false,"rental_uris":{"android":"levelo://app?vid=daac9658-a567-45fc-b39b-75f2a37ae17b","ios":"levelo://app?vid=daac9658-a567-45fc-b39b-75f2a37ae17b"},"vehicle_type_id":"4","last_reported":1726665392,"current_range_meters":28800,"station_id":"ce4bhh12rcd13ifvqfg0","pricing_plan_id":"cebpf4jnsgd1na2vs0mg"},{"bike_id":"50711cd9-7a0c-42fc-8734-da6691f6e84e","system_id":"levelo_inurba_marseille","lat":43.31326,"lon":5.39692,"is_reserved":false,"is_disabled":false,"rental_uris":{"android":"levelo://app?vid=50711cd9-7a0c-42fc-8734-da6691f6e84e","ios":"levelo://app?vid=50711cd9-7a0c-42fc-8734-da6691f6e84e"},"vehicle_type_id":"4","last_reported":1726665392,"current_range_meters":29600,"station_id":"ce4bgvp2rcd13ifvqcu0","pricing_plan_id":"cebpf4jnsgd1na2vs0mg"},{"bike_id":"c3bcca86-6294-4639-9d07-9722d40f464e","system_id":"levelo_inurba_marseille","lat":43.29899,"lon":5.43669,"is_reserved":false,"is_disabled":false,"rental_uris":{"android":"levelo://app?vid=c3bcca86-6294-4639-9d07-9722d40f464e","ios":"levelo://app?vid=c3bcca86-6294-4639-9d07-9722d40f464e"},"vehicle_type_id":"4","last_reported":1726665392,"current_range_meters":22800,"station_id":"ce4bhpp2rcd13ifvqhfg","pricing_plan_id":"cebpf4jnsgd1na2vs0mg"},{"bike_id":"cbf6fabe-a2b0-42a3-a005-12c7918c07ed","system_id":"levelo_inurba_marseille","lat":43.24803,"lon":5.37456,"is_reserved":false,"is_disabled":false,"rental_uris":{"android":"levelo://app?vid=cbf6fabe-a2b0-42a3-a005-12c7918c07ed","ios":"levelo://app?vid=cbf6fabe-a2b0-42a3-a005-12c7918c07ed"},"vehicle_type_id":"4","last_reported":1726665392,"current_range_meters":38000,"station_id":"ce4bhgh2rcd13ifvqfb0","pricing_plan_id":"cebpf4jnsgd1na2vs0mg"},{"bike_id":"fa77e604-95b4-476d-a30f-499c3aaf710d","system_id":"levelo_inurba_marseille","lat":43.33727,"lon":5.39174,"is_reserved":false,"is_disabled":false,"rental_uris":{"android":"levelo://app?vid=fa77e604-95b4-476d-a30f-499c3aaf710d","ios":"levelo://app?vid=fa77e604-95b4-476d-a30f-499c3aaf710d"},"vehicle_type_id":"4","last_reported":1726665392,"current_range_meters":14000,"station_id":"ce4bhr92rcd13ifvqhsg","pricing_plan_id":"cebpf4jnsgd1na2vs0mg"},{"bike_id":"d35e1a72-b703-49bc-bba6-f5de9c5fd6a8","system_id":"levelo_inurba_marseille","lat":43.33024,"lon":5.39035,"is_reserved":false,"is_disabled":false,"rental_uris":{"android":"levelo://app?vid=d35e1a72-b703-49bc-bba6-f5de9c5fd6a8","ios":"levelo://app?vid=d35e1a72-b703-49bc-bba6-f5de9c5fd6a8"},"vehicle_type_id":"4","last_reported":1726665392,"current_range_meters":24000,"station_id":"ce4bhr92rcd13ifvqhrg","pricing_plan_id":"cebpf4jnsgd1na2vs0mg"},{"bike_id":"49657d62-db54-45ba-a646-dd08938bc774","system_id":"levelo_inurba_marseille","lat":43.28947,"lon":5.36634,"is_reserved":false,"is_disabled":false,"rental_uris":{"android":"levelo://app?vid=49657d62-db54-45ba-a646-dd08938bc774","ios":"levelo://app?vid=49657d62-db54-45ba-a646-dd08938bc774"},"vehicle_type_id":"4","last_reported":1726665392,"current_range_meters":38000,"station_id":"ce4bhap2rcd13ifvqek0","pricing_plan_id":"cebpf4jnsgd1na2vs0mg"},{"bike_id":"52bb5161-6fa7-47bd-ad66-ccdab8ddd529","system_id":"levelo_inurba_marseille","lat":43.31184,"lon":5.38707,"is_reserved":false,"is_disabled":false,"rental_uris":{"android":"levelo://app?vid=52bb5161-6fa7-47bd-ad66-ccdab8ddd529","ios":"levelo://app?vid=52bb5161-6fa7-47bd-ad66-ccdab8ddd529"},"vehicle_type_id":"4","last_reported":1726665392,"current_range_meters":11600,"station_id":"ce4bgv12rcd13ifvqcp0","pricing_plan_id":"cebpf4jnsgd1na2vs0mg"},{"bike_id":"32a92804-3d11-4cfc-ab0f-97030bbe2d9d","system_id":"levelo_inurba_marseille","lat":43.2511,"lon":5.40323,"is_reserved":false,"is_disabled":false,"rental_uris":{"android":"levelo://app?vid=32a92804-3d11-4cfc-ab0f-97030bbe2d9d","ios":"levelo://app?vid=32a92804-3d11-4cfc-ab0f-97030bbe2d9d"},"vehicle_type_id":"4","last_reported":1726665392,"current_range_meters":36000,"station_id":"ce4bhlh2rcd13ifvqgig","pricing_plan_id":"cebpf4jnsgd1na2vs0mg"},{"bike_id":"5304ed70-fad3-470c-b0c3-63f08a2a0a36","system_id":"levelo_inurba_marseille","lat":43.3133,"lon":5.39687,"is_reserved":false,"is_disabled":false,"rental_uris":{"android":"levelo://app?vid=5304ed70-fad3-470c-b0c3-63f08a2a0a36","ios":"levelo://app?vid=5304ed70-fad3-470c-b0c3-63f08a2a0a36"},"vehicle_type_id":"4","last_reported":1726665392,"current_range_meters":19200,"station_id":"ce4bgvp2rcd13ifvqcu0","pricing_plan_id":"cebpf4jnsgd1na2vs0mg"},{"bike_id":"831d5676-4af0-48a7-9ebd-2f035cf862a2","system_id":"levelo_inurba_marseille","lat":43.249512,"lon":5.389974,"is_reserved":false,"is_disabled":false,"rental_uris":{"android":"levelo://app?vid=831d5676-4af0-48a7-9ebd-2f035cf862a2","ios":"levelo://app?vid=831d5676-4af0-48a7-9ebd-2f035cf862a2"},"vehicle_type_id":"4","last_reported":1726665392,"current_range_meters":33200,"station_id":"","pricing_plan_id":"cebpf4jnsgd1na2vs0mg"},{"bike_id":"b5cc06aa-fd0a-4f16-9512-cc0ee529c93f","system_id":"levelo_inurba_marseille","lat":43.23153,"lon":5.43717,"is_reserved":false,"is_disabled":false,"rental_uris":{"android":"levelo://app?vid=b5cc06aa-fd0a-4f16-9512-cc0ee529c93f","ios":"levelo://app?vid=b5cc06aa-fd0a-4f16-9512-cc0ee529c93f"},"vehicle_type_id":"4","last_reported":1726665392,"current_range_meters":24800,"station_id":"ce4bhmp2rcd13ifvqgog","pricing_plan_id":"cebpf4jnsgd1na2vs0mg"},{"bike_id":"9aa3dd11-6369-4a9d-9f79-57070453f318","system_id":"levelo_inurba_marseille","lat":43.29022,"lon":5.38129,"is_reserved":false,"is_disabled":false,"rental_uris":{"android":"levelo://app?vid=9aa3dd11-6369-4a9d-9f79-57070453f318","ios":"levelo://app?vid=9aa3dd11-6369-4a9d-9f79-57070453f318"},"vehicle_type_id":"4","last_reported":1726665392,"current_range_meters":18000,"station_id":"ce4bh4p2rcd13ifvqe1g","pricing_plan_id":"cebpf4jnsgd1na2vs0mg"},{"bike_id":"114229ed-7b50-4ac0-9fe6-068c1288e4e5","system_id":"levelo_inurba_marseille","lat":43.24162,"lon":5.36397,"is_reserved":false,"is_disabled":false,"rental_uris":{"android":"levelo://app?vid=114229ed-7b50-4ac0-9fe6-068c1288e4e5","ios":"levelo://app?vid=114229ed-7b50-4ac0-9fe6-068c1288e4e5"},"vehicle_type_id":"4","last_reported":1726665392,"current_range_meters":26000,"station_id":"cpo36qri1sfpv3e86is0","pricing_plan_id":"cebpf4jnsgd1na2vs0mg"},{"bike_id":"14e9527e-f89e-4f54-89ab-2a7154c3c673","system_id":"levelo_inurba_marseille","lat":43.26202,"lon":5.37932,"is_reserved":false,"is_disabled":false,"rental_uris":{"android":"levelo://app?vid=14e9527e-f89e-4f54-89ab-2a7154c3c673","ios":"levelo://app?vid=14e9527e-f89e-4f54-89ab-2a7154c3c673"},"vehicle_type_id":"4","last_reported":1726665392,"current_range_meters":35600,"station_id":"ce4bhjp2rcd13ifvqg90","pricing_plan_id":"cebpf4jnsgd1na2vs0mg"},{"bike_id":"d0d8fbfa-4de4-42a7-9832-5e25d5f2fdfb","system_id":"levelo_inurba_marseille","lat":43.30534,"lon":5.3654,"is_reserved":false,"is_disabled":false,"rental_uris":{"android":"levelo://app?vid=d0d8fbfa-4de4-42a7-9832-5e25d5f2fdfb","ios":"levelo://app?vid=d0d8fbfa-4de4-42a7-9832-5e25d5f2fdfb"},"vehicle_type_id":"4","last_reported":1726665392,"current_range_meters":36000,"station_id":"ce4bgs12rcd13ifvqcag","pricing_plan_id":"cebpf4jnsgd1na2vs0mg"},{"bike_id":"b219d16d-06d2-41e0-8b61-a94a76596f65","system_id":"levelo_inurba_marseille","lat":43.292694,"lon":5.384303,"is_reserved":false,"is_disabled":false,"rental_uris":{"android":"levelo://app?vid=b219d16d-06d2-41e0-8b61-a94a76596f65","ios":"levelo://app?vid=b219d16d-06d2-41e0-8b61-a94a76596f65"},"vehicle_type_id":"4","last_reported":1726665392,"current_range_meters":6000,"station_id":"ce4bh392rcd13ifvqdl0","pricing_plan_id":"cebpf4jnsgd1na2vs0mg"},{"bike_id":"7a1aefa5-3f47-4fb6-b298-3120a02f47d7","system_id":"levelo_inurba_marseille","lat":43.32477,"lon":5.3657,"is_reserved":false,"is_disabled":false,"rental_uris":{"android":"levelo://app?vid=7a1aefa5-3f47-4fb6-b298-3120a02f47d7","ios":"levelo://app?vid=7a1aefa5-3f47-4fb6-b298-3120a02f47d7"},"vehicle_type_id":"4","last_reported":1726665392,"current_range_meters":36400,"station_id":"ce4bhs12rcd13ifvqhvg","pricing_plan_id":"cebpf4jnsgd1na2vs0mg"},{"bike_id":"587f008d-d0b2-4aae-89b7-0126ac787b92","system_id":"levelo_inurba_marseille","lat":43.29703,"lon":5.3769,"is_reserved":false,"is_disabled":false,"rental_uris":{"android":"levelo://app?vid=587f008d-d0b2-4aae-89b7-0126ac787b92","ios":"levelo://app?vid=587f008d-d0b2-4aae-89b7-0126ac787b92"},"vehicle_type_id":"4","last_reported":1726665392,"current_range_meters":400,"station_id":"ce4bgkh2rcd13ifvqbl0","pricing_plan_id":"cebpf4jnsgd1na2vs0mg"},{"bike_id":"268cabf4-347e-4268-b4f7-a9bd5142bb97","system_id":"levelo_inurba_marseille","lat":43.30138,"lon":5.3879,"is_reserved":false,"is_disabled":false,"rental_uris":{"android":"levelo://app?vid=268cabf4-347e-4268-b4f7-a9bd5142bb97","ios":"levelo://app?vid=268cabf4-347e-4268-b4f7-a9bd5142bb97"},"vehicle_type_id":"4","last_reported":1726665392,"current_range_meters":9600,"station_id":"ce4bghh2rcd13ifvqb60","pricing_plan_id":"cebpf4jnsgd1na2vs0mg"},{"bike_id":"e2f93157-dea0-45a5-82f3-6b3f12ad379f","system_id":"levelo_inurba_marseille","lat":43.28033,"lon":5.36939,"is_reserved":false,"is_disabled":false,"rental_uris":{"android":"levelo://app?vid=e2f93157-dea0-45a5-82f3-6b3f12ad379f","ios":"levelo://app?vid=e2f93157-dea0-45a5-82f3-6b3f12ad379f"},"vehicle_type_id":"4","last_reported":1726665392,"current_range_meters":30800,"station_id":"ce4bha12rcd13ifvqef0","pricing_plan_id":"cebpf4jnsgd1na2vs0mg"},{"bike_id":"cfc33a31-06b3-46df-930b-5e8714e12ab4","system_id":"levelo_inurba_marseille","lat":43.337444,"lon":5.374475,"is_reserved":false,"is_disabled":false,"rental_uris":{"android":"levelo://app?vid=cfc33a31-06b3-46df-930b-5e8714e12ab4","ios":"levelo://app?vid=cfc33a31-06b3-46df-930b-5e8714e12ab4"},"vehicle_type_id":"4","last_reported":1726665392,"current_range_meters":24000,"station_id":"ce4bgvp2rcd13ifvqct0","pricing_plan_id":"cebpf4jnsgd1na2vs0mg"},{"bike_id":"d9f3cceb-5ff0-42f2-93e8-4c6642a30f78","system_id":"levelo_inurba_marseille","lat":43.29961,"lon":5.41321,"is_reserved":false,"is_disabled":false,"rental_uris":{"android":"levelo://app?vid=d9f3cceb-5ff0-42f2-93e8-4c6642a30f78","ios":"levelo://app?vid=d9f3cceb-5ff0-42f2-93e8-4c6642a30f78"},"vehicle_type_id":"4","last_reported":1726665392,"current_range_meters":21600,"station_id":"ce4bhp12rcd13ifvqh9g","pricing_plan_id":"cebpf4jnsgd1na2vs0mg"},{"bike_id":"b645ac77-0d58-4fa9-8ad3-947af8bdb1d9","system_id":"levelo_inurba_marseille","lat":43.29903,"lon":5.43678,"is_reserved":false,"is_disabled":false,"rental_uris":{"android":"levelo://app?vid=b645ac77-0d58-4fa9-8ad3-947af8bdb1d9","ios":"levelo://app?vid=b645ac77-0d58-4fa9-8ad3-947af8bdb1d9"},"vehicle_type_id":"4","last_reported":1726665392,"current_range_meters":19200,"station_id":"ce4bhpp2rcd13ifvqhfg","pricing_plan_id":"cebpf4jnsgd1na2vs0mg"},{"bike_id":"cd6107b4-a068-4447-bfdc-759cacaba457","system_id":"levelo_inurba_marseille","lat":43.2962,"lon":5.37721,"is_reserved":false,"is_disabled":false,"rental_uris":{"android":"levelo://app?vid=cd6107b4-a068-4447-bfdc-759cacaba457","ios":"levelo://app?vid=cd6107b4-a068-4447-bfdc-759cacaba457"},"vehicle_type_id":"4","last_reported":1726665392,"current_range_meters":7200,"station_id":"ce4bgi92rcd13ifvqb90","pricing_plan_id":"cebpf4jnsgd1na2vs0mg"},{"bike_id":"6aa19938-3994-4506-9417-669b864c1e4e","system_id":"levelo_inurba_marseille","lat":43.29312,"lon":5.38007,"is_reserved":false,"is_disabled":false,"rental_uris":{"android":"levelo://app?vid=6aa19938-3994-4506-9417-669b864c1e4e","ios":"levelo://app?vid=6aa19938-3994-4506-9417-669b864c1e4e"},"vehicle_type_id":"4","last_reported":1726665392,"current_range_meters":37600,"station_id":"","pricing_plan_id":"cebpf4jnsgd1na2vs0mg"},{"bike_id":"55fed244-caf4-46e6-99fc-fcd916ddb5b7","system_id":"levelo_inurba_marseille","lat":43.23207,"lon":5.35544,"is_reserved":false,"is_disabled":false,"rental_uris":{"android":"levelo://app?vid=55fed244-caf4-46e6-99fc-fcd916ddb5b7","ios":"levelo://app?vid=55fed244-caf4-46e6-99fc-fcd916ddb5b7"},"vehicle_type_id":"4","last_reported":1726665392,"current_range_meters":24800,"station_id":"ce4bhu92rcd13ifvqi70","pricing_plan_id":"cebpf4jnsgd1na2vs0mg"},{"bike_id":"2821bd5e-f2cc-464c-a98c-3e36c986cc0e","system_id":"levelo_inurba_marseille","lat":43.25933,"lon":5.40915,"is_reserved":false,"is_disabled":false,"rental_uris":{"android":"levelo://app?vid=2821bd5e-f2cc-464c-a98c-3e36c986cc0e","ios":"levelo://app?vid=2821bd5e-f2cc-464c-a98c-3e36c986cc0e"},"vehicle_type_id":"4","last_reported":1726665392,"current_range_meters":35600,"station_id":"ce4bhm92rcd13ifvqglg","pricing_plan_id":"cebpf4jnsgd1na2vs0mg"},{"bike_id":"99bb09c0-50a1-4277-8d30-97fbdff3a4ea","system_id":"levelo_inurba_marseille","lat":43.297076,"lon":5.366041,"is_reserved":false,"is_disabled":false,"rental_uris":{"android":"levelo://app?vid=99bb09c0-50a1-4277-8d30-97fbdff3a4ea","ios":"levelo://app?vid=99bb09c0-50a1-4277-8d30-97fbdff3a4ea"},"vehicle_type_id":"4","last_reported":1726665392,"current_range_meters":36400,"station_id":"ce4bgn12rcd13ifvqbt0","pricing_plan_id":"cebpf4jnsgd1na2vs0mg"},{"bike_id":"8ceb5aea-b40e-4dad-98b0-1dcabb72c74a","system_id":"levelo_inurba_marseille","lat":43.318,"lon":5.38373,"is_reserved":false,"is_disabled":false,"rental_uris":{"android":"levelo://app?vid=8ceb5aea-b40e-4dad-98b0-1dcabb72c74a","ios":"levelo://app?vid=8ceb5aea-b40e-4dad-98b0-1dcabb72c74a"},"vehicle_type_id":"4","last_reported":1726665392,"current_range_meters":26000,"station_id":"ce4bhr12rcd13ifvqhpg","pricing_plan_id":"cebpf4jnsgd1na2vs0mg"},{"bike_id":"b25232db-c485-4e9c-a2f6-4acc0677bc78","system_id":"levelo_inurba_marseille","lat":43.23147,"lon":5.43715,"is_reserved":false,"is_disabled":false,"rental_uris":{"android":"levelo://app?vid=b25232db-c485-4e9c-a2f6-4acc0677bc78","ios":"levelo://app?vid=b25232db-c485-4e9c-a2f6-4acc0677bc78"},"vehicle_type_id":"4","last_reported":1726665392,"current_range_meters":38800,"station_id":"ce4bhmp2rcd13ifvqgog","pricing_plan_id":"cebpf4jnsgd1na2vs0mg"},{"bike_id":"46adbd2a-fcc4-4add-83ea-df01d460c8ab","system_id":"levelo_inurba_marseille","lat":43.291688,"lon":5.371671,"is_reserved":false,"is_disabled":false,"rental_uris":{"android":"levelo://app?vid=46adbd2a-fcc4-4add-83ea-df01d460c8ab","ios":"levelo://app?vid=46adbd2a-fcc4-4add-83ea-df01d460c8ab"},"vehicle_type_id":"4","last_reported":1726665392,"current_range_meters":16400,"station_id":"ce4bha92rcd13ifvqeh0","pricing_plan_id":"cebpf4jnsgd1na2vs0mg"},{"bike_id":"632b114e-6588-46dc-a673-34df3d9cb81c","system_id":"levelo_inurba_marseille","lat":43.27907,"lon":5.38011,"is_reserved":false,"is_disabled":false,"rental_uris":{"android":"levelo://app?vid=632b114e-6588-46dc-a673-34df3d9cb81c","ios":"levelo://app?vid=632b114e-6588-46dc-a673-34df3d9cb81c"},"vehicle_type_id":"4","last_reported":1726665392,"current_range_meters":30400,"station_id":"ce4bhf92rcd13ifvqf50","pricing_plan_id":"cebpf4jnsgd1na2vs0mg"},{"bike_id":"677498c9-746b-4650-9a8e-2c7479635944","system_id":"levelo_inurba_marseille","lat":43.33023,"lon":5.39047,"is_reserved":false,"is_disabled":false,"rental_uris":{"android":"levelo://app?vid=677498c9-746b-4650-9a8e-2c7479635944","ios":"levelo://app?vid=677498c9-746b-4650-9a8e-2c7479635944"},"vehicle_type_id":"4","last_reported":1726665392,"current_range_meters":15200,"station_id":"ce4bhr92rcd13ifvqhrg","pricing_plan_id":"cebpf4jnsgd1na2vs0mg"},{"bike_id":"ed645ef0-83f1-4699-9183-8201b34b05b0","system_id":"levelo_inurba_marseille","lat":43.32298,"lon":5.38255,"is_reserved":false,"is_disabled":false,"rental_uris":{"android":"levelo://app?vid=ed645ef0-83f1-4699-9183-8201b34b05b0","ios":"levelo://app?vid=ed645ef0-83f1-4699-9183-8201b34b05b0"},"vehicle_type_id":"4","last_reported":1726665392,"current_range_meters":9600,"station_id":"ce4bhr12rcd13ifvqhqg","pricing_plan_id":"cebpf4jnsgd1na2vs0mg"},{"bike_id":"2bbcdf41-9b43-45e1-bf99-77a3ace1dc9e","system_id":"levelo_inurba_marseille","lat":43.27617,"lon":5.36103,"is_reserved":false,"is_disabled":false,"rental_uris":{"android":"levelo://app?vid=2bbcdf41-9b43-45e1-bf99-77a3ace1dc9e","ios":"levelo://app?vid=2bbcdf41-9b43-45e1-bf99-77a3ace1dc9e"},"vehicle_type_id":"4","last_reported":1726665392,"current_range_meters":32800,"station_id":"ce4bgj92rcd13ifvqbe0","pricing_plan_id":"cebpf4jnsgd1na2vs0mg"},{"bike_id":"146e6250-0b7a-4114-a56e-6a37e84ca3ea","system_id":"levelo_inurba_marseille","lat":43.23182,"lon":5.39983,"is_reserved":false,"is_disabled":false,"rental_uris":{"android":"levelo://app?vid=146e6250-0b7a-4114-a56e-6a37e84ca3ea","ios":"levelo://app?vid=146e6250-0b7a-4114-a56e-6a37e84ca3ea"},"vehicle_type_id":"4","last_reported":1726665392,"current_range_meters":6800,"station_id":"ce4bhn12rcd13ifvqgqg","pricing_plan_id":"cebpf4jnsgd1na2vs0mg"},{"bike_id":"7b7f2a60-6042-4213-8f97-740496aa79ef","system_id":"levelo_inurba_marseille","lat":43.29565,"lon":5.37505,"is_reserved":false,"is_disabled":false,"rental_uris":{"android":"levelo://app?vid=7b7f2a60-6042-4213-8f97-740496aa79ef","ios":"levelo://app?vid=7b7f2a60-6042-4213-8f97-740496aa79ef"},"vehicle_type_id":"4","last_reported":1726665392,"current_range_meters":11600,"station_id":"ce4bgh92rcd13ifvqb50","pricing_plan_id":"cebpf4jnsgd1na2vs0mg"},{"bike_id":"edcb7831-5f93-4381-9cdb-bf2cddba3298","system_id":"levelo_inurba_marseille","lat":43.26682,"lon":5.38264,"is_reserved":false,"is_disabled":false,"rental_uris":{"android":"levelo://app?vid=edcb7831-5f93-4381-9cdb-bf2cddba3298","ios":"levelo://app?vid=edcb7831-5f93-4381-9cdb-bf2cddba3298"},"vehicle_type_id":"4","last_reported":1726665392,"current_range_meters":32400,"station_id":"ce4bhg92rcd13ifvqf90","pricing_plan_id":"cebpf4jnsgd1na2vs0mg"},{"bike_id":"83b487bb-5554-4b94-a40e-3abba8c26f6e","system_id":"levelo_inurba_marseille","lat":43.25871,"lon":5.39897,"is_reserved":false,"is_disabled":false,"rental_uris":{"android":"levelo://app?vid=83b487bb-5554-4b94-a40e-3abba8c26f6e","ios":"levelo://app?vid=83b487bb-5554-4b94-a40e-3abba8c26f6e"},"vehicle_type_id":"4","last_reported":1726665392,"current_range_meters":36400,"station_id":"ce4bhl92rcd13ifvqghg","pricing_plan_id":"cebpf4jnsgd1na2vs0mg"},{"bike_id":"293566fc-fae3-4dfc-95ea-1b0a44411439","system_id":"levelo_inurba_marseille","lat":43.30529,"lon":5.38425,"is_reserved":false,"is_disabled":false,"rental_uris":{"android":"levelo://app?vid=293566fc-fae3-4dfc-95ea-1b0a44411439","ios":"levelo://app?vid=293566fc-fae3-4dfc-95ea-1b0a44411439"},"vehicle_type_id":"4","last_reported":1726665392,"current_range_meters":32800,"station_id":"ce4bgg92rcd13ifvqb30","pricing_plan_id":"cebpf4jnsgd1na2vs0mg"},{"bike_id":"6be1ae64-2d87-494f-90f6-615f1222b6b5","system_id":"levelo_inurba_marseille","lat":43.318359,"lon":5.379464,"is_reserved":false,"is_disabled":false,"rental_uris":{"android":"levelo://app?vid=6be1ae64-2d87-494f-90f6-615f1222b6b5","ios":"levelo://app?vid=6be1ae64-2d87-494f-90f6-615f1222b6b5"},"vehicle_type_id":"4","last_reported":1726665392,"current_range_meters":24400,"station_id":"ce4bhr92rcd13ifvqhrg","pricing_plan_id":"cebpf4jnsgd1na2vs0mg"},{"bike_id":"7d895f65-47a7-441d-bb03-634e99cf6305","system_id":"levelo_inurba_marseille","lat":43.29719,"lon":5.37692,"is_reserved":false,"is_disabled":false,"rental_uris":{"android":"levelo://app?vid=7d895f65-47a7-441d-bb03-634e99cf6305","ios":"levelo://app?vid=7d895f65-47a7-441d-bb03-634e99cf6305"},"vehicle_type_id":"4","last_reported":1726665392,"current_range_meters":30000,"station_id":"ce4bgkh2rcd13ifvqbl0","pricing_plan_id":"cebpf4jnsgd1na2vs0mg"},{"bike_id":"c15aa3fd-98e2-4626-9898-f7b552b334fa","system_id":"levelo_inurba_marseille","lat":43.337444,"lon":5.374475,"is_reserved":false,"is_disabled":false,"rental_uris":{"android":"levelo://app?vid=c15aa3fd-98e2-4626-9898-f7b552b334fa","ios":"levelo://app?vid=c15aa3fd-98e2-4626-9898-f7b552b334fa"},"vehicle_type_id":"4","last_reported":1726665392,"current_range_meters":30800,"station_id":"chh1huq6cuj3fo74tm60","pricing_plan_id":"cebpf4jnsgd1na2vs0mg"},{"bike_id":"ff34be2f-50fa-46bd-81a4-74436b7c8c0f","system_id":"levelo_inurba_marseille","lat":43.337444,"lon":5.374475,"is_reserved":false,"is_disabled":false,"rental_uris":{"android":"levelo://app?vid=ff34be2f-50fa-46bd-81a4-74436b7c8c0f","ios":"levelo://app?vid=ff34be2f-50fa-46bd-81a4-74436b7c8c0f"},"vehicle_type_id":"4","last_reported":1726665392,"current_range_meters":37600,"station_id":"ce4bh392rcd13ifvqdl0","pricing_plan_id":"cebpf4jnsgd1na2vs0mg"},{"bike_id":"2df883fd-d247-4085-a279-31959a3690d8","system_id":"levelo_inurba_marseille","lat":43.30541,"lon":5.36704,"is_reserved":false,"is_disabled":false,"rental_uris":{"android":"levelo://app?vid=2df883fd-d247-4085-a279-31959a3690d8","ios":"levelo://app?vid=2df883fd-d247-4085-a279-31959a3690d8"},"vehicle_type_id":"4","last_reported":1726665392,"current_range_meters":38000,"station_id":"ce4bgrp2rcd13ifvqc9g","pricing_plan_id":"cebpf4jnsgd1na2vs0mg"},{"bike_id":"af15b34b-0a1b-4f05-9975-d29c112ecf5a","system_id":"levelo_inurba_marseille","lat":43.26549,"lon":5.37287,"is_reserved":false,"is_disabled":false,"rental_uris":{"android":"levelo://app?vid=af15b34b-0a1b-4f05-9975-d29c112ecf5a","ios":"levelo://app?vid=af15b34b-0a1b-4f05-9975-d29c112ecf5a"},"vehicle_type_id":"4","last_reported":1726665392,"current_range_meters":32800,"station_id":"ce4bhg12rcd13ifvqf70","pricing_plan_id":"cebpf4jnsgd1na2vs0mg"},{"bike_id":"99684f50-b398-427b-a4e9-7ca0a0382c79","system_id":"levelo_inurba_marseille","lat":43.23195,"lon":5.35547,"is_reserved":false,"is_disabled":false,"rental_uris":{"android":"levelo://app?vid=99684f50-b398-427b-a4e9-7ca0a0382c79","ios":"levelo://app?vid=99684f50-b398-427b-a4e9-7ca0a0382c79"},"vehicle_type_id":"4","last_reported":1726665392,"current_range_meters":38800,"station_id":"ce4bhu92rcd13ifvqi70","pricing_plan_id":"cebpf4jnsgd1na2vs0mg"},{"bike_id":"8e7eb320-bd3c-4cd1-a960-36243d456918","system_id":"levelo_inurba_marseille","lat":43.30548,"lon":5.36534,"is_reserved":false,"is_disabled":false,"rental_uris":{"android":"levelo://app?vid=8e7eb320-bd3c-4cd1-a960-36243d456918","ios":"levelo://app?vid=8e7eb320-bd3c-4cd1-a960-36243d456918"},"vehicle_type_id":"4","last_reported":1726665392,"current_range_meters":30800,"station_id":"ce4bgs12rcd13ifvqcag","pricing_plan_id":"cebpf4jnsgd1na2vs0mg"},{"bike_id":"c6a24c62-dda8-4625-b246-ad777a37cfae","system_id":"levelo_inurba_marseille","lat":43.33748,"lon":5.37466,"is_reserved":false,"is_disabled":false,"rental_uris":{"android":"levelo://app?vid=c6a24c62-dda8-4625-b246-ad777a37cfae","ios":"levelo://app?vid=c6a24c62-dda8-4625-b246-ad777a37cfae"},"vehicle_type_id":"4","last_reported":1726665392,"current_range_meters":14400,"station_id":"","pricing_plan_id":"cebpf4jnsgd1na2vs0mg"},{"bike_id":"d782c430-b2c7-45ce-aaaf-78dc9a80ca97","system_id":"levelo_inurba_marseille","lat":43.33022,"lon":5.39036,"is_reserved":false,"is_disabled":false,"rental_uris":{"android":"levelo://app?vid=d782c430-b2c7-45ce-aaaf-78dc9a80ca97","ios":"levelo://app?vid=d782c430-b2c7-45ce-aaaf-78dc9a80ca97"},"vehicle_type_id":"4","last_reported":1726665392,"current_range_meters":24800,"station_id":"ce4bhr92rcd13ifvqhrg","pricing_plan_id":"cebpf4jnsgd1na2vs0mg"},{"bike_id":"ca9f4abb-92a3-4d8f-987f-8ad9fcb5879a","system_id":"levelo_inurba_marseille","lat":43.284806,"lon":5.384212,"is_reserved":false,"is_disabled":false,"rental_uris":{"android":"levelo://app?vid=ca9f4abb-92a3-4d8f-987f-8ad9fcb5879a","ios":"levelo://app?vid=ca9f4abb-92a3-4d8f-987f-8ad9fcb5879a"},"vehicle_type_id":"4","last_reported":1726665392,"current_range_meters":37600,"station_id":"ce4bh512rcd13ifvqe3g","pricing_plan_id":"cebpf4jnsgd1na2vs0mg"},{"bike_id":"2b714e73-49f8-4f26-bb6d-7d72ce23aabc","system_id":"levelo_inurba_marseille","lat":43.23051,"lon":5.35491,"is_reserved":false,"is_disabled":false,"rental_uris":{"android":"levelo://app?vid=2b714e73-49f8-4f26-bb6d-7d72ce23aabc","ios":"levelo://app?vid=2b714e73-49f8-4f26-bb6d-7d72ce23aabc"},"vehicle_type_id":"4","last_reported":1726665392,"current_range_meters":8000,"station_id":"cpo3342slgdg3j2ifvpg","pricing_plan_id":"cebpf4jnsgd1na2vs0mg"},{"bike_id":"08517893-63cf-43d9-88aa-3c89b83ce921","system_id":"levelo_inurba_marseille","lat":43.32488,"lon":5.36548,"is_reserved":false,"is_disabled":false,"rental_uris":{"android":"levelo://app?vid=08517893-63cf-43d9-88aa-3c89b83ce921","ios":"levelo://app?vid=08517893-63cf-43d9-88aa-3c89b83ce921"},"vehicle_type_id":"4","last_reported":1726665392,"current_range_meters":38800,"station_id":"ce4bhs12rcd13ifvqhvg","pricing_plan_id":"cebpf4jnsgd1na2vs0mg"},{"bike_id":"63324c71-626f-4e6a-b4e3-7720bfeb7d9a","system_id":"levelo_inurba_marseille","lat":43.29569,"lon":5.37532,"is_reserved":false,"is_disabled":false,"rental_uris":{"android":"levelo://app?vid=63324c71-626f-4e6a-b4e3-7720bfeb7d9a","ios":"levelo://app?vid=63324c71-626f-4e6a-b4e3-7720bfeb7d9a"},"vehicle_type_id":"4","last_reported":1726665392,"current_range_meters":33600,"station_id":"ce4bgh92rcd13ifvqb50","pricing_plan_id":"cebpf4jnsgd1na2vs0mg"},{"bike_id":"6a3e0bcf-6dfd-4eed-b57b-6033e25f8c2a","system_id":"levelo_inurba_marseille","lat":43.3133,"lon":5.3969,"is_reserved":false,"is_disabled":false,"rental_uris":{"android":"levelo://app?vid=6a3e0bcf-6dfd-4eed-b57b-6033e25f8c2a","ios":"levelo://app?vid=6a3e0bcf-6dfd-4eed-b57b-6033e25f8c2a"},"vehicle_type_id":"4","last_reported":1726665392,"current_range_meters":8000,"station_id":"ce4bgvp2rcd13ifvqcu0","pricing_plan_id":"cebpf4jnsgd1na2vs0mg"},{"bike_id":"f6e88fe5-39a9-4e66-96a2-c5621c23b6f4","system_id":"levelo_inurba_marseille","lat":43.27811,"lon":5.4071,"is_reserved":false,"is_disabled":false,"rental_uris":{"android":"levelo://app?vid=f6e88fe5-39a9-4e66-96a2-c5621c23b6f4","ios":"levelo://app?vid=f6e88fe5-39a9-4e66-96a2-c5621c23b6f4"},"vehicle_type_id":"4","last_reported":1726665392,"current_range_meters":22000,"station_id":"ce4bhnh2rcd13ifvqgtg","pricing_plan_id":"cebpf4jnsgd1na2vs0mg"},{"bike_id":"e8befb56-1303-484d-9ed5-cb1654ca2bd2","system_id":"levelo_inurba_marseille","lat":43.2397,"lon":5.36625,"is_reserved":false,"is_disabled":false,"rental_uris":{"android":"levelo://app?vid=e8befb56-1303-484d-9ed5-cb1654ca2bd2","ios":"levelo://app?vid=e8befb56-1303-484d-9ed5-cb1654ca2bd2"},"vehicle_type_id":"4","last_reported":1726665392,"current_range_meters":36800,"station_id":"ce4bhi12rcd13ifvqfp0","pricing_plan_id":"cebpf4jnsgd1na2vs0mg"},{"bike_id":"45770c26-0413-4353-98d1-2fa59f8f795a","system_id":"levelo_inurba_marseille","lat":43.30795,"lon":5.38158,"is_reserved":false,"is_disabled":false,"rental_uris":{"android":"levelo://app?vid=45770c26-0413-4353-98d1-2fa59f8f795a","ios":"levelo://app?vid=45770c26-0413-4353-98d1-2fa59f8f795a"},"vehicle_type_id":"4","last_reported":1726665392,"current_range_meters":13600,"station_id":"ce4bgt12rcd13ifvqce0","pricing_plan_id":"cebpf4jnsgd1na2vs0mg"},{"bike_id":"bc3793b6-2ad3-497e-8fb6-7ea707011f3a","system_id":"levelo_inurba_marseille","lat":43.28415,"lon":5.37511,"is_reserved":false,"is_disabled":false,"rental_uris":{"android":"levelo://app?vid=bc3793b6-2ad3-497e-8fb6-7ea707011f3a","ios":"levelo://app?vid=bc3793b6-2ad3-497e-8fb6-7ea707011f3a"},"vehicle_type_id":"4","last_reported":1726665392,"current_range_meters":25200,"station_id":"ce4bh412rcd13ifvqds0","pricing_plan_id":"cebpf4jnsgd1na2vs0mg"},{"bike_id":"77aad35c-f5ef-4192-80d4-71582050296e","system_id":"levelo_inurba_marseille","lat":43.28282,"lon":5.35071,"is_reserved":false,"is_disabled":false,"rental_uris":{"android":"levelo://app?vid=77aad35c-f5ef-4192-80d4-71582050296e","ios":"levelo://app?vid=77aad35c-f5ef-4192-80d4-71582050296e"},"vehicle_type_id":"4","last_reported":1726665392,"current_range_meters":19600,"station_id":"ce4bhbp2rcd13ifvqerg","pricing_plan_id":"cebpf4jnsgd1na2vs0mg"},{"bike_id":"3e034926-5539-4480-9686-77673b0cd3d6","system_id":"levelo_inurba_marseille","lat":43.28712,"lon":5.37388,"is_reserved":false,"is_disabled":false,"rental_uris":{"android":"levelo://app?vid=3e034926-5539-4480-9686-77673b0cd3d6","ios":"levelo://app?vid=3e034926-5539-4480-9686-77673b0cd3d6"},"vehicle_type_id":"4","last_reported":1726665392,"current_range_meters":38800,"station_id":"ce4bh3p2rcd13ifvqdq0","pricing_plan_id":"cebpf4jnsgd1na2vs0mg"},{"bike_id":"55cdb22a-2c5f-4ccd-bcec-336c8f72c8a5","system_id":"levelo_inurba_marseille","lat":43.293671,"lon":5.378459,"is_reserved":false,"is_disabled":false,"rental_uris":{"android":"levelo://app?vid=55cdb22a-2c5f-4ccd-bcec-336c8f72c8a5","ios":"levelo://app?vid=55cdb22a-2c5f-4ccd-bcec-336c8f72c8a5"},"vehicle_type_id":"4","last_reported":1726665392,"current_range_meters":28800,"station_id":"ce4bgjh2rcd13ifvqbf0","pricing_plan_id":"cebpf4jnsgd1na2vs0mg"},{"bike_id":"4e4a2087-9172-458b-b441-1cb10f5a5757","system_id":"levelo_inurba_marseille","lat":43.33777,"lon":5.37429,"is_reserved":false,"is_disabled":false,"rental_uris":{"android":"levelo://app?vid=4e4a2087-9172-458b-b441-1cb10f5a5757","ios":"levelo://app?vid=4e4a2087-9172-458b-b441-1cb10f5a5757"},"vehicle_type_id":"4","last_reported":1726665392,"current_range_meters":12800,"station_id":"","pricing_plan_id":"cebpf4jnsgd1na2vs0mg"},{"bike_id":"6dd17a2f-59bb-4453-859d-2c09ab795824","system_id":"levelo_inurba_marseille","lat":43.33021,"lon":5.39039,"is_reserved":false,"is_disabled":false,"rental_uris":{"android":"levelo://app?vid=6dd17a2f-59bb-4453-859d-2c09ab795824","ios":"levelo://app?vid=6dd17a2f-59bb-4453-859d-2c09ab795824"},"vehicle_type_id":"4","last_reported":1726665392,"current_range_meters":24800,"station_id":"ce4bhr92rcd13ifvqhrg","pricing_plan_id":"cebpf4jnsgd1na2vs0mg"},{"bike_id":"cb2bdf9b-7926-4ea6-80ff-13ac7eaafec2","system_id":"levelo_inurba_marseille","lat":43.29678,"lon":5.3729,"is_reserved":false,"is_disabled":false,"rental_uris":{"android":"levelo://app?vid=cb2bdf9b-7926-4ea6-80ff-13ac7eaafec2","ios":"levelo://app?vid=cb2bdf9b-7926-4ea6-80ff-13ac7eaafec2"},"vehicle_type_id":"4","last_reported":1726665392,"current_range_meters":25600,"station_id":"ce4bgk12rcd13ifvqbj0","pricing_plan_id":"cebpf4jnsgd1na2vs0mg"},{"bike_id":"81252e94-b3e6-480e-a6f5-2ff330ea64d6","system_id":"levelo_inurba_marseille","lat":43.28704,"lon":5.39981,"is_reserved":false,"is_disabled":false,"rental_uris":{"android":"levelo://app?vid=81252e94-b3e6-480e-a6f5-2ff330ea64d6","ios":"levelo://app?vid=81252e94-b3e6-480e-a6f5-2ff330ea64d6"},"vehicle_type_id":"4","last_reported":1726665392,"current_range_meters":38400,"station_id":"ce4bho92rcd13ifvqh3g","pricing_plan_id":"cebpf4jnsgd1na2vs0mg"},{"bike_id":"fc20bf22-7eee-4903-9b9b-24640c03ceae","system_id":"levelo_inurba_marseille","lat":43.337444,"lon":5.374475,"is_reserved":false,"is_disabled":false,"rental_uris":{"android":"levelo://app?vid=fc20bf22-7eee-4903-9b9b-24640c03ceae","ios":"levelo://app?vid=fc20bf22-7eee-4903-9b9b-24640c03ceae"},"vehicle_type_id":"4","last_reported":1726665392,"current_range_meters":36400,"station_id":"","pricing_plan_id":"cebpf4jnsgd1na2vs0mg"},{"bike_id":"7c93e1d8-8d76-4a9d-9a23-cae861c1d904","system_id":"levelo_inurba_marseille","lat":43.30418,"lon":5.39825,"is_reserved":false,"is_disabled":false,"rental_uris":{"android":"levelo://app?vid=7c93e1d8-8d76-4a9d-9a23-cae861c1d904","ios":"levelo://app?vid=7c93e1d8-8d76-4a9d-9a23-cae861c1d904"},"vehicle_type_id":"4","last_reported":1726665392,"current_range_meters":22000,"station_id":"ce4bgjh2rcd13ifvqbf0","pricing_plan_id":"cebpf4jnsgd1na2vs0mg"},{"bike_id":"fc2c37fd-b30e-4e49-9975-3233bf5effda","system_id":"levelo_inurba_marseille","lat":43.32287,"lon":5.3827,"is_reserved":false,"is_disabled":false,"rental_uris":{"android":"levelo://app?vid=fc2c37fd-b30e-4e49-9975-3233bf5effda","ios":"levelo://app?vid=fc2c37fd-b30e-4e49-9975-3233bf5effda"},"vehicle_type_id":"4","last_reported":1726665392,"current_range_meters":31200,"station_id":"ce4bhr12rcd13ifvqhqg","pricing_plan_id":"cebpf4jnsgd1na2vs0mg"},{"bike_id":"8dc6604f-cba8-4b9b-9d02-e6223c9ccd26","system_id":"levelo_inurba_marseille","lat":43.26789,"lon":5.3941,"is_reserved":false,"is_disabled":false,"rental_uris":{"android":"levelo://app?vid=8dc6604f-cba8-4b9b-9d02-e6223c9ccd26","ios":"levelo://app?vid=8dc6604f-cba8-4b9b-9d02-e6223c9ccd26"},"vehicle_type_id":"4","last_reported":1726665392,"current_range_meters":9200,"station_id":"ce4bhh12rcd13ifvqfg0","pricing_plan_id":"cebpf4jnsgd1na2vs0mg"},{"bike_id":"df140004-36af-4f95-b59e-c58393b3c036","system_id":"levelo_inurba_marseille","lat":43.27944,"lon":5.41041,"is_reserved":false,"is_disabled":false,"rental_uris":{"android":"levelo://app?vid=df140004-36af-4f95-b59e-c58393b3c036","ios":"levelo://app?vid=df140004-36af-4f95-b59e-c58393b3c036"},"vehicle_type_id":"4","last_reported":1726665392,"current_range_meters":28800,"station_id":"ce4bhnp2rcd13ifvqh0g","pricing_plan_id":"cebpf4jnsgd1na2vs0mg"},{"bike_id":"551007eb-0d19-4212-aaad-40cf20c93b6d","system_id":"levelo_inurba_marseille","lat":43.3054,"lon":5.36535,"is_reserved":false,"is_disabled":false,"rental_uris":{"android":"levelo://app?vid=551007eb-0d19-4212-aaad-40cf20c93b6d","ios":"levelo://app?vid=551007eb-0d19-4212-aaad-40cf20c93b6d"},"vehicle_type_id":"4","last_reported":1726665392,"current_range_meters":38800,"station_id":"ce4bgs12rcd13ifvqcag","pricing_plan_id":"cebpf4jnsgd1na2vs0mg"},{"bike_id":"7ed6e232-258b-4a81-8bc6-1263c7ea255d","system_id":"levelo_inurba_marseille","lat":43.26791,"lon":5.39412,"is_reserved":false,"is_disabled":false,"rental_uris":{"android":"levelo://app?vid=7ed6e232-258b-4a81-8bc6-1263c7ea255d","ios":"levelo://app?vid=7ed6e232-258b-4a81-8bc6-1263c7ea255d"},"vehicle_type_id":"4","last_reported":1726665392,"current_range_meters":14800,"station_id":"ce4bhh12rcd13ifvqfg0","pricing_plan_id":"cebpf4jnsgd1na2vs0mg"},{"bike_id":"c41e285d-5696-46b9-8767-2f0c5a392861","system_id":"levelo_inurba_marseille","lat":43.30318,"lon":5.36897,"is_reserved":false,"is_disabled":false,"rental_uris":{"android":"levelo://app?vid=c41e285d-5696-46b9-8767-2f0c5a392861","ios":"levelo://app?vid=c41e285d-5696-46b9-8767-2f0c5a392861"},"vehicle_type_id":"4","last_reported":1726665392,"current_range_meters":38800,"station_id":"ce4bgqh2rcd13ifvqc5g","pricing_plan_id":"cebpf4jnsgd1na2vs0mg"},{"bike_id":"25336322-ffa7-4bb0-b5bc-1e165a33edb7","system_id":"levelo_inurba_marseille","lat":43.30264,"lon":5.40075,"is_reserved":false,"is_disabled":false,"rental_uris":{"android":"levelo://app?vid=25336322-ffa7-4bb0-b5bc-1e165a33edb7","ios":"levelo://app?vid=25336322-ffa7-4bb0-b5bc-1e165a33edb7"},"vehicle_type_id":"4","last_reported":1726665392,"current_range_meters":8800,"station_id":"ce4bgvh2rcd13ifvqcs0","pricing_plan_id":"cebpf4jnsgd1na2vs0mg"},{"bike_id":"50f2eba0-8388-4a98-93e0-466beadabfca","system_id":"levelo_inurba_marseille","lat":43.23976,"lon":5.36619,"is_reserved":false,"is_disabled":false,"rental_uris":{"android":"levelo://app?vid=50f2eba0-8388-4a98-93e0-466beadabfca","ios":"levelo://app?vid=50f2eba0-8388-4a98-93e0-466beadabfca"},"vehicle_type_id":"4","last_reported":1726665392,"current_range_meters":38800,"station_id":"ce4bhi12rcd13ifvqfp0","pricing_plan_id":"cebpf4jnsgd1na2vs0mg"},{"bike_id":"647172dc-7851-46b0-a65e-8341f856cc4d","system_id":"levelo_inurba_marseille","lat":43.309334,"lon":5.401371,"is_reserved":false,"is_disabled":false,"rental_uris":{"android":"levelo://app?vid=647172dc-7851-46b0-a65e-8341f856cc4d","ios":"levelo://app?vid=647172dc-7851-46b0-a65e-8341f856cc4d"},"vehicle_type_id":"4","last_reported":1726665392,"current_range_meters":7200,"station_id":"ce4bgvp2rcd13ifvqct0","pricing_plan_id":"cebpf4jnsgd1na2vs0mg"},{"bike_id":"3087ae3c-16fc-45ae-88be-5bfe0753ff24","system_id":"levelo_inurba_marseille","lat":43.29921,"lon":5.37464,"is_reserved":false,"is_disabled":false,"rental_uris":{"android":"levelo://app?vid=3087ae3c-16fc-45ae-88be-5bfe0753ff24","ios":"levelo://app?vid=3087ae3c-16fc-45ae-88be-5bfe0753ff24"},"vehicle_type_id":"4","last_reported":1726665392,"current_range_meters":29600,"station_id":"ce4bgjh2rcd13ifvqbg0","pricing_plan_id":"cebpf4jnsgd1na2vs0mg"},{"bike_id":"93c39bf2-d429-49f9-b9bf-f4d52d11c9be","system_id":"levelo_inurba_marseille","lat":43.26215,"lon":5.37437,"is_reserved":false,"is_disabled":false,"rental_uris":{"android":"levelo://app?vid=93c39bf2-d429-49f9-b9bf-f4d52d11c9be","ios":"levelo://app?vid=93c39bf2-d429-49f9-b9bf-f4d52d11c9be"},"vehicle_type_id":"4","last_reported":1726665392,"current_range_meters":29600,"station_id":"ce4bhgp2rcd13ifvqfc0","pricing_plan_id":"cebpf4jnsgd1na2vs0mg"},{"bike_id":"967844b5-d979-476e-b222-f6c858d124fb","system_id":"levelo_inurba_marseille","lat":43.313303,"lon":5.396873,"is_reserved":false,"is_disabled":false,"rental_uris":{"android":"levelo://app?vid=967844b5-d979-476e-b222-f6c858d124fb","ios":"levelo://app?vid=967844b5-d979-476e-b222-f6c858d124fb"},"vehicle_type_id":"4","last_reported":1726665392,"current_range_meters":17200,"station_id":"","pricing_plan_id":"cebpf4jnsgd1na2vs0mg"},{"bike_id":"8c0d530c-80a9-463b-b552-7c7a8c8ab48a","system_id":"levelo_inurba_marseille","lat":43.2315,"lon":5.43713,"is_reserved":false,"is_disabled":false,"rental_uris":{"android":"levelo://app?vid=8c0d530c-80a9-463b-b552-7c7a8c8ab48a","ios":"levelo://app?vid=8c0d530c-80a9-463b-b552-7c7a8c8ab48a"},"vehicle_type_id":"4","last_reported":1726665392,"current_range_meters":38800,"station_id":"ce4bhmp2rcd13ifvqgog","pricing_plan_id":"cebpf4jnsgd1na2vs0mg"},{"bike_id":"15562b1e-18b3-4136-9033-478520401008","system_id":"levelo_inurba_marseille","lat":43.295624,"lon":5.422874,"is_reserved":false,"is_disabled":false,"rental_uris":{"android":"levelo://app?vid=15562b1e-18b3-4136-9033-478520401008","ios":"levelo://app?vid=15562b1e-18b3-4136-9033-478520401008"},"vehicle_type_id":"4","last_reported":1726665392,"current_range_meters":38800,"station_id":"ce4bhph2rcd13ifvqhdg","pricing_plan_id":"cebpf4jnsgd1na2vs0mg"},{"bike_id":"58014cc6-4f39-4119-a8a0-cdc0e2507820","system_id":"levelo_inurba_marseille","lat":43.32295,"lon":5.3826,"is_reserved":false,"is_disabled":false,"rental_uris":{"android":"levelo://app?vid=58014cc6-4f39-4119-a8a0-cdc0e2507820","ios":"levelo://app?vid=58014cc6-4f39-4119-a8a0-cdc0e2507820"},"vehicle_type_id":"4","last_reported":1726665392,"current_range_meters":38800,"station_id":"ce4bhr12rcd13ifvqhqg","pricing_plan_id":"cebpf4jnsgd1na2vs0mg"},{"bike_id":"7231c74c-5278-429f-90a8-a50ab6504eee","system_id":"levelo_inurba_marseille","lat":43.32485,"lon":5.36567,"is_reserved":false,"is_disabled":false,"rental_uris":{"android":"levelo://app?vid=7231c74c-5278-429f-90a8-a50ab6504eee","ios":"levelo://app?vid=7231c74c-5278-429f-90a8-a50ab6504eee"},"vehicle_type_id":"4","last_reported":1726665392,"current_range_meters":28000,"station_id":"ce4bhs12rcd13ifvqhvg","pricing_plan_id":"cebpf4jnsgd1na2vs0mg"},{"bike_id":"a1e6d3d3-ab24-48c1-98c6-96b1c7c88e2e","system_id":"levelo_inurba_marseille","lat":43.29912,"lon":5.37477,"is_reserved":false,"is_disabled":false,"rental_uris":{"android":"levelo://app?vid=a1e6d3d3-ab24-48c1-98c6-96b1c7c88e2e","ios":"levelo://app?vid=a1e6d3d3-ab24-48c1-98c6-96b1c7c88e2e"},"vehicle_type_id":"4","last_reported":1726665392,"current_range_meters":23200,"station_id":"ce4bgjh2rcd13ifvqbg0","pricing_plan_id":"cebpf4jnsgd1na2vs0mg"},{"bike_id":"9de036c4-decb-465b-a775-32e663a8924f","system_id":"levelo_inurba_marseille","lat":43.33021,"lon":5.39026,"is_reserved":false,"is_disabled":false,"rental_uris":{"android":"levelo://app?vid=9de036c4-decb-465b-a775-32e663a8924f","ios":"levelo://app?vid=9de036c4-decb-465b-a775-32e663a8924f"},"vehicle_type_id":"4","last_reported":1726665392,"current_range_meters":34000,"station_id":"ce4bhr92rcd13ifvqhrg","pricing_plan_id":"cebpf4jnsgd1na2vs0mg"},{"bike_id":"5f60f5ce-6cdd-4cf0-88b4-518e456ecfea","system_id":"levelo_inurba_marseille","lat":43.29878,"lon":5.39733,"is_reserved":false,"is_disabled":false,"rental_uris":{"android":"levelo://app?vid=5f60f5ce-6cdd-4cf0-88b4-518e456ecfea","ios":"levelo://app?vid=5f60f5ce-6cdd-4cf0-88b4-518e456ecfea"},"vehicle_type_id":"4","last_reported":1726665392,"current_range_meters":17200,"station_id":"ce4bh0h2rcd13ifvqd50","pricing_plan_id":"cebpf4jnsgd1na2vs0mg"},{"bike_id":"6ff4ce02-3ef0-442c-aeaa-002d5008e739","system_id":"levelo_inurba_marseille","lat":43.32486,"lon":5.36569,"is_reserved":false,"is_disabled":false,"rental_uris":{"android":"levelo://app?vid=6ff4ce02-3ef0-442c-aeaa-002d5008e739","ios":"levelo://app?vid=6ff4ce02-3ef0-442c-aeaa-002d5008e739"},"vehicle_type_id":"4","last_reported":1726665392,"current_range_meters":30000,"station_id":"ce4bhs12rcd13ifvqhvg","pricing_plan_id":"cebpf4jnsgd1na2vs0mg"},{"bike_id":"e1511f40-b206-41e9-a0dc-78b7df05ce8e","system_id":"levelo_inurba_marseille","lat":43.28941,"lon":5.36637,"is_reserved":false,"is_disabled":false,"rental_uris":{"android":"levelo://app?vid=e1511f40-b206-41e9-a0dc-78b7df05ce8e","ios":"levelo://app?vid=e1511f40-b206-41e9-a0dc-78b7df05ce8e"},"vehicle_type_id":"4","last_reported":1726665392,"current_range_meters":34000,"station_id":"ce4bhap2rcd13ifvqek0","pricing_plan_id":"cebpf4jnsgd1na2vs0mg"},{"bike_id":"6416de18-d641-41ea-8563-c58e28a68b0a","system_id":"levelo_inurba_marseille","lat":43.258179,"lon":5.39443,"is_reserved":false,"is_disabled":false,"rental_uris":{"android":"levelo://app?vid=6416de18-d641-41ea-8563-c58e28a68b0a","ios":"levelo://app?vid=6416de18-d641-41ea-8563-c58e28a68b0a"},"vehicle_type_id":"4","last_reported":1726665392,"current_range_meters":11600,"station_id":"ce4bhip2rcd13ifvqft0","pricing_plan_id":"cebpf4jnsgd1na2vs0mg"},{"bike_id":"cbaf03bf-0340-4293-a424-18d0ef0b595f","system_id":"levelo_inurba_marseille","lat":43.29899,"lon":5.43666,"is_reserved":false,"is_disabled":false,"rental_uris":{"android":"levelo://app?vid=cbaf03bf-0340-4293-a424-18d0ef0b595f","ios":"levelo://app?vid=cbaf03bf-0340-4293-a424-18d0ef0b595f"},"vehicle_type_id":"4","last_reported":1726665392,"current_range_meters":16000,"station_id":"ce4bhpp2rcd13ifvqhfg","pricing_plan_id":"cebpf4jnsgd1na2vs0mg"},{"bike_id":"707eaac3-45ed-4b0c-9010-e60d916b1864","system_id":"levelo_inurba_marseille","lat":43.231814,"lon":5.39994,"is_reserved":false,"is_disabled":false,"rental_uris":{"android":"levelo://app?vid=707eaac3-45ed-4b0c-9010-e60d916b1864","ios":"levelo://app?vid=707eaac3-45ed-4b0c-9010-e60d916b1864"},"vehicle_type_id":"4","last_reported":1726665392,"current_range_meters":27600,"station_id":"ce4bhn12rcd13ifvqgqg","pricing_plan_id":"cebpf4jnsgd1na2vs0mg"},{"bike_id":"eaae515b-501b-40ca-9538-25f3998254ed","system_id":"levelo_inurba_marseille","lat":43.276902,"lon":5.389059,"is_reserved":false,"is_disabled":false,"rental_uris":{"android":"levelo://app?vid=eaae515b-501b-40ca-9538-25f3998254ed","ios":"levelo://app?vid=eaae515b-501b-40ca-9538-25f3998254ed"},"vehicle_type_id":"4","last_reported":1726665392,"current_range_meters":6000,"station_id":"ce4bhi12rcd13ifvqfo0","pricing_plan_id":"cebpf4jnsgd1na2vs0mg"},{"bike_id":"0c8e5b27-7dac-4337-97fc-befadb0a0771","system_id":"levelo_inurba_marseille","lat":43.25121,"lon":5.40317,"is_reserved":false,"is_disabled":false,"rental_uris":{"android":"levelo://app?vid=0c8e5b27-7dac-4337-97fc-befadb0a0771","ios":"levelo://app?vid=0c8e5b27-7dac-4337-97fc-befadb0a0771"},"vehicle_type_id":"4","last_reported":1726665392,"current_range_meters":22800,"station_id":"ce4bhlh2rcd13ifvqgig","pricing_plan_id":"cebpf4jnsgd1na2vs0mg"},{"bike_id":"6e00666a-f02f-4580-a990-0531883c2cb7","system_id":"levelo_inurba_marseille","lat":43.29895,"lon":5.43663,"is_reserved":false,"is_disabled":false,"rental_uris":{"android":"levelo://app?vid=6e00666a-f02f-4580-a990-0531883c2cb7","ios":"levelo://app?vid=6e00666a-f02f-4580-a990-0531883c2cb7"},"vehicle_type_id":"4","last_reported":1726665392,"current_range_meters":6400,"station_id":"ce4bhpp2rcd13ifvqhfg","pricing_plan_id":"cebpf4jnsgd1na2vs0mg"},{"bike_id":"425b6432-96fd-407c-8489-168c99a4e6a3","system_id":"levelo_inurba_marseille","lat":43.295948,"lon":5.404658,"is_reserved":false,"is_disabled":false,"rental_uris":{"android":"levelo://app?vid=425b6432-96fd-407c-8489-168c99a4e6a3","ios":"levelo://app?vid=425b6432-96fd-407c-8489-168c99a4e6a3"},"vehicle_type_id":"4","last_reported":1726665392,"current_range_meters":35600,"station_id":"ce4bh0h2rcd13ifvqd50","pricing_plan_id":"cebpf4jnsgd1na2vs0mg"},{"bike_id":"c4b330e2-9213-4409-ba71-483a965f9fcb","system_id":"levelo_inurba_marseille","lat":43.3046,"lon":5.379056,"is_reserved":false,"is_disabled":false,"rental_uris":{"android":"levelo://app?vid=c4b330e2-9213-4409-ba71-483a965f9fcb","ios":"levelo://app?vid=c4b330e2-9213-4409-ba71-483a965f9fcb"},"vehicle_type_id":"4","last_reported":1726665392,"current_range_meters":33600,"station_id":"ce4bgkh2rcd13ifvqbk0","pricing_plan_id":"cebpf4jnsgd1na2vs0mg"},{"bike_id":"fb019612-0305-467c-adfd-d621162765e0","system_id":"levelo_inurba_marseille","lat":43.28721,"lon":5.37939,"is_reserved":false,"is_disabled":false,"rental_uris":{"android":"levelo://app?vid=fb019612-0305-467c-adfd-d621162765e0","ios":"levelo://app?vid=fb019612-0305-467c-adfd-d621162765e0"},"vehicle_type_id":"4","last_reported":1726665392,"current_range_meters":22800,"station_id":"ce4bh9p2rcd13ifvqec0","pricing_plan_id":"cebpf4jnsgd1na2vs0mg"},{"bike_id":"7cd57007-cad0-48ff-8405-d762dc3178a5","system_id":"levelo_inurba_marseille","lat":43.265521,"lon":5.372835,"is_reserved":false,"is_disabled":false,"rental_uris":{"android":"levelo://app?vid=7cd57007-cad0-48ff-8405-d762dc3178a5","ios":"levelo://app?vid=7cd57007-cad0-48ff-8405-d762dc3178a5"},"vehicle_type_id":"4","last_reported":1726665392,"current_range_meters":28000,"station_id":"ce4bgjh2rcd13ifvqbf0","pricing_plan_id":"cebpf4jnsgd1na2vs0mg"},{"bike_id":"fa2e946d-01fe-4bb4-a2b0-55af60a0bcec","system_id":"levelo_inurba_marseille","lat":43.33731,"lon":5.39179,"is_reserved":false,"is_disabled":false,"rental_uris":{"android":"levelo://app?vid=fa2e946d-01fe-4bb4-a2b0-55af60a0bcec","ios":"levelo://app?vid=fa2e946d-01fe-4bb4-a2b0-55af60a0bcec"},"vehicle_type_id":"4","last_reported":1726665392,"current_range_meters":38400,"station_id":"ce4bhr92rcd13ifvqhsg","pricing_plan_id":"cebpf4jnsgd1na2vs0mg"},{"bike_id":"9dd2c25f-da94-4237-bdd2-753ff606611b","system_id":"levelo_inurba_marseille","lat":43.29708,"lon":5.37688,"is_reserved":false,"is_disabled":false,"rental_uris":{"android":"levelo://app?vid=9dd2c25f-da94-4237-bdd2-753ff606611b","ios":"levelo://app?vid=9dd2c25f-da94-4237-bdd2-753ff606611b"},"vehicle_type_id":"4","last_reported":1726665392,"current_range_meters":36800,"station_id":"ce4bgkh2rcd13ifvqbl0","pricing_plan_id":"cebpf4jnsgd1na2vs0mg"},{"bike_id":"a225e308-9f3b-4239-997c-85b47c044156","system_id":"levelo_inurba_marseille","lat":43.25929,"lon":5.40905,"is_reserved":false,"is_disabled":false,"rental_uris":{"android":"levelo://app?vid=a225e308-9f3b-4239-997c-85b47c044156","ios":"levelo://app?vid=a225e308-9f3b-4239-997c-85b47c044156"},"vehicle_type_id":"4","last_reported":1726665392,"current_range_meters":29600,"station_id":"ce4bhm92rcd13ifvqglg","pricing_plan_id":"cebpf4jnsgd1na2vs0mg"},{"bike_id":"84441f72-fa93-4a01-ad61-519abb0196cf","system_id":"levelo_inurba_marseille","lat":43.29052,"lon":5.35913,"is_reserved":false,"is_disabled":false,"rental_uris":{"android":"levelo://app?vid=84441f72-fa93-4a01-ad61-519abb0196cf","ios":"levelo://app?vid=84441f72-fa93-4a01-ad61-519abb0196cf"},"vehicle_type_id":"4","last_reported":1726665392,"current_range_meters":39200,"station_id":"ce4bha92rcd13ifvqeg0","pricing_plan_id":"cebpf4jnsgd1na2vs0mg"},{"bike_id":"6a46a54e-7f0a-4e6f-9106-eb8b62e7868f","system_id":"levelo_inurba_marseille","lat":43.29035,"lon":5.39974,"is_reserved":false,"is_disabled":false,"rental_uris":{"android":"levelo://app?vid=6a46a54e-7f0a-4e6f-9106-eb8b62e7868f","ios":"levelo://app?vid=6a46a54e-7f0a-4e6f-9106-eb8b62e7868f"},"vehicle_type_id":"4","last_reported":1726665392,"current_range_meters":20400,"station_id":"ce4bh392rcd13ifvqdm0","pricing_plan_id":"cebpf4jnsgd1na2vs0mg"},{"bike_id":"c11ebf5c-b2d3-4290-a13c-2ad74dd9fb71","system_id":"levelo_inurba_marseille","lat":43.30147,"lon":5.37419,"is_reserved":false,"is_disabled":false,"rental_uris":{"android":"levelo://app?vid=c11ebf5c-b2d3-4290-a13c-2ad74dd9fb71","ios":"levelo://app?vid=c11ebf5c-b2d3-4290-a13c-2ad74dd9fb71"},"vehicle_type_id":"4","last_reported":1726665392,"current_range_meters":6000,"station_id":"ce4bgs92rcd13ifvqcc0","pricing_plan_id":"cebpf4jnsgd1na2vs0mg"},{"bike_id":"7f8c5afb-39c9-452c-975f-bc75bc43fcf9","system_id":"levelo_inurba_marseille","lat":43.3054,"lon":5.36531,"is_reserved":false,"is_disabled":false,"rental_uris":{"android":"levelo://app?vid=7f8c5afb-39c9-452c-975f-bc75bc43fcf9","ios":"levelo://app?vid=7f8c5afb-39c9-452c-975f-bc75bc43fcf9"},"vehicle_type_id":"4","last_reported":1726665392,"current_range_meters":38800,"station_id":"ce4bgs12rcd13ifvqcag","pricing_plan_id":"cebpf4jnsgd1na2vs0mg"},{"bike_id":"328d45f9-980e-4811-97c0-47d761861509","system_id":"levelo_inurba_marseille","lat":43.29847,"lon":5.37836,"is_reserved":false,"is_disabled":false,"rental_uris":{"android":"levelo://app?vid=328d45f9-980e-4811-97c0-47d761861509","ios":"levelo://app?vid=328d45f9-980e-4811-97c0-47d761861509"},"vehicle_type_id":"4","last_reported":1726665392,"current_range_meters":10800,"station_id":"ce4bgkh2rcd13ifvqbl0","pricing_plan_id":"cebpf4jnsgd1na2vs0mg"},{"bike_id":"4301397d-4975-41cc-ae82-d8408f68e691","system_id":"levelo_inurba_marseille","lat":43.27904,"lon":5.38009,"is_reserved":false,"is_disabled":false,"rental_uris":{"android":"levelo://app?vid=4301397d-4975-41cc-ae82-d8408f68e691","ios":"levelo://app?vid=4301397d-4975-41cc-ae82-d8408f68e691"},"vehicle_type_id":"4","last_reported":1726665392,"current_range_meters":18800,"station_id":"ce4bhf92rcd13ifvqf50","pricing_plan_id":"cebpf4jnsgd1na2vs0mg"},{"bike_id":"683e3c32-335b-4c40-a8cd-98bebfeda322","system_id":"levelo_inurba_marseille","lat":43.283779,"lon":5.381238,"is_reserved":false,"is_disabled":false,"rental_uris":{"android":"levelo://app?vid=683e3c32-335b-4c40-a8cd-98bebfeda322","ios":"levelo://app?vid=683e3c32-335b-4c40-a8cd-98bebfeda322"},"vehicle_type_id":"4","last_reported":1726665392,"current_range_meters":32800,"station_id":"ce4bhgp2rcd13ifvqfe0","pricing_plan_id":"cebpf4jnsgd1na2vs0mg"},{"bike_id":"a94c77f8-b42b-49e0-a316-8745fe816005","system_id":"levelo_inurba_marseille","lat":43.28411,"lon":5.3751,"is_reserved":false,"is_disabled":false,"rental_uris":{"android":"levelo://app?vid=a94c77f8-b42b-49e0-a316-8745fe816005","ios":"levelo://app?vid=a94c77f8-b42b-49e0-a316-8745fe816005"},"vehicle_type_id":"4","last_reported":1726665392,"current_range_meters":23200,"station_id":"ce4bh412rcd13ifvqds0","pricing_plan_id":"cebpf4jnsgd1na2vs0mg"},{"bike_id":"65047612-25b9-4b3a-99bd-2d5b7ac38b32","system_id":"levelo_inurba_marseille","lat":43.29182,"lon":5.35803,"is_reserved":false,"is_disabled":false,"rental_uris":{"android":"levelo://app?vid=65047612-25b9-4b3a-99bd-2d5b7ac38b32","ios":"levelo://app?vid=65047612-25b9-4b3a-99bd-2d5b7ac38b32"},"vehicle_type_id":"4","last_reported":1726665392,"current_range_meters":5600,"station_id":"ce4bhb12rcd13ifvqel0","pricing_plan_id":"cebpf4jnsgd1na2vs0mg"},{"bike_id":"fa690805-233a-4a70-a9f3-33f1b67cdb1f","system_id":"levelo_inurba_marseille","lat":43.32288,"lon":5.38274,"is_reserved":false,"is_disabled":false,"rental_uris":{"android":"levelo://app?vid=fa690805-233a-4a70-a9f3-33f1b67cdb1f","ios":"levelo://app?vid=fa690805-233a-4a70-a9f3-33f1b67cdb1f"},"vehicle_type_id":"4","last_reported":1726665392,"current_range_meters":28000,"station_id":"ce4bhr12rcd13ifvqhqg","pricing_plan_id":"cebpf4jnsgd1na2vs0mg"},{"bike_id":"d4dee6ce-09ee-4472-9917-4640f642bb72","system_id":"levelo_inurba_marseille","lat":43.22939,"lon":5.35376,"is_reserved":false,"is_disabled":false,"rental_uris":{"android":"levelo://app?vid=d4dee6ce-09ee-4472-9917-4640f642bb72","ios":"levelo://app?vid=d4dee6ce-09ee-4472-9917-4640f642bb72"},"vehicle_type_id":"4","last_reported":1726665392,"current_range_meters":28800,"station_id":"cpo3532slgdg3j2ikp40","pricing_plan_id":"cebpf4jnsgd1na2vs0mg"},{"bike_id":"8b608b96-fedf-4511-8d4b-09bad2606e1a","system_id":"levelo_inurba_marseille","lat":43.27716,"lon":5.4113,"is_reserved":false,"is_disabled":false,"rental_uris":{"android":"levelo://app?vid=8b608b96-fedf-4511-8d4b-09bad2606e1a","ios":"levelo://app?vid=8b608b96-fedf-4511-8d4b-09bad2606e1a"},"vehicle_type_id":"4","last_reported":1726665392,"current_range_meters":4800,"station_id":"","pricing_plan_id":"cebpf4jnsgd1na2vs0mg"},{"bike_id":"e8215741-0611-480f-8b5d-3c337556e93d","system_id":"levelo_inurba_marseille","lat":43.24391,"lon":5.37049,"is_reserved":false,"is_disabled":false,"rental_uris":{"android":"levelo://app?vid=e8215741-0611-480f-8b5d-3c337556e93d","ios":"levelo://app?vid=e8215741-0611-480f-8b5d-3c337556e93d"},"vehicle_type_id":"4","last_reported":1726665392,"current_range_meters":32800,"station_id":"ce4bhhh2rcd13ifvqfk0","pricing_plan_id":"cebpf4jnsgd1na2vs0mg"},{"bike_id":"74fcf1e7-64a1-42f8-bcec-bf0af491e527","system_id":"levelo_inurba_marseille","lat":43.31713,"lon":5.43705,"is_reserved":false,"is_disabled":false,"rental_uris":{"android":"levelo://app?vid=74fcf1e7-64a1-42f8-bcec-bf0af491e527","ios":"levelo://app?vid=74fcf1e7-64a1-42f8-bcec-bf0af491e527"},"vehicle_type_id":"4","last_reported":1726665392,"current_range_meters":38800,"station_id":"ce4bhp92rcd13ifvqhcg","pricing_plan_id":"cebpf4jnsgd1na2vs0mg"},{"bike_id":"d1b2903b-c778-4ec8-86aa-03c71c5747df","system_id":"levelo_inurba_marseille","lat":43.30275,"lon":5.37698,"is_reserved":false,"is_disabled":false,"rental_uris":{"android":"levelo://app?vid=d1b2903b-c778-4ec8-86aa-03c71c5747df","ios":"levelo://app?vid=d1b2903b-c778-4ec8-86aa-03c71c5747df"},"vehicle_type_id":"4","last_reported":1726665392,"current_range_meters":25600,"station_id":"ce4bguh2rcd13ifvqcj0","pricing_plan_id":"cebpf4jnsgd1na2vs0mg"},{"bike_id":"43e48ace-671c-4293-8af6-bc1cd4515f49","system_id":"levelo_inurba_marseille","lat":43.322899,"lon":5.382696,"is_reserved":false,"is_disabled":false,"rental_uris":{"android":"levelo://app?vid=43e48ace-671c-4293-8af6-bc1cd4515f49","ios":"levelo://app?vid=43e48ace-671c-4293-8af6-bc1cd4515f49"},"vehicle_type_id":"4","last_reported":1726665392,"current_range_meters":11200,"station_id":"ce4bgl92rcd13ifvqbq0","pricing_plan_id":"cebpf4jnsgd1na2vs0mg"},{"bike_id":"b05edf11-fa56-4784-ac49-4358032ff923","system_id":"levelo_inurba_marseille","lat":43.28937,"lon":5.36634,"is_reserved":false,"is_disabled":false,"rental_uris":{"android":"levelo://app?vid=b05edf11-fa56-4784-ac49-4358032ff923","ios":"levelo://app?vid=b05edf11-fa56-4784-ac49-4358032ff923"},"vehicle_type_id":"4","last_reported":1726665392,"current_range_meters":39200,"station_id":"ce4bhap2rcd13ifvqek0","pricing_plan_id":"cebpf4jnsgd1na2vs0mg"},{"bike_id":"c8735fda-786e-475e-99a9-0a9b1e7aa191","system_id":"levelo_inurba_marseille","lat":43.26036,"lon":5.37541,"is_reserved":false,"is_disabled":false,"rental_uris":{"android":"levelo://app?vid=c8735fda-786e-475e-99a9-0a9b1e7aa191","ios":"levelo://app?vid=c8735fda-786e-475e-99a9-0a9b1e7aa191"},"vehicle_type_id":"4","last_reported":1726665392,"current_range_meters":23200,"station_id":"ce4bhgh2rcd13ifvqfa0","pricing_plan_id":"cebpf4jnsgd1na2vs0mg"},{"bike_id":"ae55e842-b8f1-46b9-b0f1-425fe08e8086","system_id":"levelo_inurba_marseille","lat":43.2993,"lon":5.36541,"is_reserved":false,"is_disabled":false,"rental_uris":{"android":"levelo://app?vid=ae55e842-b8f1-46b9-b0f1-425fe08e8086","ios":"levelo://app?vid=ae55e842-b8f1-46b9-b0f1-425fe08e8086"},"vehicle_type_id":"4","last_reported":1726665392,"current_range_meters":30000,"station_id":"ce4bgm92rcd13ifvqbr0","pricing_plan_id":"cebpf4jnsgd1na2vs0mg"},{"bike_id":"caa0f34b-8b40-4c29-85a6-76c38487b57f","system_id":"levelo_inurba_marseille","lat":43.30557,"lon":5.36529,"is_reserved":false,"is_disabled":false,"rental_uris":{"android":"levelo://app?vid=caa0f34b-8b40-4c29-85a6-76c38487b57f","ios":"levelo://app?vid=caa0f34b-8b40-4c29-85a6-76c38487b57f"},"vehicle_type_id":"4","last_reported":1726665392,"current_range_meters":17600,"station_id":"ce4bgs12rcd13ifvqcag","pricing_plan_id":"cebpf4jnsgd1na2vs0mg"},{"bike_id":"b733998f-02c6-46c9-87ed-fa0c2f669ea8","system_id":"levelo_inurba_marseille","lat":43.24807,"lon":5.37453,"is_reserved":false,"is_disabled":false,"rental_uris":{"android":"levelo://app?vid=b733998f-02c6-46c9-87ed-fa0c2f669ea8","ios":"levelo://app?vid=b733998f-02c6-46c9-87ed-fa0c2f669ea8"},"vehicle_type_id":"4","last_reported":1726665392,"current_range_meters":19200,"station_id":"ce4bhgh2rcd13ifvqfb0","pricing_plan_id":"cebpf4jnsgd1na2vs0mg"},{"bike_id":"f2741cbb-baf6-48ac-9ab9-e4a2519206f1","system_id":"levelo_inurba_marseille","lat":43.28721,"lon":5.36078,"is_reserved":false,"is_disabled":false,"rental_uris":{"android":"levelo://app?vid=f2741cbb-baf6-48ac-9ab9-e4a2519206f1","ios":"levelo://app?vid=f2741cbb-baf6-48ac-9ab9-e4a2519206f1"},"vehicle_type_id":"4","last_reported":1726665392,"current_range_meters":9600,"station_id":"cki0cbj6b192h4jlfktg","pricing_plan_id":"cebpf4jnsgd1na2vs0mg"},{"bike_id":"19b41e84-3d25-4b44-903d-67b69827c344","system_id":"levelo_inurba_marseille","lat":43.23189,"lon":5.39979,"is_reserved":false,"is_disabled":false,"rental_uris":{"android":"levelo://app?vid=19b41e84-3d25-4b44-903d-67b69827c344","ios":"levelo://app?vid=19b41e84-3d25-4b44-903d-67b69827c344"},"vehicle_type_id":"4","last_reported":1726665392,"current_range_meters":4000,"station_id":"ce4bhn12rcd13ifvqgqg","pricing_plan_id":"cebpf4jnsgd1na2vs0mg"},{"bike_id":"43d7e620-c98f-4b24-b61c-b483371634a1","system_id":"levelo_inurba_marseille","lat":43.29572,"lon":5.37509,"is_reserved":false,"is_disabled":false,"rental_uris":{"android":"levelo://app?vid=43d7e620-c98f-4b24-b61c-b483371634a1","ios":"levelo://app?vid=43d7e620-c98f-4b24-b61c-b483371634a1"},"vehicle_type_id":"4","last_reported":1726665392,"current_range_meters":38800,"station_id":"ce4bgh92rcd13ifvqb50","pricing_plan_id":"cebpf4jnsgd1na2vs0mg"},{"bike_id":"0b6cb3f5-af87-457c-b3eb-e1aa3ea9cad0","system_id":"levelo_inurba_marseille","lat":43.2466,"lon":5.38162,"is_reserved":false,"is_disabled":false,"rental_uris":{"android":"levelo://app?vid=0b6cb3f5-af87-457c-b3eb-e1aa3ea9cad0","ios":"levelo://app?vid=0b6cb3f5-af87-457c-b3eb-e1aa3ea9cad0"},"vehicle_type_id":"4","last_reported":1726665392,"current_range_meters":22800,"station_id":"ce4bhih2rcd13ifvqfr0","pricing_plan_id":"cebpf4jnsgd1na2vs0mg"},{"bike_id":"498a9975-f93a-42dc-9b2f-06fb60860407","system_id":"levelo_inurba_marseille","lat":43.23149,"lon":5.43727,"is_reserved":false,"is_disabled":false,"rental_uris":{"android":"levelo://app?vid=498a9975-f93a-42dc-9b2f-06fb60860407","ios":"levelo://app?vid=498a9975-f93a-42dc-9b2f-06fb60860407"},"vehicle_type_id":"4","last_reported":1726665392,"current_range_meters":24800,"station_id":"ce4bhmp2rcd13ifvqgog","pricing_plan_id":"cebpf4jnsgd1na2vs0mg"},{"bike_id":"1ce44792-ff6c-410f-8590-8c6993669e43","system_id":"levelo_inurba_marseille","lat":43.28029,"lon":5.36937,"is_reserved":false,"is_disabled":false,"rental_uris":{"android":"levelo://app?vid=1ce44792-ff6c-410f-8590-8c6993669e43","ios":"levelo://app?vid=1ce44792-ff6c-410f-8590-8c6993669e43"},"vehicle_type_id":"4","last_reported":1726665392,"current_range_meters":10000,"station_id":"ce4bha12rcd13ifvqef0","pricing_plan_id":"cebpf4jnsgd1na2vs0mg"},{"bike_id":"15b391f8-82a1-45ba-80c4-3a85015bd649","system_id":"levelo_inurba_marseille","lat":43.32484,"lon":5.36566,"is_reserved":false,"is_disabled":false,"rental_uris":{"android":"levelo://app?vid=15b391f8-82a1-45ba-80c4-3a85015bd649","ios":"levelo://app?vid=15b391f8-82a1-45ba-80c4-3a85015bd649"},"vehicle_type_id":"4","last_reported":1726665392,"current_range_meters":35600,"station_id":"ce4bhs12rcd13ifvqhvg","pricing_plan_id":"cebpf4jnsgd1na2vs0mg"},{"bike_id":"81212d8d-3bcf-4b6c-ad7d-f55f7d409c69","system_id":"levelo_inurba_marseille","lat":43.32359,"lon":5.38879,"is_reserved":false,"is_disabled":false,"rental_uris":{"android":"levelo://app?vid=81212d8d-3bcf-4b6c-ad7d-f55f7d409c69","ios":"levelo://app?vid=81212d8d-3bcf-4b6c-ad7d-f55f7d409c69"},"vehicle_type_id":"4","last_reported":1726665392,"current_range_meters":10800,"station_id":"ce4bhqp2rcd13ifvqhog","pricing_plan_id":"cebpf4jnsgd1na2vs0mg"},{"bike_id":"f52a2c58-163a-4a6f-8702-97bad6e26366","system_id":"levelo_inurba_marseille","lat":43.337444,"lon":5.374475,"is_reserved":false,"is_disabled":false,"rental_uris":{"android":"levelo://app?vid=f52a2c58-163a-4a6f-8702-97bad6e26366","ios":"levelo://app?vid=f52a2c58-163a-4a6f-8702-97bad6e26366"},"vehicle_type_id":"4","last_reported":1726665392,"current_range_meters":37600,"station_id":"ce4bh392rcd13ifvqdl0","pricing_plan_id":"cebpf4jnsgd1na2vs0mg"},{"bike_id":"1fcbd01a-427d-43a5-9535-912c25efa134","system_id":"levelo_inurba_marseille","lat":43.23197,"lon":5.35546,"is_reserved":false,"is_disabled":false,"rental_uris":{"android":"levelo://app?vid=1fcbd01a-427d-43a5-9535-912c25efa134","ios":"levelo://app?vid=1fcbd01a-427d-43a5-9535-912c25efa134"},"vehicle_type_id":"4","last_reported":1726665392,"current_range_meters":37600,"station_id":"ce4bhu92rcd13ifvqi70","pricing_plan_id":"cebpf4jnsgd1na2vs0mg"},{"bike_id":"a682371d-ede3-4757-8d77-ca527ee895ef","system_id":"levelo_inurba_marseille","lat":43.27375,"lon":5.36253,"is_reserved":false,"is_disabled":false,"rental_uris":{"android":"levelo://app?vid=a682371d-ede3-4757-8d77-ca527ee895ef","ios":"levelo://app?vid=a682371d-ede3-4757-8d77-ca527ee895ef"},"vehicle_type_id":"4","last_reported":1726665392,"current_range_meters":38800,"station_id":"ce4bhbh2rcd13ifvqeo0","pricing_plan_id":"cebpf4jnsgd1na2vs0mg"},{"bike_id":"38fe9352-6de4-4cfc-9cd2-3b888e14bfba","system_id":"levelo_inurba_marseille","lat":43.24178,"lon":5.39713,"is_reserved":false,"is_disabled":false,"rental_uris":{"android":"levelo://app?vid=38fe9352-6de4-4cfc-9cd2-3b888e14bfba","ios":"levelo://app?vid=38fe9352-6de4-4cfc-9cd2-3b888e14bfba"},"vehicle_type_id":"4","last_reported":1726665392,"current_range_meters":36400,"station_id":"ce4bhn12rcd13ifvqgpg","pricing_plan_id":"cebpf4jnsgd1na2vs0mg"},{"bike_id":"27109f1d-8ca1-4ba1-8193-7ca41a45028e","system_id":"levelo_inurba_marseille","lat":43.2669,"lon":5.38267,"is_reserved":false,"is_disabled":false,"rental_uris":{"android":"levelo://app?vid=27109f1d-8ca1-4ba1-8193-7ca41a45028e","ios":"levelo://app?vid=27109f1d-8ca1-4ba1-8193-7ca41a45028e"},"vehicle_type_id":"4","last_reported":1726665392,"current_range_meters":30000,"station_id":"ce4bhg92rcd13ifvqf90","pricing_plan_id":"cebpf4jnsgd1na2vs0mg"},{"bike_id":"321f1d67-22ab-4889-b12f-adf96aac164d","system_id":"levelo_inurba_marseille","lat":43.30545,"lon":5.36539,"is_reserved":false,"is_disabled":false,"rental_uris":{"android":"levelo://app?vid=321f1d67-22ab-4889-b12f-adf96aac164d","ios":"levelo://app?vid=321f1d67-22ab-4889-b12f-adf96aac164d"},"vehicle_type_id":"4","last_reported":1726665392,"current_range_meters":28400,"station_id":"ce4bgs12rcd13ifvqcag","pricing_plan_id":"cebpf4jnsgd1na2vs0mg"},{"bike_id":"e5ce120e-f189-4882-876a-d185220bcf95","system_id":"levelo_inurba_marseille","lat":43.3302,"lon":5.39049,"is_reserved":false,"is_disabled":false,"rental_uris":{"android":"levelo://app?vid=e5ce120e-f189-4882-876a-d185220bcf95","ios":"levelo://app?vid=e5ce120e-f189-4882-876a-d185220bcf95"},"vehicle_type_id":"4","last_reported":1726665392,"current_range_meters":10000,"station_id":"ce4bhr92rcd13ifvqhrg","pricing_plan_id":"cebpf4jnsgd1na2vs0mg"},{"bike_id":"f1744046-4820-4d6d-97b6-8c84b0410a9a","system_id":"levelo_inurba_marseille","lat":43.3015,"lon":5.380882,"is_reserved":false,"is_disabled":false,"rental_uris":{"android":"levelo://app?vid=f1744046-4820-4d6d-97b6-8c84b0410a9a","ios":"levelo://app?vid=f1744046-4820-4d6d-97b6-8c84b0410a9a"},"vehicle_type_id":"4","last_reported":1726665392,"current_range_meters":37600,"station_id":"ce4bh012rcd13ifvqcv0","pricing_plan_id":"cebpf4jnsgd1na2vs0mg"},{"bike_id":"13fdbc64-c53e-444b-aa44-c17842e30423","system_id":"levelo_inurba_marseille","lat":43.2606,"lon":5.39394,"is_reserved":false,"is_disabled":false,"rental_uris":{"android":"levelo://app?vid=13fdbc64-c53e-444b-aa44-c17842e30423","ios":"levelo://app?vid=13fdbc64-c53e-444b-aa44-c17842e30423"},"vehicle_type_id":"4","last_reported":1726665392,"current_range_meters":38000,"station_id":"ce4bhh92rcd13ifvqfj0","pricing_plan_id":"cebpf4jnsgd1na2vs0mg"},{"bike_id":"7817dd2a-009b-46c7-aa0a-ce18bf959fb4","system_id":"levelo_inurba_marseille","lat":43.30124,"lon":5.37427,"is_reserved":false,"is_disabled":false,"rental_uris":{"android":"levelo://app?vid=7817dd2a-009b-46c7-aa0a-ce18bf959fb4","ios":"levelo://app?vid=7817dd2a-009b-46c7-aa0a-ce18bf959fb4"},"vehicle_type_id":"4","last_reported":1726665392,"current_range_meters":15200,"station_id":"ce4bgs92rcd13ifvqcc0","pricing_plan_id":"cebpf4jnsgd1na2vs0mg"},{"bike_id":"0f6401ba-8693-4f1f-a191-d2bf3385c473","system_id":"levelo_inurba_marseille","lat":43.28937,"lon":5.36641,"is_reserved":false,"is_disabled":false,"rental_uris":{"android":"levelo://app?vid=0f6401ba-8693-4f1f-a191-d2bf3385c473","ios":"levelo://app?vid=0f6401ba-8693-4f1f-a191-d2bf3385c473"},"vehicle_type_id":"4","last_reported":1726665392,"current_range_meters":16800,"station_id":"ce4bhap2rcd13ifvqek0","pricing_plan_id":"cebpf4jnsgd1na2vs0mg"},{"bike_id":"8b319c9e-db47-4676-a241-144b79cc0e38","system_id":"levelo_inurba_marseille","lat":43.33751,"lon":5.37449,"is_reserved":false,"is_disabled":false,"rental_uris":{"android":"levelo://app?vid=8b319c9e-db47-4676-a241-144b79cc0e38","ios":"levelo://app?vid=8b319c9e-db47-4676-a241-144b79cc0e38"},"vehicle_type_id":"4","last_reported":1726665392,"current_range_meters":38000,"station_id":"","pricing_plan_id":"cebpf4jnsgd1na2vs0mg"},{"bike_id":"6f387a41-1a28-4619-ac86-26875678b81b","system_id":"levelo_inurba_marseille","lat":43.29899,"lon":5.43668,"is_reserved":false,"is_disabled":false,"rental_uris":{"android":"levelo://app?vid=6f387a41-1a28-4619-ac86-26875678b81b","ios":"levelo://app?vid=6f387a41-1a28-4619-ac86-26875678b81b"},"vehicle_type_id":"4","last_reported":1726665392,"current_range_meters":15200,"station_id":"ce4bhpp2rcd13ifvqhfg","pricing_plan_id":"cebpf4jnsgd1na2vs0mg"},{"bike_id":"85644f18-567c-4729-9f1f-0e912bd9680c","system_id":"levelo_inurba_marseille","lat":43.308919,"lon":5.396591,"is_reserved":false,"is_disabled":false,"rental_uris":{"android":"levelo://app?vid=85644f18-567c-4729-9f1f-0e912bd9680c","ios":"levelo://app?vid=85644f18-567c-4729-9f1f-0e912bd9680c"},"vehicle_type_id":"4","last_reported":1726665392,"current_range_meters":19600,"station_id":"ce4bh012rcd13ifvqcv0","pricing_plan_id":"cebpf4jnsgd1na2vs0mg"},{"bike_id":"58190bbe-9315-429b-878a-50c3668829e8","system_id":"levelo_inurba_marseille","lat":43.24652,"lon":5.38893,"is_reserved":false,"is_disabled":false,"rental_uris":{"android":"levelo://app?vid=58190bbe-9315-429b-878a-50c3668829e8","ios":"levelo://app?vid=58190bbe-9315-429b-878a-50c3668829e8"},"vehicle_type_id":"4","last_reported":1726665392,"current_range_meters":10000,"station_id":"ce4bhg12rcd13ifvqf60","pricing_plan_id":"cebpf4jnsgd1na2vs0mg"},{"bike_id":"51cb4bc0-94fc-41e0-add0-0614319e0016","system_id":"levelo_inurba_marseille","lat":43.28935,"lon":5.3664,"is_reserved":false,"is_disabled":false,"rental_uris":{"android":"levelo://app?vid=51cb4bc0-94fc-41e0-add0-0614319e0016","ios":"levelo://app?vid=51cb4bc0-94fc-41e0-add0-0614319e0016"},"vehicle_type_id":"4","last_reported":1726665392,"current_range_meters":4000,"station_id":"ce4bhap2rcd13ifvqek0","pricing_plan_id":"cebpf4jnsgd1na2vs0mg"},{"bike_id":"66075e51-c532-41b2-837a-c8514ef0a0cb","system_id":"levelo_inurba_marseille","lat":43.25729,"lon":5.41109,"is_reserved":false,"is_disabled":false,"rental_uris":{"android":"levelo://app?vid=66075e51-c532-41b2-837a-c8514ef0a0cb","ios":"levelo://app?vid=66075e51-c532-41b2-837a-c8514ef0a0cb"},"vehicle_type_id":"4","last_reported":1726665392,"current_range_meters":7200,"station_id":"ce4bhkp2rcd13ifvqgd0","pricing_plan_id":"cebpf4jnsgd1na2vs0mg"},{"bike_id":"da745f1f-421d-45bf-a349-53e7c0349f1e","system_id":"levelo_inurba_marseille","lat":43.29976,"lon":5.38482,"is_reserved":false,"is_disabled":false,"rental_uris":{"android":"levelo://app?vid=da745f1f-421d-45bf-a349-53e7c0349f1e","ios":"levelo://app?vid=da745f1f-421d-45bf-a349-53e7c0349f1e"},"vehicle_type_id":"4","last_reported":1726665392,"current_range_meters":26800,"station_id":"ce4bgj92rcd13ifvqbd0","pricing_plan_id":"cebpf4jnsgd1na2vs0mg"},{"bike_id":"8d205185-9039-40cf-ab9c-0b437a5b0eeb","system_id":"levelo_inurba_marseille","lat":43.25935,"lon":5.40912,"is_reserved":false,"is_disabled":false,"rental_uris":{"android":"levelo://app?vid=8d205185-9039-40cf-ab9c-0b437a5b0eeb","ios":"levelo://app?vid=8d205185-9039-40cf-ab9c-0b437a5b0eeb"},"vehicle_type_id":"4","last_reported":1726665392,"current_range_meters":36000,"station_id":"ce4bhm92rcd13ifvqglg","pricing_plan_id":"cebpf4jnsgd1na2vs0mg"},