{"last_updated":1726751828,"ttl":30,"version":"2.2","data":{"bikes":[{"bike_id":"8d15ca3c-baa2-4080-8af7-c4caccb9b266","system_id":"levelo_inurba_marseille","lat":43.29084,"lon":5.38152,"is_reserved":false,"is_disabled":false,"rental_uris":{"android":"levelo://app?vid=8d15ca3c-baa2-4080-8af7-c4caccb9b266","ios":"levelo://app?vid=8d15ca3c-baa2-4080-8af7-c4caccb9b266"},"vehicle_type_id":"4","last_reported":1726751828,"current_range_meters":19600,"station_id":"ce4bh512rcd13ifvqe2g","pricing_plan_id":"cebpf4jnsgd1na2vs0mg"},{"bike_id":"f19b02d3-0f2a-44b9-b6bf-1f8beeef0801","system_id":"levelo_inurba_marseille","lat":43.29802,"lon":5.38102,"is_reserved":false,"is_disabled":false,"rental_uris":{"android":"levelo://app?vid=f19b02d3-0f2a-44b9-b6bf-1f8beeef0801","ios":"levelo://app?vid=f19b02d3-0f2a-44b9-b6bf-1f8beeef0801"},"vehicle_type_id":"4","last_reported":1726751828,"current_range_meters":38800,"station_id":"ce4bgip2rcd13ifvqbb0","pricing_plan_id":"cebpf4jnsgd1na2vs0mg"},{"bike_id":"104fb511-d6f2-4a01-88d3-3e2b7c5ab661","system_id":"levelo_inurba_marseille","lat":43.3169,"lon":5.40467,"is_reserved":false,"is_disabled":false,"rental_uris":{"android":"levelo://app?vid=104fb511-d6f2-4a01-88d3-3e2b7c5ab661","ios":"levelo://app?vid=104fb511-d6f2-4a01-88d3-3e2b7c5ab661"},"vehicle_type_id":"4","last_reported":1726751828,"current_range_meters":38800,"station_id":"ce4bh012rcd13ifvqd00","pricing_plan_id":"cebpf4jnsgd1na2vs0mg"},{"bike_id":"f65432b3-b265-4d33-b4f3-27724721d948","system_id":"levelo_inurba_marseille","lat":43.30424,"lon":5.39746,"is_reserved":false,"is_disabled":false,"rental_uris":{"android":"levelo://app?vid=f65432b3-b265-4d33-b4f3-27724721d948","ios":"levelo://app?vid=f65432b3-b265-4d33-b4f3-27724721d948"},"vehicle_type_id":"4","last_reported":1726751828,"current_range_meters":36800,"station_id":"ce4bh092rcd13ifvqd20","pricing_plan_id":"cebpf4jnsgd1na2vs0mg"},{"bike_id":"20e9fa14-72b1-451b-a4d5-16c3428ef6fa","system_id":"levelo_inurba_marseille","lat":43.2866,"lon":5.38669,"is_reserved":false,"is_disabled":false,"rental_uris":{"android":"levelo://app?vid=20e9fa14-72b1-451b-a4d5-16c3428ef6fa","ios":"levelo://app?vid=20e9fa14-72b1-451b-a4d5-16c3428ef6fa"},"vehicle_type_id":"4","last_reported":1726751828,"current_range_meters":26000,"station_id":"ce4bh492rcd13ifvqdug","pricing_plan_id":"cebpf4jnsgd1na2vs0mg"},{"bike_id":"a978b35a-39d2-417e-8095-f3be60dd0fbb","system_id":"levelo_inurba_marseille","lat":43.29574,"lon":5.42274,"is_reserved":false,"is_disabled":false,"rental_uris":{"android":"levelo://app?vid=a978b35a-39d2-417e-8095-f3be60dd0fbb","ios":"levelo://app?vid=a978b35a-39d2-417e-8095-f3be60dd0fbb"},"vehicle_type_id":"4","last_reported":1726751828,"current_range_meters":34800,"station_id":"ce4bhph2rcd13ifvqhdg","pricing_plan_id":"cebpf4jnsgd1na2vs0mg"},{"bike_id":"66442520-d49d-4c7c-8134-5e274a122414","system_id":"levelo_inurba_marseille","lat":43.28661,"lon":5.36347,"is_reserved":false,"is_disabled":false,"rental_uris":{"android":"levelo://app?vid=66442520-d49d-4c7c-8134-5e274a122414","ios":"levelo://app?vid=66442520-d49d-4c7c-8134-5e274a122414"},"vehicle_type_id":"4","last_reported":1726751828,"current_range_meters":28000,"station_id":"ce4bhah2rcd13ifvqej0","pricing_plan_id":"cebpf4jnsgd1na2vs0mg"},{"bike_id":"9f3b1241-2eeb-45e6-badc-17b88e21cb1f","system_id":"levelo_inurba_marseille","lat":43.317596,"lon":5.390125,"is_reserved":false,"is_disabled":false,"rental_uris":{"android":"levelo://app?vid=9f3b1241-2eeb-45e6-badc-17b88e21cb1f","ios":"levelo://app?vid=9f3b1241-2eeb-45e6-badc-17b88e21cb1f"},"vehicle_type_id":"4","last_reported":1726751828,"current_range_meters":38000,"station_id":"ce4bhqp2rcd13ifvqhng","pricing_plan_id":"cebpf4jnsgd1na2vs0mg"},{"bike_id":"ea518a3b-2ba6-4aef-8e8b-1da3cf82019a","system_id":"levelo_inurba_marseille","lat":43.27496,"lon":5.42454,"is_reserved":false,"is_disabled":false,"rental_uris":{"android":"levelo://app?vid=ea518a3b-2ba6-4aef-8e8b-1da3cf82019a","ios":"levelo://app?vid=ea518a3b-2ba6-4aef-8e8b-1da3cf82019a"},"vehicle_type_id":"4","last_reported":1726751828,"current_range_meters":5600,"station_id":"ce4bhn92rcd13ifvqgrg","pricing_plan_id":"cebpf4jnsgd1na2vs0mg"},{"bike_id":"e532fd53-ad12-4848-82ea-70ac934c1c37","system_id":"levelo_inurba_marseille","lat":43.3375,"lon":5.37446,"is_reserved":false,"is_disabled":false,"rental_uris":{"android":"levelo://app?vid=e532fd53-ad12-4848-82ea-70ac934c1c37","ios":"levelo://app?vid=e532fd53-ad12-4848-82ea-70ac934c1c37"},"vehicle_type_id":"4","last_reported":1726751828,"current_range_meters":37600,"station_id":"","pricing_plan_id":"cebpf4jnsgd1na2vs0mg"},{"bike_id":"5ee10d77-f4fa-4596-a9ec-7eb45b618b18","system_id":"levelo_inurba_marseille","lat":43.29973,"lon":5.38494,"is_reserved":false,"is_disabled":false,"rental_uris":{"android":"levelo://app?vid=5ee10d77-f4fa-4596-a9ec-7eb45b618b18","ios":"levelo://app?vid=5ee10d77-f4fa-4596-a9ec-7eb45b618b18"},"vehicle_type_id":"4","last_reported":1726751828,"current_range_meters":33200,"station_id":"ce4bgj92rcd13ifvqbd0","pricing_plan_id":"cebpf4jnsgd1na2vs0mg"},{"bike_id":"16aff90c-07c9-446e-b8cf-7b04ea13322c","system_id":"levelo_inurba_marseille","lat":43.28152,"lon":5.42641,"is_reserved":false,"is_disabled":false,"rental_uris":{"android":"levelo://app?vid=16aff90c-07c9-446e-b8cf-7b04ea13322c","ios":"levelo://app?vid=16aff90c-07c9-446e-b8cf-7b04ea13322c"},"vehicle_type_id":"4","last_reported":1726751828,"current_range_meters":35600,"station_id":"ce4bhnh2rcd13ifvqgug","pricing_plan_id":"cebpf4jnsgd1na2vs0mg"},{"bike_id":"b2afe532-60b2-4926-b7d1-975616aa7125","system_id":"levelo_inurba_marseille","lat":43.304332,"lon":5.397422,"is_reserved":false,"is_disabled":false,"rental_uris":{"android":"levelo://app?vid=b2afe532-60b2-4926-b7d1-975616aa7125","ios":"levelo://app?vid=b2afe532-60b2-4926-b7d1-975616aa7125"},"vehicle_type_id":"4","last_reported":1726751828,"current_range_meters":16800,"station_id":"ce4bh092rcd13ifvqd20","pricing_plan_id":"cebpf4jnsgd1na2vs0mg"},{"bike_id":"9a7bef7e-aa27-4b3e-b3a0-16082888faf1","system_id":"levelo_inurba_marseille","lat":43.25935,"lon":5.40907,"is_reserved":false,"is_disabled":false,"rental_uris":{"android":"levelo://app?vid=9a7bef7e-aa27-4b3e-b3a0-16082888faf1","ios":"levelo://app?vid=9a7bef7e-aa27-4b3e-b3a0-16082888faf1"},"vehicle_type_id":"4","last_reported":1726751828,"current_range_meters":34800,"station_id":"ce4bhm92rcd13ifvqglg","pricing_plan_id":"cebpf4jnsgd1na2vs0mg"},{"bike_id":"76040d17-f290-46b1-abf0-bfaf6434faf9","system_id":"levelo_inurba_marseille","lat":43.29525,"lon":5.39037,"is_reserved":false,"is_disabled":false,"rental_uris":{"android":"levelo://app?vid=76040d17-f290-46b1-abf0-bfaf6434faf9","ios":"levelo://app?vid=76040d17-f290-46b1-abf0-bfaf6434faf9"},"vehicle_type_id":"4","last_reported":1726751828,"current_range_meters":24400,"station_id":"ce4bh3p2rcd13ifvqdp0","pricing_plan_id":"cebpf4jnsgd1na2vs0mg"},{"bike_id":"24b7c7e5-9028-45e4-85f4-8a8581feee0a","system_id":"levelo_inurba_marseille","lat":43.29188,"lon":5.358,"is_reserved":false,"is_disabled":false,"rental_uris":{"android":"levelo://app?vid=24b7c7e5-9028-45e4-85f4-8a8581feee0a","ios":"levelo://app?vid=24b7c7e5-9028-45e4-85f4-8a8581feee0a"},"vehicle_type_id":"4","last_reported":1726751828,"current_range_meters":39200,"station_id":"ce4bhb12rcd13ifvqel0","pricing_plan_id":"cebpf4jnsgd1na2vs0mg"},{"bike_id":"a48c0f10-3a7a-4fe8-8343-dded0834619f","system_id":"levelo_inurba_marseille","lat":43.24083,"lon":5.37746,"is_reserved":false,"is_disabled":false,"rental_uris":{"android":"levelo://app?vid=a48c0f10-3a7a-4fe8-8343-dded0834619f","ios":"levelo://app?vid=a48c0f10-3a7a-4fe8-8343-dded0834619f"},"vehicle_type_id":"4","last_reported":1726751828,"current_range_meters":13600,"station_id":"","pricing_plan_id":"cebpf4jnsgd1na2vs0mg"},{"bike_id":"5820fe83-ad5f-4557-a1a9-e1814307abd9","system_id":"levelo_inurba_marseille","lat":43.31888,"lon":5.40732,"is_reserved":false,"is_disabled":false,"rental_uris":{"android":"levelo://app?vid=5820fe83-ad5f-4557-a1a9-e1814307abd9","ios":"levelo://app?vid=5820fe83-ad5f-4557-a1a9-e1814307abd9"},"vehicle_type_id":"4","last_reported":1726751828,"current_range_meters":38800,"station_id":"ce4bhq12rcd13ifvqhig","pricing_plan_id":"cebpf4jnsgd1na2vs0mg"},{"bike_id":"371721f5-c84b-4ce1-9152-1691286ac576","system_id":"levelo_inurba_marseille","lat":43.3078,"lon":5.37657,"is_reserved":false,"is_disabled":false,"rental_uris":{"android":"levelo://app?vid=371721f5-c84b-4ce1-9152-1691286ac576","ios":"levelo://app?vid=371721f5-c84b-4ce1-9152-1691286ac576"},"vehicle_type_id":"4","last_reported":1726751828,"current_range_meters":16800,"station_id":"ce4bgv92rcd13ifvqcq0","pricing_plan_id":"cebpf4jnsgd1na2vs0mg"},{"bike_id":"4af403ff-232e-437f-a15e-03f83dae4a86","system_id":"levelo_inurba_marseille","lat":43.30532,"lon":5.3654,"is_reserved":false,"is_disabled":false,"rental_uris":{"android":"levelo://app?vid=4af403ff-232e-437f-a15e-03f83dae4a86","ios":"levelo://app?vid=4af403ff-232e-437f-a15e-03f83dae4a86"},"vehicle_type_id":"4","last_reported":1726751828,"current_range_meters":24400,"station_id":"ce4bgs12rcd13ifvqcag","pricing_plan_id":"cebpf4jnsgd1na2vs0mg"},{"bike_id":"64b8db7b-e020-426b-bc67-cc08026eaa92","system_id":"levelo_inurba_marseille","lat":43.29841,"lon":5.36261,"is_reserved":false,"is_disabled":false,"rental_uris":{"android":"levelo://app?vid=64b8db7b-e020-426b-bc67-cc08026eaa92","ios":"levelo://app?vid=64b8db7b-e020-426b-bc67-cc08026eaa92"},"vehicle_type_id":"4","last_reported":1726751828,"current_range_meters":39200,"station_id":"ce4bgpp2rcd13ifvqc3g","pricing_plan_id":"cebpf4jnsgd1na2vs0mg"},{"bike_id":"0fb7f077-d7a6-4776-bbe2-b4a1b9579374","system_id":"levelo_inurba_marseille","lat":43.297,"lon":5.37688,"is_reserved":false,"is_disabled":false,"rental_uris":{"android":"levelo://app?vid=0fb7f077-d7a6-4776-bbe2-b4a1b9579374","ios":"levelo://app?vid=0fb7f077-d7a6-4776-bbe2-b4a1b9579374"},"vehicle_type_id":"4","last_reported":1726751828,"current_range_meters":34800,"station_id":"ce4bgkh2rcd13ifvqbl0","pricing_plan_id":"cebpf4jnsgd1na2vs0mg"},{"bike_id":"84a5067c-fc6a-4369-a073-79995df1a7e5","system_id":"levelo_inurba_marseille","lat":43.29009,"lon":5.35607,"is_reserved":false,"is_disabled":false,"rental_uris":{"android":"levelo://app?vid=84a5067c-fc6a-4369-a073-79995df1a7e5","ios":"levelo://app?vid=84a5067c-fc6a-4369-a073-79995df1a7e5"},"vehicle_type_id":"4","last_reported":1726751828,"current_range_meters":34000,"station_id":"ce4bhb92rcd13ifvqen0","pricing_plan_id":"cebpf4jnsgd1na2vs0mg"},{"bike_id":"6cf00b1b-9afe-449e-9474-1d2cb0f04542","system_id":"levelo_inurba_marseille","lat":43.28482,"lon":5.38417,"is_reserved":false,"is_disabled":false,"rental_uris":{"android":"levelo://app?vid=6cf00b1b-9afe-449e-9474-1d2cb0f04542","ios":"levelo://app?vid=6cf00b1b-9afe-449e-9474-1d2cb0f04542"},"vehicle_type_id":"4","last_reported":1726751828,"current_range_meters":36800,"station_id":"ce4bh512rcd13ifvqe3g","pricing_plan_id":"cebpf4jnsgd1na2vs0mg"},{"bike_id":"5a22f2fe-1515-4633-89ed-8788d579995e","system_id":"levelo_inurba_marseille","lat":43.28078,"lon":5.39658,"is_reserved":false,"is_disabled":false,"rental_uris":{"android":"levelo://app?vid=5a22f2fe-1515-4633-89ed-8788d579995e","ios":"levelo://app?vid=5a22f2fe-1515-4633-89ed-8788d579995e"},"vehicle_type_id":"4","last_reported":1726751828,"current_range_meters":7200,"station_id":"ce4bho12rcd13ifvqh2g","pricing_plan_id":"cebpf4jnsgd1na2vs0mg"},{"bike_id":"812ca5e1-b995-4544-9c4b-8e94e97cdff1","system_id":"levelo_inurba_marseille","lat":43.305931,"lon":5.398278,"is_reserved":false,"is_disabled":false,"rental_uris":{"android":"levelo://app?vid=812ca5e1-b995-4544-9c4b-8e94e97cdff1","ios":"levelo://app?vid=812ca5e1-b995-4544-9c4b-8e94e97cdff1"},"vehicle_type_id":"4","last_reported":1726751828,"current_range_meters":20800,"station_id":"ce4bh112rcd13ifvqda0","pricing_plan_id":"cebpf4jnsgd1na2vs0mg"},{"bike_id":"2bc21d36-e9c1-4ac7-aae9-a800945214f5","system_id":"levelo_inurba_marseille","lat":43.30141,"lon":5.37405,"is_reserved":false,"is_disabled":false,"rental_uris":{"android":"levelo://app?vid=2bc21d36-e9c1-4ac7-aae9-a800945214f5","ios":"levelo://app?vid=2bc21d36-e9c1-4ac7-aae9-a800945214f5"},"vehicle_type_id":"4","last_reported":1726751828,"current_range_meters":25600,"station_id":"ce4bgs92rcd13ifvqcc0","pricing_plan_id":"cebpf4jnsgd1na2vs0mg"},{"bike_id":"6f7464c7-3e4e-4443-b0a9-cabc2fc99d65","system_id":"levelo_inurba_marseille","lat":43.26809,"lon":5.40264,"is_reserved":false,"is_disabled":false,"rental_uris":{"android":"levelo://app?vid=6f7464c7-3e4e-4443-b0a9-cabc2fc99d65","ios":"levelo://app?vid=6f7464c7-3e4e-4443-b0a9-cabc2fc99d65"},"vehicle_type_id":"4","last_reported":1726751828,"current_range_meters":19600,"station_id":"ce501612rcd8frsf0b60","pricing_plan_id":"cebpf4jnsgd1na2vs0mg"},{"bike_id":"e487cdd3-1844-4f22-9f45-0750a10ebd01","system_id":"levelo_inurba_marseille","lat":43.30946,"lon":5.39023,"is_reserved":false,"is_disabled":false,"rental_uris":{"android":"levelo://app?vid=e487cdd3-1844-4f22-9f45-0750a10ebd01","ios":"levelo://app?vid=e487cdd3-1844-4f22-9f45-0750a10ebd01"},"vehicle_type_id":"4","last_reported":1726751828,"current_range_meters":32800,"station_id":"ce4bgup2rcd13ifvqco0","pricing_plan_id":"cebpf4jnsgd1na2vs0mg"},{"bike_id":"8985a7e5-d9b7-4ee6-9335-fd8939fcdf07","system_id":"levelo_inurba_marseille","lat":43.27488,"lon":5.42453,"is_reserved":false,"is_disabled":false,"rental_uris":{"android":"levelo://app?vid=8985a7e5-d9b7-4ee6-9335-fd8939fcdf07","ios":"levelo://app?vid=8985a7e5-d9b7-4ee6-9335-fd8939fcdf07"},"vehicle_type_id":"4","last_reported":1726751828,"current_range_meters":24000,"station_id":"ce4bhn92rcd13ifvqgrg","pricing_plan_id":"cebpf4jnsgd1na2vs0mg"},{"bike_id":"94b792e3-4671-44d8-9241-f3fb87ab6fe9","system_id":"levelo_inurba_marseille","lat":43.23181,"lon":5.39978,"is_reserved":false,"is_disabled":false,"rental_uris":{"android":"levelo://app?vid=94b792e3-4671-44d8-9241-f3fb87ab6fe9","ios":"levelo://app?vid=94b792e3-4671-44d8-9241-f3fb87ab6fe9"},"vehicle_type_id":"4","last_reported":1726751828,"current_range_meters":38800,"station_id":"ce4bhn12rcd13ifvqgqg","pricing_plan_id":"cebpf4jnsgd1na2vs0mg"},{"bike_id":"5ee72852-9360-467f-8628-81c7887b89c6","system_id":"levelo_inurba_marseille","lat":43.28771,"lon":5.35216,"is_reserved":false,"is_disabled":false,"rental_uris":{"android":"levelo://app?vid=5ee72852-9360-467f-8628-81c7887b89c6","ios":"levelo://app?vid=5ee72852-9360-467f-8628-81c7887b89c6"},"vehicle_type_id":"4","last_reported":1726751828,"current_range_meters":16000,"station_id":"ce4bhb92rcd13ifvqen0","pricing_plan_id":"cebpf4jnsgd1na2vs0mg"},{"bike_id":"719a9527-e733-451c-8e1a-07eaf818b39d","system_id":"levelo_inurba_marseille","lat":43.303541,"lon":5.418831,"is_reserved":false,"is_disabled":false,"rental_uris":{"android":"levelo://app?vid=719a9527-e733-451c-8e1a-07eaf818b39d","ios":"levelo://app?vid=719a9527-e733-451c-8e1a-07eaf818b39d"},"vehicle_type_id":"4","last_reported":1726751828,"current_range_meters":38400,"station_id":"ce4bhop2rcd13ifvqh7g","pricing_plan_id":"cebpf4jnsgd1na2vs0mg"},{"bike_id":"036ab25f-0c34-4c45-8e88-1fc9200da6fd","system_id":"levelo_inurba_marseille","lat":43.27186,"lon":5.42696,"is_reserved":false,"is_disabled":false,"rental_uris":{"android":"levelo://app?vid=036ab25f-0c34-4c45-8e88-1fc9200da6fd","ios":"levelo://app?vid=036ab25f-0c34-4c45-8e88-1fc9200da6fd"},"vehicle_type_id":"4","last_reported":1726751828,"current_range_meters":30000,"station_id":"","pricing_plan_id":"cebpf4jnsgd1na2vs0mg"},{"bike_id":"3c2f6f09-5f15-4004-b3e8-2671258641aa","system_id":"levelo_inurba_marseille","lat":43.295584,"lon":5.422896,"is_reserved":false,"is_disabled":false,"rental_uris":{"android":"levelo://app?vid=3c2f6f09-5f15-4004-b3e8-2671258641aa","ios":"levelo://app?vid=3c2f6f09-5f15-4004-b3e8-2671258641aa"},"vehicle_type_id":"4","last_reported":1726751828,"current_range_meters":28000,"station_id":"ce4bh0h2rcd13ifvqd40","pricing_plan_id":"cebpf4jnsgd1na2vs0mg"},{"bike_id":"298ac1dc-024a-45f9-bee5-67e6e0d001f8","system_id":"levelo_inurba_marseille","lat":43.32285,"lon":5.38263,"is_reserved":false,"is_disabled":false,"rental_uris":{"android":"levelo://app?vid=298ac1dc-024a-45f9-bee5-67e6e0d001f8","ios":"levelo://app?vid=298ac1dc-024a-45f9-bee5-67e6e0d001f8"},"vehicle_type_id":"4","last_reported":1726751828,"current_range_meters":33200,"station_id":"ce4bhr12rcd13ifvqhqg","pricing_plan_id":"cebpf4jnsgd1na2vs0mg"},{"bike_id":"dbdbe30c-8f45-414a-9931-81a2fc52e26a","system_id":"levelo_inurba_marseille","lat":43.265711,"lon":5.390105,"is_reserved":false,"is_disabled":false,"rental_uris":{"android":"levelo://app?vid=dbdbe30c-8f45-414a-9931-81a2fc52e26a","ios":"levelo://app?vid=dbdbe30c-8f45-414a-9931-81a2fc52e26a"},"vehicle_type_id":"4","last_reported":1726751828,"current_range_meters":22800,"station_id":"ce4bhe12rcd13ifvqf30","pricing_plan_id":"cebpf4jnsgd1na2vs0mg"},{"bike_id":"aa4b1a9c-75a6-4f1c-b96d-303cd8b269bf","system_id":"levelo_inurba_marseille","lat":43.29572,"lon":5.39956,"is_reserved":false,"is_disabled":false,"rental_uris":{"android":"levelo://app?vid=aa4b1a9c-75a6-4f1c-b96d-303cd8b269bf","ios":"levelo://app?vid=aa4b1a9c-75a6-4f1c-b96d-303cd8b269bf"},"vehicle_type_id":"4","last_reported":1726751828,"current_range_meters":17200,"station_id":"ce4bh312rcd13ifvqdj0","pricing_plan_id":"cebpf4jnsgd1na2vs0mg"},{"bike_id":"54d0207e-cde5-4a7d-9aad-2214f25c1df5","system_id":"levelo_inurba_marseille","lat":43.2315,"lon":5.4372,"is_reserved":false,"is_disabled":false,"rental_uris":{"android":"levelo://app?vid=54d0207e-cde5-4a7d-9aad-2214f25c1df5","ios":"levelo://app?vid=54d0207e-cde5-4a7d-9aad-2214f25c1df5"},"vehicle_type_id":"4","last_reported":1726751828,"current_range_meters":38400,"station_id":"ce4bhmp2rcd13ifvqgog","pricing_plan_id":"cebpf4jnsgd1na2vs0mg"},{"bike_id":"7300dded-023b-4c34-8ddb-095a59d9e55b","system_id":"levelo_inurba_marseille","lat":43.29894,"lon":5.38147,"is_reserved":false,"is_disabled":false,"rental_uris":{"android":"levelo://app?vid=7300dded-023b-4c34-8ddb-095a59d9e55b","ios":"levelo://app?vid=7300dded-023b-4c34-8ddb-095a59d9e55b"},"vehicle_type_id":"4","last_reported":1726751828,"current_range_meters":36800,"station_id":"ce4bgj12rcd13ifvqbc0","pricing_plan_id":"cebpf4jnsgd1na2vs0mg"},{"bike_id":"5cc53505-f644-47f4-8faa-c9e23f5803f2","system_id":"levelo_inurba_marseille","lat":43.24544,"lon":5.39526,"is_reserved":false,"is_disabled":false,"rental_uris":{"android":"levelo://app?vid=5cc53505-f644-47f4-8faa-c9e23f5803f2","ios":"levelo://app?vid=5cc53505-f644-47f4-8faa-c9e23f5803f2"},"vehicle_type_id":"4","last_reported":1726751828,"current_range_meters":39200,"station_id":"ce4bhlp2rcd13ifvqgjg","pricing_plan_id":"cebpf4jnsgd1na2vs0mg"},{"bike_id":"031d10e7-b441-4e5c-8cb4-f98c7fc2f6a3","system_id":"levelo_inurba_marseille","lat":43.30604,"lon":5.372435,"is_reserved":false,"is_disabled":false,"rental_uris":{"android":"levelo://app?vid=031d10e7-b441-4e5c-8cb4-f98c7fc2f6a3","ios":"levelo://app?vid=031d10e7-b441-4e5c-8cb4-f98c7fc2f6a3"},"vehicle_type_id":"4","last_reported":1726751828,"current_range_meters":38800,"station_id":"ce4bgqh2rcd13ifvqc4g","pricing_plan_id":"cebpf4jnsgd1na2vs0mg"},{"bike_id":"c6df303b-5786-45de-95f2-39e1271ed1df","system_id":"levelo_inurba_marseille","lat":43.299616,"lon":5.384879,"is_reserved":false,"is_disabled":false,"rental_uris":{"android":"levelo://app?vid=c6df303b-5786-45de-95f2-39e1271ed1df","ios":"levelo://app?vid=c6df303b-5786-45de-95f2-39e1271ed1df"},"vehicle_type_id":"4","last_reported":1726751828,"current_range_meters":34000,"station_id":"ce4bgj92rcd13ifvqbd0","pricing_plan_id":"cebpf4jnsgd1na2vs0mg"},{"bike_id":"bf10c847-8569-4874-8f30-6c359a2948bd","system_id":"levelo_inurba_marseille","lat":43.31688,"lon":5.40456,"is_reserved":false,"is_disabled":false,"rental_uris":{"android":"levelo://app?vid=bf10c847-8569-4874-8f30-6c359a2948bd","ios":"levelo://app?vid=bf10c847-8569-4874-8f30-6c359a2948bd"},"vehicle_type_id":"4","last_reported":1726751828,"current_range_meters":38800,"station_id":"ce4bh012rcd13ifvqd00","pricing_plan_id":"cebpf4jnsgd1na2vs0mg"},{"bike_id":"e026ef3e-96b2-4b12-b36d-163d8a37a39b","system_id":"levelo_inurba_marseille","lat":43.28614,"lon":5.35098,"is_reserved":false,"is_disabled":false,"rental_uris":{"android":"levelo://app?vid=e026ef3e-96b2-4b12-b36d-163d8a37a39b","ios":"levelo://app?vid=e026ef3e-96b2-4b12-b36d-163d8a37a39b"},"vehicle_type_id":"4","last_reported":1726751828,"current_range_meters":17600,"station_id":"ce4bhch2rcd13ifvqeug","pricing_plan_id":"cebpf4jnsgd1na2vs0mg"},{"bike_id":"60e4be59-6f3b-4585-b7a0-67379f8ad01f","system_id":"levelo_inurba_marseille","lat":43.28416,"lon":5.34994,"is_reserved":false,"is_disabled":false,"rental_uris":{"android":"levelo://app?vid=60e4be59-6f3b-4585-b7a0-67379f8ad01f","ios":"levelo://app?vid=60e4be59-6f3b-4585-b7a0-67379f8ad01f"},"vehicle_type_id":"4","last_reported":1726751828,"current_range_meters":38000,"station_id":"ce4bhbh2rcd13ifvqepg","pricing_plan_id":"cebpf4jnsgd1na2vs0mg"},{"bike_id":"2410d280-0251-46cc-96de-f3cdb155babf","system_id":"levelo_inurba_marseille","lat":43.304291,"lon":5.388897,"is_reserved":false,"is_disabled":false,"rental_uris":{"android":"levelo://app?vid=2410d280-0251-46cc-96de-f3cdb155babf","ios":"levelo://app?vid=2410d280-0251-46cc-96de-f3cdb155babf"},"vehicle_type_id":"4","last_reported":1726751828,"current_range_meters":19600,"station_id":"ce4bgk12rcd13ifvqbi0","pricing_plan_id":"cebpf4jnsgd1na2vs0mg"},{"bike_id":"af347d57-2fcb-432c-8f52-b8bed3140665","system_id":"levelo_inurba_marseille","lat":43.24185,"lon":5.39725,"is_reserved":false,"is_disabled":false,"rental_uris":{"android":"levelo://app?vid=af347d57-2fcb-432c-8f52-b8bed3140665","ios":"levelo://app?vid=af347d57-2fcb-432c-8f52-b8bed3140665"},"vehicle_type_id":"4","last_reported":1726751828,"current_range_meters":30800,"station_id":"ce4bhn12rcd13ifvqgpg","pricing_plan_id":"cebpf4jnsgd1na2vs0mg"},{"bike_id":"1a9e954f-e9c6-4cac-a421-95a75df21f82","system_id":"levelo_inurba_marseille","lat":43.31234,"lon":5.36882,"is_reserved":false,"is_disabled":false,"rental_uris":{"android":"levelo://app?vid=1a9e954f-e9c6-4cac-a421-95a75df21f82","ios":"levelo://app?vid=1a9e954f-e9c6-4cac-a421-95a75df21f82"},"vehicle_type_id":"4","last_reported":1726751828,"current_range_meters":8800,"station_id":"ce4bgl92rcd13ifvqbq0","pricing_plan_id":"cebpf4jnsgd1na2vs0mg"},{"bike_id":"9df17aec-f9cb-416e-86d0-7c90730bc07c","system_id":"levelo_inurba_marseille","lat":43.2916,"lon":5.37164,"is_reserved":false,"is_disabled":false,"rental_uris":{"android":"levelo://app?vid=9df17aec-f9cb-416e-86d0-7c90730bc07c","ios":"levelo://app?vid=9df17aec-f9cb-416e-86d0-7c90730bc07c"},"vehicle_type_id":"4","last_reported":1726751828,"current_range_meters":25200,"station_id":"ce4bha92rcd13ifvqeh0","pricing_plan_id":"cebpf4jnsgd1na2vs0mg"},{"bike_id":"4f42d43e-c75b-4fc4-873a-0a4d26d10804","system_id":"levelo_inurba_marseille","lat":43.31719,"lon":5.43707,"is_reserved":false,"is_disabled":false,"rental_uris":{"android":"levelo://app?vid=4f42d43e-c75b-4fc4-873a-0a4d26d10804","ios":"levelo://app?vid=4f42d43e-c75b-4fc4-873a-0a4d26d10804"},"vehicle_type_id":"4","last_reported":1726751828,"current_range_meters":26800,"station_id":"ce4bhp92rcd13ifvqhcg","pricing_plan_id":"cebpf4jnsgd1na2vs0mg"},{"bike_id":"666fb15f-c170-41a4-9275-39cbfcdab7f0","system_id":"levelo_inurba_marseille","lat":43.24082,"lon":5.37752,"is_reserved":false,"is_disabled":false,"rental_uris":{"android":"levelo://app?vid=666fb15f-c170-41a4-9275-39cbfcdab7f0","ios":"levelo://app?vid=666fb15f-c170-41a4-9275-39cbfcdab7f0"},"vehicle_type_id":"4","last_reported":1726751828,"current_range_meters":12000,"station_id":"ce4bhnp2rcd13ifvqgvg","pricing_plan_id":"cebpf4jnsgd1na2vs0mg"},{"bike_id":"2b67caa3-7267-414b-867b-e9cc4161cb69","system_id":"levelo_inurba_marseille","lat":43.29048,"lon":5.3591,"is_reserved":false,"is_disabled":false,"rental_uris":{"android":"levelo://app?vid=2b67caa3-7267-414b-867b-e9cc4161cb69","ios":"levelo://app?vid=2b67caa3-7267-414b-867b-e9cc4161cb69"},"vehicle_type_id":"4","last_reported":1726751828,"current_range_meters":36400,"station_id":"ce4bha92rcd13ifvqeg0","pricing_plan_id":"cebpf4jnsgd1na2vs0mg"},{"bike_id":"cc37381e-9335-4b4e-a554-8ca8c7c27f92","system_id":"levelo_inurba_marseille","lat":43.27496,"lon":5.42453,"is_reserved":false,"is_disabled":false,"rental_uris":{"android":"levelo://app?vid=cc37381e-9335-4b4e-a554-8ca8c7c27f92","ios":"levelo://app?vid=cc37381e-9335-4b4e-a554-8ca8c7c27f92"},"vehicle_type_id":"4","last_reported":1726751828,"current_range_meters":8800,"station_id":"ce4bhn92rcd13ifvqgrg","pricing_plan_id":"cebpf4jnsgd1na2vs0mg"},{"bike_id":"a6450748-9019-4209-b747-f0adda4a4fd4","system_id":"levelo_inurba_marseille","lat":43.29901,"lon":5.38145,"is_reserved":false,"is_disabled":false,"rental_uris":{"android":"levelo://app?vid=a6450748-9019-4209-b747-f0adda4a4fd4","ios":"levelo://app?vid=a6450748-9019-4209-b747-f0adda4a4fd4"},"vehicle_type_id":"4","last_reported":1726751828,"current_range_meters":38000,"station_id":"ce4bgj12rcd13ifvqbc0","pricing_plan_id":"cebpf4jnsgd1na2vs0mg"},{"bike_id":"cea90d14-d4cd-44bb-a828-f022d2c2c276","system_id":"levelo_inurba_marseille","lat":43.26948,"lon":5.38631,"is_reserved":false,"is_disabled":false,"rental_uris":{"android":"levelo://app?vid=cea90d14-d4cd-44bb-a828-f022d2c2c276","ios":"levelo://app?vid=cea90d14-d4cd-44bb-a828-f022d2c2c276"},"vehicle_type_id":"4","last_reported":1726751828,"current_range_meters":38000,"station_id":"ce4bhh92rcd13ifvqfh0","pricing_plan_id":"cebpf4jnsgd1na2vs0mg"},{"bike_id":"5d4afdb8-0028-4c6b-a5d8-8520252fb486","system_id":"levelo_inurba_marseille","lat":43.26212,"lon":5.37439,"is_reserved":false,"is_disabled":false,"rental_uris":{"android":"levelo://app?vid=5d4afdb8-0028-4c6b-a5d8-8520252fb486","ios":"levelo://app?vid=5d4afdb8-0028-4c6b-a5d8-8520252fb486"},"vehicle_type_id":"4","last_reported":1726751828,"current_range_meters":24400,"station_id":"ce4bhgp2rcd13ifvqfc0","pricing_plan_id":"cebpf4jnsgd1na2vs0mg"},{"bike_id":"282d8c94-3959-466f-bf01-d3670e5313fa","system_id":"levelo_inurba_marseille","lat":43.30555,"lon":5.36536,"is_reserved":false,"is_disabled":false,"rental_uris":{"android":"levelo://app?vid=282d8c94-3959-466f-bf01-d3670e5313fa","ios":"levelo://app?vid=282d8c94-3959-466f-bf01-d3670e5313fa"},"vehicle_type_id":"4","last_reported":1726751828,"current_range_meters":23200,"station_id":"ce4bgs12rcd13ifvqcag","pricing_plan_id":"cebpf4jnsgd1na2vs0mg"},{"bike_id":"cab7da7e-00a0-48dd-8078-96962f89427f","system_id":"levelo_inurba_marseille","lat":43.28919,"lon":5.38382,"is_reserved":false,"is_disabled":false,"rental_uris":{"android":"levelo://app?vid=cab7da7e-00a0-48dd-8078-96962f89427f","ios":"levelo://app?vid=cab7da7e-00a0-48dd-8078-96962f89427f"},"vehicle_type_id":"4","last_reported":1726751828,"current_range_meters":31200,"station_id":"ce4bh612rcd13ifvqe6g","pricing_plan_id":"cebpf4jnsgd1na2vs0mg"},{"bike_id":"090af28d-4b58-4403-a4fa-64c8a96fc47c","system_id":"levelo_inurba_marseille","lat":43.28,"lon":5.40015,"is_reserved":false,"is_disabled":false,"rental_uris":{"android":"levelo://app?vid=090af28d-4b58-4403-a4fa-64c8a96fc47c","ios":"levelo://app?vid=090af28d-4b58-4403-a4fa-64c8a96fc47c"},"vehicle_type_id":"4","last_reported":1726751828,"current_range_meters":8000,"station_id":"ce4bho92rcd13ifvqh4g","pricing_plan_id":"cebpf4jnsgd1na2vs0mg"},{"bike_id":"a0ea4c20-eeae-4054-a4b5-699b69c4c176","system_id":"levelo_inurba_marseille","lat":43.29557,"lon":5.42282,"is_reserved":false,"is_disabled":false,"rental_uris":{"android":"levelo://app?vid=a0ea4c20-eeae-4054-a4b5-699b69c4c176","ios":"levelo://app?vid=a0ea4c20-eeae-4054-a4b5-699b69c4c176"},"vehicle_type_id":"4","last_reported":1726751828,"current_range_meters":13600,"station_id":"ce4bhph2rcd13ifvqhdg","pricing_plan_id":"cebpf4jnsgd1na2vs0mg"},{"bike_id":"3ec21100-0176-4396-a873-005606a7ba32","system_id":"levelo_inurba_marseille","lat":43.34151,"lon":5.40897,"is_reserved":false,"is_disabled":false,"rental_uris":{"android":"levelo://app?vid=3ec21100-0176-4396-a873-005606a7ba32","ios":"levelo://app?vid=3ec21100-0176-4396-a873-005606a7ba32"},"vehicle_type_id":"4","last_reported":1726751828,"current_range_meters":39200,"station_id":"ce4bhqh2rcd13ifvqhlg","pricing_plan_id":"cebpf4jnsgd1na2vs0mg"},{"bike_id":"da464fb3-65fc-40e7-90a3-834ec33908b3","system_id":"levelo_inurba_marseille","lat":43.26683,"lon":5.38272,"is_reserved":false,"is_disabled":false,"rental_uris":{"android":"levelo://app?vid=da464fb3-65fc-40e7-90a3-834ec33908b3","ios":"levelo://app?vid=da464fb3-65fc-40e7-90a3-834ec33908b3"},"vehicle_type_id":"4","last_reported":1726751828,"current_range_meters":19200,"station_id":"ce4bhg92rcd13ifvqf90","pricing_plan_id":"cebpf4jnsgd1na2vs0mg"},{"bike_id":"53622533-6e4e-4ce4-92a2-ac811bb62ec6","system_id":"levelo_inurba_marseille","lat":43.24648,"lon":5.38889,"is_reserved":false,"is_disabled":false,"rental_uris":{"android":"levelo://app?vid=53622533-6e4e-4ce4-92a2-ac811bb62ec6","ios":"levelo://app?vid=53622533-6e4e-4ce4-92a2-ac811bb62ec6"},"vehicle_type_id":"4","last_reported":1726751828,"current_range_meters":4400,"station_id":"ce4bhg12rcd13ifvqf60","pricing_plan_id":"cebpf4jnsgd1na2vs0mg"},{"bike_id":"3478db76-45d7-45d3-b887-36ba03898ebd","system_id":"levelo_inurba_marseille","lat":43.23151,"lon":5.43709,"is_reserved":false,"is_disabled":false,"rental_uris":{"android":"levelo://app?vid=3478db76-45d7-45d3-b887-36ba03898ebd","ios":"levelo://app?vid=3478db76-45d7-45d3-b887-36ba03898ebd"},"vehicle_type_id":"4","last_reported":1726751828,"current_range_meters":39200,"station_id":"ce4bhmp2rcd13ifvqgog","pricing_plan_id":"cebpf4jnsgd1na2vs0mg"},{"bike_id":"309e1d83-dfdd-4727-8e23-3ad8e2d60153","system_id":"levelo_inurba_marseille","lat":43.23156,"lon":5.43707,"is_reserved":false,"is_disabled":false,"rental_uris":{"android":"levelo://app?vid=309e1d83-dfdd-4727-8e23-3ad8e2d60153","ios":"levelo://app?vid=309e1d83-dfdd-4727-8e23-3ad8e2d60153"},"vehicle_type_id":"4","last_reported":1726751828,"current_range_meters":16000,"station_id":"ce4bhmp2rcd13ifvqgog","pricing_plan_id":"cebpf4jnsgd1na2vs0mg"},{"bike_id":"99a7dc90-2d6f-44d5-8363-3b98e8384430","system_id":"levelo_inurba_marseille","lat":43.26559,"lon":5.37283,"is_reserved":false,"is_disabled":false,"rental_uris":{"android":"levelo://app?vid=99a7dc90-2d6f-44d5-8363-3b98e8384430","ios":"levelo://app?vid=99a7dc90-2d6f-44d5-8363-3b98e8384430"},"vehicle_type_id":"4","last_reported":1726751828,"current_range_meters":22000,"station_id":"ce4bhg12rcd13ifvqf70","pricing_plan_id":"cebpf4jnsgd1na2vs0mg"},{"bike_id":"86d2fbbc-c469-4ea8-9619-326d1c533696","system_id":"levelo_inurba_marseille","lat":43.25488,"lon":5.37648,"is_reserved":false,"is_disabled":false,"rental_uris":{"android":"levelo://app?vid=86d2fbbc-c469-4ea8-9619-326d1c533696","ios":"levelo://app?vid=86d2fbbc-c469-4ea8-9619-326d1c533696"},"vehicle_type_id":"4","last_reported":1726751828,"current_range_meters":36000,"station_id":"ce4bhh12rcd13ifvqff0","pricing_plan_id":"cebpf4jnsgd1na2vs0mg"},{"bike_id":"305d2909-881e-43c4-8cc4-6467554c2b7f","system_id":"levelo_inurba_marseille","lat":43.23155,"lon":5.43704,"is_reserved":false,"is_disabled":false,"rental_uris":{"android":"levelo://app?vid=305d2909-881e-43c4-8cc4-6467554c2b7f","ios":"levelo://app?vid=305d2909-881e-43c4-8cc4-6467554c2b7f"},"vehicle_type_id":"4","last_reported":1726751828,"current_range_meters":7200,"station_id":"ce4bhmp2rcd13ifvqgog","pricing_plan_id":"cebpf4jnsgd1na2vs0mg"},{"bike_id":"42d6aa85-e165-4206-9711-64ce8afa32a6","system_id":"levelo_inurba_marseille","lat":43.30139,"lon":5.37416,"is_reserved":false,"is_disabled":false,"rental_uris":{"android":"levelo://app?vid=42d6aa85-e165-4206-9711-64ce8afa32a6","ios":"levelo://app?vid=42d6aa85-e165-4206-9711-64ce8afa32a6"},"vehicle_type_id":"4","last_reported":1726751828,"current_range_meters":38800,"station_id":"ce4bgs92rcd13ifvqcc0","pricing_plan_id":"cebpf4jnsgd1na2vs0mg"},{"bike_id":"5307e4c9-4272-45ae-bba6-675e51033a09","system_id":"levelo_inurba_marseille","lat":43.30312,"lon":5.36889,"is_reserved":false,"is_disabled":false,"rental_uris":{"android":"levelo://app?vid=5307e4c9-4272-45ae-bba6-675e51033a09","ios":"levelo://app?vid=5307e4c9-4272-45ae-bba6-675e51033a09"},"vehicle_type_id":"4","last_reported":1726751828,"current_range_meters":37600,"station_id":"ce4bgqh2rcd13ifvqc5g","pricing_plan_id":"cebpf4jnsgd1na2vs0mg"},{"bike_id":"c58a09e0-e27d-474f-b410-f612c6647346","system_id":"levelo_inurba_marseille","lat":43.30553,"lon":5.36698,"is_reserved":false,"is_disabled":false,"rental_uris":{"android":"levelo://app?vid=c58a09e0-e27d-474f-b410-f612c6647346","ios":"levelo://app?vid=c58a09e0-e27d-474f-b410-f612c6647346"},"vehicle_type_id":"4","last_reported":1726751828,"current_range_meters":27200,"station_id":"ce4bgrp2rcd13ifvqc9g","pricing_plan_id":"cebpf4jnsgd1na2vs0mg"},{"bike_id":"f66f6af7-abb7-4b4c-a961-0c7829792186","system_id":"levelo_inurba_marseille","lat":43.250977,"lon":5.403291,"is_reserved":false,"is_disabled":false,"rental_uris":{"android":"levelo://app?vid=f66f6af7-abb7-4b4c-a961-0c7829792186","ios":"levelo://app?vid=f66f6af7-abb7-4b4c-a961-0c7829792186"},"vehicle_type_id":"4","last_reported":1726751828,"current_range_meters":31200,"station_id":"ce4bhlh2rcd13ifvqgig","pricing_plan_id":"cebpf4jnsgd1na2vs0mg"},{"bike_id":"a01a4a21-dbb1-4a02-b900-30af3a75c27a","system_id":"levelo_inurba_marseille","lat":43.24652,"lon":5.38893,"is_reserved":false,"is_disabled":false,"rental_uris":{"android":"levelo://app?vid=a01a4a21-dbb1-4a02-b900-30af3a75c27a","ios":"levelo://app?vid=a01a4a21-dbb1-4a02-b900-30af3a75c27a"},"vehicle_type_id":"4","last_reported":1726751828,"current_range_meters":8800,"station_id":"ce4bhg12rcd13ifvqf60","pricing_plan_id":"cebpf4jnsgd1na2vs0mg"},{"bike_id":"7296939a-e07b-445c-bd52-40cde8ccbba2","system_id":"levelo_inurba_marseille","lat":43.2602,"lon":5.37556,"is_reserved":false,"is_disabled":false,"rental_uris":{"android":"levelo://app?vid=7296939a-e07b-445c-bd52-40cde8ccbba2","ios":"levelo://app?vid=7296939a-e07b-445c-bd52-40cde8ccbba2"},"vehicle_type_id":"4","last_reported":1726751828,"current_range_meters":37600,"station_id":"ce4bhgh2rcd13ifvqfa0","pricing_plan_id":"cebpf4jnsgd1na2vs0mg"},{"bike_id":"a98ac186-b378-4aea-88f9-0361333d19ad","system_id":"levelo_inurba_marseille","lat":43.3123,"lon":5.36873,"is_reserved":false,"is_disabled":false,"rental_uris":{"android":"levelo://app?vid=a98ac186-b378-4aea-88f9-0361333d19ad","ios":"levelo://app?vid=a98ac186-b378-4aea-88f9-0361333d19ad"},"vehicle_type_id":"4","last_reported":1726751828,"current_range_meters":15200,"station_id":"ce4bgl92rcd13ifvqbq0","pricing_plan_id":"cebpf4jnsgd1na2vs0mg"},{"bike_id":"56746c86-a631-41f2-910b-5c6f1a0c1a70","system_id":"levelo_inurba_marseille","lat":43.27498,"lon":5.42451,"is_reserved":false,"is_disabled":false,"rental_uris":{"android":"levelo://app?vid=56746c86-a631-41f2-910b-5c6f1a0c1a70","ios":"levelo://app?vid=56746c86-a631-41f2-910b-5c6f1a0c1a70"},"vehicle_type_id":"4","last_reported":1726751828,"current_range_meters":4000,"station_id":"ce4bhn92rcd13ifvqgrg","pricing_plan_id":"cebpf4jnsgd1na2vs0mg"},{"bike_id":"e669bd6c-abbe-4921-ba26-9fc661d40bbb","system_id":"levelo_inurba_marseille","lat":43.30544,"lon":5.36532,"is_reserved":false,"is_disabled":false,"rental_uris":{"android":"levelo://app?vid=e669bd6c-abbe-4921-ba26-9fc661d40bbb","ios":"levelo://app?vid=e669bd6c-abbe-4921-ba26-9fc661d40bbb"},"vehicle_type_id":"4","last_reported":1726751828,"current_range_meters":35200,"station_id":"ce4bgs12rcd13ifvqcag","pricing_plan_id":"cebpf4jnsgd1na2vs0mg"},{"bike_id":"78189870-b114-4146-b75a-b46bf65a6561","system_id":"levelo_inurba_marseille","lat":43.27378,"lon":5.36253,"is_reserved":false,"is_disabled":false,"rental_uris":{"android":"levelo://app?vid=78189870-b114-4146-b75a-b46bf65a6561","ios":"levelo://app?vid=78189870-b114-4146-b75a-b46bf65a6561"},"vehicle_type_id":"4","last_reported":1726751828,"current_range_meters":26800,"station_id":"ce4bhbh2rcd13ifvqeo0","pricing_plan_id":"cebpf4jnsgd1na2vs0mg"},{"bike_id":"8f93dbfa-fc37-413d-90ce-bb1596a7dbde","system_id":"levelo_inurba_marseille","lat":43.27492,"lon":5.42456,"is_reserved":false,"is_disabled":false,"rental_uris":{"android":"levelo://app?vid=8f93dbfa-fc37-413d-90ce-bb1596a7dbde","ios":"levelo://app?vid=8f93dbfa-fc37-413d-90ce-bb1596a7dbde"},"vehicle_type_id":"4","last_reported":1726751828,"current_range_meters":28400,"station_id":"ce4bhn92rcd13ifvqgrg","pricing_plan_id":"cebpf4jnsgd1na2vs0mg"},{"bike_id":"f2fb56ea-037c-4ad8-8f8c-ad6c611f3003","system_id":"levelo_inurba_marseille","lat":43.31531,"lon":5.3803,"is_reserved":false,"is_disabled":false,"rental_uris":{"android":"levelo://app?vid=f2fb56ea-037c-4ad8-8f8c-ad6c611f3003","ios":"levelo://app?vid=f2fb56ea-037c-4ad8-8f8c-ad6c611f3003"},"vehicle_type_id":"4","last_reported":1726751828,"current_range_meters":28000,"station_id":"ce4bhsp2rcd13ifvqi50","pricing_plan_id":"cebpf4jnsgd1na2vs0mg"},{"bike_id":"bfd94ede-ffd4-41e1-9597-6db7792ea908","system_id":"levelo_inurba_marseille","lat":43.296305,"lon":5.406047,"is_reserved":false,"is_disabled":false,"rental_uris":{"android":"levelo://app?vid=bfd94ede-ffd4-41e1-9597-6db7792ea908","ios":"levelo://app?vid=bfd94ede-ffd4-41e1-9597-6db7792ea908"},"vehicle_type_id":"4","last_reported":1726751828,"current_range_meters":19600,"station_id":"ce4bh0h2rcd13ifvqd60","pricing_plan_id":"cebpf4jnsgd1na2vs0mg"},{"bike_id":"873af327-3207-4b84-bf04-cd233a62f1b3","system_id":"levelo_inurba_marseille","lat":43.30546,"lon":5.36706,"is_reserved":false,"is_disabled":false,"rental_uris":{"android":"levelo://app?vid=873af327-3207-4b84-bf04-cd233a62f1b3","ios":"levelo://app?vid=873af327-3207-4b84-bf04-cd233a62f1b3"},"vehicle_type_id":"4","last_reported":1726751828,"current_range_meters":36400,"station_id":"ce4bgrp2rcd13ifvqc9g","pricing_plan_id":"cebpf4jnsgd1na2vs0mg"},{"bike_id":"2c1b1d5b-0381-48a9-adf5-62952e22b72e","system_id":"levelo_inurba_marseille","lat":43.27608,"lon":5.36111,"is_reserved":false,"is_disabled":false,"rental_uris":{"android":"levelo://app?vid=2c1b1d5b-0381-48a9-adf5-62952e22b72e","ios":"levelo://app?vid=2c1b1d5b-0381-48a9-adf5-62952e22b72e"},"vehicle_type_id":"4","last_reported":1726751828,"current_range_meters":38000,"station_id":"ce4bgj92rcd13ifvqbe0","pricing_plan_id":"cebpf4jnsgd1na2vs0mg"},{"bike_id":"c32dc568-f10c-4010-ad55-d5f360cf461f","system_id":"levelo_inurba_marseille","lat":43.30543,"lon":5.36535,"is_reserved":false,"is_disabled":false,"rental_uris":{"android":"levelo://app?vid=c32dc568-f10c-4010-ad55-d5f360cf461f","ios":"levelo://app?vid=c32dc568-f10c-4010-ad55-d5f360cf461f"},"vehicle_type_id":"4","last_reported":1726751828,"current_range_meters":38800,"station_id":"ce4bgs12rcd13ifvqcag","pricing_plan_id":"cebpf4jnsgd1na2vs0mg"},{"bike_id":"aaeae615-2194-47c5-84e0-363507d6e824","system_id":"levelo_inurba_marseille","lat":43.32289,"lon":5.38267,"is_reserved":false,"is_disabled":false,"rental_uris":{"android":"levelo://app?vid=aaeae615-2194-47c5-84e0-363507d6e824","ios":"levelo://app?vid=aaeae615-2194-47c5-84e0-363507d6e824"},"vehicle_type_id":"4","last_reported":1726751828,"current_range_meters":24800,"station_id":"ce4bhr12rcd13ifvqhqg","pricing_plan_id":"cebpf4jnsgd1na2vs0mg"},{"bike_id":"f11e64ed-641d-4c0c-954c-f242fb68ac26","system_id":"levelo_inurba_marseille","lat":43.30878,"lon":5.39645,"is_reserved":false,"is_disabled":false,"rental_uris":{"android":"levelo://app?vid=f11e64ed-641d-4c0c-954c-f242fb68ac26","ios":"levelo://app?vid=f11e64ed-641d-4c0c-954c-f242fb68ac26"},"vehicle_type_id":"4","last_reported":1726751828,"current_range_meters":36400,"station_id":"ce4bh012rcd13ifvqcv0","pricing_plan_id":"cebpf4jnsgd1na2vs0mg"},{"bike_id":"20ba6ac8-5850-4316-90f7-6cef07e6413b","system_id":"levelo_inurba_marseille","lat":43.28414,"lon":5.34993,"is_reserved":false,"is_disabled":false,"rental_uris":{"android":"levelo://app?vid=20ba6ac8-5850-4316-90f7-6cef07e6413b","ios":"levelo://app?vid=20ba6ac8-5850-4316-90f7-6cef07e6413b"},"vehicle_type_id":"4","last_reported":1726751828,"current_range_meters":39200,"station_id":"ce4bhbh2rcd13ifvqepg","pricing_plan_id":"cebpf4jnsgd1na2vs0mg"},{"bike_id":"16365233-0182-43cb-a913-4da91a46be4e","system_id":"levelo_inurba_marseille","lat":43.31344,"lon":5.36715,"is_reserved":false,"is_disabled":false,"rental_uris":{"android":"levelo://app?vid=16365233-0182-43cb-a913-4da91a46be4e","ios":"levelo://app?vid=16365233-0182-43cb-a913-4da91a46be4e"},"vehicle_type_id":"4","last_reported":1726751828,"current_range_meters":13600,"station_id":"ce4bgr92rcd13ifvqc6g","pricing_plan_id":"cebpf4jnsgd1na2vs0mg"},{"bike_id":"9be94feb-a495-4651-8693-da9a946157ae","system_id":"levelo_inurba_marseille","lat":43.25008,"lon":5.38919,"is_reserved":false,"is_disabled":false,"rental_uris":{"android":"levelo://app?vid=9be94feb-a495-4651-8693-da9a946157ae","ios":"levelo://app?vid=9be94feb-a495-4651-8693-da9a946157ae"},"vehicle_type_id":"4","last_reported":1726751828,"current_range_meters":15200,"station_id":"ce4bhgp2rcd13ifvqfd0","pricing_plan_id":"cebpf4jnsgd1na2vs0mg"},{"bike_id":"64fa4279-5a4d-4ab0-b705-1de922621dac","system_id":"levelo_inurba_marseille","lat":43.28368,"lon":5.38627,"is_reserved":false,"is_disabled":false,"rental_uris":{"android":"levelo://app?vid=64fa4279-5a4d-4ab0-b705-1de922621dac","ios":"levelo://app?vid=64fa4279-5a4d-4ab0-b705-1de922621dac"},"vehicle_type_id":"4","last_reported":1726751828,"current_range_meters":24800,"station_id":"ce4bh492rcd13ifvqdvg","pricing_plan_id":"cebpf4jnsgd1na2vs0mg"},{"bike_id":"ca77486e-969f-43cf-831a-df14da960c6c","system_id":"levelo_inurba_marseille","lat":43.299702,"lon":5.371808,"is_reserved":false,"is_disabled":false,"rental_uris":{"android":"levelo://app?vid=ca77486e-969f-43cf-831a-df14da960c6c","ios":"levelo://app?vid=ca77486e-969f-43cf-831a-df14da960c6c"},"vehicle_type_id":"4","last_reported":1726751828,"current_range_meters":3200,"station_id":"ce4bgr92rcd13ifvqc7g","pricing_plan_id":"cebpf4jnsgd1na2vs0mg"},{"bike_id":"a5cd8307-20cc-4eb9-b57d-a4f6fffd25c4","system_id":"levelo_inurba_marseille","lat":43.26947,"lon":5.38629,"is_reserved":false,"is_disabled":false,"rental_uris":{"android":"levelo://app?vid=a5cd8307-20cc-4eb9-b57d-a4f6fffd25c4","ios":"levelo://app?vid=a5cd8307-20cc-4eb9-b57d-a4f6fffd25c4"},"vehicle_type_id":"4","last_reported":1726751828,"current_range_meters":6400,"station_id":"ce4bhh92rcd13ifvqfh0","pricing_plan_id":"cebpf4jnsgd1na2vs0mg"},{"bike_id":"5853071a-a7de-43ad-87c8-982495d79fa0","system_id":"levelo_inurba_marseille","lat":43.25009,"lon":5.38916,"is_reserved":false,"is_disabled":false,"rental_uris":{"android":"levelo://app?vid=5853071a-a7de-43ad-87c8-982495d79fa0","ios":"levelo://app?vid=5853071a-a7de-43ad-87c8-982495d79fa0"},"vehicle_type_id":"4","last_reported":1726751828,"current_range_meters":34800,"station_id":"ce4bhgp2rcd13ifvqfd0","pricing_plan_id":"cebpf4jnsgd1na2vs0mg"},{"bike_id":"333409d4-8cd5-4a8a-8672-0836cd5a7c61","system_id":"levelo_inurba_marseille","lat":43.26211,"lon":5.37441,"is_reserved":false,"is_disabled":false,"rental_uris":{"android":"levelo://app?vid=333409d4-8cd5-4a8a-8672-0836cd5a7c61","ios":"levelo://app?vid=333409d4-8cd5-4a8a-8672-0836cd5a7c61"},"vehicle_type_id":"4","last_reported":1726751828,"current_range_meters":36800,"station_id":"ce4bhgp2rcd13ifvqfc0","pricing_plan_id":"cebpf4jnsgd1na2vs0mg"},{"bike_id":"77b15268-12b9-4417-858b-14ff46b3743e","system_id":"levelo_inurba_marseille","lat":43.31487,"lon":5.37308,"is_reserved":false,"is_disabled":false,"rental_uris":{"android":"levelo://app?vid=77b15268-12b9-4417-858b-14ff46b3743e","ios":"levelo://app?vid=77b15268-12b9-4417-858b-14ff46b3743e"},"vehicle_type_id":"4","last_reported":1726751828,"current_range_meters":39200,"station_id":"ce4bgt12rcd13ifvqcd0","pricing_plan_id":"cebpf4jnsgd1na2vs0mg"},{"bike_id":"51939625-006e-4684-a8bb-188dbcfb8d35","system_id":"levelo_inurba_marseille","lat":43.26786,"lon":5.39418,"is_reserved":false,"is_disabled":false,"rental_uris":{"android":"levelo://app?vid=51939625-006e-4684-a8bb-188dbcfb8d35","ios":"levelo://app?vid=51939625-006e-4684-a8bb-188dbcfb8d35"},"vehicle_type_id":"4","last_reported":1726751828,"current_range_meters":28400,"station_id":"ce4bhh12rcd13ifvqfg0","pricing_plan_id":"cebpf4jnsgd1na2vs0mg"},{"bike_id":"57c5a8e8-385a-4b2e-a35e-5a8e121dca1a","system_id":"levelo_inurba_marseille","lat":43.3031,"lon":5.36879,"is_reserved":false,"is_disabled":false,"rental_uris":{"android":"levelo://app?vid=57c5a8e8-385a-4b2e-a35e-5a8e121dca1a","ios":"levelo://app?vid=57c5a8e8-385a-4b2e-a35e-5a8e121dca1a"},"vehicle_type_id":"4","last_reported":1726751828,"current_range_meters":37600,"station_id":"ce4bgqh2rcd13ifvqc5g","pricing_plan_id":"cebpf4jnsgd1na2vs0mg"},{"bike_id":"a76e0215-6d64-43fe-97fd-23094bf2f7a0","system_id":"levelo_inurba_marseille","lat":43.28851,"lon":5.35843,"is_reserved":false,"is_disabled":false,"rental_uris":{"android":"levelo://app?vid=a76e0215-6d64-43fe-97fd-23094bf2f7a0","ios":"levelo://app?vid=a76e0215-6d64-43fe-97fd-23094bf2f7a0"},"vehicle_type_id":"4","last_reported":1726751828,"current_range_meters":38800,"station_id":"ce4bhb12rcd13ifvqem0","pricing_plan_id":"cebpf4jnsgd1na2vs0mg"},{"bike_id":"1d3b47bd-fee8-492b-9454-cfd096b53b68","system_id":"levelo_inurba_marseille","lat":43.30538,"lon":5.36565,"is_reserved":false,"is_disabled":false,"rental_uris":{"android":"levelo://app?vid=1d3b47bd-fee8-492b-9454-cfd096b53b68","ios":"levelo://app?vid=1d3b47bd-fee8-492b-9454-cfd096b53b68"},"vehicle_type_id":"4","last_reported":1726751828,"current_range_meters":32400,"station_id":"ce4bgs12rcd13ifvqcag","pricing_plan_id":"cebpf4jnsgd1na2vs0mg"},{"bike_id":"21b005ed-1eb5-47c4-9460-d627196b52cd","system_id":"levelo_inurba_marseille","lat":43.26569,"lon":5.39009,"is_reserved":false,"is_disabled":false,"rental_uris":{"android":"levelo://app?vid=21b005ed-1eb5-47c4-9460-d627196b52cd","ios":"levelo://app?vid=21b005ed-1eb5-47c4-9460-d627196b52cd"},"vehicle_type_id":"4","last_reported":1726751828,"current_range_meters":10800,"station_id":"ce4bhe12rcd13ifvqf30","pricing_plan_id":"cebpf4jnsgd1na2vs0mg"},{"bike_id":"45867228-83ca-4c53-a8e8-45c9f390e8db","system_id":"levelo_inurba_marseille","lat":43.31872,"lon":5.40745,"is_reserved":false,"is_disabled":false,"rental_uris":{"android":"levelo://app?vid=45867228-83ca-4c53-a8e8-45c9f390e8db","ios":"levelo://app?vid=45867228-83ca-4c53-a8e8-45c9f390e8db"},"vehicle_type_id":"4","last_reported":1726751828,"current_range_meters":8000,"station_id":"ce4bhq12rcd13ifvqhig","pricing_plan_id":"cebpf4jnsgd1na2vs0mg"},{"bike_id":"49eef153-b36a-41bc-b788-e8b8d3abfa95","system_id":"levelo_inurba_marseille","lat":43.28419,"lon":5.34989,"is_reserved":false,"is_disabled":false,"rental_uris":{"android":"levelo://app?vid=49eef153-b36a-41bc-b788-e8b8d3abfa95","ios":"levelo://app?vid=49eef153-b36a-41bc-b788-e8b8d3abfa95"},"vehicle_type_id":"4","last_reported":1726751828,"current_range_meters":35200,"station_id":"ce4bhbh2rcd13ifvqepg","pricing_plan_id":"cebpf4jnsgd1na2vs0mg"},{"bike_id":"13e8bd9c-658c-4cad-85f4-dbc9bf699d78","system_id":"levelo_inurba_marseille","lat":43.303619,"lon":5.393175,"is_reserved":false,"is_disabled":false,"rental_uris":{"android":"levelo://app?vid=13e8bd9c-658c-4cad-85f4-dbc9bf699d78","ios":"levelo://app?vid=13e8bd9c-658c-4cad-85f4-dbc9bf699d78"},"vehicle_type_id":"4","last_reported":1726751828,"current_range_meters":2800,"station_id":"ce4bh392rcd13ifvqdl0","pricing_plan_id":"cebpf4jnsgd1na2vs0mg"},{"bike_id":"a810873e-cddb-435a-8ed4-c9793c6faccd","system_id":"levelo_inurba_marseille","lat":43.25944,"lon":5.40894,"is_reserved":false,"is_disabled":false,"rental_uris":{"android":"levelo://app?vid=a810873e-cddb-435a-8ed4-c9793c6faccd","ios":"levelo://app?vid=a810873e-cddb-435a-8ed4-c9793c6faccd"},"vehicle_type_id":"4","last_reported":1726751828,"current_range_meters":35200,"station_id":"ce4bhm92rcd13ifvqglg","pricing_plan_id":"cebpf4jnsgd1na2vs0mg"},{"bike_id":"71b8d024-7c7f-41e2-92db-62aae15762a9","system_id":"levelo_inurba_marseille","lat":43.3032,"lon":5.36903,"is_reserved":false,"is_disabled":false,"rental_uris":{"android":"levelo://app?vid=71b8d024-7c7f-41e2-92db-62aae15762a9","ios":"levelo://app?vid=71b8d024-7c7f-41e2-92db-62aae15762a9"},"vehicle_type_id":"4","last_reported":1726751828,"current_range_meters":30000,"station_id":"ce4bgqh2rcd13ifvqc5g","pricing_plan_id":"cebpf4jnsgd1na2vs0mg"},{"bike_id":"55fed244-caf4-46e6-99fc-fcd916ddb5b7","system_id":"levelo_inurba_marseille","lat":43.23207,"lon":5.35548,"is_reserved":false,"is_disabled":false,"rental_uris":{"android":"levelo://app?vid=55fed244-caf4-46e6-99fc-fcd916ddb5b7","ios":"levelo://app?vid=55fed244-caf4-46e6-99fc-fcd916ddb5b7"},"vehicle_type_id":"4","last_reported":1726751828,"current_range_meters":18800,"station_id":"ce4bhu92rcd13ifvqi70","pricing_plan_id":"cebpf4jnsgd1na2vs0mg"},{"bike_id":"19e30bd3-24f3-4b97-8379-240cbc6fa219","system_id":"levelo_inurba_marseille","lat":43.286143,"lon":5.351,"is_reserved":false,"is_disabled":false,"rental_uris":{"android":"levelo://app?vid=19e30bd3-24f3-4b97-8379-240cbc6fa219","ios":"levelo://app?vid=19e30bd3-24f3-4b97-8379-240cbc6fa219"},"vehicle_type_id":"4","last_reported":1726751828,"current_range_meters":8000,"station_id":"ce4bgs12rcd13ifvqcag","pricing_plan_id":"cebpf4jnsgd1na2vs0mg"},{"bike_id":"fcd868b4-ba82-4e13-932e-0f4118808294","system_id":"levelo_inurba_marseille","lat":43.23197,"lon":5.35554,"is_reserved":false,"is_disabled":false,"rental_uris":{"android":"levelo://app?vid=fcd868b4-ba82-4e13-932e-0f4118808294","ios":"levelo://app?vid=fcd868b4-ba82-4e13-932e-0f4118808294"},"vehicle_type_id":"4","last_reported":1726751828,"current_range_meters":4800,"station_id":"ce4bhu92rcd13ifvqi70","pricing_plan_id":"cebpf4jnsgd1na2vs0mg"},{"bike_id":"30d84394-0398-4ab6-99f8-8eeae71a3069","system_id":"levelo_inurba_marseille","lat":43.28438,"lon":5.39182,"is_reserved":false,"is_disabled":false,"rental_uris":{"android":"levelo://app?vid=30d84394-0398-4ab6-99f8-8eeae71a3069","ios":"levelo://app?vid=30d84394-0398-4ab6-99f8-8eeae71a3069"},"vehicle_type_id":"4","last_reported":1726751828,"current_range_meters":16800,"station_id":"ce4bhoh2rcd13ifvqh5g","pricing_plan_id":"cebpf4jnsgd1na2vs0mg"},{"bike_id":"ebd58a84-68f8-440f-8c4a-a8f16c02d79b","system_id":"levelo_inurba_marseille","lat":43.29039,"lon":5.37563,"is_reserved":false,"is_disabled":false,"rental_uris":{"android":"levelo://app?vid=ebd58a84-68f8-440f-8c4a-a8f16c02d79b","ios":"levelo://app?vid=ebd58a84-68f8-440f-8c4a-a8f16c02d79b"},"vehicle_type_id":"4","last_reported":1726751828,"current_range_meters":19200,"station_id":"ce4bh692rcd13ifvqe90","pricing_plan_id":"cebpf4jnsgd1na2vs0mg"},{"bike_id":"b14b5cd6-5407-4249-b6d8-aec0c8d680e1","system_id":"levelo_inurba_marseille","lat":43.33724,"lon":5.39186,"is_reserved":false,"is_disabled":false,"rental_uris":{"android":"levelo://app?vid=b14b5cd6-5407-4249-b6d8-aec0c8d680e1","ios":"levelo://app?vid=b14b5cd6-5407-4249-b6d8-aec0c8d680e1"},"vehicle_type_id":"4","last_reported":1726751828,"current_range_meters":8800,"station_id":"ce4bhr92rcd13ifvqhsg","pricing_plan_id":"cebpf4jnsgd1na2vs0mg"},{"bike_id":"bb84d119-edcd-41c0-91e8-a062977a7329","system_id":"levelo_inurba_marseille","lat":43.31719,"lon":5.42396,"is_reserved":false,"is_disabled":false,"rental_uris":{"android":"levelo://app?vid=bb84d119-edcd-41c0-91e8-a062977a7329","ios":"levelo://app?vid=bb84d119-edcd-41c0-91e8-a062977a7329"},"vehicle_type_id":"4","last_reported":1726751828,"current_range_meters":18000,"station_id":"ce4bhp92rcd13ifvqhbg","pricing_plan_id":"cebpf4jnsgd1na2vs0mg"},{"bike_id":"a5e5eb2b-f8d0-4d3b-b799-516d6b7bdc9b","system_id":"levelo_inurba_marseille","lat":43.29963,"lon":5.38503,"is_reserved":false,"is_disabled":false,"rental_uris":{"android":"levelo://app?vid=a5e5eb2b-f8d0-4d3b-b799-516d6b7bdc9b","ios":"levelo://app?vid=a5e5eb2b-f8d0-4d3b-b799-516d6b7bdc9b"},"vehicle_type_id":"4","last_reported":1726751828,"current_range_meters":4000,"station_id":"ce4bgj92rcd13ifvqbd0","pricing_plan_id":"cebpf4jnsgd1na2vs0mg"},{"bike_id":"876472d3-8f9f-4f41-a992-a9a18215becb","system_id":"levelo_inurba_marseille","lat":43.291,"lon":5.38128,"is_reserved":false,"is_disabled":false,"rental_uris":{"android":"levelo://app?vid=876472d3-8f9f-4f41-a992-a9a18215becb","ios":"levelo://app?vid=876472d3-8f9f-4f41-a992-a9a18215becb"},"vehicle_type_id":"4","last_reported":1726751828,"current_range_meters":12400,"station_id":"ce4bh512rcd13ifvqe2g","pricing_plan_id":"cebpf4jnsgd1na2vs0mg"},{"bike_id":"b035849e-9158-48ab-afae-15dac66a915f","system_id":"levelo_inurba_marseille","lat":43.33741,"lon":5.37448,"is_reserved":false,"is_disabled":false,"rental_uris":{"android":"levelo://app?vid=b035849e-9158-48ab-afae-15dac66a915f","ios":"levelo://app?vid=b035849e-9158-48ab-afae-15dac66a915f"},"vehicle_type_id":"4","last_reported":1726751828,"current_range_meters":37600,"station_id":"","pricing_plan_id":"cebpf4jnsgd1na2vs0mg"},{"bike_id":"656a7a7e-ece4-478a-82fa-0c03b969835e","system_id":"levelo_inurba_marseille","lat":43.29812,"lon":5.38094,"is_reserved":false,"is_disabled":false,"rental_uris":{"android":"levelo://app?vid=656a7a7e-ece4-478a-82fa-0c03b969835e","ios":"levelo://app?vid=656a7a7e-ece4-478a-82fa-0c03b969835e"},"vehicle_type_id":"4","last_reported":1726751828,"current_range_meters":7200,"station_id":"ce4bgip2rcd13ifvqbb0","pricing_plan_id":"cebpf4jnsgd1na2vs0mg"},{"bike_id":"e9c12d1b-6da0-4cc3-83bb-95bd5eb4adbb","system_id":"levelo_inurba_marseille","lat":43.30141,"lon":5.37419,"is_reserved":false,"is_disabled":false,"rental_uris":{"android":"levelo://app?vid=e9c12d1b-6da0-4cc3-83bb-95bd5eb4adbb","ios":"levelo://app?vid=e9c12d1b-6da0-4cc3-83bb-95bd5eb4adbb"},"vehicle_type_id":"4","last_reported":1726751828,"current_range_meters":39200,"station_id":"ce4bgs92rcd13ifvqcc0","pricing_plan_id":"cebpf4jnsgd1na2vs0mg"},{"bike_id":"1ccb1831-a5dc-464b-838b-dae4f6eb38cc","system_id":"levelo_inurba_marseille","lat":43.311096,"lon":5.4243,"is_reserved":false,"is_disabled":false,"rental_uris":{"android":"levelo://app?vid=1ccb1831-a5dc-464b-838b-dae4f6eb38cc","ios":"levelo://app?vid=1ccb1831-a5dc-464b-838b-dae4f6eb38cc"},"vehicle_type_id":"4","last_reported":1726751828,"current_range_meters":26000,"station_id":"ce4bhp92rcd13ifvqhag","pricing_plan_id":"cebpf4jnsgd1na2vs0mg"},{"bike_id":"1f582c6d-9a91-4e18-aec3-69785c604dfe","system_id":"levelo_inurba_marseille","lat":43.31494,"lon":5.37311,"is_reserved":false,"is_disabled":false,"rental_uris":{"android":"levelo://app?vid=1f582c6d-9a91-4e18-aec3-69785c604dfe","ios":"levelo://app?vid=1f582c6d-9a91-4e18-aec3-69785c604dfe"},"vehicle_type_id":"4","last_reported":1726751828,"current_range_meters":24800,"station_id":"ce4bgt12rcd13ifvqcd0","pricing_plan_id":"cebpf4jnsgd1na2vs0mg"},{"bike_id":"2cbb6dd5-2ec8-4ba5-808a-c5301f897d27","system_id":"levelo_inurba_marseille","lat":43.23959,"lon":5.3663,"is_reserved":false,"is_disabled":false,"rental_uris":{"android":"levelo://app?vid=2cbb6dd5-2ec8-4ba5-808a-c5301f897d27","ios":"levelo://app?vid=2cbb6dd5-2ec8-4ba5-808a-c5301f897d27"},"vehicle_type_id":"4","last_reported":1726751828,"current_range_meters":22800,"station_id":"ce4bhi12rcd13ifvqfp0","pricing_plan_id":"cebpf4jnsgd1na2vs0mg"},{"bike_id":"60a6f6c2-c23b-4cfd-a0cb-c3d4101e03a6","system_id":"levelo_inurba_marseille","lat":43.29847,"lon":5.36271,"is_reserved":false,"is_disabled":false,"rental_uris":{"android":"levelo://app?vid=60a6f6c2-c23b-4cfd-a0cb-c3d4101e03a6","ios":"levelo://app?vid=60a6f6c2-c23b-4cfd-a0cb-c3d4101e03a6"},"vehicle_type_id":"4","last_reported":1726751828,"current_range_meters":39200,"station_id":"ce4bgpp2rcd13ifvqc3g","pricing_plan_id":"cebpf4jnsgd1na2vs0mg"},{"bike_id":"794bee21-2d3f-4c1d-a7a8-bce07892e35a","system_id":"levelo_inurba_marseille","lat":43.288635,"lon":5.359894,"is_reserved":false,"is_disabled":false,"rental_uris":{"android":"levelo://app?vid=794bee21-2d3f-4c1d-a7a8-bce07892e35a","ios":"levelo://app?vid=794bee21-2d3f-4c1d-a7a8-bce07892e35a"},"vehicle_type_id":"4","last_reported":1726751828,"current_range_meters":32000,"station_id":"ce4bhh92rcd13ifvqfi0","pricing_plan_id":"cebpf4jnsgd1na2vs0mg"},{"bike_id":"61d7b2ec-8db9-4c81-b31c-72086237e9a5","system_id":"levelo_inurba_marseille","lat":43.337444,"lon":5.374475,"is_reserved":false,"is_disabled":false,"rental_uris":{"android":"levelo://app?vid=61d7b2ec-8db9-4c81-b31c-72086237e9a5","ios":"levelo://app?vid=61d7b2ec-8db9-4c81-b31c-72086237e9a5"},"vehicle_type_id":"4","last_reported":1726751828,"current_range_meters":38800,"station_id":"","pricing_plan_id":"cebpf4jnsgd1na2vs0mg"},{"bike_id":"52fffaf1-dd98-4e0a-a39d-48011512624f","system_id":"levelo_inurba_marseille","lat":43.25498,"lon":5.3765,"is_reserved":false,"is_disabled":false,"rental_uris":{"android":"levelo://app?vid=52fffaf1-dd98-4e0a-a39d-48011512624f","ios":"levelo://app?vid=52fffaf1-dd98-4e0a-a39d-48011512624f"},"vehicle_type_id":"4","last_reported":1726751828,"current_range_meters":28800,"station_id":"ce4bhh12rcd13ifvqff0","pricing_plan_id":"cebpf4jnsgd1na2vs0mg"},{"bike_id":"5bb39a0b-b121-44f9-b016-d108d765fda0","system_id":"levelo_inurba_marseille","lat":43.2987,"lon":5.39744,"is_reserved":false,"is_disabled":false,"rental_uris":{"android":"levelo://app?vid=5bb39a0b-b121-44f9-b016-d108d765fda0","ios":"levelo://app?vid=5bb39a0b-b121-44f9-b016-d108d765fda0"},"vehicle_type_id":"4","last_reported":1726751828,"current_range_meters":36800,"station_id":"ce4bh0h2rcd13ifvqd50","pricing_plan_id":"cebpf4jnsgd1na2vs0mg"},{"bike_id":"fd96236d-61a9-4585-b75e-9c8a0f1c9303","system_id":"levelo_inurba_marseille","lat":43.33024,"lon":5.39039,"is_reserved":false,"is_disabled":false,"rental_uris":{"android":"levelo://app?vid=fd96236d-61a9-4585-b75e-9c8a0f1c9303","ios":"levelo://app?vid=fd96236d-61a9-4585-b75e-9c8a0f1c9303"},"vehicle_type_id":"4","last_reported":1726751828,"current_range_meters":16000,"station_id":"ce4bhr92rcd13ifvqhrg","pricing_plan_id":"cebpf4jnsgd1na2vs0mg"},{"bike_id":"28bfacdd-f5d7-400d-85e3-5b001f813fe4","system_id":"levelo_inurba_marseille","lat":43.30241,"lon":5.4008,"is_reserved":false,"is_disabled":false,"rental_uris":{"android":"levelo://app?vid=28bfacdd-f5d7-400d-85e3-5b001f813fe4","ios":"levelo://app?vid=28bfacdd-f5d7-400d-85e3-5b001f813fe4"},"vehicle_type_id":"4","last_reported":1726751828,"current_range_meters":36800,"station_id":"ce4bgvh2rcd13ifvqcs0","pricing_plan_id":"cebpf4jnsgd1na2vs0mg"},{"bike_id":"ab957eff-0a72-4c5a-a176-6c0e2015c982","system_id":"levelo_inurba_marseille","lat":43.2985,"lon":5.36273,"is_reserved":false,"is_disabled":false,"rental_uris":{"android":"levelo://app?vid=ab957eff-0a72-4c5a-a176-6c0e2015c982","ios":"levelo://app?vid=ab957eff-0a72-4c5a-a176-6c0e2015c982"},"vehicle_type_id":"4","last_reported":1726751828,"current_range_meters":20000,"station_id":"ce4bgpp2rcd13ifvqc3g","pricing_plan_id":"cebpf4jnsgd1na2vs0mg"},{"bike_id":"c417a16e-cfa1-4038-80f4-11613df8a77c","system_id":"levelo_inurba_marseille","lat":43.29024,"lon":5.39964,"is_reserved":false,"is_disabled":false,"rental_uris":{"android":"levelo://app?vid=c417a16e-cfa1-4038-80f4-11613df8a77c","ios":"levelo://app?vid=c417a16e-cfa1-4038-80f4-11613df8a77c"},"vehicle_type_id":"4","last_reported":1726751828,"current_range_meters":30800,"station_id":"ce4bh392rcd13ifvqdm0","pricing_plan_id":"cebpf4jnsgd1na2vs0mg"},{"bike_id":"1ea79cf6-2f6c-45ac-80b8-1f4ad5573d7a","system_id":"levelo_inurba_marseille","lat":43.24667,"lon":5.38156,"is_reserved":false,"is_disabled":false,"rental_uris":{"android":"levelo://app?vid=1ea79cf6-2f6c-45ac-80b8-1f4ad5573d7a","ios":"levelo://app?vid=1ea79cf6-2f6c-45ac-80b8-1f4ad5573d7a"},"vehicle_type_id":"4","last_reported":1726751828,"current_range_meters":37600,"station_id":"ce4bhih2rcd13ifvqfr0","pricing_plan_id":"cebpf4jnsgd1na2vs0mg"},{"bike_id":"c5407118-42fb-4c2f-9d29-65aa8ba85e47","system_id":"levelo_inurba_marseille","lat":43.337444,"lon":5.374475,"is_reserved":false,"is_disabled":false,"rental_uris":{"android":"levelo://app?vid=c5407118-42fb-4c2f-9d29-65aa8ba85e47","ios":"levelo://app?vid=c5407118-42fb-4c2f-9d29-65aa8ba85e47"},"vehicle_type_id":"4","last_reported":1726751828,"current_range_meters":33200,"station_id":"ce4bh0h2rcd13ifvqd50","pricing_plan_id":"cebpf4jnsgd1na2vs0mg"},{"bike_id":"3450e49a-3810-4469-8f17-4407126f60e1","system_id":"levelo_inurba_marseille","lat":43.27533,"lon":5.42627,"is_reserved":false,"is_disabled":false,"rental_uris":{"android":"levelo://app?vid=3450e49a-3810-4469-8f17-4407126f60e1","ios":"levelo://app?vid=3450e49a-3810-4469-8f17-4407126f60e1"},"vehicle_type_id":"4","last_reported":1726751828,"current_range_meters":3600,"station_id":"","pricing_plan_id":"cebpf4jnsgd1na2vs0mg"},{"bike_id":"7617fe43-8fec-4602-b5d5-e996c1eb6a44","system_id":"levelo_inurba_marseille","lat":43.23192,"lon":5.35546,"is_reserved":false,"is_disabled":false,"rental_uris":{"android":"levelo://app?vid=7617fe43-8fec-4602-b5d5-e996c1eb6a44","ios":"levelo://app?vid=7617fe43-8fec-4602-b5d5-e996c1eb6a44"},"vehicle_type_id":"4","last_reported":1726751828,"current_range_meters":39200,"station_id":"ce4bhu92rcd13ifvqi70","pricing_plan_id":"cebpf4jnsgd1na2vs0mg"},{"bike_id":"396ba37e-88b0-4568-8a14-731de662ee27","system_id":"levelo_inurba_marseille","lat":43.31995,"lon":5.38142,"is_reserved":false,"is_disabled":false,"rental_uris":{"android":"levelo://app?vid=396ba37e-88b0-4568-8a14-731de662ee27","ios":"levelo://app?vid=396ba37e-88b0-4568-8a14-731de662ee27"},"vehicle_type_id":"4","last_reported":1726751828,"current_range_meters":32000,"station_id":"ce4bhr12rcd13ifvqhpg","pricing_plan_id":"cebpf4jnsgd1na2vs0mg"},{"bike_id":"59a08fd8-1e48-42c3-ba44-311e58b9541b","system_id":"levelo_inurba_marseille","lat":43.27816,"lon":5.40705,"is_reserved":false,"is_disabled":false,"rental_uris":{"android":"levelo://app?vid=59a08fd8-1e48-42c3-ba44-311e58b9541b","ios":"levelo://app?vid=59a08fd8-1e48-42c3-ba44-311e58b9541b"},"vehicle_type_id":"4","last_reported":1726751828,"current_range_meters":14000,"station_id":"ce4bhnh2rcd13ifvqgtg","pricing_plan_id":"cebpf4jnsgd1na2vs0mg"},{"bike_id":"ee5b51b2-81bc-41f3-a8b6-ee3b6fb51f2a","system_id":"levelo_inurba_marseille","lat":43.292755,"lon":5.368453,"is_reserved":false,"is_disabled":false,"rental_uris":{"android":"levelo://app?vid=ee5b51b2-81bc-41f3-a8b6-ee3b6fb51f2a","ios":"levelo://app?vid=ee5b51b2-81bc-41f3-a8b6-ee3b6fb51f2a"},"vehicle_type_id":"4","last_reported":1726751828,"current_range_meters":4400,"station_id":"ce4bhbh2rcd13ifvqeo0","pricing_plan_id":"cebpf4jnsgd1na2vs0mg"},{"bike_id":"9e3238eb-6849-426a-b681-5cd3597afeb4","system_id":"levelo_inurba_marseille","lat":43.2979,"lon":5.38109,"is_reserved":false,"is_disabled":false,"rental_uris":{"android":"levelo://app?vid=9e3238eb-6849-426a-b681-5cd3597afeb4","ios":"levelo://app?vid=9e3238eb-6849-426a-b681-5cd3597afeb4"},"vehicle_type_id":"4","last_reported":1726751828,"current_range_meters":26000,"station_id":"ce4bgip2rcd13ifvqbb0","pricing_plan_id":"cebpf4jnsgd1na2vs0mg"},{"bike_id":"52cb08ed-9346-44a5-9fd4-17c2ca78b86d","system_id":"levelo_inurba_marseille","lat":43.33756,"lon":5.37456,"is_reserved":false,"is_disabled":false,"rental_uris":{"android":"levelo://app?vid=52cb08ed-9346-44a5-9fd4-17c2ca78b86d","ios":"levelo://app?vid=52cb08ed-9346-44a5-9fd4-17c2ca78b86d"},"vehicle_type_id":"4","last_reported":1726751828,"current_range_meters":22400,"station_id":"","pricing_plan_id":"cebpf4jnsgd1na2vs0mg"},{"bike_id":"6abd6ed8-e9da-4163-9975-ae064d953b07","system_id":"levelo_inurba_marseille","lat":43.25935,"lon":5.40915,"is_reserved":false,"is_disabled":false,"rental_uris":{"android":"levelo://app?vid=6abd6ed8-e9da-4163-9975-ae064d953b07","ios":"levelo://app?vid=6abd6ed8-e9da-4163-9975-ae064d953b07"},"vehicle_type_id":"4","last_reported":1726751828,"current_range_meters":30400,"station_id":"ce4bhm92rcd13ifvqglg","pricing_plan_id":"cebpf4jnsgd1na2vs0mg"},{"bike_id":"87483675-10ba-4b90-9ed9-a62636228fd3","system_id":"levelo_inurba_marseille","lat":43.25938,"lon":5.40898,"is_reserved":false,"is_disabled":false,"rental_uris":{"android":"levelo://app?vid=87483675-10ba-4b90-9ed9-a62636228fd3","ios":"levelo://app?vid=87483675-10ba-4b90-9ed9-a62636228fd3"},"vehicle_type_id":"4","last_reported":1726751828,"current_range_meters":32400,"station_id":"ce4bhm92rcd13ifvqglg","pricing_plan_id":"cebpf4jnsgd1na2vs0mg"},{"bike_id":"2e771a32-ae11-4c0f-bb78-1f869927f164","system_id":"levelo_inurba_marseille","lat":43.2894,"lon":5.3639,"is_reserved":false,"is_disabled":false,"rental_uris":{"android":"levelo://app?vid=2e771a32-ae11-4c0f-bb78-1f869927f164","ios":"levelo://app?vid=2e771a32-ae11-4c0f-bb78-1f869927f164"},"vehicle_type_id":"4","last_reported":1726751828,"current_range_meters":34800,"station_id":"ce4bhc92rcd13ifvqetg","pricing_plan_id":"cebpf4jnsgd1na2vs0mg"},{"bike_id":"9886fcf8-a9ef-4ea0-aa5b-0c0669dc3293","system_id":"levelo_inurba_marseille","lat":43.26565,"lon":5.39003,"is_reserved":false,"is_disabled":false,"rental_uris":{"android":"levelo://app?vid=9886fcf8-a9ef-4ea0-aa5b-0c0669dc3293","ios":"levelo://app?vid=9886fcf8-a9ef-4ea0-aa5b-0c0669dc3293"},"vehicle_type_id":"4","last_reported":1726751828,"current_range_meters":24000,"station_id":"ce4bhe12rcd13ifvqf30","pricing_plan_id":"cebpf4jnsgd1na2vs0mg"},{"bike_id":"1933b794-e23a-4e5a-92d1-787a6a5cf8c6","system_id":"levelo_inurba_marseille","lat":43.290039,"lon":5.356137,"is_reserved":false,"is_disabled":false,"rental_uris":{"android":"levelo://app?vid=1933b794-e23a-4e5a-92d1-787a6a5cf8c6","ios":"levelo://app?vid=1933b794-e23a-4e5a-92d1-787a6a5cf8c6"},"vehicle_type_id":"4","last_reported":1726751828,"current_range_meters":35600,"station_id":"ce4bhb92rcd13ifvqen0","pricing_plan_id":"cebpf4jnsgd1na2vs0mg"},{"bike_id":"7f4fda24-2430-4ac1-a252-e8343500407c","system_id":"levelo_inurba_marseille","lat":43.25939,"lon":5.409,"is_reserved":false,"is_disabled":false,"rental_uris":{"android":"levelo://app?vid=7f4fda24-2430-4ac1-a252-e8343500407c","ios":"levelo://app?vid=7f4fda24-2430-4ac1-a252-e8343500407c"},"vehicle_type_id":"4","last_reported":1726751828,"current_range_meters":22400,"station_id":"ce4bhm92rcd13ifvqglg","pricing_plan_id":"cebpf4jnsgd1na2vs0mg"},{"bike_id":"bf81f4bc-2ae5-48cc-bd52-20fb0c924ced","system_id":"levelo_inurba_marseille","lat":43.30535,"lon":5.36713,"is_reserved":false,"is_disabled":false,"rental_uris":{"android":"levelo://app?vid=bf81f4bc-2ae5-48cc-bd52-20fb0c924ced","ios":"levelo://app?vid=bf81f4bc-2ae5-48cc-bd52-20fb0c924ced"},"vehicle_type_id":"4","last_reported":1726751828,"current_range_meters":27200,"station_id":"ce4bgrp2rcd13ifvqc9g","pricing_plan_id":"cebpf4jnsgd1na2vs0mg"},{"bike_id":"b0154446-30b1-4374-bfef-f6974c90099e","system_id":"levelo_inurba_marseille","lat":43.30548,"lon":5.36704,"is_reserved":false,"is_disabled":false,"rental_uris":{"android":"levelo://app?vid=b0154446-30b1-4374-bfef-f6974c90099e","ios":"levelo://app?vid=b0154446-30b1-4374-bfef-f6974c90099e"},"vehicle_type_id":"4","last_reported":1726751828,"current_range_meters":38800,"station_id":"ce4bgrp2rcd13ifvqc9g","pricing_plan_id":"cebpf4jnsgd1na2vs0mg"},{"bike_id":"3054afe6-4c88-4656-9a5d-c31a1a4a065f","system_id":"levelo_inurba_marseille","lat":43.32472,"lon":5.36569,"is_reserved":false,"is_disabled":false,"rental_uris":{"android":"levelo://app?vid=3054afe6-4c88-4656-9a5d-c31a1a4a065f","ios":"levelo://app?vid=3054afe6-4c88-4656-9a5d-c31a1a4a065f"},"vehicle_type_id":"4","last_reported":1726751828,"current_range_meters":33600,"station_id":"ce4bhs12rcd13ifvqhvg","pricing_plan_id":"cebpf4jnsgd1na2vs0mg"},{"bike_id":"a2d37112-211f-4b38-aab0-d7680c661123","system_id":"levelo_inurba_marseille","lat":43.29847,"lon":5.36276,"is_reserved":false,"is_disabled":false,"rental_uris":{"android":"levelo://app?vid=a2d37112-211f-4b38-aab0-d7680c661123","ios":"levelo://app?vid=a2d37112-211f-4b38-aab0-d7680c661123"},"vehicle_type_id":"4","last_reported":1726751828,"current_range_meters":20800,"station_id":"ce4bgpp2rcd13ifvqc3g","pricing_plan_id":"cebpf4jnsgd1na2vs0mg"},{"bike_id":"bb629a10-fa10-43df-80e6-fb1db9149a16","system_id":"levelo_inurba_marseille","lat":43.31687,"lon":5.40472,"is_reserved":false,"is_disabled":false,"rental_uris":{"android":"levelo://app?vid=bb629a10-fa10-43df-80e6-fb1db9149a16","ios":"levelo://app?vid=bb629a10-fa10-43df-80e6-fb1db9149a16"},"vehicle_type_id":"4","last_reported":1726751828,"current_range_meters":17200,"station_id":"ce4bh012rcd13ifvqd00","pricing_plan_id":"cebpf4jnsgd1na2vs0mg"},{"bike_id":"6d5cbd2e-3ab7-491d-a944-8cfd37cbcb61","system_id":"levelo_inurba_marseille","lat":43.26212,"lon":5.37444,"is_reserved":false,"is_disabled":false,"rental_uris":{"android":"levelo://app?vid=6d5cbd2e-3ab7-491d-a944-8cfd37cbcb61","ios":"levelo://app?vid=6d5cbd2e-3ab7-491d-a944-8cfd37cbcb61"},"vehicle_type_id":"4","last_reported":1726751828,"current_range_meters":9600,"station_id":"ce4bhgp2rcd13ifvqfc0","pricing_plan_id":"cebpf4jnsgd1na2vs0mg"},{"bike_id":"d702706d-cdf6-4cf9-9f3f-96ababd7ca5e","system_id":"levelo_inurba_marseille","lat":43.31226,"lon":5.3685,"is_reserved":false,"is_disabled":false,"rental_uris":{"android":"levelo://app?vid=d702706d-cdf6-4cf9-9f3f-96ababd7ca5e","ios":"levelo://app?vid=d702706d-cdf6-4cf9-9f3f-96ababd7ca5e"},"vehicle_type_id":"4","last_reported":1726751828,"current_range_meters":36400,"station_id":"ce4bgl92rcd13ifvqbq0","pricing_plan_id":"cebpf4jnsgd1na2vs0mg"},{"bike_id":"902190e7-1fe9-4270-9546-498dac581307","system_id":"levelo_inurba_marseille","lat":43.27999,"lon":5.40601,"is_reserved":false,"is_disabled":false,"rental_uris":{"android":"levelo://app?vid=902190e7-1fe9-4270-9546-498dac581307","ios":"levelo://app?vid=902190e7-1fe9-4270-9546-498dac581307"},"vehicle_type_id":"4","last_reported":1726751828,"current_range_meters":36400,"station_id":"","pricing_plan_id":"cebpf4jnsgd1na2vs0mg"},{"bike_id":"92ec1ccd-44ff-45d6-8c36-06e0f650d125","system_id":"levelo_inurba_marseille","lat":43.284733,"lon":5.385825,"is_reserved":false,"is_disabled":false,"rental_uris":{"android":"levelo://app?vid=92ec1ccd-44ff-45d6-8c36-06e0f650d125","ios":"levelo://app?vid=92ec1ccd-44ff-45d6-8c36-06e0f650d125"},"vehicle_type_id":"4","last_reported":1726751828,"current_range_meters":7200,"station_id":"ce4bh8p2rcd13ifvqeb0","pricing_plan_id":"cebpf4jnsgd1na2vs0mg"},{"bike_id":"b9a4e042-e213-478c-bd8e-35e8a9cfb2c9","system_id":"levelo_inurba_marseille","lat":43.26796,"lon":5.39411,"is_reserved":false,"is_disabled":false,"rental_uris":{"android":"levelo://app?vid=b9a4e042-e213-478c-bd8e-35e8a9cfb2c9","ios":"levelo://app?vid=b9a4e042-e213-478c-bd8e-35e8a9cfb2c9"},"vehicle_type_id":"4","last_reported":1726751828,"current_range_meters":22800,"station_id":"ce4bhh12rcd13ifvqfg0","pricing_plan_id":"cebpf4jnsgd1na2vs0mg"},{"bike_id":"d7f762b5-e606-4ffb-96c6-73fd53b8452d","system_id":"levelo_inurba_marseille","lat":43.28841,"lon":5.39319,"is_reserved":false,"is_disabled":false,"rental_uris":{"android":"levelo://app?vid=d7f762b5-e606-4ffb-96c6-73fd53b8452d","ios":"levelo://app?vid=d7f762b5-e606-4ffb-96c6-73fd53b8452d"},"vehicle_type_id":"4","last_reported":1726751828,"current_range_meters":27200,"station_id":"ce4bh2p2rcd13ifvqdi0","pricing_plan_id":"cebpf4jnsgd1na2vs0mg"},{"bike_id":"29affaf3-d71e-45cb-aab6-43585a820bd5","system_id":"levelo_inurba_marseille","lat":43.29852,"lon":5.36287,"is_reserved":false,"is_disabled":false,"rental_uris":{"android":"levelo://app?vid=29affaf3-d71e-45cb-aab6-43585a820bd5","ios":"levelo://app?vid=29affaf3-d71e-45cb-aab6-43585a820bd5"},"vehicle_type_id":"4","last_reported":1726751828,"current_range_meters":38800,"station_id":"ce4bgpp2rcd13ifvqc3g","pricing_plan_id":"cebpf4jnsgd1na2vs0mg"},{"bike_id":"7ed6941b-afc4-460f-8af3-ab9c555ffb27","system_id":"levelo_inurba_marseille","lat":43.30537,"lon":5.36696,"is_reserved":false,"is_disabled":false,"rental_uris":{"android":"levelo://app?vid=7ed6941b-afc4-460f-8af3-ab9c555ffb27","ios":"levelo://app?vid=7ed6941b-afc4-460f-8af3-ab9c555ffb27"},"vehicle_type_id":"4","last_reported":1726751828,"current_range_meters":39200,"station_id":"ce4bgrp2rcd13ifvqc9g","pricing_plan_id":"cebpf4jnsgd1na2vs0mg"},{"bike_id":"66979b52-14f7-44b1-a286-4b115afc35a7","system_id":"levelo_inurba_marseille","lat":43.25001,"lon":5.38925,"is_reserved":false,"is_disabled":false,"rental_uris":{"android":"levelo://app?vid=66979b52-14f7-44b1-a286-4b115afc35a7","ios":"levelo://app?vid=66979b52-14f7-44b1-a286-4b115afc35a7"},"vehicle_type_id":"4","last_reported":1726751828,"current_range_meters":27600,"station_id":"ce4bhgp2rcd13ifvqfd0","pricing_plan_id":"cebpf4jnsgd1na2vs0mg"},{"bike_id":"db5bed51-afb9-4548-98e9-7b7ae226c501","system_id":"levelo_inurba_marseille","lat":43.33756,"lon":5.37453,"is_reserved":false,"is_disabled":false,"rental_uris":{"android":"levelo://app?vid=db5bed51-afb9-4548-98e9-7b7ae226c501","ios":"levelo://app?vid=db5bed51-afb9-4548-98e9-7b7ae226c501"},"vehicle_type_id":"4","last_reported":1726751828,"current_range_meters":22000,"station_id":"","pricing_plan_id":"cebpf4jnsgd1na2vs0mg"},{"bike_id":"fcb32119-d5f5-4a59-9670-c10930927453","system_id":"levelo_inurba_marseille","lat":43.30948,"lon":5.39045,"is_reserved":false,"is_disabled":false,"rental_uris":{"android":"levelo://app?vid=fcb32119-d5f5-4a59-9670-c10930927453","ios":"levelo://app?vid=fcb32119-d5f5-4a59-9670-c10930927453"},"vehicle_type_id":"4","last_reported":1726751828,"current_range_meters":30400,"station_id":"ce4bgup2rcd13ifvqco0","pricing_plan_id":"cebpf4jnsgd1na2vs0mg"},{"bike_id":"6864a05c-76c0-4648-ae7c-db87fef70f83","system_id":"levelo_inurba_marseille","lat":43.27499,"lon":5.42449,"is_reserved":false,"is_disabled":false,"rental_uris":{"android":"levelo://app?vid=6864a05c-76c0-4648-ae7c-db87fef70f83","ios":"levelo://app?vid=6864a05c-76c0-4648-ae7c-db87fef70f83"},"vehicle_type_id":"4","last_reported":1726751828,"current_range_meters":6000,"station_id":"ce4bhn92rcd13ifvqgrg","pricing_plan_id":"cebpf4jnsgd1na2vs0mg"},{"bike_id":"f1925469-9217-450d-9259-fc5ba656a5ff","system_id":"levelo_inurba_marseille","lat":43.25928,"lon":5.40914,"is_reserved":false,"is_disabled":false,"rental_uris":{"android":"levelo://app?vid=f1925469-9217-450d-9259-fc5ba656a5ff","ios":"levelo://app?vid=f1925469-9217-450d-9259-fc5ba656a5ff"},"vehicle_type_id":"4","last_reported":1726751828,"current_range_meters":37600,"station_id":"ce4bhm92rcd13ifvqglg","pricing_plan_id":"cebpf4jnsgd1na2vs0mg"},{"bike_id":"69399783-5eae-4af9-ae4b-1495b2d249b1","system_id":"levelo_inurba_marseille","lat":43.24166,"lon":5.36392,"is_reserved":false,"is_disabled":false,"rental_uris":{"android":"levelo://app?vid=69399783-5eae-4af9-ae4b-1495b2d249b1","ios":"levelo://app?vid=69399783-5eae-4af9-ae4b-1495b2d249b1"},"vehicle_type_id":"4","last_reported":1726751828,"current_range_meters":33200,"station_id":"cpo36qri1sfpv3e86is0","pricing_plan_id":"cebpf4jnsgd1na2vs0mg"},{"bike_id":"d4b09efd-1e41-4534-afaa-4fc8f783456a","system_id":"levelo_inurba_marseille","lat":43.23058,"lon":5.35489,"is_reserved":false,"is_disabled":false,"rental_uris":{"android":"levelo://app?vid=d4b09efd-1e41-4534-afaa-4fc8f783456a","ios":"levelo://app?vid=d4b09efd-1e41-4534-afaa-4fc8f783456a"},"vehicle_type_id":"4","last_reported":1726751828,"current_range_meters":25600,"station_id":"cpo3342slgdg3j2ifvpg","pricing_plan_id":"cebpf4jnsgd1na2vs0mg"},{"bike_id":"52aed5a5-1173-4ecb-a591-04613e960d0f","system_id":"levelo_inurba_marseille","lat":43.27498,"lon":5.42447,"is_reserved":false,"is_disabled":false,"rental_uris":{"android":"levelo://app?vid=52aed5a5-1173-4ecb-a591-04613e960d0f","ios":"levelo://app?vid=52aed5a5-1173-4ecb-a591-04613e960d0f"},"vehicle_type_id":"4","last_reported":1726751828,"current_range_meters":11600,"station_id":"ce4bhn92rcd13ifvqgrg","pricing_plan_id":"cebpf4jnsgd1na2vs0mg"},{"bike_id":"a6e83bad-f58b-4594-9991-fbc4f3f13558","system_id":"levelo_inurba_marseille","lat":43.289675,"lon":5.378362,"is_reserved":false,"is_disabled":false,"rental_uris":{"android":"levelo://app?vid=a6e83bad-f58b-4594-9991-fbc4f3f13558","ios":"levelo://app?vid=a6e83bad-f58b-4594-9991-fbc4f3f13558"},"vehicle_type_id":"4","last_reported":1726751828,"current_range_meters":8800,"station_id":"ce4bh9p2rcd13ifvqed0","pricing_plan_id":"cebpf4jnsgd1na2vs0mg"},{"bike_id":"3b3f679f-9860-4dc0-8376-e682454fa192","system_id":"levelo_inurba_marseille","lat":43.28715,"lon":5.36083,"is_reserved":false,"is_disabled":false,"rental_uris":{"android":"levelo://app?vid=3b3f679f-9860-4dc0-8376-e682454fa192","ios":"levelo://app?vid=3b3f679f-9860-4dc0-8376-e682454fa192"},"vehicle_type_id":"4","last_reported":1726751828,"current_range_meters":38000,"station_id":"cki0cbj6b192h4jlfktg","pricing_plan_id":"cebpf4jnsgd1na2vs0mg"},{"bike_id":"632d7699-bd16-4a1d-ab10-7c1093a0fb44","system_id":"levelo_inurba_marseille","lat":43.337444,"lon":5.374475,"is_reserved":false,"is_disabled":false,"rental_uris":{"android":"levelo://app?vid=632d7699-bd16-4a1d-ab10-7c1093a0fb44","ios":"levelo://app?vid=632d7699-bd16-4a1d-ab10-7c1093a0fb44"},"vehicle_type_id":"4","last_reported":1726751828,"current_range_meters":10800,"station_id":"ce4bh0h2rcd13ifvqd60","pricing_plan_id":"cebpf4jnsgd1na2vs0mg"},{"bike_id":"2cb57f98-29ff-43ef-91cd-01a26af31991","system_id":"levelo_inurba_marseille","lat":43.337444,"lon":5.374475,"is_reserved":false,"is_disabled":false,"rental_uris":{"android":"levelo://app?vid=2cb57f98-29ff-43ef-91cd-01a26af31991","ios":"levelo://app?vid=2cb57f98-29ff-43ef-91cd-01a26af31991"},"vehicle_type_id":"4","last_reported":1726751828,"current_range_meters":22400,"station_id":"","pricing_plan_id":"cebpf4jnsgd1na2vs0mg"},{"bike_id":"c07f4740-ebab-4d5c-b22e-deddf1ddd7da","system_id":"levelo_inurba_marseille","lat":43.2984,"lon":5.36265,"is_reserved":false,"is_disabled":false,"rental_uris":{"android":"levelo://app?vid=c07f4740-ebab-4d5c-b22e-deddf1ddd7da","ios":"levelo://app?vid=c07f4740-ebab-4d5c-b22e-deddf1ddd7da"},"vehicle_type_id":"4","last_reported":1726751828,"current_range_meters":39200,"station_id":"ce4bgpp2rcd13ifvqc3g","pricing_plan_id":"cebpf4jnsgd1na2vs0mg"},{"bike_id":"d697e8c5-a55b-40fa-a5e8-9c94bd41e904","system_id":"levelo_inurba_marseille","lat":43.2862,"lon":5.35101,"is_reserved":false,"is_disabled":false,"rental_uris":{"android":"levelo://app?vid=d697e8c5-a55b-40fa-a5e8-9c94bd41e904","ios":"levelo://app?vid=d697e8c5-a55b-40fa-a5e8-9c94bd41e904"},"vehicle_type_id":"4","last_reported":1726751828,"current_range_meters":16400,"station_id":"ce4bhch2rcd13ifvqeug","pricing_plan_id":"cebpf4jnsgd1na2vs0mg"},{"bike_id":"94d4b6a0-0dd0-43db-8825-ebe5f3cbd6bb","system_id":"levelo_inurba_marseille","lat":43.26559,"lon":5.37284,"is_reserved":false,"is_disabled":false,"rental_uris":{"android":"levelo://app?vid=94d4b6a0-0dd0-43db-8825-ebe5f3cbd6bb","ios":"levelo://app?vid=94d4b6a0-0dd0-43db-8825-ebe5f3cbd6bb"},"vehicle_type_id":"4","last_reported":1726751828,"current_range_meters":25600,"station_id":"ce4bhg12rcd13ifvqf70","pricing_plan_id":"cebpf4jnsgd1na2vs0mg"},{"bike_id":"a811345e-c046-4ee5-87fd-576f86d7c458","system_id":"levelo_inurba_marseille","lat":43.25933,"lon":5.40908,"is_reserved":false,"is_disabled":false,"rental_uris":{"android":"levelo://app?vid=a811345e-c046-4ee5-87fd-576f86d7c458","ios":"levelo://app?vid=a811345e-c046-4ee5-87fd-576f86d7c458"},"vehicle_type_id":"4","last_reported":1726751828,"current_range_meters":36800,"station_id":"ce4bhm92rcd13ifvqglg","pricing_plan_id":"cebpf4jnsgd1na2vs0mg"},{"bike_id":"1fd89a8d-f64a-47f4-884f-f2892f85c821","system_id":"levelo_inurba_marseille","lat":43.25581,"lon":5.38233,"is_reserved":false,"is_disabled":false,"rental_uris":{"android":"levelo://app?vid=1fd89a8d-f64a-47f4-884f-f2892f85c821","ios":"levelo://app?vid=1fd89a8d-f64a-47f4-884f-f2892f85c821"},"vehicle_type_id":"4","last_reported":1726751828,"current_range_meters":16800,"station_id":"ce4bhih2rcd13ifvqfs0","pricing_plan_id":"cebpf4jnsgd1na2vs0mg"},{"bike_id":"884b4613-2a72-46e8-b1fd-814e1222921b","system_id":"levelo_inurba_marseille","lat":43.30543,"lon":5.36702,"is_reserved":false,"is_disabled":false,"rental_uris":{"android":"levelo://app?vid=884b4613-2a72-46e8-b1fd-814e1222921b","ios":"levelo://app?vid=884b4613-2a72-46e8-b1fd-814e1222921b"},"vehicle_type_id":"4","last_reported":1726751828,"current_range_meters":38400,"station_id":"ce4bgrp2rcd13ifvqc9g","pricing_plan_id":"cebpf4jnsgd1na2vs0mg"},{"bike_id":"96010521-6df8-4499-9193-686a24ef9ec2","system_id":"levelo_inurba_marseille","lat":43.30196,"lon":5.36935,"is_reserved":false,"is_disabled":false,"rental_uris":{"android":"levelo://app?vid=96010521-6df8-4499-9193-686a24ef9ec2","ios":"levelo://app?vid=96010521-6df8-4499-9193-686a24ef9ec2"},"vehicle_type_id":"4","last_reported":1726751828,"current_range_meters":17600,"station_id":"","pricing_plan_id":"cebpf4jnsgd1na2vs0mg"},{"bike_id":"58014cc6-4f39-4119-a8a0-cdc0e2507820","system_id":"levelo_inurba_marseille","lat":43.32289,"lon":5.38269,"is_reserved":false,"is_disabled":false,"rental_uris":{"android":"levelo://app?vid=58014cc6-4f39-4119-a8a0-cdc0e2507820","ios":"levelo://app?vid=58014cc6-4f39-4119-a8a0-cdc0e2507820"},"vehicle_type_id":"4","last_reported":1726751828,"current_range_meters":39200,"station_id":"ce4bhr12rcd13ifvqhqg","pricing_plan_id":"cebpf4jnsgd1na2vs0mg"},{"bike_id":"9555958d-2195-4aa5-82bd-f703b815487c","system_id":"levelo_inurba_marseille","lat":43.28667,"lon":5.3866,"is_reserved":false,"is_disabled":false,"rental_uris":{"android":"levelo://app?vid=9555958d-2195-4aa5-82bd-f703b815487c","ios":"levelo://app?vid=9555958d-2195-4aa5-82bd-f703b815487c"},"vehicle_type_id":"4","last_reported":1726751828,"current_range_meters":30400,"station_id":"ce4bh492rcd13ifvqdug","pricing_plan_id":"cebpf4jnsgd1na2vs0mg"},{"bike_id":"6baf7011-c748-4897-8de6-5872e33a63cb","system_id":"levelo_inurba_marseille","lat":43.335945,"lon":5.410179,"is_reserved":false,"is_disabled":false,"rental_uris":{"android":"levelo://app?vid=6baf7011-c748-4897-8de6-5872e33a63cb","ios":"levelo://app?vid=6baf7011-c748-4897-8de6-5872e33a63cb"},"vehicle_type_id":"4","last_reported":1726751828,"current_range_meters":28800,"station_id":"ce4bhqh2rcd13ifvqhmg","pricing_plan_id":"cebpf4jnsgd1na2vs0mg"},{"bike_id":"9942a47b-d751-4701-8db6-fd3aae6ec433","system_id":"levelo_inurba_marseille","lat":43.27495,"lon":5.42456,"is_reserved":false,"is_disabled":false,"rental_uris":{"android":"levelo://app?vid=9942a47b-d751-4701-8db6-fd3aae6ec433","ios":"levelo://app?vid=9942a47b-d751-4701-8db6-fd3aae6ec433"},"vehicle_type_id":"4","last_reported":1726751828,"current_range_meters":30400,"station_id":"ce4bhn92rcd13ifvqgrg","pricing_plan_id":"cebpf4jnsgd1na2vs0mg"},{"bike_id":"e71d0d66-fb17-4f21-bad3-94b71466edd6","system_id":"levelo_inurba_marseille","lat":43.26038,"lon":5.37552,"is_reserved":false,"is_disabled":false,"rental_uris":{"android":"levelo://app?vid=e71d0d66-fb17-4f21-bad3-94b71466edd6","ios":"levelo://app?vid=e71d0d66-fb17-4f21-bad3-94b71466edd6"},"vehicle_type_id":"4","last_reported":1726751828,"current_range_meters":22400,"station_id":"ce4bhgh2rcd13ifvqfa0","pricing_plan_id":"cebpf4jnsgd1na2vs0mg"},{"bike_id":"3a643a13-d852-4164-b5f1-2086ca5ef5c3","system_id":"levelo_inurba_marseille","lat":43.30294,"lon":5.36958,"is_reserved":false,"is_disabled":false,"rental_uris":{"android":"levelo://app?vid=3a643a13-d852-4164-b5f1-2086ca5ef5c3","ios":"levelo://app?vid=3a643a13-d852-4164-b5f1-2086ca5ef5c3"},"vehicle_type_id":"4","last_reported":1726751828,"current_range_meters":14000,"station_id":"ce4bgqh2rcd13ifvqc5g","pricing_plan_id":"cebpf4jnsgd1na2vs0mg"},{"bike_id":"c6e814fd-e15c-4039-bb57-190e90be8dce","system_id":"levelo_inurba_marseille","lat":43.28001,"lon":5.40005,"is_reserved":false,"is_disabled":false,"rental_uris":{"android":"levelo://app?vid=c6e814fd-e15c-4039-bb57-190e90be8dce","ios":"levelo://app?vid=c6e814fd-e15c-4039-bb57-190e90be8dce"},"vehicle_type_id":"4","last_reported":1726751828,"current_range_meters":10000,"station_id":"ce4bho92rcd13ifvqh4g","pricing_plan_id":"cebpf4jnsgd1na2vs0mg"},{"bike_id":"0566be55-ed0a-4663-a775-6978a1f64046","system_id":"levelo_inurba_marseille","lat":43.2867,"lon":5.38668,"is_reserved":false,"is_disabled":false,"rental_uris":{"android":"levelo://app?vid=0566be55-ed0a-4663-a775-6978a1f64046","ios":"levelo://app?vid=0566be55-ed0a-4663-a775-6978a1f64046"},"vehicle_type_id":"4","last_reported":1726751828,"current_range_meters":26000,"station_id":"ce4bh492rcd13ifvqdug","pricing_plan_id":"cebpf4jnsgd1na2vs0mg"},{"bike_id":"d2531e38-710a-4f4e-8fe6-fa4a8a95557e","system_id":"levelo_inurba_marseille","lat":43.33743,"lon":5.37441,"is_reserved":false,"is_disabled":false,"rental_uris":{"android":"levelo://app?vid=d2531e38-710a-4f4e-8fe6-fa4a8a95557e","ios":"levelo://app?vid=d2531e38-710a-4f4e-8fe6-fa4a8a95557e"},"vehicle_type_id":"4","last_reported":1726751828,"current_range_meters":37600,"station_id":"","pricing_plan_id":"cebpf4jnsgd1na2vs0mg"},{"bike_id":"f88655fb-8466-486f-9041-31878b0e6353","system_id":"levelo_inurba_marseille","lat":43.28268,"lon":5.35061,"is_reserved":false,"is_disabled":false,"rental_uris":{"android":"levelo://app?vid=f88655fb-8466-486f-9041-31878b0e6353","ios":"levelo://app?vid=f88655fb-8466-486f-9041-31878b0e6353"},"vehicle_type_id":"4","last_reported":1726751828,"current_range_meters":39200,"station_id":"ce4bhbp2rcd13ifvqerg","pricing_plan_id":"cebpf4jnsgd1na2vs0mg"},{"bike_id":"f7cbb25a-4844-4c93-85ef-dcacc64050e9","system_id":"levelo_inurba_marseille","lat":43.26193,"lon":5.37445,"is_reserved":false,"is_disabled":false,"rental_uris":{"android":"levelo://app?vid=f7cbb25a-4844-4c93-85ef-dcacc64050e9","ios":"levelo://app?vid=f7cbb25a-4844-4c93-85ef-dcacc64050e9"},"vehicle_type_id":"4","last_reported":1726751828,"current_range_meters":38000,"station_id":"ce4bhgp2rcd13ifvqfc0","pricing_plan_id":"cebpf4jnsgd1na2vs0mg"},{"bike_id":"cb3e138d-4973-4a54-a1fb-8698d72e7d32","system_id":"levelo_inurba_marseille","lat":43.30282,"lon":5.37696,"is_reserved":false,"is_disabled":false,"rental_uris":{"android":"levelo://app?vid=cb3e138d-4973-4a54-a1fb-8698d72e7d32","ios":"levelo://app?vid=cb3e138d-4973-4a54-a1fb-8698d72e7d32"},"vehicle_type_id":"4","last_reported":1726751828,"current_range_meters":39200,"station_id":"ce4bguh2rcd13ifvqcj0","pricing_plan_id":"cebpf4jnsgd1na2vs0mg"},{"bike_id":"cb92a863-4559-43a5-9be2-52af752425b4","system_id":"levelo_inurba_marseille","lat":43.28484,"lon":5.38411,"is_reserved":false,"is_disabled":false,"rental_uris":{"android":"levelo://app?vid=cb92a863-4559-43a5-9be2-52af752425b4","ios":"levelo://app?vid=cb92a863-4559-43a5-9be2-52af752425b4"},"vehicle_type_id":"4","last_reported":1726751828,"current_range_meters":33600,"station_id":"ce4bh512rcd13ifvqe3g","pricing_plan_id":"cebpf4jnsgd1na2vs0mg"},{"bike_id":"b1ab4565-119f-404e-ac17-99dfc9fc3b01","system_id":"levelo_inurba_marseille","lat":43.33879,"lon":5.3916,"is_reserved":false,"is_disabled":false,"rental_uris":{"android":"levelo://app?vid=b1ab4565-119f-404e-ac17-99dfc9fc3b01","ios":"levelo://app?vid=b1ab4565-119f-404e-ac17-99dfc9fc3b01"},"vehicle_type_id":"4","last_reported":1726751828,"current_range_meters":12000,"station_id":"","pricing_plan_id":"cebpf4jnsgd1na2vs0mg"},{"bike_id":"7ae18afd-0569-41b1-a902-ddc45f658ca0","system_id":"levelo_inurba_marseille","lat":43.30295,"lon":5.37692,"is_reserved":false,"is_disabled":false,"rental_uris":{"android":"levelo://app?vid=7ae18afd-0569-41b1-a902-ddc45f658ca0","ios":"levelo://app?vid=7ae18afd-0569-41b1-a902-ddc45f658ca0"},"vehicle_type_id":"4","last_reported":1726751828,"current_range_meters":28800,"station_id":"ce4bguh2rcd13ifvqcj0","pricing_plan_id":"cebpf4jnsgd1na2vs0mg"},{"bike_id":"a90a8355-c86e-4630-b9ce-4f3d4253bdbb","system_id":"levelo_inurba_marseille","lat":43.31694,"lon":5.40471,"is_reserved":false,"is_disabled":false,"rental_uris":{"android":"levelo://app?vid=a90a8355-c86e-4630-b9ce-4f3d4253bdbb","ios":"levelo://app?vid=a90a8355-c86e-4630-b9ce-4f3d4253bdbb"},"vehicle_type_id":"4","last_reported":1726751828,"current_range_meters":38800,"station_id":"ce4bh012rcd13ifvqd00","pricing_plan_id":"cebpf4jnsgd1na2vs0mg"},{"bike_id":"daa51682-6cc5-446b-81cf-af7c282f827b","system_id":"levelo_inurba_marseille","lat":43.30276,"lon":5.37699,"is_reserved":false,"is_disabled":false,"rental_uris":{"android":"levelo://app?vid=daa51682-6cc5-446b-81cf-af7c282f827b","ios":"levelo://app?vid=daa51682-6cc5-446b-81cf-af7c282f827b"},"vehicle_type_id":"4","last_reported":1726751828,"current_range_meters":28400,"station_id":"ce4bguh2rcd13ifvqcj0","pricing_plan_id":"cebpf4jnsgd1na2vs0mg"},{"bike_id":"6b6c4fab-0bd1-4725-a1b7-466b87a727bc","system_id":"levelo_inurba_marseille","lat":43.30533,"lon":5.36546,"is_reserved":false,"is_disabled":false,"rental_uris":{"android":"levelo://app?vid=6b6c4fab-0bd1-4725-a1b7-466b87a727bc","ios":"levelo://app?vid=6b6c4fab-0bd1-4725-a1b7-466b87a727bc"},"vehicle_type_id":"4","last_reported":1726751828,"current_range_meters":25600,"station_id":"ce4bgs12rcd13ifvqcag","pricing_plan_id":"cebpf4jnsgd1na2vs0mg"},{"bike_id":"4018871b-e691-4492-a5fe-496f0cda8b66","system_id":"levelo_inurba_marseille","lat":43.27492,"lon":5.42456,"is_reserved":false,"is_disabled":false,"rental_uris":{"android":"levelo://app?vid=4018871b-e691-4492-a5fe-496f0cda8b66","ios":"levelo://app?vid=4018871b-e691-4492-a5fe-496f0cda8b66"},"vehicle_type_id":"4","last_reported":1726751828,"current_range_meters":35600,"station_id":"ce4bhn92rcd13ifvqgrg","pricing_plan_id":"cebpf4jnsgd1na2vs0mg"},{"bike_id":"1ac23373-1d9e-469d-b9c9-0fa13157db30","system_id":"levelo_inurba_marseille","lat":43.22926,"lon":5.35372,"is_reserved":false,"is_disabled":false,"rental_uris":{"android":"levelo://app?vid=1ac23373-1d9e-469d-b9c9-0fa13157db30","ios":"levelo://app?vid=1ac23373-1d9e-469d-b9c9-0fa13157db30"},"vehicle_type_id":"4","last_reported":1726751828,"current_range_meters":3600,"station_id":"cpo3532slgdg3j2ikp40","pricing_plan_id":"cebpf4jnsgd1na2vs0mg"},{"bike_id":"fa2e946d-01fe-4bb4-a2b0-55af60a0bcec","system_id":"levelo_inurba_marseille","lat":43.33732,"lon":5.39184,"is_reserved":false,"is_disabled":false,"rental_uris":{"android":"levelo://app?vid=fa2e946d-01fe-4bb4-a2b0-55af60a0bcec","ios":"levelo://app?vid=fa2e946d-01fe-4bb4-a2b0-55af60a0bcec"},"vehicle_type_id":"4","last_reported":1726751828,"current_range_meters":38000,"station_id":"ce4bhr92rcd13ifvqhsg","pricing_plan_id":"cebpf4jnsgd1na2vs0mg"},{"bike_id":"8130bde5-0ffb-4dee-acc6-266693b62ed5","system_id":"levelo_inurba_marseille","lat":43.313322,"lon":5.396939,"is_reserved":false,"is_disabled":false,"rental_uris":{"android":"levelo://app?vid=8130bde5-0ffb-4dee-acc6-266693b62ed5","ios":"levelo://app?vid=8130bde5-0ffb-4dee-acc6-266693b62ed5"},"vehicle_type_id":"4","last_reported":1726751828,"current_range_meters":10800,"station_id":"ce4bgvp2rcd13ifvqcu0","pricing_plan_id":"cebpf4jnsgd1na2vs0mg"},{"bike_id":"c24458ab-7998-4cd1-b518-904753d8450e","system_id":"levelo_inurba_marseille","lat":43.275024,"lon":5.424409,"is_reserved":false,"is_disabled":false,"rental_uris":{"android":"levelo://app?vid=c24458ab-7998-4cd1-b518-904753d8450e","ios":"levelo://app?vid=c24458ab-7998-4cd1-b518-904753d8450e"},"vehicle_type_id":"4","last_reported":1726751828,"current_range_meters":37600,"station_id":"ce4bhnh2rcd13ifvqgug","pricing_plan_id":"cebpf4jnsgd1na2vs0mg"},{"bike_id":"6f25435d-a9fe-4de6-8921-4f4064a1c012","system_id":"levelo_inurba_marseille","lat":43.25932,"lon":5.40913,"is_reserved":false,"is_disabled":false,"rental_uris":{"android":"levelo://app?vid=6f25435d-a9fe-4de6-8921-4f4064a1c012","ios":"levelo://app?vid=6f25435d-a9fe-4de6-8921-4f4064a1c012"},"vehicle_type_id":"4","last_reported":1726751828,"current_range_meters":23200,"station_id":"ce4bhm92rcd13ifvqglg","pricing_plan_id":"cebpf4jnsgd1na2vs0mg"},{"bike_id":"f3431eec-ba79-4410-93fb-a896148abafd","system_id":"levelo_inurba_marseille","lat":43.2721,"lon":5.39176,"is_reserved":false,"is_disabled":false,"rental_uris":{"android":"levelo://app?vid=f3431eec-ba79-4410-93fb-a896148abafd","ios":"levelo://app?vid=f3431eec-ba79-4410-93fb-a896148abafd"},"vehicle_type_id":"4","last_reported":1726751828,"current_range_meters":26000,"station_id":"ce4bhhp2rcd13ifvqfm0","pricing_plan_id":"cebpf4jnsgd1na2vs0mg"},{"bike_id":"a8a54d34-1a50-45c0-9fc8-ef3e2e35eb08","system_id":"levelo_inurba_marseille","lat":43.30908,"lon":5.3685,"is_reserved":false,"is_disabled":false,"rental_uris":{"android":"levelo://app?vid=a8a54d34-1a50-45c0-9fc8-ef3e2e35eb08","ios":"levelo://app?vid=a8a54d34-1a50-45c0-9fc8-ef3e2e35eb08"},"vehicle_type_id":"4","last_reported":1726751828,"current_range_meters":14000,"station_id":"ce4bgn92rcd13ifvqbvg","pricing_plan_id":"cebpf4jnsgd1na2vs0mg"},{"bike_id":"0fdf16d2-3d4d-42c5-abda-bf9c542d33a1","system_id":"levelo_inurba_marseille","lat":43.29944,"lon":5.37276,"is_reserved":false,"is_disabled":false,"rental_uris":{"android":"levelo://app?vid=0fdf16d2-3d4d-42c5-abda-bf9c542d33a1","ios":"levelo://app?vid=0fdf16d2-3d4d-42c5-abda-bf9c542d33a1"},"vehicle_type_id":"4","last_reported":1726751828,"current_range_meters":16800,"station_id":"","pricing_plan_id":"cebpf4jnsgd1na2vs0mg"},{"bike_id":"328d45f9-980e-4811-97c0-47d761861509","system_id":"levelo_inurba_marseille","lat":43.29847,"lon":5.37836,"is_reserved":false,"is_disabled":false,"rental_uris":{"android":"levelo://app?vid=328d45f9-980e-4811-97c0-47d761861509","ios":"levelo://app?vid=328d45f9-980e-4811-97c0-47d761861509"},"vehicle_type_id":"4","last_reported":1726751828,"current_range_meters":6400,"station_id":"","pricing_plan_id":"cebpf4jnsgd1na2vs0mg"},{"bike_id":"48f07936-6adc-4d41-88a6-153c718f20b6","system_id":"levelo_inurba_marseille","lat":43.305328,"lon":5.367037,"is_reserved":false,"is_disabled":false,"rental_uris":{"android":"levelo://app?vid=48f07936-6adc-4d41-88a6-153c718f20b6","ios":"levelo://app?vid=48f07936-6adc-4d41-88a6-153c718f20b6"},"vehicle_type_id":"4","last_reported":1726751828,"current_range_meters":27200,"station_id":"ce4bgrp2rcd13ifvqc9g","pricing_plan_id":"cebpf4jnsgd1na2vs0mg"},{"bike_id":"6a3e36ee-553e-4a5d-968d-fec942c275cb","system_id":"levelo_inurba_marseille","lat":43.29205,"lon":5.39315,"is_reserved":false,"is_disabled":false,"rental_uris":{"android":"levelo://app?vid=6a3e36ee-553e-4a5d-968d-fec942c275cb","ios":"levelo://app?vid=6a3e36ee-553e-4a5d-968d-fec942c275cb"},"vehicle_type_id":"4","last_reported":1726751828,"current_range_meters":38800,"station_id":"ce4bh192rcd13ifvqdd0","pricing_plan_id":"cebpf4jnsgd1na2vs0mg"},{"bike_id":"01cd51da-b961-4bd0-adee-b192b3b29a9f","system_id":"levelo_inurba_marseille","lat":43.27501,"lon":5.4245,"is_reserved":false,"is_disabled":false,"rental_uris":{"android":"levelo://app?vid=01cd51da-b961-4bd0-adee-b192b3b29a9f","ios":"levelo://app?vid=01cd51da-b961-4bd0-adee-b192b3b29a9f"},"vehicle_type_id":"4","last_reported":1726751828,"current_range_meters":30400,"station_id":"ce4bhn92rcd13ifvqgrg","pricing_plan_id":"cebpf4jnsgd1na2vs0mg"},{"bike_id":"8e2d3061-0c1e-4bff-b5da-8f3cccc611e6","system_id":"levelo_inurba_marseille","lat":43.290222,"lon":5.386561,"is_reserved":false,"is_disabled":false,"rental_uris":{"android":"levelo://app?vid=8e2d3061-0c1e-4bff-b5da-8f3cccc611e6","ios":"levelo://app?vid=8e2d3061-0c1e-4bff-b5da-8f3cccc611e6"},"vehicle_type_id":"4","last_reported":1726751828,"current_range_meters":17600,"station_id":"ce4bh4p2rcd13ifvqe0g","pricing_plan_id":"cebpf4jnsgd1na2vs0mg"},{"bike_id":"7f74fc9e-b0a4-43d0-8b3e-945d61ceba2b","system_id":"levelo_inurba_marseille","lat":43.33024,"lon":5.39035,"is_reserved":false,"is_disabled":false,"rental_uris":{"android":"levelo://app?vid=7f74fc9e-b0a4-43d0-8b3e-945d61ceba2b","ios":"levelo://app?vid=7f74fc9e-b0a4-43d0-8b3e-945d61ceba2b"},"vehicle_type_id":"4","last_reported":1726751828,"current_range_meters":30400,"station_id":"ce4bhr92rcd13ifvqhrg","pricing_plan_id":"cebpf4jnsgd1na2vs0mg"},{"bike_id":"56b5a207-2c81-4832-a792-e69975ab8719","system_id":"levelo_inurba_marseille","lat":43.29574,"lon":5.37516,"is_reserved":false,"is_disabled":false,"rental_uris":{"android":"levelo://app?vid=56b5a207-2c81-4832-a792-e69975ab8719","ios":"levelo://app?vid=56b5a207-2c81-4832-a792-e69975ab8719"},"vehicle_type_id":"4","last_reported":1726751828,"current_range_meters":36800,"station_id":"ce4bgh92rcd13ifvqb50","pricing_plan_id":"cebpf4jnsgd1na2vs0mg"},{"bike_id":"fa690805-233a-4a70-a9f3-33f1b67cdb1f","system_id":"levelo_inurba_marseille","lat":43.3228,"lon":5.38261,"is_reserved":false,"is_disabled":false,"rental_uris":{"android":"levelo://app?vid=fa690805-233a-4a70-a9f3-33f1b67cdb1f","ios":"levelo://app?vid=fa690805-233a-4a70-a9f3-33f1b67cdb1f"},"vehicle_type_id":"4","last_reported":1726751828,"current_range_meters":24000,"station_id":"ce4bhr12rcd13ifvqhqg","pricing_plan_id":"cebpf4jnsgd1na2vs0mg"},{"bike_id":"71a86551-9fba-4951-ba93-626be45a6760","system_id":"levelo_inurba_marseille","lat":43.25934,"lon":5.40912,"is_reserved":false,"is_disabled":false,"rental_uris":{"android":"levelo://app?vid=71a86551-9fba-4951-ba93-626be45a6760","ios":"levelo://app?vid=71a86551-9fba-4951-ba93-626be45a6760"},"vehicle_type_id":"4","last_reported":1726751828,"current_range_meters":20800,"station_id":"ce4bhm92rcd13ifvqglg","pricing_plan_id":"cebpf4jnsgd1na2vs0mg"},{"bike_id":"7cffb35d-f0a8-45c3-974d-b91b5ea43831","system_id":"levelo_inurba_marseille","lat":43.337444,"lon":5.374475,"is_reserved":false,"is_disabled":false,"rental_uris":{"android":"levelo://app?vid=7cffb35d-f0a8-45c3-974d-b91b5ea43831","ios":"levelo://app?vid=7cffb35d-f0a8-45c3-974d-b91b5ea43831"},"vehicle_type_id":"4","last_reported":1726751828,"current_range_meters":17600,"station_id":"ce4bh0h2rcd13ifvqd60","pricing_plan_id":"cebpf4jnsgd1na2vs0mg"},{"bike_id":"b5aaf55d-317f-46e0-913d-5437f8a74d17","system_id":"levelo_inurba_marseille","lat":43.31714,"lon":5.43708,"is_reserved":false,"is_disabled":false,"rental_uris":{"android":"levelo://app?vid=b5aaf55d-317f-46e0-913d-5437f8a74d17","ios":"levelo://app?vid=b5aaf55d-317f-46e0-913d-5437f8a74d17"},"vehicle_type_id":"4","last_reported":1726751828,"current_range_meters":20000,"station_id":"ce4bhp92rcd13ifvqhcg","pricing_plan_id":"cebpf4jnsgd1na2vs0mg"},{"bike_id":"87d9428c-24ce-424a-a997-cbbe984f2b43","system_id":"levelo_inurba_marseille","lat":43.30134,"lon":5.37425,"is_reserved":false,"is_disabled":false,"rental_uris":{"android":"levelo://app?vid=87d9428c-24ce-424a-a997-cbbe984f2b43","ios":"levelo://app?vid=87d9428c-24ce-424a-a997-cbbe984f2b43"},"vehicle_type_id":"4","last_reported":1726751828,"current_range_meters":38800,"station_id":"ce4bgs92rcd13ifvqcc0","pricing_plan_id":"cebpf4jnsgd1na2vs0mg"},{"bike_id":"8c438ef6-2237-4aa0-b561-ea637b88b045","system_id":"levelo_inurba_marseille","lat":43.297882,"lon":5.394092,"is_reserved":false,"is_disabled":false,"rental_uris":{"android":"levelo://app?vid=8c438ef6-2237-4aa0-b561-ea637b88b045","ios":"levelo://app?vid=8c438ef6-2237-4aa0-b561-ea637b88b045"},"vehicle_type_id":"4","last_reported":1726751828,"current_range_meters":20400,"station_id":"chh1huq6cuj3fo74tm60","pricing_plan_id":"cebpf4jnsgd1na2vs0mg"},{"bike_id":"215a84f1-8640-4c33-ac11-24ef8061fd8f","system_id":"levelo_inurba_marseille","lat":43.27489,"lon":5.42453,"is_reserved":false,"is_disabled":false,"rental_uris":{"android":"levelo://app?vid=215a84f1-8640-4c33-ac11-24ef8061fd8f","ios":"levelo://app?vid=215a84f1-8640-4c33-ac11-24ef8061fd8f"},"vehicle_type_id":"4","last_reported":1726751828,"current_range_meters":25600,"station_id":"ce4bhn92rcd13ifvqgrg","pricing_plan_id":"cebpf4jnsgd1na2vs0mg"},{"bike_id":"b2763354-ec6c-4733-8de6-6c4493759ae9","system_id":"levelo_inurba_marseille","lat":43.29058,"lon":5.40192,"is_reserved":false,"is_disabled":false,"rental_uris":{"android":"levelo://app?vid=b2763354-ec6c-4733-8de6-6c4493759ae9","ios":"levelo://app?vid=b2763354-ec6c-4733-8de6-6c4493759ae9"},"vehicle_type_id":"4","last_reported":1726751828,"current_range_meters":26000,"station_id":"","pricing_plan_id":"cebpf4jnsgd1na2vs0mg"},