{"last_updated":1745503702,"ttl":60,"version":"2.2","data":{"bikes":[{"bike_id":"1954b428-e28f-48e0-a360-79d7cb233cc3","system_id":"levelo_inurba_marseille","lat":43.29609,"lon":5.3771,"is_reserved":false,"is_disabled":false,"rental_uris":{"android":"levelo://app?vid=1954b428-e28f-48e0-a360-79d7cb233cc3","ios":"levelo://app?vid=1954b428-e28f-48e0-a360-79d7cb233cc3"},"vehicle_type_id":"4","last_reported":1745503702,"current_range_meters":2800,"station_id":"ce4bgi92rcd13ifvqb90","pricing_plan_id":"cebpf4jnsgd1na2vs0mg"},{"bike_id":"63776a79-b60e-4a02-9505-2d6ee291d3f0","system_id":"levelo_inurba_marseille","lat":43.21758,"lon":5.34603,"is_reserved":false,"is_disabled":false,"rental_uris":{"android":"levelo://app?vid=63776a79-b60e-4a02-9505-2d6ee291d3f0","ios":"levelo://app?vid=63776a79-b60e-4a02-9505-2d6ee291d3f0"},"vehicle_type_id":"4","last_reported":1745503702,"current_range_meters":3200,"station_id":"st_cvj6r9ubvosntc0bgbag","pricing_plan_id":"cebpf4jnsgd1na2vs0mg"},{"bike_id":"5274c80c-596b-4fc3-b4bc-1f731c41148f","system_id":"levelo_inurba_marseille","lat":43.28936,"lon":5.39617,"is_reserved":false,"is_disabled":false,"rental_uris":{"android":"levelo://app?vid=5274c80c-596b-4fc3-b4bc-1f731c41148f","ios":"levelo://app?vid=5274c80c-596b-4fc3-b4bc-1f731c41148f"},"vehicle_type_id":"4","last_reported":1745503702,"current_range_meters":3200,"station_id":"ce4bh3h2rcd13ifvqdn0","pricing_plan_id":"cebpf4jnsgd1na2vs0mg"},{"bike_id":"da2d2898-3ccf-4328-b8f3-91a7f146b119","system_id":"levelo_inurba_marseille","lat":43.27927,"lon":5.38732,"is_reserved":false,"is_disabled":false,"rental_uris":{"android":"levelo://app?vid=da2d2898-3ccf-4328-b8f3-91a7f146b119","ios":"levelo://app?vid=da2d2898-3ccf-4328-b8f3-91a7f146b119"},"vehicle_type_id":"4","last_reported":1745503702,"current_range_meters":3200,"station_id":"","pricing_plan_id":"cebpf4jnsgd1na2vs0mg"},{"bike_id":"76be0ab1-9adf-4d0b-9c80-3bd4f259f3f3","system_id":"levelo_inurba_marseille","lat":43.30209,"lon":5.39463,"is_reserved":false,"is_disabled":false,"rental_uris":{"android":"levelo://app?vid=76be0ab1-9adf-4d0b-9c80-3bd4f259f3f3","ios":"levelo://app?vid=76be0ab1-9adf-4d0b-9c80-3bd4f259f3f3"},"vehicle_type_id":"4","last_reported":1745503702,"current_range_meters":3200,"station_id":"ce4bh0p2rcd13ifvqd70","pricing_plan_id":"cebpf4jnsgd1na2vs0mg"},{"bike_id":"cbbc2111-0db3-48ca-97f7-6d32bab61bd3","system_id":"levelo_inurba_marseille","lat":43.23177,"lon":5.3999,"is_reserved":false,"is_disabled":false,"rental_uris":{"android":"levelo://app?vid=cbbc2111-0db3-48ca-97f7-6d32bab61bd3","ios":"levelo://app?vid=cbbc2111-0db3-48ca-97f7-6d32bab61bd3"},"vehicle_type_id":"4","last_reported":1745503702,"current_range_meters":3600,"station_id":"ce4bhn12rcd13ifvqgqg","pricing_plan_id":"cebpf4jnsgd1na2vs0mg"},{"bike_id":"1aa360e2-cf5f-4ee5-8b86-fd582b3aa2e9","system_id":"levelo_inurba_marseille","lat":43.28992,"lon":5.3784,"is_reserved":false,"is_disabled":false,"rental_uris":{"android":"levelo://app?vid=1aa360e2-cf5f-4ee5-8b86-fd582b3aa2e9","ios":"levelo://app?vid=1aa360e2-cf5f-4ee5-8b86-fd582b3aa2e9"},"vehicle_type_id":"4","last_reported":1745503702,"current_range_meters":3600,"station_id":"ce4bh9p2rcd13ifvqed0","pricing_plan_id":"cebpf4jnsgd1na2vs0mg"},{"bike_id":"4ba58c14-e2ff-4b0e-8369-948598b91aee","system_id":"levelo_inurba_marseille","lat":43.32286,"lon":5.38269,"is_reserved":false,"is_disabled":false,"rental_uris":{"android":"levelo://app?vid=4ba58c14-e2ff-4b0e-8369-948598b91aee","ios":"levelo://app?vid=4ba58c14-e2ff-4b0e-8369-948598b91aee"},"vehicle_type_id":"4","last_reported":1745503702,"current_range_meters":3600,"station_id":"ce4bhr12rcd13ifvqhqg","pricing_plan_id":"cebpf4jnsgd1na2vs0mg"},{"bike_id":"25f82e3e-f5cb-4d03-a71d-82ddc40b6d79","system_id":"levelo_inurba_marseille","lat":43.27838,"lon":5.39207,"is_reserved":false,"is_disabled":false,"rental_uris":{"android":"levelo://app?vid=25f82e3e-f5cb-4d03-a71d-82ddc40b6d79","ios":"levelo://app?vid=25f82e3e-f5cb-4d03-a71d-82ddc40b6d79"},"vehicle_type_id":"4","last_reported":1745503702,"current_range_meters":4000,"station_id":"ce4bhjp2rcd13ifvqga0","pricing_plan_id":"cebpf4jnsgd1na2vs0mg"},{"bike_id":"94d75938-57e2-4dba-b711-0d2ea7615041","system_id":"levelo_inurba_marseille","lat":43.31685,"lon":5.40475,"is_reserved":false,"is_disabled":false,"rental_uris":{"android":"levelo://app?vid=94d75938-57e2-4dba-b711-0d2ea7615041","ios":"levelo://app?vid=94d75938-57e2-4dba-b711-0d2ea7615041"},"vehicle_type_id":"4","last_reported":1745503702,"current_range_meters":4000,"station_id":"ce4bh012rcd13ifvqd00","pricing_plan_id":"cebpf4jnsgd1na2vs0mg"},{"bike_id":"00254d25-0de1-4914-8f73-ceadac6d4f1c","system_id":"levelo_inurba_marseille","lat":43.3088,"lon":5.37191,"is_reserved":false,"is_disabled":false,"rental_uris":{"android":"levelo://app?vid=00254d25-0de1-4914-8f73-ceadac6d4f1c","ios":"levelo://app?vid=00254d25-0de1-4914-8f73-ceadac6d4f1c"},"vehicle_type_id":"4","last_reported":1745503702,"current_range_meters":4000,"station_id":"ce4bguh2rcd13ifvqckg","pricing_plan_id":"cebpf4jnsgd1na2vs0mg"},{"bike_id":"3212a892-6b50-487e-8c88-0b7d1f0c585a","system_id":"levelo_inurba_marseille","lat":43.25112,"lon":5.40319,"is_reserved":false,"is_disabled":false,"rental_uris":{"android":"levelo://app?vid=3212a892-6b50-487e-8c88-0b7d1f0c585a","ios":"levelo://app?vid=3212a892-6b50-487e-8c88-0b7d1f0c585a"},"vehicle_type_id":"4","last_reported":1745503702,"current_range_meters":3600,"station_id":"ce4bhlh2rcd13ifvqgig","pricing_plan_id":"cebpf4jnsgd1na2vs0mg"},{"bike_id":"10170729-50a8-4ed5-84dd-0265207f9016","system_id":"levelo_inurba_marseille","lat":43.29904,"lon":5.43668,"is_reserved":false,"is_disabled":false,"rental_uris":{"android":"levelo://app?vid=10170729-50a8-4ed5-84dd-0265207f9016","ios":"levelo://app?vid=10170729-50a8-4ed5-84dd-0265207f9016"},"vehicle_type_id":"4","last_reported":1745503702,"current_range_meters":4000,"station_id":"ce4bhpp2rcd13ifvqhfg","pricing_plan_id":"cebpf4jnsgd1na2vs0mg"},{"bike_id":"93b0d46c-673b-41bb-b8e8-cb7795c46560","system_id":"levelo_inurba_marseille","lat":43.26784,"lon":5.3942,"is_reserved":false,"is_disabled":false,"rental_uris":{"android":"levelo://app?vid=93b0d46c-673b-41bb-b8e8-cb7795c46560","ios":"levelo://app?vid=93b0d46c-673b-41bb-b8e8-cb7795c46560"},"vehicle_type_id":"4","last_reported":1745503702,"current_range_meters":4400,"station_id":"ce4bhh12rcd13ifvqfg0","pricing_plan_id":"cebpf4jnsgd1na2vs0mg"},{"bike_id":"ed5e2e18-64d0-491a-970a-f052a5fea769","system_id":"levelo_inurba_marseille","lat":43.23182,"lon":5.39982,"is_reserved":false,"is_disabled":false,"rental_uris":{"android":"levelo://app?vid=ed5e2e18-64d0-491a-970a-f052a5fea769","ios":"levelo://app?vid=ed5e2e18-64d0-491a-970a-f052a5fea769"},"vehicle_type_id":"4","last_reported":1745503702,"current_range_meters":4400,"station_id":"ce4bhn12rcd13ifvqgqg","pricing_plan_id":"cebpf4jnsgd1na2vs0mg"},{"bike_id":"59a12b52-71fd-4b25-9e64-4f4535c09c1a","system_id":"levelo_inurba_marseille","lat":43.28443,"lon":5.39197,"is_reserved":false,"is_disabled":false,"rental_uris":{"android":"levelo://app?vid=59a12b52-71fd-4b25-9e64-4f4535c09c1a","ios":"levelo://app?vid=59a12b52-71fd-4b25-9e64-4f4535c09c1a"},"vehicle_type_id":"4","last_reported":1745503702,"current_range_meters":4400,"station_id":"ce4bhoh2rcd13ifvqh5g","pricing_plan_id":"cebpf4jnsgd1na2vs0mg"},{"bike_id":"609fa64e-69c9-4028-9eeb-0ea1b7f62085","system_id":"levelo_inurba_marseille","lat":43.28914,"lon":5.38374,"is_reserved":false,"is_disabled":false,"rental_uris":{"android":"levelo://app?vid=609fa64e-69c9-4028-9eeb-0ea1b7f62085","ios":"levelo://app?vid=609fa64e-69c9-4028-9eeb-0ea1b7f62085"},"vehicle_type_id":"4","last_reported":1745503702,"current_range_meters":4400,"station_id":"ce4bh612rcd13ifvqe6g","pricing_plan_id":"cebpf4jnsgd1na2vs0mg"},{"bike_id":"c6285271-aa84-4cf5-a381-86fc2506dc86","system_id":"levelo_inurba_marseille","lat":43.299237,"lon":5.37475,"is_reserved":false,"is_disabled":false,"rental_uris":{"android":"levelo://app?vid=c6285271-aa84-4cf5-a381-86fc2506dc86","ios":"levelo://app?vid=c6285271-aa84-4cf5-a381-86fc2506dc86"},"vehicle_type_id":"4","last_reported":1745503702,"current_range_meters":4400,"station_id":"ce4bhgh2rcd13ifvqfa0","pricing_plan_id":"cebpf4jnsgd1na2vs0mg"},{"bike_id":"f8b85146-d6f3-4da2-ad7c-874d9c08db8d","system_id":"levelo_inurba_marseille","lat":43.28715,"lon":5.36081,"is_reserved":false,"is_disabled":false,"rental_uris":{"android":"levelo://app?vid=f8b85146-d6f3-4da2-ad7c-874d9c08db8d","ios":"levelo://app?vid=f8b85146-d6f3-4da2-ad7c-874d9c08db8d"},"vehicle_type_id":"4","last_reported":1745503702,"current_range_meters":4800,"station_id":"cki0cbj6b192h4jlfktg","pricing_plan_id":"cebpf4jnsgd1na2vs0mg"},{"bike_id":"fe27ec2b-5dd1-4a36-8aab-51f0c1f69bae","system_id":"levelo_inurba_marseille","lat":43.28368,"lon":5.38635,"is_reserved":false,"is_disabled":false,"rental_uris":{"android":"levelo://app?vid=fe27ec2b-5dd1-4a36-8aab-51f0c1f69bae","ios":"levelo://app?vid=fe27ec2b-5dd1-4a36-8aab-51f0c1f69bae"},"vehicle_type_id":"4","last_reported":1745503702,"current_range_meters":4800,"station_id":"ce4bh492rcd13ifvqdvg","pricing_plan_id":"cebpf4jnsgd1na2vs0mg"},{"bike_id":"23f87d91-2f20-4309-b6da-b41bebd60d7a","system_id":"levelo_inurba_marseille","lat":43.27975,"lon":5.38737,"is_reserved":false,"is_disabled":false,"rental_uris":{"android":"levelo://app?vid=23f87d91-2f20-4309-b6da-b41bebd60d7a","ios":"levelo://app?vid=23f87d91-2f20-4309-b6da-b41bebd60d7a"},"vehicle_type_id":"4","last_reported":1745503702,"current_range_meters":4800,"station_id":"ce4bhg12rcd13ifvqf80","pricing_plan_id":"cebpf4jnsgd1na2vs0mg"},{"bike_id":"937443e7-d5e0-4bd3-9679-8f8cd620e77f","system_id":"levelo_inurba_marseille","lat":43.28259,"lon":5.35071,"is_reserved":false,"is_disabled":false,"rental_uris":{"android":"levelo://app?vid=937443e7-d5e0-4bd3-9679-8f8cd620e77f","ios":"levelo://app?vid=937443e7-d5e0-4bd3-9679-8f8cd620e77f"},"vehicle_type_id":"4","last_reported":1745503702,"current_range_meters":4800,"station_id":"ce4bhbp2rcd13ifvqerg","pricing_plan_id":"cebpf4jnsgd1na2vs0mg"},{"bike_id":"a3453a36-4a28-4464-8eca-96613f31c747","system_id":"levelo_inurba_marseille","lat":43.28268,"lon":5.35066,"is_reserved":false,"is_disabled":false,"rental_uris":{"android":"levelo://app?vid=a3453a36-4a28-4464-8eca-96613f31c747","ios":"levelo://app?vid=a3453a36-4a28-4464-8eca-96613f31c747"},"vehicle_type_id":"4","last_reported":1745503702,"current_range_meters":4800,"station_id":"ce4bhbp2rcd13ifvqerg","pricing_plan_id":"cebpf4jnsgd1na2vs0mg"},{"bike_id":"2191d174-804c-43a6-bc49-3176d97aedc4","system_id":"levelo_inurba_marseille","lat":43.30418,"lon":5.41274,"is_reserved":false,"is_disabled":false,"rental_uris":{"android":"levelo://app?vid=2191d174-804c-43a6-bc49-3176d97aedc4","ios":"levelo://app?vid=2191d174-804c-43a6-bc49-3176d97aedc4"},"vehicle_type_id":"4","last_reported":1745503702,"current_range_meters":5600,"station_id":"ce4bhop2rcd13ifvqh8g","pricing_plan_id":"cebpf4jnsgd1na2vs0mg"},{"bike_id":"49c0f902-eac7-4a79-adf0-d142aff51e11","system_id":"levelo_inurba_marseille","lat":43.241605,"lon":5.363952,"is_reserved":false,"is_disabled":false,"rental_uris":{"android":"levelo://app?vid=49c0f902-eac7-4a79-adf0-d142aff51e11","ios":"levelo://app?vid=49c0f902-eac7-4a79-adf0-d142aff51e11"},"vehicle_type_id":"4","last_reported":1745503702,"current_range_meters":5600,"station_id":"cpo36qri1sfpv3e86is0","pricing_plan_id":"cebpf4jnsgd1na2vs0mg"},{"bike_id":"567f7dae-1ed0-4241-adf4-febcc5db491c","system_id":"levelo_inurba_marseille","lat":43.29097,"lon":5.38117,"is_reserved":false,"is_disabled":false,"rental_uris":{"android":"levelo://app?vid=567f7dae-1ed0-4241-adf4-febcc5db491c","ios":"levelo://app?vid=567f7dae-1ed0-4241-adf4-febcc5db491c"},"vehicle_type_id":"4","last_reported":1745503702,"current_range_meters":5600,"station_id":"ce4bgqh2rcd13ifvqc4g","pricing_plan_id":"cebpf4jnsgd1na2vs0mg"},{"bike_id":"9fff3273-5685-4808-9e72-d939dfc7fafa","system_id":"levelo_inurba_marseille","lat":43.29031,"lon":5.38649,"is_reserved":false,"is_disabled":false,"rental_uris":{"android":"levelo://app?vid=9fff3273-5685-4808-9e72-d939dfc7fafa","ios":"levelo://app?vid=9fff3273-5685-4808-9e72-d939dfc7fafa"},"vehicle_type_id":"4","last_reported":1745503702,"current_range_meters":6000,"station_id":"ce4bh4p2rcd13ifvqe0g","pricing_plan_id":"cebpf4jnsgd1na2vs0mg"},{"bike_id":"50deb5ee-ea49-49b7-930d-8030628185ff","system_id":"levelo_inurba_marseille","lat":43.27619,"lon":5.36119,"is_reserved":false,"is_disabled":false,"rental_uris":{"android":"levelo://app?vid=50deb5ee-ea49-49b7-930d-8030628185ff","ios":"levelo://app?vid=50deb5ee-ea49-49b7-930d-8030628185ff"},"vehicle_type_id":"4","last_reported":1745503702,"current_range_meters":6000,"station_id":"ce4bgj92rcd13ifvqbe0","pricing_plan_id":"cebpf4jnsgd1na2vs0mg"},{"bike_id":"d51c8099-d05c-4f78-9f75-05fa54aace70","system_id":"levelo_inurba_marseille","lat":43.33731,"lon":5.39191,"is_reserved":false,"is_disabled":false,"rental_uris":{"android":"levelo://app?vid=d51c8099-d05c-4f78-9f75-05fa54aace70","ios":"levelo://app?vid=d51c8099-d05c-4f78-9f75-05fa54aace70"},"vehicle_type_id":"4","last_reported":1745503702,"current_range_meters":6000,"station_id":"ce4bhr92rcd13ifvqhsg","pricing_plan_id":"cebpf4jnsgd1na2vs0mg"},{"bike_id":"cb144c05-6a01-4000-be7b-b746e03c0ede","system_id":"levelo_inurba_marseille","lat":43.305402,"lon":5.365556,"is_reserved":false,"is_disabled":false,"rental_uris":{"android":"levelo://app?vid=cb144c05-6a01-4000-be7b-b746e03c0ede","ios":"levelo://app?vid=cb144c05-6a01-4000-be7b-b746e03c0ede"},"vehicle_type_id":"4","last_reported":1745503702,"current_range_meters":5600,"station_id":"ce4bh312rcd13ifvqdj0","pricing_plan_id":"cebpf4jnsgd1na2vs0mg"},{"bike_id":"756a290d-c9d9-4807-9e95-8feac6ed727d","system_id":"levelo_inurba_marseille","lat":43.29526,"lon":5.39043,"is_reserved":false,"is_disabled":false,"rental_uris":{"android":"levelo://app?vid=756a290d-c9d9-4807-9e95-8feac6ed727d","ios":"levelo://app?vid=756a290d-c9d9-4807-9e95-8feac6ed727d"},"vehicle_type_id":"4","last_reported":1745503702,"current_range_meters":6000,"station_id":"ce4bh3p2rcd13ifvqdp0","pricing_plan_id":"cebpf4jnsgd1na2vs0mg"},{"bike_id":"da70d61b-208e-4f5a-8136-fdac79841f35","system_id":"levelo_inurba_marseille","lat":43.28047,"lon":5.36943,"is_reserved":false,"is_disabled":false,"rental_uris":{"android":"levelo://app?vid=da70d61b-208e-4f5a-8136-fdac79841f35","ios":"levelo://app?vid=da70d61b-208e-4f5a-8136-fdac79841f35"},"vehicle_type_id":"4","last_reported":1745503702,"current_range_meters":6400,"station_id":"ce4bha12rcd13ifvqef0","pricing_plan_id":"cebpf4jnsgd1na2vs0mg"},{"bike_id":"31e5a303-d4b8-465f-82f9-a5d1502e25f2","system_id":"levelo_inurba_marseille","lat":43.30226,"lon":5.40035,"is_reserved":false,"is_disabled":false,"rental_uris":{"android":"levelo://app?vid=31e5a303-d4b8-465f-82f9-a5d1502e25f2","ios":"levelo://app?vid=31e5a303-d4b8-465f-82f9-a5d1502e25f2"},"vehicle_type_id":"4","last_reported":1745503702,"current_range_meters":6400,"station_id":"","pricing_plan_id":"cebpf4jnsgd1na2vs0mg"},{"bike_id":"643aaecb-2516-46b0-ae1a-fb87bdd962ac","system_id":"levelo_inurba_marseille","lat":43.30786,"lon":5.3765,"is_reserved":false,"is_disabled":false,"rental_uris":{"android":"levelo://app?vid=643aaecb-2516-46b0-ae1a-fb87bdd962ac","ios":"levelo://app?vid=643aaecb-2516-46b0-ae1a-fb87bdd962ac"},"vehicle_type_id":"4","last_reported":1745503702,"current_range_meters":6400,"station_id":"ce4bgv92rcd13ifvqcq0","pricing_plan_id":"cebpf4jnsgd1na2vs0mg"},{"bike_id":"e8580b70-fa10-43b7-84ed-adfc528fbe2e","system_id":"levelo_inurba_marseille","lat":43.26486,"lon":5.39542,"is_reserved":false,"is_disabled":false,"rental_uris":{"android":"levelo://app?vid=e8580b70-fa10-43b7-84ed-adfc528fbe2e","ios":"levelo://app?vid=e8580b70-fa10-43b7-84ed-adfc528fbe2e"},"vehicle_type_id":"4","last_reported":1745503702,"current_range_meters":6000,"station_id":"ce4bhi12rcd13ifvqfq0","pricing_plan_id":"cebpf4jnsgd1na2vs0mg"},{"bike_id":"a780ef0c-c2a8-4441-bbb2-e9e417239541","system_id":"levelo_inurba_marseille","lat":43.2885,"lon":5.35841,"is_reserved":false,"is_disabled":false,"rental_uris":{"android":"levelo://app?vid=a780ef0c-c2a8-4441-bbb2-e9e417239541","ios":"levelo://app?vid=a780ef0c-c2a8-4441-bbb2-e9e417239541"},"vehicle_type_id":"4","last_reported":1745503702,"current_range_meters":6400,"station_id":"ce4bhb12rcd13ifvqem0","pricing_plan_id":"cebpf4jnsgd1na2vs0mg"},{"bike_id":"333093d3-a9a2-4028-b670-ecc8735c6168","system_id":"levelo_inurba_marseille","lat":43.29702,"lon":5.37693,"is_reserved":false,"is_disabled":false,"rental_uris":{"android":"levelo://app?vid=333093d3-a9a2-4028-b670-ecc8735c6168","ios":"levelo://app?vid=333093d3-a9a2-4028-b670-ecc8735c6168"},"vehicle_type_id":"4","last_reported":1745503702,"current_range_meters":6400,"station_id":"ce4bgkh2rcd13ifvqbl0","pricing_plan_id":"cebpf4jnsgd1na2vs0mg"},{"bike_id":"bf879427-0424-45c5-a529-a3aeb48225c1","system_id":"levelo_inurba_marseille","lat":43.29416,"lon":5.38627,"is_reserved":false,"is_disabled":false,"rental_uris":{"android":"levelo://app?vid=bf879427-0424-45c5-a529-a3aeb48225c1","ios":"levelo://app?vid=bf879427-0424-45c5-a529-a3aeb48225c1"},"vehicle_type_id":"4","last_reported":1745503702,"current_range_meters":6800,"station_id":"ce4bh2h2rcd13ifvqdh0","pricing_plan_id":"cebpf4jnsgd1na2vs0mg"},{"bike_id":"e9d4e3d2-d654-4833-8aa8-9ce162b4cadd","system_id":"levelo_inurba_marseille","lat":43.30538,"lon":5.36545,"is_reserved":false,"is_disabled":false,"rental_uris":{"android":"levelo://app?vid=e9d4e3d2-d654-4833-8aa8-9ce162b4cadd","ios":"levelo://app?vid=e9d4e3d2-d654-4833-8aa8-9ce162b4cadd"},"vehicle_type_id":"4","last_reported":1745503702,"current_range_meters":6800,"station_id":"ce4bgs12rcd13ifvqcag","pricing_plan_id":"cebpf4jnsgd1na2vs0mg"},{"bike_id":"98f5f8cf-8294-458e-9cd7-57e92d7f5749","system_id":"levelo_inurba_marseille","lat":43.30098,"lon":5.39077,"is_reserved":false,"is_disabled":false,"rental_uris":{"android":"levelo://app?vid=98f5f8cf-8294-458e-9cd7-57e92d7f5749","ios":"levelo://app?vid=98f5f8cf-8294-458e-9cd7-57e92d7f5749"},"vehicle_type_id":"4","last_reported":1745503702,"current_range_meters":6800,"station_id":"ce4bh192rcd13ifvqdb0","pricing_plan_id":"cebpf4jnsgd1na2vs0mg"},{"bike_id":"b2ee8399-432d-4333-a2a0-fc53553e8fa2","system_id":"levelo_inurba_marseille","lat":43.29296,"lon":5.37456,"is_reserved":false,"is_disabled":false,"rental_uris":{"android":"levelo://app?vid=b2ee8399-432d-4333-a2a0-fc53553e8fa2","ios":"levelo://app?vid=b2ee8399-432d-4333-a2a0-fc53553e8fa2"},"vehicle_type_id":"4","last_reported":1745503702,"current_range_meters":6400,"station_id":"ce4bgi12rcd13ifvqb70","pricing_plan_id":"cebpf4jnsgd1na2vs0mg"},{"bike_id":"d62f9a6f-a0c0-403e-9837-3a222a65b793","system_id":"levelo_inurba_marseille","lat":43.28274,"lon":5.35065,"is_reserved":false,"is_disabled":false,"rental_uris":{"android":"levelo://app?vid=d62f9a6f-a0c0-403e-9837-3a222a65b793","ios":"levelo://app?vid=d62f9a6f-a0c0-403e-9837-3a222a65b793"},"vehicle_type_id":"4","last_reported":1745503702,"current_range_meters":6800,"station_id":"ce4bhbp2rcd13ifvqerg","pricing_plan_id":"cebpf4jnsgd1na2vs0mg"},{"bike_id":"4f5349b8-584d-45b6-8eb8-699139808040","system_id":"levelo_inurba_marseille","lat":43.26211,"lon":5.37442,"is_reserved":false,"is_disabled":false,"rental_uris":{"android":"levelo://app?vid=4f5349b8-584d-45b6-8eb8-699139808040","ios":"levelo://app?vid=4f5349b8-584d-45b6-8eb8-699139808040"},"vehicle_type_id":"4","last_reported":1745503702,"current_range_meters":6800,"station_id":"ce4bhgp2rcd13ifvqfc0","pricing_plan_id":"cebpf4jnsgd1na2vs0mg"},{"bike_id":"f209584d-ce55-4cac-a3ac-37345aa4ccbe","system_id":"levelo_inurba_marseille","lat":43.2926,"lon":5.37614,"is_reserved":false,"is_disabled":false,"rental_uris":{"android":"levelo://app?vid=f209584d-ce55-4cac-a3ac-37345aa4ccbe","ios":"levelo://app?vid=f209584d-ce55-4cac-a3ac-37345aa4ccbe"},"vehicle_type_id":"4","last_reported":1745503702,"current_range_meters":6800,"station_id":"ce4bgi12rcd13ifvqb80","pricing_plan_id":"cebpf4jnsgd1na2vs0mg"},{"bike_id":"8f6e5355-8f4c-4329-a42c-1d82c86f7862","system_id":"levelo_inurba_marseille","lat":43.25116,"lon":5.40318,"is_reserved":false,"is_disabled":false,"rental_uris":{"android":"levelo://app?vid=8f6e5355-8f4c-4329-a42c-1d82c86f7862","ios":"levelo://app?vid=8f6e5355-8f4c-4329-a42c-1d82c86f7862"},"vehicle_type_id":"4","last_reported":1745503702,"current_range_meters":7200,"station_id":"ce4bhlh2rcd13ifvqgig","pricing_plan_id":"cebpf4jnsgd1na2vs0mg"},{"bike_id":"4d8c145f-1cc2-494c-b24f-3d9125778368","system_id":"levelo_inurba_marseille","lat":43.290878,"lon":5.37171,"is_reserved":false,"is_disabled":false,"rental_uris":{"android":"levelo://app?vid=4d8c145f-1cc2-494c-b24f-3d9125778368","ios":"levelo://app?vid=4d8c145f-1cc2-494c-b24f-3d9125778368"},"vehicle_type_id":"4","last_reported":1745503702,"current_range_meters":7200,"station_id":"ce4bh5p2rcd13ifvqe4g","pricing_plan_id":"cebpf4jnsgd1na2vs0mg"},{"bike_id":"7e9d26b8-b748-4e10-b3e2-977d9fd05087","system_id":"levelo_inurba_marseille","lat":43.33024,"lon":5.36667,"is_reserved":false,"is_disabled":false,"rental_uris":{"android":"levelo://app?vid=7e9d26b8-b748-4e10-b3e2-977d9fd05087","ios":"levelo://app?vid=7e9d26b8-b748-4e10-b3e2-977d9fd05087"},"vehicle_type_id":"4","last_reported":1745503702,"current_range_meters":7200,"station_id":"","pricing_plan_id":"cebpf4jnsgd1na2vs0mg"},{"bike_id":"97fdf749-7739-4a00-8109-ac9a79570419","system_id":"levelo_inurba_marseille","lat":43.286145,"lon":5.350967,"is_reserved":false,"is_disabled":false,"rental_uris":{"android":"levelo://app?vid=97fdf749-7739-4a00-8109-ac9a79570419","ios":"levelo://app?vid=97fdf749-7739-4a00-8109-ac9a79570419"},"vehicle_type_id":"4","last_reported":1745503702,"current_range_meters":7200,"station_id":"ce4bhch2rcd13ifvqeug","pricing_plan_id":"cebpf4jnsgd1na2vs0mg"},{"bike_id":"30704823-7a9c-4b12-af5d-93db18bfd3b9","system_id":"levelo_inurba_marseille","lat":43.28844,"lon":5.39912,"is_reserved":false,"is_disabled":false,"rental_uris":{"android":"levelo://app?vid=30704823-7a9c-4b12-af5d-93db18bfd3b9","ios":"levelo://app?vid=30704823-7a9c-4b12-af5d-93db18bfd3b9"},"vehicle_type_id":"4","last_reported":1745503702,"current_range_meters":7200,"station_id":"","pricing_plan_id":"cebpf4jnsgd1na2vs0mg"},{"bike_id":"92c3b340-d069-4f1c-b55b-44c52f19597b","system_id":"levelo_inurba_marseille","lat":43.28239,"lon":5.3776,"is_reserved":false,"is_disabled":false,"rental_uris":{"android":"levelo://app?vid=92c3b340-d069-4f1c-b55b-44c52f19597b","ios":"levelo://app?vid=92c3b340-d069-4f1c-b55b-44c52f19597b"},"vehicle_type_id":"4","last_reported":1745503702,"current_range_meters":8000,"station_id":"","pricing_plan_id":"cebpf4jnsgd1na2vs0mg"},{"bike_id":"348ad13c-c5cb-4adb-8416-bbfef112bf1a","system_id":"levelo_inurba_marseille","lat":43.302922,"lon":5.401628,"is_reserved":false,"is_disabled":false,"rental_uris":{"android":"levelo://app?vid=348ad13c-c5cb-4adb-8416-bbfef112bf1a","ios":"levelo://app?vid=348ad13c-c5cb-4adb-8416-bbfef112bf1a"},"vehicle_type_id":"4","last_reported":1745503702,"current_range_meters":8000,"station_id":"ce4bh112rcd13ifvqd90","pricing_plan_id":"cebpf4jnsgd1na2vs0mg"},{"bike_id":"67272912-3924-4dcc-85ba-981503741e30","system_id":"levelo_inurba_marseille","lat":43.2762,"lon":5.36109,"is_reserved":false,"is_disabled":false,"rental_uris":{"android":"levelo://app?vid=67272912-3924-4dcc-85ba-981503741e30","ios":"levelo://app?vid=67272912-3924-4dcc-85ba-981503741e30"},"vehicle_type_id":"4","last_reported":1745503702,"current_range_meters":8400,"station_id":"ce4bgj92rcd13ifvqbe0","pricing_plan_id":"cebpf4jnsgd1na2vs0mg"},{"bike_id":"bad3ac07-3371-4cc2-b0de-a90ae47ecbf6","system_id":"levelo_inurba_marseille","lat":43.26206,"lon":5.37437,"is_reserved":false,"is_disabled":false,"rental_uris":{"android":"levelo://app?vid=bad3ac07-3371-4cc2-b0de-a90ae47ecbf6","ios":"levelo://app?vid=bad3ac07-3371-4cc2-b0de-a90ae47ecbf6"},"vehicle_type_id":"4","last_reported":1745503702,"current_range_meters":8400,"station_id":"ce4bhgp2rcd13ifvqfc0","pricing_plan_id":"cebpf4jnsgd1na2vs0mg"},{"bike_id":"c7d8eb5c-3939-44c3-808b-7b87d2aed25f","system_id":"levelo_inurba_marseille","lat":43.28714,"lon":5.3996,"is_reserved":false,"is_disabled":false,"rental_uris":{"android":"levelo://app?vid=c7d8eb5c-3939-44c3-808b-7b87d2aed25f","ios":"levelo://app?vid=c7d8eb5c-3939-44c3-808b-7b87d2aed25f"},"vehicle_type_id":"4","last_reported":1745503702,"current_range_meters":8800,"station_id":"ce4bho92rcd13ifvqh3g","pricing_plan_id":"cebpf4jnsgd1na2vs0mg"},{"bike_id":"a8501f49-3c36-45a8-877c-fa1edcfd6120","system_id":"levelo_inurba_marseille","lat":43.24807,"lon":5.37454,"is_reserved":false,"is_disabled":false,"rental_uris":{"android":"levelo://app?vid=a8501f49-3c36-45a8-877c-fa1edcfd6120","ios":"levelo://app?vid=a8501f49-3c36-45a8-877c-fa1edcfd6120"},"vehicle_type_id":"4","last_reported":1745503702,"current_range_meters":8800,"station_id":"ce4bhgh2rcd13ifvqfb0","pricing_plan_id":"cebpf4jnsgd1na2vs0mg"},{"bike_id":"0fcda528-fe2b-4793-b6ac-ce16fbdf6f82","system_id":"levelo_inurba_marseille","lat":43.25592,"lon":5.3825,"is_reserved":false,"is_disabled":false,"rental_uris":{"android":"levelo://app?vid=0fcda528-fe2b-4793-b6ac-ce16fbdf6f82","ios":"levelo://app?vid=0fcda528-fe2b-4793-b6ac-ce16fbdf6f82"},"vehicle_type_id":"4","last_reported":1745503702,"current_range_meters":8800,"station_id":"ce4bhih2rcd13ifvqfs0","pricing_plan_id":"cebpf4jnsgd1na2vs0mg"},{"bike_id":"90141cc3-3afb-4c2a-870d-806c286c5ec4","system_id":"levelo_inurba_marseille","lat":43.23177,"lon":5.39991,"is_reserved":false,"is_disabled":false,"rental_uris":{"android":"levelo://app?vid=90141cc3-3afb-4c2a-870d-806c286c5ec4","ios":"levelo://app?vid=90141cc3-3afb-4c2a-870d-806c286c5ec4"},"vehicle_type_id":"4","last_reported":1745503702,"current_range_meters":9200,"station_id":"ce4bhn12rcd13ifvqgqg","pricing_plan_id":"cebpf4jnsgd1na2vs0mg"},{"bike_id":"17735294-3d7e-43b1-8a66-2885426421db","system_id":"levelo_inurba_marseille","lat":43.23154,"lon":5.43721,"is_reserved":false,"is_disabled":false,"rental_uris":{"android":"levelo://app?vid=17735294-3d7e-43b1-8a66-2885426421db","ios":"levelo://app?vid=17735294-3d7e-43b1-8a66-2885426421db"},"vehicle_type_id":"4","last_reported":1745503702,"current_range_meters":9200,"station_id":"ce4bhmp2rcd13ifvqgog","pricing_plan_id":"cebpf4jnsgd1na2vs0mg"},{"bike_id":"8512a904-5b95-4e00-bd6c-f6d031220700","system_id":"levelo_inurba_marseille","lat":43.28616,"lon":5.35103,"is_reserved":false,"is_disabled":false,"rental_uris":{"android":"levelo://app?vid=8512a904-5b95-4e00-bd6c-f6d031220700","ios":"levelo://app?vid=8512a904-5b95-4e00-bd6c-f6d031220700"},"vehicle_type_id":"4","last_reported":1745503702,"current_range_meters":9200,"station_id":"ce4bhch2rcd13ifvqeug","pricing_plan_id":"cebpf4jnsgd1na2vs0mg"},{"bike_id":"c8162c39-b24b-48d8-b0f1-15645fe5f576","system_id":"levelo_inurba_marseille","lat":43.292016,"lon":5.358028,"is_reserved":false,"is_disabled":false,"rental_uris":{"android":"levelo://app?vid=c8162c39-b24b-48d8-b0f1-15645fe5f576","ios":"levelo://app?vid=c8162c39-b24b-48d8-b0f1-15645fe5f576"},"vehicle_type_id":"4","last_reported":1745503702,"current_range_meters":9200,"station_id":"ce4bhb12rcd13ifvqel0","pricing_plan_id":"cebpf4jnsgd1na2vs0mg"},{"bike_id":"9a3d811a-2545-4353-bdff-1b302bd0ea5c","system_id":"levelo_inurba_marseille","lat":43.29635,"lon":5.40591,"is_reserved":false,"is_disabled":false,"rental_uris":{"android":"levelo://app?vid=9a3d811a-2545-4353-bdff-1b302bd0ea5c","ios":"levelo://app?vid=9a3d811a-2545-4353-bdff-1b302bd0ea5c"},"vehicle_type_id":"4","last_reported":1745503702,"current_range_meters":9200,"station_id":"ce4bh0h2rcd13ifvqd60","pricing_plan_id":"cebpf4jnsgd1na2vs0mg"},{"bike_id":"8764c801-9cd2-4e78-bbfe-a229706ee676","system_id":"levelo_inurba_marseille","lat":43.2987,"lon":5.38908,"is_reserved":false,"is_disabled":true,"rental_uris":{"android":"levelo://app?vid=8764c801-9cd2-4e78-bbfe-a229706ee676","ios":"levelo://app?vid=8764c801-9cd2-4e78-bbfe-a229706ee676"},"vehicle_type_id":"4","last_reported":1745503702,"current_range_meters":9200,"station_id":"ce4bh392rcd13ifvqdl0","pricing_plan_id":"cebpf4jnsgd1na2vs0mg"},{"bike_id":"97cdcf45-4566-42f4-bd78-4b8f613fc2a4","system_id":"levelo_inurba_marseille","lat":43.2842,"lon":5.35004,"is_reserved":false,"is_disabled":false,"rental_uris":{"android":"levelo://app?vid=97cdcf45-4566-42f4-bd78-4b8f613fc2a4","ios":"levelo://app?vid=97cdcf45-4566-42f4-bd78-4b8f613fc2a4"},"vehicle_type_id":"4","last_reported":1745503702,"current_range_meters":9200,"station_id":"ce4bhbh2rcd13ifvqepg","pricing_plan_id":"cebpf4jnsgd1na2vs0mg"},{"bike_id":"8fd9fb7d-acb2-41e1-824d-e30fd86b4d08","system_id":"levelo_inurba_marseille","lat":43.29529,"lon":5.38542,"is_reserved":false,"is_disabled":false,"rental_uris":{"android":"levelo://app?vid=8fd9fb7d-acb2-41e1-824d-e30fd86b4d08","ios":"levelo://app?vid=8fd9fb7d-acb2-41e1-824d-e30fd86b4d08"},"vehicle_type_id":"4","last_reported":1745503702,"current_range_meters":9600,"station_id":"ce4bgih2rcd13ifvqba0","pricing_plan_id":"cebpf4jnsgd1na2vs0mg"},{"bike_id":"bd7125f1-2ca8-47ba-bf71-f17354e99b69","system_id":"levelo_inurba_marseille","lat":43.27961,"lon":5.387322,"is_reserved":false,"is_disabled":false,"rental_uris":{"android":"levelo://app?vid=bd7125f1-2ca8-47ba-bf71-f17354e99b69","ios":"levelo://app?vid=bd7125f1-2ca8-47ba-bf71-f17354e99b69"},"vehicle_type_id":"4","last_reported":1745503702,"current_range_meters":9600,"station_id":"ce4bhg12rcd13ifvqf80","pricing_plan_id":"cebpf4jnsgd1na2vs0mg"},{"bike_id":"4d513343-9a1d-461c-a9b5-1ada59304559","system_id":"levelo_inurba_marseille","lat":43.27561,"lon":5.38413,"is_reserved":false,"is_disabled":false,"rental_uris":{"android":"levelo://app?vid=4d513343-9a1d-461c-a9b5-1ada59304559","ios":"levelo://app?vid=4d513343-9a1d-461c-a9b5-1ada59304559"},"vehicle_type_id":"4","last_reported":1745503702,"current_range_meters":9600,"station_id":"ce4bhh92rcd13ifvqfi0","pricing_plan_id":"cebpf4jnsgd1na2vs0mg"},{"bike_id":"6327ea70-511b-4552-8b43-7b537f956cda","system_id":"levelo_inurba_marseille","lat":43.32003,"lon":5.38137,"is_reserved":false,"is_disabled":false,"rental_uris":{"android":"levelo://app?vid=6327ea70-511b-4552-8b43-7b537f956cda","ios":"levelo://app?vid=6327ea70-511b-4552-8b43-7b537f956cda"},"vehicle_type_id":"4","last_reported":1745503702,"current_range_meters":9600,"station_id":"ce4bhr12rcd13ifvqhpg","pricing_plan_id":"cebpf4jnsgd1na2vs0mg"},{"bike_id":"9b429cfa-65eb-40cf-a9b3-8666c23c6bd3","system_id":"levelo_inurba_marseille","lat":43.33025,"lon":5.39033,"is_reserved":false,"is_disabled":false,"rental_uris":{"android":"levelo://app?vid=9b429cfa-65eb-40cf-a9b3-8666c23c6bd3","ios":"levelo://app?vid=9b429cfa-65eb-40cf-a9b3-8666c23c6bd3"},"vehicle_type_id":"4","last_reported":1745503702,"current_range_meters":9600,"station_id":"ce4bhr92rcd13ifvqhrg","pricing_plan_id":"cebpf4jnsgd1na2vs0mg"},{"bike_id":"437ffa76-1a21-4153-b48d-d15fe0b10a7e","system_id":"levelo_inurba_marseille","lat":43.31713,"lon":5.43702,"is_reserved":false,"is_disabled":false,"rental_uris":{"android":"levelo://app?vid=437ffa76-1a21-4153-b48d-d15fe0b10a7e","ios":"levelo://app?vid=437ffa76-1a21-4153-b48d-d15fe0b10a7e"},"vehicle_type_id":"4","last_reported":1745503702,"current_range_meters":9200,"station_id":"ce4bhp92rcd13ifvqhcg","pricing_plan_id":"cebpf4jnsgd1na2vs0mg"},{"bike_id":"7ce455ee-210f-4500-80f3-abe9890fae3a","system_id":"levelo_inurba_marseille","lat":43.31895,"lon":5.40724,"is_reserved":false,"is_disabled":false,"rental_uris":{"android":"levelo://app?vid=7ce455ee-210f-4500-80f3-abe9890fae3a","ios":"levelo://app?vid=7ce455ee-210f-4500-80f3-abe9890fae3a"},"vehicle_type_id":"4","last_reported":1745503702,"current_range_meters":9200,"station_id":"ce4bhq12rcd13ifvqhig","pricing_plan_id":"cebpf4jnsgd1na2vs0mg"},{"bike_id":"67b9b70f-68e0-48b9-ab3a-83578fdc2060","system_id":"levelo_inurba_marseille","lat":43.33424,"lon":5.40081,"is_reserved":false,"is_disabled":false,"rental_uris":{"android":"levelo://app?vid=67b9b70f-68e0-48b9-ab3a-83578fdc2060","ios":"levelo://app?vid=67b9b70f-68e0-48b9-ab3a-83578fdc2060"},"vehicle_type_id":"4","last_reported":1745503702,"current_range_meters":10000,"station_id":"ce4bhr92rcd13ifvqhrg","pricing_plan_id":"cebpf4jnsgd1na2vs0mg"},{"bike_id":"9f95d46a-0977-4965-ba5e-33e037edd5b9","system_id":"levelo_inurba_marseille","lat":43.28845,"lon":5.35848,"is_reserved":false,"is_disabled":false,"rental_uris":{"android":"levelo://app?vid=9f95d46a-0977-4965-ba5e-33e037edd5b9","ios":"levelo://app?vid=9f95d46a-0977-4965-ba5e-33e037edd5b9"},"vehicle_type_id":"4","last_reported":1745503702,"current_range_meters":10000,"station_id":"ce4bhb12rcd13ifvqem0","pricing_plan_id":"cebpf4jnsgd1na2vs0mg"},{"bike_id":"34b40f5e-49ad-4582-84b9-d7ce2137f467","system_id":"levelo_inurba_marseille","lat":43.3414,"lon":5.40899,"is_reserved":false,"is_disabled":false,"rental_uris":{"android":"levelo://app?vid=34b40f5e-49ad-4582-84b9-d7ce2137f467","ios":"levelo://app?vid=34b40f5e-49ad-4582-84b9-d7ce2137f467"},"vehicle_type_id":"4","last_reported":1745503702,"current_range_meters":10000,"station_id":"ce4bhqh2rcd13ifvqhlg","pricing_plan_id":"cebpf4jnsgd1na2vs0mg"},{"bike_id":"a83b6dac-3607-467d-a9c6-55ec2a1862b9","system_id":"levelo_inurba_marseille","lat":43.30351,"lon":5.41876,"is_reserved":false,"is_disabled":false,"rental_uris":{"android":"levelo://app?vid=a83b6dac-3607-467d-a9c6-55ec2a1862b9","ios":"levelo://app?vid=a83b6dac-3607-467d-a9c6-55ec2a1862b9"},"vehicle_type_id":"4","last_reported":1745503702,"current_range_meters":10800,"station_id":"ce4bhop2rcd13ifvqh7g","pricing_plan_id":"cebpf4jnsgd1na2vs0mg"},{"bike_id":"11ce02ec-5de1-4d28-b35b-b9d2498a4135","system_id":"levelo_inurba_marseille","lat":43.2306,"lon":5.35489,"is_reserved":false,"is_disabled":false,"rental_uris":{"android":"levelo://app?vid=11ce02ec-5de1-4d28-b35b-b9d2498a4135","ios":"levelo://app?vid=11ce02ec-5de1-4d28-b35b-b9d2498a4135"},"vehicle_type_id":"4","last_reported":1745503702,"current_range_meters":10800,"station_id":"cpo3342slgdg3j2ifvpg","pricing_plan_id":"cebpf4jnsgd1na2vs0mg"},{"bike_id":"6cd02338-8cdf-4510-8cdd-fcfc74e9e615","system_id":"levelo_inurba_marseille","lat":43.27977,"lon":5.3874,"is_reserved":false,"is_disabled":false,"rental_uris":{"android":"levelo://app?vid=6cd02338-8cdf-4510-8cdd-fcfc74e9e615","ios":"levelo://app?vid=6cd02338-8cdf-4510-8cdd-fcfc74e9e615"},"vehicle_type_id":"4","last_reported":1745503702,"current_range_meters":10800,"station_id":"ce4bhg12rcd13ifvqf80","pricing_plan_id":"cebpf4jnsgd1na2vs0mg"},{"bike_id":"55efece8-5654-436b-8787-95ed1740b20b","system_id":"levelo_inurba_marseille","lat":43.29307,"lon":5.37452,"is_reserved":false,"is_disabled":false,"rental_uris":{"android":"levelo://app?vid=55efece8-5654-436b-8787-95ed1740b20b","ios":"levelo://app?vid=55efece8-5654-436b-8787-95ed1740b20b"},"vehicle_type_id":"4","last_reported":1745503702,"current_range_meters":11200,"station_id":"ce4bgi12rcd13ifvqb70","pricing_plan_id":"cebpf4jnsgd1na2vs0mg"},{"bike_id":"860293f2-27fe-4f9c-b5c3-d42426b100e7","system_id":"levelo_inurba_marseille","lat":43.28618,"lon":5.35103,"is_reserved":false,"is_disabled":false,"rental_uris":{"android":"levelo://app?vid=860293f2-27fe-4f9c-b5c3-d42426b100e7","ios":"levelo://app?vid=860293f2-27fe-4f9c-b5c3-d42426b100e7"},"vehicle_type_id":"4","last_reported":1745503702,"current_range_meters":11200,"station_id":"ce4bhch2rcd13ifvqeug","pricing_plan_id":"cebpf4jnsgd1na2vs0mg"},{"bike_id":"e53821b1-d8fa-4388-9008-bd138414220b","system_id":"levelo_inurba_marseille","lat":43.30917,"lon":5.36852,"is_reserved":false,"is_disabled":false,"rental_uris":{"android":"levelo://app?vid=e53821b1-d8fa-4388-9008-bd138414220b","ios":"levelo://app?vid=e53821b1-d8fa-4388-9008-bd138414220b"},"vehicle_type_id":"4","last_reported":1745503702,"current_range_meters":11200,"station_id":"ce4bgn92rcd13ifvqbvg","pricing_plan_id":"cebpf4jnsgd1na2vs0mg"},{"bike_id":"021bd78a-0268-4407-a8ba-10e0ae2fd676","system_id":"levelo_inurba_marseille","lat":43.25823,"lon":5.39436,"is_reserved":false,"is_disabled":false,"rental_uris":{"android":"levelo://app?vid=021bd78a-0268-4407-a8ba-10e0ae2fd676","ios":"levelo://app?vid=021bd78a-0268-4407-a8ba-10e0ae2fd676"},"vehicle_type_id":"4","last_reported":1745503702,"current_range_meters":11200,"station_id":"ce4bhip2rcd13ifvqft0","pricing_plan_id":"cebpf4jnsgd1na2vs0mg"},{"bike_id":"46374c49-3adc-4c5a-8966-e00f056c0d57","system_id":"levelo_inurba_marseille","lat":43.27846,"lon":5.35442,"is_reserved":false,"is_disabled":false,"rental_uris":{"android":"levelo://app?vid=46374c49-3adc-4c5a-8966-e00f056c0d57","ios":"levelo://app?vid=46374c49-3adc-4c5a-8966-e00f056c0d57"},"vehicle_type_id":"4","last_reported":1745503702,"current_range_meters":11600,"station_id":"","pricing_plan_id":"cebpf4jnsgd1na2vs0mg"},{"bike_id":"0a4aab9f-8a71-4fe1-9d7a-a1171198a2d7","system_id":"levelo_inurba_marseille","lat":43.23156,"lon":5.43729,"is_reserved":false,"is_disabled":false,"rental_uris":{"android":"levelo://app?vid=0a4aab9f-8a71-4fe1-9d7a-a1171198a2d7","ios":"levelo://app?vid=0a4aab9f-8a71-4fe1-9d7a-a1171198a2d7"},"vehicle_type_id":"4","last_reported":1745503702,"current_range_meters":11600,"station_id":"ce4bhmp2rcd13ifvqgog","pricing_plan_id":"cebpf4jnsgd1na2vs0mg"},{"bike_id":"be5e58a9-7f56-4b08-b6be-fbd16fd90ace","system_id":"levelo_inurba_marseille","lat":43.26546,"lon":5.37284,"is_reserved":false,"is_disabled":false,"rental_uris":{"android":"levelo://app?vid=be5e58a9-7f56-4b08-b6be-fbd16fd90ace","ios":"levelo://app?vid=be5e58a9-7f56-4b08-b6be-fbd16fd90ace"},"vehicle_type_id":"4","last_reported":1745503702,"current_range_meters":11600,"station_id":"ce4bhg12rcd13ifvqf70","pricing_plan_id":"cebpf4jnsgd1na2vs0mg"},{"bike_id":"e7670eb3-da6f-4a51-9b53-25a2e6c648ea","system_id":"levelo_inurba_marseille","lat":43.24388,"lon":5.37059,"is_reserved":false,"is_disabled":false,"rental_uris":{"android":"levelo://app?vid=e7670eb3-da6f-4a51-9b53-25a2e6c648ea","ios":"levelo://app?vid=e7670eb3-da6f-4a51-9b53-25a2e6c648ea"},"vehicle_type_id":"4","last_reported":1745503702,"current_range_meters":11600,"station_id":"ce4bhhh2rcd13ifvqfk0","pricing_plan_id":"cebpf4jnsgd1na2vs0mg"},{"bike_id":"df11b469-c9ef-41ef-a3ff-e21b4cfee7c7","system_id":"levelo_inurba_marseille","lat":43.32362,"lon":5.36744,"is_reserved":false,"is_disabled":false,"rental_uris":{"android":"levelo://app?vid=df11b469-c9ef-41ef-a3ff-e21b4cfee7c7","ios":"levelo://app?vid=df11b469-c9ef-41ef-a3ff-e21b4cfee7c7"},"vehicle_type_id":"4","last_reported":1745503702,"current_range_meters":12000,"station_id":"ce4bhsh2rcd13ifvqi2g","pricing_plan_id":"cebpf4jnsgd1na2vs0mg"},{"bike_id":"a6bf1b3a-c846-4192-b983-abe68731874c","system_id":"levelo_inurba_marseille","lat":43.25087,"lon":5.39522,"is_reserved":false,"is_disabled":false,"rental_uris":{"android":"levelo://app?vid=a6bf1b3a-c846-4192-b983-abe68731874c","ios":"levelo://app?vid=a6bf1b3a-c846-4192-b983-abe68731874c"},"vehicle_type_id":"4","last_reported":1745503702,"current_range_meters":12000,"station_id":"ce4bhm12rcd13ifvqgkg","pricing_plan_id":"cebpf4jnsgd1na2vs0mg"},{"bike_id":"d0094301-78a7-4c5d-b872-6f09d78ffdb0","system_id":"levelo_inurba_marseille","lat":43.29885,"lon":5.38894,"is_reserved":false,"is_disabled":false,"rental_uris":{"android":"levelo://app?vid=d0094301-78a7-4c5d-b872-6f09d78ffdb0","ios":"levelo://app?vid=d0094301-78a7-4c5d-b872-6f09d78ffdb0"},"vehicle_type_id":"4","last_reported":1745503702,"current_range_meters":11600,"station_id":"ce4bh392rcd13ifvqdl0","pricing_plan_id":"cebpf4jnsgd1na2vs0mg"},{"bike_id":"e8eb2ea7-ca4b-49b9-9577-bd689a43a55d","system_id":"levelo_inurba_marseille","lat":43.29532,"lon":5.38542,"is_reserved":false,"is_disabled":false,"rental_uris":{"android":"levelo://app?vid=e8eb2ea7-ca4b-49b9-9577-bd689a43a55d","ios":"levelo://app?vid=e8eb2ea7-ca4b-49b9-9577-bd689a43a55d"},"vehicle_type_id":"4","last_reported":1745503702,"current_range_meters":12000,"station_id":"ce4bgih2rcd13ifvqba0","pricing_plan_id":"cebpf4jnsgd1na2vs0mg"},{"bike_id":"8d3e2b64-0b27-493d-8a13-b498c30aa8a3","system_id":"levelo_inurba_marseille","lat":43.29032,"lon":5.38129,"is_reserved":false,"is_disabled":false,"rental_uris":{"android":"levelo://app?vid=8d3e2b64-0b27-493d-8a13-b498c30aa8a3","ios":"levelo://app?vid=8d3e2b64-0b27-493d-8a13-b498c30aa8a3"},"vehicle_type_id":"4","last_reported":1745503702,"current_range_meters":12000,"station_id":"ce4bh4p2rcd13ifvqe1g","pricing_plan_id":"cebpf4jnsgd1na2vs0mg"},{"bike_id":"c4a45017-d795-4123-b5c4-2f3c8f00043c","system_id":"levelo_inurba_marseille","lat":43.32656,"lon":5.40984,"is_reserved":false,"is_disabled":false,"rental_uris":{"android":"levelo://app?vid=c4a45017-d795-4123-b5c4-2f3c8f00043c","ios":"levelo://app?vid=c4a45017-d795-4123-b5c4-2f3c8f00043c"},"vehicle_type_id":"4","last_reported":1745503702,"current_range_meters":12000,"station_id":"ce4bhpp2rcd13ifvqhgg","pricing_plan_id":"cebpf4jnsgd1na2vs0mg"},{"bike_id":"7f654538-8166-4a99-8138-0df949e14937","system_id":"levelo_inurba_marseille","lat":43.23151,"lon":5.43719,"is_reserved":false,"is_disabled":false,"rental_uris":{"android":"levelo://app?vid=7f654538-8166-4a99-8138-0df949e14937","ios":"levelo://app?vid=7f654538-8166-4a99-8138-0df949e14937"},"vehicle_type_id":"4","last_reported":1745503702,"current_range_meters":12400,"station_id":"ce4bhmp2rcd13ifvqgog","pricing_plan_id":"cebpf4jnsgd1na2vs0mg"},{"bike_id":"1b521def-b4ba-4740-8c9a-ebd77efdce70","system_id":"levelo_inurba_marseille","lat":43.291939,"lon":5.393272,"is_reserved":false,"is_disabled":false,"rental_uris":{"android":"levelo://app?vid=1b521def-b4ba-4740-8c9a-ebd77efdce70","ios":"levelo://app?vid=1b521def-b4ba-4740-8c9a-ebd77efdce70"},"vehicle_type_id":"4","last_reported":1745503702,"current_range_meters":12000,"station_id":"ce4bh192rcd13ifvqdd0","pricing_plan_id":"cebpf4jnsgd1na2vs0mg"},{"bike_id":"1d51cbc3-1e0e-45dc-be7a-bfd95e23fbc4","system_id":"levelo_inurba_marseille","lat":43.26802,"lon":5.40265,"is_reserved":false,"is_disabled":false,"rental_uris":{"android":"levelo://app?vid=1d51cbc3-1e0e-45dc-be7a-bfd95e23fbc4","ios":"levelo://app?vid=1d51cbc3-1e0e-45dc-be7a-bfd95e23fbc4"},"vehicle_type_id":"4","last_reported":1745503702,"current_range_meters":12400,"station_id":"ce501612rcd8frsf0b60","pricing_plan_id":"cebpf4jnsgd1na2vs0mg"},{"bike_id":"7aa2c305-3ab1-49b6-bc9b-74c5736be51d","system_id":"levelo_inurba_marseille","lat":43.29937,"lon":5.36541,"is_reserved":false,"is_disabled":false,"rental_uris":{"android":"levelo://app?vid=7aa2c305-3ab1-49b6-bc9b-74c5736be51d","ios":"levelo://app?vid=7aa2c305-3ab1-49b6-bc9b-74c5736be51d"},"vehicle_type_id":"4","last_reported":1745503702,"current_range_meters":12400,"station_id":"ce4bgm92rcd13ifvqbr0","pricing_plan_id":"cebpf4jnsgd1na2vs0mg"},{"bike_id":"d4a8fafa-88a7-48bf-b5a7-839e5bc03db8","system_id":"levelo_inurba_marseille","lat":43.25007,"lon":5.38921,"is_reserved":false,"is_disabled":true,"rental_uris":{"android":"levelo://app?vid=d4a8fafa-88a7-48bf-b5a7-839e5bc03db8","ios":"levelo://app?vid=d4a8fafa-88a7-48bf-b5a7-839e5bc03db8"},"vehicle_type_id":"4","last_reported":1745503702,"current_range_meters":12400,"station_id":"ce4bhgp2rcd13ifvqfd0","pricing_plan_id":"cebpf4jnsgd1na2vs0mg"},{"bike_id":"20f3d2b3-0d29-44d8-9d7a-2fdaf7c581c9","system_id":"levelo_inurba_marseille","lat":43.27897,"lon":5.3957,"is_reserved":false,"is_disabled":false,"rental_uris":{"android":"levelo://app?vid=20f3d2b3-0d29-44d8-9d7a-2fdaf7c581c9","ios":"levelo://app?vid=20f3d2b3-0d29-44d8-9d7a-2fdaf7c581c9"},"vehicle_type_id":"4","last_reported":1745503702,"current_range_meters":12800,"station_id":"ce4bhf92rcd13ifvqf40","pricing_plan_id":"cebpf4jnsgd1na2vs0mg"},{"bike_id":"26afe374-d7a8-47fa-8407-1cf535192f82","system_id":"levelo_inurba_marseille","lat":43.23152,"lon":5.43709,"is_reserved":false,"is_disabled":false,"rental_uris":{"android":"levelo://app?vid=26afe374-d7a8-47fa-8407-1cf535192f82","ios":"levelo://app?vid=26afe374-d7a8-47fa-8407-1cf535192f82"},"vehicle_type_id":"4","last_reported":1745503702,"current_range_meters":12800,"station_id":"ce4bhmp2rcd13ifvqgog","pricing_plan_id":"cebpf4jnsgd1na2vs0mg"},{"bike_id":"a4e75de5-240a-4750-a963-da320c77756c","system_id":"levelo_inurba_marseille","lat":43.27625,"lon":5.36107,"is_reserved":false,"is_disabled":false,"rental_uris":{"android":"levelo://app?vid=a4e75de5-240a-4750-a963-da320c77756c","ios":"levelo://app?vid=a4e75de5-240a-4750-a963-da320c77756c"},"vehicle_type_id":"4","last_reported":1745503702,"current_range_meters":12800,"station_id":"ce4bgj92rcd13ifvqbe0","pricing_plan_id":"cebpf4jnsgd1na2vs0mg"},{"bike_id":"96481b63-bcfa-4741-a77d-fa766f2cccfd","system_id":"levelo_inurba_marseille","lat":43.25004,"lon":5.38922,"is_reserved":false,"is_disabled":false,"rental_uris":{"android":"levelo://app?vid=96481b63-bcfa-4741-a77d-fa766f2cccfd","ios":"levelo://app?vid=96481b63-bcfa-4741-a77d-fa766f2cccfd"},"vehicle_type_id":"4","last_reported":1745503702,"current_range_meters":12800,"station_id":"ce4bhgp2rcd13ifvqfd0","pricing_plan_id":"cebpf4jnsgd1na2vs0mg"},{"bike_id":"3ab4b5d1-a613-4afb-ab13-9e8a20db16d9","system_id":"levelo_inurba_marseille","lat":43.27666,"lon":5.38887,"is_reserved":false,"is_disabled":false,"rental_uris":{"android":"levelo://app?vid=3ab4b5d1-a613-4afb-ab13-9e8a20db16d9","ios":"levelo://app?vid=3ab4b5d1-a613-4afb-ab13-9e8a20db16d9"},"vehicle_type_id":"4","last_reported":1745503702,"current_range_meters":13600,"station_id":"ce4bhi12rcd13ifvqfo0","pricing_plan_id":"cebpf4jnsgd1na2vs0mg"},{"bike_id":"bb7fab03-0870-4fa3-8927-0175751c5d4d","system_id":"levelo_inurba_marseille","lat":43.30134,"lon":5.39867,"is_reserved":false,"is_disabled":false,"rental_uris":{"android":"levelo://app?vid=bb7fab03-0870-4fa3-8927-0175751c5d4d","ios":"levelo://app?vid=bb7fab03-0870-4fa3-8927-0175751c5d4d"},"vehicle_type_id":"4","last_reported":1745503702,"current_range_meters":13600,"station_id":"ce4bh0h2rcd13ifvqd40","pricing_plan_id":"cebpf4jnsgd1na2vs0mg"},{"bike_id":"3ee10399-286a-41bd-9812-a0d2067b5430","system_id":"levelo_inurba_marseille","lat":43.28721,"lon":5.39992,"is_reserved":false,"is_disabled":false,"rental_uris":{"android":"levelo://app?vid=3ee10399-286a-41bd-9812-a0d2067b5430","ios":"levelo://app?vid=3ee10399-286a-41bd-9812-a0d2067b5430"},"vehicle_type_id":"4","last_reported":1745503702,"current_range_meters":13600,"station_id":"ce4bho92rcd13ifvqh3g","pricing_plan_id":"cebpf4jnsgd1na2vs0mg"},{"bike_id":"6c6f57b5-4bb8-4d82-af58-45b2c4ad981c","system_id":"levelo_inurba_marseille","lat":43.29623,"lon":5.3773,"is_reserved":false,"is_disabled":false,"rental_uris":{"android":"levelo://app?vid=6c6f57b5-4bb8-4d82-af58-45b2c4ad981c","ios":"levelo://app?vid=6c6f57b5-4bb8-4d82-af58-45b2c4ad981c"},"vehicle_type_id":"4","last_reported":1745503702,"current_range_meters":12800,"station_id":"ce4bgi92rcd13ifvqb90","pricing_plan_id":"cebpf4jnsgd1na2vs0mg"},{"bike_id":"723a2376-2b30-450f-a9ec-b42d052a747a","system_id":"levelo_inurba_marseille","lat":43.2979,"lon":5.38107,"is_reserved":false,"is_disabled":false,"rental_uris":{"android":"levelo://app?vid=723a2376-2b30-450f-a9ec-b42d052a747a","ios":"levelo://app?vid=723a2376-2b30-450f-a9ec-b42d052a747a"},"vehicle_type_id":"4","last_reported":1745503702,"current_range_meters":13600,"station_id":"ce4bgip2rcd13ifvqbb0","pricing_plan_id":"cebpf4jnsgd1na2vs0mg"},{"bike_id":"d397d313-9717-498f-8739-92fea3ee7111","system_id":"levelo_inurba_marseille","lat":43.29531,"lon":5.38534,"is_reserved":false,"is_disabled":false,"rental_uris":{"android":"levelo://app?vid=d397d313-9717-498f-8739-92fea3ee7111","ios":"levelo://app?vid=d397d313-9717-498f-8739-92fea3ee7111"},"vehicle_type_id":"4","last_reported":1745503702,"current_range_meters":14000,"station_id":"ce4bgih2rcd13ifvqba0","pricing_plan_id":"cebpf4jnsgd1na2vs0mg"},{"bike_id":"64d31f20-12d8-437d-9723-8b4036e585bb","system_id":"levelo_inurba_marseille","lat":43.2319,"lon":5.35548,"is_reserved":false,"is_disabled":false,"rental_uris":{"android":"levelo://app?vid=64d31f20-12d8-437d-9723-8b4036e585bb","ios":"levelo://app?vid=64d31f20-12d8-437d-9723-8b4036e585bb"},"vehicle_type_id":"4","last_reported":1745503702,"current_range_meters":13600,"station_id":"ce4bhu92rcd13ifvqi70","pricing_plan_id":"cebpf4jnsgd1na2vs0mg"},{"bike_id":"fa8a552a-d2d3-4e8d-8d8e-02bdba037836","system_id":"levelo_inurba_marseille","lat":43.23064,"lon":5.35502,"is_reserved":false,"is_disabled":false,"rental_uris":{"android":"levelo://app?vid=fa8a552a-d2d3-4e8d-8d8e-02bdba037836","ios":"levelo://app?vid=fa8a552a-d2d3-4e8d-8d8e-02bdba037836"},"vehicle_type_id":"4","last_reported":1745503702,"current_range_meters":14000,"station_id":"cpo3342slgdg3j2ifvpg","pricing_plan_id":"cebpf4jnsgd1na2vs0mg"},{"bike_id":"390202fb-ed94-4066-9df6-fb80390e94c0","system_id":"levelo_inurba_marseille","lat":43.30205,"lon":5.39473,"is_reserved":false,"is_disabled":false,"rental_uris":{"android":"levelo://app?vid=390202fb-ed94-4066-9df6-fb80390e94c0","ios":"levelo://app?vid=390202fb-ed94-4066-9df6-fb80390e94c0"},"vehicle_type_id":"4","last_reported":1745503702,"current_range_meters":14400,"station_id":"ce4bh0p2rcd13ifvqd70","pricing_plan_id":"cebpf4jnsgd1na2vs0mg"},{"bike_id":"4dc988ed-8ee9-46eb-bdf9-99a0528c2b34","system_id":"levelo_inurba_marseille","lat":43.28275,"lon":5.35066,"is_reserved":false,"is_disabled":false,"rental_uris":{"android":"levelo://app?vid=4dc988ed-8ee9-46eb-bdf9-99a0528c2b34","ios":"levelo://app?vid=4dc988ed-8ee9-46eb-bdf9-99a0528c2b34"},"vehicle_type_id":"4","last_reported":1745503702,"current_range_meters":14400,"station_id":"ce4bhbp2rcd13ifvqerg","pricing_plan_id":"cebpf4jnsgd1na2vs0mg"},{"bike_id":"2e0224ce-b3b9-4e78-967d-4c2b89a4c162","system_id":"levelo_inurba_marseille","lat":43.27997,"lon":5.4166,"is_reserved":false,"is_disabled":false,"rental_uris":{"android":"levelo://app?vid=2e0224ce-b3b9-4e78-967d-4c2b89a4c162","ios":"levelo://app?vid=2e0224ce-b3b9-4e78-967d-4c2b89a4c162"},"vehicle_type_id":"4","last_reported":1745503702,"current_range_meters":14400,"station_id":"ce4bho12rcd13ifvqh1g","pricing_plan_id":"cebpf4jnsgd1na2vs0mg"},{"bike_id":"625a46d9-cd18-4763-b06d-c11d6c817c8c","system_id":"levelo_inurba_marseille","lat":43.28413,"lon":5.37511,"is_reserved":false,"is_disabled":false,"rental_uris":{"android":"levelo://app?vid=625a46d9-cd18-4763-b06d-c11d6c817c8c","ios":"levelo://app?vid=625a46d9-cd18-4763-b06d-c11d6c817c8c"},"vehicle_type_id":"4","last_reported":1745503702,"current_range_meters":14400,"station_id":"ce4bh412rcd13ifvqds0","pricing_plan_id":"cebpf4jnsgd1na2vs0mg"},{"bike_id":"b3ca489e-847a-4cbb-8f84-50afc318daf9","system_id":"levelo_inurba_marseille","lat":43.30135,"lon":5.38775,"is_reserved":false,"is_disabled":false,"rental_uris":{"android":"levelo://app?vid=b3ca489e-847a-4cbb-8f84-50afc318daf9","ios":"levelo://app?vid=b3ca489e-847a-4cbb-8f84-50afc318daf9"},"vehicle_type_id":"4","last_reported":1745503702,"current_range_meters":14000,"station_id":"ce4bghh2rcd13ifvqb60","pricing_plan_id":"cebpf4jnsgd1na2vs0mg"},{"bike_id":"b2d66cd4-fcef-41a7-9c97-1f384604ea3d","system_id":"levelo_inurba_marseille","lat":43.28724,"lon":5.36084,"is_reserved":false,"is_disabled":false,"rental_uris":{"android":"levelo://app?vid=b2d66cd4-fcef-41a7-9c97-1f384604ea3d","ios":"levelo://app?vid=b2d66cd4-fcef-41a7-9c97-1f384604ea3d"},"vehicle_type_id":"4","last_reported":1745503702,"current_range_meters":14800,"station_id":"cki0cbj6b192h4jlfktg","pricing_plan_id":"cebpf4jnsgd1na2vs0mg"},{"bike_id":"7ee35cc3-2db3-48ed-8fd0-3f76ef98e1cc","system_id":"levelo_inurba_marseille","lat":43.2603,"lon":5.37546,"is_reserved":false,"is_disabled":false,"rental_uris":{"android":"levelo://app?vid=7ee35cc3-2db3-48ed-8fd0-3f76ef98e1cc","ios":"levelo://app?vid=7ee35cc3-2db3-48ed-8fd0-3f76ef98e1cc"},"vehicle_type_id":"4","last_reported":1745503702,"current_range_meters":14800,"station_id":"ce4bhgh2rcd13ifvqfa0","pricing_plan_id":"cebpf4jnsgd1na2vs0mg"},{"bike_id":"ae8bd45d-d083-4d1e-b232-b2e7d09d162c","system_id":"levelo_inurba_marseille","lat":43.31762,"lon":5.39012,"is_reserved":false,"is_disabled":false,"rental_uris":{"android":"levelo://app?vid=ae8bd45d-d083-4d1e-b232-b2e7d09d162c","ios":"levelo://app?vid=ae8bd45d-d083-4d1e-b232-b2e7d09d162c"},"vehicle_type_id":"4","last_reported":1745503702,"current_range_meters":14400,"station_id":"ce4bhqp2rcd13ifvqhng","pricing_plan_id":"cebpf4jnsgd1na2vs0mg"},{"bike_id":"69b8c875-dc81-43b1-8620-51675d940dfe","system_id":"levelo_inurba_marseille","lat":43.26806,"lon":5.4026,"is_reserved":false,"is_disabled":false,"rental_uris":{"android":"levelo://app?vid=69b8c875-dc81-43b1-8620-51675d940dfe","ios":"levelo://app?vid=69b8c875-dc81-43b1-8620-51675d940dfe"},"vehicle_type_id":"4","last_reported":1745503702,"current_range_meters":14800,"station_id":"ce501612rcd8frsf0b60","pricing_plan_id":"cebpf4jnsgd1na2vs0mg"},{"bike_id":"cd27ad8c-2309-408d-b356-7c0af8b9d880","system_id":"levelo_inurba_marseille","lat":43.28078,"lon":5.39656,"is_reserved":false,"is_disabled":false,"rental_uris":{"android":"levelo://app?vid=cd27ad8c-2309-408d-b356-7c0af8b9d880","ios":"levelo://app?vid=cd27ad8c-2309-408d-b356-7c0af8b9d880"},"vehicle_type_id":"4","last_reported":1745503702,"current_range_meters":14800,"station_id":"ce4bho12rcd13ifvqh2g","pricing_plan_id":"cebpf4jnsgd1na2vs0mg"},{"bike_id":"5701224f-1f4b-41bf-b714-339cc5cfa872","system_id":"levelo_inurba_marseille","lat":43.28263,"lon":5.35066,"is_reserved":false,"is_disabled":false,"rental_uris":{"android":"levelo://app?vid=5701224f-1f4b-41bf-b714-339cc5cfa872","ios":"levelo://app?vid=5701224f-1f4b-41bf-b714-339cc5cfa872"},"vehicle_type_id":"4","last_reported":1745503702,"current_range_meters":14800,"station_id":"ce4bhbp2rcd13ifvqerg","pricing_plan_id":"cebpf4jnsgd1na2vs0mg"},{"bike_id":"46398b22-f265-41d8-9053-bbc994f48b91","system_id":"levelo_inurba_marseille","lat":43.29529,"lon":5.38555,"is_reserved":false,"is_disabled":false,"rental_uris":{"android":"levelo://app?vid=46398b22-f265-41d8-9053-bbc994f48b91","ios":"levelo://app?vid=46398b22-f265-41d8-9053-bbc994f48b91"},"vehicle_type_id":"4","last_reported":1745503702,"current_range_meters":15200,"station_id":"ce4bgih2rcd13ifvqba0","pricing_plan_id":"cebpf4jnsgd1na2vs0mg"},{"bike_id":"3ac7a256-bc93-444a-b034-fb7fdc853f81","system_id":"levelo_inurba_marseille","lat":43.26239,"lon":5.40444,"is_reserved":false,"is_disabled":false,"rental_uris":{"android":"levelo://app?vid=3ac7a256-bc93-444a-b034-fb7fdc853f81","ios":"levelo://app?vid=3ac7a256-bc93-444a-b034-fb7fdc853f81"},"vehicle_type_id":"4","last_reported":1745503702,"current_range_meters":15200,"station_id":"ce4bhmh2rcd13ifvqgmg","pricing_plan_id":"cebpf4jnsgd1na2vs0mg"},{"bike_id":"b940bdf2-742d-48e4-9490-5ec9e6e9c7a7","system_id":"levelo_inurba_marseille","lat":43.29219,"lon":5.36381,"is_reserved":false,"is_disabled":false,"rental_uris":{"android":"levelo://app?vid=b940bdf2-742d-48e4-9490-5ec9e6e9c7a7","ios":"levelo://app?vid=b940bdf2-742d-48e4-9490-5ec9e6e9c7a7"},"vehicle_type_id":"4","last_reported":1745503702,"current_range_meters":15200,"station_id":"","pricing_plan_id":"cebpf4jnsgd1na2vs0mg"},{"bike_id":"7412c111-bb77-442f-9a75-1a134515e251","system_id":"levelo_inurba_marseille","lat":43.24159,"lon":5.36428,"is_reserved":false,"is_disabled":false,"rental_uris":{"android":"levelo://app?vid=7412c111-bb77-442f-9a75-1a134515e251","ios":"levelo://app?vid=7412c111-bb77-442f-9a75-1a134515e251"},"vehicle_type_id":"4","last_reported":1745503702,"current_range_meters":16000,"station_id":"cpo36qri1sfpv3e86is0","pricing_plan_id":"cebpf4jnsgd1na2vs0mg"},{"bike_id":"5a6bc7f1-6093-4da2-acbf-d4c750efb49d","system_id":"levelo_inurba_marseille","lat":43.23148,"lon":5.43712,"is_reserved":false,"is_disabled":false,"rental_uris":{"android":"levelo://app?vid=5a6bc7f1-6093-4da2-acbf-d4c750efb49d","ios":"levelo://app?vid=5a6bc7f1-6093-4da2-acbf-d4c750efb49d"},"vehicle_type_id":"4","last_reported":1745503702,"current_range_meters":16000,"station_id":"ce4bhmp2rcd13ifvqgog","pricing_plan_id":"cebpf4jnsgd1na2vs0mg"},{"bike_id":"d802d433-91f5-46da-9a5b-42a725289286","system_id":"levelo_inurba_marseille","lat":43.30909,"lon":5.36852,"is_reserved":false,"is_disabled":false,"rental_uris":{"android":"levelo://app?vid=d802d433-91f5-46da-9a5b-42a725289286","ios":"levelo://app?vid=d802d433-91f5-46da-9a5b-42a725289286"},"vehicle_type_id":"4","last_reported":1745503702,"current_range_meters":16000,"station_id":"ce4bgn92rcd13ifvqbvg","pricing_plan_id":"cebpf4jnsgd1na2vs0mg"},{"bike_id":"db201d1a-c647-4b1b-98d9-342a583fbb0d","system_id":"levelo_inurba_marseille","lat":43.33723,"lon":5.39196,"is_reserved":false,"is_disabled":false,"rental_uris":{"android":"levelo://app?vid=db201d1a-c647-4b1b-98d9-342a583fbb0d","ios":"levelo://app?vid=db201d1a-c647-4b1b-98d9-342a583fbb0d"},"vehicle_type_id":"4","last_reported":1745503702,"current_range_meters":16000,"station_id":"ce4bhr92rcd13ifvqhsg","pricing_plan_id":"cebpf4jnsgd1na2vs0mg"},{"bike_id":"21d6dfda-1f1e-40b5-a34f-4655caea0f83","system_id":"levelo_inurba_marseille","lat":43.23148,"lon":5.43715,"is_reserved":false,"is_disabled":false,"rental_uris":{"android":"levelo://app?vid=21d6dfda-1f1e-40b5-a34f-4655caea0f83","ios":"levelo://app?vid=21d6dfda-1f1e-40b5-a34f-4655caea0f83"},"vehicle_type_id":"4","last_reported":1745503702,"current_range_meters":16000,"station_id":"ce4bhmp2rcd13ifvqgog","pricing_plan_id":"cebpf4jnsgd1na2vs0mg"},{"bike_id":"cd906bce-52be-45be-8f08-cdeb623de131","system_id":"levelo_inurba_marseille","lat":43.28172,"lon":5.4039,"is_reserved":false,"is_disabled":false,"rental_uris":{"android":"levelo://app?vid=cd906bce-52be-45be-8f08-cdeb623de131","ios":"levelo://app?vid=cd906bce-52be-45be-8f08-cdeb623de131"},"vehicle_type_id":"4","last_reported":1745503702,"current_range_meters":16400,"station_id":"","pricing_plan_id":"cebpf4jnsgd1na2vs0mg"},{"bike_id":"86d0d745-513e-4f97-82c0-51c068bca29c","system_id":"levelo_inurba_marseille","lat":43.31058,"lon":5.38351,"is_reserved":false,"is_disabled":false,"rental_uris":{"android":"levelo://app?vid=86d0d745-513e-4f97-82c0-51c068bca29c","ios":"levelo://app?vid=86d0d745-513e-4f97-82c0-51c068bca29c"},"vehicle_type_id":"4","last_reported":1745503702,"current_range_meters":16400,"station_id":"ce4bgv92rcd13ifvqcr0","pricing_plan_id":"cebpf4jnsgd1na2vs0mg"},{"bike_id":"df0cf926-5c73-4292-8b5c-ec14b16b1171","system_id":"levelo_inurba_marseille","lat":43.28275,"lon":5.35056,"is_reserved":false,"is_disabled":false,"rental_uris":{"android":"levelo://app?vid=df0cf926-5c73-4292-8b5c-ec14b16b1171","ios":"levelo://app?vid=df0cf926-5c73-4292-8b5c-ec14b16b1171"},"vehicle_type_id":"4","last_reported":1745503702,"current_range_meters":16400,"station_id":"ce4bhbp2rcd13ifvqerg","pricing_plan_id":"cebpf4jnsgd1na2vs0mg"},{"bike_id":"063f7947-2f9a-438a-bc13-60b931f7ffe5","system_id":"levelo_inurba_marseille","lat":43.26213,"lon":5.3744,"is_reserved":false,"is_disabled":false,"rental_uris":{"android":"levelo://app?vid=063f7947-2f9a-438a-bc13-60b931f7ffe5","ios":"levelo://app?vid=063f7947-2f9a-438a-bc13-60b931f7ffe5"},"vehicle_type_id":"4","last_reported":1745503702,"current_range_meters":16400,"station_id":"ce4bhgp2rcd13ifvqfc0","pricing_plan_id":"cebpf4jnsgd1na2vs0mg"},{"bike_id":"d8a1948c-b8cf-480b-a238-841e39abbb8e","system_id":"levelo_inurba_marseille","lat":43.25493,"lon":5.37646,"is_reserved":false,"is_disabled":false,"rental_uris":{"android":"levelo://app?vid=d8a1948c-b8cf-480b-a238-841e39abbb8e","ios":"levelo://app?vid=d8a1948c-b8cf-480b-a238-841e39abbb8e"},"vehicle_type_id":"4","last_reported":1745503702,"current_range_meters":16400,"station_id":"ce4bhh12rcd13ifvqff0","pricing_plan_id":"cebpf4jnsgd1na2vs0mg"},{"bike_id":"a5af58ad-62ce-4ff8-ba03-efe1820e9e23","system_id":"levelo_inurba_marseille","lat":43.30716,"lon":5.42449,"is_reserved":false,"is_disabled":false,"rental_uris":{"android":"levelo://app?vid=a5af58ad-62ce-4ff8-ba03-efe1820e9e23","ios":"levelo://app?vid=a5af58ad-62ce-4ff8-ba03-efe1820e9e23"},"vehicle_type_id":"4","last_reported":1745503702,"current_range_meters":16800,"station_id":"st_cvj6ca6bvosntc0bfgr0","pricing_plan_id":"cebpf4jnsgd1na2vs0mg"},{"bike_id":"05ee691a-de52-4d2c-bc94-9c17a7d4449b","system_id":"levelo_inurba_marseille","lat":43.24653,"lon":5.38897,"is_reserved":false,"is_disabled":false,"rental_uris":{"android":"levelo://app?vid=05ee691a-de52-4d2c-bc94-9c17a7d4449b","ios":"levelo://app?vid=05ee691a-de52-4d2c-bc94-9c17a7d4449b"},"vehicle_type_id":"4","last_reported":1745503702,"current_range_meters":16800,"station_id":"ce4bhg12rcd13ifvqf60","pricing_plan_id":"cebpf4jnsgd1na2vs0mg"},{"bike_id":"2323f4c9-51e1-4550-aeff-51df9d29d532","system_id":"levelo_inurba_marseille","lat":43.26778,"lon":5.39415,"is_reserved":false,"is_disabled":false,"rental_uris":{"android":"levelo://app?vid=2323f4c9-51e1-4550-aeff-51df9d29d532","ios":"levelo://app?vid=2323f4c9-51e1-4550-aeff-51df9d29d532"},"vehicle_type_id":"4","last_reported":1745503702,"current_range_meters":16800,"station_id":"ce4bhh12rcd13ifvqfg0","pricing_plan_id":"cebpf4jnsgd1na2vs0mg"},{"bike_id":"97f00e91-4a81-4998-8f3d-60d5de3cea7c","system_id":"levelo_inurba_marseille","lat":43.30518,"lon":5.36694,"is_reserved":false,"is_disabled":false,"rental_uris":{"android":"levelo://app?vid=97f00e91-4a81-4998-8f3d-60d5de3cea7c","ios":"levelo://app?vid=97f00e91-4a81-4998-8f3d-60d5de3cea7c"},"vehicle_type_id":"4","last_reported":1745503702,"current_range_meters":16800,"station_id":"ce4bgrp2rcd13ifvqc9g","pricing_plan_id":"cebpf4jnsgd1na2vs0mg"},{"bike_id":"97f8610b-214a-4cfe-9441-07b6b5d209d3","system_id":"levelo_inurba_marseille","lat":43.28366,"lon":5.38635,"is_reserved":false,"is_disabled":false,"rental_uris":{"android":"levelo://app?vid=97f8610b-214a-4cfe-9441-07b6b5d209d3","ios":"levelo://app?vid=97f8610b-214a-4cfe-9441-07b6b5d209d3"},"vehicle_type_id":"4","last_reported":1745503702,"current_range_meters":16800,"station_id":"ce4bh492rcd13ifvqdvg","pricing_plan_id":"cebpf4jnsgd1na2vs0mg"},{"bike_id":"6a8ce0d7-44c9-4192-a61a-a9f45ca222d9","system_id":"levelo_inurba_marseille","lat":43.29812,"lon":5.40392,"is_reserved":false,"is_disabled":false,"rental_uris":{"android":"levelo://app?vid=6a8ce0d7-44c9-4192-a61a-a9f45ca222d9","ios":"levelo://app?vid=6a8ce0d7-44c9-4192-a61a-a9f45ca222d9"},"vehicle_type_id":"4","last_reported":1745503702,"current_range_meters":16800,"station_id":"ce4bh112rcd13ifvqd90","pricing_plan_id":"cebpf4jnsgd1na2vs0mg"},{"bike_id":"0ab4acae-08a5-4dae-9606-513acd13fa91","system_id":"levelo_inurba_marseille","lat":43.22936,"lon":5.35375,"is_reserved":false,"is_disabled":false,"rental_uris":{"android":"levelo://app?vid=0ab4acae-08a5-4dae-9606-513acd13fa91","ios":"levelo://app?vid=0ab4acae-08a5-4dae-9606-513acd13fa91"},"vehicle_type_id":"4","last_reported":1745503702,"current_range_meters":16800,"station_id":"cpo3532slgdg3j2ikp40","pricing_plan_id":"cebpf4jnsgd1na2vs0mg"},{"bike_id":"2bcb9170-8de6-4439-bef4-ebfb8a16c213","system_id":"levelo_inurba_marseille","lat":43.23155,"lon":5.43702,"is_reserved":false,"is_disabled":false,"rental_uris":{"android":"levelo://app?vid=2bcb9170-8de6-4439-bef4-ebfb8a16c213","ios":"levelo://app?vid=2bcb9170-8de6-4439-bef4-ebfb8a16c213"},"vehicle_type_id":"4","last_reported":1745503702,"current_range_meters":16800,"station_id":"ce4bhmp2rcd13ifvqgog","pricing_plan_id":"cebpf4jnsgd1na2vs0mg"},{"bike_id":"7269da80-93c7-401d-b3cc-bd5d3ba0c7ed","system_id":"levelo_inurba_marseille","lat":43.27376,"lon":5.36263,"is_reserved":false,"is_disabled":false,"rental_uris":{"android":"levelo://app?vid=7269da80-93c7-401d-b3cc-bd5d3ba0c7ed","ios":"levelo://app?vid=7269da80-93c7-401d-b3cc-bd5d3ba0c7ed"},"vehicle_type_id":"4","last_reported":1745503702,"current_range_meters":16800,"station_id":"ce4bhbh2rcd13ifvqeo0","pricing_plan_id":"cebpf4jnsgd1na2vs0mg"},{"bike_id":"d2551370-740b-4767-bbbc-c02161e12ec3","system_id":"levelo_inurba_marseille","lat":43.32482,"lon":5.36548,"is_reserved":false,"is_disabled":false,"rental_uris":{"android":"levelo://app?vid=d2551370-740b-4767-bbbc-c02161e12ec3","ios":"levelo://app?vid=d2551370-740b-4767-bbbc-c02161e12ec3"},"vehicle_type_id":"4","last_reported":1745503702,"current_range_meters":17200,"station_id":"ce4bhs12rcd13ifvqhvg","pricing_plan_id":"cebpf4jnsgd1na2vs0mg"},{"bike_id":"30da752e-5450-4da3-965e-773778ce5d7d","system_id":"levelo_inurba_marseille","lat":43.24189,"lon":5.36407,"is_reserved":false,"is_disabled":false,"rental_uris":{"android":"levelo://app?vid=30da752e-5450-4da3-965e-773778ce5d7d","ios":"levelo://app?vid=30da752e-5450-4da3-965e-773778ce5d7d"},"vehicle_type_id":"4","last_reported":1745503702,"current_range_meters":17200,"station_id":"cpo36qri1sfpv3e86is0","pricing_plan_id":"cebpf4jnsgd1na2vs0mg"},{"bike_id":"75c54774-60c3-4a5a-9d9a-e318535acfa8","system_id":"levelo_inurba_marseille","lat":43.28416,"lon":5.34989,"is_reserved":false,"is_disabled":false,"rental_uris":{"android":"levelo://app?vid=75c54774-60c3-4a5a-9d9a-e318535acfa8","ios":"levelo://app?vid=75c54774-60c3-4a5a-9d9a-e318535acfa8"},"vehicle_type_id":"4","last_reported":1745503702,"current_range_meters":17200,"station_id":"ce4bhbh2rcd13ifvqepg","pricing_plan_id":"cebpf4jnsgd1na2vs0mg"},{"bike_id":"5efb0c5c-88bc-4b99-8f7a-8b10625ea8f5","system_id":"levelo_inurba_marseille","lat":43.32491,"lon":5.36549,"is_reserved":false,"is_disabled":false,"rental_uris":{"android":"levelo://app?vid=5efb0c5c-88bc-4b99-8f7a-8b10625ea8f5","ios":"levelo://app?vid=5efb0c5c-88bc-4b99-8f7a-8b10625ea8f5"},"vehicle_type_id":"4","last_reported":1745503702,"current_range_meters":17200,"station_id":"ce4bhs12rcd13ifvqhvg","pricing_plan_id":"cebpf4jnsgd1na2vs0mg"},{"bike_id":"5c8dde23-03af-4ec7-8c64-b6a7b95cfa5a","system_id":"levelo_inurba_marseille","lat":43.33722,"lon":5.39183,"is_reserved":false,"is_disabled":false,"rental_uris":{"android":"levelo://app?vid=5c8dde23-03af-4ec7-8c64-b6a7b95cfa5a","ios":"levelo://app?vid=5c8dde23-03af-4ec7-8c64-b6a7b95cfa5a"},"vehicle_type_id":"4","last_reported":1745503702,"current_range_meters":17200,"station_id":"ce4bhr92rcd13ifvqhsg","pricing_plan_id":"cebpf4jnsgd1na2vs0mg"},{"bike_id":"d8c09e5d-f7a6-43c6-97cd-0e3563308452","system_id":"levelo_inurba_marseille","lat":43.30536,"lon":5.36539,"is_reserved":false,"is_disabled":false,"rental_uris":{"android":"levelo://app?vid=d8c09e5d-f7a6-43c6-97cd-0e3563308452","ios":"levelo://app?vid=d8c09e5d-f7a6-43c6-97cd-0e3563308452"},"vehicle_type_id":"4","last_reported":1745503702,"current_range_meters":17200,"station_id":"ce4bgs12rcd13ifvqcag","pricing_plan_id":"cebpf4jnsgd1na2vs0mg"},{"bike_id":"92985d1b-174e-4cc8-81d4-f9a72f3e1f33","system_id":"levelo_inurba_marseille","lat":43.29631,"lon":5.40596,"is_reserved":false,"is_disabled":false,"rental_uris":{"android":"levelo://app?vid=92985d1b-174e-4cc8-81d4-f9a72f3e1f33","ios":"levelo://app?vid=92985d1b-174e-4cc8-81d4-f9a72f3e1f33"},"vehicle_type_id":"4","last_reported":1745503702,"current_range_meters":17600,"station_id":"ce4bh0h2rcd13ifvqd60","pricing_plan_id":"cebpf4jnsgd1na2vs0mg"},{"bike_id":"a25f3ce9-62ba-4971-9063-acd234b1dc48","system_id":"levelo_inurba_marseille","lat":43.26058,"lon":5.39397,"is_reserved":false,"is_disabled":false,"rental_uris":{"android":"levelo://app?vid=a25f3ce9-62ba-4971-9063-acd234b1dc48","ios":"levelo://app?vid=a25f3ce9-62ba-4971-9063-acd234b1dc48"},"vehicle_type_id":"4","last_reported":1745503702,"current_range_meters":17200,"station_id":"ce4bhh92rcd13ifvqfj0","pricing_plan_id":"cebpf4jnsgd1na2vs0mg"},{"bike_id":"7c80eaed-149a-4a39-95f2-f724d9b6c58b","system_id":"levelo_inurba_marseille","lat":43.29414,"lon":5.38621,"is_reserved":false,"is_disabled":false,"rental_uris":{"android":"levelo://app?vid=7c80eaed-149a-4a39-95f2-f724d9b6c58b","ios":"levelo://app?vid=7c80eaed-149a-4a39-95f2-f724d9b6c58b"},"vehicle_type_id":"4","last_reported":1745503702,"current_range_meters":17600,"station_id":"ce4bh2h2rcd13ifvqdh0","pricing_plan_id":"cebpf4jnsgd1na2vs0mg"},{"bike_id":"51a0cb13-a1be-471b-a49e-655dcd52084b","system_id":"levelo_inurba_marseille","lat":43.23188,"lon":5.35555,"is_reserved":false,"is_disabled":false,"rental_uris":{"android":"levelo://app?vid=51a0cb13-a1be-471b-a49e-655dcd52084b","ios":"levelo://app?vid=51a0cb13-a1be-471b-a49e-655dcd52084b"},"vehicle_type_id":"4","last_reported":1745503702,"current_range_meters":17600,"station_id":"ce4bhu92rcd13ifvqi70","pricing_plan_id":"cebpf4jnsgd1na2vs0mg"},{"bike_id":"2d4adf0b-a6b9-4f5f-a0b2-51ab31a238e7","system_id":"levelo_inurba_marseille","lat":43.28856,"lon":5.35847,"is_reserved":false,"is_disabled":false,"rental_uris":{"android":"levelo://app?vid=2d4adf0b-a6b9-4f5f-a0b2-51ab31a238e7","ios":"levelo://app?vid=2d4adf0b-a6b9-4f5f-a0b2-51ab31a238e7"},"vehicle_type_id":"4","last_reported":1745503702,"current_range_meters":17600,"station_id":"ce4bhb12rcd13ifvqem0","pricing_plan_id":"cebpf4jnsgd1na2vs0mg"},{"bike_id":"7396bba2-746d-42b1-aa60-5dbf38626901","system_id":"levelo_inurba_marseille","lat":43.29006,"lon":5.35601,"is_reserved":false,"is_disabled":false,"rental_uris":{"android":"levelo://app?vid=7396bba2-746d-42b1-aa60-5dbf38626901","ios":"levelo://app?vid=7396bba2-746d-42b1-aa60-5dbf38626901"},"vehicle_type_id":"4","last_reported":1745503702,"current_range_meters":17600,"station_id":"ce4bhb92rcd13ifvqen0","pricing_plan_id":"cebpf4jnsgd1na2vs0mg"},{"bike_id":"f164c425-8a09-48b4-9ff5-88ffcdd28407","system_id":"levelo_inurba_marseille","lat":43.26226,"lon":5.40447,"is_reserved":false,"is_disabled":false,"rental_uris":{"android":"levelo://app?vid=f164c425-8a09-48b4-9ff5-88ffcdd28407","ios":"levelo://app?vid=f164c425-8a09-48b4-9ff5-88ffcdd28407"},"vehicle_type_id":"4","last_reported":1745503702,"current_range_meters":17600,"station_id":"ce4bhmh2rcd13ifvqgmg","pricing_plan_id":"cebpf4jnsgd1na2vs0mg"},{"bike_id":"cea2f041-9925-457d-93e9-88fbeeed4966","system_id":"levelo_inurba_marseille","lat":43.28442,"lon":5.39196,"is_reserved":false,"is_disabled":false,"rental_uris":{"android":"levelo://app?vid=cea2f041-9925-457d-93e9-88fbeeed4966","ios":"levelo://app?vid=cea2f041-9925-457d-93e9-88fbeeed4966"},"vehicle_type_id":"4","last_reported":1745503702,"current_range_meters":18000,"station_id":"ce4bhoh2rcd13ifvqh5g","pricing_plan_id":"cebpf4jnsgd1na2vs0mg"},{"bike_id":"dfe32c3d-886f-4c63-b110-3496edf7c1cf","system_id":"levelo_inurba_marseille","lat":43.2784,"lon":5.39205,"is_reserved":false,"is_disabled":false,"rental_uris":{"android":"levelo://app?vid=dfe32c3d-886f-4c63-b110-3496edf7c1cf","ios":"levelo://app?vid=dfe32c3d-886f-4c63-b110-3496edf7c1cf"},"vehicle_type_id":"4","last_reported":1745503702,"current_range_meters":18000,"station_id":"ce4bhjp2rcd13ifvqga0","pricing_plan_id":"cebpf4jnsgd1na2vs0mg"},{"bike_id":"f577c520-0907-4453-975b-4f68ddb3f606","system_id":"levelo_inurba_marseille","lat":43.28419,"lon":5.34993,"is_reserved":false,"is_disabled":false,"rental_uris":{"android":"levelo://app?vid=f577c520-0907-4453-975b-4f68ddb3f606","ios":"levelo://app?vid=f577c520-0907-4453-975b-4f68ddb3f606"},"vehicle_type_id":"4","last_reported":1745503702,"current_range_meters":18000,"station_id":"ce4bhbh2rcd13ifvqepg","pricing_plan_id":"cebpf4jnsgd1na2vs0mg"},{"bike_id":"e2dcabcf-64d8-4394-bb9a-ff877bee611a","system_id":"levelo_inurba_marseille","lat":43.32057,"lon":5.4154,"is_reserved":false,"is_disabled":false,"rental_uris":{"android":"levelo://app?vid=e2dcabcf-64d8-4394-bb9a-ff877bee611a","ios":"levelo://app?vid=e2dcabcf-64d8-4394-bb9a-ff877bee611a"},"vehicle_type_id":"4","last_reported":1745503702,"current_range_meters":18000,"station_id":"ce4bhq92rcd13ifvqhkg","pricing_plan_id":"cebpf4jnsgd1na2vs0mg"},{"bike_id":"d517b521-37c1-4380-9600-6e69fd78877b","system_id":"levelo_inurba_marseille","lat":43.21195,"lon":5.3508,"is_reserved":false,"is_disabled":false,"rental_uris":{"android":"levelo://app?vid=d517b521-37c1-4380-9600-6e69fd78877b","ios":"levelo://app?vid=d517b521-37c1-4380-9600-6e69fd78877b"},"vehicle_type_id":"4","last_reported":1745503702,"current_range_meters":18000,"station_id":"st_cvj6sg6p6f1abm77japg","pricing_plan_id":"cebpf4jnsgd1na2vs0mg"},{"bike_id":"81c822d8-ebbe-4d24-aa97-095046fd1c36","system_id":"levelo_inurba_marseille","lat":43.23146,"lon":5.43719,"is_reserved":false,"is_disabled":false,"rental_uris":{"android":"levelo://app?vid=81c822d8-ebbe-4d24-aa97-095046fd1c36","ios":"levelo://app?vid=81c822d8-ebbe-4d24-aa97-095046fd1c36"},"vehicle_type_id":"4","last_reported":1745503702,"current_range_meters":18000,"station_id":"ce4bhmp2rcd13ifvqgog","pricing_plan_id":"cebpf4jnsgd1na2vs0mg"},{"bike_id":"e93a5d48-8225-4dba-b054-f06381b47cb3","system_id":"levelo_inurba_marseille","lat":43.28932,"lon":5.36382,"is_reserved":false,"is_disabled":false,"rental_uris":{"android":"levelo://app?vid=e93a5d48-8225-4dba-b054-f06381b47cb3","ios":"levelo://app?vid=e93a5d48-8225-4dba-b054-f06381b47cb3"},"vehicle_type_id":"4","last_reported":1745503702,"current_range_meters":18000,"station_id":"ce4bhc92rcd13ifvqetg","pricing_plan_id":"cebpf4jnsgd1na2vs0mg"},{"bike_id":"4d2beb57-71cc-463b-af16-d0ebe4be478b","system_id":"levelo_inurba_marseille","lat":43.26838,"lon":5.40381,"is_reserved":false,"is_disabled":false,"rental_uris":{"android":"levelo://app?vid=4d2beb57-71cc-463b-af16-d0ebe4be478b","ios":"levelo://app?vid=4d2beb57-71cc-463b-af16-d0ebe4be478b"},"vehicle_type_id":"4","last_reported":1745503702,"current_range_meters":18000,"station_id":"","pricing_plan_id":"cebpf4jnsgd1na2vs0mg"},{"bike_id":"7597f9f7-581e-4aa1-9ea0-a72928416a0e","system_id":"levelo_inurba_marseille","lat":43.30309,"lon":5.392,"is_reserved":false,"is_disabled":true,"rental_uris":{"android":"levelo://app?vid=7597f9f7-581e-4aa1-9ea0-a72928416a0e","ios":"levelo://app?vid=7597f9f7-581e-4aa1-9ea0-a72928416a0e"},"vehicle_type_id":"4","last_reported":1745503702,"current_range_meters":18800,"station_id":"ce4bgkh2rcd13ifvqbk0","pricing_plan_id":"cebpf4jnsgd1na2vs0mg"},{"bike_id":"0a14fdf2-2f2f-4bbf-95a3-89dc7e24db14","system_id":"levelo_inurba_marseille","lat":43.28262,"lon":5.35058,"is_reserved":false,"is_disabled":false,"rental_uris":{"android":"levelo://app?vid=0a14fdf2-2f2f-4bbf-95a3-89dc7e24db14","ios":"levelo://app?vid=0a14fdf2-2f2f-4bbf-95a3-89dc7e24db14"},"vehicle_type_id":"4","last_reported":1745503702,"current_range_meters":18800,"station_id":"ce4bhbp2rcd13ifvqerg","pricing_plan_id":"cebpf4jnsgd1na2vs0mg"},{"bike_id":"d26691ad-eb04-46c6-ac7a-e471272f54e2","system_id":"levelo_inurba_marseille","lat":43.26165,"lon":5.40434,"is_reserved":false,"is_disabled":false,"rental_uris":{"android":"levelo://app?vid=d26691ad-eb04-46c6-ac7a-e471272f54e2","ios":"levelo://app?vid=d26691ad-eb04-46c6-ac7a-e471272f54e2"},"vehicle_type_id":"4","last_reported":1745503702,"current_range_meters":18800,"station_id":"ce4bhmh2rcd13ifvqgmg","pricing_plan_id":"cebpf4jnsgd1na2vs0mg"},{"bike_id":"2b43f57e-53f4-43b7-b142-a3803d4893c5","system_id":"levelo_inurba_marseille","lat":43.31068,"lon":5.38345,"is_reserved":false,"is_disabled":false,"rental_uris":{"android":"levelo://app?vid=2b43f57e-53f4-43b7-b142-a3803d4893c5","ios":"levelo://app?vid=2b43f57e-53f4-43b7-b142-a3803d4893c5"},"vehicle_type_id":"4","last_reported":1745503702,"current_range_meters":18800,"station_id":"ce4bgv92rcd13ifvqcr0","pricing_plan_id":"cebpf4jnsgd1na2vs0mg"},{"bike_id":"b060a5cb-7521-4f42-826a-df832facd15e","system_id":"levelo_inurba_marseille","lat":43.28415,"lon":5.35001,"is_reserved":false,"is_disabled":false,"rental_uris":{"android":"levelo://app?vid=b060a5cb-7521-4f42-826a-df832facd15e","ios":"levelo://app?vid=b060a5cb-7521-4f42-826a-df832facd15e"},"vehicle_type_id":"4","last_reported":1745503702,"current_range_meters":18800,"station_id":"ce4bhbh2rcd13ifvqepg","pricing_plan_id":"cebpf4jnsgd1na2vs0mg"},{"bike_id":"0bfff189-ec6a-4439-b345-e9dd168ab867","system_id":"levelo_inurba_marseille","lat":43.3372,"lon":5.3918,"is_reserved":false,"is_disabled":false,"rental_uris":{"android":"levelo://app?vid=0bfff189-ec6a-4439-b345-e9dd168ab867","ios":"levelo://app?vid=0bfff189-ec6a-4439-b345-e9dd168ab867"},"vehicle_type_id":"4","last_reported":1745503702,"current_range_meters":18800,"station_id":"ce4bhr92rcd13ifvqhsg","pricing_plan_id":"cebpf4jnsgd1na2vs0mg"},{"bike_id":"5703e9ff-416f-423c-b1fc-7901f8c06cd3","system_id":"levelo_inurba_marseille","lat":43.28842,"lon":5.39298,"is_reserved":false,"is_disabled":false,"rental_uris":{"android":"levelo://app?vid=5703e9ff-416f-423c-b1fc-7901f8c06cd3","ios":"levelo://app?vid=5703e9ff-416f-423c-b1fc-7901f8c06cd3"},"vehicle_type_id":"4","last_reported":1745503702,"current_range_meters":19200,"station_id":"ce4bh2p2rcd13ifvqdi0","pricing_plan_id":"cebpf4jnsgd1na2vs0mg"},{"bike_id":"8cd89945-3452-402d-b186-42ab94aa749d","system_id":"levelo_inurba_marseille","lat":43.29229,"lon":5.36059,"is_reserved":false,"is_disabled":true,"rental_uris":{"android":"levelo://app?vid=8cd89945-3452-402d-b186-42ab94aa749d","ios":"levelo://app?vid=8cd89945-3452-402d-b186-42ab94aa749d"},"vehicle_type_id":"4","last_reported":1745503702,"current_range_meters":19200,"station_id":"ce4bhbh2rcd13ifvqeqg","pricing_plan_id":"cebpf4jnsgd1na2vs0mg"},{"bike_id":"713e340d-4155-4de4-a5a1-7868887bc224","system_id":"levelo_inurba_marseille","lat":43.22922,"lon":5.3538,"is_reserved":false,"is_disabled":true,"rental_uris":{"android":"levelo://app?vid=713e340d-4155-4de4-a5a1-7868887bc224","ios":"levelo://app?vid=713e340d-4155-4de4-a5a1-7868887bc224"},"vehicle_type_id":"4","last_reported":1745503702,"current_range_meters":19200,"station_id":"cpo3532slgdg3j2ikp40","pricing_plan_id":"cebpf4jnsgd1na2vs0mg"},{"bike_id":"8c54707d-0394-48aa-b0b3-303fc5979d44","system_id":"levelo_inurba_marseille","lat":43.25001,"lon":5.38933,"is_reserved":false,"is_disabled":false,"rental_uris":{"android":"levelo://app?vid=8c54707d-0394-48aa-b0b3-303fc5979d44","ios":"levelo://app?vid=8c54707d-0394-48aa-b0b3-303fc5979d44"},"vehicle_type_id":"4","last_reported":1745503702,"current_range_meters":19200,"station_id":"ce4bhgp2rcd13ifvqfd0","pricing_plan_id":"cebpf4jnsgd1na2vs0mg"},{"bike_id":"794d0e38-4d0c-4221-b844-2a725c193bfb","system_id":"levelo_inurba_marseille","lat":43.30357,"lon":5.41872,"is_reserved":false,"is_disabled":false,"rental_uris":{"android":"levelo://app?vid=794d0e38-4d0c-4221-b844-2a725c193bfb","ios":"levelo://app?vid=794d0e38-4d0c-4221-b844-2a725c193bfb"},"vehicle_type_id":"4","last_reported":1745503702,"current_range_meters":18800,"station_id":"ce4bhop2rcd13ifvqh7g","pricing_plan_id":"cebpf4jnsgd1na2vs0mg"},{"bike_id":"c0525dd3-6761-46de-888f-ffa7b994ee85","system_id":"levelo_inurba_marseille","lat":43.23144,"lon":5.43708,"is_reserved":false,"is_disabled":false,"rental_uris":{"android":"levelo://app?vid=c0525dd3-6761-46de-888f-ffa7b994ee85","ios":"levelo://app?vid=c0525dd3-6761-46de-888f-ffa7b994ee85"},"vehicle_type_id":"4","last_reported":1745503702,"current_range_meters":19200,"station_id":"ce4bhmp2rcd13ifvqgog","pricing_plan_id":"cebpf4jnsgd1na2vs0mg"},{"bike_id":"1c1ab593-b3d5-4170-8dc9-d2588a8260e2","system_id":"levelo_inurba_marseille","lat":43.29428,"lon":5.38632,"is_reserved":false,"is_disabled":false,"rental_uris":{"android":"levelo://app?vid=1c1ab593-b3d5-4170-8dc9-d2588a8260e2","ios":"levelo://app?vid=1c1ab593-b3d5-4170-8dc9-d2588a8260e2"},"vehicle_type_id":"4","last_reported":1745503702,"current_range_meters":19200,"station_id":"ce4bh2h2rcd13ifvqdh0","pricing_plan_id":"cebpf4jnsgd1na2vs0mg"},{"bike_id":"0760f03c-f1c1-4b1c-b5e5-69e2abe0a657","system_id":"levelo_inurba_marseille","lat":43.31686,"lon":5.37739,"is_reserved":false,"is_disabled":false,"rental_uris":{"android":"levelo://app?vid=0760f03c-f1c1-4b1c-b5e5-69e2abe0a657","ios":"levelo://app?vid=0760f03c-f1c1-4b1c-b5e5-69e2abe0a657"},"vehicle_type_id":"4","last_reported":1745503702,"current_range_meters":19200,"station_id":"ce4bgth2rcd13ifvqch0","pricing_plan_id":"cebpf4jnsgd1na2vs0mg"},{"bike_id":"6ab6d7b2-3290-448f-84a4-8ebdbe70ab9b","system_id":"levelo_inurba_marseille","lat":43.26552,"lon":5.37295,"is_reserved":false,"is_disabled":false,"rental_uris":{"android":"levelo://app?vid=6ab6d7b2-3290-448f-84a4-8ebdbe70ab9b","ios":"levelo://app?vid=6ab6d7b2-3290-448f-84a4-8ebdbe70ab9b"},"vehicle_type_id":"4","last_reported":1745503702,"current_range_meters":19200,"station_id":"ce4bhg12rcd13ifvqf70","pricing_plan_id":"cebpf4jnsgd1na2vs0mg"},{"bike_id":"9bec9b2a-2978-4339-96df-f9305f71819a","system_id":"levelo_inurba_marseille","lat":43.27213,"lon":5.4097,"is_reserved":false,"is_disabled":false,"rental_uris":{"android":"levelo://app?vid=9bec9b2a-2978-4339-96df-f9305f71819a","ios":"levelo://app?vid=9bec9b2a-2978-4339-96df-f9305f71819a"},"vehicle_type_id":"4","last_reported":1745503702,"current_range_meters":18800,"station_id":"ce4bhl12rcd13ifvqgf0","pricing_plan_id":"cebpf4jnsgd1na2vs0mg"},{"bike_id":"ba101c25-07b2-4c81-a7a5-68cae9e5ff43","system_id":"levelo_inurba_marseille","lat":43.29883,"lon":5.3627,"is_reserved":false,"is_disabled":false,"rental_uris":{"android":"levelo://app?vid=ba101c25-07b2-4c81-a7a5-68cae9e5ff43","ios":"levelo://app?vid=ba101c25-07b2-4c81-a7a5-68cae9e5ff43"},"vehicle_type_id":"4","last_reported":1745503702,"current_range_meters":19200,"station_id":"ce4bgpp2rcd13ifvqc3g","pricing_plan_id":"cebpf4jnsgd1na2vs0mg"},{"bike_id":"4d245dce-18c4-4b92-b714-3999ba80a017","system_id":"levelo_inurba_marseille","lat":43.26806,"lon":5.39419,"is_reserved":false,"is_disabled":false,"rental_uris":{"android":"levelo://app?vid=4d245dce-18c4-4b92-b714-3999ba80a017","ios":"levelo://app?vid=4d245dce-18c4-4b92-b714-3999ba80a017"},"vehicle_type_id":"4","last_reported":1745503702,"current_range_meters":19600,"station_id":"ce4bhh12rcd13ifvqfg0","pricing_plan_id":"cebpf4jnsgd1na2vs0mg"},{"bike_id":"9a1c0be7-bd1a-4081-ab84-3ef05258b407","system_id":"levelo_inurba_marseille","lat":43.22927,"lon":5.35377,"is_reserved":false,"is_disabled":false,"rental_uris":{"android":"levelo://app?vid=9a1c0be7-bd1a-4081-ab84-3ef05258b407","ios":"levelo://app?vid=9a1c0be7-bd1a-4081-ab84-3ef05258b407"},"vehicle_type_id":"4","last_reported":1745503702,"current_range_meters":19600,"station_id":"cpo3532slgdg3j2ikp40","pricing_plan_id":"cebpf4jnsgd1na2vs0mg"},{"bike_id":"4c8587c5-994b-45cb-946f-1c2d4dabd454","system_id":"levelo_inurba_marseille","lat":43.28617,"lon":5.35099,"is_reserved":false,"is_disabled":false,"rental_uris":{"android":"levelo://app?vid=4c8587c5-994b-45cb-946f-1c2d4dabd454","ios":"levelo://app?vid=4c8587c5-994b-45cb-946f-1c2d4dabd454"},"vehicle_type_id":"4","last_reported":1745503702,"current_range_meters":19600,"station_id":"ce4bhch2rcd13ifvqeug","pricing_plan_id":"cebpf4jnsgd1na2vs0mg"},{"bike_id":"a9784e4d-72f3-45a0-bc5c-6a48517d28d6","system_id":"levelo_inurba_marseille","lat":43.33025,"lon":5.39047,"is_reserved":false,"is_disabled":false,"rental_uris":{"android":"levelo://app?vid=a9784e4d-72f3-45a0-bc5c-6a48517d28d6","ios":"levelo://app?vid=a9784e4d-72f3-45a0-bc5c-6a48517d28d6"},"vehicle_type_id":"4","last_reported":1745503702,"current_range_meters":19600,"station_id":"ce4bhr92rcd13ifvqhrg","pricing_plan_id":"cebpf4jnsgd1na2vs0mg"},{"bike_id":"21023ffa-cc31-4484-9f97-82609e00847f","system_id":"levelo_inurba_marseille","lat":43.2841,"lon":5.34994,"is_reserved":false,"is_disabled":false,"rental_uris":{"android":"levelo://app?vid=21023ffa-cc31-4484-9f97-82609e00847f","ios":"levelo://app?vid=21023ffa-cc31-4484-9f97-82609e00847f"},"vehicle_type_id":"4","last_reported":1745503702,"current_range_meters":19600,"station_id":"ce4bhbh2rcd13ifvqepg","pricing_plan_id":"cebpf4jnsgd1na2vs0mg"},{"bike_id":"d8eefbea-865e-4704-8420-3e918b63a735","system_id":"levelo_inurba_marseille","lat":43.26553,"lon":5.37284,"is_reserved":false,"is_disabled":false,"rental_uris":{"android":"levelo://app?vid=d8eefbea-865e-4704-8420-3e918b63a735","ios":"levelo://app?vid=d8eefbea-865e-4704-8420-3e918b63a735"},"vehicle_type_id":"4","last_reported":1745503702,"current_range_meters":20000,"station_id":"ce4bhg12rcd13ifvqf70","pricing_plan_id":"cebpf4jnsgd1na2vs0mg"},{"bike_id":"3694eb2b-b977-4952-affb-2db2d69f62aa","system_id":"levelo_inurba_marseille","lat":43.24181,"lon":5.39729,"is_reserved":false,"is_disabled":false,"rental_uris":{"android":"levelo://app?vid=3694eb2b-b977-4952-affb-2db2d69f62aa","ios":"levelo://app?vid=3694eb2b-b977-4952-affb-2db2d69f62aa"},"vehicle_type_id":"4","last_reported":1745503702,"current_range_meters":20000,"station_id":"ce4bhn12rcd13ifvqgpg","pricing_plan_id":"cebpf4jnsgd1na2vs0mg"},{"bike_id":"9ebec2c2-e4e2-4e72-8800-6cc2a0c85f32","system_id":"levelo_inurba_marseille","lat":43.32568,"lon":5.39417,"is_reserved":false,"is_disabled":false,"rental_uris":{"android":"levelo://app?vid=9ebec2c2-e4e2-4e72-8800-6cc2a0c85f32","ios":"levelo://app?vid=9ebec2c2-e4e2-4e72-8800-6cc2a0c85f32"},"vehicle_type_id":"4","last_reported":1745503702,"current_range_meters":20000,"station_id":"","pricing_plan_id":"cebpf4jnsgd1na2vs0mg"},{"bike_id":"a9534af2-c56c-49eb-aabc-c55128336cd2","system_id":"levelo_inurba_marseille","lat":43.29846,"lon":5.36284,"is_reserved":false,"is_disabled":false,"rental_uris":{"android":"levelo://app?vid=a9534af2-c56c-49eb-aabc-c55128336cd2","ios":"levelo://app?vid=a9534af2-c56c-49eb-aabc-c55128336cd2"},"vehicle_type_id":"4","last_reported":1745503702,"current_range_meters":20000,"station_id":"ce4bgpp2rcd13ifvqc3g","pricing_plan_id":"cebpf4jnsgd1na2vs0mg"},{"bike_id":"6f64a2c4-9763-4740-b308-df51016f0b0b","system_id":"levelo_inurba_marseille","lat":43.317,"lon":5.37743,"is_reserved":false,"is_disabled":false,"rental_uris":{"android":"levelo://app?vid=6f64a2c4-9763-4740-b308-df51016f0b0b","ios":"levelo://app?vid=6f64a2c4-9763-4740-b308-df51016f0b0b"},"vehicle_type_id":"4","last_reported":1745503702,"current_range_meters":20400,"station_id":"ce4bgth2rcd13ifvqch0","pricing_plan_id":"cebpf4jnsgd1na2vs0mg"},{"bike_id":"28c655a4-6907-4d6b-b598-69019c264ec2","system_id":"levelo_inurba_marseille","lat":43.337444,"lon":5.374475,"is_reserved":false,"is_disabled":false,"rental_uris":{"android":"levelo://app?vid=28c655a4-6907-4d6b-b598-69019c264ec2","ios":"levelo://app?vid=28c655a4-6907-4d6b-b598-69019c264ec2"},"vehicle_type_id":"4","last_reported":1745503702,"current_range_meters":20400,"station_id":"","pricing_plan_id":"cebpf4jnsgd1na2vs0mg"},{"bike_id":"f20b7807-3b3f-4622-b4f6-0abded047fde","system_id":"levelo_inurba_marseille","lat":43.24646,"lon":5.38889,"is_reserved":false,"is_disabled":false,"rental_uris":{"android":"levelo://app?vid=f20b7807-3b3f-4622-b4f6-0abded047fde","ios":"levelo://app?vid=f20b7807-3b3f-4622-b4f6-0abded047fde"},"vehicle_type_id":"4","last_reported":1745503702,"current_range_meters":20400,"station_id":"ce4bhg12rcd13ifvqf60","pricing_plan_id":"cebpf4jnsgd1na2vs0mg"},{"bike_id":"5195a5b3-06b2-4ab4-a62b-c1e420260a08","system_id":"levelo_inurba_marseille","lat":43.32041,"lon":5.41536,"is_reserved":false,"is_disabled":false,"rental_uris":{"android":"levelo://app?vid=5195a5b3-06b2-4ab4-a62b-c1e420260a08","ios":"levelo://app?vid=5195a5b3-06b2-4ab4-a62b-c1e420260a08"},"vehicle_type_id":"4","last_reported":1745503702,"current_range_meters":20400,"station_id":"ce4bhq92rcd13ifvqhkg","pricing_plan_id":"cebpf4jnsgd1na2vs0mg"},{"bike_id":"5582e915-18c1-45ef-9037-af7dd7e64427","system_id":"levelo_inurba_marseille","lat":43.21183,"lon":5.3508,"is_reserved":false,"is_disabled":false,"rental_uris":{"android":"levelo://app?vid=5582e915-18c1-45ef-9037-af7dd7e64427","ios":"levelo://app?vid=5582e915-18c1-45ef-9037-af7dd7e64427"},"vehicle_type_id":"4","last_reported":1745503702,"current_range_meters":20400,"station_id":"st_cvj6sg6p6f1abm77japg","pricing_plan_id":"cebpf4jnsgd1na2vs0mg"},{"bike_id":"3d9d03b9-533a-4be1-b534-f576b935dd77","system_id":"levelo_inurba_marseille","lat":43.30443,"lon":5.39756,"is_reserved":false,"is_disabled":false,"rental_uris":{"android":"levelo://app?vid=3d9d03b9-533a-4be1-b534-f576b935dd77","ios":"levelo://app?vid=3d9d03b9-533a-4be1-b534-f576b935dd77"},"vehicle_type_id":"4","last_reported":1745503702,"current_range_meters":20400,"station_id":"ce4bh092rcd13ifvqd20","pricing_plan_id":"cebpf4jnsgd1na2vs0mg"},{"bike_id":"25c3e919-a227-4f46-9b6a-55bb7466da8a","system_id":"levelo_inurba_marseille","lat":43.25579,"lon":5.38229,"is_reserved":false,"is_disabled":false,"rental_uris":{"android":"levelo://app?vid=25c3e919-a227-4f46-9b6a-55bb7466da8a","ios":"levelo://app?vid=25c3e919-a227-4f46-9b6a-55bb7466da8a"},"vehicle_type_id":"4","last_reported":1745503702,"current_range_meters":20400,"station_id":"ce4bhih2rcd13ifvqfs0","pricing_plan_id":"cebpf4jnsgd1na2vs0mg"},{"bike_id":"d12d2088-aefb-4d46-a88f-8b202f12ca2c","system_id":"levelo_inurba_marseille","lat":43.25573,"lon":5.3824,"is_reserved":false,"is_disabled":false,"rental_uris":{"android":"levelo://app?vid=d12d2088-aefb-4d46-a88f-8b202f12ca2c","ios":"levelo://app?vid=d12d2088-aefb-4d46-a88f-8b202f12ca2c"},"vehicle_type_id":"4","last_reported":1745503702,"current_range_meters":20400,"station_id":"ce4bhih2rcd13ifvqfs0","pricing_plan_id":"cebpf4jnsgd1na2vs0mg"},{"bike_id":"987d7900-bb2a-45cb-bed7-6d69f6fd4fa3","system_id":"levelo_inurba_marseille","lat":43.28478,"lon":5.38439,"is_reserved":false,"is_disabled":false,"rental_uris":{"android":"levelo://app?vid=987d7900-bb2a-45cb-bed7-6d69f6fd4fa3","ios":"levelo://app?vid=987d7900-bb2a-45cb-bed7-6d69f6fd4fa3"},"vehicle_type_id":"4","last_reported":1745503702,"current_range_meters":20400,"station_id":"ce4bh512rcd13ifvqe3g","pricing_plan_id":"cebpf4jnsgd1na2vs0mg"},{"bike_id":"e6bd335f-2061-430a-a060-7778e4a1c8a4","system_id":"levelo_inurba_marseille","lat":43.26556,"lon":5.37297,"is_reserved":false,"is_disabled":false,"rental_uris":{"android":"levelo://app?vid=e6bd335f-2061-430a-a060-7778e4a1c8a4","ios":"levelo://app?vid=e6bd335f-2061-430a-a060-7778e4a1c8a4"},"vehicle_type_id":"4","last_reported":1745503702,"current_range_meters":20400,"station_id":"ce4bhg12rcd13ifvqf70","pricing_plan_id":"cebpf4jnsgd1na2vs0mg"},{"bike_id":"b4543a36-eb59-4e5c-ae3e-e1993173fc16","system_id":"levelo_inurba_marseille","lat":43.29848,"lon":5.36278,"is_reserved":false,"is_disabled":false,"rental_uris":{"android":"levelo://app?vid=b4543a36-eb59-4e5c-ae3e-e1993173fc16","ios":"levelo://app?vid=b4543a36-eb59-4e5c-ae3e-e1993173fc16"},"vehicle_type_id":"4","last_reported":1745503702,"current_range_meters":20400,"station_id":"ce4bgpp2rcd13ifvqc3g","pricing_plan_id":"cebpf4jnsgd1na2vs0mg"},{"bike_id":"f2314f08-cf4a-4d8c-bd3d-b9b8baea6582","system_id":"levelo_inurba_marseille","lat":43.25901,"lon":5.40884,"is_reserved":false,"is_disabled":false,"rental_uris":{"android":"levelo://app?vid=f2314f08-cf4a-4d8c-bd3d-b9b8baea6582","ios":"levelo://app?vid=f2314f08-cf4a-4d8c-bd3d-b9b8baea6582"},"vehicle_type_id":"4","last_reported":1745503702,"current_range_meters":20400,"station_id":"ce4bhm92rcd13ifvqglg","pricing_plan_id":"cebpf4jnsgd1na2vs0mg"},{"bike_id":"829e6027-c98c-4052-9336-7fe801b0bc22","system_id":"levelo_inurba_marseille","lat":43.23153,"lon":5.43707,"is_reserved":false,"is_disabled":true,"rental_uris":{"android":"levelo://app?vid=829e6027-c98c-4052-9336-7fe801b0bc22","ios":"levelo://app?vid=829e6027-c98c-4052-9336-7fe801b0bc22"},"vehicle_type_id":"4","last_reported":1745503702,"current_range_meters":20800,"station_id":"ce4bhmp2rcd13ifvqgog","pricing_plan_id":"cebpf4jnsgd1na2vs0mg"},{"bike_id":"2a783690-c2f8-456b-87ab-1a7f1ad564a3","system_id":"levelo_inurba_marseille","lat":43.2827,"lon":5.35057,"is_reserved":false,"is_disabled":false,"rental_uris":{"android":"levelo://app?vid=2a783690-c2f8-456b-87ab-1a7f1ad564a3","ios":"levelo://app?vid=2a783690-c2f8-456b-87ab-1a7f1ad564a3"},"vehicle_type_id":"4","last_reported":1745503702,"current_range_meters":20800,"station_id":"ce4bhbp2rcd13ifvqerg","pricing_plan_id":"cebpf4jnsgd1na2vs0mg"},{"bike_id":"08ce8e8f-81a3-41c0-90e7-db0db83a384e","system_id":"levelo_inurba_marseille","lat":43.27563,"lon":5.38427,"is_reserved":false,"is_disabled":false,"rental_uris":{"android":"levelo://app?vid=08ce8e8f-81a3-41c0-90e7-db0db83a384e","ios":"levelo://app?vid=08ce8e8f-81a3-41c0-90e7-db0db83a384e"},"vehicle_type_id":"4","last_reported":1745503702,"current_range_meters":20400,"station_id":"ce4bhh92rcd13ifvqfi0","pricing_plan_id":"cebpf4jnsgd1na2vs0mg"},{"bike_id":"a19f1d47-08bf-4a89-bf79-1099f8d8b61e","system_id":"levelo_inurba_marseille","lat":43.30094,"lon":5.39078,"is_reserved":false,"is_disabled":false,"rental_uris":{"android":"levelo://app?vid=a19f1d47-08bf-4a89-bf79-1099f8d8b61e","ios":"levelo://app?vid=a19f1d47-08bf-4a89-bf79-1099f8d8b61e"},"vehicle_type_id":"4","last_reported":1745503702,"current_range_meters":20400,"station_id":"ce4bh192rcd13ifvqdb0","pricing_plan_id":"cebpf4jnsgd1na2vs0mg"},{"bike_id":"b2791d64-5b83-4ae1-9a75-d12f240fadc5","system_id":"levelo_inurba_marseille","lat":43.29572,"lon":5.39985,"is_reserved":false,"is_disabled":false,"rental_uris":{"android":"levelo://app?vid=b2791d64-5b83-4ae1-9a75-d12f240fadc5","ios":"levelo://app?vid=b2791d64-5b83-4ae1-9a75-d12f240fadc5"},"vehicle_type_id":"4","last_reported":1745503702,"current_range_meters":20400,"station_id":"ce4bh312rcd13ifvqdj0","pricing_plan_id":"cebpf4jnsgd1na2vs0mg"},{"bike_id":"3a0f2caf-5475-4310-b0ae-0748eae99f61","system_id":"levelo_inurba_marseille","lat":43.24181,"lon":5.39735,"is_reserved":false,"is_disabled":false,"rental_uris":{"android":"levelo://app?vid=3a0f2caf-5475-4310-b0ae-0748eae99f61","ios":"levelo://app?vid=3a0f2caf-5475-4310-b0ae-0748eae99f61"},"vehicle_type_id":"4","last_reported":1745503702,"current_range_meters":20800,"station_id":"ce4bhn12rcd13ifvqgpg","pricing_plan_id":"cebpf4jnsgd1na2vs0mg"},{"bike_id":"def8e2d8-9ee9-4bb7-a5bd-2cd5c9567aa3","system_id":"levelo_inurba_marseille","lat":43.27379,"lon":5.36256,"is_reserved":false,"is_disabled":false,"rental_uris":{"android":"levelo://app?vid=def8e2d8-9ee9-4bb7-a5bd-2cd5c9567aa3","ios":"levelo://app?vid=def8e2d8-9ee9-4bb7-a5bd-2cd5c9567aa3"},"vehicle_type_id":"4","last_reported":1745503702,"current_range_meters":20800,"station_id":"ce4bhbh2rcd13ifvqeo0","pricing_plan_id":"cebpf4jnsgd1na2vs0mg"},{"bike_id":"6a440c17-a786-4f0c-92ba-668852f55654","system_id":"levelo_inurba_marseille","lat":43.29276,"lon":5.40114,"is_reserved":false,"is_disabled":false,"rental_uris":{"android":"levelo://app?vid=6a440c17-a786-4f0c-92ba-668852f55654","ios":"levelo://app?vid=6a440c17-a786-4f0c-92ba-668852f55654"},"vehicle_type_id":"4","last_reported":1745503702,"current_range_meters":21600,"station_id":"ce4bh312rcd13ifvqdk0","pricing_plan_id":"cebpf4jnsgd1na2vs0mg"},{"bike_id":"b7b393f0-b786-42df-989c-4a6cb72210f4","system_id":"levelo_inurba_marseille","lat":43.32389,"lon":5.36749,"is_reserved":false,"is_disabled":false,"rental_uris":{"android":"levelo://app?vid=b7b393f0-b786-42df-989c-4a6cb72210f4","ios":"levelo://app?vid=b7b393f0-b786-42df-989c-4a6cb72210f4"},"vehicle_type_id":"4","last_reported":1745503702,"current_range_meters":21600,"station_id":"ce4bhsh2rcd13ifvqi2g","pricing_plan_id":"cebpf4jnsgd1na2vs0mg"},{"bike_id":"64df043f-3a87-42af-92b7-554113c9b466","system_id":"levelo_inurba_marseille","lat":43.30423,"lon":5.39754,"is_reserved":false,"is_disabled":false,"rental_uris":{"android":"levelo://app?vid=64df043f-3a87-42af-92b7-554113c9b466","ios":"levelo://app?vid=64df043f-3a87-42af-92b7-554113c9b466"},"vehicle_type_id":"4","last_reported":1745503702,"current_range_meters":21600,"station_id":"ce4bh092rcd13ifvqd20","pricing_plan_id":"cebpf4jnsgd1na2vs0mg"},{"bike_id":"183bb44a-cd53-46d9-99be-6e047a2595e3","system_id":"levelo_inurba_marseille","lat":43.28411,"lon":5.34985,"is_reserved":false,"is_disabled":false,"rental_uris":{"android":"levelo://app?vid=183bb44a-cd53-46d9-99be-6e047a2595e3","ios":"levelo://app?vid=183bb44a-cd53-46d9-99be-6e047a2595e3"},"vehicle_type_id":"4","last_reported":1745503702,"current_range_meters":21600,"station_id":"ce4bhbh2rcd13ifvqepg","pricing_plan_id":"cebpf4jnsgd1na2vs0mg"},{"bike_id":"51240439-49e6-498a-91cb-7c7d3ab3c519","system_id":"levelo_inurba_marseille","lat":43.307588,"lon":5.36814,"is_reserved":false,"is_disabled":false,"rental_uris":{"android":"levelo://app?vid=51240439-49e6-498a-91cb-7c7d3ab3c519","ios":"levelo://app?vid=51240439-49e6-498a-91cb-7c7d3ab3c519"},"vehicle_type_id":"4","last_reported":1745503702,"current_range_meters":20800,"station_id":"ce4bgrh2rcd13ifvqc8g","pricing_plan_id":"cebpf4jnsgd1na2vs0mg"},{"bike_id":"4098ae74-5a21-4188-bf9e-09a08c01dc24","system_id":"levelo_inurba_marseille","lat":43.30258,"lon":5.40076,"is_reserved":false,"is_disabled":false,"rental_uris":{"android":"levelo://app?vid=4098ae74-5a21-4188-bf9e-09a08c01dc24","ios":"levelo://app?vid=4098ae74-5a21-4188-bf9e-09a08c01dc24"},"vehicle_type_id":"4","last_reported":1745503702,"current_range_meters":21600,"station_id":"ce4bgvh2rcd13ifvqcs0","pricing_plan_id":"cebpf4jnsgd1na2vs0mg"},{"bike_id":"5c8001ef-c531-490f-b793-cd3ce7ffc3a8","system_id":"levelo_inurba_marseille","lat":43.33029,"lon":5.39037,"is_reserved":false,"is_disabled":false,"rental_uris":{"android":"levelo://app?vid=5c8001ef-c531-490f-b793-cd3ce7ffc3a8","ios":"levelo://app?vid=5c8001ef-c531-490f-b793-cd3ce7ffc3a8"},"vehicle_type_id":"4","last_reported":1745503702,"current_range_meters":21600,"station_id":"ce4bhr92rcd13ifvqhrg","pricing_plan_id":"cebpf4jnsgd1na2vs0mg"},{"bike_id":"637f1876-aff6-4f7b-b3ff-a3e501ed3845","system_id":"levelo_inurba_marseille","lat":43.2842,"lon":5.39178,"is_reserved":false,"is_disabled":false,"rental_uris":{"android":"levelo://app?vid=637f1876-aff6-4f7b-b3ff-a3e501ed3845","ios":"levelo://app?vid=637f1876-aff6-4f7b-b3ff-a3e501ed3845"},"vehicle_type_id":"4","last_reported":1745503702,"current_range_meters":21600,"station_id":"ce4bhoh2rcd13ifvqh5g","pricing_plan_id":"cebpf4jnsgd1na2vs0mg"},{"bike_id":"66f99d34-34a2-4abf-acfb-ad44de3c4a2f","system_id":"levelo_inurba_marseille","lat":43.29584,"lon":5.36739,"is_reserved":false,"is_disabled":false,"rental_uris":{"android":"levelo://app?vid=66f99d34-34a2-4abf-acfb-ad44de3c4a2f","ios":"levelo://app?vid=66f99d34-34a2-4abf-acfb-ad44de3c4a2f"},"vehicle_type_id":"4","last_reported":1745503702,"current_range_meters":21600,"station_id":"ce4bgph2rcd13ifvqc2g","pricing_plan_id":"cebpf4jnsgd1na2vs0mg"},{"bike_id":"5309018e-5998-4df6-b294-706a1d31992a","system_id":"levelo_inurba_marseille","lat":43.29415,"lon":5.38631,"is_reserved":false,"is_disabled":false,"rental_uris":{"android":"levelo://app?vid=5309018e-5998-4df6-b294-706a1d31992a","ios":"levelo://app?vid=5309018e-5998-4df6-b294-706a1d31992a"},"vehicle_type_id":"4","last_reported":1745503702,"current_range_meters":22000,"station_id":"ce4bh2h2rcd13ifvqdh0","pricing_plan_id":"cebpf4jnsgd1na2vs0mg"},{"bike_id":"ef00c763-fdab-4d8e-9137-b2c64e8d28db","system_id":"levelo_inurba_marseille","lat":43.26553,"lon":5.37291,"is_reserved":false,"is_disabled":false,"rental_uris":{"android":"levelo://app?vid=ef00c763-fdab-4d8e-9137-b2c64e8d28db","ios":"levelo://app?vid=ef00c763-fdab-4d8e-9137-b2c64e8d28db"},"vehicle_type_id":"4","last_reported":1745503702,"current_range_meters":22000,"station_id":"ce4bhg12rcd13ifvqf70","pricing_plan_id":"cebpf4jnsgd1na2vs0mg"},{"bike_id":"65375943-12e8-43fb-9a40-24d1e829f157","system_id":"levelo_inurba_marseille","lat":43.27906,"lon":5.39575,"is_reserved":false,"is_disabled":false,"rental_uris":{"android":"levelo://app?vid=65375943-12e8-43fb-9a40-24d1e829f157","ios":"levelo://app?vid=65375943-12e8-43fb-9a40-24d1e829f157"},"vehicle_type_id":"4","last_reported":1745503702,"current_range_meters":22000,"station_id":"ce4bhf92rcd13ifvqf40","pricing_plan_id":"cebpf4jnsgd1na2vs0mg"},{"bike_id":"e707bfa8-4438-46be-8caa-f69d0f529740","system_id":"levelo_inurba_marseille","lat":43.29774,"lon":5.39315,"is_reserved":false,"is_disabled":false,"rental_uris":{"android":"levelo://app?vid=e707bfa8-4438-46be-8caa-f69d0f529740","ios":"levelo://app?vid=e707bfa8-4438-46be-8caa-f69d0f529740"},"vehicle_type_id":"4","last_reported":1745503702,"current_range_meters":22000,"station_id":"chh1huq6cuj3fo74tm60","pricing_plan_id":"cebpf4jnsgd1na2vs0mg"},