{"last_updated":1751739163,"ttl":60,"version":"2.2","data":{"bikes":[{"bike_id":"3da29fb8-fc97-44c6-b9ac-31dd456b2fd4","system_id":"levelo_inurba_marseille","lat":43.33771,"lon":5.37424,"is_reserved":false,"is_disabled":true,"rental_uris":{"android":"levelo://app?vid=3da29fb8-fc97-44c6-b9ac-31dd456b2fd4","ios":"levelo://app?vid=3da29fb8-fc97-44c6-b9ac-31dd456b2fd4"},"vehicle_type_id":"4","last_reported":1751739163,"current_range_meters":0,"station_id":"","pricing_plan_id":"cebpf4jnsgd1na2vs0mg"},{"bike_id":"01861ad8-a8d7-4be6-816e-651927c87584","system_id":"levelo_inurba_marseille","lat":43.33751,"lon":5.37456,"is_reserved":false,"is_disabled":true,"rental_uris":{"android":"levelo://app?vid=01861ad8-a8d7-4be6-816e-651927c87584","ios":"levelo://app?vid=01861ad8-a8d7-4be6-816e-651927c87584"},"vehicle_type_id":"4","last_reported":1751739163,"current_range_meters":0,"station_id":"","pricing_plan_id":"cebpf4jnsgd1na2vs0mg"},{"bike_id":"67d0c10b-fc6f-4a01-9f99-23feb00ed8d4","system_id":"levelo_inurba_marseille","lat":43.301458,"lon":5.374063,"is_reserved":false,"is_disabled":true,"rental_uris":{"android":"levelo://app?vid=67d0c10b-fc6f-4a01-9f99-23feb00ed8d4","ios":"levelo://app?vid=67d0c10b-fc6f-4a01-9f99-23feb00ed8d4"},"vehicle_type_id":"4","last_reported":1751739163,"current_range_meters":0,"station_id":"","pricing_plan_id":"cebpf4jnsgd1na2vs0mg"},{"bike_id":"374dc5fc-aac8-4da9-98b1-98e70c32d600","system_id":"levelo_inurba_marseille","lat":43.28226,"lon":5.3492,"is_reserved":false,"is_disabled":true,"rental_uris":{"android":"levelo://app?vid=374dc5fc-aac8-4da9-98b1-98e70c32d600","ios":"levelo://app?vid=374dc5fc-aac8-4da9-98b1-98e70c32d600"},"vehicle_type_id":"4","last_reported":1751739163,"current_range_meters":0,"station_id":"","pricing_plan_id":"cebpf4jnsgd1na2vs0mg"},{"bike_id":"f70f4eac-3f58-4e34-b450-f4227420bc3d","system_id":"levelo_inurba_marseille","lat":43.30542,"lon":5.39162,"is_reserved":false,"is_disabled":true,"rental_uris":{"android":"levelo://app?vid=f70f4eac-3f58-4e34-b450-f4227420bc3d","ios":"levelo://app?vid=f70f4eac-3f58-4e34-b450-f4227420bc3d"},"vehicle_type_id":"4","last_reported":1751739163,"current_range_meters":0,"station_id":"","pricing_plan_id":"cebpf4jnsgd1na2vs0mg"},{"bike_id":"9cf9a367-2367-434b-a40c-d11404a5ae25","system_id":"levelo_inurba_marseille","lat":43.31471,"lon":5.37302,"is_reserved":false,"is_disabled":true,"rental_uris":{"android":"levelo://app?vid=9cf9a367-2367-434b-a40c-d11404a5ae25","ios":"levelo://app?vid=9cf9a367-2367-434b-a40c-d11404a5ae25"},"vehicle_type_id":"4","last_reported":1751739163,"current_range_meters":0,"station_id":"ce4bgt12rcd13ifvqcd0","pricing_plan_id":"cebpf4jnsgd1na2vs0mg"},{"bike_id":"c7d02e7b-389c-4055-a2ad-bba8b8dd4603","system_id":"levelo_inurba_marseille","lat":43.32031,"lon":5.41436,"is_reserved":false,"is_disabled":true,"rental_uris":{"android":"levelo://app?vid=c7d02e7b-389c-4055-a2ad-bba8b8dd4603","ios":"levelo://app?vid=c7d02e7b-389c-4055-a2ad-bba8b8dd4603"},"vehicle_type_id":"4","last_reported":1751739163,"current_range_meters":0,"station_id":"ce4bh012rcd13ifvqd00","pricing_plan_id":"cebpf4jnsgd1na2vs0mg"},{"bike_id":"a6d23eb7-b0fa-4782-ac96-261cd9e26844","system_id":"levelo_inurba_marseille","lat":43.29229,"lon":5.40895,"is_reserved":false,"is_disabled":true,"rental_uris":{"android":"levelo://app?vid=a6d23eb7-b0fa-4782-ac96-261cd9e26844","ios":"levelo://app?vid=a6d23eb7-b0fa-4782-ac96-261cd9e26844"},"vehicle_type_id":"4","last_reported":1751739163,"current_range_meters":0,"station_id":"ce4bh192rcd13ifvqdc0","pricing_plan_id":"cebpf4jnsgd1na2vs0mg"},{"bike_id":"d5445517-4234-4d3d-8a07-5df09b51f5e9","system_id":"levelo_inurba_marseille","lat":43.28845,"lon":5.39307,"is_reserved":false,"is_disabled":true,"rental_uris":{"android":"levelo://app?vid=d5445517-4234-4d3d-8a07-5df09b51f5e9","ios":"levelo://app?vid=d5445517-4234-4d3d-8a07-5df09b51f5e9"},"vehicle_type_id":"4","last_reported":1751739163,"current_range_meters":0,"station_id":"ce4bh2p2rcd13ifvqdi0","pricing_plan_id":"cebpf4jnsgd1na2vs0mg"},{"bike_id":"ecdf00ec-0568-4ab4-9dac-ced31dd64be2","system_id":"levelo_inurba_marseille","lat":43.28963,"lon":5.39647,"is_reserved":false,"is_disabled":true,"rental_uris":{"android":"levelo://app?vid=ecdf00ec-0568-4ab4-9dac-ced31dd64be2","ios":"levelo://app?vid=ecdf00ec-0568-4ab4-9dac-ced31dd64be2"},"vehicle_type_id":"4","last_reported":1751739163,"current_range_meters":0,"station_id":"ce4bh3h2rcd13ifvqdn0","pricing_plan_id":"cebpf4jnsgd1na2vs0mg"},{"bike_id":"da2e1a70-5092-4191-af28-b53f428dcf3f","system_id":"levelo_inurba_marseille","lat":43.29529,"lon":5.39019,"is_reserved":false,"is_disabled":true,"rental_uris":{"android":"levelo://app?vid=da2e1a70-5092-4191-af28-b53f428dcf3f","ios":"levelo://app?vid=da2e1a70-5092-4191-af28-b53f428dcf3f"},"vehicle_type_id":"4","last_reported":1751739163,"current_range_meters":0,"station_id":"ce4bh3p2rcd13ifvqdp0","pricing_plan_id":"cebpf4jnsgd1na2vs0mg"},{"bike_id":"964655e1-49cf-4db9-918f-cb5a8b5bf900","system_id":"levelo_inurba_marseille","lat":43.29005,"lon":5.35611,"is_reserved":false,"is_disabled":true,"rental_uris":{"android":"levelo://app?vid=964655e1-49cf-4db9-918f-cb5a8b5bf900","ios":"levelo://app?vid=964655e1-49cf-4db9-918f-cb5a8b5bf900"},"vehicle_type_id":"4","last_reported":1751739163,"current_range_meters":0,"station_id":"ce4bhb92rcd13ifvqen0","pricing_plan_id":"cebpf4jnsgd1na2vs0mg"},{"bike_id":"1ffd7097-9067-4acc-9e1f-2ce8e76c5a41","system_id":"levelo_inurba_marseille","lat":43.27323,"lon":5.39108,"is_reserved":false,"is_disabled":true,"rental_uris":{"android":"levelo://app?vid=1ffd7097-9067-4acc-9e1f-2ce8e76c5a41","ios":"levelo://app?vid=1ffd7097-9067-4acc-9e1f-2ce8e76c5a41"},"vehicle_type_id":"4","last_reported":1751739163,"current_range_meters":0,"station_id":"ce4bhgp2rcd13ifvqfe0","pricing_plan_id":"cebpf4jnsgd1na2vs0mg"},{"bike_id":"51eae172-be13-41e1-a22e-960dbd0e843e","system_id":"levelo_inurba_marseille","lat":43.24386,"lon":5.37062,"is_reserved":false,"is_disabled":true,"rental_uris":{"android":"levelo://app?vid=51eae172-be13-41e1-a22e-960dbd0e843e","ios":"levelo://app?vid=51eae172-be13-41e1-a22e-960dbd0e843e"},"vehicle_type_id":"4","last_reported":1751739163,"current_range_meters":0,"station_id":"ce4bhhh2rcd13ifvqfk0","pricing_plan_id":"cebpf4jnsgd1na2vs0mg"},{"bike_id":"6297f5c8-b136-4085-b0a0-42d6f89aa798","system_id":"levelo_inurba_marseille","lat":43.27655,"lon":5.3888,"is_reserved":false,"is_disabled":true,"rental_uris":{"android":"levelo://app?vid=6297f5c8-b136-4085-b0a0-42d6f89aa798","ios":"levelo://app?vid=6297f5c8-b136-4085-b0a0-42d6f89aa798"},"vehicle_type_id":"4","last_reported":1751739163,"current_range_meters":0,"station_id":"ce4bhi12rcd13ifvqfo0","pricing_plan_id":"cebpf4jnsgd1na2vs0mg"},{"bike_id":"8cbba3b6-0cf0-42a1-9ca8-c0ebec5b57bd","system_id":"levelo_inurba_marseille","lat":43.241703,"lon":5.397307,"is_reserved":false,"is_disabled":true,"rental_uris":{"android":"levelo://app?vid=8cbba3b6-0cf0-42a1-9ca8-c0ebec5b57bd","ios":"levelo://app?vid=8cbba3b6-0cf0-42a1-9ca8-c0ebec5b57bd"},"vehicle_type_id":"4","last_reported":1751739163,"current_range_meters":0,"station_id":"ce4bhn12rcd13ifvqgpg","pricing_plan_id":"cebpf4jnsgd1na2vs0mg"},{"bike_id":"32a208f8-1a40-46bc-9c34-630578cc7fcc","system_id":"levelo_inurba_marseille","lat":43.28701,"lon":5.39979,"is_reserved":false,"is_disabled":true,"rental_uris":{"android":"levelo://app?vid=32a208f8-1a40-46bc-9c34-630578cc7fcc","ios":"levelo://app?vid=32a208f8-1a40-46bc-9c34-630578cc7fcc"},"vehicle_type_id":"4","last_reported":1751739163,"current_range_meters":0,"station_id":"ce4bho92rcd13ifvqh3g","pricing_plan_id":"cebpf4jnsgd1na2vs0mg"},{"bike_id":"0c49a7d6-f9db-4a6c-978f-71d3ca86d4a3","system_id":"levelo_inurba_marseille","lat":43.22512,"lon":5.34775,"is_reserved":false,"is_disabled":true,"rental_uris":{"android":"levelo://app?vid=0c49a7d6-f9db-4a6c-978f-71d3ca86d4a3","ios":"levelo://app?vid=0c49a7d6-f9db-4a6c-978f-71d3ca86d4a3"},"vehicle_type_id":"4","last_reported":1751739163,"current_range_meters":0,"station_id":"st_cvj5dfep6f1abm77gieg","pricing_plan_id":"cebpf4jnsgd1na2vs0mg"},{"bike_id":"0871bc16-cc07-4c2e-9620-33f76fcbbcbb","system_id":"levelo_inurba_marseille","lat":43.31038,"lon":5.40088,"is_reserved":false,"is_disabled":true,"rental_uris":{"android":"levelo://app?vid=0871bc16-cc07-4c2e-9620-33f76fcbbcbb","ios":"levelo://app?vid=0871bc16-cc07-4c2e-9620-33f76fcbbcbb"},"vehicle_type_id":"4","last_reported":1751739163,"current_range_meters":400,"station_id":"","pricing_plan_id":"cebpf4jnsgd1na2vs0mg"},{"bike_id":"7d700fe5-59ec-4d47-b8c2-c85d7cc322a5","system_id":"levelo_inurba_marseille","lat":43.285585,"lon":5.377588,"is_reserved":false,"is_disabled":true,"rental_uris":{"android":"levelo://app?vid=7d700fe5-59ec-4d47-b8c2-c85d7cc322a5","ios":"levelo://app?vid=7d700fe5-59ec-4d47-b8c2-c85d7cc322a5"},"vehicle_type_id":"4","last_reported":1751739163,"current_range_meters":800,"station_id":"","pricing_plan_id":"cebpf4jnsgd1na2vs0mg"},{"bike_id":"e26ba497-efc7-4420-b8c5-9fa5e27f2ce4","system_id":"levelo_inurba_marseille","lat":43.31373,"lon":5.37073,"is_reserved":false,"is_disabled":true,"rental_uris":{"android":"levelo://app?vid=e26ba497-efc7-4420-b8c5-9fa5e27f2ce4","ios":"levelo://app?vid=e26ba497-efc7-4420-b8c5-9fa5e27f2ce4"},"vehicle_type_id":"4","last_reported":1751739163,"current_range_meters":800,"station_id":"","pricing_plan_id":"cebpf4jnsgd1na2vs0mg"},{"bike_id":"8507afc1-924b-4b35-9e5d-a290654a755a","system_id":"levelo_inurba_marseille","lat":43.29877,"lon":5.3973,"is_reserved":false,"is_disabled":true,"rental_uris":{"android":"levelo://app?vid=8507afc1-924b-4b35-9e5d-a290654a755a","ios":"levelo://app?vid=8507afc1-924b-4b35-9e5d-a290654a755a"},"vehicle_type_id":"4","last_reported":1751739163,"current_range_meters":800,"station_id":"ce4bh0h2rcd13ifvqd50","pricing_plan_id":"cebpf4jnsgd1na2vs0mg"},{"bike_id":"eefdc968-1545-4a2a-8dbd-3d9736b142f2","system_id":"levelo_inurba_marseille","lat":43.309347,"lon":5.39037,"is_reserved":false,"is_disabled":true,"rental_uris":{"android":"levelo://app?vid=eefdc968-1545-4a2a-8dbd-3d9736b142f2","ios":"levelo://app?vid=eefdc968-1545-4a2a-8dbd-3d9736b142f2"},"vehicle_type_id":"4","last_reported":1751739163,"current_range_meters":1200,"station_id":"ce4bgup2rcd13ifvqco0","pricing_plan_id":"cebpf4jnsgd1na2vs0mg"},{"bike_id":"f2637696-8700-4a20-80fa-bc39f0441a16","system_id":"levelo_inurba_marseille","lat":43.30075,"lon":5.39086,"is_reserved":false,"is_disabled":true,"rental_uris":{"android":"levelo://app?vid=f2637696-8700-4a20-80fa-bc39f0441a16","ios":"levelo://app?vid=f2637696-8700-4a20-80fa-bc39f0441a16"},"vehicle_type_id":"4","last_reported":1751739163,"current_range_meters":1200,"station_id":"ce4bh192rcd13ifvqdb0","pricing_plan_id":"cebpf4jnsgd1na2vs0mg"},{"bike_id":"ed5700af-d862-43c1-b1fa-dbdb3333cb85","system_id":"levelo_inurba_marseille","lat":43.27212,"lon":5.39167,"is_reserved":false,"is_disabled":true,"rental_uris":{"android":"levelo://app?vid=ed5700af-d862-43c1-b1fa-dbdb3333cb85","ios":"levelo://app?vid=ed5700af-d862-43c1-b1fa-dbdb3333cb85"},"vehicle_type_id":"4","last_reported":1751739163,"current_range_meters":1200,"station_id":"ce4bhhp2rcd13ifvqfm0","pricing_plan_id":"cebpf4jnsgd1na2vs0mg"},{"bike_id":"9bfc7d3d-4e60-4f8a-9c32-ef3d0e77ec5b","system_id":"levelo_inurba_marseille","lat":43.21198,"lon":5.35061,"is_reserved":false,"is_disabled":true,"rental_uris":{"android":"levelo://app?vid=9bfc7d3d-4e60-4f8a-9c32-ef3d0e77ec5b","ios":"levelo://app?vid=9bfc7d3d-4e60-4f8a-9c32-ef3d0e77ec5b"},"vehicle_type_id":"4","last_reported":1751739163,"current_range_meters":1200,"station_id":"st_cvj6sg6p6f1abm77japg","pricing_plan_id":"cebpf4jnsgd1na2vs0mg"},{"bike_id":"ef35c4b7-961b-4fd0-99a6-b2277ff37c61","system_id":"levelo_inurba_marseille","lat":43.2951,"lon":5.39402,"is_reserved":false,"is_disabled":true,"rental_uris":{"android":"levelo://app?vid=ef35c4b7-961b-4fd0-99a6-b2277ff37c61","ios":"levelo://app?vid=ef35c4b7-961b-4fd0-99a6-b2277ff37c61"},"vehicle_type_id":"4","last_reported":1751739163,"current_range_meters":1600,"station_id":"ce4bh292rcd13ifvqdf0","pricing_plan_id":"cebpf4jnsgd1na2vs0mg"},{"bike_id":"3802593f-b206-4eea-8896-4424139d9ea3","system_id":"levelo_inurba_marseille","lat":43.283966,"lon":5.349844,"is_reserved":false,"is_disabled":true,"rental_uris":{"android":"levelo://app?vid=3802593f-b206-4eea-8896-4424139d9ea3","ios":"levelo://app?vid=3802593f-b206-4eea-8896-4424139d9ea3"},"vehicle_type_id":"4","last_reported":1751739163,"current_range_meters":1600,"station_id":"ce4bh692rcd13ifvqea0","pricing_plan_id":"cebpf4jnsgd1na2vs0mg"},{"bike_id":"d45750a9-f3d9-472b-93a3-e8a96a529116","system_id":"levelo_inurba_marseille","lat":43.2844,"lon":5.35885,"is_reserved":false,"is_disabled":false,"rental_uris":{"android":"levelo://app?vid=d45750a9-f3d9-472b-93a3-e8a96a529116","ios":"levelo://app?vid=d45750a9-f3d9-472b-93a3-e8a96a529116"},"vehicle_type_id":"4","last_reported":1751739163,"current_range_meters":1600,"station_id":"ce4bhah2rcd13ifvqei0","pricing_plan_id":"cebpf4jnsgd1na2vs0mg"},{"bike_id":"7293903b-5ff9-48d9-8c18-b1fa5c6a8e8f","system_id":"levelo_inurba_marseille","lat":43.27921,"lon":5.39578,"is_reserved":false,"is_disabled":true,"rental_uris":{"android":"levelo://app?vid=7293903b-5ff9-48d9-8c18-b1fa5c6a8e8f","ios":"levelo://app?vid=7293903b-5ff9-48d9-8c18-b1fa5c6a8e8f"},"vehicle_type_id":"4","last_reported":1751739163,"current_range_meters":1600,"station_id":"ce4bhf92rcd13ifvqf40","pricing_plan_id":"cebpf4jnsgd1na2vs0mg"},{"bike_id":"cbabb6e1-6032-4260-95e0-b27d315f98dd","system_id":"levelo_inurba_marseille","lat":43.28074,"lon":5.37796,"is_reserved":false,"is_disabled":true,"rental_uris":{"android":"levelo://app?vid=cbabb6e1-6032-4260-95e0-b27d315f98dd","ios":"levelo://app?vid=cbabb6e1-6032-4260-95e0-b27d315f98dd"},"vehicle_type_id":"4","last_reported":1751739163,"current_range_meters":2000,"station_id":"ce4bha12rcd13ifvqee0","pricing_plan_id":"cebpf4jnsgd1na2vs0mg"},{"bike_id":"ef424969-9953-4d0c-a01f-f0a86bd7bfe9","system_id":"levelo_inurba_marseille","lat":43.27813,"lon":5.40732,"is_reserved":false,"is_disabled":true,"rental_uris":{"android":"levelo://app?vid=ef424969-9953-4d0c-a01f-f0a86bd7bfe9","ios":"levelo://app?vid=ef424969-9953-4d0c-a01f-f0a86bd7bfe9"},"vehicle_type_id":"4","last_reported":1751739163,"current_range_meters":2000,"station_id":"ce4bhnh2rcd13ifvqgtg","pricing_plan_id":"cebpf4jnsgd1na2vs0mg"},{"bike_id":"60abe387-d356-454c-91f4-92dc541e66be","system_id":"levelo_inurba_marseille","lat":43.32364,"lon":5.38882,"is_reserved":false,"is_disabled":true,"rental_uris":{"android":"levelo://app?vid=60abe387-d356-454c-91f4-92dc541e66be","ios":"levelo://app?vid=60abe387-d356-454c-91f4-92dc541e66be"},"vehicle_type_id":"4","last_reported":1751739163,"current_range_meters":2000,"station_id":"ce4bhqp2rcd13ifvqhog","pricing_plan_id":"cebpf4jnsgd1na2vs0mg"},{"bike_id":"8a76c6e5-f878-4e6f-9f36-72d0e25b5334","system_id":"levelo_inurba_marseille","lat":43.24069,"lon":5.37764,"is_reserved":false,"is_disabled":false,"rental_uris":{"android":"levelo://app?vid=8a76c6e5-f878-4e6f-9f36-72d0e25b5334","ios":"levelo://app?vid=8a76c6e5-f878-4e6f-9f36-72d0e25b5334"},"vehicle_type_id":"4","last_reported":1751739163,"current_range_meters":2800,"station_id":"ce4bhnp2rcd13ifvqgvg","pricing_plan_id":"cebpf4jnsgd1na2vs0mg"},{"bike_id":"cb04e5da-46c1-4566-88f6-e9814de2c94b","system_id":"levelo_inurba_marseille","lat":43.309452,"lon":5.390392,"is_reserved":false,"is_disabled":false,"rental_uris":{"android":"levelo://app?vid=cb04e5da-46c1-4566-88f6-e9814de2c94b","ios":"levelo://app?vid=cb04e5da-46c1-4566-88f6-e9814de2c94b"},"vehicle_type_id":"4","last_reported":1751739163,"current_range_meters":3200,"station_id":"","pricing_plan_id":"cebpf4jnsgd1na2vs0mg"},{"bike_id":"2b75fd2e-0020-40bd-a6fa-c7cf7a1963ab","system_id":"levelo_inurba_marseille","lat":43.2996,"lon":5.38503,"is_reserved":false,"is_disabled":false,"rental_uris":{"android":"levelo://app?vid=2b75fd2e-0020-40bd-a6fa-c7cf7a1963ab","ios":"levelo://app?vid=2b75fd2e-0020-40bd-a6fa-c7cf7a1963ab"},"vehicle_type_id":"4","last_reported":1751739163,"current_range_meters":3200,"station_id":"ce4bgj92rcd13ifvqbd0","pricing_plan_id":"cebpf4jnsgd1na2vs0mg"},{"bike_id":"f6ac2ca1-a3ac-4f58-b1a1-b74be8a76990","system_id":"levelo_inurba_marseille","lat":43.29909,"lon":5.43661,"is_reserved":false,"is_disabled":false,"rental_uris":{"android":"levelo://app?vid=f6ac2ca1-a3ac-4f58-b1a1-b74be8a76990","ios":"levelo://app?vid=f6ac2ca1-a3ac-4f58-b1a1-b74be8a76990"},"vehicle_type_id":"4","last_reported":1751739163,"current_range_meters":3200,"station_id":"ce4bhpp2rcd13ifvqhfg","pricing_plan_id":"cebpf4jnsgd1na2vs0mg"},{"bike_id":"d1444e94-489f-4fa9-9e06-4bdf6ba47149","system_id":"levelo_inurba_marseille","lat":43.22503,"lon":5.34783,"is_reserved":false,"is_disabled":false,"rental_uris":{"android":"levelo://app?vid=d1444e94-489f-4fa9-9e06-4bdf6ba47149","ios":"levelo://app?vid=d1444e94-489f-4fa9-9e06-4bdf6ba47149"},"vehicle_type_id":"4","last_reported":1751739163,"current_range_meters":3200,"station_id":"st_cvj5dfep6f1abm77gieg","pricing_plan_id":"cebpf4jnsgd1na2vs0mg"},{"bike_id":"fe717e46-f12f-4b17-8cfd-997b68cc71b0","system_id":"levelo_inurba_marseille","lat":43.301508,"lon":5.374262,"is_reserved":false,"is_disabled":false,"rental_uris":{"android":"levelo://app?vid=fe717e46-f12f-4b17-8cfd-997b68cc71b0","ios":"levelo://app?vid=fe717e46-f12f-4b17-8cfd-997b68cc71b0"},"vehicle_type_id":"4","last_reported":1751739163,"current_range_meters":3600,"station_id":"ce4bgs92rcd13ifvqcc0","pricing_plan_id":"cebpf4jnsgd1na2vs0mg"},{"bike_id":"24fd47a0-f198-4f7d-9ea9-18fa08c39b58","system_id":"levelo_inurba_marseille","lat":43.3135,"lon":5.38504,"is_reserved":false,"is_disabled":false,"rental_uris":{"android":"levelo://app?vid=24fd47a0-f198-4f7d-9ea9-18fa08c39b58","ios":"levelo://app?vid=24fd47a0-f198-4f7d-9ea9-18fa08c39b58"},"vehicle_type_id":"4","last_reported":1751739163,"current_range_meters":3600,"station_id":"ce4bgt92rcd13ifvqcf0","pricing_plan_id":"cebpf4jnsgd1na2vs0mg"},{"bike_id":"bad87b4b-3dce-4c2f-b72c-0a953bb467fc","system_id":"levelo_inurba_marseille","lat":43.30946,"lon":5.39034,"is_reserved":false,"is_disabled":false,"rental_uris":{"android":"levelo://app?vid=bad87b4b-3dce-4c2f-b72c-0a953bb467fc","ios":"levelo://app?vid=bad87b4b-3dce-4c2f-b72c-0a953bb467fc"},"vehicle_type_id":"4","last_reported":1751739163,"current_range_meters":3600,"station_id":"ce4bgup2rcd13ifvqco0","pricing_plan_id":"cebpf4jnsgd1na2vs0mg"},{"bike_id":"4d125619-9739-4344-93c5-f3fc3255d3b3","system_id":"levelo_inurba_marseille","lat":43.23183,"lon":5.3998,"is_reserved":false,"is_disabled":false,"rental_uris":{"android":"levelo://app?vid=4d125619-9739-4344-93c5-f3fc3255d3b3","ios":"levelo://app?vid=4d125619-9739-4344-93c5-f3fc3255d3b3"},"vehicle_type_id":"4","last_reported":1751739163,"current_range_meters":3600,"station_id":"ce4bhn12rcd13ifvqgqg","pricing_plan_id":"cebpf4jnsgd1na2vs0mg"},{"bike_id":"c875a16b-9dfc-4e14-8214-9914c1b11e28","system_id":"levelo_inurba_marseille","lat":43.26945,"lon":5.40258,"is_reserved":false,"is_disabled":false,"rental_uris":{"android":"levelo://app?vid=c875a16b-9dfc-4e14-8214-9914c1b11e28","ios":"levelo://app?vid=c875a16b-9dfc-4e14-8214-9914c1b11e28"},"vehicle_type_id":"4","last_reported":1751739163,"current_range_meters":3600,"station_id":"cjm6bp8fraef2m0cb0m0","pricing_plan_id":"cebpf4jnsgd1na2vs0mg"},{"bike_id":"fae31c04-3107-4357-893e-60a22bdf876c","system_id":"levelo_inurba_marseille","lat":43.29639,"lon":5.40604,"is_reserved":false,"is_disabled":false,"rental_uris":{"android":"levelo://app?vid=fae31c04-3107-4357-893e-60a22bdf876c","ios":"levelo://app?vid=fae31c04-3107-4357-893e-60a22bdf876c"},"vehicle_type_id":"4","last_reported":1751739163,"current_range_meters":4000,"station_id":"ce4bh0h2rcd13ifvqd60","pricing_plan_id":"cebpf4jnsgd1na2vs0mg"},{"bike_id":"2a4d7b2f-ebfb-464d-8ddd-fc82c2e9f4f8","system_id":"levelo_inurba_marseille","lat":43.2796,"lon":5.38729,"is_reserved":false,"is_disabled":false,"rental_uris":{"android":"levelo://app?vid=2a4d7b2f-ebfb-464d-8ddd-fc82c2e9f4f8","ios":"levelo://app?vid=2a4d7b2f-ebfb-464d-8ddd-fc82c2e9f4f8"},"vehicle_type_id":"4","last_reported":1751739163,"current_range_meters":4000,"station_id":"ce4bhg12rcd13ifvqf80","pricing_plan_id":"cebpf4jnsgd1na2vs0mg"},{"bike_id":"220a97c7-7a1f-4a4c-8f04-bd7030b29edc","system_id":"levelo_inurba_marseille","lat":43.29038,"lon":5.37566,"is_reserved":false,"is_disabled":false,"rental_uris":{"android":"levelo://app?vid=220a97c7-7a1f-4a4c-8f04-bd7030b29edc","ios":"levelo://app?vid=220a97c7-7a1f-4a4c-8f04-bd7030b29edc"},"vehicle_type_id":"4","last_reported":1751739163,"current_range_meters":4400,"station_id":"","pricing_plan_id":"cebpf4jnsgd1na2vs0mg"},{"bike_id":"f36acb77-71c8-45f8-a6ec-bba900bb3e48","system_id":"levelo_inurba_marseille","lat":43.29257,"lon":5.36846,"is_reserved":false,"is_disabled":false,"rental_uris":{"android":"levelo://app?vid=f36acb77-71c8-45f8-a6ec-bba900bb3e48","ios":"levelo://app?vid=f36acb77-71c8-45f8-a6ec-bba900bb3e48"},"vehicle_type_id":"4","last_reported":1751739163,"current_range_meters":4400,"station_id":"ce4bhbp2rcd13ifvqesg","pricing_plan_id":"cebpf4jnsgd1na2vs0mg"},{"bike_id":"2cdb5783-f4c4-4d47-b144-1fd1732ea884","system_id":"levelo_inurba_marseille","lat":43.26556,"lon":5.37289,"is_reserved":false,"is_disabled":false,"rental_uris":{"android":"levelo://app?vid=2cdb5783-f4c4-4d47-b144-1fd1732ea884","ios":"levelo://app?vid=2cdb5783-f4c4-4d47-b144-1fd1732ea884"},"vehicle_type_id":"4","last_reported":1751739163,"current_range_meters":4400,"station_id":"ce4bhg12rcd13ifvqf70","pricing_plan_id":"cebpf4jnsgd1na2vs0mg"},{"bike_id":"19343d0b-95b1-432d-8316-4a72c741e2de","system_id":"levelo_inurba_marseille","lat":43.29289,"lon":5.37461,"is_reserved":false,"is_disabled":false,"rental_uris":{"android":"levelo://app?vid=19343d0b-95b1-432d-8316-4a72c741e2de","ios":"levelo://app?vid=19343d0b-95b1-432d-8316-4a72c741e2de"},"vehicle_type_id":"4","last_reported":1751739163,"current_range_meters":4800,"station_id":"ce4bgi12rcd13ifvqb70","pricing_plan_id":"cebpf4jnsgd1na2vs0mg"},{"bike_id":"dc51abf7-892b-4b80-a7fa-4cc80e062177","system_id":"levelo_inurba_marseille","lat":43.24992,"lon":5.3893,"is_reserved":false,"is_disabled":false,"rental_uris":{"android":"levelo://app?vid=dc51abf7-892b-4b80-a7fa-4cc80e062177","ios":"levelo://app?vid=dc51abf7-892b-4b80-a7fa-4cc80e062177"},"vehicle_type_id":"4","last_reported":1751739163,"current_range_meters":4800,"station_id":"ce4bhgp2rcd13ifvqfd0","pricing_plan_id":"cebpf4jnsgd1na2vs0mg"},{"bike_id":"3dd4d0a6-5ed6-4d9c-b2b9-001d1b4b542f","system_id":"levelo_inurba_marseille","lat":43.24385,"lon":5.37062,"is_reserved":false,"is_disabled":false,"rental_uris":{"android":"levelo://app?vid=3dd4d0a6-5ed6-4d9c-b2b9-001d1b4b542f","ios":"levelo://app?vid=3dd4d0a6-5ed6-4d9c-b2b9-001d1b4b542f"},"vehicle_type_id":"4","last_reported":1751739163,"current_range_meters":5600,"station_id":"ce4bhhh2rcd13ifvqfk0","pricing_plan_id":"cebpf4jnsgd1na2vs0mg"},{"bike_id":"070c8116-c05a-4b93-afdf-fd444d1ec5d5","system_id":"levelo_inurba_marseille","lat":43.27177,"lon":5.40986,"is_reserved":false,"is_disabled":false,"rental_uris":{"android":"levelo://app?vid=070c8116-c05a-4b93-afdf-fd444d1ec5d5","ios":"levelo://app?vid=070c8116-c05a-4b93-afdf-fd444d1ec5d5"},"vehicle_type_id":"4","last_reported":1751739163,"current_range_meters":5600,"station_id":"ce4bhl12rcd13ifvqgf0","pricing_plan_id":"cebpf4jnsgd1na2vs0mg"},{"bike_id":"15ce5cc8-b52c-441c-827c-6eed58e5d5f6","system_id":"levelo_inurba_marseille","lat":43.30181,"lon":5.38253,"is_reserved":false,"is_disabled":false,"rental_uris":{"android":"levelo://app?vid=15ce5cc8-b52c-441c-827c-6eed58e5d5f6","ios":"levelo://app?vid=15ce5cc8-b52c-441c-827c-6eed58e5d5f6"},"vehicle_type_id":"4","last_reported":1751739163,"current_range_meters":6000,"station_id":"","pricing_plan_id":"cebpf4jnsgd1na2vs0mg"},{"bike_id":"ba154a12-11bd-42a5-958a-5992f5d043d1","system_id":"levelo_inurba_marseille","lat":43.30516,"lon":5.37127,"is_reserved":false,"is_disabled":false,"rental_uris":{"android":"levelo://app?vid=ba154a12-11bd-42a5-958a-5992f5d043d1","ios":"levelo://app?vid=ba154a12-11bd-42a5-958a-5992f5d043d1"},"vehicle_type_id":"4","last_reported":1751739163,"current_range_meters":6400,"station_id":"","pricing_plan_id":"cebpf4jnsgd1na2vs0mg"},{"bike_id":"728fa38a-7323-445e-ad3e-bf3cbeafeed1","system_id":"levelo_inurba_marseille","lat":43.31371,"lon":5.385,"is_reserved":false,"is_disabled":false,"rental_uris":{"android":"levelo://app?vid=728fa38a-7323-445e-ad3e-bf3cbeafeed1","ios":"levelo://app?vid=728fa38a-7323-445e-ad3e-bf3cbeafeed1"},"vehicle_type_id":"4","last_reported":1751739163,"current_range_meters":6400,"station_id":"ce4bgt92rcd13ifvqcf0","pricing_plan_id":"cebpf4jnsgd1na2vs0mg"},{"bike_id":"4b50d92d-1e8a-41b9-849b-e1952fd66fab","system_id":"levelo_inurba_marseille","lat":43.28722,"lon":5.37378,"is_reserved":false,"is_disabled":false,"rental_uris":{"android":"levelo://app?vid=4b50d92d-1e8a-41b9-849b-e1952fd66fab","ios":"levelo://app?vid=4b50d92d-1e8a-41b9-849b-e1952fd66fab"},"vehicle_type_id":"4","last_reported":1751739163,"current_range_meters":6400,"station_id":"ce4bh3p2rcd13ifvqdq0","pricing_plan_id":"cebpf4jnsgd1na2vs0mg"},{"bike_id":"31c2b72b-836e-4e62-b270-680bcef6d063","system_id":"levelo_inurba_marseille","lat":43.28612,"lon":5.37058,"is_reserved":false,"is_disabled":false,"rental_uris":{"android":"levelo://app?vid=31c2b72b-836e-4e62-b270-680bcef6d063","ios":"levelo://app?vid=31c2b72b-836e-4e62-b270-680bcef6d063"},"vehicle_type_id":"4","last_reported":1751739163,"current_range_meters":6400,"station_id":"ce4bht12rcd13ifvqi60","pricing_plan_id":"cebpf4jnsgd1na2vs0mg"},{"bike_id":"0c4b7fdb-b39e-49b3-a2b0-ae3d0f43e89d","system_id":"levelo_inurba_marseille","lat":43.32903,"lon":5.40532,"is_reserved":false,"is_disabled":false,"rental_uris":{"android":"levelo://app?vid=0c4b7fdb-b39e-49b3-a2b0-ae3d0f43e89d","ios":"levelo://app?vid=0c4b7fdb-b39e-49b3-a2b0-ae3d0f43e89d"},"vehicle_type_id":"4","last_reported":1751739163,"current_range_meters":6800,"station_id":"","pricing_plan_id":"cebpf4jnsgd1na2vs0mg"},{"bike_id":"cde5c8c2-9a5e-4f33-95d8-9d3fc471bf9f","system_id":"levelo_inurba_marseille","lat":43.28706,"lon":5.39983,"is_reserved":false,"is_disabled":false,"rental_uris":{"android":"levelo://app?vid=cde5c8c2-9a5e-4f33-95d8-9d3fc471bf9f","ios":"levelo://app?vid=cde5c8c2-9a5e-4f33-95d8-9d3fc471bf9f"},"vehicle_type_id":"4","last_reported":1751739163,"current_range_meters":6800,"station_id":"ce4bho92rcd13ifvqh3g","pricing_plan_id":"cebpf4jnsgd1na2vs0mg"},{"bike_id":"73354d7e-0243-499c-83ae-3962ab22df0d","system_id":"levelo_inurba_marseille","lat":43.31329,"lon":5.39692,"is_reserved":false,"is_disabled":false,"rental_uris":{"android":"levelo://app?vid=73354d7e-0243-499c-83ae-3962ab22df0d","ios":"levelo://app?vid=73354d7e-0243-499c-83ae-3962ab22df0d"},"vehicle_type_id":"4","last_reported":1751739163,"current_range_meters":7200,"station_id":"ce4bgvp2rcd13ifvqcu0","pricing_plan_id":"cebpf4jnsgd1na2vs0mg"},{"bike_id":"6cf5855e-0f7f-4377-9ff3-b50aed4c16d1","system_id":"levelo_inurba_marseille","lat":43.28657,"lon":5.38668,"is_reserved":false,"is_disabled":false,"rental_uris":{"android":"levelo://app?vid=6cf5855e-0f7f-4377-9ff3-b50aed4c16d1","ios":"levelo://app?vid=6cf5855e-0f7f-4377-9ff3-b50aed4c16d1"},"vehicle_type_id":"4","last_reported":1751739163,"current_range_meters":7200,"station_id":"ce4bh492rcd13ifvqdug","pricing_plan_id":"cebpf4jnsgd1na2vs0mg"},{"bike_id":"89f09daa-2c12-4646-bcc5-a98fb48b41f9","system_id":"levelo_inurba_marseille","lat":43.32293,"lon":5.38277,"is_reserved":false,"is_disabled":false,"rental_uris":{"android":"levelo://app?vid=89f09daa-2c12-4646-bcc5-a98fb48b41f9","ios":"levelo://app?vid=89f09daa-2c12-4646-bcc5-a98fb48b41f9"},"vehicle_type_id":"4","last_reported":1751739163,"current_range_meters":7200,"station_id":"ce4bhr12rcd13ifvqhqg","pricing_plan_id":"cebpf4jnsgd1na2vs0mg"},{"bike_id":"8380f630-45c7-4cdf-9576-f907a486cab1","system_id":"levelo_inurba_marseille","lat":43.31464,"lon":5.37287,"is_reserved":false,"is_disabled":false,"rental_uris":{"android":"levelo://app?vid=8380f630-45c7-4cdf-9576-f907a486cab1","ios":"levelo://app?vid=8380f630-45c7-4cdf-9576-f907a486cab1"},"vehicle_type_id":"4","last_reported":1751739163,"current_range_meters":8000,"station_id":"","pricing_plan_id":"cebpf4jnsgd1na2vs0mg"},{"bike_id":"6917bed5-c21f-48c3-870d-5408dab99803","system_id":"levelo_inurba_marseille","lat":43.29708,"lon":5.36891,"is_reserved":false,"is_disabled":false,"rental_uris":{"android":"levelo://app?vid=6917bed5-c21f-48c3-870d-5408dab99803","ios":"levelo://app?vid=6917bed5-c21f-48c3-870d-5408dab99803"},"vehicle_type_id":"4","last_reported":1751739163,"current_range_meters":8000,"station_id":"","pricing_plan_id":"cebpf4jnsgd1na2vs0mg"},{"bike_id":"e3f4aa73-be32-430f-9bdc-5a3766ddd2cb","system_id":"levelo_inurba_marseille","lat":43.279812,"lon":5.387231,"is_reserved":false,"is_disabled":false,"rental_uris":{"android":"levelo://app?vid=e3f4aa73-be32-430f-9bdc-5a3766ddd2cb","ios":"levelo://app?vid=e3f4aa73-be32-430f-9bdc-5a3766ddd2cb"},"vehicle_type_id":"4","last_reported":1751739163,"current_range_meters":8000,"station_id":"ce4bhg12rcd13ifvqf80","pricing_plan_id":"cebpf4jnsgd1na2vs0mg"},{"bike_id":"5c59c7e1-f612-4eae-893d-61b4e0ad541e","system_id":"levelo_inurba_marseille","lat":43.25578,"lon":5.38229,"is_reserved":false,"is_disabled":false,"rental_uris":{"android":"levelo://app?vid=5c59c7e1-f612-4eae-893d-61b4e0ad541e","ios":"levelo://app?vid=5c59c7e1-f612-4eae-893d-61b4e0ad541e"},"vehicle_type_id":"4","last_reported":1751739163,"current_range_meters":8000,"station_id":"ce4bhih2rcd13ifvqfs0","pricing_plan_id":"cebpf4jnsgd1na2vs0mg"},{"bike_id":"e44a587a-de15-4c55-a22d-ac775ae9b5cc","system_id":"levelo_inurba_marseille","lat":43.23151,"lon":5.4371,"is_reserved":false,"is_disabled":false,"rental_uris":{"android":"levelo://app?vid=e44a587a-de15-4c55-a22d-ac775ae9b5cc","ios":"levelo://app?vid=e44a587a-de15-4c55-a22d-ac775ae9b5cc"},"vehicle_type_id":"4","last_reported":1751739163,"current_range_meters":8000,"station_id":"ce4bhmp2rcd13ifvqgog","pricing_plan_id":"cebpf4jnsgd1na2vs0mg"},{"bike_id":"2ffeba7a-8316-4052-8019-91454da58cbe","system_id":"levelo_inurba_marseille","lat":43.26994,"lon":5.42016,"is_reserved":false,"is_disabled":false,"rental_uris":{"android":"levelo://app?vid=2ffeba7a-8316-4052-8019-91454da58cbe","ios":"levelo://app?vid=2ffeba7a-8316-4052-8019-91454da58cbe"},"vehicle_type_id":"4","last_reported":1751739163,"current_range_meters":8400,"station_id":"","pricing_plan_id":"cebpf4jnsgd1na2vs0mg"},{"bike_id":"9308aef7-de9b-49d0-8890-5d1711d04a77","system_id":"levelo_inurba_marseille","lat":43.295949,"lon":5.38101,"is_reserved":false,"is_disabled":false,"rental_uris":{"android":"levelo://app?vid=9308aef7-de9b-49d0-8890-5d1711d04a77","ios":"levelo://app?vid=9308aef7-de9b-49d0-8890-5d1711d04a77"},"vehicle_type_id":"4","last_reported":1751739163,"current_range_meters":8400,"station_id":"","pricing_plan_id":"cebpf4jnsgd1na2vs0mg"},{"bike_id":"646b9224-0f1d-4ae4-a5db-5991bd2702c3","system_id":"levelo_inurba_marseille","lat":43.30275,"lon":5.37715,"is_reserved":false,"is_disabled":false,"rental_uris":{"android":"levelo://app?vid=646b9224-0f1d-4ae4-a5db-5991bd2702c3","ios":"levelo://app?vid=646b9224-0f1d-4ae4-a5db-5991bd2702c3"},"vehicle_type_id":"4","last_reported":1751739163,"current_range_meters":8400,"station_id":"ce4bguh2rcd13ifvqcj0","pricing_plan_id":"cebpf4jnsgd1na2vs0mg"},{"bike_id":"371edb06-dc3d-43bb-8c9f-119f7b22ba75","system_id":"levelo_inurba_marseille","lat":43.309453,"lon":5.390254,"is_reserved":false,"is_disabled":false,"rental_uris":{"android":"levelo://app?vid=371edb06-dc3d-43bb-8c9f-119f7b22ba75","ios":"levelo://app?vid=371edb06-dc3d-43bb-8c9f-119f7b22ba75"},"vehicle_type_id":"4","last_reported":1751739163,"current_range_meters":8400,"station_id":"ce4bgup2rcd13ifvqco0","pricing_plan_id":"cebpf4jnsgd1na2vs0mg"},{"bike_id":"fb33dc82-30b8-47d4-aa6b-7bfa41d51f77","system_id":"levelo_inurba_marseille","lat":43.286676,"lon":5.386706,"is_reserved":false,"is_disabled":false,"rental_uris":{"android":"levelo://app?vid=fb33dc82-30b8-47d4-aa6b-7bfa41d51f77","ios":"levelo://app?vid=fb33dc82-30b8-47d4-aa6b-7bfa41d51f77"},"vehicle_type_id":"4","last_reported":1751739163,"current_range_meters":8400,"station_id":"ce4bh492rcd13ifvqdug","pricing_plan_id":"cebpf4jnsgd1na2vs0mg"},{"bike_id":"6b0a1fd8-d9c6-42b7-8aee-05d9231cf95a","system_id":"levelo_inurba_marseille","lat":43.29217,"lon":5.39993,"is_reserved":false,"is_disabled":false,"rental_uris":{"android":"levelo://app?vid=6b0a1fd8-d9c6-42b7-8aee-05d9231cf95a","ios":"levelo://app?vid=6b0a1fd8-d9c6-42b7-8aee-05d9231cf95a"},"vehicle_type_id":"4","last_reported":1751739163,"current_range_meters":8800,"station_id":"","pricing_plan_id":"cebpf4jnsgd1na2vs0mg"},{"bike_id":"1269e355-1241-4a57-8c8f-f90806491ae6","system_id":"levelo_inurba_marseille","lat":43.29696,"lon":5.36613,"is_reserved":false,"is_disabled":false,"rental_uris":{"android":"levelo://app?vid=1269e355-1241-4a57-8c8f-f90806491ae6","ios":"levelo://app?vid=1269e355-1241-4a57-8c8f-f90806491ae6"},"vehicle_type_id":"4","last_reported":1751739163,"current_range_meters":8800,"station_id":"ce4bgn12rcd13ifvqbt0","pricing_plan_id":"cebpf4jnsgd1na2vs0mg"},{"bike_id":"9efacb7c-29d5-473e-aafb-850ce3b32191","system_id":"levelo_inurba_marseille","lat":43.3133,"lon":5.39689,"is_reserved":false,"is_disabled":false,"rental_uris":{"android":"levelo://app?vid=9efacb7c-29d5-473e-aafb-850ce3b32191","ios":"levelo://app?vid=9efacb7c-29d5-473e-aafb-850ce3b32191"},"vehicle_type_id":"4","last_reported":1751739163,"current_range_meters":8800,"station_id":"ce4bgvp2rcd13ifvqcu0","pricing_plan_id":"cebpf4jnsgd1na2vs0mg"},{"bike_id":"ce9a6b88-00b3-44c1-89d8-903e71ada96d","system_id":"levelo_inurba_marseille","lat":43.30884,"lon":5.39625,"is_reserved":false,"is_disabled":false,"rental_uris":{"android":"levelo://app?vid=ce9a6b88-00b3-44c1-89d8-903e71ada96d","ios":"levelo://app?vid=ce9a6b88-00b3-44c1-89d8-903e71ada96d"},"vehicle_type_id":"4","last_reported":1751739163,"current_range_meters":8800,"station_id":"ce4bh012rcd13ifvqcv0","pricing_plan_id":"cebpf4jnsgd1na2vs0mg"},{"bike_id":"4ef1e5a3-790c-45a8-b059-8cb8b3a6a675","system_id":"levelo_inurba_marseille","lat":43.26682,"lon":5.38275,"is_reserved":false,"is_disabled":false,"rental_uris":{"android":"levelo://app?vid=4ef1e5a3-790c-45a8-b059-8cb8b3a6a675","ios":"levelo://app?vid=4ef1e5a3-790c-45a8-b059-8cb8b3a6a675"},"vehicle_type_id":"4","last_reported":1751739163,"current_range_meters":8800,"station_id":"ce4bhg92rcd13ifvqf90","pricing_plan_id":"cebpf4jnsgd1na2vs0mg"},{"bike_id":"82c446f9-f62b-44bb-badb-b489a0d883fe","system_id":"levelo_inurba_marseille","lat":43.27482,"lon":5.42442,"is_reserved":false,"is_disabled":false,"rental_uris":{"android":"levelo://app?vid=82c446f9-f62b-44bb-badb-b489a0d883fe","ios":"levelo://app?vid=82c446f9-f62b-44bb-badb-b489a0d883fe"},"vehicle_type_id":"4","last_reported":1751739163,"current_range_meters":8800,"station_id":"ce4bhn92rcd13ifvqgrg","pricing_plan_id":"cebpf4jnsgd1na2vs0mg"},{"bike_id":"1c8ab180-05fd-405f-9922-b2b2c2d5142f","system_id":"levelo_inurba_marseille","lat":43.33811,"lon":5.38161,"is_reserved":false,"is_disabled":false,"rental_uris":{"android":"levelo://app?vid=1c8ab180-05fd-405f-9922-b2b2c2d5142f","ios":"levelo://app?vid=1c8ab180-05fd-405f-9922-b2b2c2d5142f"},"vehicle_type_id":"4","last_reported":1751739163,"current_range_meters":9200,"station_id":"","pricing_plan_id":"cebpf4jnsgd1na2vs0mg"},{"bike_id":"b26fae72-751e-4090-a9c4-76ff5de1ad66","system_id":"levelo_inurba_marseille","lat":43.33259,"lon":5.38038,"is_reserved":false,"is_disabled":false,"rental_uris":{"android":"levelo://app?vid=b26fae72-751e-4090-a9c4-76ff5de1ad66","ios":"levelo://app?vid=b26fae72-751e-4090-a9c4-76ff5de1ad66"},"vehicle_type_id":"4","last_reported":1751739163,"current_range_meters":9200,"station_id":"","pricing_plan_id":"cebpf4jnsgd1na2vs0mg"},{"bike_id":"a4516446-35ca-4505-8cfc-2c6a6c7d3394","system_id":"levelo_inurba_marseille","lat":43.29974,"lon":5.38482,"is_reserved":false,"is_disabled":false,"rental_uris":{"android":"levelo://app?vid=a4516446-35ca-4505-8cfc-2c6a6c7d3394","ios":"levelo://app?vid=a4516446-35ca-4505-8cfc-2c6a6c7d3394"},"vehicle_type_id":"4","last_reported":1751739163,"current_range_meters":9200,"station_id":"ce4bgj92rcd13ifvqbd0","pricing_plan_id":"cebpf4jnsgd1na2vs0mg"},{"bike_id":"3cc4033e-c823-406d-ba4b-a726dcf6cc5a","system_id":"levelo_inurba_marseille","lat":43.27916,"lon":5.3958,"is_reserved":false,"is_disabled":false,"rental_uris":{"android":"levelo://app?vid=3cc4033e-c823-406d-ba4b-a726dcf6cc5a","ios":"levelo://app?vid=3cc4033e-c823-406d-ba4b-a726dcf6cc5a"},"vehicle_type_id":"4","last_reported":1751739163,"current_range_meters":9200,"station_id":"ce4bhf92rcd13ifvqf40","pricing_plan_id":"cebpf4jnsgd1na2vs0mg"},{"bike_id":"ffede0c3-162a-4934-a8b5-e4bcdb987a0e","system_id":"levelo_inurba_marseille","lat":43.26206,"lon":5.37445,"is_reserved":false,"is_disabled":false,"rental_uris":{"android":"levelo://app?vid=ffede0c3-162a-4934-a8b5-e4bcdb987a0e","ios":"levelo://app?vid=ffede0c3-162a-4934-a8b5-e4bcdb987a0e"},"vehicle_type_id":"4","last_reported":1751739163,"current_range_meters":9200,"station_id":"ce4bhgp2rcd13ifvqfc0","pricing_plan_id":"cebpf4jnsgd1na2vs0mg"},{"bike_id":"fcbc790b-a1ad-4762-9efd-a660da1fda36","system_id":"levelo_inurba_marseille","lat":43.2306,"lon":5.35492,"is_reserved":false,"is_disabled":false,"rental_uris":{"android":"levelo://app?vid=fcbc790b-a1ad-4762-9efd-a660da1fda36","ios":"levelo://app?vid=fcbc790b-a1ad-4762-9efd-a660da1fda36"},"vehicle_type_id":"4","last_reported":1751739163,"current_range_meters":9200,"station_id":"cpo3342slgdg3j2ifvpg","pricing_plan_id":"cebpf4jnsgd1na2vs0mg"},{"bike_id":"0fb4452d-67ab-40fd-a600-077c2fa11da5","system_id":"levelo_inurba_marseille","lat":43.276225,"lon":5.361123,"is_reserved":false,"is_disabled":false,"rental_uris":{"android":"levelo://app?vid=0fb4452d-67ab-40fd-a600-077c2fa11da5","ios":"levelo://app?vid=0fb4452d-67ab-40fd-a600-077c2fa11da5"},"vehicle_type_id":"4","last_reported":1751739163,"current_range_meters":9600,"station_id":"ce4bgj92rcd13ifvqbe0","pricing_plan_id":"cebpf4jnsgd1na2vs0mg"},{"bike_id":"8476c491-c4d0-4a88-8b40-e47fa0ac18dd","system_id":"levelo_inurba_marseille","lat":43.31479,"lon":5.37307,"is_reserved":false,"is_disabled":false,"rental_uris":{"android":"levelo://app?vid=8476c491-c4d0-4a88-8b40-e47fa0ac18dd","ios":"levelo://app?vid=8476c491-c4d0-4a88-8b40-e47fa0ac18dd"},"vehicle_type_id":"4","last_reported":1751739163,"current_range_meters":9600,"station_id":"ce4bgt12rcd13ifvqcd0","pricing_plan_id":"cebpf4jnsgd1na2vs0mg"},{"bike_id":"36c296fb-83e1-4044-b065-50d87bcfbef1","system_id":"levelo_inurba_marseille","lat":43.30947,"lon":5.39036,"is_reserved":false,"is_disabled":false,"rental_uris":{"android":"levelo://app?vid=36c296fb-83e1-4044-b065-50d87bcfbef1","ios":"levelo://app?vid=36c296fb-83e1-4044-b065-50d87bcfbef1"},"vehicle_type_id":"4","last_reported":1751739163,"current_range_meters":9600,"station_id":"ce4bgup2rcd13ifvqco0","pricing_plan_id":"cebpf4jnsgd1na2vs0mg"},{"bike_id":"63b47e91-f1c1-49bf-a433-5d6b52ff5682","system_id":"levelo_inurba_marseille","lat":43.31169,"lon":5.38728,"is_reserved":false,"is_disabled":false,"rental_uris":{"android":"levelo://app?vid=63b47e91-f1c1-49bf-a433-5d6b52ff5682","ios":"levelo://app?vid=63b47e91-f1c1-49bf-a433-5d6b52ff5682"},"vehicle_type_id":"4","last_reported":1751739163,"current_range_meters":9600,"station_id":"ce4bgv12rcd13ifvqcp0","pricing_plan_id":"cebpf4jnsgd1na2vs0mg"},{"bike_id":"cc67c409-8d12-45cc-afb0-dd0775d2e560","system_id":"levelo_inurba_marseille","lat":43.29507,"lon":5.39416,"is_reserved":false,"is_disabled":false,"rental_uris":{"android":"levelo://app?vid=cc67c409-8d12-45cc-afb0-dd0775d2e560","ios":"levelo://app?vid=cc67c409-8d12-45cc-afb0-dd0775d2e560"},"vehicle_type_id":"4","last_reported":1751739163,"current_range_meters":9600,"station_id":"ce4bh292rcd13ifvqdf0","pricing_plan_id":"cebpf4jnsgd1na2vs0mg"},{"bike_id":"23b215e5-999e-41db-8c07-f4f0c2661d65","system_id":"levelo_inurba_marseille","lat":43.28614,"lon":5.37055,"is_reserved":false,"is_disabled":false,"rental_uris":{"android":"levelo://app?vid=23b215e5-999e-41db-8c07-f4f0c2661d65","ios":"levelo://app?vid=23b215e5-999e-41db-8c07-f4f0c2661d65"},"vehicle_type_id":"4","last_reported":1751739163,"current_range_meters":9600,"station_id":"ce4bht12rcd13ifvqi60","pricing_plan_id":"cebpf4jnsgd1na2vs0mg"},{"bike_id":"bb3a298f-6d46-4249-b2a7-253a86d09877","system_id":"levelo_inurba_marseille","lat":43.26337,"lon":5.37639,"is_reserved":false,"is_disabled":false,"rental_uris":{"android":"levelo://app?vid=bb3a298f-6d46-4249-b2a7-253a86d09877","ios":"levelo://app?vid=bb3a298f-6d46-4249-b2a7-253a86d09877"},"vehicle_type_id":"4","last_reported":1751739163,"current_range_meters":10000,"station_id":"","pricing_plan_id":"cebpf4jnsgd1na2vs0mg"},{"bike_id":"4b8da722-ee9e-48a4-a5e5-3a8a10364708","system_id":"levelo_inurba_marseille","lat":43.3123,"lon":5.37818,"is_reserved":false,"is_disabled":false,"rental_uris":{"android":"levelo://app?vid=4b8da722-ee9e-48a4-a5e5-3a8a10364708","ios":"levelo://app?vid=4b8da722-ee9e-48a4-a5e5-3a8a10364708"},"vehicle_type_id":"4","last_reported":1751739163,"current_range_meters":10000,"station_id":"","pricing_plan_id":"cebpf4jnsgd1na2vs0mg"},{"bike_id":"69c2280d-9883-47db-99f2-c073a6babae6","system_id":"levelo_inurba_marseille","lat":43.30854,"lon":5.37032,"is_reserved":false,"is_disabled":false,"rental_uris":{"android":"levelo://app?vid=69c2280d-9883-47db-99f2-c073a6babae6","ios":"levelo://app?vid=69c2280d-9883-47db-99f2-c073a6babae6"},"vehicle_type_id":"4","last_reported":1751739163,"current_range_meters":10000,"station_id":"","pricing_plan_id":"cebpf4jnsgd1na2vs0mg"},{"bike_id":"2d909c2f-3f85-4e28-8373-ff9b06075e12","system_id":"levelo_inurba_marseille","lat":43.30904,"lon":5.3684,"is_reserved":false,"is_disabled":false,"rental_uris":{"android":"levelo://app?vid=2d909c2f-3f85-4e28-8373-ff9b06075e12","ios":"levelo://app?vid=2d909c2f-3f85-4e28-8373-ff9b06075e12"},"vehicle_type_id":"4","last_reported":1751739163,"current_range_meters":10000,"station_id":"ce4bgn92rcd13ifvqbvg","pricing_plan_id":"cebpf4jnsgd1na2vs0mg"},{"bike_id":"608af681-242a-499f-a55a-bc80dd0413ee","system_id":"levelo_inurba_marseille","lat":43.24185,"lon":5.39725,"is_reserved":false,"is_disabled":false,"rental_uris":{"android":"levelo://app?vid=608af681-242a-499f-a55a-bc80dd0413ee","ios":"levelo://app?vid=608af681-242a-499f-a55a-bc80dd0413ee"},"vehicle_type_id":"4","last_reported":1751739163,"current_range_meters":10000,"station_id":"ce4bhn12rcd13ifvqgpg","pricing_plan_id":"cebpf4jnsgd1na2vs0mg"},{"bike_id":"f09be592-c507-4cfa-9ee2-67480c753dcd","system_id":"levelo_inurba_marseille","lat":43.27494,"lon":5.42454,"is_reserved":false,"is_disabled":false,"rental_uris":{"android":"levelo://app?vid=f09be592-c507-4cfa-9ee2-67480c753dcd","ios":"levelo://app?vid=f09be592-c507-4cfa-9ee2-67480c753dcd"},"vehicle_type_id":"4","last_reported":1751739163,"current_range_meters":10000,"station_id":"ce4bhn92rcd13ifvqgrg","pricing_plan_id":"cebpf4jnsgd1na2vs0mg"},{"bike_id":"4db45513-e520-4598-82fa-5809d80d4f3d","system_id":"levelo_inurba_marseille","lat":43.28104,"lon":5.35489,"is_reserved":false,"is_disabled":false,"rental_uris":{"android":"levelo://app?vid=4db45513-e520-4598-82fa-5809d80d4f3d","ios":"levelo://app?vid=4db45513-e520-4598-82fa-5809d80d4f3d"},"vehicle_type_id":"4","last_reported":1751739163,"current_range_meters":10800,"station_id":"","pricing_plan_id":"cebpf4jnsgd1na2vs0mg"},{"bike_id":"1e04b9e2-27c6-4b30-b902-6c81e18716e2","system_id":"levelo_inurba_marseille","lat":43.311643,"lon":5.377417,"is_reserved":false,"is_disabled":false,"rental_uris":{"android":"levelo://app?vid=1e04b9e2-27c6-4b30-b902-6c81e18716e2","ios":"levelo://app?vid=1e04b9e2-27c6-4b30-b902-6c81e18716e2"},"vehicle_type_id":"4","last_reported":1751739163,"current_range_meters":10800,"station_id":"","pricing_plan_id":"cebpf4jnsgd1na2vs0mg"},{"bike_id":"258c5f53-7dce-4b8a-a203-88292a3a9f7c","system_id":"levelo_inurba_marseille","lat":43.24659,"lon":5.38159,"is_reserved":false,"is_disabled":false,"rental_uris":{"android":"levelo://app?vid=258c5f53-7dce-4b8a-a203-88292a3a9f7c","ios":"levelo://app?vid=258c5f53-7dce-4b8a-a203-88292a3a9f7c"},"vehicle_type_id":"4","last_reported":1751739163,"current_range_meters":10800,"station_id":"ce4bhih2rcd13ifvqfr0","pricing_plan_id":"cebpf4jnsgd1na2vs0mg"},{"bike_id":"1b039762-2894-48cd-9595-0bf32ee6474f","system_id":"levelo_inurba_marseille","lat":43.29533,"lon":5.38545,"is_reserved":false,"is_disabled":false,"rental_uris":{"android":"levelo://app?vid=1b039762-2894-48cd-9595-0bf32ee6474f","ios":"levelo://app?vid=1b039762-2894-48cd-9595-0bf32ee6474f"},"vehicle_type_id":"4","last_reported":1751739163,"current_range_meters":11200,"station_id":"ce4bgih2rcd13ifvqba0","pricing_plan_id":"cebpf4jnsgd1na2vs0mg"},{"bike_id":"338904b9-8a90-4989-bae7-fad498a626ce","system_id":"levelo_inurba_marseille","lat":43.309528,"lon":5.390316,"is_reserved":false,"is_disabled":false,"rental_uris":{"android":"levelo://app?vid=338904b9-8a90-4989-bae7-fad498a626ce","ios":"levelo://app?vid=338904b9-8a90-4989-bae7-fad498a626ce"},"vehicle_type_id":"4","last_reported":1751739163,"current_range_meters":11200,"station_id":"ce4bgup2rcd13ifvqco0","pricing_plan_id":"cebpf4jnsgd1na2vs0mg"},{"bike_id":"79cc6ae9-1e80-4e4a-811c-362c2633caf8","system_id":"levelo_inurba_marseille","lat":43.31331,"lon":5.39689,"is_reserved":false,"is_disabled":false,"rental_uris":{"android":"levelo://app?vid=79cc6ae9-1e80-4e4a-811c-362c2633caf8","ios":"levelo://app?vid=79cc6ae9-1e80-4e4a-811c-362c2633caf8"},"vehicle_type_id":"4","last_reported":1751739163,"current_range_meters":11200,"station_id":"ce4bgvp2rcd13ifvqcu0","pricing_plan_id":"cebpf4jnsgd1na2vs0mg"},{"bike_id":"f00d3d2e-dad8-44e5-a480-7f43038f8825","system_id":"levelo_inurba_marseille","lat":43.302,"lon":5.39452,"is_reserved":false,"is_disabled":false,"rental_uris":{"android":"levelo://app?vid=f00d3d2e-dad8-44e5-a480-7f43038f8825","ios":"levelo://app?vid=f00d3d2e-dad8-44e5-a480-7f43038f8825"},"vehicle_type_id":"4","last_reported":1751739163,"current_range_meters":11200,"station_id":"ce4bh0p2rcd13ifvqd70","pricing_plan_id":"cebpf4jnsgd1na2vs0mg"},{"bike_id":"e550c607-28a7-4cce-ba51-c6fbef3fa60f","system_id":"levelo_inurba_marseille","lat":43.30134,"lon":5.38773,"is_reserved":false,"is_disabled":false,"rental_uris":{"android":"levelo://app?vid=e550c607-28a7-4cce-ba51-c6fbef3fa60f","ios":"levelo://app?vid=e550c607-28a7-4cce-ba51-c6fbef3fa60f"},"vehicle_type_id":"4","last_reported":1751739163,"current_range_meters":11600,"station_id":"ce4bghh2rcd13ifvqb60","pricing_plan_id":"cebpf4jnsgd1na2vs0mg"},{"bike_id":"39346e06-698f-438c-9cb6-938715444836","system_id":"levelo_inurba_marseille","lat":43.29002,"lon":5.35613,"is_reserved":false,"is_disabled":false,"rental_uris":{"android":"levelo://app?vid=39346e06-698f-438c-9cb6-938715444836","ios":"levelo://app?vid=39346e06-698f-438c-9cb6-938715444836"},"vehicle_type_id":"4","last_reported":1751739163,"current_range_meters":11600,"station_id":"ce4bhb92rcd13ifvqen0","pricing_plan_id":"cebpf4jnsgd1na2vs0mg"},{"bike_id":"07540762-edab-4d9e-8cb9-067b2bc6d9e2","system_id":"levelo_inurba_marseille","lat":43.28947,"lon":5.36418,"is_reserved":false,"is_disabled":false,"rental_uris":{"android":"levelo://app?vid=07540762-edab-4d9e-8cb9-067b2bc6d9e2","ios":"levelo://app?vid=07540762-edab-4d9e-8cb9-067b2bc6d9e2"},"vehicle_type_id":"4","last_reported":1751739163,"current_range_meters":11600,"station_id":"ce4bhc92rcd13ifvqetg","pricing_plan_id":"cebpf4jnsgd1na2vs0mg"},{"bike_id":"9919684d-d3a8-4e2e-bd43-3576a4e3b200","system_id":"levelo_inurba_marseille","lat":43.24389,"lon":5.37051,"is_reserved":false,"is_disabled":false,"rental_uris":{"android":"levelo://app?vid=9919684d-d3a8-4e2e-bd43-3576a4e3b200","ios":"levelo://app?vid=9919684d-d3a8-4e2e-bd43-3576a4e3b200"},"vehicle_type_id":"4","last_reported":1751739163,"current_range_meters":11600,"station_id":"ce4bhhh2rcd13ifvqfk0","pricing_plan_id":"cebpf4jnsgd1na2vs0mg"},{"bike_id":"02e316b7-b075-415e-999f-251fc36be2de","system_id":"levelo_inurba_marseille","lat":43.32658,"lon":5.40995,"is_reserved":false,"is_disabled":false,"rental_uris":{"android":"levelo://app?vid=02e316b7-b075-415e-999f-251fc36be2de","ios":"levelo://app?vid=02e316b7-b075-415e-999f-251fc36be2de"},"vehicle_type_id":"4","last_reported":1751739163,"current_range_meters":11600,"station_id":"ce4bhpp2rcd13ifvqhgg","pricing_plan_id":"cebpf4jnsgd1na2vs0mg"},{"bike_id":"daeee1e5-3b93-44da-8e47-7b24df6d544e","system_id":"levelo_inurba_marseille","lat":43.30013,"lon":5.37341,"is_reserved":false,"is_disabled":false,"rental_uris":{"android":"levelo://app?vid=daeee1e5-3b93-44da-8e47-7b24df6d544e","ios":"levelo://app?vid=daeee1e5-3b93-44da-8e47-7b24df6d544e"},"vehicle_type_id":"4","last_reported":1751739163,"current_range_meters":12000,"station_id":"","pricing_plan_id":"cebpf4jnsgd1na2vs0mg"},{"bike_id":"254b06bd-2177-439d-a911-69fa42b192a7","system_id":"levelo_inurba_marseille","lat":43.309611,"lon":5.39022,"is_reserved":false,"is_disabled":false,"rental_uris":{"android":"levelo://app?vid=254b06bd-2177-439d-a911-69fa42b192a7","ios":"levelo://app?vid=254b06bd-2177-439d-a911-69fa42b192a7"},"vehicle_type_id":"4","last_reported":1751739163,"current_range_meters":12000,"station_id":"ce4bgup2rcd13ifvqco0","pricing_plan_id":"cebpf4jnsgd1na2vs0mg"},{"bike_id":"79eb233f-9b35-4efe-ac09-e001a0ad4f83","system_id":"levelo_inurba_marseille","lat":43.30878,"lon":5.3964,"is_reserved":false,"is_disabled":false,"rental_uris":{"android":"levelo://app?vid=79eb233f-9b35-4efe-ac09-e001a0ad4f83","ios":"levelo://app?vid=79eb233f-9b35-4efe-ac09-e001a0ad4f83"},"vehicle_type_id":"4","last_reported":1751739163,"current_range_meters":12000,"station_id":"ce4bh012rcd13ifvqcv0","pricing_plan_id":"cebpf4jnsgd1na2vs0mg"},{"bike_id":"6d605585-440d-4592-9a20-7e09172a495f","system_id":"levelo_inurba_marseille","lat":43.30132,"lon":5.39863,"is_reserved":false,"is_disabled":false,"rental_uris":{"android":"levelo://app?vid=6d605585-440d-4592-9a20-7e09172a495f","ios":"levelo://app?vid=6d605585-440d-4592-9a20-7e09172a495f"},"vehicle_type_id":"4","last_reported":1751739163,"current_range_meters":12000,"station_id":"ce4bh0h2rcd13ifvqd40","pricing_plan_id":"cebpf4jnsgd1na2vs0mg"},{"bike_id":"ef7511a9-9553-4ca3-b277-c6295290c018","system_id":"levelo_inurba_marseille","lat":43.29068,"lon":5.37154,"is_reserved":false,"is_disabled":false,"rental_uris":{"android":"levelo://app?vid=ef7511a9-9553-4ca3-b277-c6295290c018","ios":"levelo://app?vid=ef7511a9-9553-4ca3-b277-c6295290c018"},"vehicle_type_id":"4","last_reported":1751739163,"current_range_meters":12000,"station_id":"ce4bh5p2rcd13ifvqe4g","pricing_plan_id":"cebpf4jnsgd1na2vs0mg"},{"bike_id":"10e613fd-5ff8-447a-8ef6-c1c02710087f","system_id":"levelo_inurba_marseille","lat":43.25104,"lon":5.40327,"is_reserved":false,"is_disabled":false,"rental_uris":{"android":"levelo://app?vid=10e613fd-5ff8-447a-8ef6-c1c02710087f","ios":"levelo://app?vid=10e613fd-5ff8-447a-8ef6-c1c02710087f"},"vehicle_type_id":"4","last_reported":1751739163,"current_range_meters":12000,"station_id":"ce4bhlh2rcd13ifvqgig","pricing_plan_id":"cebpf4jnsgd1na2vs0mg"},{"bike_id":"b1d40197-e49c-4962-8cd8-0babe05d31a6","system_id":"levelo_inurba_marseille","lat":43.21292,"lon":5.35242,"is_reserved":false,"is_disabled":false,"rental_uris":{"android":"levelo://app?vid=b1d40197-e49c-4962-8cd8-0babe05d31a6","ios":"levelo://app?vid=b1d40197-e49c-4962-8cd8-0babe05d31a6"},"vehicle_type_id":"4","last_reported":1751739163,"current_range_meters":12400,"station_id":"","pricing_plan_id":"cebpf4jnsgd1na2vs0mg"},{"bike_id":"c3acac94-a538-4b49-ab6a-a84441075497","system_id":"levelo_inurba_marseille","lat":43.31718,"lon":5.43698,"is_reserved":false,"is_disabled":false,"rental_uris":{"android":"levelo://app?vid=c3acac94-a538-4b49-ab6a-a84441075497","ios":"levelo://app?vid=c3acac94-a538-4b49-ab6a-a84441075497"},"vehicle_type_id":"4","last_reported":1751739163,"current_range_meters":12400,"station_id":"ce4bhp92rcd13ifvqhcg","pricing_plan_id":"cebpf4jnsgd1na2vs0mg"},{"bike_id":"b67f0c67-9a3c-4fa1-869d-cb672680fb9e","system_id":"levelo_inurba_marseille","lat":43.29532,"lon":5.38545,"is_reserved":false,"is_disabled":false,"rental_uris":{"android":"levelo://app?vid=b67f0c67-9a3c-4fa1-869d-cb672680fb9e","ios":"levelo://app?vid=b67f0c67-9a3c-4fa1-869d-cb672680fb9e"},"vehicle_type_id":"4","last_reported":1751739163,"current_range_meters":12800,"station_id":"ce4bgih2rcd13ifvqba0","pricing_plan_id":"cebpf4jnsgd1na2vs0mg"},{"bike_id":"d98f8318-487e-4927-817f-c7d08a328c84","system_id":"levelo_inurba_marseille","lat":43.31164,"lon":5.38711,"is_reserved":false,"is_disabled":false,"rental_uris":{"android":"levelo://app?vid=d98f8318-487e-4927-817f-c7d08a328c84","ios":"levelo://app?vid=d98f8318-487e-4927-817f-c7d08a328c84"},"vehicle_type_id":"4","last_reported":1751739163,"current_range_meters":12800,"station_id":"ce4bgv12rcd13ifvqcp0","pricing_plan_id":"cebpf4jnsgd1na2vs0mg"},{"bike_id":"532b9476-7e55-4b4b-9b33-1fb06f909539","system_id":"levelo_inurba_marseille","lat":43.30593,"lon":5.39355,"is_reserved":false,"is_disabled":false,"rental_uris":{"android":"levelo://app?vid=532b9476-7e55-4b4b-9b33-1fb06f909539","ios":"levelo://app?vid=532b9476-7e55-4b4b-9b33-1fb06f909539"},"vehicle_type_id":"4","last_reported":1751739163,"current_range_meters":12800,"station_id":"ce4bh0p2rcd13ifvqd80","pricing_plan_id":"cebpf4jnsgd1na2vs0mg"},{"bike_id":"d008f2d7-a6e8-4370-83cd-46244114c79c","system_id":"levelo_inurba_marseille","lat":43.231897,"lon":5.355443,"is_reserved":false,"is_disabled":false,"rental_uris":{"android":"levelo://app?vid=d008f2d7-a6e8-4370-83cd-46244114c79c","ios":"levelo://app?vid=d008f2d7-a6e8-4370-83cd-46244114c79c"},"vehicle_type_id":"4","last_reported":1751739163,"current_range_meters":12800,"station_id":"ce4bhu92rcd13ifvqi70","pricing_plan_id":"cebpf4jnsgd1na2vs0mg"},{"bike_id":"41500941-e441-4feb-9b17-4bba752053cf","system_id":"levelo_inurba_marseille","lat":43.3096,"lon":5.39039,"is_reserved":false,"is_disabled":false,"rental_uris":{"android":"levelo://app?vid=41500941-e441-4feb-9b17-4bba752053cf","ios":"levelo://app?vid=41500941-e441-4feb-9b17-4bba752053cf"},"vehicle_type_id":"4","last_reported":1751739163,"current_range_meters":13600,"station_id":"ce4bgup2rcd13ifvqco0","pricing_plan_id":"cebpf4jnsgd1na2vs0mg"},{"bike_id":"0fa85b92-57c0-46b5-b808-c0c6d775cfe7","system_id":"levelo_inurba_marseille","lat":43.29025,"lon":5.38646,"is_reserved":false,"is_disabled":false,"rental_uris":{"android":"levelo://app?vid=0fa85b92-57c0-46b5-b808-c0c6d775cfe7","ios":"levelo://app?vid=0fa85b92-57c0-46b5-b808-c0c6d775cfe7"},"vehicle_type_id":"4","last_reported":1751739163,"current_range_meters":13600,"station_id":"ce4bh4p2rcd13ifvqe0g","pricing_plan_id":"cebpf4jnsgd1na2vs0mg"},{"bike_id":"68f1e296-8a50-4b41-a130-184b78df97e0","system_id":"levelo_inurba_marseille","lat":43.319141,"lon":5.407743,"is_reserved":false,"is_disabled":false,"rental_uris":{"android":"levelo://app?vid=68f1e296-8a50-4b41-a130-184b78df97e0","ios":"levelo://app?vid=68f1e296-8a50-4b41-a130-184b78df97e0"},"vehicle_type_id":"4","last_reported":1751739163,"current_range_meters":13600,"station_id":"ce4bhq12rcd13ifvqhig","pricing_plan_id":"cebpf4jnsgd1na2vs0mg"},{"bike_id":"33980b71-0877-4fdf-9276-d84ccd665663","system_id":"levelo_inurba_marseille","lat":43.29526,"lon":5.38525,"is_reserved":false,"is_disabled":false,"rental_uris":{"android":"levelo://app?vid=33980b71-0877-4fdf-9276-d84ccd665663","ios":"levelo://app?vid=33980b71-0877-4fdf-9276-d84ccd665663"},"vehicle_type_id":"4","last_reported":1751739163,"current_range_meters":14000,"station_id":"ce4bgih2rcd13ifvqba0","pricing_plan_id":"cebpf4jnsgd1na2vs0mg"},{"bike_id":"dbcb8a3b-8ed1-42a1-adb9-e44b9106b840","system_id":"levelo_inurba_marseille","lat":43.30943,"lon":5.3904,"is_reserved":false,"is_disabled":false,"rental_uris":{"android":"levelo://app?vid=dbcb8a3b-8ed1-42a1-adb9-e44b9106b840","ios":"levelo://app?vid=dbcb8a3b-8ed1-42a1-adb9-e44b9106b840"},"vehicle_type_id":"4","last_reported":1751739163,"current_range_meters":14000,"station_id":"ce4bgup2rcd13ifvqco0","pricing_plan_id":"cebpf4jnsgd1na2vs0mg"},{"bike_id":"8f303a24-10e6-4508-942f-455a248bbf31","system_id":"levelo_inurba_marseille","lat":43.29019,"lon":5.3865,"is_reserved":false,"is_disabled":false,"rental_uris":{"android":"levelo://app?vid=8f303a24-10e6-4508-942f-455a248bbf31","ios":"levelo://app?vid=8f303a24-10e6-4508-942f-455a248bbf31"},"vehicle_type_id":"4","last_reported":1751739163,"current_range_meters":14000,"station_id":"ce4bh4p2rcd13ifvqe0g","pricing_plan_id":"cebpf4jnsgd1na2vs0mg"},{"bike_id":"de094790-81ed-4682-9e8b-95b04eb701e1","system_id":"levelo_inurba_marseille","lat":43.284647,"lon":5.358867,"is_reserved":false,"is_disabled":false,"rental_uris":{"android":"levelo://app?vid=de094790-81ed-4682-9e8b-95b04eb701e1","ios":"levelo://app?vid=de094790-81ed-4682-9e8b-95b04eb701e1"},"vehicle_type_id":"4","last_reported":1751739163,"current_range_meters":14000,"station_id":"ce4bhah2rcd13ifvqei0","pricing_plan_id":"cebpf4jnsgd1na2vs0mg"},{"bike_id":"0ab6e09c-c9f3-49cf-8ce1-2230b0e4bb34","system_id":"levelo_inurba_marseille","lat":43.28999,"lon":5.35616,"is_reserved":false,"is_disabled":false,"rental_uris":{"android":"levelo://app?vid=0ab6e09c-c9f3-49cf-8ce1-2230b0e4bb34","ios":"levelo://app?vid=0ab6e09c-c9f3-49cf-8ce1-2230b0e4bb34"},"vehicle_type_id":"4","last_reported":1751739163,"current_range_meters":14000,"station_id":"ce4bhb92rcd13ifvqen0","pricing_plan_id":"cebpf4jnsgd1na2vs0mg"},{"bike_id":"86c62818-7579-4762-a158-728195c677c4","system_id":"levelo_inurba_marseille","lat":43.28655,"lon":5.35083,"is_reserved":false,"is_disabled":false,"rental_uris":{"android":"levelo://app?vid=86c62818-7579-4762-a158-728195c677c4","ios":"levelo://app?vid=86c62818-7579-4762-a158-728195c677c4"},"vehicle_type_id":"4","last_reported":1751739163,"current_range_meters":14000,"station_id":"ce4bhch2rcd13ifvqeug","pricing_plan_id":"cebpf4jnsgd1na2vs0mg"},{"bike_id":"8b01cf32-54e2-4fd2-a618-94fbfc8c3130","system_id":"levelo_inurba_marseille","lat":43.23185,"lon":5.35544,"is_reserved":false,"is_disabled":false,"rental_uris":{"android":"levelo://app?vid=8b01cf32-54e2-4fd2-a618-94fbfc8c3130","ios":"levelo://app?vid=8b01cf32-54e2-4fd2-a618-94fbfc8c3130"},"vehicle_type_id":"4","last_reported":1751739163,"current_range_meters":14000,"station_id":"ce4bhu92rcd13ifvqi70","pricing_plan_id":"cebpf4jnsgd1na2vs0mg"},{"bike_id":"3e947835-15d4-4217-a2b4-75c2ac927141","system_id":"levelo_inurba_marseille","lat":43.231919,"lon":5.355495,"is_reserved":false,"is_disabled":false,"rental_uris":{"android":"levelo://app?vid=3e947835-15d4-4217-a2b4-75c2ac927141","ios":"levelo://app?vid=3e947835-15d4-4217-a2b4-75c2ac927141"},"vehicle_type_id":"4","last_reported":1751739163,"current_range_meters":14000,"station_id":"ce4bhu92rcd13ifvqi70","pricing_plan_id":"cebpf4jnsgd1na2vs0mg"},{"bike_id":"32883bb5-17a5-41a5-a279-4d119c078ea2","system_id":"levelo_inurba_marseille","lat":43.26227,"lon":5.37426,"is_reserved":false,"is_disabled":false,"rental_uris":{"android":"levelo://app?vid=32883bb5-17a5-41a5-a279-4d119c078ea2","ios":"levelo://app?vid=32883bb5-17a5-41a5-a279-4d119c078ea2"},"vehicle_type_id":"4","last_reported":1751739163,"current_range_meters":14400,"station_id":"","pricing_plan_id":"cebpf4jnsgd1na2vs0mg"},{"bike_id":"adf1d38d-1f03-40cf-9b57-0a8f15f62b2d","system_id":"levelo_inurba_marseille","lat":43.32998,"lon":5.36382,"is_reserved":false,"is_disabled":false,"rental_uris":{"android":"levelo://app?vid=adf1d38d-1f03-40cf-9b57-0a8f15f62b2d","ios":"levelo://app?vid=adf1d38d-1f03-40cf-9b57-0a8f15f62b2d"},"vehicle_type_id":"4","last_reported":1751739163,"current_range_meters":14400,"station_id":"","pricing_plan_id":"cebpf4jnsgd1na2vs0mg"},{"bike_id":"3e39d607-2606-4409-8e3a-ae0c534db294","system_id":"levelo_inurba_marseille","lat":43.29035,"lon":5.3592,"is_reserved":false,"is_disabled":false,"rental_uris":{"android":"levelo://app?vid=3e39d607-2606-4409-8e3a-ae0c534db294","ios":"levelo://app?vid=3e39d607-2606-4409-8e3a-ae0c534db294"},"vehicle_type_id":"4","last_reported":1751739163,"current_range_meters":14400,"station_id":"ce4bha92rcd13ifvqeg0","pricing_plan_id":"cebpf4jnsgd1na2vs0mg"},{"bike_id":"00d046c1-c97a-4cbf-9104-df0b8a144efc","system_id":"levelo_inurba_marseille","lat":43.275,"lon":5.42456,"is_reserved":false,"is_disabled":false,"rental_uris":{"android":"levelo://app?vid=00d046c1-c97a-4cbf-9104-df0b8a144efc","ios":"levelo://app?vid=00d046c1-c97a-4cbf-9104-df0b8a144efc"},"vehicle_type_id":"4","last_reported":1751739163,"current_range_meters":14400,"station_id":"ce4bhn92rcd13ifvqgrg","pricing_plan_id":"cebpf4jnsgd1na2vs0mg"},{"bike_id":"ab5ee707-c42d-4b5c-bb32-1f8f15fe15de","system_id":"levelo_inurba_marseille","lat":43.32633,"lon":5.40928,"is_reserved":false,"is_disabled":false,"rental_uris":{"android":"levelo://app?vid=ab5ee707-c42d-4b5c-bb32-1f8f15fe15de","ios":"levelo://app?vid=ab5ee707-c42d-4b5c-bb32-1f8f15fe15de"},"vehicle_type_id":"4","last_reported":1751739163,"current_range_meters":14400,"station_id":"ce4bhpp2rcd13ifvqhgg","pricing_plan_id":"cebpf4jnsgd1na2vs0mg"},{"bike_id":"d4221d21-5961-47f5-8d20-86b9c335f55a","system_id":"levelo_inurba_marseille","lat":43.315246,"lon":5.379418,"is_reserved":false,"is_disabled":false,"rental_uris":{"android":"levelo://app?vid=d4221d21-5961-47f5-8d20-86b9c335f55a","ios":"levelo://app?vid=d4221d21-5961-47f5-8d20-86b9c335f55a"},"vehicle_type_id":"4","last_reported":1751739163,"current_range_meters":14400,"station_id":"ce4bhsp2rcd13ifvqi50","pricing_plan_id":"cebpf4jnsgd1na2vs0mg"},{"bike_id":"36f9c75b-5d6c-412a-b395-ad8ffc2d771a","system_id":"levelo_inurba_marseille","lat":43.26025,"lon":5.417432,"is_reserved":false,"is_disabled":false,"rental_uris":{"android":"levelo://app?vid=36f9c75b-5d6c-412a-b395-ad8ffc2d771a","ios":"levelo://app?vid=36f9c75b-5d6c-412a-b395-ad8ffc2d771a"},"vehicle_type_id":"4","last_reported":1751739163,"current_range_meters":14800,"station_id":"","pricing_plan_id":"cebpf4jnsgd1na2vs0mg"},{"bike_id":"fe8ee84c-fdfc-40aa-a1c2-6e36409c0740","system_id":"levelo_inurba_marseille","lat":43.26828,"lon":5.39059,"is_reserved":false,"is_disabled":false,"rental_uris":{"android":"levelo://app?vid=fe8ee84c-fdfc-40aa-a1c2-6e36409c0740","ios":"levelo://app?vid=fe8ee84c-fdfc-40aa-a1c2-6e36409c0740"},"vehicle_type_id":"4","last_reported":1751739163,"current_range_meters":14800,"station_id":"","pricing_plan_id":"cebpf4jnsgd1na2vs0mg"},{"bike_id":"d712008c-4f25-4a2b-bf71-9d59dbc29da6","system_id":"levelo_inurba_marseille","lat":43.2573,"lon":5.41107,"is_reserved":false,"is_disabled":false,"rental_uris":{"android":"levelo://app?vid=d712008c-4f25-4a2b-bf71-9d59dbc29da6","ios":"levelo://app?vid=d712008c-4f25-4a2b-bf71-9d59dbc29da6"},"vehicle_type_id":"4","last_reported":1751739163,"current_range_meters":14800,"station_id":"","pricing_plan_id":"cebpf4jnsgd1na2vs0mg"},{"bike_id":"ba8e5270-5a7f-4191-a91d-7cf85eea91c2","system_id":"levelo_inurba_marseille","lat":43.28204,"lon":5.34949,"is_reserved":false,"is_disabled":false,"rental_uris":{"android":"levelo://app?vid=ba8e5270-5a7f-4191-a91d-7cf85eea91c2","ios":"levelo://app?vid=ba8e5270-5a7f-4191-a91d-7cf85eea91c2"},"vehicle_type_id":"4","last_reported":1751739163,"current_range_meters":14800,"station_id":"","pricing_plan_id":"cebpf4jnsgd1na2vs0mg"},{"bike_id":"38d8e249-348c-4e8b-9a55-f56fa45e4d15","system_id":"levelo_inurba_marseille","lat":43.2379,"lon":5.43062,"is_reserved":false,"is_disabled":false,"rental_uris":{"android":"levelo://app?vid=38d8e249-348c-4e8b-9a55-f56fa45e4d15","ios":"levelo://app?vid=38d8e249-348c-4e8b-9a55-f56fa45e4d15"},"vehicle_type_id":"4","last_reported":1751739163,"current_range_meters":14800,"station_id":"","pricing_plan_id":"cebpf4jnsgd1na2vs0mg"},{"bike_id":"ac85aff3-1541-45a1-a450-e7976cb4194c","system_id":"levelo_inurba_marseille","lat":43.28627,"lon":5.35089,"is_reserved":false,"is_disabled":false,"rental_uris":{"android":"levelo://app?vid=ac85aff3-1541-45a1-a450-e7976cb4194c","ios":"levelo://app?vid=ac85aff3-1541-45a1-a450-e7976cb4194c"},"vehicle_type_id":"4","last_reported":1751739163,"current_range_meters":14800,"station_id":"ce4bhch2rcd13ifvqeug","pricing_plan_id":"cebpf4jnsgd1na2vs0mg"},{"bike_id":"6c6a72cf-0b4f-480e-95a8-cead647f1ea4","system_id":"levelo_inurba_marseille","lat":43.27421,"lon":5.3942,"is_reserved":false,"is_disabled":false,"rental_uris":{"android":"levelo://app?vid=6c6a72cf-0b4f-480e-95a8-cead647f1ea4","ios":"levelo://app?vid=6c6a72cf-0b4f-480e-95a8-cead647f1ea4"},"vehicle_type_id":"4","last_reported":1751739163,"current_range_meters":14800,"station_id":"ce4bhdp2rcd13ifvqf20","pricing_plan_id":"cebpf4jnsgd1na2vs0mg"},{"bike_id":"1106b725-71d5-4309-88ea-ae692896f80f","system_id":"levelo_inurba_marseille","lat":43.29526,"lon":5.38546,"is_reserved":false,"is_disabled":false,"rental_uris":{"android":"levelo://app?vid=1106b725-71d5-4309-88ea-ae692896f80f","ios":"levelo://app?vid=1106b725-71d5-4309-88ea-ae692896f80f"},"vehicle_type_id":"4","last_reported":1751739163,"current_range_meters":15200,"station_id":"ce4bgih2rcd13ifvqba0","pricing_plan_id":"cebpf4jnsgd1na2vs0mg"},{"bike_id":"e0d07937-4304-4f64-95bf-f42d81c5ff69","system_id":"levelo_inurba_marseille","lat":43.25852,"lon":5.39901,"is_reserved":false,"is_disabled":false,"rental_uris":{"android":"levelo://app?vid=e0d07937-4304-4f64-95bf-f42d81c5ff69","ios":"levelo://app?vid=e0d07937-4304-4f64-95bf-f42d81c5ff69"},"vehicle_type_id":"4","last_reported":1751739163,"current_range_meters":15200,"station_id":"ce4bhl92rcd13ifvqghg","pricing_plan_id":"cebpf4jnsgd1na2vs0mg"},{"bike_id":"637fcc3b-c74d-473a-96c1-57ab4bb52ed7","system_id":"levelo_inurba_marseille","lat":43.25931,"lon":5.40914,"is_reserved":false,"is_disabled":false,"rental_uris":{"android":"levelo://app?vid=637fcc3b-c74d-473a-96c1-57ab4bb52ed7","ios":"levelo://app?vid=637fcc3b-c74d-473a-96c1-57ab4bb52ed7"},"vehicle_type_id":"4","last_reported":1751739163,"current_range_meters":15200,"station_id":"ce4bhm92rcd13ifvqglg","pricing_plan_id":"cebpf4jnsgd1na2vs0mg"},{"bike_id":"9bcc5a60-261d-4e43-8b8d-77c8938ce621","system_id":"levelo_inurba_marseille","lat":43.32337,"lon":5.40615,"is_reserved":false,"is_disabled":false,"rental_uris":{"android":"levelo://app?vid=9bcc5a60-261d-4e43-8b8d-77c8938ce621","ios":"levelo://app?vid=9bcc5a60-261d-4e43-8b8d-77c8938ce621"},"vehicle_type_id":"4","last_reported":1751739163,"current_range_meters":15200,"station_id":"ce4bhq92rcd13ifvqhjg","pricing_plan_id":"cebpf4jnsgd1na2vs0mg"},{"bike_id":"736cb780-619a-4c87-bb33-3a45c6d3502b","system_id":"levelo_inurba_marseille","lat":43.32067,"lon":5.41545,"is_reserved":false,"is_disabled":false,"rental_uris":{"android":"levelo://app?vid=736cb780-619a-4c87-bb33-3a45c6d3502b","ios":"levelo://app?vid=736cb780-619a-4c87-bb33-3a45c6d3502b"},"vehicle_type_id":"4","last_reported":1751739163,"current_range_meters":15200,"station_id":"ce4bhq92rcd13ifvqhkg","pricing_plan_id":"cebpf4jnsgd1na2vs0mg"},{"bike_id":"38f7fbb9-ddf9-4adc-90d7-9ce9e9c6f27c","system_id":"levelo_inurba_marseille","lat":43.28244,"lon":5.38566,"is_reserved":false,"is_disabled":false,"rental_uris":{"android":"levelo://app?vid=38f7fbb9-ddf9-4adc-90d7-9ce9e9c6f27c","ios":"levelo://app?vid=38f7fbb9-ddf9-4adc-90d7-9ce9e9c6f27c"},"vehicle_type_id":"4","last_reported":1751739163,"current_range_meters":16000,"station_id":"","pricing_plan_id":"cebpf4jnsgd1na2vs0mg"},{"bike_id":"705c8f97-9174-4c1c-8c50-3d8d39d2b52f","system_id":"levelo_inurba_marseille","lat":43.3091,"lon":5.36843,"is_reserved":false,"is_disabled":false,"rental_uris":{"android":"levelo://app?vid=705c8f97-9174-4c1c-8c50-3d8d39d2b52f","ios":"levelo://app?vid=705c8f97-9174-4c1c-8c50-3d8d39d2b52f"},"vehicle_type_id":"4","last_reported":1751739163,"current_range_meters":16000,"station_id":"ce4bgn92rcd13ifvqbvg","pricing_plan_id":"cebpf4jnsgd1na2vs0mg"},{"bike_id":"f1bce919-69ec-4a33-af16-1ce96db0e7f3","system_id":"levelo_inurba_marseille","lat":43.24548,"lon":5.39521,"is_reserved":false,"is_disabled":false,"rental_uris":{"android":"levelo://app?vid=f1bce919-69ec-4a33-af16-1ce96db0e7f3","ios":"levelo://app?vid=f1bce919-69ec-4a33-af16-1ce96db0e7f3"},"vehicle_type_id":"4","last_reported":1751739163,"current_range_meters":16000,"station_id":"ce4bhlp2rcd13ifvqgjg","pricing_plan_id":"cebpf4jnsgd1na2vs0mg"},{"bike_id":"1133fa96-960d-45e6-9328-aa458deeee07","system_id":"levelo_inurba_marseille","lat":43.26226,"lon":5.4045,"is_reserved":false,"is_disabled":false,"rental_uris":{"android":"levelo://app?vid=1133fa96-960d-45e6-9328-aa458deeee07","ios":"levelo://app?vid=1133fa96-960d-45e6-9328-aa458deeee07"},"vehicle_type_id":"4","last_reported":1751739163,"current_range_meters":16000,"station_id":"ce4bhmh2rcd13ifvqgmg","pricing_plan_id":"cebpf4jnsgd1na2vs0mg"},{"bike_id":"18e903c3-bd69-4cad-bc4b-fefd2f289489","system_id":"levelo_inurba_marseille","lat":43.26231,"lon":5.404635,"is_reserved":false,"is_disabled":false,"rental_uris":{"android":"levelo://app?vid=18e903c3-bd69-4cad-bc4b-fefd2f289489","ios":"levelo://app?vid=18e903c3-bd69-4cad-bc4b-fefd2f289489"},"vehicle_type_id":"4","last_reported":1751739163,"current_range_meters":16000,"station_id":"ce4bhmh2rcd13ifvqgmg","pricing_plan_id":"cebpf4jnsgd1na2vs0mg"},{"bike_id":"5e4669bd-8536-4919-8da2-15409e182044","system_id":"levelo_inurba_marseille","lat":43.231424,"lon":5.437181,"is_reserved":false,"is_disabled":false,"rental_uris":{"android":"levelo://app?vid=5e4669bd-8536-4919-8da2-15409e182044","ios":"levelo://app?vid=5e4669bd-8536-4919-8da2-15409e182044"},"vehicle_type_id":"4","last_reported":1751739163,"current_range_meters":16000,"station_id":"ce4bhmp2rcd13ifvqgog","pricing_plan_id":"cebpf4jnsgd1na2vs0mg"},{"bike_id":"7f0c1e3c-145d-459e-b135-55934e2c45cf","system_id":"levelo_inurba_marseille","lat":43.281588,"lon":5.426388,"is_reserved":false,"is_disabled":false,"rental_uris":{"android":"levelo://app?vid=7f0c1e3c-145d-459e-b135-55934e2c45cf","ios":"levelo://app?vid=7f0c1e3c-145d-459e-b135-55934e2c45cf"},"vehicle_type_id":"4","last_reported":1751739163,"current_range_meters":16000,"station_id":"ce4bhnh2rcd13ifvqgug","pricing_plan_id":"cebpf4jnsgd1na2vs0mg"},{"bike_id":"6203887d-23bb-4b4e-9498-37ef47679f9e","system_id":"levelo_inurba_marseille","lat":43.30413,"lon":5.41279,"is_reserved":false,"is_disabled":false,"rental_uris":{"android":"levelo://app?vid=6203887d-23bb-4b4e-9498-37ef47679f9e","ios":"levelo://app?vid=6203887d-23bb-4b4e-9498-37ef47679f9e"},"vehicle_type_id":"4","last_reported":1751739163,"current_range_meters":16000,"station_id":"ce4bhop2rcd13ifvqh8g","pricing_plan_id":"cebpf4jnsgd1na2vs0mg"},{"bike_id":"7d7ca329-d013-418c-84c4-2b0666103eeb","system_id":"levelo_inurba_marseille","lat":43.299064,"lon":5.436695,"is_reserved":false,"is_disabled":false,"rental_uris":{"android":"levelo://app?vid=7d7ca329-d013-418c-84c4-2b0666103eeb","ios":"levelo://app?vid=7d7ca329-d013-418c-84c4-2b0666103eeb"},"vehicle_type_id":"4","last_reported":1751739163,"current_range_meters":16000,"station_id":"ce4bhpp2rcd13ifvqhfg","pricing_plan_id":"cebpf4jnsgd1na2vs0mg"},{"bike_id":"e9f184b7-4c52-47df-adfb-be4fdc9c8ed3","system_id":"levelo_inurba_marseille","lat":43.23212,"lon":5.35538,"is_reserved":false,"is_disabled":false,"rental_uris":{"android":"levelo://app?vid=e9f184b7-4c52-47df-adfb-be4fdc9c8ed3","ios":"levelo://app?vid=e9f184b7-4c52-47df-adfb-be4fdc9c8ed3"},"vehicle_type_id":"4","last_reported":1751739163,"current_range_meters":16000,"station_id":"ce4bhu92rcd13ifvqi70","pricing_plan_id":"cebpf4jnsgd1na2vs0mg"},{"bike_id":"59cf33de-749c-4c9a-bd7d-918757113f13","system_id":"levelo_inurba_marseille","lat":43.29786,"lon":5.39335,"is_reserved":false,"is_disabled":false,"rental_uris":{"android":"levelo://app?vid=59cf33de-749c-4c9a-bd7d-918757113f13","ios":"levelo://app?vid=59cf33de-749c-4c9a-bd7d-918757113f13"},"vehicle_type_id":"4","last_reported":1751739163,"current_range_meters":16000,"station_id":"chh1huq6cuj3fo74tm60","pricing_plan_id":"cebpf4jnsgd1na2vs0mg"},{"bike_id":"e449aa29-cae1-4432-9aec-dedc13360b20","system_id":"levelo_inurba_marseille","lat":43.21192,"lon":5.35078,"is_reserved":false,"is_disabled":false,"rental_uris":{"android":"levelo://app?vid=e449aa29-cae1-4432-9aec-dedc13360b20","ios":"levelo://app?vid=e449aa29-cae1-4432-9aec-dedc13360b20"},"vehicle_type_id":"4","last_reported":1751739163,"current_range_meters":16000,"station_id":"st_cvj6sg6p6f1abm77japg","pricing_plan_id":"cebpf4jnsgd1na2vs0mg"},{"bike_id":"bf24b26e-7f51-4120-9a48-54c87edaa2f7","system_id":"levelo_inurba_marseille","lat":43.211904,"lon":5.350712,"is_reserved":false,"is_disabled":false,"rental_uris":{"android":"levelo://app?vid=bf24b26e-7f51-4120-9a48-54c87edaa2f7","ios":"levelo://app?vid=bf24b26e-7f51-4120-9a48-54c87edaa2f7"},"vehicle_type_id":"4","last_reported":1751739163,"current_range_meters":16000,"station_id":"st_cvj6sg6p6f1abm77japg","pricing_plan_id":"cebpf4jnsgd1na2vs0mg"},{"bike_id":"bba003aa-2c86-4d35-8454-122e7bddc421","system_id":"levelo_inurba_marseille","lat":43.30936,"lon":5.3904,"is_reserved":false,"is_disabled":false,"rental_uris":{"android":"levelo://app?vid=bba003aa-2c86-4d35-8454-122e7bddc421","ios":"levelo://app?vid=bba003aa-2c86-4d35-8454-122e7bddc421"},"vehicle_type_id":"4","last_reported":1751739163,"current_range_meters":16400,"station_id":"ce4bgup2rcd13ifvqco0","pricing_plan_id":"cebpf4jnsgd1na2vs0mg"},{"bike_id":"ccd6ba95-ced5-4dfd-abdf-b1c6f3b079ea","system_id":"levelo_inurba_marseille","lat":43.28461,"lon":5.35871,"is_reserved":false,"is_disabled":false,"rental_uris":{"android":"levelo://app?vid=ccd6ba95-ced5-4dfd-abdf-b1c6f3b079ea","ios":"levelo://app?vid=ccd6ba95-ced5-4dfd-abdf-b1c6f3b079ea"},"vehicle_type_id":"4","last_reported":1751739163,"current_range_meters":16400,"station_id":"ce4bhah2rcd13ifvqei0","pricing_plan_id":"cebpf4jnsgd1na2vs0mg"},{"bike_id":"b6e48e5f-e234-4c93-b6af-0c488e78d7fd","system_id":"levelo_inurba_marseille","lat":43.28424,"lon":5.34973,"is_reserved":false,"is_disabled":false,"rental_uris":{"android":"levelo://app?vid=b6e48e5f-e234-4c93-b6af-0c488e78d7fd","ios":"levelo://app?vid=b6e48e5f-e234-4c93-b6af-0c488e78d7fd"},"vehicle_type_id":"4","last_reported":1751739163,"current_range_meters":16400,"station_id":"ce4bhbh2rcd13ifvqepg","pricing_plan_id":"cebpf4jnsgd1na2vs0mg"},{"bike_id":"38855c64-4a55-4d3a-8da1-44a2b313158b","system_id":"levelo_inurba_marseille","lat":43.32358,"lon":5.36756,"is_reserved":false,"is_disabled":false,"rental_uris":{"android":"levelo://app?vid=38855c64-4a55-4d3a-8da1-44a2b313158b","ios":"levelo://app?vid=38855c64-4a55-4d3a-8da1-44a2b313158b"},"vehicle_type_id":"4","last_reported":1751739163,"current_range_meters":16400,"station_id":"ce4bhsh2rcd13ifvqi2g","pricing_plan_id":"cebpf4jnsgd1na2vs0mg"},{"bike_id":"cfedde4d-29e4-48a6-bc2a-67d1ad344395","system_id":"levelo_inurba_marseille","lat":43.23189,"lon":5.35545,"is_reserved":false,"is_disabled":false,"rental_uris":{"android":"levelo://app?vid=cfedde4d-29e4-48a6-bc2a-67d1ad344395","ios":"levelo://app?vid=cfedde4d-29e4-48a6-bc2a-67d1ad344395"},"vehicle_type_id":"4","last_reported":1751739163,"current_range_meters":16400,"station_id":"ce4bhu92rcd13ifvqi70","pricing_plan_id":"cebpf4jnsgd1na2vs0mg"},{"bike_id":"cd6f91d4-bdaf-4e38-b4f5-14f6e83055e8","system_id":"levelo_inurba_marseille","lat":43.21188,"lon":5.35071,"is_reserved":false,"is_disabled":false,"rental_uris":{"android":"levelo://app?vid=cd6f91d4-bdaf-4e38-b4f5-14f6e83055e8","ios":"levelo://app?vid=cd6f91d4-bdaf-4e38-b4f5-14f6e83055e8"},"vehicle_type_id":"4","last_reported":1751739163,"current_range_meters":16400,"station_id":"st_cvj6sg6p6f1abm77japg","pricing_plan_id":"cebpf4jnsgd1na2vs0mg"},{"bike_id":"77115f98-bfd7-488f-b07c-0398439a39bd","system_id":"levelo_inurba_marseille","lat":43.29139,"lon":5.35566,"is_reserved":false,"is_disabled":false,"rental_uris":{"android":"levelo://app?vid=77115f98-bfd7-488f-b07c-0398439a39bd","ios":"levelo://app?vid=77115f98-bfd7-488f-b07c-0398439a39bd"},"vehicle_type_id":"4","last_reported":1751739163,"current_range_meters":16800,"station_id":"","pricing_plan_id":"cebpf4jnsgd1na2vs0mg"},{"bike_id":"63f36fd5-e464-43a8-b86c-da2fcb5bcd53","system_id":"levelo_inurba_marseille","lat":43.29099,"lon":5.38133,"is_reserved":false,"is_disabled":false,"rental_uris":{"android":"levelo://app?vid=63f36fd5-e464-43a8-b86c-da2fcb5bcd53","ios":"levelo://app?vid=63f36fd5-e464-43a8-b86c-da2fcb5bcd53"},"vehicle_type_id":"4","last_reported":1751739163,"current_range_meters":16800,"station_id":"ce4bh512rcd13ifvqe2g","pricing_plan_id":"cebpf4jnsgd1na2vs0mg"},{"bike_id":"f2130bee-7a19-4953-bf71-a817b9b563dc","system_id":"levelo_inurba_marseille","lat":43.3042,"lon":5.41302,"is_reserved":false,"is_disabled":false,"rental_uris":{"android":"levelo://app?vid=f2130bee-7a19-4953-bf71-a817b9b563dc","ios":"levelo://app?vid=f2130bee-7a19-4953-bf71-a817b9b563dc"},"vehicle_type_id":"4","last_reported":1751739163,"current_range_meters":16800,"station_id":"ce4bhop2rcd13ifvqh8g","pricing_plan_id":"cebpf4jnsgd1na2vs0mg"},{"bike_id":"e934df3a-55ad-4287-be0e-970eb81a614c","system_id":"levelo_inurba_marseille","lat":43.33731,"lon":5.39187,"is_reserved":false,"is_disabled":false,"rental_uris":{"android":"levelo://app?vid=e934df3a-55ad-4287-be0e-970eb81a614c","ios":"levelo://app?vid=e934df3a-55ad-4287-be0e-970eb81a614c"},"vehicle_type_id":"4","last_reported":1751739163,"current_range_meters":16800,"station_id":"ce4bhr92rcd13ifvqhsg","pricing_plan_id":"cebpf4jnsgd1na2vs0mg"},{"bike_id":"452e8211-4f44-45d0-814a-3e9e25b8c44e","system_id":"levelo_inurba_marseille","lat":43.21182,"lon":5.35075,"is_reserved":false,"is_disabled":false,"rental_uris":{"android":"levelo://app?vid=452e8211-4f44-45d0-814a-3e9e25b8c44e","ios":"levelo://app?vid=452e8211-4f44-45d0-814a-3e9e25b8c44e"},"vehicle_type_id":"4","last_reported":1751739163,"current_range_meters":16800,"station_id":"st_cvj6sg6p6f1abm77japg","pricing_plan_id":"cebpf4jnsgd1na2vs0mg"},{"bike_id":"d858b784-4fd9-41d7-8169-6d2f7e176251","system_id":"levelo_inurba_marseille","lat":43.30077,"lon":5.37783,"is_reserved":false,"is_disabled":false,"rental_uris":{"android":"levelo://app?vid=d858b784-4fd9-41d7-8169-6d2f7e176251","ios":"levelo://app?vid=d858b784-4fd9-41d7-8169-6d2f7e176251"},"vehicle_type_id":"4","last_reported":1751739163,"current_range_meters":17200,"station_id":"","pricing_plan_id":"cebpf4jnsgd1na2vs0mg"},{"bike_id":"d7d3dcd2-ad3b-47eb-9ac8-5e975e5f2c50","system_id":"levelo_inurba_marseille","lat":43.30291,"lon":5.392055,"is_reserved":false,"is_disabled":false,"rental_uris":{"android":"levelo://app?vid=d7d3dcd2-ad3b-47eb-9ac8-5e975e5f2c50","ios":"levelo://app?vid=d7d3dcd2-ad3b-47eb-9ac8-5e975e5f2c50"},"vehicle_type_id":"4","last_reported":1751739163,"current_range_meters":17200,"station_id":"ce4bgkh2rcd13ifvqbk0","pricing_plan_id":"cebpf4jnsgd1na2vs0mg"},{"bike_id":"ecf5cc27-08f9-434f-a42b-6dc1aa0344c7","system_id":"levelo_inurba_marseille","lat":43.30877,"lon":5.39635,"is_reserved":false,"is_disabled":false,"rental_uris":{"android":"levelo://app?vid=ecf5cc27-08f9-434f-a42b-6dc1aa0344c7","ios":"levelo://app?vid=ecf5cc27-08f9-434f-a42b-6dc1aa0344c7"},"vehicle_type_id":"4","last_reported":1751739163,"current_range_meters":17200,"station_id":"ce4bh012rcd13ifvqcv0","pricing_plan_id":"cebpf4jnsgd1na2vs0mg"},{"bike_id":"c45f1ced-a58f-4ab9-a879-ee6ffae9edea","system_id":"levelo_inurba_marseille","lat":43.28406,"lon":5.34989,"is_reserved":false,"is_disabled":false,"rental_uris":{"android":"levelo://app?vid=c45f1ced-a58f-4ab9-a879-ee6ffae9edea","ios":"levelo://app?vid=c45f1ced-a58f-4ab9-a879-ee6ffae9edea"},"vehicle_type_id":"4","last_reported":1751739163,"current_range_meters":17200,"station_id":"ce4bhbh2rcd13ifvqepg","pricing_plan_id":"cebpf4jnsgd1na2vs0mg"},{"bike_id":"38556a8c-bc16-440b-aba1-9df44c77db93","system_id":"levelo_inurba_marseille","lat":43.26234,"lon":5.40453,"is_reserved":false,"is_disabled":false,"rental_uris":{"android":"levelo://app?vid=38556a8c-bc16-440b-aba1-9df44c77db93","ios":"levelo://app?vid=38556a8c-bc16-440b-aba1-9df44c77db93"},"vehicle_type_id":"4","last_reported":1751739163,"current_range_meters":17200,"station_id":"ce4bhmh2rcd13ifvqgmg","pricing_plan_id":"cebpf4jnsgd1na2vs0mg"},{"bike_id":"19681d7b-19cf-40d5-b503-b2d1aa5f72dc","system_id":"levelo_inurba_marseille","lat":43.291809,"lon":5.356236,"is_reserved":false,"is_disabled":false,"rental_uris":{"android":"levelo://app?vid=19681d7b-19cf-40d5-b503-b2d1aa5f72dc","ios":"levelo://app?vid=19681d7b-19cf-40d5-b503-b2d1aa5f72dc"},"vehicle_type_id":"4","last_reported":1751739163,"current_range_meters":17600,"station_id":"","pricing_plan_id":"cebpf4jnsgd1na2vs0mg"},{"bike_id":"89d2e01b-74ef-4516-8426-1037f763d3ac","system_id":"levelo_inurba_marseille","lat":43.27631,"lon":5.36096,"is_reserved":false,"is_disabled":false,"rental_uris":{"android":"levelo://app?vid=89d2e01b-74ef-4516-8426-1037f763d3ac","ios":"levelo://app?vid=89d2e01b-74ef-4516-8426-1037f763d3ac"},"vehicle_type_id":"4","last_reported":1751739163,"current_range_meters":17600,"station_id":"ce4bgj92rcd13ifvqbe0","pricing_plan_id":"cebpf4jnsgd1na2vs0mg"},{"bike_id":"e67189b8-c7f1-4fe5-b88d-8e18e93bc97f","system_id":"levelo_inurba_marseille","lat":43.28932,"lon":5.36637,"is_reserved":false,"is_disabled":false,"rental_uris":{"android":"levelo://app?vid=e67189b8-c7f1-4fe5-b88d-8e18e93bc97f","ios":"levelo://app?vid=e67189b8-c7f1-4fe5-b88d-8e18e93bc97f"},"vehicle_type_id":"4","last_reported":1751739163,"current_range_meters":17600,"station_id":"ce4bhap2rcd13ifvqek0","pricing_plan_id":"cebpf4jnsgd1na2vs0mg"},{"bike_id":"c310c455-2738-40af-9f2f-6b8c178c9275","system_id":"levelo_inurba_marseille","lat":43.27175,"lon":5.40994,"is_reserved":false,"is_disabled":false,"rental_uris":{"android":"levelo://app?vid=c310c455-2738-40af-9f2f-6b8c178c9275","ios":"levelo://app?vid=c310c455-2738-40af-9f2f-6b8c178c9275"},"vehicle_type_id":"4","last_reported":1751739163,"current_range_meters":17600,"station_id":"ce4bhl12rcd13ifvqgf0","pricing_plan_id":"cebpf4jnsgd1na2vs0mg"},{"bike_id":"aca47642-4ceb-4a40-bae0-66b7f0d6dee2","system_id":"levelo_inurba_marseille","lat":43.22507,"lon":5.34782,"is_reserved":false,"is_disabled":false,"rental_uris":{"android":"levelo://app?vid=aca47642-4ceb-4a40-bae0-66b7f0d6dee2","ios":"levelo://app?vid=aca47642-4ceb-4a40-bae0-66b7f0d6dee2"},"vehicle_type_id":"4","last_reported":1751739163,"current_range_meters":17600,"station_id":"st_cvj5dfep6f1abm77gieg","pricing_plan_id":"cebpf4jnsgd1na2vs0mg"},{"bike_id":"a650391d-c9de-4a35-8624-997413fa8739","system_id":"levelo_inurba_marseille","lat":43.2175,"lon":5.34597,"is_reserved":false,"is_disabled":false,"rental_uris":{"android":"levelo://app?vid=a650391d-c9de-4a35-8624-997413fa8739","ios":"levelo://app?vid=a650391d-c9de-4a35-8624-997413fa8739"},"vehicle_type_id":"4","last_reported":1751739163,"current_range_meters":17600,"station_id":"st_cvj6r9ubvosntc0bgbag","pricing_plan_id":"cebpf4jnsgd1na2vs0mg"},{"bike_id":"d5ef770d-9759-47e3-b3a5-7d2785ef76db","system_id":"levelo_inurba_marseille","lat":43.32693,"lon":5.39202,"is_reserved":false,"is_disabled":false,"rental_uris":{"android":"levelo://app?vid=d5ef770d-9759-47e3-b3a5-7d2785ef76db","ios":"levelo://app?vid=d5ef770d-9759-47e3-b3a5-7d2785ef76db"},"vehicle_type_id":"4","last_reported":1751739163,"current_range_meters":18000,"station_id":"","pricing_plan_id":"cebpf4jnsgd1na2vs0mg"},{"bike_id":"41d928e6-b9b0-4e48-84e1-7ba52781d76b","system_id":"levelo_inurba_marseille","lat":43.24678,"lon":5.3815,"is_reserved":false,"is_disabled":false,"rental_uris":{"android":"levelo://app?vid=41d928e6-b9b0-4e48-84e1-7ba52781d76b","ios":"levelo://app?vid=41d928e6-b9b0-4e48-84e1-7ba52781d76b"},"vehicle_type_id":"4","last_reported":1751739163,"current_range_meters":18000,"station_id":"ce4bhih2rcd13ifvqfr0","pricing_plan_id":"cebpf4jnsgd1na2vs0mg"},{"bike_id":"1264272d-84a5-45fc-a4af-58d8dc6bea24","system_id":"levelo_inurba_marseille","lat":43.26228,"lon":5.40454,"is_reserved":false,"is_disabled":false,"rental_uris":{"android":"levelo://app?vid=1264272d-84a5-45fc-a4af-58d8dc6bea24","ios":"levelo://app?vid=1264272d-84a5-45fc-a4af-58d8dc6bea24"},"vehicle_type_id":"4","last_reported":1751739163,"current_range_meters":18000,"station_id":"ce4bhmh2rcd13ifvqgmg","pricing_plan_id":"cebpf4jnsgd1na2vs0mg"},{"bike_id":"c43eae3b-dccb-4509-aa37-b59577141f6c","system_id":"levelo_inurba_marseille","lat":43.23215,"lon":5.35566,"is_reserved":false,"is_disabled":false,"rental_uris":{"android":"levelo://app?vid=c43eae3b-dccb-4509-aa37-b59577141f6c","ios":"levelo://app?vid=c43eae3b-dccb-4509-aa37-b59577141f6c"},"vehicle_type_id":"4","last_reported":1751739163,"current_range_meters":18000,"station_id":"ce4bhu92rcd13ifvqi70","pricing_plan_id":"cebpf4jnsgd1na2vs0mg"},{"bike_id":"92d94d14-d197-44ad-9de0-0e6045e7cbb1","system_id":"levelo_inurba_marseille","lat":43.30426,"lon":5.39734,"is_reserved":false,"is_disabled":false,"rental_uris":{"android":"levelo://app?vid=92d94d14-d197-44ad-9de0-0e6045e7cbb1","ios":"levelo://app?vid=92d94d14-d197-44ad-9de0-0e6045e7cbb1"},"vehicle_type_id":"4","last_reported":1751739163,"current_range_meters":18800,"station_id":"ce4bh092rcd13ifvqd20","pricing_plan_id":"cebpf4jnsgd1na2vs0mg"},{"bike_id":"d5ac8cdf-52b8-49ac-9700-4c91ec376a71","system_id":"levelo_inurba_marseille","lat":43.24805,"lon":5.37457,"is_reserved":false,"is_disabled":false,"rental_uris":{"android":"levelo://app?vid=d5ac8cdf-52b8-49ac-9700-4c91ec376a71","ios":"levelo://app?vid=d5ac8cdf-52b8-49ac-9700-4c91ec376a71"},"vehicle_type_id":"4","last_reported":1751739163,"current_range_meters":18800,"station_id":"ce4bhgh2rcd13ifvqfb0","pricing_plan_id":"cebpf4jnsgd1na2vs0mg"},{"bike_id":"f80c61ac-9570-479a-b73c-17eeae26a6c8","system_id":"levelo_inurba_marseille","lat":43.27083,"lon":5.42272,"is_reserved":false,"is_disabled":false,"rental_uris":{"android":"levelo://app?vid=f80c61ac-9570-479a-b73c-17eeae26a6c8","ios":"levelo://app?vid=f80c61ac-9570-479a-b73c-17eeae26a6c8"},"vehicle_type_id":"4","last_reported":1751739163,"current_range_meters":18800,"station_id":"ce4bhk92rcd13ifvqgb0","pricing_plan_id":"cebpf4jnsgd1na2vs0mg"},{"bike_id":"8f5b5fb6-be79-49fb-8a26-c8ab6c1347b6","system_id":"levelo_inurba_marseille","lat":43.29555,"lon":5.42295,"is_reserved":false,"is_disabled":false,"rental_uris":{"android":"levelo://app?vid=8f5b5fb6-be79-49fb-8a26-c8ab6c1347b6","ios":"levelo://app?vid=8f5b5fb6-be79-49fb-8a26-c8ab6c1347b6"},"vehicle_type_id":"4","last_reported":1751739163,"current_range_meters":18800,"station_id":"ce4bhph2rcd13ifvqhdg","pricing_plan_id":"cebpf4jnsgd1na2vs0mg"},{"bike_id":"7326ac85-0dd5-4e29-9ecf-dc0478ccac29","system_id":"levelo_inurba_marseille","lat":43.28412,"lon":5.37506,"is_reserved":false,"is_disabled":false,"rental_uris":{"android":"levelo://app?vid=7326ac85-0dd5-4e29-9ecf-dc0478ccac29","ios":"levelo://app?vid=7326ac85-0dd5-4e29-9ecf-dc0478ccac29"},"vehicle_type_id":"4","last_reported":1751739163,"current_range_meters":19200,"station_id":"ce4bh412rcd13ifvqds0","pricing_plan_id":"cebpf4jnsgd1na2vs0mg"},{"bike_id":"9abd6f77-4e53-434c-beb9-a6104827143a","system_id":"levelo_inurba_marseille","lat":43.2438,"lon":5.37061,"is_reserved":false,"is_disabled":false,"rental_uris":{"android":"levelo://app?vid=9abd6f77-4e53-434c-beb9-a6104827143a","ios":"levelo://app?vid=9abd6f77-4e53-434c-beb9-a6104827143a"},"vehicle_type_id":"4","last_reported":1751739163,"current_range_meters":19200,"station_id":"ce4bhhh2rcd13ifvqfk0","pricing_plan_id":"cebpf4jnsgd1na2vs0mg"},{"bike_id":"8c7c5d40-ce0f-4f33-9d38-1a6b52d48c34","system_id":"levelo_inurba_marseille","lat":43.24178,"lon":5.39724,"is_reserved":false,"is_disabled":false,"rental_uris":{"android":"levelo://app?vid=8c7c5d40-ce0f-4f33-9d38-1a6b52d48c34","ios":"levelo://app?vid=8c7c5d40-ce0f-4f33-9d38-1a6b52d48c34"},"vehicle_type_id":"4","last_reported":1751739163,"current_range_meters":19200,"station_id":"ce4bhn12rcd13ifvqgpg","pricing_plan_id":"cebpf4jnsgd1na2vs0mg"},{"bike_id":"874aa777-5e11-4cc9-9933-2f91b3d23da8","system_id":"levelo_inurba_marseille","lat":43.23179,"lon":5.3999,"is_reserved":false,"is_disabled":false,"rental_uris":{"android":"levelo://app?vid=874aa777-5e11-4cc9-9933-2f91b3d23da8","ios":"levelo://app?vid=874aa777-5e11-4cc9-9933-2f91b3d23da8"},"vehicle_type_id":"4","last_reported":1751739163,"current_range_meters":19200,"station_id":"ce4bhn12rcd13ifvqgqg","pricing_plan_id":"cebpf4jnsgd1na2vs0mg"},{"bike_id":"80955d0f-8669-4c02-b90f-c6fe20790c37","system_id":"levelo_inurba_marseille","lat":43.23194,"lon":5.35078,"is_reserved":false,"is_disabled":false,"rental_uris":{"android":"levelo://app?vid=80955d0f-8669-4c02-b90f-c6fe20790c37","ios":"levelo://app?vid=80955d0f-8669-4c02-b90f-c6fe20790c37"},"vehicle_type_id":"4","last_reported":1751739163,"current_range_meters":19600,"station_id":"","pricing_plan_id":"cebpf4jnsgd1na2vs0mg"},{"bike_id":"3b22f952-d0bc-4c00-8fd3-7e27b88aea23","system_id":"levelo_inurba_marseille","lat":43.29659,"lon":5.36245,"is_reserved":false,"is_disabled":false,"rental_uris":{"android":"levelo://app?vid=3b22f952-d0bc-4c00-8fd3-7e27b88aea23","ios":"levelo://app?vid=3b22f952-d0bc-4c00-8fd3-7e27b88aea23"},"vehicle_type_id":"4","last_reported":1751739163,"current_range_meters":19600,"station_id":"","pricing_plan_id":"cebpf4jnsgd1na2vs0mg"},{"bike_id":"2196d5c4-1817-40a9-8ab8-7dc410eb60e0","system_id":"levelo_inurba_marseille","lat":43.30545,"lon":5.38432,"is_reserved":false,"is_disabled":false,"rental_uris":{"android":"levelo://app?vid=2196d5c4-1817-40a9-8ab8-7dc410eb60e0","ios":"levelo://app?vid=2196d5c4-1817-40a9-8ab8-7dc410eb60e0"},"vehicle_type_id":"4","last_reported":1751739163,"current_range_meters":19600,"station_id":"ce4bgg92rcd13ifvqb30","pricing_plan_id":"cebpf4jnsgd1na2vs0mg"},{"bike_id":"944f94f8-8ad8-4009-8805-8d24bfb61d16","system_id":"levelo_inurba_marseille","lat":43.29533,"lon":5.38537,"is_reserved":false,"is_disabled":false,"rental_uris":{"android":"levelo://app?vid=944f94f8-8ad8-4009-8805-8d24bfb61d16","ios":"levelo://app?vid=944f94f8-8ad8-4009-8805-8d24bfb61d16"},"vehicle_type_id":"4","last_reported":1751739163,"current_range_meters":19600,"station_id":"ce4bgih2rcd13ifvqba0","pricing_plan_id":"cebpf4jnsgd1na2vs0mg"},{"bike_id":"7d98e11a-3c2a-495b-b104-8c2c800a5f52","system_id":"levelo_inurba_marseille","lat":43.26682,"lon":5.38272,"is_reserved":false,"is_disabled":false,"rental_uris":{"android":"levelo://app?vid=7d98e11a-3c2a-495b-b104-8c2c800a5f52","ios":"levelo://app?vid=7d98e11a-3c2a-495b-b104-8c2c800a5f52"},"vehicle_type_id":"4","last_reported":1751739163,"current_range_meters":19600,"station_id":"ce4bhg92rcd13ifvqf90","pricing_plan_id":"cebpf4jnsgd1na2vs0mg"},{"bike_id":"a6db5fc2-e5d0-430e-aa71-36b96c5b42ff","system_id":"levelo_inurba_marseille","lat":43.26209,"lon":5.37443,"is_reserved":false,"is_disabled":false,"rental_uris":{"android":"levelo://app?vid=a6db5fc2-e5d0-430e-aa71-36b96c5b42ff","ios":"levelo://app?vid=a6db5fc2-e5d0-430e-aa71-36b96c5b42ff"},"vehicle_type_id":"4","last_reported":1751739163,"current_range_meters":19600,"station_id":"ce4bhgp2rcd13ifvqfc0","pricing_plan_id":"cebpf4jnsgd1na2vs0mg"},{"bike_id":"74fa0c94-20bb-42ef-a1e0-0ffe6ad28633","system_id":"levelo_inurba_marseille","lat":43.316186,"lon":5.423963,"is_reserved":false,"is_disabled":false,"rental_uris":{"android":"levelo://app?vid=74fa0c94-20bb-42ef-a1e0-0ffe6ad28633","ios":"levelo://app?vid=74fa0c94-20bb-42ef-a1e0-0ffe6ad28633"},"vehicle_type_id":"4","last_reported":1751739163,"current_range_meters":19600,"station_id":"ce4bhp92rcd13ifvqhbg","pricing_plan_id":"cebpf4jnsgd1na2vs0mg"},{"bike_id":"4496e126-dcdb-4eaf-bc0c-937c5d494ed1","system_id":"levelo_inurba_marseille","lat":43.31712,"lon":5.437037,"is_reserved":false,"is_disabled":false,"rental_uris":{"android":"levelo://app?vid=4496e126-dcdb-4eaf-bc0c-937c5d494ed1","ios":"levelo://app?vid=4496e126-dcdb-4eaf-bc0c-937c5d494ed1"},"vehicle_type_id":"4","last_reported":1751739163,"current_range_meters":19600,"station_id":"ce4bhp92rcd13ifvqhcg","pricing_plan_id":"cebpf4jnsgd1na2vs0mg"},{"bike_id":"1651de4a-86a7-438f-ac73-c8aa63351922","system_id":"levelo_inurba_marseille","lat":43.33046,"lon":5.39053,"is_reserved":false,"is_disabled":false,"rental_uris":{"android":"levelo://app?vid=1651de4a-86a7-438f-ac73-c8aa63351922","ios":"levelo://app?vid=1651de4a-86a7-438f-ac73-c8aa63351922"},"vehicle_type_id":"4","last_reported":1751739163,"current_range_meters":19600,"station_id":"ce4bhr92rcd13ifvqhrg","pricing_plan_id":"cebpf4jnsgd1na2vs0mg"},{"bike_id":"b8503c38-13b9-4697-a532-da3a50ada19c","system_id":"levelo_inurba_marseille","lat":43.30885,"lon":5.3916,"is_reserved":false,"is_disabled":false,"rental_uris":{"android":"levelo://app?vid=b8503c38-13b9-4697-a532-da3a50ada19c","ios":"levelo://app?vid=b8503c38-13b9-4697-a532-da3a50ada19c"},"vehicle_type_id":"4","last_reported":1751739163,"current_range_meters":20000,"station_id":"","pricing_plan_id":"cebpf4jnsgd1na2vs0mg"},{"bike_id":"6dc012a3-3703-4c25-b766-b9f6484618d1","system_id":"levelo_inurba_marseille","lat":43.31166,"lon":5.38726,"is_reserved":false,"is_disabled":false,"rental_uris":{"android":"levelo://app?vid=6dc012a3-3703-4c25-b766-b9f6484618d1","ios":"levelo://app?vid=6dc012a3-3703-4c25-b766-b9f6484618d1"},"vehicle_type_id":"4","last_reported":1751739163,"current_range_meters":20000,"station_id":"ce4bgv12rcd13ifvqcp0","pricing_plan_id":"cebpf4jnsgd1na2vs0mg"},{"bike_id":"90ab9f0d-0c01-41dd-8a1a-1287ed54b7e7","system_id":"levelo_inurba_marseille","lat":43.31314,"lon":5.39695,"is_reserved":false,"is_disabled":false,"rental_uris":{"android":"levelo://app?vid=90ab9f0d-0c01-41dd-8a1a-1287ed54b7e7","ios":"levelo://app?vid=90ab9f0d-0c01-41dd-8a1a-1287ed54b7e7"},"vehicle_type_id":"4","last_reported":1751739163,"current_range_meters":20000,"station_id":"ce4bgvp2rcd13ifvqcu0","pricing_plan_id":"cebpf4jnsgd1na2vs0mg"},{"bike_id":"8553a37c-6db8-472f-a106-c2751fa8f91c","system_id":"levelo_inurba_marseille","lat":43.31336,"lon":5.39694,"is_reserved":false,"is_disabled":false,"rental_uris":{"android":"levelo://app?vid=8553a37c-6db8-472f-a106-c2751fa8f91c","ios":"levelo://app?vid=8553a37c-6db8-472f-a106-c2751fa8f91c"},"vehicle_type_id":"4","last_reported":1751739163,"current_range_meters":20000,"station_id":"ce4bgvp2rcd13ifvqcu0","pricing_plan_id":"cebpf4jnsgd1na2vs0mg"},{"bike_id":"f2b0f265-a21b-4d8c-9f97-0647e2b796d8","system_id":"levelo_inurba_marseille","lat":43.28477,"lon":5.38556,"is_reserved":false,"is_disabled":false,"rental_uris":{"android":"levelo://app?vid=f2b0f265-a21b-4d8c-9f97-0647e2b796d8","ios":"levelo://app?vid=f2b0f265-a21b-4d8c-9f97-0647e2b796d8"},"vehicle_type_id":"4","last_reported":1751739163,"current_range_meters":20000,"station_id":"ce4bh8p2rcd13ifvqeb0","pricing_plan_id":"cebpf4jnsgd1na2vs0mg"},{"bike_id":"7b39addf-0c81-4848-bab3-5aea34e44b0e","system_id":"levelo_inurba_marseille","lat":43.27963,"lon":5.38727,"is_reserved":false,"is_disabled":false,"rental_uris":{"android":"levelo://app?vid=7b39addf-0c81-4848-bab3-5aea34e44b0e","ios":"levelo://app?vid=7b39addf-0c81-4848-bab3-5aea34e44b0e"},"vehicle_type_id":"4","last_reported":1751739163,"current_range_meters":20000,"station_id":"ce4bhg12rcd13ifvqf80","pricing_plan_id":"cebpf4jnsgd1na2vs0mg"},{"bike_id":"f75184c9-e1ab-4581-8df3-2120d045e32e","system_id":"levelo_inurba_marseille","lat":43.27071,"lon":5.42271,"is_reserved":false,"is_disabled":false,"rental_uris":{"android":"levelo://app?vid=f75184c9-e1ab-4581-8df3-2120d045e32e","ios":"levelo://app?vid=f75184c9-e1ab-4581-8df3-2120d045e32e"},"vehicle_type_id":"4","last_reported":1751739163,"current_range_meters":20000,"station_id":"ce4bhk92rcd13ifvqgb0","pricing_plan_id":"cebpf4jnsgd1na2vs0mg"},{"bike_id":"ac77698d-484e-413d-8696-832890c0e8d1","system_id":"levelo_inurba_marseille","lat":43.23144,"lon":5.43705,"is_reserved":false,"is_disabled":false,"rental_uris":{"android":"levelo://app?vid=ac77698d-484e-413d-8696-832890c0e8d1","ios":"levelo://app?vid=ac77698d-484e-413d-8696-832890c0e8d1"},"vehicle_type_id":"4","last_reported":1751739163,"current_range_meters":20000,"station_id":"ce4bhmp2rcd13ifvqgog","pricing_plan_id":"cebpf4jnsgd1na2vs0mg"},{"bike_id":"e113175a-26c2-4709-bd2e-8b90ec8dd3ee","system_id":"levelo_inurba_marseille","lat":43.27487,"lon":5.42463,"is_reserved":false,"is_disabled":false,"rental_uris":{"android":"levelo://app?vid=e113175a-26c2-4709-bd2e-8b90ec8dd3ee","ios":"levelo://app?vid=e113175a-26c2-4709-bd2e-8b90ec8dd3ee"},"vehicle_type_id":"4","last_reported":1751739163,"current_range_meters":20000,"station_id":"ce4bhn92rcd13ifvqgrg","pricing_plan_id":"cebpf4jnsgd1na2vs0mg"},{"bike_id":"10a2d5ed-65d4-41a1-b5d0-4d065e0bfbaf","system_id":"levelo_inurba_marseille","lat":43.31764,"lon":5.39012,"is_reserved":false,"is_disabled":false,"rental_uris":{"android":"levelo://app?vid=10a2d5ed-65d4-41a1-b5d0-4d065e0bfbaf","ios":"levelo://app?vid=10a2d5ed-65d4-41a1-b5d0-4d065e0bfbaf"},"vehicle_type_id":"4","last_reported":1751739163,"current_range_meters":20000,"station_id":"ce4bhqp2rcd13ifvqhng","pricing_plan_id":"cebpf4jnsgd1na2vs0mg"},{"bike_id":"aa8f61d8-323f-47e5-890f-90ad80dab82c","system_id":"levelo_inurba_marseille","lat":43.33719,"lon":5.3919,"is_reserved":false,"is_disabled":false,"rental_uris":{"android":"levelo://app?vid=aa8f61d8-323f-47e5-890f-90ad80dab82c","ios":"levelo://app?vid=aa8f61d8-323f-47e5-890f-90ad80dab82c"},"vehicle_type_id":"4","last_reported":1751739163,"current_range_meters":20000,"station_id":"ce4bhr92rcd13ifvqhsg","pricing_plan_id":"cebpf4jnsgd1na2vs0mg"},{"bike_id":"e8d7fcf5-14a0-430b-a247-ddceafd06b95","system_id":"levelo_inurba_marseille","lat":43.22504,"lon":5.34788,"is_reserved":false,"is_disabled":false,"rental_uris":{"android":"levelo://app?vid=e8d7fcf5-14a0-430b-a247-ddceafd06b95","ios":"levelo://app?vid=e8d7fcf5-14a0-430b-a247-ddceafd06b95"},"vehicle_type_id":"4","last_reported":1751739163,"current_range_meters":20000,"station_id":"st_cvj5dfep6f1abm77gieg","pricing_plan_id":"cebpf4jnsgd1na2vs0mg"},{"bike_id":"d0f90c24-dd03-411b-9731-55305f76b7c8","system_id":"levelo_inurba_marseille","lat":43.21197,"lon":5.35067,"is_reserved":false,"is_disabled":false,"rental_uris":{"android":"levelo://app?vid=d0f90c24-dd03-411b-9731-55305f76b7c8","ios":"levelo://app?vid=d0f90c24-dd03-411b-9731-55305f76b7c8"},"vehicle_type_id":"4","last_reported":1751739163,"current_range_meters":20000,"station_id":"st_cvj6sg6p6f1abm77japg","pricing_plan_id":"cebpf4jnsgd1na2vs0mg"},{"bike_id":"37f2becd-23f9-4f13-a711-38b8024eeec7","system_id":"levelo_inurba_marseille","lat":43.33768,"lon":5.37516,"is_reserved":false,"is_disabled":false,"rental_uris":{"android":"levelo://app?vid=37f2becd-23f9-4f13-a711-38b8024eeec7","ios":"levelo://app?vid=37f2becd-23f9-4f13-a711-38b8024eeec7"},"vehicle_type_id":"4","last_reported":1751739163,"current_range_meters":20400,"station_id":"","pricing_plan_id":"cebpf4jnsgd1na2vs0mg"},{"bike_id":"429fcfd4-52c6-4a37-a77c-e1d9b2bd16ca","system_id":"levelo_inurba_marseille","lat":43.295299,"lon":5.38545,"is_reserved":false,"is_disabled":false,"rental_uris":{"android":"levelo://app?vid=429fcfd4-52c6-4a37-a77c-e1d9b2bd16ca","ios":"levelo://app?vid=429fcfd4-52c6-4a37-a77c-e1d9b2bd16ca"},"vehicle_type_id":"4","last_reported":1751739163,"current_range_meters":20400,"station_id":"ce4bgih2rcd13ifvqba0","pricing_plan_id":"cebpf4jnsgd1na2vs0mg"},{"bike_id":"2530183f-9886-41c7-9977-60008f38b447","system_id":"levelo_inurba_marseille","lat":43.28453,"lon":5.35884,"is_reserved":false,"is_disabled":false,"rental_uris":{"android":"levelo://app?vid=2530183f-9886-41c7-9977-60008f38b447","ios":"levelo://app?vid=2530183f-9886-41c7-9977-60008f38b447"},