{"last_updated":1769627885,"ttl":60,"version":"2.2","data":{"bikes":[{"bike_id":"be2b3230-6f7e-483e-8963-55b7d9e0823b","system_id":"levelo_inurba_marseille","lat":43.29709,"lon":5.37692,"is_reserved":false,"is_disabled":false,"rental_uris":{"android":"levelo://app?vid=be2b3230-6f7e-483e-8963-55b7d9e0823b","ios":"levelo://app?vid=be2b3230-6f7e-483e-8963-55b7d9e0823b"},"vehicle_type_id":"4","last_reported":1769627885,"current_range_meters":2800,"station_id":"ce4bgkh2rcd13ifvqbl0","pricing_plan_id":"cebpf4jnsgd1na2vs0mg"},{"bike_id":"8a225959-9028-4e8e-bb41-43f7382c386a","system_id":"levelo_inurba_marseille","lat":43.25439,"lon":5.39579,"is_reserved":false,"is_disabled":false,"rental_uris":{"android":"levelo://app?vid=8a225959-9028-4e8e-bb41-43f7382c386a","ios":"levelo://app?vid=8a225959-9028-4e8e-bb41-43f7382c386a"},"vehicle_type_id":"4","last_reported":1769627885,"current_range_meters":2800,"station_id":"","pricing_plan_id":"cebpf4jnsgd1na2vs0mg"},{"bike_id":"56e01f36-328e-43f0-84f6-e09a0e326ea2","system_id":"levelo_inurba_marseille","lat":43.29786,"lon":5.39339,"is_reserved":false,"is_disabled":false,"rental_uris":{"android":"levelo://app?vid=56e01f36-328e-43f0-84f6-e09a0e326ea2","ios":"levelo://app?vid=56e01f36-328e-43f0-84f6-e09a0e326ea2"},"vehicle_type_id":"4","last_reported":1769627885,"current_range_meters":2800,"station_id":"chh1huq6cuj3fo74tm60","pricing_plan_id":"cebpf4jnsgd1na2vs0mg"},{"bike_id":"209aada7-e9c4-498a-b6b6-30cb44a09b4c","system_id":"levelo_inurba_marseille","lat":43.30648,"lon":5.40072,"is_reserved":false,"is_disabled":false,"rental_uris":{"android":"levelo://app?vid=209aada7-e9c4-498a-b6b6-30cb44a09b4c","ios":"levelo://app?vid=209aada7-e9c4-498a-b6b6-30cb44a09b4c"},"vehicle_type_id":"4","last_reported":1769627885,"current_range_meters":2800,"station_id":"ce4bh112rcd13ifvqda0","pricing_plan_id":"cebpf4jnsgd1na2vs0mg"},{"bike_id":"819c08d3-8385-4867-b63b-50db5669de60","system_id":"levelo_inurba_marseille","lat":43.28611,"lon":5.35101,"is_reserved":false,"is_disabled":false,"rental_uris":{"android":"levelo://app?vid=819c08d3-8385-4867-b63b-50db5669de60","ios":"levelo://app?vid=819c08d3-8385-4867-b63b-50db5669de60"},"vehicle_type_id":"4","last_reported":1769627885,"current_range_meters":2800,"station_id":"ce4bhch2rcd13ifvqeug","pricing_plan_id":"cebpf4jnsgd1na2vs0mg"},{"bike_id":"51b8f39f-e87e-4327-a9b7-dad481cf0cba","system_id":"levelo_inurba_marseille","lat":43.2378,"lon":5.36631,"is_reserved":false,"is_disabled":false,"rental_uris":{"android":"levelo://app?vid=51b8f39f-e87e-4327-a9b7-dad481cf0cba","ios":"levelo://app?vid=51b8f39f-e87e-4327-a9b7-dad481cf0cba"},"vehicle_type_id":"4","last_reported":1769627885,"current_range_meters":3200,"station_id":"st_d3nk18o9ro0c73en2l3g","pricing_plan_id":"cebpf4jnsgd1na2vs0mg"},{"bike_id":"c66edf8f-b6c5-4b2f-be4e-f452895b77a1","system_id":"levelo_inurba_marseille","lat":43.23142,"lon":5.43709,"is_reserved":false,"is_disabled":false,"rental_uris":{"android":"levelo://app?vid=c66edf8f-b6c5-4b2f-be4e-f452895b77a1","ios":"levelo://app?vid=c66edf8f-b6c5-4b2f-be4e-f452895b77a1"},"vehicle_type_id":"4","last_reported":1769627885,"current_range_meters":3200,"station_id":"ce4bhmp2rcd13ifvqgog","pricing_plan_id":"cebpf4jnsgd1na2vs0mg"},{"bike_id":"958b43fb-8c80-4692-977b-3f50e641a707","system_id":"levelo_inurba_marseille","lat":43.25931,"lon":5.40911,"is_reserved":false,"is_disabled":false,"rental_uris":{"android":"levelo://app?vid=958b43fb-8c80-4692-977b-3f50e641a707","ios":"levelo://app?vid=958b43fb-8c80-4692-977b-3f50e641a707"},"vehicle_type_id":"4","last_reported":1769627885,"current_range_meters":3200,"station_id":"ce4bhm92rcd13ifvqglg","pricing_plan_id":"cebpf4jnsgd1na2vs0mg"},{"bike_id":"0e3e56a8-c028-4a2f-88ed-6334be577f88","system_id":"levelo_inurba_marseille","lat":43.23156,"lon":5.43711,"is_reserved":false,"is_disabled":false,"rental_uris":{"android":"levelo://app?vid=0e3e56a8-c028-4a2f-88ed-6334be577f88","ios":"levelo://app?vid=0e3e56a8-c028-4a2f-88ed-6334be577f88"},"vehicle_type_id":"4","last_reported":1769627885,"current_range_meters":3200,"station_id":"ce4bhmp2rcd13ifvqgog","pricing_plan_id":"cebpf4jnsgd1na2vs0mg"},{"bike_id":"db91af1c-8610-46d2-8811-cba210a8ff4f","system_id":"levelo_inurba_marseille","lat":43.3325,"lon":5.3796,"is_reserved":false,"is_disabled":false,"rental_uris":{"android":"levelo://app?vid=db91af1c-8610-46d2-8811-cba210a8ff4f","ios":"levelo://app?vid=db91af1c-8610-46d2-8811-cba210a8ff4f"},"vehicle_type_id":"4","last_reported":1769627885,"current_range_meters":3200,"station_id":"","pricing_plan_id":"cebpf4jnsgd1na2vs0mg"},{"bike_id":"caf214c6-f51e-422f-a150-65a2d01f29fe","system_id":"levelo_inurba_marseille","lat":43.33278,"lon":5.36629,"is_reserved":false,"is_disabled":false,"rental_uris":{"android":"levelo://app?vid=caf214c6-f51e-422f-a150-65a2d01f29fe","ios":"levelo://app?vid=caf214c6-f51e-422f-a150-65a2d01f29fe"},"vehicle_type_id":"4","last_reported":1769627885,"current_range_meters":3200,"station_id":"","pricing_plan_id":"cebpf4jnsgd1na2vs0mg"},{"bike_id":"1841ce2f-29d9-4a43-a82f-38aff1b858af","system_id":"levelo_inurba_marseille","lat":43.3022,"lon":5.39463,"is_reserved":false,"is_disabled":false,"rental_uris":{"android":"levelo://app?vid=1841ce2f-29d9-4a43-a82f-38aff1b858af","ios":"levelo://app?vid=1841ce2f-29d9-4a43-a82f-38aff1b858af"},"vehicle_type_id":"4","last_reported":1769627885,"current_range_meters":3200,"station_id":"ce4bh0p2rcd13ifvqd70","pricing_plan_id":"cebpf4jnsgd1na2vs0mg"},{"bike_id":"e83efd53-4efa-4d5c-aa6e-c49dccdfba5f","system_id":"levelo_inurba_marseille","lat":43.287202,"lon":5.37942,"is_reserved":false,"is_disabled":false,"rental_uris":{"android":"levelo://app?vid=e83efd53-4efa-4d5c-aa6e-c49dccdfba5f","ios":"levelo://app?vid=e83efd53-4efa-4d5c-aa6e-c49dccdfba5f"},"vehicle_type_id":"4","last_reported":1769627885,"current_range_meters":3200,"station_id":"ce4bh9p2rcd13ifvqec0","pricing_plan_id":"cebpf4jnsgd1na2vs0mg"},{"bike_id":"fa9cdf49-3805-4429-be46-3d158a754724","system_id":"levelo_inurba_marseille","lat":43.317095,"lon":5.37736,"is_reserved":false,"is_disabled":false,"rental_uris":{"android":"levelo://app?vid=fa9cdf49-3805-4429-be46-3d158a754724","ios":"levelo://app?vid=fa9cdf49-3805-4429-be46-3d158a754724"},"vehicle_type_id":"4","last_reported":1769627885,"current_range_meters":3600,"station_id":"ce4bgth2rcd13ifvqch0","pricing_plan_id":"cebpf4jnsgd1na2vs0mg"},{"bike_id":"06b5eed8-ce3c-491e-8709-4c957cf9f3a4","system_id":"levelo_inurba_marseille","lat":43.29278,"lon":5.37447,"is_reserved":false,"is_disabled":false,"rental_uris":{"android":"levelo://app?vid=06b5eed8-ce3c-491e-8709-4c957cf9f3a4","ios":"levelo://app?vid=06b5eed8-ce3c-491e-8709-4c957cf9f3a4"},"vehicle_type_id":"4","last_reported":1769627885,"current_range_meters":3600,"station_id":"ce4bgi12rcd13ifvqb70","pricing_plan_id":"cebpf4jnsgd1na2vs0mg"},{"bike_id":"612127d3-f680-45da-916f-5f4649ab812b","system_id":"levelo_inurba_marseille","lat":43.29535,"lon":5.39394,"is_reserved":false,"is_disabled":false,"rental_uris":{"android":"levelo://app?vid=612127d3-f680-45da-916f-5f4649ab812b","ios":"levelo://app?vid=612127d3-f680-45da-916f-5f4649ab812b"},"vehicle_type_id":"4","last_reported":1769627885,"current_range_meters":3600,"station_id":"ce4bh292rcd13ifvqdf0","pricing_plan_id":"cebpf4jnsgd1na2vs0mg"},{"bike_id":"33719f7a-34a9-405d-9fba-7fc26fb034a5","system_id":"levelo_inurba_marseille","lat":43.31038,"lon":5.37164,"is_reserved":false,"is_disabled":false,"rental_uris":{"android":"levelo://app?vid=33719f7a-34a9-405d-9fba-7fc26fb034a5","ios":"levelo://app?vid=33719f7a-34a9-405d-9fba-7fc26fb034a5"},"vehicle_type_id":"4","last_reported":1769627885,"current_range_meters":3600,"station_id":"st_d4kl2rp97mjs73e7tdfg","pricing_plan_id":"cebpf4jnsgd1na2vs0mg"},{"bike_id":"4552afe7-3b89-49b5-bc1f-a95e2a58dbf5","system_id":"levelo_inurba_marseille","lat":43.22555,"lon":5.4163,"is_reserved":false,"is_disabled":false,"rental_uris":{"android":"levelo://app?vid=4552afe7-3b89-49b5-bc1f-a95e2a58dbf5","ios":"levelo://app?vid=4552afe7-3b89-49b5-bc1f-a95e2a58dbf5"},"vehicle_type_id":"4","last_reported":1769627885,"current_range_meters":3600,"station_id":"st_d2o4gvlbi1j2169b742g","pricing_plan_id":"cebpf4jnsgd1na2vs0mg"},{"bike_id":"5b541917-86b0-46e9-b782-3fdbd5f814c3","system_id":"levelo_inurba_marseille","lat":43.276805,"lon":5.388756,"is_reserved":false,"is_disabled":false,"rental_uris":{"android":"levelo://app?vid=5b541917-86b0-46e9-b782-3fdbd5f814c3","ios":"levelo://app?vid=5b541917-86b0-46e9-b782-3fdbd5f814c3"},"vehicle_type_id":"4","last_reported":1769627885,"current_range_meters":3600,"station_id":"ce4bhi12rcd13ifvqfo0","pricing_plan_id":"cebpf4jnsgd1na2vs0mg"},{"bike_id":"59ae0900-c855-4741-b5cf-c53827ed9733","system_id":"levelo_inurba_marseille","lat":43.24164,"lon":5.36394,"is_reserved":false,"is_disabled":false,"rental_uris":{"android":"levelo://app?vid=59ae0900-c855-4741-b5cf-c53827ed9733","ios":"levelo://app?vid=59ae0900-c855-4741-b5cf-c53827ed9733"},"vehicle_type_id":"4","last_reported":1769627885,"current_range_meters":3600,"station_id":"cpo36qri1sfpv3e86is0","pricing_plan_id":"cebpf4jnsgd1na2vs0mg"},{"bike_id":"38939492-5112-461d-8788-f383260a8286","system_id":"levelo_inurba_marseille","lat":43.331604,"lon":5.376959,"is_reserved":false,"is_disabled":false,"rental_uris":{"android":"levelo://app?vid=38939492-5112-461d-8788-f383260a8286","ios":"levelo://app?vid=38939492-5112-461d-8788-f383260a8286"},"vehicle_type_id":"4","last_reported":1769627885,"current_range_meters":3600,"station_id":"st_d46cu089ee8s73dldbu0","pricing_plan_id":"cebpf4jnsgd1na2vs0mg"},{"bike_id":"832ba7eb-1c35-43cb-be63-61f58639df63","system_id":"levelo_inurba_marseille","lat":43.323551,"lon":5.367334,"is_reserved":false,"is_disabled":false,"rental_uris":{"android":"levelo://app?vid=832ba7eb-1c35-43cb-be63-61f58639df63","ios":"levelo://app?vid=832ba7eb-1c35-43cb-be63-61f58639df63"},"vehicle_type_id":"4","last_reported":1769627885,"current_range_meters":3600,"station_id":"ce4bhsh2rcd13ifvqi2g","pricing_plan_id":"cebpf4jnsgd1na2vs0mg"},{"bike_id":"afaefce4-ce68-47a0-a59c-c09a8fc84a58","system_id":"levelo_inurba_marseille","lat":43.280238,"lon":5.378075,"is_reserved":false,"is_disabled":false,"rental_uris":{"android":"levelo://app?vid=afaefce4-ce68-47a0-a59c-c09a8fc84a58","ios":"levelo://app?vid=afaefce4-ce68-47a0-a59c-c09a8fc84a58"},"vehicle_type_id":"4","last_reported":1769627885,"current_range_meters":3600,"station_id":"ce4bhf92rcd13ifvqf50","pricing_plan_id":"cebpf4jnsgd1na2vs0mg"},{"bike_id":"d18f0bbf-011e-4435-adaf-0df975e36f5e","system_id":"levelo_inurba_marseille","lat":43.29752,"lon":5.42774,"is_reserved":false,"is_disabled":false,"rental_uris":{"android":"levelo://app?vid=d18f0bbf-011e-4435-adaf-0df975e36f5e","ios":"levelo://app?vid=d18f0bbf-011e-4435-adaf-0df975e36f5e"},"vehicle_type_id":"4","last_reported":1769627885,"current_range_meters":4000,"station_id":"st_d3md5207bmas73dh9klg","pricing_plan_id":"cebpf4jnsgd1na2vs0mg"},{"bike_id":"d2c4eb74-42b0-4647-9a1a-00c8b86dfe4c","system_id":"levelo_inurba_marseille","lat":43.258294,"lon":5.394277,"is_reserved":false,"is_disabled":false,"rental_uris":{"android":"levelo://app?vid=d2c4eb74-42b0-4647-9a1a-00c8b86dfe4c","ios":"levelo://app?vid=d2c4eb74-42b0-4647-9a1a-00c8b86dfe4c"},"vehicle_type_id":"4","last_reported":1769627885,"current_range_meters":4000,"station_id":"ce4bhip2rcd13ifvqft0","pricing_plan_id":"cebpf4jnsgd1na2vs0mg"},{"bike_id":"1acf350e-2e0b-4ac8-9800-5b952b099760","system_id":"levelo_inurba_marseille","lat":43.25086,"lon":5.39522,"is_reserved":false,"is_disabled":false,"rental_uris":{"android":"levelo://app?vid=1acf350e-2e0b-4ac8-9800-5b952b099760","ios":"levelo://app?vid=1acf350e-2e0b-4ac8-9800-5b952b099760"},"vehicle_type_id":"4","last_reported":1769627885,"current_range_meters":4000,"station_id":"","pricing_plan_id":"cebpf4jnsgd1na2vs0mg"},{"bike_id":"30d5ad6b-daa5-4699-ad03-8950354a49a5","system_id":"levelo_inurba_marseille","lat":43.32105,"lon":5.36766,"is_reserved":false,"is_disabled":false,"rental_uris":{"android":"levelo://app?vid=30d5ad6b-daa5-4699-ad03-8950354a49a5","ios":"levelo://app?vid=30d5ad6b-daa5-4699-ad03-8950354a49a5"},"vehicle_type_id":"4","last_reported":1769627885,"current_range_meters":4000,"station_id":"ce4bhrh2rcd13ifvqhug","pricing_plan_id":"cebpf4jnsgd1na2vs0mg"},{"bike_id":"2e77998e-c517-4f35-8821-169fc0fea54e","system_id":"levelo_inurba_marseille","lat":43.232,"lon":5.35556,"is_reserved":false,"is_disabled":false,"rental_uris":{"android":"levelo://app?vid=2e77998e-c517-4f35-8821-169fc0fea54e","ios":"levelo://app?vid=2e77998e-c517-4f35-8821-169fc0fea54e"},"vehicle_type_id":"4","last_reported":1769627885,"current_range_meters":4000,"station_id":"ce4bhu92rcd13ifvqi70","pricing_plan_id":"cebpf4jnsgd1na2vs0mg"},{"bike_id":"2ca3f582-eeaf-4cb8-acab-d157676d2c6d","system_id":"levelo_inurba_marseille","lat":43.30417,"lon":5.41171,"is_reserved":false,"is_disabled":false,"rental_uris":{"android":"levelo://app?vid=2ca3f582-eeaf-4cb8-acab-d157676d2c6d","ios":"levelo://app?vid=2ca3f582-eeaf-4cb8-acab-d157676d2c6d"},"vehicle_type_id":"4","last_reported":1769627885,"current_range_meters":4000,"station_id":"","pricing_plan_id":"cebpf4jnsgd1na2vs0mg"},{"bike_id":"87e8b7c8-63e3-4552-9a32-1c521fcfccbf","system_id":"levelo_inurba_marseille","lat":43.27997,"lon":5.40023,"is_reserved":false,"is_disabled":false,"rental_uris":{"android":"levelo://app?vid=87e8b7c8-63e3-4552-9a32-1c521fcfccbf","ios":"levelo://app?vid=87e8b7c8-63e3-4552-9a32-1c521fcfccbf"},"vehicle_type_id":"4","last_reported":1769627885,"current_range_meters":4400,"station_id":"ce4bho92rcd13ifvqh4g","pricing_plan_id":"cebpf4jnsgd1na2vs0mg"},{"bike_id":"b720229b-94db-4924-a21f-553f7a8562ae","system_id":"levelo_inurba_marseille","lat":43.25111,"lon":5.40322,"is_reserved":false,"is_disabled":false,"rental_uris":{"android":"levelo://app?vid=b720229b-94db-4924-a21f-553f7a8562ae","ios":"levelo://app?vid=b720229b-94db-4924-a21f-553f7a8562ae"},"vehicle_type_id":"4","last_reported":1769627885,"current_range_meters":4400,"station_id":"ce4bhlh2rcd13ifvqgig","pricing_plan_id":"cebpf4jnsgd1na2vs0mg"},{"bike_id":"fe070439-8026-4da8-8932-8c1556f39a2f","system_id":"levelo_inurba_marseille","lat":43.336089,"lon":5.410386,"is_reserved":false,"is_disabled":false,"rental_uris":{"android":"levelo://app?vid=fe070439-8026-4da8-8932-8c1556f39a2f","ios":"levelo://app?vid=fe070439-8026-4da8-8932-8c1556f39a2f"},"vehicle_type_id":"4","last_reported":1769627885,"current_range_meters":4400,"station_id":"ce4bhh92rcd13ifvqfi0","pricing_plan_id":"cebpf4jnsgd1na2vs0mg"},{"bike_id":"8de525a9-5bd3-43a9-9291-a02ed36bbc58","system_id":"levelo_inurba_marseille","lat":43.33158,"lon":5.37676,"is_reserved":false,"is_disabled":false,"rental_uris":{"android":"levelo://app?vid=8de525a9-5bd3-43a9-9291-a02ed36bbc58","ios":"levelo://app?vid=8de525a9-5bd3-43a9-9291-a02ed36bbc58"},"vehicle_type_id":"4","last_reported":1769627885,"current_range_meters":4400,"station_id":"st_d46cu089ee8s73dldbu0","pricing_plan_id":"cebpf4jnsgd1na2vs0mg"},{"bike_id":"18fce2e1-dc18-4348-9804-31acaf627f3c","system_id":"levelo_inurba_marseille","lat":43.262025,"lon":5.374406,"is_reserved":false,"is_disabled":false,"rental_uris":{"android":"levelo://app?vid=18fce2e1-dc18-4348-9804-31acaf627f3c","ios":"levelo://app?vid=18fce2e1-dc18-4348-9804-31acaf627f3c"},"vehicle_type_id":"4","last_reported":1769627885,"current_range_meters":4400,"station_id":"ce4bhgp2rcd13ifvqfc0","pricing_plan_id":"cebpf4jnsgd1na2vs0mg"},{"bike_id":"cdf5e968-190d-453d-8238-d6f6f9e9ad43","system_id":"levelo_inurba_marseille","lat":43.28674,"lon":5.38656,"is_reserved":false,"is_disabled":false,"rental_uris":{"android":"levelo://app?vid=cdf5e968-190d-453d-8238-d6f6f9e9ad43","ios":"levelo://app?vid=cdf5e968-190d-453d-8238-d6f6f9e9ad43"},"vehicle_type_id":"4","last_reported":1769627885,"current_range_meters":4400,"station_id":"ce4bh492rcd13ifvqdug","pricing_plan_id":"cebpf4jnsgd1na2vs0mg"},{"bike_id":"5204475b-2a81-4751-94d0-9c433ad9057c","system_id":"levelo_inurba_marseille","lat":43.270715,"lon":5.422874,"is_reserved":false,"is_disabled":false,"rental_uris":{"android":"levelo://app?vid=5204475b-2a81-4751-94d0-9c433ad9057c","ios":"levelo://app?vid=5204475b-2a81-4751-94d0-9c433ad9057c"},"vehicle_type_id":"4","last_reported":1769627885,"current_range_meters":4400,"station_id":"ce4bhk92rcd13ifvqgb0","pricing_plan_id":"cebpf4jnsgd1na2vs0mg"},{"bike_id":"1e7d407f-1c4a-4b36-8120-50f317fee588","system_id":"levelo_inurba_marseille","lat":43.2658,"lon":5.40295,"is_reserved":false,"is_disabled":false,"rental_uris":{"android":"levelo://app?vid=1e7d407f-1c4a-4b36-8120-50f317fee588","ios":"levelo://app?vid=1e7d407f-1c4a-4b36-8120-50f317fee588"},"vehicle_type_id":"4","last_reported":1769627885,"current_range_meters":4400,"station_id":"ce4bhmp2rcd13ifvqgng","pricing_plan_id":"cebpf4jnsgd1na2vs0mg"},{"bike_id":"1ee1ccf9-f3b0-4ac0-b26c-4a3dd91d8bd5","system_id":"levelo_inurba_marseille","lat":43.30626,"lon":5.40093,"is_reserved":false,"is_disabled":false,"rental_uris":{"android":"levelo://app?vid=1ee1ccf9-f3b0-4ac0-b26c-4a3dd91d8bd5","ios":"levelo://app?vid=1ee1ccf9-f3b0-4ac0-b26c-4a3dd91d8bd5"},"vehicle_type_id":"4","last_reported":1769627885,"current_range_meters":4800,"station_id":"ce4bh112rcd13ifvqda0","pricing_plan_id":"cebpf4jnsgd1na2vs0mg"},{"bike_id":"0994699c-2493-4cc2-b13f-c5567f29cfd1","system_id":"levelo_inurba_marseille","lat":43.25115,"lon":5.40233,"is_reserved":false,"is_disabled":false,"rental_uris":{"android":"levelo://app?vid=0994699c-2493-4cc2-b13f-c5567f29cfd1","ios":"levelo://app?vid=0994699c-2493-4cc2-b13f-c5567f29cfd1"},"vehicle_type_id":"4","last_reported":1769627885,"current_range_meters":4800,"station_id":"","pricing_plan_id":"cebpf4jnsgd1na2vs0mg"},{"bike_id":"7040bdbc-5052-46fd-9d78-6fb9765e379a","system_id":"levelo_inurba_marseille","lat":43.23964,"lon":5.36646,"is_reserved":false,"is_disabled":false,"rental_uris":{"android":"levelo://app?vid=7040bdbc-5052-46fd-9d78-6fb9765e379a","ios":"levelo://app?vid=7040bdbc-5052-46fd-9d78-6fb9765e379a"},"vehicle_type_id":"4","last_reported":1769627885,"current_range_meters":4800,"station_id":"ce4bhi12rcd13ifvqfp0","pricing_plan_id":"cebpf4jnsgd1na2vs0mg"},{"bike_id":"32611a2f-92d2-4238-b2cc-559d99eb02ae","system_id":"levelo_inurba_marseille","lat":43.298133,"lon":5.38115,"is_reserved":false,"is_disabled":false,"rental_uris":{"android":"levelo://app?vid=32611a2f-92d2-4238-b2cc-559d99eb02ae","ios":"levelo://app?vid=32611a2f-92d2-4238-b2cc-559d99eb02ae"},"vehicle_type_id":"4","last_reported":1769627885,"current_range_meters":4800,"station_id":"","pricing_plan_id":"cebpf4jnsgd1na2vs0mg"},{"bike_id":"2bb50743-3e0e-4d3f-95f3-b6bf17b5d3d6","system_id":"levelo_inurba_marseille","lat":43.286743,"lon":5.363558,"is_reserved":false,"is_disabled":false,"rental_uris":{"android":"levelo://app?vid=2bb50743-3e0e-4d3f-95f3-b6bf17b5d3d6","ios":"levelo://app?vid=2bb50743-3e0e-4d3f-95f3-b6bf17b5d3d6"},"vehicle_type_id":"4","last_reported":1769627885,"current_range_meters":4800,"station_id":"ce4bhah2rcd13ifvqej0","pricing_plan_id":"cebpf4jnsgd1na2vs0mg"},{"bike_id":"180c3bfc-ab9f-4f8e-81f8-c46928e4d47d","system_id":"levelo_inurba_marseille","lat":43.304301,"lon":5.41308,"is_reserved":false,"is_disabled":false,"rental_uris":{"android":"levelo://app?vid=180c3bfc-ab9f-4f8e-81f8-c46928e4d47d","ios":"levelo://app?vid=180c3bfc-ab9f-4f8e-81f8-c46928e4d47d"},"vehicle_type_id":"4","last_reported":1769627885,"current_range_meters":4800,"station_id":"ce4bhop2rcd13ifvqh8g","pricing_plan_id":"cebpf4jnsgd1na2vs0mg"},{"bike_id":"413006d6-f7e9-4cb1-b9cb-22a751913fbd","system_id":"levelo_inurba_marseille","lat":43.24769,"lon":5.37283,"is_reserved":false,"is_disabled":false,"rental_uris":{"android":"levelo://app?vid=413006d6-f7e9-4cb1-b9cb-22a751913fbd","ios":"levelo://app?vid=413006d6-f7e9-4cb1-b9cb-22a751913fbd"},"vehicle_type_id":"4","last_reported":1769627885,"current_range_meters":4800,"station_id":"","pricing_plan_id":"cebpf4jnsgd1na2vs0mg"},{"bike_id":"1cf9dca6-72ef-480d-a19a-5c70638c6629","system_id":"levelo_inurba_marseille","lat":43.29277,"lon":5.36869,"is_reserved":false,"is_disabled":false,"rental_uris":{"android":"levelo://app?vid=1cf9dca6-72ef-480d-a19a-5c70638c6629","ios":"levelo://app?vid=1cf9dca6-72ef-480d-a19a-5c70638c6629"},"vehicle_type_id":"4","last_reported":1769627885,"current_range_meters":4800,"station_id":"ce4bhbp2rcd13ifvqesg","pricing_plan_id":"cebpf4jnsgd1na2vs0mg"},{"bike_id":"8819f7ff-b9cf-4178-9761-9dd00f9b3f70","system_id":"levelo_inurba_marseille","lat":43.2882,"lon":5.35831,"is_reserved":false,"is_disabled":false,"rental_uris":{"android":"levelo://app?vid=8819f7ff-b9cf-4178-9761-9dd00f9b3f70","ios":"levelo://app?vid=8819f7ff-b9cf-4178-9761-9dd00f9b3f70"},"vehicle_type_id":"4","last_reported":1769627885,"current_range_meters":4800,"station_id":"ce4bhb12rcd13ifvqem0","pricing_plan_id":"cebpf4jnsgd1na2vs0mg"},{"bike_id":"5432d7a0-1700-4fbb-98da-e9587b56686e","system_id":"levelo_inurba_marseille","lat":43.27621,"lon":5.36113,"is_reserved":false,"is_disabled":false,"rental_uris":{"android":"levelo://app?vid=5432d7a0-1700-4fbb-98da-e9587b56686e","ios":"levelo://app?vid=5432d7a0-1700-4fbb-98da-e9587b56686e"},"vehicle_type_id":"4","last_reported":1769627885,"current_range_meters":5600,"station_id":"ce4bgj92rcd13ifvqbe0","pricing_plan_id":"cebpf4jnsgd1na2vs0mg"},{"bike_id":"b0d0ca1c-3ec0-4474-8c0d-81ed475fe700","system_id":"levelo_inurba_marseille","lat":43.268066,"lon":5.402724,"is_reserved":false,"is_disabled":false,"rental_uris":{"android":"levelo://app?vid=b0d0ca1c-3ec0-4474-8c0d-81ed475fe700","ios":"levelo://app?vid=b0d0ca1c-3ec0-4474-8c0d-81ed475fe700"},"vehicle_type_id":"4","last_reported":1769627885,"current_range_meters":5600,"station_id":"ce501612rcd8frsf0b60","pricing_plan_id":"cebpf4jnsgd1na2vs0mg"},{"bike_id":"82a6b099-0577-4798-9a60-21fb38c2bbb7","system_id":"levelo_inurba_marseille","lat":43.29799,"lon":5.44042,"is_reserved":false,"is_disabled":false,"rental_uris":{"android":"levelo://app?vid=82a6b099-0577-4798-9a60-21fb38c2bbb7","ios":"levelo://app?vid=82a6b099-0577-4798-9a60-21fb38c2bbb7"},"vehicle_type_id":"4","last_reported":1769627885,"current_range_meters":5600,"station_id":"st_d3jp68qikq2c7381ktn0","pricing_plan_id":"cebpf4jnsgd1na2vs0mg"},{"bike_id":"dd84be16-51e8-4700-9de5-b4d6b62334f9","system_id":"levelo_inurba_marseille","lat":43.28412,"lon":5.37517,"is_reserved":false,"is_disabled":false,"rental_uris":{"android":"levelo://app?vid=dd84be16-51e8-4700-9de5-b4d6b62334f9","ios":"levelo://app?vid=dd84be16-51e8-4700-9de5-b4d6b62334f9"},"vehicle_type_id":"4","last_reported":1769627885,"current_range_meters":5600,"station_id":"ce4bh412rcd13ifvqds0","pricing_plan_id":"cebpf4jnsgd1na2vs0mg"},{"bike_id":"85165d95-55d2-4d6a-ba10-247f7996ac24","system_id":"levelo_inurba_marseille","lat":43.25332,"lon":5.421744,"is_reserved":false,"is_disabled":true,"rental_uris":{"android":"levelo://app?vid=85165d95-55d2-4d6a-ba10-247f7996ac24","ios":"levelo://app?vid=85165d95-55d2-4d6a-ba10-247f7996ac24"},"vehicle_type_id":"4","last_reported":1769627885,"current_range_meters":5600,"station_id":"st_d2m65c5bi1j21697t3ng","pricing_plan_id":"cebpf4jnsgd1na2vs0mg"},{"bike_id":"725738f1-82fd-49fd-9e47-51637d72c16b","system_id":"levelo_inurba_marseille","lat":43.27985,"lon":5.40012,"is_reserved":false,"is_disabled":false,"rental_uris":{"android":"levelo://app?vid=725738f1-82fd-49fd-9e47-51637d72c16b","ios":"levelo://app?vid=725738f1-82fd-49fd-9e47-51637d72c16b"},"vehicle_type_id":"4","last_reported":1769627885,"current_range_meters":5600,"station_id":"ce4bho92rcd13ifvqh4g","pricing_plan_id":"cebpf4jnsgd1na2vs0mg"},{"bike_id":"7319187a-7891-44e2-adc1-0a12cbe6869e","system_id":"levelo_inurba_marseille","lat":43.29434,"lon":5.3974,"is_reserved":false,"is_disabled":false,"rental_uris":{"android":"levelo://app?vid=7319187a-7891-44e2-adc1-0a12cbe6869e","ios":"levelo://app?vid=7319187a-7891-44e2-adc1-0a12cbe6869e"},"vehicle_type_id":"4","last_reported":1769627885,"current_range_meters":5600,"station_id":"ce4bh3h2rcd13ifvqdo0","pricing_plan_id":"cebpf4jnsgd1na2vs0mg"},{"bike_id":"83fc51a6-33d8-4514-8bb6-691df6dd60b4","system_id":"levelo_inurba_marseille","lat":43.301244,"lon":5.431268,"is_reserved":false,"is_disabled":false,"rental_uris":{"android":"levelo://app?vid=83fc51a6-33d8-4514-8bb6-691df6dd60b4","ios":"levelo://app?vid=83fc51a6-33d8-4514-8bb6-691df6dd60b4"},"vehicle_type_id":"4","last_reported":1769627885,"current_range_meters":5600,"station_id":"st_d3js3co5814s73ftftug","pricing_plan_id":"cebpf4jnsgd1na2vs0mg"},{"bike_id":"01581b98-67ff-4bcc-9ddb-c3ce91143905","system_id":"levelo_inurba_marseille","lat":43.31197,"lon":5.3914,"is_reserved":false,"is_disabled":false,"rental_uris":{"android":"levelo://app?vid=01581b98-67ff-4bcc-9ddb-c3ce91143905","ios":"levelo://app?vid=01581b98-67ff-4bcc-9ddb-c3ce91143905"},"vehicle_type_id":"4","last_reported":1769627885,"current_range_meters":5600,"station_id":"","pricing_plan_id":"cebpf4jnsgd1na2vs0mg"},{"bike_id":"b2d1a884-1541-45ce-ba1a-d04506708ff2","system_id":"levelo_inurba_marseille","lat":43.26563,"lon":5.37288,"is_reserved":false,"is_disabled":false,"rental_uris":{"android":"levelo://app?vid=b2d1a884-1541-45ce-ba1a-d04506708ff2","ios":"levelo://app?vid=b2d1a884-1541-45ce-ba1a-d04506708ff2"},"vehicle_type_id":"4","last_reported":1769627885,"current_range_meters":5600,"station_id":"ce4bhg12rcd13ifvqf70","pricing_plan_id":"cebpf4jnsgd1na2vs0mg"},{"bike_id":"d2723059-f42b-48a1-b924-e1b6e4293567","system_id":"levelo_inurba_marseille","lat":43.24948,"lon":5.40491,"is_reserved":false,"is_disabled":false,"rental_uris":{"android":"levelo://app?vid=d2723059-f42b-48a1-b924-e1b6e4293567","ios":"levelo://app?vid=d2723059-f42b-48a1-b924-e1b6e4293567"},"vehicle_type_id":"4","last_reported":1769627885,"current_range_meters":5600,"station_id":"st_d2ngiaodas8pm72gd1h0","pricing_plan_id":"cebpf4jnsgd1na2vs0mg"},{"bike_id":"3aaa97e8-6cbb-46f2-8298-95220655c5c8","system_id":"levelo_inurba_marseille","lat":43.284772,"lon":5.483948,"is_reserved":false,"is_disabled":false,"rental_uris":{"android":"levelo://app?vid=3aaa97e8-6cbb-46f2-8298-95220655c5c8","ios":"levelo://app?vid=3aaa97e8-6cbb-46f2-8298-95220655c5c8"},"vehicle_type_id":"4","last_reported":1769627885,"current_range_meters":5600,"station_id":"st_d3svhcjqgbts73a3dn0g","pricing_plan_id":"cebpf4jnsgd1na2vs0mg"},{"bike_id":"65ed14cf-b2b7-4c34-911d-d7fd240c136d","system_id":"levelo_inurba_marseille","lat":43.2919,"lon":5.38602,"is_reserved":false,"is_disabled":false,"rental_uris":{"android":"levelo://app?vid=65ed14cf-b2b7-4c34-911d-d7fd240c136d","ios":"levelo://app?vid=65ed14cf-b2b7-4c34-911d-d7fd240c136d"},"vehicle_type_id":"4","last_reported":1769627885,"current_range_meters":5600,"station_id":"","pricing_plan_id":"cebpf4jnsgd1na2vs0mg"},{"bike_id":"69015cf3-bc6b-446f-9be5-f6f422a1478d","system_id":"levelo_inurba_marseille","lat":43.28857,"lon":5.42525,"is_reserved":false,"is_disabled":false,"rental_uris":{"android":"levelo://app?vid=69015cf3-bc6b-446f-9be5-f6f422a1478d","ios":"levelo://app?vid=69015cf3-bc6b-446f-9be5-f6f422a1478d"},"vehicle_type_id":"4","last_reported":1769627885,"current_range_meters":5600,"station_id":"st_d3b462108ojc7389ooeg","pricing_plan_id":"cebpf4jnsgd1na2vs0mg"},{"bike_id":"0c36045d-21d9-414f-adc7-93b78264ea05","system_id":"levelo_inurba_marseille","lat":43.28336,"lon":5.38109,"is_reserved":false,"is_disabled":false,"rental_uris":{"android":"levelo://app?vid=0c36045d-21d9-414f-adc7-93b78264ea05","ios":"levelo://app?vid=0c36045d-21d9-414f-adc7-93b78264ea05"},"vehicle_type_id":"4","last_reported":1769627885,"current_range_meters":5600,"station_id":"ce4bh412rcd13ifvqdr0","pricing_plan_id":"cebpf4jnsgd1na2vs0mg"},{"bike_id":"1c28b0bd-3eca-46f6-a58a-d76a26f70029","system_id":"levelo_inurba_marseille","lat":43.25591,"lon":5.38248,"is_reserved":false,"is_disabled":false,"rental_uris":{"android":"levelo://app?vid=1c28b0bd-3eca-46f6-a58a-d76a26f70029","ios":"levelo://app?vid=1c28b0bd-3eca-46f6-a58a-d76a26f70029"},"vehicle_type_id":"4","last_reported":1769627885,"current_range_meters":6000,"station_id":"ce4bhih2rcd13ifvqfs0","pricing_plan_id":"cebpf4jnsgd1na2vs0mg"},{"bike_id":"eb67688e-76c8-4a65-815c-e4c4f42924a9","system_id":"levelo_inurba_marseille","lat":43.279949,"lon":5.400037,"is_reserved":false,"is_disabled":false,"rental_uris":{"android":"levelo://app?vid=eb67688e-76c8-4a65-815c-e4c4f42924a9","ios":"levelo://app?vid=eb67688e-76c8-4a65-815c-e4c4f42924a9"},"vehicle_type_id":"4","last_reported":1769627885,"current_range_meters":6000,"station_id":"ce4bho92rcd13ifvqh4g","pricing_plan_id":"cebpf4jnsgd1na2vs0mg"},{"bike_id":"7f17d0e0-c551-448a-9a02-7034a1e1a800","system_id":"levelo_inurba_marseille","lat":43.28689,"lon":5.38676,"is_reserved":false,"is_disabled":false,"rental_uris":{"android":"levelo://app?vid=7f17d0e0-c551-448a-9a02-7034a1e1a800","ios":"levelo://app?vid=7f17d0e0-c551-448a-9a02-7034a1e1a800"},"vehicle_type_id":"4","last_reported":1769627885,"current_range_meters":6000,"station_id":"ce4bh492rcd13ifvqdug","pricing_plan_id":"cebpf4jnsgd1na2vs0mg"},{"bike_id":"71474573-e139-42f3-bf94-d0fc6a99c0c9","system_id":"levelo_inurba_marseille","lat":43.28107,"lon":5.42628,"is_reserved":false,"is_disabled":false,"rental_uris":{"android":"levelo://app?vid=71474573-e139-42f3-bf94-d0fc6a99c0c9","ios":"levelo://app?vid=71474573-e139-42f3-bf94-d0fc6a99c0c9"},"vehicle_type_id":"4","last_reported":1769627885,"current_range_meters":6000,"station_id":"","pricing_plan_id":"cebpf4jnsgd1na2vs0mg"},{"bike_id":"33d4dac9-8678-4d6a-8af0-c55f38de1054","system_id":"levelo_inurba_marseille","lat":43.2743,"lon":5.394,"is_reserved":false,"is_disabled":false,"rental_uris":{"android":"levelo://app?vid=33d4dac9-8678-4d6a-8af0-c55f38de1054","ios":"levelo://app?vid=33d4dac9-8678-4d6a-8af0-c55f38de1054"},"vehicle_type_id":"4","last_reported":1769627885,"current_range_meters":6000,"station_id":"ce4bhdp2rcd13ifvqf20","pricing_plan_id":"cebpf4jnsgd1na2vs0mg"},{"bike_id":"72089be9-38d6-423c-b54b-444cdb64406b","system_id":"levelo_inurba_marseille","lat":43.28423,"lon":5.34993,"is_reserved":false,"is_disabled":false,"rental_uris":{"android":"levelo://app?vid=72089be9-38d6-423c-b54b-444cdb64406b","ios":"levelo://app?vid=72089be9-38d6-423c-b54b-444cdb64406b"},"vehicle_type_id":"4","last_reported":1769627885,"current_range_meters":6000,"station_id":"ce4bhbh2rcd13ifvqepg","pricing_plan_id":"cebpf4jnsgd1na2vs0mg"},{"bike_id":"e9c0cbe1-19fe-47f0-90d1-49f667b2e918","system_id":"levelo_inurba_marseille","lat":43.290534,"lon":5.359135,"is_reserved":false,"is_disabled":false,"rental_uris":{"android":"levelo://app?vid=e9c0cbe1-19fe-47f0-90d1-49f667b2e918","ios":"levelo://app?vid=e9c0cbe1-19fe-47f0-90d1-49f667b2e918"},"vehicle_type_id":"4","last_reported":1769627885,"current_range_meters":6000,"station_id":"ce4bha92rcd13ifvqeg0","pricing_plan_id":"cebpf4jnsgd1na2vs0mg"},{"bike_id":"930c65a4-41b5-4fde-b2c8-b090ce1093d6","system_id":"levelo_inurba_marseille","lat":43.28461,"lon":5.358827,"is_reserved":false,"is_disabled":false,"rental_uris":{"android":"levelo://app?vid=930c65a4-41b5-4fde-b2c8-b090ce1093d6","ios":"levelo://app?vid=930c65a4-41b5-4fde-b2c8-b090ce1093d6"},"vehicle_type_id":"4","last_reported":1769627885,"current_range_meters":6000,"station_id":"ce4bhah2rcd13ifvqei0","pricing_plan_id":"cebpf4jnsgd1na2vs0mg"},{"bike_id":"fc7d0375-7a69-418a-b8eb-0a8fbf3eb6f6","system_id":"levelo_inurba_marseille","lat":43.26542,"lon":5.39027,"is_reserved":false,"is_disabled":false,"rental_uris":{"android":"levelo://app?vid=fc7d0375-7a69-418a-b8eb-0a8fbf3eb6f6","ios":"levelo://app?vid=fc7d0375-7a69-418a-b8eb-0a8fbf3eb6f6"},"vehicle_type_id":"4","last_reported":1769627885,"current_range_meters":6000,"station_id":"ce4bhe12rcd13ifvqf30","pricing_plan_id":"cebpf4jnsgd1na2vs0mg"},{"bike_id":"dd89bf3d-45fd-460e-b92d-743d68f5711f","system_id":"levelo_inurba_marseille","lat":43.268,"lon":5.40241,"is_reserved":false,"is_disabled":false,"rental_uris":{"android":"levelo://app?vid=dd89bf3d-45fd-460e-b92d-743d68f5711f","ios":"levelo://app?vid=dd89bf3d-45fd-460e-b92d-743d68f5711f"},"vehicle_type_id":"4","last_reported":1769627885,"current_range_meters":6000,"station_id":"ce501612rcd8frsf0b60","pricing_plan_id":"cebpf4jnsgd1na2vs0mg"},{"bike_id":"f48c1f6e-0473-4847-8c29-30c8ea2f18f5","system_id":"levelo_inurba_marseille","lat":43.29493,"lon":5.43304,"is_reserved":false,"is_disabled":false,"rental_uris":{"android":"levelo://app?vid=f48c1f6e-0473-4847-8c29-30c8ea2f18f5","ios":"levelo://app?vid=f48c1f6e-0473-4847-8c29-30c8ea2f18f5"},"vehicle_type_id":"4","last_reported":1769627885,"current_range_meters":6000,"station_id":"st_d3j5ugp08ojc73fj9d10","pricing_plan_id":"cebpf4jnsgd1na2vs0mg"},{"bike_id":"66a9efd0-01de-4cac-ae4f-a848ca6a2a1d","system_id":"levelo_inurba_marseille","lat":43.26798,"lon":5.4026,"is_reserved":false,"is_disabled":false,"rental_uris":{"android":"levelo://app?vid=66a9efd0-01de-4cac-ae4f-a848ca6a2a1d","ios":"levelo://app?vid=66a9efd0-01de-4cac-ae4f-a848ca6a2a1d"},"vehicle_type_id":"4","last_reported":1769627885,"current_range_meters":6000,"station_id":"ce501612rcd8frsf0b60","pricing_plan_id":"cebpf4jnsgd1na2vs0mg"},{"bike_id":"2ede0d7f-56dc-43f3-b033-ff6c23e9e2b8","system_id":"levelo_inurba_marseille","lat":43.253383,"lon":5.421632,"is_reserved":false,"is_disabled":false,"rental_uris":{"android":"levelo://app?vid=2ede0d7f-56dc-43f3-b033-ff6c23e9e2b8","ios":"levelo://app?vid=2ede0d7f-56dc-43f3-b033-ff6c23e9e2b8"},"vehicle_type_id":"4","last_reported":1769627885,"current_range_meters":6000,"station_id":"st_d2m65c5bi1j21697t3ng","pricing_plan_id":"cebpf4jnsgd1na2vs0mg"},{"bike_id":"261cd935-7883-4391-ba05-0e490ab8522f","system_id":"levelo_inurba_marseille","lat":43.30317,"lon":5.40437,"is_reserved":false,"is_disabled":false,"rental_uris":{"android":"levelo://app?vid=261cd935-7883-4391-ba05-0e490ab8522f","ios":"levelo://app?vid=261cd935-7883-4391-ba05-0e490ab8522f"},"vehicle_type_id":"4","last_reported":1769627885,"current_range_meters":6000,"station_id":"ce4bh012rcd13ifvqd10","pricing_plan_id":"cebpf4jnsgd1na2vs0mg"},{"bike_id":"dd025a3b-8d88-4cc7-98ea-d46d5c91c806","system_id":"levelo_inurba_marseille","lat":43.27184,"lon":5.40997,"is_reserved":false,"is_disabled":false,"rental_uris":{"android":"levelo://app?vid=dd025a3b-8d88-4cc7-98ea-d46d5c91c806","ios":"levelo://app?vid=dd025a3b-8d88-4cc7-98ea-d46d5c91c806"},"vehicle_type_id":"4","last_reported":1769627885,"current_range_meters":6000,"station_id":"ce4bhl12rcd13ifvqgf0","pricing_plan_id":"cebpf4jnsgd1na2vs0mg"},{"bike_id":"57cddd3e-1f74-4cc6-a6a8-ce1f76caf156","system_id":"levelo_inurba_marseille","lat":43.27309,"lon":5.39095,"is_reserved":false,"is_disabled":false,"rental_uris":{"android":"levelo://app?vid=57cddd3e-1f74-4cc6-a6a8-ce1f76caf156","ios":"levelo://app?vid=57cddd3e-1f74-4cc6-a6a8-ce1f76caf156"},"vehicle_type_id":"4","last_reported":1769627885,"current_range_meters":6000,"station_id":"ce4bhgp2rcd13ifvqfe0","pricing_plan_id":"cebpf4jnsgd1na2vs0mg"},{"bike_id":"8e605c7c-a289-4860-970e-e9553ff10db2","system_id":"levelo_inurba_marseille","lat":43.28598,"lon":5.38505,"is_reserved":false,"is_disabled":false,"rental_uris":{"android":"levelo://app?vid=8e605c7c-a289-4860-970e-e9553ff10db2","ios":"levelo://app?vid=8e605c7c-a289-4860-970e-e9553ff10db2"},"vehicle_type_id":"4","last_reported":1769627885,"current_range_meters":6000,"station_id":"","pricing_plan_id":"cebpf4jnsgd1na2vs0mg"},{"bike_id":"04d5c008-e1cd-4fba-ac06-2ede2333c42d","system_id":"levelo_inurba_marseille","lat":43.292633,"lon":5.384419,"is_reserved":false,"is_disabled":false,"rental_uris":{"android":"levelo://app?vid=04d5c008-e1cd-4fba-ac06-2ede2333c42d","ios":"levelo://app?vid=04d5c008-e1cd-4fba-ac06-2ede2333c42d"},"vehicle_type_id":"4","last_reported":1769627885,"current_range_meters":6400,"station_id":"ce4bh692rcd13ifvqea0","pricing_plan_id":"cebpf4jnsgd1na2vs0mg"},{"bike_id":"2b025830-a75f-4dd0-9345-1f4a2853b8f8","system_id":"levelo_inurba_marseille","lat":43.323514,"lon":5.367372,"is_reserved":false,"is_disabled":false,"rental_uris":{"android":"levelo://app?vid=2b025830-a75f-4dd0-9345-1f4a2853b8f8","ios":"levelo://app?vid=2b025830-a75f-4dd0-9345-1f4a2853b8f8"},"vehicle_type_id":"4","last_reported":1769627885,"current_range_meters":6400,"station_id":"ce4bhsh2rcd13ifvqi2g","pricing_plan_id":"cebpf4jnsgd1na2vs0mg"},{"bike_id":"9e576907-c144-459e-9c20-f94541e395d1","system_id":"levelo_inurba_marseille","lat":43.31077,"lon":5.38359,"is_reserved":false,"is_disabled":false,"rental_uris":{"android":"levelo://app?vid=9e576907-c144-459e-9c20-f94541e395d1","ios":"levelo://app?vid=9e576907-c144-459e-9c20-f94541e395d1"},"vehicle_type_id":"4","last_reported":1769627885,"current_range_meters":6400,"station_id":"ce4bgv92rcd13ifvqcr0","pricing_plan_id":"cebpf4jnsgd1na2vs0mg"},{"bike_id":"b519bc17-e693-4595-a4db-151d92295964","system_id":"levelo_inurba_marseille","lat":43.29272,"lon":5.37455,"is_reserved":false,"is_disabled":false,"rental_uris":{"android":"levelo://app?vid=b519bc17-e693-4595-a4db-151d92295964","ios":"levelo://app?vid=b519bc17-e693-4595-a4db-151d92295964"},"vehicle_type_id":"4","last_reported":1769627885,"current_range_meters":6400,"station_id":"ce4bgi12rcd13ifvqb70","pricing_plan_id":"cebpf4jnsgd1na2vs0mg"},{"bike_id":"1131e855-b282-4fcb-b80b-6ff9ef8097ae","system_id":"levelo_inurba_marseille","lat":43.2929,"lon":5.37452,"is_reserved":false,"is_disabled":false,"rental_uris":{"android":"levelo://app?vid=1131e855-b282-4fcb-b80b-6ff9ef8097ae","ios":"levelo://app?vid=1131e855-b282-4fcb-b80b-6ff9ef8097ae"},"vehicle_type_id":"4","last_reported":1769627885,"current_range_meters":6400,"station_id":"ce4bgi12rcd13ifvqb70","pricing_plan_id":"cebpf4jnsgd1na2vs0mg"},{"bike_id":"8d6c3c35-9339-47a7-89ed-64308b957c9d","system_id":"levelo_inurba_marseille","lat":43.30719,"lon":5.40975,"is_reserved":false,"is_disabled":false,"rental_uris":{"android":"levelo://app?vid=8d6c3c35-9339-47a7-89ed-64308b957c9d","ios":"levelo://app?vid=8d6c3c35-9339-47a7-89ed-64308b957c9d"},"vehicle_type_id":"4","last_reported":1769627885,"current_range_meters":6400,"station_id":"","pricing_plan_id":"cebpf4jnsgd1na2vs0mg"},{"bike_id":"7c70a630-f080-4d65-8f79-af323dbedc62","system_id":"levelo_inurba_marseille","lat":43.3012,"lon":5.43081,"is_reserved":false,"is_disabled":false,"rental_uris":{"android":"levelo://app?vid=7c70a630-f080-4d65-8f79-af323dbedc62","ios":"levelo://app?vid=7c70a630-f080-4d65-8f79-af323dbedc62"},"vehicle_type_id":"4","last_reported":1769627885,"current_range_meters":6400,"station_id":"st_d3js3co5814s73ftftug","pricing_plan_id":"cebpf4jnsgd1na2vs0mg"},{"bike_id":"127506ad-716b-45f9-be38-46d06665f504","system_id":"levelo_inurba_marseille","lat":43.30322,"lon":5.40439,"is_reserved":false,"is_disabled":false,"rental_uris":{"android":"levelo://app?vid=127506ad-716b-45f9-be38-46d06665f504","ios":"levelo://app?vid=127506ad-716b-45f9-be38-46d06665f504"},"vehicle_type_id":"4","last_reported":1769627885,"current_range_meters":6400,"station_id":"ce4bh012rcd13ifvqd10","pricing_plan_id":"cebpf4jnsgd1na2vs0mg"},{"bike_id":"11ea5605-7882-4487-a008-b5f4221886b5","system_id":"levelo_inurba_marseille","lat":43.31385,"lon":5.37397,"is_reserved":false,"is_disabled":false,"rental_uris":{"android":"levelo://app?vid=11ea5605-7882-4487-a008-b5f4221886b5","ios":"levelo://app?vid=11ea5605-7882-4487-a008-b5f4221886b5"},"vehicle_type_id":"4","last_reported":1769627885,"current_range_meters":6400,"station_id":"","pricing_plan_id":"cebpf4jnsgd1na2vs0mg"},{"bike_id":"c99ac09d-1da1-4a6e-8063-d4ac82b6eed2","system_id":"levelo_inurba_marseille","lat":43.29275,"lon":5.40112,"is_reserved":false,"is_disabled":false,"rental_uris":{"android":"levelo://app?vid=c99ac09d-1da1-4a6e-8063-d4ac82b6eed2","ios":"levelo://app?vid=c99ac09d-1da1-4a6e-8063-d4ac82b6eed2"},"vehicle_type_id":"4","last_reported":1769627885,"current_range_meters":6400,"station_id":"ce4bh312rcd13ifvqdk0","pricing_plan_id":"cebpf4jnsgd1na2vs0mg"},{"bike_id":"215d9242-cc67-4957-98e5-94a2159c71f8","system_id":"levelo_inurba_marseille","lat":43.323355,"lon":5.36722,"is_reserved":false,"is_disabled":false,"rental_uris":{"android":"levelo://app?vid=215d9242-cc67-4957-98e5-94a2159c71f8","ios":"levelo://app?vid=215d9242-cc67-4957-98e5-94a2159c71f8"},"vehicle_type_id":"4","last_reported":1769627885,"current_range_meters":6400,"station_id":"ce4bhsh2rcd13ifvqi2g","pricing_plan_id":"cebpf4jnsgd1na2vs0mg"},{"bike_id":"7c2f4d13-4089-44eb-ada9-80ebd269e0de","system_id":"levelo_inurba_marseille","lat":43.303,"lon":5.39213,"is_reserved":false,"is_disabled":false,"rental_uris":{"android":"levelo://app?vid=7c2f4d13-4089-44eb-ada9-80ebd269e0de","ios":"levelo://app?vid=7c2f4d13-4089-44eb-ada9-80ebd269e0de"},"vehicle_type_id":"4","last_reported":1769627885,"current_range_meters":6400,"station_id":"ce4bgkh2rcd13ifvqbk0","pricing_plan_id":"cebpf4jnsgd1na2vs0mg"},{"bike_id":"cd737560-f7db-4070-9139-519c55f31a04","system_id":"levelo_inurba_marseille","lat":43.23182,"lon":5.39991,"is_reserved":false,"is_disabled":false,"rental_uris":{"android":"levelo://app?vid=cd737560-f7db-4070-9139-519c55f31a04","ios":"levelo://app?vid=cd737560-f7db-4070-9139-519c55f31a04"},"vehicle_type_id":"4","last_reported":1769627885,"current_range_meters":6400,"station_id":"ce4bhn12rcd13ifvqgqg","pricing_plan_id":"cebpf4jnsgd1na2vs0mg"},{"bike_id":"72e1ff24-6af7-4c0e-a0b5-18d5a81f63fe","system_id":"levelo_inurba_marseille","lat":43.27948,"lon":5.4117,"is_reserved":false,"is_disabled":false,"rental_uris":{"android":"levelo://app?vid=72e1ff24-6af7-4c0e-a0b5-18d5a81f63fe","ios":"levelo://app?vid=72e1ff24-6af7-4c0e-a0b5-18d5a81f63fe"},"vehicle_type_id":"4","last_reported":1769627885,"current_range_meters":6400,"station_id":"","pricing_plan_id":"cebpf4jnsgd1na2vs0mg"},{"bike_id":"fa4f137b-a5cd-4c21-a300-5864eb1e4bc1","system_id":"levelo_inurba_marseille","lat":43.27962,"lon":5.38712,"is_reserved":false,"is_disabled":true,"rental_uris":{"android":"levelo://app?vid=fa4f137b-a5cd-4c21-a300-5864eb1e4bc1","ios":"levelo://app?vid=fa4f137b-a5cd-4c21-a300-5864eb1e4bc1"},"vehicle_type_id":"4","last_reported":1769627885,"current_range_meters":6400,"station_id":"ce4bhg12rcd13ifvqf80","pricing_plan_id":"cebpf4jnsgd1na2vs0mg"},{"bike_id":"60c02f49-2adf-4424-ade8-9c6070d15506","system_id":"levelo_inurba_marseille","lat":43.25004,"lon":5.38912,"is_reserved":false,"is_disabled":false,"rental_uris":{"android":"levelo://app?vid=60c02f49-2adf-4424-ade8-9c6070d15506","ios":"levelo://app?vid=60c02f49-2adf-4424-ade8-9c6070d15506"},"vehicle_type_id":"4","last_reported":1769627885,"current_range_meters":6400,"station_id":"ce4bhgp2rcd13ifvqfd0","pricing_plan_id":"cebpf4jnsgd1na2vs0mg"},{"bike_id":"8c3521f5-2e5a-4c74-ac5c-cd97b951f803","system_id":"levelo_inurba_marseille","lat":43.2495,"lon":5.40496,"is_reserved":false,"is_disabled":false,"rental_uris":{"android":"levelo://app?vid=8c3521f5-2e5a-4c74-ac5c-cd97b951f803","ios":"levelo://app?vid=8c3521f5-2e5a-4c74-ac5c-cd97b951f803"},"vehicle_type_id":"4","last_reported":1769627885,"current_range_meters":6400,"station_id":"st_d2ngiaodas8pm72gd1h0","pricing_plan_id":"cebpf4jnsgd1na2vs0mg"},{"bike_id":"6a691a1a-2aa7-452c-9f69-61787aa27673","system_id":"levelo_inurba_marseille","lat":43.29273,"lon":5.36849,"is_reserved":false,"is_disabled":false,"rental_uris":{"android":"levelo://app?vid=6a691a1a-2aa7-452c-9f69-61787aa27673","ios":"levelo://app?vid=6a691a1a-2aa7-452c-9f69-61787aa27673"},"vehicle_type_id":"4","last_reported":1769627885,"current_range_meters":6400,"station_id":"ce4bhbp2rcd13ifvqesg","pricing_plan_id":"cebpf4jnsgd1na2vs0mg"},{"bike_id":"7685a49c-8aa3-4105-b6c4-9b0fdec5d0f8","system_id":"levelo_inurba_marseille","lat":43.31503,"lon":5.37279,"is_reserved":false,"is_disabled":false,"rental_uris":{"android":"levelo://app?vid=7685a49c-8aa3-4105-b6c4-9b0fdec5d0f8","ios":"levelo://app?vid=7685a49c-8aa3-4105-b6c4-9b0fdec5d0f8"},"vehicle_type_id":"4","last_reported":1769627885,"current_range_meters":6400,"station_id":"ce4bgt12rcd13ifvqcd0","pricing_plan_id":"cebpf4jnsgd1na2vs0mg"},{"bike_id":"9c7ec51d-860f-48f1-819f-2ce47c19a6ec","system_id":"levelo_inurba_marseille","lat":43.29974,"lon":5.38495,"is_reserved":false,"is_disabled":true,"rental_uris":{"android":"levelo://app?vid=9c7ec51d-860f-48f1-819f-2ce47c19a6ec","ios":"levelo://app?vid=9c7ec51d-860f-48f1-819f-2ce47c19a6ec"},"vehicle_type_id":"4","last_reported":1769627885,"current_range_meters":6400,"station_id":"ce4bgj92rcd13ifvqbd0","pricing_plan_id":"cebpf4jnsgd1na2vs0mg"},{"bike_id":"a3120952-f4de-483f-ac39-1358612b53f0","system_id":"levelo_inurba_marseille","lat":43.29259,"lon":5.36833,"is_reserved":false,"is_disabled":false,"rental_uris":{"android":"levelo://app?vid=a3120952-f4de-483f-ac39-1358612b53f0","ios":"levelo://app?vid=a3120952-f4de-483f-ac39-1358612b53f0"},"vehicle_type_id":"4","last_reported":1769627885,"current_range_meters":6400,"station_id":"ce4bhbp2rcd13ifvqesg","pricing_plan_id":"cebpf4jnsgd1na2vs0mg"},{"bike_id":"8550dd30-897f-4f82-921a-1061589036fd","system_id":"levelo_inurba_marseille","lat":43.28922,"lon":5.36377,"is_reserved":false,"is_disabled":false,"rental_uris":{"android":"levelo://app?vid=8550dd30-897f-4f82-921a-1061589036fd","ios":"levelo://app?vid=8550dd30-897f-4f82-921a-1061589036fd"},"vehicle_type_id":"4","last_reported":1769627885,"current_range_meters":6400,"station_id":"ce4bhc92rcd13ifvqetg","pricing_plan_id":"cebpf4jnsgd1na2vs0mg"},{"bike_id":"8d798e6d-f25a-4bb0-a8e7-6f01b0dea7db","system_id":"levelo_inurba_marseille","lat":43.2963,"lon":5.37738,"is_reserved":false,"is_disabled":true,"rental_uris":{"android":"levelo://app?vid=8d798e6d-f25a-4bb0-a8e7-6f01b0dea7db","ios":"levelo://app?vid=8d798e6d-f25a-4bb0-a8e7-6f01b0dea7db"},"vehicle_type_id":"4","last_reported":1769627885,"current_range_meters":6800,"station_id":"ce4bgi92rcd13ifvqb90","pricing_plan_id":"cebpf4jnsgd1na2vs0mg"},{"bike_id":"5d05d531-ebc5-422e-a94d-fab2e789248e","system_id":"levelo_inurba_marseille","lat":43.25089,"lon":5.39523,"is_reserved":false,"is_disabled":false,"rental_uris":{"android":"levelo://app?vid=5d05d531-ebc5-422e-a94d-fab2e789248e","ios":"levelo://app?vid=5d05d531-ebc5-422e-a94d-fab2e789248e"},"vehicle_type_id":"4","last_reported":1769627885,"current_range_meters":6800,"station_id":"ce4bhm12rcd13ifvqgkg","pricing_plan_id":"cebpf4jnsgd1na2vs0mg"},{"bike_id":"2edc9d9f-f447-451b-81f7-704ba5941931","system_id":"levelo_inurba_marseille","lat":43.31269,"lon":5.40164,"is_reserved":false,"is_disabled":false,"rental_uris":{"android":"levelo://app?vid=2edc9d9f-f447-451b-81f7-704ba5941931","ios":"levelo://app?vid=2edc9d9f-f447-451b-81f7-704ba5941931"},"vehicle_type_id":"4","last_reported":1769627885,"current_range_meters":6800,"station_id":"ce4bh092rcd13ifvqd30","pricing_plan_id":"cebpf4jnsgd1na2vs0mg"},{"bike_id":"18975a44-e499-49a1-a68c-bdc7f9cfefe3","system_id":"levelo_inurba_marseille","lat":43.2407,"lon":5.37765,"is_reserved":false,"is_disabled":false,"rental_uris":{"android":"levelo://app?vid=18975a44-e499-49a1-a68c-bdc7f9cfefe3","ios":"levelo://app?vid=18975a44-e499-49a1-a68c-bdc7f9cfefe3"},"vehicle_type_id":"4","last_reported":1769627885,"current_range_meters":6800,"station_id":"ce4bhnp2rcd13ifvqgvg","pricing_plan_id":"cebpf4jnsgd1na2vs0mg"},{"bike_id":"7c451df0-180a-4d1f-ab23-389b3e260b7b","system_id":"levelo_inurba_marseille","lat":43.2954,"lon":5.37659,"is_reserved":false,"is_disabled":false,"rental_uris":{"android":"levelo://app?vid=7c451df0-180a-4d1f-ab23-389b3e260b7b","ios":"levelo://app?vid=7c451df0-180a-4d1f-ab23-389b3e260b7b"},"vehicle_type_id":"4","last_reported":1769627885,"current_range_meters":6800,"station_id":"ce4bgi92rcd13ifvqb90","pricing_plan_id":"cebpf4jnsgd1na2vs0mg"},{"bike_id":"c05dd82c-c313-4155-97d6-b2845c2b674b","system_id":"levelo_inurba_marseille","lat":43.30644,"lon":5.40061,"is_reserved":false,"is_disabled":false,"rental_uris":{"android":"levelo://app?vid=c05dd82c-c313-4155-97d6-b2845c2b674b","ios":"levelo://app?vid=c05dd82c-c313-4155-97d6-b2845c2b674b"},"vehicle_type_id":"4","last_reported":1769627885,"current_range_meters":6800,"station_id":"ce4bh112rcd13ifvqda0","pricing_plan_id":"cebpf4jnsgd1na2vs0mg"},{"bike_id":"fcf2b631-4307-4403-bc88-44f754049ef7","system_id":"levelo_inurba_marseille","lat":43.27909,"lon":5.39577,"is_reserved":false,"is_disabled":false,"rental_uris":{"android":"levelo://app?vid=fcf2b631-4307-4403-bc88-44f754049ef7","ios":"levelo://app?vid=fcf2b631-4307-4403-bc88-44f754049ef7"},"vehicle_type_id":"4","last_reported":1769627885,"current_range_meters":6800,"station_id":"ce4bhf92rcd13ifvqf40","pricing_plan_id":"cebpf4jnsgd1na2vs0mg"},{"bike_id":"91a684bf-aaa1-4f4c-aff7-c10249f555a8","system_id":"levelo_inurba_marseille","lat":43.30108,"lon":5.39075,"is_reserved":false,"is_disabled":true,"rental_uris":{"android":"levelo://app?vid=91a684bf-aaa1-4f4c-aff7-c10249f555a8","ios":"levelo://app?vid=91a684bf-aaa1-4f4c-aff7-c10249f555a8"},"vehicle_type_id":"4","last_reported":1769627885,"current_range_meters":6800,"station_id":"ce4bh192rcd13ifvqdb0","pricing_plan_id":"cebpf4jnsgd1na2vs0mg"},{"bike_id":"eea4166b-1b1e-4c09-9d09-7afafa2121d2","system_id":"levelo_inurba_marseille","lat":43.29273,"lon":5.3684,"is_reserved":false,"is_disabled":false,"rental_uris":{"android":"levelo://app?vid=eea4166b-1b1e-4c09-9d09-7afafa2121d2","ios":"levelo://app?vid=eea4166b-1b1e-4c09-9d09-7afafa2121d2"},"vehicle_type_id":"4","last_reported":1769627885,"current_range_meters":6800,"station_id":"ce4bhbp2rcd13ifvqesg","pricing_plan_id":"cebpf4jnsgd1na2vs0mg"},{"bike_id":"eabc1a0b-29e5-4a39-9680-b7193c71163a","system_id":"levelo_inurba_marseille","lat":43.31059,"lon":5.38354,"is_reserved":false,"is_disabled":false,"rental_uris":{"android":"levelo://app?vid=eabc1a0b-29e5-4a39-9680-b7193c71163a","ios":"levelo://app?vid=eabc1a0b-29e5-4a39-9680-b7193c71163a"},"vehicle_type_id":"4","last_reported":1769627885,"current_range_meters":6800,"station_id":"ce4bgv92rcd13ifvqcr0","pricing_plan_id":"cebpf4jnsgd1na2vs0mg"},{"bike_id":"eda9c3ae-7ccd-46bc-ad2e-bc5c85d71baa","system_id":"levelo_inurba_marseille","lat":43.27496,"lon":5.4245,"is_reserved":false,"is_disabled":false,"rental_uris":{"android":"levelo://app?vid=eda9c3ae-7ccd-46bc-ad2e-bc5c85d71baa","ios":"levelo://app?vid=eda9c3ae-7ccd-46bc-ad2e-bc5c85d71baa"},"vehicle_type_id":"4","last_reported":1769627885,"current_range_meters":6800,"station_id":"ce4bhn92rcd13ifvqgrg","pricing_plan_id":"cebpf4jnsgd1na2vs0mg"},{"bike_id":"3a560c1d-76d6-45a6-9554-036aa12f4461","system_id":"levelo_inurba_marseille","lat":43.232,"lon":5.35533,"is_reserved":false,"is_disabled":false,"rental_uris":{"android":"levelo://app?vid=3a560c1d-76d6-45a6-9554-036aa12f4461","ios":"levelo://app?vid=3a560c1d-76d6-45a6-9554-036aa12f4461"},"vehicle_type_id":"4","last_reported":1769627885,"current_range_meters":6800,"station_id":"ce4bhu92rcd13ifvqi70","pricing_plan_id":"cebpf4jnsgd1na2vs0mg"},{"bike_id":"2b6e244f-1f5b-4a01-80fb-fd9ba745c951","system_id":"levelo_inurba_marseille","lat":43.26548,"lon":5.37299,"is_reserved":false,"is_disabled":false,"rental_uris":{"android":"levelo://app?vid=2b6e244f-1f5b-4a01-80fb-fd9ba745c951","ios":"levelo://app?vid=2b6e244f-1f5b-4a01-80fb-fd9ba745c951"},"vehicle_type_id":"4","last_reported":1769627885,"current_range_meters":6800,"station_id":"ce4bhg12rcd13ifvqf70","pricing_plan_id":"cebpf4jnsgd1na2vs0mg"},{"bike_id":"c00d1abe-f6f3-4677-9b5b-65f2d4348ca7","system_id":"levelo_inurba_marseille","lat":43.231938,"lon":5.355561,"is_reserved":false,"is_disabled":false,"rental_uris":{"android":"levelo://app?vid=c00d1abe-f6f3-4677-9b5b-65f2d4348ca7","ios":"levelo://app?vid=c00d1abe-f6f3-4677-9b5b-65f2d4348ca7"},"vehicle_type_id":"4","last_reported":1769627885,"current_range_meters":6800,"station_id":"ce4bhu92rcd13ifvqi70","pricing_plan_id":"cebpf4jnsgd1na2vs0mg"},{"bike_id":"50632bc6-1301-4925-96b1-ba53342857b3","system_id":"levelo_inurba_marseille","lat":43.30141,"lon":5.37419,"is_reserved":false,"is_disabled":false,"rental_uris":{"android":"levelo://app?vid=50632bc6-1301-4925-96b1-ba53342857b3","ios":"levelo://app?vid=50632bc6-1301-4925-96b1-ba53342857b3"},"vehicle_type_id":"4","last_reported":1769627885,"current_range_meters":6800,"station_id":"ce4bgs92rcd13ifvqcc0","pricing_plan_id":"cebpf4jnsgd1na2vs0mg"},{"bike_id":"0e67fe98-9108-433b-9434-394fc2106387","system_id":"levelo_inurba_marseille","lat":43.24635,"lon":5.43142,"is_reserved":false,"is_disabled":false,"rental_uris":{"android":"levelo://app?vid=0e67fe98-9108-433b-9434-394fc2106387","ios":"levelo://app?vid=0e67fe98-9108-433b-9434-394fc2106387"},"vehicle_type_id":"4","last_reported":1769627885,"current_range_meters":6800,"station_id":"st_d2m6c4gdas8pm72e190g","pricing_plan_id":"cebpf4jnsgd1na2vs0mg"},{"bike_id":"390f7138-f244-430b-aabc-93a32bfcf97d","system_id":"levelo_inurba_marseille","lat":43.25118,"lon":5.40318,"is_reserved":false,"is_disabled":false,"rental_uris":{"android":"levelo://app?vid=390f7138-f244-430b-aabc-93a32bfcf97d","ios":"levelo://app?vid=390f7138-f244-430b-aabc-93a32bfcf97d"},"vehicle_type_id":"4","last_reported":1769627885,"current_range_meters":6800,"station_id":"ce4bhlh2rcd13ifvqgig","pricing_plan_id":"cebpf4jnsgd1na2vs0mg"},{"bike_id":"29c98fec-a359-4dbe-9456-5f32f85d57eb","system_id":"levelo_inurba_marseille","lat":43.24066,"lon":5.37761,"is_reserved":false,"is_disabled":false,"rental_uris":{"android":"levelo://app?vid=29c98fec-a359-4dbe-9456-5f32f85d57eb","ios":"levelo://app?vid=29c98fec-a359-4dbe-9456-5f32f85d57eb"},"vehicle_type_id":"4","last_reported":1769627885,"current_range_meters":6800,"station_id":"ce4bhnp2rcd13ifvqgvg","pricing_plan_id":"cebpf4jnsgd1na2vs0mg"},{"bike_id":"f3a64c65-4a5a-4fd3-971b-1b35de978008","system_id":"levelo_inurba_marseille","lat":43.27579,"lon":5.38422,"is_reserved":false,"is_disabled":true,"rental_uris":{"android":"levelo://app?vid=f3a64c65-4a5a-4fd3-971b-1b35de978008","ios":"levelo://app?vid=f3a64c65-4a5a-4fd3-971b-1b35de978008"},"vehicle_type_id":"4","last_reported":1769627885,"current_range_meters":6800,"station_id":"ce4bhh92rcd13ifvqfi0","pricing_plan_id":"cebpf4jnsgd1na2vs0mg"},{"bike_id":"41c91ad2-73b9-4699-b23d-1b5a65edd284","system_id":"levelo_inurba_marseille","lat":43.33533,"lon":5.37466,"is_reserved":false,"is_disabled":false,"rental_uris":{"android":"levelo://app?vid=41c91ad2-73b9-4699-b23d-1b5a65edd284","ios":"levelo://app?vid=41c91ad2-73b9-4699-b23d-1b5a65edd284"},"vehicle_type_id":"4","last_reported":1769627885,"current_range_meters":6800,"station_id":"","pricing_plan_id":"cebpf4jnsgd1na2vs0mg"},{"bike_id":"ca12b7cc-8815-40ae-be57-f808e99266b1","system_id":"levelo_inurba_marseille","lat":43.290326,"lon":5.381392,"is_reserved":false,"is_disabled":false,"rental_uris":{"android":"levelo://app?vid=ca12b7cc-8815-40ae-be57-f808e99266b1","ios":"levelo://app?vid=ca12b7cc-8815-40ae-be57-f808e99266b1"},"vehicle_type_id":"4","last_reported":1769627885,"current_range_meters":6800,"station_id":"ce4bh4p2rcd13ifvqe1g","pricing_plan_id":"cebpf4jnsgd1na2vs0mg"},{"bike_id":"f1456dcf-2e61-431a-b78d-ce4624a9cf9a","system_id":"levelo_inurba_marseille","lat":43.27064,"lon":5.42288,"is_reserved":false,"is_disabled":false,"rental_uris":{"android":"levelo://app?vid=f1456dcf-2e61-431a-b78d-ce4624a9cf9a","ios":"levelo://app?vid=f1456dcf-2e61-431a-b78d-ce4624a9cf9a"},"vehicle_type_id":"4","last_reported":1769627885,"current_range_meters":6800,"station_id":"ce4bhk92rcd13ifvqgb0","pricing_plan_id":"cebpf4jnsgd1na2vs0mg"},{"bike_id":"26528639-7c2e-4048-8c57-d7a0cc3703fd","system_id":"levelo_inurba_marseille","lat":43.29548,"lon":5.39017,"is_reserved":false,"is_disabled":false,"rental_uris":{"android":"levelo://app?vid=26528639-7c2e-4048-8c57-d7a0cc3703fd","ios":"levelo://app?vid=26528639-7c2e-4048-8c57-d7a0cc3703fd"},"vehicle_type_id":"4","last_reported":1769627885,"current_range_meters":6800,"station_id":"ce4bh3p2rcd13ifvqdp0","pricing_plan_id":"cebpf4jnsgd1na2vs0mg"},{"bike_id":"69a8705c-622c-4687-befc-0e95f406c55e","system_id":"levelo_inurba_marseille","lat":43.2257,"lon":5.41627,"is_reserved":false,"is_disabled":false,"rental_uris":{"android":"levelo://app?vid=69a8705c-622c-4687-befc-0e95f406c55e","ios":"levelo://app?vid=69a8705c-622c-4687-befc-0e95f406c55e"},"vehicle_type_id":"4","last_reported":1769627885,"current_range_meters":7200,"station_id":"st_d2o4gvlbi1j2169b742g","pricing_plan_id":"cebpf4jnsgd1na2vs0mg"},{"bike_id":"c7e4813a-c248-4d27-817f-f64ef50a11f2","system_id":"levelo_inurba_marseille","lat":43.25939,"lon":5.40894,"is_reserved":false,"is_disabled":false,"rental_uris":{"android":"levelo://app?vid=c7e4813a-c248-4d27-817f-f64ef50a11f2","ios":"levelo://app?vid=c7e4813a-c248-4d27-817f-f64ef50a11f2"},"vehicle_type_id":"4","last_reported":1769627885,"current_range_meters":7200,"station_id":"ce4bhm92rcd13ifvqglg","pricing_plan_id":"cebpf4jnsgd1na2vs0mg"},{"bike_id":"5e406290-9171-4dad-9429-931275daccc4","system_id":"levelo_inurba_marseille","lat":43.292654,"lon":5.384445,"is_reserved":false,"is_disabled":false,"rental_uris":{"android":"levelo://app?vid=5e406290-9171-4dad-9429-931275daccc4","ios":"levelo://app?vid=5e406290-9171-4dad-9429-931275daccc4"},"vehicle_type_id":"4","last_reported":1769627885,"current_range_meters":7200,"station_id":"ce4bh692rcd13ifvqea0","pricing_plan_id":"cebpf4jnsgd1na2vs0mg"},{"bike_id":"24dcd320-5c94-4733-84a5-fedd766ecdd0","system_id":"levelo_inurba_marseille","lat":43.28683,"lon":5.386574,"is_reserved":false,"is_disabled":false,"rental_uris":{"android":"levelo://app?vid=24dcd320-5c94-4733-84a5-fedd766ecdd0","ios":"levelo://app?vid=24dcd320-5c94-4733-84a5-fedd766ecdd0"},"vehicle_type_id":"4","last_reported":1769627885,"current_range_meters":7200,"station_id":"ce4bh492rcd13ifvqdug","pricing_plan_id":"cebpf4jnsgd1na2vs0mg"},{"bike_id":"8f81f246-6d5d-41c6-a914-40ca18e88edd","system_id":"levelo_inurba_marseille","lat":43.33206,"lon":5.40252,"is_reserved":false,"is_disabled":false,"rental_uris":{"android":"levelo://app?vid=8f81f246-6d5d-41c6-a914-40ca18e88edd","ios":"levelo://app?vid=8f81f246-6d5d-41c6-a914-40ca18e88edd"},"vehicle_type_id":"4","last_reported":1769627885,"current_range_meters":7200,"station_id":"","pricing_plan_id":"cebpf4jnsgd1na2vs0mg"},{"bike_id":"266b0834-654b-47d2-95f5-e9ad274f17f8","system_id":"levelo_inurba_marseille","lat":43.23776,"lon":5.36623,"is_reserved":false,"is_disabled":false,"rental_uris":{"android":"levelo://app?vid=266b0834-654b-47d2-95f5-e9ad274f17f8","ios":"levelo://app?vid=266b0834-654b-47d2-95f5-e9ad274f17f8"},"vehicle_type_id":"4","last_reported":1769627885,"current_range_meters":7200,"station_id":"st_d3nk18o9ro0c73en2l3g","pricing_plan_id":"cebpf4jnsgd1na2vs0mg"},{"bike_id":"8d5ad576-7df0-4e21-9440-3fe6a62ee683","system_id":"levelo_inurba_marseille","lat":43.29525,"lon":5.390533,"is_reserved":false,"is_disabled":false,"rental_uris":{"android":"levelo://app?vid=8d5ad576-7df0-4e21-9440-3fe6a62ee683","ios":"levelo://app?vid=8d5ad576-7df0-4e21-9440-3fe6a62ee683"},"vehicle_type_id":"4","last_reported":1769627885,"current_range_meters":7200,"station_id":"ce4bh3p2rcd13ifvqdp0","pricing_plan_id":"cebpf4jnsgd1na2vs0mg"},{"bike_id":"78ca3fa5-5325-4fd9-b6b5-1bb6bd866233","system_id":"levelo_inurba_marseille","lat":43.26236,"lon":5.40455,"is_reserved":false,"is_disabled":false,"rental_uris":{"android":"levelo://app?vid=78ca3fa5-5325-4fd9-b6b5-1bb6bd866233","ios":"levelo://app?vid=78ca3fa5-5325-4fd9-b6b5-1bb6bd866233"},"vehicle_type_id":"4","last_reported":1769627885,"current_range_meters":7200,"station_id":"ce4bhmh2rcd13ifvqgmg","pricing_plan_id":"cebpf4jnsgd1na2vs0mg"},{"bike_id":"0268e096-8261-4466-9dd7-175c529b1f0f","system_id":"levelo_inurba_marseille","lat":43.30314,"lon":5.40434,"is_reserved":false,"is_disabled":false,"rental_uris":{"android":"levelo://app?vid=0268e096-8261-4466-9dd7-175c529b1f0f","ios":"levelo://app?vid=0268e096-8261-4466-9dd7-175c529b1f0f"},"vehicle_type_id":"4","last_reported":1769627885,"current_range_meters":7200,"station_id":"ce4bh012rcd13ifvqd10","pricing_plan_id":"cebpf4jnsgd1na2vs0mg"},{"bike_id":"4ae21097-68ff-4a44-bcb7-3e142e11d517","system_id":"levelo_inurba_marseille","lat":43.241733,"lon":5.363965,"is_reserved":false,"is_disabled":false,"rental_uris":{"android":"levelo://app?vid=4ae21097-68ff-4a44-bcb7-3e142e11d517","ios":"levelo://app?vid=4ae21097-68ff-4a44-bcb7-3e142e11d517"},"vehicle_type_id":"4","last_reported":1769627885,"current_range_meters":7200,"station_id":"cpo36qri1sfpv3e86is0","pricing_plan_id":"cebpf4jnsgd1na2vs0mg"},{"bike_id":"9ba0872b-a869-4522-9809-2326ba94ec06","system_id":"levelo_inurba_marseille","lat":43.30545,"lon":5.36514,"is_reserved":false,"is_disabled":false,"rental_uris":{"android":"levelo://app?vid=9ba0872b-a869-4522-9809-2326ba94ec06","ios":"levelo://app?vid=9ba0872b-a869-4522-9809-2326ba94ec06"},"vehicle_type_id":"4","last_reported":1769627885,"current_range_meters":7200,"station_id":"ce4bgs12rcd13ifvqcag","pricing_plan_id":"cebpf4jnsgd1na2vs0mg"},{"bike_id":"53ac99a0-cae8-4b26-b5b6-c54aa9e62072","system_id":"levelo_inurba_marseille","lat":43.29011,"lon":5.38642,"is_reserved":false,"is_disabled":false,"rental_uris":{"android":"levelo://app?vid=53ac99a0-cae8-4b26-b5b6-c54aa9e62072","ios":"levelo://app?vid=53ac99a0-cae8-4b26-b5b6-c54aa9e62072"},"vehicle_type_id":"4","last_reported":1769627885,"current_range_meters":7200,"station_id":"ce4bh4p2rcd13ifvqe0g","pricing_plan_id":"cebpf4jnsgd1na2vs0mg"},{"bike_id":"71aab1cf-46c8-41fa-b1b9-024cd2e66a91","system_id":"levelo_inurba_marseille","lat":43.29535,"lon":5.38548,"is_reserved":false,"is_disabled":false,"rental_uris":{"android":"levelo://app?vid=71aab1cf-46c8-41fa-b1b9-024cd2e66a91","ios":"levelo://app?vid=71aab1cf-46c8-41fa-b1b9-024cd2e66a91"},"vehicle_type_id":"4","last_reported":1769627885,"current_range_meters":7200,"station_id":"ce4bgih2rcd13ifvqba0","pricing_plan_id":"cebpf4jnsgd1na2vs0mg"},{"bike_id":"9328d8d0-a319-4fb2-9d4a-db2606a87040","system_id":"levelo_inurba_marseille","lat":43.24109,"lon":5.36469,"is_reserved":false,"is_disabled":false,"rental_uris":{"android":"levelo://app?vid=9328d8d0-a319-4fb2-9d4a-db2606a87040","ios":"levelo://app?vid=9328d8d0-a319-4fb2-9d4a-db2606a87040"},"vehicle_type_id":"4","last_reported":1769627885,"current_range_meters":7200,"station_id":"cpo36qri1sfpv3e86is0","pricing_plan_id":"cebpf4jnsgd1na2vs0mg"},{"bike_id":"55146eee-612f-4022-a7a1-2171f598dfae","system_id":"levelo_inurba_marseille","lat":43.29303,"lon":5.37456,"is_reserved":false,"is_disabled":false,"rental_uris":{"android":"levelo://app?vid=55146eee-612f-4022-a7a1-2171f598dfae","ios":"levelo://app?vid=55146eee-612f-4022-a7a1-2171f598dfae"},"vehicle_type_id":"4","last_reported":1769627885,"current_range_meters":7200,"station_id":"ce4bgi12rcd13ifvqb70","pricing_plan_id":"cebpf4jnsgd1na2vs0mg"},{"bike_id":"816f05b1-e4c7-4154-aeb4-ef3c8e139b0b","system_id":"levelo_inurba_marseille","lat":43.32488,"lon":5.38307,"is_reserved":false,"is_disabled":false,"rental_uris":{"android":"levelo://app?vid=816f05b1-e4c7-4154-aeb4-ef3c8e139b0b","ios":"levelo://app?vid=816f05b1-e4c7-4154-aeb4-ef3c8e139b0b"},"vehicle_type_id":"4","last_reported":1769627885,"current_range_meters":7200,"station_id":"st_d4asgbiv49dc73anf9m0","pricing_plan_id":"cebpf4jnsgd1na2vs0mg"},{"bike_id":"eae72288-1b63-4615-90d3-036b0e9fe89c","system_id":"levelo_inurba_marseille","lat":43.24569,"lon":5.39504,"is_reserved":false,"is_disabled":false,"rental_uris":{"android":"levelo://app?vid=eae72288-1b63-4615-90d3-036b0e9fe89c","ios":"levelo://app?vid=eae72288-1b63-4615-90d3-036b0e9fe89c"},"vehicle_type_id":"4","last_reported":1769627885,"current_range_meters":7200,"station_id":"ce4bhlp2rcd13ifvqgjg","pricing_plan_id":"cebpf4jnsgd1na2vs0mg"},{"bike_id":"da2028bb-a098-41ca-b1f0-e5d6f17b7120","system_id":"levelo_inurba_marseille","lat":43.288609,"lon":5.425225,"is_reserved":false,"is_disabled":false,"rental_uris":{"android":"levelo://app?vid=da2028bb-a098-41ca-b1f0-e5d6f17b7120","ios":"levelo://app?vid=da2028bb-a098-41ca-b1f0-e5d6f17b7120"},"vehicle_type_id":"4","last_reported":1769627885,"current_range_meters":7200,"station_id":"st_d3b462108ojc7389ooeg","pricing_plan_id":"cebpf4jnsgd1na2vs0mg"},{"bike_id":"616155cc-9c45-450c-87a3-ad73cdd1b76f","system_id":"levelo_inurba_marseille","lat":43.3009,"lon":5.39066,"is_reserved":false,"is_disabled":false,"rental_uris":{"android":"levelo://app?vid=616155cc-9c45-450c-87a3-ad73cdd1b76f","ios":"levelo://app?vid=616155cc-9c45-450c-87a3-ad73cdd1b76f"},"vehicle_type_id":"4","last_reported":1769627885,"current_range_meters":7200,"station_id":"ce4bh192rcd13ifvqdb0","pricing_plan_id":"cebpf4jnsgd1na2vs0mg"},{"bike_id":"307f2527-5795-484c-a46a-a58d49c6522f","system_id":"levelo_inurba_marseille","lat":43.24803,"lon":5.37456,"is_reserved":false,"is_disabled":false,"rental_uris":{"android":"levelo://app?vid=307f2527-5795-484c-a46a-a58d49c6522f","ios":"levelo://app?vid=307f2527-5795-484c-a46a-a58d49c6522f"},"vehicle_type_id":"4","last_reported":1769627885,"current_range_meters":7200,"station_id":"ce4bhgh2rcd13ifvqfb0","pricing_plan_id":"cebpf4jnsgd1na2vs0mg"},{"bike_id":"9183a072-7ef7-40b6-9d57-92fed5e7631a","system_id":"levelo_inurba_marseille","lat":43.301263,"lon":5.431188,"is_reserved":false,"is_disabled":false,"rental_uris":{"android":"levelo://app?vid=9183a072-7ef7-40b6-9d57-92fed5e7631a","ios":"levelo://app?vid=9183a072-7ef7-40b6-9d57-92fed5e7631a"},"vehicle_type_id":"4","last_reported":1769627885,"current_range_meters":8000,"station_id":"st_d3js3co5814s73ftftug","pricing_plan_id":"cebpf4jnsgd1na2vs0mg"},{"bike_id":"f166ac2c-4212-415c-8576-e49a9ce1b1ef","system_id":"levelo_inurba_marseille","lat":43.305287,"lon":5.365468,"is_reserved":false,"is_disabled":false,"rental_uris":{"android":"levelo://app?vid=f166ac2c-4212-415c-8576-e49a9ce1b1ef","ios":"levelo://app?vid=f166ac2c-4212-415c-8576-e49a9ce1b1ef"},"vehicle_type_id":"4","last_reported":1769627885,"current_range_meters":8000,"station_id":"ce4bgs12rcd13ifvqcag","pricing_plan_id":"cebpf4jnsgd1na2vs0mg"},{"bike_id":"80b39af1-2c58-45ab-b4de-d5db4025af96","system_id":"levelo_inurba_marseille","lat":43.248053,"lon":5.374547,"is_reserved":false,"is_disabled":false,"rental_uris":{"android":"levelo://app?vid=80b39af1-2c58-45ab-b4de-d5db4025af96","ios":"levelo://app?vid=80b39af1-2c58-45ab-b4de-d5db4025af96"},"vehicle_type_id":"4","last_reported":1769627885,"current_range_meters":8000,"station_id":"ce4bhgh2rcd13ifvqfb0","pricing_plan_id":"cebpf4jnsgd1na2vs0mg"},{"bike_id":"b45c8d2c-8d88-4cef-8b61-a19c2da1c61e","system_id":"levelo_inurba_marseille","lat":43.3355,"lon":5.3746,"is_reserved":false,"is_disabled":false,"rental_uris":{"android":"levelo://app?vid=b45c8d2c-8d88-4cef-8b61-a19c2da1c61e","ios":"levelo://app?vid=b45c8d2c-8d88-4cef-8b61-a19c2da1c61e"},"vehicle_type_id":"4","last_reported":1769627885,"current_range_meters":8000,"station_id":"st_d46tts09ee8s73dlu43g","pricing_plan_id":"cebpf4jnsgd1na2vs0mg"},{"bike_id":"cd900bc6-a41d-4400-b631-afbebafd4b7d","system_id":"levelo_inurba_marseille","lat":43.282633,"lon":5.350583,"is_reserved":false,"is_disabled":false,"rental_uris":{"android":"levelo://app?vid=cd900bc6-a41d-4400-b631-afbebafd4b7d","ios":"levelo://app?vid=cd900bc6-a41d-4400-b631-afbebafd4b7d"},"vehicle_type_id":"4","last_reported":1769627885,"current_range_meters":8000,"station_id":"ce4bhbp2rcd13ifvqerg","pricing_plan_id":"cebpf4jnsgd1na2vs0mg"},{"bike_id":"3e6599b3-80f5-4cb4-a947-9865a5671465","system_id":"levelo_inurba_marseille","lat":43.276174,"lon":5.361129,"is_reserved":false,"is_disabled":false,"rental_uris":{"android":"levelo://app?vid=3e6599b3-80f5-4cb4-a947-9865a5671465","ios":"levelo://app?vid=3e6599b3-80f5-4cb4-a947-9865a5671465"},"vehicle_type_id":"4","last_reported":1769627885,"current_range_meters":8000,"station_id":"ce4bgj92rcd13ifvqbe0","pricing_plan_id":"cebpf4jnsgd1na2vs0mg"},{"bike_id":"3445ae8b-9f37-454e-b84d-8d10230a7566","system_id":"levelo_inurba_marseille","lat":43.30097,"lon":5.39071,"is_reserved":false,"is_disabled":false,"rental_uris":{"android":"levelo://app?vid=3445ae8b-9f37-454e-b84d-8d10230a7566","ios":"levelo://app?vid=3445ae8b-9f37-454e-b84d-8d10230a7566"},"vehicle_type_id":"4","last_reported":1769627885,"current_range_meters":8000,"station_id":"ce4bh192rcd13ifvqdb0","pricing_plan_id":"cebpf4jnsgd1na2vs0mg"},{"bike_id":"882d39e7-961c-4939-b7ad-7e3e84bd14cd","system_id":"levelo_inurba_marseille","lat":43.2882,"lon":5.35833,"is_reserved":false,"is_disabled":false,"rental_uris":{"android":"levelo://app?vid=882d39e7-961c-4939-b7ad-7e3e84bd14cd","ios":"levelo://app?vid=882d39e7-961c-4939-b7ad-7e3e84bd14cd"},"vehicle_type_id":"4","last_reported":1769627885,"current_range_meters":8000,"station_id":"ce4bhb12rcd13ifvqem0","pricing_plan_id":"cebpf4jnsgd1na2vs0mg"},{"bike_id":"dcc20a74-9ba4-4119-a5f5-ce0a76ef7ac9","system_id":"levelo_inurba_marseille","lat":43.22556,"lon":5.41624,"is_reserved":false,"is_disabled":false,"rental_uris":{"android":"levelo://app?vid=dcc20a74-9ba4-4119-a5f5-ce0a76ef7ac9","ios":"levelo://app?vid=dcc20a74-9ba4-4119-a5f5-ce0a76ef7ac9"},"vehicle_type_id":"4","last_reported":1769627885,"current_range_meters":8000,"station_id":"st_d2o4gvlbi1j2169b742g","pricing_plan_id":"cebpf4jnsgd1na2vs0mg"},{"bike_id":"d8d1a9cf-62e3-4412-b3ab-cf3dcddef86b","system_id":"levelo_inurba_marseille","lat":43.28438,"lon":5.39198,"is_reserved":false,"is_disabled":false,"rental_uris":{"android":"levelo://app?vid=d8d1a9cf-62e3-4412-b3ab-cf3dcddef86b","ios":"levelo://app?vid=d8d1a9cf-62e3-4412-b3ab-cf3dcddef86b"},"vehicle_type_id":"4","last_reported":1769627885,"current_range_meters":8000,"station_id":"ce4bhoh2rcd13ifvqh5g","pricing_plan_id":"cebpf4jnsgd1na2vs0mg"},{"bike_id":"1ffbda22-e3ce-449b-8cf2-1a8499f4ffd7","system_id":"levelo_inurba_marseille","lat":43.26953,"lon":5.38638,"is_reserved":false,"is_disabled":true,"rental_uris":{"android":"levelo://app?vid=1ffbda22-e3ce-449b-8cf2-1a8499f4ffd7","ios":"levelo://app?vid=1ffbda22-e3ce-449b-8cf2-1a8499f4ffd7"},"vehicle_type_id":"4","last_reported":1769627885,"current_range_meters":8000,"station_id":"ce4bhh92rcd13ifvqfh0","pricing_plan_id":"cebpf4jnsgd1na2vs0mg"},{"bike_id":"6166492f-86c8-404b-96a8-5057146aaf8c","system_id":"levelo_inurba_marseille","lat":43.28351,"lon":5.38101,"is_reserved":false,"is_disabled":false,"rental_uris":{"android":"levelo://app?vid=6166492f-86c8-404b-96a8-5057146aaf8c","ios":"levelo://app?vid=6166492f-86c8-404b-96a8-5057146aaf8c"},"vehicle_type_id":"4","last_reported":1769627885,"current_range_meters":8000,"station_id":"ce4bh412rcd13ifvqdr0","pricing_plan_id":"cebpf4jnsgd1na2vs0mg"},{"bike_id":"b96775b7-8954-4f94-990f-968813344c58","system_id":"levelo_inurba_marseille","lat":43.312742,"lon":5.377952,"is_reserved":false,"is_disabled":false,"rental_uris":{"android":"levelo://app?vid=b96775b7-8954-4f94-990f-968813344c58","ios":"levelo://app?vid=b96775b7-8954-4f94-990f-968813344c58"},"vehicle_type_id":"4","last_reported":1769627885,"current_range_meters":8000,"station_id":"","pricing_plan_id":"cebpf4jnsgd1na2vs0mg"},{"bike_id":"ec92a3d7-0aaf-40cf-9513-2fb7d35cc0c4","system_id":"levelo_inurba_marseille","lat":43.23046,"lon":5.35493,"is_reserved":false,"is_disabled":false,"rental_uris":{"android":"levelo://app?vid=ec92a3d7-0aaf-40cf-9513-2fb7d35cc0c4","ios":"levelo://app?vid=ec92a3d7-0aaf-40cf-9513-2fb7d35cc0c4"},"vehicle_type_id":"4","last_reported":1769627885,"current_range_meters":8000,"station_id":"cpo3342slgdg3j2ifvpg","pricing_plan_id":"cebpf4jnsgd1na2vs0mg"},{"bike_id":"67a1e71c-4700-47a5-8bd5-e0a44e652edd","system_id":"levelo_inurba_marseille","lat":43.24549,"lon":5.39522,"is_reserved":false,"is_disabled":false,"rental_uris":{"android":"levelo://app?vid=67a1e71c-4700-47a5-8bd5-e0a44e652edd","ios":"levelo://app?vid=67a1e71c-4700-47a5-8bd5-e0a44e652edd"},"vehicle_type_id":"4","last_reported":1769627885,"current_range_meters":8000,"station_id":"ce4bhlp2rcd13ifvqgjg","pricing_plan_id":"cebpf4jnsgd1na2vs0mg"},{"bike_id":"3eec611c-d8cb-4b54-9748-ae62ab9ddb70","system_id":"levelo_inurba_marseille","lat":43.22918,"lon":5.35383,"is_reserved":false,"is_disabled":false,"rental_uris":{"android":"levelo://app?vid=3eec611c-d8cb-4b54-9748-ae62ab9ddb70","ios":"levelo://app?vid=3eec611c-d8cb-4b54-9748-ae62ab9ddb70"},"vehicle_type_id":"4","last_reported":1769627885,"current_range_meters":8000,"station_id":"cpo3532slgdg3j2ikp40","pricing_plan_id":"cebpf4jnsgd1na2vs0mg"},{"bike_id":"adcf69d8-1927-438e-b914-5f915ba575b2","system_id":"levelo_inurba_marseille","lat":43.25569,"lon":5.38239,"is_reserved":false,"is_disabled":false,"rental_uris":{"android":"levelo://app?vid=adcf69d8-1927-438e-b914-5f915ba575b2","ios":"levelo://app?vid=adcf69d8-1927-438e-b914-5f915ba575b2"},"vehicle_type_id":"4","last_reported":1769627885,"current_range_meters":8000,"station_id":"ce4bhih2rcd13ifvqfs0","pricing_plan_id":"cebpf4jnsgd1na2vs0mg"},{"bike_id":"c98b11d0-0520-418d-bfc6-d6149e6ffac9","system_id":"levelo_inurba_marseille","lat":43.28469,"lon":5.48392,"is_reserved":false,"is_disabled":false,"rental_uris":{"android":"levelo://app?vid=c98b11d0-0520-418d-bfc6-d6149e6ffac9","ios":"levelo://app?vid=c98b11d0-0520-418d-bfc6-d6149e6ffac9"},"vehicle_type_id":"4","last_reported":1769627885,"current_range_meters":8000,"station_id":"st_d3svhcjqgbts73a3dn0g","pricing_plan_id":"cebpf4jnsgd1na2vs0mg"},{"bike_id":"79009d73-0523-4c6d-91de-5993a965a866","system_id":"levelo_inurba_marseille","lat":43.25948,"lon":5.40889,"is_reserved":false,"is_disabled":false,"rental_uris":{"android":"levelo://app?vid=79009d73-0523-4c6d-91de-5993a965a866","ios":"levelo://app?vid=79009d73-0523-4c6d-91de-5993a965a866"},"vehicle_type_id":"4","last_reported":1769627885,"current_range_meters":8000,"station_id":"ce4bhm92rcd13ifvqglg","pricing_plan_id":"cebpf4jnsgd1na2vs0mg"},{"bike_id":"bc230eaa-6d54-4e2d-8428-bb3463d83558","system_id":"levelo_inurba_marseille","lat":43.27314,"lon":5.3907,"is_reserved":false,"is_disabled":true,"rental_uris":{"android":"levelo://app?vid=bc230eaa-6d54-4e2d-8428-bb3463d83558","ios":"levelo://app?vid=bc230eaa-6d54-4e2d-8428-bb3463d83558"},"vehicle_type_id":"4","last_reported":1769627885,"current_range_meters":8400,"station_id":"ce4bhgp2rcd13ifvqfe0","pricing_plan_id":"cebpf4jnsgd1na2vs0mg"},{"bike_id":"9806da0f-d7e9-4daf-99fc-e3fd22a4da76","system_id":"levelo_inurba_marseille","lat":43.25935,"lon":5.40881,"is_reserved":false,"is_disabled":false,"rental_uris":{"android":"levelo://app?vid=9806da0f-d7e9-4daf-99fc-e3fd22a4da76","ios":"levelo://app?vid=9806da0f-d7e9-4daf-99fc-e3fd22a4da76"},"vehicle_type_id":"4","last_reported":1769627885,"current_range_meters":8400,"station_id":"ce4bhm92rcd13ifvqglg","pricing_plan_id":"cebpf4jnsgd1na2vs0mg"},{"bike_id":"0393f1bf-344f-45c8-9042-27b39d04c542","system_id":"levelo_inurba_marseille","lat":43.29008,"lon":5.37822,"is_reserved":false,"is_disabled":false,"rental_uris":{"android":"levelo://app?vid=0393f1bf-344f-45c8-9042-27b39d04c542","ios":"levelo://app?vid=0393f1bf-344f-45c8-9042-27b39d04c542"},"vehicle_type_id":"4","last_reported":1769627885,"current_range_meters":8400,"station_id":"ce4bh9p2rcd13ifvqed0","pricing_plan_id":"cebpf4jnsgd1na2vs0mg"},{"bike_id":"b429b966-0050-4ea1-b7b9-c7d25fe61968","system_id":"levelo_inurba_marseille","lat":43.31368,"lon":5.38494,"is_reserved":false,"is_disabled":false,"rental_uris":{"android":"levelo://app?vid=b429b966-0050-4ea1-b7b9-c7d25fe61968","ios":"levelo://app?vid=b429b966-0050-4ea1-b7b9-c7d25fe61968"},"vehicle_type_id":"4","last_reported":1769627885,"current_range_meters":8400,"station_id":"ce4bgt92rcd13ifvqcf0","pricing_plan_id":"cebpf4jnsgd1na2vs0mg"},{"bike_id":"00291af5-ec22-4614-b75d-6464de594e46","system_id":"levelo_inurba_marseille","lat":43.29675,"lon":5.36695,"is_reserved":false,"is_disabled":false,"rental_uris":{"android":"levelo://app?vid=00291af5-ec22-4614-b75d-6464de594e46","ios":"levelo://app?vid=00291af5-ec22-4614-b75d-6464de594e46"},"vehicle_type_id":"4","last_reported":1769627885,"current_range_meters":8400,"station_id":"","pricing_plan_id":"cebpf4jnsgd1na2vs0mg"},{"bike_id":"541aab47-c46a-45ce-9946-ea87420fea14","system_id":"levelo_inurba_marseille","lat":43.23191,"lon":5.3997,"is_reserved":false,"is_disabled":false,"rental_uris":{"android":"levelo://app?vid=541aab47-c46a-45ce-9946-ea87420fea14","ios":"levelo://app?vid=541aab47-c46a-45ce-9946-ea87420fea14"},"vehicle_type_id":"4","last_reported":1769627885,"current_range_meters":8400,"station_id":"ce4bhn12rcd13ifvqgqg","pricing_plan_id":"cebpf4jnsgd1na2vs0mg"},{"bike_id":"d6347785-7f4b-4520-b64a-bf5bb0e98944","system_id":"levelo_inurba_marseille","lat":43.25004,"lon":5.38915,"is_reserved":false,"is_disabled":false,"rental_uris":{"android":"levelo://app?vid=d6347785-7f4b-4520-b64a-bf5bb0e98944","ios":"levelo://app?vid=d6347785-7f4b-4520-b64a-bf5bb0e98944"},"vehicle_type_id":"4","last_reported":1769627885,"current_range_meters":8400,"station_id":"ce4bhgp2rcd13ifvqfd0","pricing_plan_id":"cebpf4jnsgd1na2vs0mg"},{"bike_id":"0ea98dd0-520a-43ab-ba96-a60901e1aa12","system_id":"levelo_inurba_marseille","lat":43.29286,"lon":5.37456,"is_reserved":false,"is_disabled":false,"rental_uris":{"android":"levelo://app?vid=0ea98dd0-520a-43ab-ba96-a60901e1aa12","ios":"levelo://app?vid=0ea98dd0-520a-43ab-ba96-a60901e1aa12"},"vehicle_type_id":"4","last_reported":1769627885,"current_range_meters":8400,"station_id":"ce4bgi12rcd13ifvqb70","pricing_plan_id":"cebpf4jnsgd1na2vs0mg"},{"bike_id":"db573521-0917-4184-ae0e-d3b35ad328b0","system_id":"levelo_inurba_marseille","lat":43.24075,"lon":5.37755,"is_reserved":false,"is_disabled":false,"rental_uris":{"android":"levelo://app?vid=db573521-0917-4184-ae0e-d3b35ad328b0","ios":"levelo://app?vid=db573521-0917-4184-ae0e-d3b35ad328b0"},"vehicle_type_id":"4","last_reported":1769627885,"current_range_meters":8400,"station_id":"ce4bhnp2rcd13ifvqgvg","pricing_plan_id":"cebpf4jnsgd1na2vs0mg"},{"bike_id":"2d02c1f4-8fc3-4406-9b5e-ca4814ee5bb9","system_id":"levelo_inurba_marseille","lat":43.308934,"lon":5.371919,"is_reserved":false,"is_disabled":false,"rental_uris":{"android":"levelo://app?vid=2d02c1f4-8fc3-4406-9b5e-ca4814ee5bb9","ios":"levelo://app?vid=2d02c1f4-8fc3-4406-9b5e-ca4814ee5bb9"},"vehicle_type_id":"4","last_reported":1769627885,"current_range_meters":8400,"station_id":"ce4bguh2rcd13ifvqckg","pricing_plan_id":"cebpf4jnsgd1na2vs0mg"},{"bike_id":"b453d1a7-0c5a-49b0-9462-d66d05743f6f","system_id":"levelo_inurba_marseille","lat":43.29613,"lon":5.3773,"is_reserved":false,"is_disabled":false,"rental_uris":{"android":"levelo://app?vid=b453d1a7-0c5a-49b0-9462-d66d05743f6f","ios":"levelo://app?vid=b453d1a7-0c5a-49b0-9462-d66d05743f6f"},"vehicle_type_id":"4","last_reported":1769627885,"current_range_meters":8400,"station_id":"ce4bgi92rcd13ifvqb90","pricing_plan_id":"cebpf4jnsgd1na2vs0mg"},{"bike_id":"e4d99860-0afd-47c9-aa6a-179943725f2f","system_id":"levelo_inurba_marseille","lat":43.29282,"lon":5.37457,"is_reserved":false,"is_disabled":false,"rental_uris":{"android":"levelo://app?vid=e4d99860-0afd-47c9-aa6a-179943725f2f","ios":"levelo://app?vid=e4d99860-0afd-47c9-aa6a-179943725f2f"},"vehicle_type_id":"4","last_reported":1769627885,"current_range_meters":8400,"station_id":"ce4bgi12rcd13ifvqb70","pricing_plan_id":"cebpf4jnsgd1na2vs0mg"},{"bike_id":"3561ad0b-1a3f-4e05-bc84-0b77d6283c2d","system_id":"levelo_inurba_marseille","lat":43.29256,"lon":5.38426,"is_reserved":false,"is_disabled":false,"rental_uris":{"android":"levelo://app?vid=3561ad0b-1a3f-4e05-bc84-0b77d6283c2d","ios":"levelo://app?vid=3561ad0b-1a3f-4e05-bc84-0b77d6283c2d"},"vehicle_type_id":"4","last_reported":1769627885,"current_range_meters":8400,"station_id":"ce4bh692rcd13ifvqea0","pricing_plan_id":"cebpf4jnsgd1na2vs0mg"},{"bike_id":"36855e79-f7ac-4112-b45f-3779dd796963","system_id":"levelo_inurba_marseille","lat":43.30183,"lon":5.37338,"is_reserved":false,"is_disabled":false,"rental_uris":{"android":"levelo://app?vid=36855e79-f7ac-4112-b45f-3779dd796963","ios":"levelo://app?vid=36855e79-f7ac-4112-b45f-3779dd796963"},"vehicle_type_id":"4","last_reported":1769627885,"current_range_meters":8400,"station_id":"","pricing_plan_id":"cebpf4jnsgd1na2vs0mg"},{"bike_id":"e2723203-29e5-4f94-8c86-ff4e63054a3f","system_id":"levelo_inurba_marseille","lat":43.29518,"lon":5.39047,"is_reserved":false,"is_disabled":false,"rental_uris":{"android":"levelo://app?vid=e2723203-29e5-4f94-8c86-ff4e63054a3f","ios":"levelo://app?vid=e2723203-29e5-4f94-8c86-ff4e63054a3f"},"vehicle_type_id":"4","last_reported":1769627885,"current_range_meters":8800,"station_id":"ce4bh3p2rcd13ifvqdp0","pricing_plan_id":"cebpf4jnsgd1na2vs0mg"},{"bike_id":"076ff426-372b-4c65-9375-df664868ae53","system_id":"levelo_inurba_marseille","lat":43.29954,"lon":5.41324,"is_reserved":false,"is_disabled":false,"rental_uris":{"android":"levelo://app?vid=076ff426-372b-4c65-9375-df664868ae53","ios":"levelo://app?vid=076ff426-372b-4c65-9375-df664868ae53"},"vehicle_type_id":"4","last_reported":1769627885,"current_range_meters":8800,"station_id":"ce4bhp12rcd13ifvqh9g","pricing_plan_id":"cebpf4jnsgd1na2vs0mg"},{"bike_id":"ff53f9d5-5f7e-430d-99ce-acc6122108c3","system_id":"levelo_inurba_marseille","lat":43.248092,"lon":5.374602,"is_reserved":false,"is_disabled":false,"rental_uris":{"android":"levelo://app?vid=ff53f9d5-5f7e-430d-99ce-acc6122108c3","ios":"levelo://app?vid=ff53f9d5-5f7e-430d-99ce-acc6122108c3"},"vehicle_type_id":"4","last_reported":1769627885,"current_range_meters":8800,"station_id":"ce4bhgh2rcd13ifvqfb0","pricing_plan_id":"cebpf4jnsgd1na2vs0mg"},{"bike_id":"0f0e3ad5-adf0-49dd-bac7-a2c7ac77eeaf","system_id":"levelo_inurba_marseille","lat":43.26227,"lon":5.40453,"is_reserved":false,"is_disabled":false,"rental_uris":{"android":"levelo://app?vid=0f0e3ad5-adf0-49dd-bac7-a2c7ac77eeaf","ios":"levelo://app?vid=0f0e3ad5-adf0-49dd-bac7-a2c7ac77eeaf"},"vehicle_type_id":"4","last_reported":1769627885,"current_range_meters":8800,"station_id":"ce4bhmh2rcd13ifvqgmg","pricing_plan_id":"cebpf4jnsgd1na2vs0mg"},{"bike_id":"a0849274-40ed-4327-a665-480dad63daca","system_id":"levelo_inurba_marseille","lat":43.30586,"lon":5.39359,"is_reserved":false,"is_disabled":false,"rental_uris":{"android":"levelo://app?vid=a0849274-40ed-4327-a665-480dad63daca","ios":"levelo://app?vid=a0849274-40ed-4327-a665-480dad63daca"},"vehicle_type_id":"4","last_reported":1769627885,"current_range_meters":8800,"station_id":"ce4bh0p2rcd13ifvqd80","pricing_plan_id":"cebpf4jnsgd1na2vs0mg"},{"bike_id":"3d405854-a3e9-4cc4-bcac-5ce2eff49e57","system_id":"levelo_inurba_marseille","lat":43.231768,"lon":5.399824,"is_reserved":false,"is_disabled":false,"rental_uris":{"android":"levelo://app?vid=3d405854-a3e9-4cc4-bcac-5ce2eff49e57","ios":"levelo://app?vid=3d405854-a3e9-4cc4-bcac-5ce2eff49e57"},"vehicle_type_id":"4","last_reported":1769627885,"current_range_meters":8800,"station_id":"ce4bhn12rcd13ifvqgqg","pricing_plan_id":"cebpf4jnsgd1na2vs0mg"},{"bike_id":"802f6e05-7249-407a-aac4-32d2041628b8","system_id":"levelo_inurba_marseille","lat":43.230521,"lon":5.354937,"is_reserved":false,"is_disabled":false,"rental_uris":{"android":"levelo://app?vid=802f6e05-7249-407a-aac4-32d2041628b8","ios":"levelo://app?vid=802f6e05-7249-407a-aac4-32d2041628b8"},"vehicle_type_id":"4","last_reported":1769627885,"current_range_meters":8800,"station_id":"cpo3342slgdg3j2ifvpg","pricing_plan_id":"cebpf4jnsgd1na2vs0mg"},{"bike_id":"2091fd8b-82ef-4338-9ed3-42b40b6b35f0","system_id":"levelo_inurba_marseille","lat":43.30372,"lon":5.38026,"is_reserved":false,"is_disabled":false,"rental_uris":{"android":"levelo://app?vid=2091fd8b-82ef-4338-9ed3-42b40b6b35f0","ios":"levelo://app?vid=2091fd8b-82ef-4338-9ed3-42b40b6b35f0"},"vehicle_type_id":"4","last_reported":1769627885,"current_range_meters":8800,"station_id":"","pricing_plan_id":"cebpf4jnsgd1na2vs0mg"},{"bike_id":"0af74aa0-19dc-4932-bb7c-d43ef9091c9e","system_id":"levelo_inurba_marseille","lat":43.301377,"lon":5.387754,"is_reserved":false,"is_disabled":false,"rental_uris":{"android":"levelo://app?vid=0af74aa0-19dc-4932-bb7c-d43ef9091c9e","ios":"levelo://app?vid=0af74aa0-19dc-4932-bb7c-d43ef9091c9e"},"vehicle_type_id":"4","last_reported":1769627885,"current_range_meters":8800,"station_id":"ce4bghh2rcd13ifvqb60","pricing_plan_id":"cebpf4jnsgd1na2vs0mg"},{"bike_id":"8c50cc1b-6957-4db2-9b96-76d9d37bac03","system_id":"levelo_inurba_marseille","lat":43.22574,"lon":5.41618,"is_reserved":false,"is_disabled":false,"rental_uris":{"android":"levelo://app?vid=8c50cc1b-6957-4db2-9b96-76d9d37bac03","ios":"levelo://app?vid=8c50cc1b-6957-4db2-9b96-76d9d37bac03"},"vehicle_type_id":"4","last_reported":1769627885,"current_range_meters":8800,"station_id":"st_d2o4gvlbi1j2169b742g","pricing_plan_id":"cebpf4jnsgd1na2vs0mg"},{"bike_id":"894af8e6-15aa-4361-9e32-7bad83f2e739","system_id":"levelo_inurba_marseille","lat":43.30935,"lon":5.40152,"is_reserved":false,"is_disabled":false,"rental_uris":{"android":"levelo://app?vid=894af8e6-15aa-4361-9e32-7bad83f2e739","ios":"levelo://app?vid=894af8e6-15aa-4361-9e32-7bad83f2e739"},"vehicle_type_id":"4","last_reported":1769627885,"current_range_meters":8800,"station_id":"ce4bgvp2rcd13ifvqct0","pricing_plan_id":"cebpf4jnsgd1na2vs0mg"},{"bike_id":"48555f65-b25f-4ae0-90c2-d15a154471a7","system_id":"levelo_inurba_marseille","lat":43.27811,"lon":5.40716,"is_reserved":false,"is_disabled":false,"rental_uris":{"android":"levelo://app?vid=48555f65-b25f-4ae0-90c2-d15a154471a7","ios":"levelo://app?vid=48555f65-b25f-4ae0-90c2-d15a154471a7"},"vehicle_type_id":"4","last_reported":1769627885,"current_range_meters":8800,"station_id":"ce4bhnh2rcd13ifvqgtg","pricing_plan_id":"cebpf4jnsgd1na2vs0mg"},{"bike_id":"ae2bd00b-86f2-42b9-8e4e-3fa74e019d82","system_id":"levelo_inurba_marseille","lat":43.23182,"lon":5.39981,"is_reserved":false,"is_disabled":false,"rental_uris":{"android":"levelo://app?vid=ae2bd00b-86f2-42b9-8e4e-3fa74e019d82","ios":"levelo://app?vid=ae2bd00b-86f2-42b9-8e4e-3fa74e019d82"},"vehicle_type_id":"4","last_reported":1769627885,"current_range_meters":8800,"station_id":"ce4bhn12rcd13ifvqgqg","pricing_plan_id":"cebpf4jnsgd1na2vs0mg"},{"bike_id":"ba94ad88-2d86-4f15-a70c-04c6ad4ea30f","system_id":"levelo_inurba_marseille","lat":43.33169,"lon":5.37723,"is_reserved":false,"is_disabled":false,"rental_uris":{"android":"levelo://app?vid=ba94ad88-2d86-4f15-a70c-04c6ad4ea30f","ios":"levelo://app?vid=ba94ad88-2d86-4f15-a70c-04c6ad4ea30f"},"vehicle_type_id":"4","last_reported":1769627885,"current_range_meters":8800,"station_id":"st_d46cu089ee8s73dldbu0","pricing_plan_id":"cebpf4jnsgd1na2vs0mg"},{"bike_id":"5348d7ed-29b0-4142-9cf8-d607f0925495","system_id":"levelo_inurba_marseille","lat":43.313302,"lon":5.396966,"is_reserved":false,"is_disabled":false,"rental_uris":{"android":"levelo://app?vid=5348d7ed-29b0-4142-9cf8-d607f0925495","ios":"levelo://app?vid=5348d7ed-29b0-4142-9cf8-d607f0925495"},"vehicle_type_id":"4","last_reported":1769627885,"current_range_meters":8800,"station_id":"ce4bgvp2rcd13ifvqcu0","pricing_plan_id":"cebpf4jnsgd1na2vs0mg"},{"bike_id":"cef89498-fbf9-4ad5-afa6-46a5eea10249","system_id":"levelo_inurba_marseille","lat":43.27333,"lon":5.40996,"is_reserved":false,"is_disabled":false,"rental_uris":{"android":"levelo://app?vid=cef89498-fbf9-4ad5-afa6-46a5eea10249","ios":"levelo://app?vid=cef89498-fbf9-4ad5-afa6-46a5eea10249"},"vehicle_type_id":"4","last_reported":1769627885,"current_range_meters":8800,"station_id":"","pricing_plan_id":"cebpf4jnsgd1na2vs0mg"},{"bike_id":"bbf12486-e043-443d-8c79-9a273772c204","system_id":"levelo_inurba_marseille","lat":43.23193,"lon":5.39981,"is_reserved":false,"is_disabled":false,"rental_uris":{"android":"levelo://app?vid=bbf12486-e043-443d-8c79-9a273772c204","ios":"levelo://app?vid=bbf12486-e043-443d-8c79-9a273772c204"},"vehicle_type_id":"4","last_reported":1769627885,"current_range_meters":9200,"station_id":"ce4bhn12rcd13ifvqgqg","pricing_plan_id":"cebpf4jnsgd1na2vs0mg"},{"bike_id":"132f504b-b70f-4f5e-895b-9bef822e91c5","system_id":"levelo_inurba_marseille","lat":43.295663,"lon":5.399607,"is_reserved":false,"is_disabled":true,"rental_uris":{"android":"levelo://app?vid=132f504b-b70f-4f5e-895b-9bef822e91c5","ios":"levelo://app?vid=132f504b-b70f-4f5e-895b-9bef822e91c5"},"vehicle_type_id":"4","last_reported":1769627885,"current_range_meters":9200,"station_id":"ce4bh312rcd13ifvqdj0","pricing_plan_id":"cebpf4jnsgd1na2vs0mg"},{"bike_id":"29e658f4-2359-46f1-90c1-df0499696a70","system_id":"levelo_inurba_marseille","lat":43.30126,"lon":5.43114,"is_reserved":false,"is_disabled":false,"rental_uris":{"android":"levelo://app?vid=29e658f4-2359-46f1-90c1-df0499696a70","ios":"levelo://app?vid=29e658f4-2359-46f1-90c1-df0499696a70"},"vehicle_type_id":"4","last_reported":1769627885,"current_range_meters":9200,"station_id":"st_d3js3co5814s73ftftug","pricing_plan_id":"cebpf4jnsgd1na2vs0mg"},{"bike_id":"f9f433f8-c18c-4a42-bb0c-796736b3decc","system_id":"levelo_inurba_marseille","lat":43.237814,"lon":5.366289,"is_reserved":false,"is_disabled":false,"rental_uris":{"android":"levelo://app?vid=f9f433f8-c18c-4a42-bb0c-796736b3decc","ios":"levelo://app?vid=f9f433f8-c18c-4a42-bb0c-796736b3decc"},"vehicle_type_id":"4","last_reported":1769627885,"current_range_meters":9200,"station_id":"st_d3nk18o9ro0c73en2l3g","pricing_plan_id":"cebpf4jnsgd1na2vs0mg"},{"bike_id":"cfe3a6dd-a211-4abb-80dc-8311ecf0e5e7","system_id":"levelo_inurba_marseille","lat":43.2316,"lon":5.43744,"is_reserved":false,"is_disabled":false,"rental_uris":{"android":"levelo://app?vid=cfe3a6dd-a211-4abb-80dc-8311ecf0e5e7","ios":"levelo://app?vid=cfe3a6dd-a211-4abb-80dc-8311ecf0e5e7"},"vehicle_type_id":"4","last_reported":1769627885,"current_range_meters":9200,"station_id":"ce4bhmp2rcd13ifvqgog","pricing_plan_id":"cebpf4jnsgd1na2vs0mg"},{"bike_id":"be7a4d7e-1984-4b23-8b92-0f9bbe591f55","system_id":"levelo_inurba_marseille","lat":43.28856,"lon":5.42529,"is_reserved":false,"is_disabled":false,"rental_uris":{"android":"levelo://app?vid=be7a4d7e-1984-4b23-8b92-0f9bbe591f55","ios":"levelo://app?vid=be7a4d7e-1984-4b23-8b92-0f9bbe591f55"},"vehicle_type_id":"4","last_reported":1769627885,"current_range_meters":9200,"station_id":"st_d3b462108ojc7389ooeg","pricing_plan_id":"cebpf4jnsgd1na2vs0mg"},{"bike_id":"9c143376-0522-4d00-a116-66d871cdb46d","system_id":"levelo_inurba_marseille","lat":43.25581,"lon":5.38239,"is_reserved":false,"is_disabled":false,"rental_uris":{"android":"levelo://app?vid=9c143376-0522-4d00-a116-66d871cdb46d","ios":"levelo://app?vid=9c143376-0522-4d00-a116-66d871cdb46d"},"vehicle_type_id":"4","last_reported":1769627885,"current_range_meters":9200,"station_id":"ce4bhih2rcd13ifvqfs0","pricing_plan_id":"cebpf4jnsgd1na2vs0mg"},{"bike_id":"16199858-b735-4ef4-aea3-a073cd0a7000","system_id":"levelo_inurba_marseille","lat":43.25584,"lon":5.38235,"is_reserved":false,"is_disabled":false,"rental_uris":{"android":"levelo://app?vid=16199858-b735-4ef4-aea3-a073cd0a7000","ios":"levelo://app?vid=16199858-b735-4ef4-aea3-a073cd0a7000"},"vehicle_type_id":"4","last_reported":1769627885,"current_range_meters":9200,"station_id":"ce4bhih2rcd13ifvqfs0","pricing_plan_id":"cebpf4jnsgd1na2vs0mg"},{"bike_id":"0491bed2-eff8-42d6-9460-8bfe4a2ab6cf","system_id":"levelo_inurba_marseille","lat":43.27971,"lon":5.39591,"is_reserved":false,"is_disabled":false,"rental_uris":{"android":"levelo://app?vid=0491bed2-eff8-42d6-9460-8bfe4a2ab6cf","ios":"levelo://app?vid=0491bed2-eff8-42d6-9460-8bfe4a2ab6cf"},"vehicle_type_id":"4","last_reported":1769627885,"current_range_meters":9200,"station_id":"","pricing_plan_id":"cebpf4jnsgd1na2vs0mg"},{"bike_id":"85b1b1e1-c458-4711-86a6-2ddb2584b733","system_id":"levelo_inurba_marseille","lat":43.335434,"lon":5.37462,"is_reserved":false,"is_disabled":false,"rental_uris":{"android":"levelo://app?vid=85b1b1e1-c458-4711-86a6-2ddb2584b733","ios":"levelo://app?vid=85b1b1e1-c458-4711-86a6-2ddb2584b733"},"vehicle_type_id":"4","last_reported":1769627885,"current_range_meters":9200,"station_id":"st_d46tts09ee8s73dlu43g","pricing_plan_id":"cebpf4jnsgd1na2vs0mg"},{"bike_id":"6415cc66-a022-4fd8-afb1-cf23e2d39312","system_id":"levelo_inurba_marseille","lat":43.28153,"lon":5.42643,"is_reserved":false,"is_disabled":false,"rental_uris":{"android":"levelo://app?vid=6415cc66-a022-4fd8-afb1-cf23e2d39312","ios":"levelo://app?vid=6415cc66-a022-4fd8-afb1-cf23e2d39312"},"vehicle_type_id":"4","last_reported":1769627885,"current_range_meters":9200,"station_id":"ce4bhnh2rcd13ifvqgug","pricing_plan_id":"cebpf4jnsgd1na2vs0mg"},{"bike_id":"62a57c33-0182-433a-bba5-2200a0f23c0e","system_id":"levelo_inurba_marseille","lat":43.302116,"lon":5.394666,"is_reserved":false,"is_disabled":false,"rental_uris":{"android":"levelo://app?vid=62a57c33-0182-433a-bba5-2200a0f23c0e","ios":"levelo://app?vid=62a57c33-0182-433a-bba5-2200a0f23c0e"},"vehicle_type_id":"4","last_reported":1769627885,"current_range_meters":9200,"station_id":"ce4bh0p2rcd13ifvqd70","pricing_plan_id":"cebpf4jnsgd1na2vs0mg"},{"bike_id":"e236f0a6-2e87-48ed-94ce-e49f696f4842","system_id":"levelo_inurba_marseille","lat":43.26566,"lon":5.37511,"is_reserved":false,"is_disabled":false,"rental_uris":{"android":"levelo://app?vid=e236f0a6-2e87-48ed-94ce-e49f696f4842","ios":"levelo://app?vid=e236f0a6-2e87-48ed-94ce-e49f696f4842"},"vehicle_type_id":"4","last_reported":1769627885,"current_range_meters":9200,"station_id":"","pricing_plan_id":"cebpf4jnsgd1na2vs0mg"},{"bike_id":"78232e9c-1717-4c45-a9f5-b384ba925e93","system_id":"levelo_inurba_marseille","lat":43.25329,"lon":5.42167,"is_reserved":false,"is_disabled":false,"rental_uris":{"android":"levelo://app?vid=78232e9c-1717-4c45-a9f5-b384ba925e93","ios":"levelo://app?vid=78232e9c-1717-4c45-a9f5-b384ba925e93"},"vehicle_type_id":"4","last_reported":1769627885,"current_range_meters":9200,"station_id":"st_d2m65c5bi1j21697t3ng","pricing_plan_id":"cebpf4jnsgd1na2vs0mg"},{"bike_id":"b1fa606b-e689-4d60-aa95-cace7a5dbf41","system_id":"levelo_inurba_marseille","lat":43.29045,"lon":5.35918,"is_reserved":false,"is_disabled":false,"rental_uris":{"android":"levelo://app?vid=b1fa606b-e689-4d60-aa95-cace7a5dbf41","ios":"levelo://app?vid=b1fa606b-e689-4d60-aa95-cace7a5dbf41"},"vehicle_type_id":"4","last_reported":1769627885,"current_range_meters":9200,"station_id":"ce4bha92rcd13ifvqeg0","pricing_plan_id":"cebpf4jnsgd1na2vs0mg"},{"bike_id":"65acf627-cf1b-4d50-950d-139ba4fe7e7b","system_id":"levelo_inurba_marseille","lat":43.28151,"lon":5.42641,"is_reserved":false,"is_disabled":false,"rental_uris":{"android":"levelo://app?vid=65acf627-cf1b-4d50-950d-139ba4fe7e7b","ios":"levelo://app?vid=65acf627-cf1b-4d50-950d-139ba4fe7e7b"},"vehicle_type_id":"4","last_reported":1769627885,"current_range_meters":9200,"station_id":"ce4bhnh2rcd13ifvqgug","pricing_plan_id":"cebpf4jnsgd1na2vs0mg"},{"bike_id":"aabe1d9a-1403-4eeb-bb0e-389035184fd8","system_id":"levelo_inurba_marseille","lat":43.27581,"lon":5.38416,"is_reserved":false,"is_disabled":false,"rental_uris":{"android":"levelo://app?vid=aabe1d9a-1403-4eeb-bb0e-389035184fd8","ios":"levelo://app?vid=aabe1d9a-1403-4eeb-bb0e-389035184fd8"},"vehicle_type_id":"4","last_reported":1769627885,"current_range_meters":9200,"station_id":"ce4bhh92rcd13ifvqfi0","pricing_plan_id":"cebpf4jnsgd1na2vs0mg"},{"bike_id":"1bfe2930-bdb0-4422-9fe9-421cffed6f81","system_id":"levelo_inurba_marseille","lat":43.25945,"lon":5.409,"is_reserved":false,"is_disabled":false,"rental_uris":{"android":"levelo://app?vid=1bfe2930-bdb0-4422-9fe9-421cffed6f81","ios":"levelo://app?vid=1bfe2930-bdb0-4422-9fe9-421cffed6f81"},"vehicle_type_id":"4","last_reported":1769627885,"current_range_meters":9200,"station_id":"ce4bhm92rcd13ifvqglg","pricing_plan_id":"cebpf4jnsgd1na2vs0mg"},{"bike_id":"00e5f91e-28e3-4d18-9405-1b18fbd1b1a5","system_id":"levelo_inurba_marseille","lat":43.2481,"lon":5.37471,"is_reserved":false,"is_disabled":false,"rental_uris":{"android":"levelo://app?vid=00e5f91e-28e3-4d18-9405-1b18fbd1b1a5","ios":"levelo://app?vid=00e5f91e-28e3-4d18-9405-1b18fbd1b1a5"},"vehicle_type_id":"4","last_reported":1769627885,"current_range_meters":9200,"station_id":"ce4bhgh2rcd13ifvqfb0","pricing_plan_id":"cebpf4jnsgd1na2vs0mg"},{"bike_id":"de9f3d40-ab0b-4815-9ff8-6a221add92bf","system_id":"levelo_inurba_marseille","lat":43.331593,"lon":5.376914,"is_reserved":false,"is_disabled":false,"rental_uris":{"android":"levelo://app?vid=de9f3d40-ab0b-4815-9ff8-6a221add92bf","ios":"levelo://app?vid=de9f3d40-ab0b-4815-9ff8-6a221add92bf"},"vehicle_type_id":"4","last_reported":1769627885,"current_range_meters":9200,"station_id":"st_d46cu089ee8s73dldbu0","pricing_plan_id":"cebpf4jnsgd1na2vs0mg"},{"bike_id":"ae271546-2414-45b9-8ca1-cf52daa669c2","system_id":"levelo_inurba_marseille","lat":43.25338,"lon":5.42167,"is_reserved":false,"is_disabled":false,"rental_uris":{"android":"levelo://app?vid=ae271546-2414-45b9-8ca1-cf52daa669c2","ios":"levelo://app?vid=ae271546-2414-45b9-8ca1-cf52daa669c2"},"vehicle_type_id":"4","last_reported":1769627885,"current_range_meters":9200,"station_id":"st_d2m65c5bi1j21697t3ng","pricing_plan_id":"cebpf4jnsgd1na2vs0mg"},{"bike_id":"4bd6cb39-f26e-431f-9c48-bc9838a79167","system_id":"levelo_inurba_marseille","lat":43.29814,"lon":5.44063,"is_reserved":false,"is_disabled":false,"rental_uris":{"android":"levelo://app?vid=4bd6cb39-f26e-431f-9c48-bc9838a79167","ios":"levelo://app?vid=4bd6cb39-f26e-431f-9c48-bc9838a79167"},"vehicle_type_id":"4","last_reported":1769627885,"current_range_meters":9200,"station_id":"st_d3jp68qikq2c7381ktn0","pricing_plan_id":"cebpf4jnsgd1na2vs0mg"},{"bike_id":"15698324-3145-4547-849e-2fd8a77ba3ab","system_id":"levelo_inurba_marseille","lat":43.27375,"lon":5.36249,"is_reserved":false,"is_disabled":false,"rental_uris":{"android":"levelo://app?vid=15698324-3145-4547-849e-2fd8a77ba3ab","ios":"levelo://app?vid=15698324-3145-4547-849e-2fd8a77ba3ab"},"vehicle_type_id":"4","last_reported":1769627885,"current_range_meters":9600,"station_id":"ce4bhbh2rcd13ifvqeo0","pricing_plan_id":"cebpf4jnsgd1na2vs0mg"},{"bike_id":"ff6b7c54-9109-40bd-a633-45f090808baa","system_id":"levelo_inurba_marseille","lat":43.225324,"lon":5.348262,"is_reserved":false,"is_disabled":false,"rental_uris":{"android":"levelo://app?vid=ff6b7c54-9109-40bd-a633-45f090808baa","ios":"levelo://app?vid=ff6b7c54-9109-40bd-a633-45f090808baa"},"vehicle_type_id":"4","last_reported":1769627885,"current_range_meters":9600,"station_id":"","pricing_plan_id":"cebpf4jnsgd1na2vs0mg"},{"bike_id":"c02630d1-3d60-4c64-9c08-77c4d3092b31","system_id":"levelo_inurba_marseille","lat":43.24803,"lon":5.37454,"is_reserved":false,"is_disabled":false,"rental_uris":{"android":"levelo://app?vid=c02630d1-3d60-4c64-9c08-77c4d3092b31","ios":"levelo://app?vid=c02630d1-3d60-4c64-9c08-77c4d3092b31"},"vehicle_type_id":"4","last_reported":1769627885,"current_range_meters":9600,"station_id":"ce4bhgh2rcd13ifvqfb0","pricing_plan_id":"cebpf4jnsgd1na2vs0mg"},{"bike_id":"efeafcfb-fc66-4b08-a741-f189e972e88a","system_id":"levelo_inurba_marseille","lat":43.295697,"lon":5.374803,"is_reserved":false,"is_disabled":false,"rental_uris":{"android":"levelo://app?vid=efeafcfb-fc66-4b08-a741-f189e972e88a","ios":"levelo://app?vid=efeafcfb-fc66-4b08-a741-f189e972e88a"},"vehicle_type_id":"4","last_reported":1769627885,"current_range_meters":9600,"station_id":"ce4bgh92rcd13ifvqb50","pricing_plan_id":"cebpf4jnsgd1na2vs0mg"},{"bike_id":"7e41561f-7806-45f6-ab12-4610be42a124","system_id":"levelo_inurba_marseille","lat":43.25869,"lon":5.39899,"is_reserved":false,"is_disabled":false,"rental_uris":{"android":"levelo://app?vid=7e41561f-7806-45f6-ab12-4610be42a124","ios":"levelo://app?vid=7e41561f-7806-45f6-ab12-4610be42a124"},"vehicle_type_id":"4","last_reported":1769627885,"current_range_meters":9600,"station_id":"ce4bhl92rcd13ifvqghg","pricing_plan_id":"cebpf4jnsgd1na2vs0mg"},{"bike_id":"60ebce89-9b49-41d8-b1d5-1fdb022bac99","system_id":"levelo_inurba_marseille","lat":43.33658,"lon":5.37358,"is_reserved":false,"is_disabled":false,"rental_uris":{"android":"levelo://app?vid=60ebce89-9b49-41d8-b1d5-1fdb022bac99","ios":"levelo://app?vid=60ebce89-9b49-41d8-b1d5-1fdb022bac99"},