{"last_updated":1753643333,"ttl":60,"version":"2.2","data":{"bikes":[{"bike_id":"67578d97-34c4-449f-b544-3b6baa2d77b2","system_id":"levelo_inurba_marseille","lat":43.30213,"lon":5.39463,"is_reserved":false,"is_disabled":false,"rental_uris":{"android":"levelo://app?vid=67578d97-34c4-449f-b544-3b6baa2d77b2","ios":"levelo://app?vid=67578d97-34c4-449f-b544-3b6baa2d77b2"},"vehicle_type_id":"4","last_reported":1753643333,"current_range_meters":2000,"station_id":"ce4bh0p2rcd13ifvqd70","pricing_plan_id":"cebpf4jnsgd1na2vs0mg"},{"bike_id":"829b529a-44d6-4c17-ac8e-70d26adef83c","system_id":"levelo_inurba_marseille","lat":43.2926,"lon":5.38442,"is_reserved":false,"is_disabled":false,"rental_uris":{"android":"levelo://app?vid=829b529a-44d6-4c17-ac8e-70d26adef83c","ios":"levelo://app?vid=829b529a-44d6-4c17-ac8e-70d26adef83c"},"vehicle_type_id":"4","last_reported":1753643333,"current_range_meters":2800,"station_id":"ce4bh692rcd13ifvqea0","pricing_plan_id":"cebpf4jnsgd1na2vs0mg"},{"bike_id":"a3934e84-f44d-48d2-9e0c-f03e011c78dc","system_id":"levelo_inurba_marseille","lat":43.29591,"lon":5.38102,"is_reserved":false,"is_disabled":false,"rental_uris":{"android":"levelo://app?vid=a3934e84-f44d-48d2-9e0c-f03e011c78dc","ios":"levelo://app?vid=a3934e84-f44d-48d2-9e0c-f03e011c78dc"},"vehicle_type_id":"4","last_reported":1753643333,"current_range_meters":3200,"station_id":"ce4bgl12rcd13ifvqbo0","pricing_plan_id":"cebpf4jnsgd1na2vs0mg"},{"bike_id":"078febbd-6d49-4abf-8b46-d33f87f8da46","system_id":"levelo_inurba_marseille","lat":43.25452,"lon":5.38007,"is_reserved":false,"is_disabled":true,"rental_uris":{"android":"levelo://app?vid=078febbd-6d49-4abf-8b46-d33f87f8da46","ios":"levelo://app?vid=078febbd-6d49-4abf-8b46-d33f87f8da46"},"vehicle_type_id":"4","last_reported":1753643333,"current_range_meters":3200,"station_id":"","pricing_plan_id":"cebpf4jnsgd1na2vs0mg"},{"bike_id":"f123af25-f5e1-4535-bf9a-e453fb7322cc","system_id":"levelo_inurba_marseille","lat":43.27545,"lon":5.409,"is_reserved":false,"is_disabled":true,"rental_uris":{"android":"levelo://app?vid=f123af25-f5e1-4535-bf9a-e453fb7322cc","ios":"levelo://app?vid=f123af25-f5e1-4535-bf9a-e453fb7322cc"},"vehicle_type_id":"4","last_reported":1753643333,"current_range_meters":3600,"station_id":"","pricing_plan_id":"cebpf4jnsgd1na2vs0mg"},{"bike_id":"acdc15f3-f881-4795-bd43-7b1b297ebaa4","system_id":"levelo_inurba_marseille","lat":43.27033,"lon":5.42268,"is_reserved":false,"is_disabled":true,"rental_uris":{"android":"levelo://app?vid=acdc15f3-f881-4795-bd43-7b1b297ebaa4","ios":"levelo://app?vid=acdc15f3-f881-4795-bd43-7b1b297ebaa4"},"vehicle_type_id":"4","last_reported":1753643333,"current_range_meters":3600,"station_id":"ce4bhk92rcd13ifvqgb0","pricing_plan_id":"cebpf4jnsgd1na2vs0mg"},{"bike_id":"e6361373-59d9-4415-9379-9c1c7daf82b6","system_id":"levelo_inurba_marseille","lat":43.26027,"lon":5.375478,"is_reserved":false,"is_disabled":false,"rental_uris":{"android":"levelo://app?vid=e6361373-59d9-4415-9379-9c1c7daf82b6","ios":"levelo://app?vid=e6361373-59d9-4415-9379-9c1c7daf82b6"},"vehicle_type_id":"4","last_reported":1753643333,"current_range_meters":3200,"station_id":"ce4bhgh2rcd13ifvqfa0","pricing_plan_id":"cebpf4jnsgd1na2vs0mg"},{"bike_id":"4f343cae-8640-400a-b1b5-82618a152024","system_id":"levelo_inurba_marseille","lat":43.27995,"lon":5.41665,"is_reserved":false,"is_disabled":false,"rental_uris":{"android":"levelo://app?vid=4f343cae-8640-400a-b1b5-82618a152024","ios":"levelo://app?vid=4f343cae-8640-400a-b1b5-82618a152024"},"vehicle_type_id":"4","last_reported":1753643333,"current_range_meters":3600,"station_id":"ce4bho12rcd13ifvqh1g","pricing_plan_id":"cebpf4jnsgd1na2vs0mg"},{"bike_id":"8dbc5fe8-a8ec-477e-996b-750e36cc7482","system_id":"levelo_inurba_marseille","lat":43.315566,"lon":5.372933,"is_reserved":false,"is_disabled":false,"rental_uris":{"android":"levelo://app?vid=8dbc5fe8-a8ec-477e-996b-750e36cc7482","ios":"levelo://app?vid=8dbc5fe8-a8ec-477e-996b-750e36cc7482"},"vehicle_type_id":"4","last_reported":1753643333,"current_range_meters":3600,"station_id":"ce4bgth2rcd13ifvqch0","pricing_plan_id":"cebpf4jnsgd1na2vs0mg"},{"bike_id":"b5054172-7772-49c9-813f-656bd4d4ef68","system_id":"levelo_inurba_marseille","lat":43.286131,"lon":5.370582,"is_reserved":false,"is_disabled":false,"rental_uris":{"android":"levelo://app?vid=b5054172-7772-49c9-813f-656bd4d4ef68","ios":"levelo://app?vid=b5054172-7772-49c9-813f-656bd4d4ef68"},"vehicle_type_id":"4","last_reported":1753643333,"current_range_meters":4000,"station_id":"ce4bht12rcd13ifvqi60","pricing_plan_id":"cebpf4jnsgd1na2vs0mg"},{"bike_id":"b0b56e9d-8ff4-4f9f-9baa-068d5755d15c","system_id":"levelo_inurba_marseille","lat":43.279941,"lon":5.400087,"is_reserved":false,"is_disabled":false,"rental_uris":{"android":"levelo://app?vid=b0b56e9d-8ff4-4f9f-9baa-068d5755d15c","ios":"levelo://app?vid=b0b56e9d-8ff4-4f9f-9baa-068d5755d15c"},"vehicle_type_id":"4","last_reported":1753643333,"current_range_meters":3600,"station_id":"ce4bho92rcd13ifvqh4g","pricing_plan_id":"cebpf4jnsgd1na2vs0mg"},{"bike_id":"b7ed9571-0d35-4df5-9ba8-fcfa0cd8d52b","system_id":"levelo_inurba_marseille","lat":43.3264,"lon":5.37872,"is_reserved":false,"is_disabled":false,"rental_uris":{"android":"levelo://app?vid=b7ed9571-0d35-4df5-9ba8-fcfa0cd8d52b","ios":"levelo://app?vid=b7ed9571-0d35-4df5-9ba8-fcfa0cd8d52b"},"vehicle_type_id":"4","last_reported":1753643333,"current_range_meters":4000,"station_id":"","pricing_plan_id":"cebpf4jnsgd1na2vs0mg"},{"bike_id":"618f8f0d-356d-49f9-8625-19d7ea1fb7a7","system_id":"levelo_inurba_marseille","lat":43.32053,"lon":5.4157,"is_reserved":false,"is_disabled":false,"rental_uris":{"android":"levelo://app?vid=618f8f0d-356d-49f9-8625-19d7ea1fb7a7","ios":"levelo://app?vid=618f8f0d-356d-49f9-8625-19d7ea1fb7a7"},"vehicle_type_id":"4","last_reported":1753643333,"current_range_meters":3600,"station_id":"ce4bhq92rcd13ifvqhkg","pricing_plan_id":"cebpf4jnsgd1na2vs0mg"},{"bike_id":"65490e02-48e8-46ce-a88a-2f497d289b71","system_id":"levelo_inurba_marseille","lat":43.32109,"lon":5.36777,"is_reserved":false,"is_disabled":false,"rental_uris":{"android":"levelo://app?vid=65490e02-48e8-46ce-a88a-2f497d289b71","ios":"levelo://app?vid=65490e02-48e8-46ce-a88a-2f497d289b71"},"vehicle_type_id":"4","last_reported":1753643333,"current_range_meters":4000,"station_id":"ce4bhrh2rcd13ifvqhug","pricing_plan_id":"cebpf4jnsgd1na2vs0mg"},{"bike_id":"01a8e307-f9de-4eb5-a307-55559ca42c36","system_id":"levelo_inurba_marseille","lat":43.22476,"lon":5.34791,"is_reserved":false,"is_disabled":false,"rental_uris":{"android":"levelo://app?vid=01a8e307-f9de-4eb5-a307-55559ca42c36","ios":"levelo://app?vid=01a8e307-f9de-4eb5-a307-55559ca42c36"},"vehicle_type_id":"4","last_reported":1753643333,"current_range_meters":4400,"station_id":"st_cvj5dfep6f1abm77gieg","pricing_plan_id":"cebpf4jnsgd1na2vs0mg"},{"bike_id":"2790f251-6145-4e20-bfab-ab939ee3bb23","system_id":"levelo_inurba_marseille","lat":43.31483,"lon":5.37309,"is_reserved":false,"is_disabled":false,"rental_uris":{"android":"levelo://app?vid=2790f251-6145-4e20-bfab-ab939ee3bb23","ios":"levelo://app?vid=2790f251-6145-4e20-bfab-ab939ee3bb23"},"vehicle_type_id":"4","last_reported":1753643333,"current_range_meters":4400,"station_id":"ce4bgt12rcd13ifvqcd0","pricing_plan_id":"cebpf4jnsgd1na2vs0mg"},{"bike_id":"c004ae4d-392b-4550-8d94-3f8c8b7d7bcc","system_id":"levelo_inurba_marseille","lat":43.289,"lon":5.38752,"is_reserved":false,"is_disabled":false,"rental_uris":{"android":"levelo://app?vid=c004ae4d-392b-4550-8d94-3f8c8b7d7bcc","ios":"levelo://app?vid=c004ae4d-392b-4550-8d94-3f8c8b7d7bcc"},"vehicle_type_id":"4","last_reported":1753643333,"current_range_meters":4800,"station_id":"","pricing_plan_id":"cebpf4jnsgd1na2vs0mg"},{"bike_id":"ad994d54-e186-4d66-9f6d-427175a8c9d8","system_id":"levelo_inurba_marseille","lat":43.225,"lon":5.3478,"is_reserved":false,"is_disabled":false,"rental_uris":{"android":"levelo://app?vid=ad994d54-e186-4d66-9f6d-427175a8c9d8","ios":"levelo://app?vid=ad994d54-e186-4d66-9f6d-427175a8c9d8"},"vehicle_type_id":"4","last_reported":1753643333,"current_range_meters":4800,"station_id":"st_cvj5dfep6f1abm77gieg","pricing_plan_id":"cebpf4jnsgd1na2vs0mg"},{"bike_id":"8414c65a-e2b6-4cab-b8f8-536a15b6717a","system_id":"levelo_inurba_marseille","lat":43.27639,"lon":5.36028,"is_reserved":false,"is_disabled":true,"rental_uris":{"android":"levelo://app?vid=8414c65a-e2b6-4cab-b8f8-536a15b6717a","ios":"levelo://app?vid=8414c65a-e2b6-4cab-b8f8-536a15b6717a"},"vehicle_type_id":"4","last_reported":1753643333,"current_range_meters":4800,"station_id":"","pricing_plan_id":"cebpf4jnsgd1na2vs0mg"},{"bike_id":"f99becf7-03a1-4b1b-8eeb-9b70141c986c","system_id":"levelo_inurba_marseille","lat":43.26567,"lon":5.38994,"is_reserved":false,"is_disabled":false,"rental_uris":{"android":"levelo://app?vid=f99becf7-03a1-4b1b-8eeb-9b70141c986c","ios":"levelo://app?vid=f99becf7-03a1-4b1b-8eeb-9b70141c986c"},"vehicle_type_id":"4","last_reported":1753643333,"current_range_meters":4800,"station_id":"ce4bhe12rcd13ifvqf30","pricing_plan_id":"cebpf4jnsgd1na2vs0mg"},{"bike_id":"83a67c65-7f9b-4a81-a80c-c007cd448d24","system_id":"levelo_inurba_marseille","lat":43.292531,"lon":5.384314,"is_reserved":false,"is_disabled":false,"rental_uris":{"android":"levelo://app?vid=83a67c65-7f9b-4a81-a80c-c007cd448d24","ios":"levelo://app?vid=83a67c65-7f9b-4a81-a80c-c007cd448d24"},"vehicle_type_id":"4","last_reported":1753643333,"current_range_meters":4800,"station_id":"","pricing_plan_id":"cebpf4jnsgd1na2vs0mg"},{"bike_id":"0e5eee7e-2253-46ac-842d-fc23d1c84608","system_id":"levelo_inurba_marseille","lat":43.312684,"lon":5.38822,"is_reserved":false,"is_disabled":false,"rental_uris":{"android":"levelo://app?vid=0e5eee7e-2253-46ac-842d-fc23d1c84608","ios":"levelo://app?vid=0e5eee7e-2253-46ac-842d-fc23d1c84608"},"vehicle_type_id":"4","last_reported":1753643333,"current_range_meters":4800,"station_id":"","pricing_plan_id":"cebpf4jnsgd1na2vs0mg"},{"bike_id":"75f591c9-2330-4ceb-9b99-4f264ddea8d0","system_id":"levelo_inurba_marseille","lat":43.28461,"lon":5.35885,"is_reserved":false,"is_disabled":false,"rental_uris":{"android":"levelo://app?vid=75f591c9-2330-4ceb-9b99-4f264ddea8d0","ios":"levelo://app?vid=75f591c9-2330-4ceb-9b99-4f264ddea8d0"},"vehicle_type_id":"4","last_reported":1753643333,"current_range_meters":4800,"station_id":"ce4bhah2rcd13ifvqei0","pricing_plan_id":"cebpf4jnsgd1na2vs0mg"},{"bike_id":"401a5402-34de-4728-9657-c7bafde0beaa","system_id":"levelo_inurba_marseille","lat":43.29085,"lon":5.38144,"is_reserved":false,"is_disabled":false,"rental_uris":{"android":"levelo://app?vid=401a5402-34de-4728-9657-c7bafde0beaa","ios":"levelo://app?vid=401a5402-34de-4728-9657-c7bafde0beaa"},"vehicle_type_id":"4","last_reported":1753643333,"current_range_meters":4800,"station_id":"ce4bh512rcd13ifvqe2g","pricing_plan_id":"cebpf4jnsgd1na2vs0mg"},{"bike_id":"e5d9c29c-874d-4677-9121-2baa559d8567","system_id":"levelo_inurba_marseille","lat":43.29161,"lon":5.40313,"is_reserved":false,"is_disabled":false,"rental_uris":{"android":"levelo://app?vid=e5d9c29c-874d-4677-9121-2baa559d8567","ios":"levelo://app?vid=e5d9c29c-874d-4677-9121-2baa559d8567"},"vehicle_type_id":"4","last_reported":1753643333,"current_range_meters":5600,"station_id":"ce4bh392rcd13ifvqdm0","pricing_plan_id":"cebpf4jnsgd1na2vs0mg"},{"bike_id":"22dca147-1260-44d8-822d-d9d1d50cce31","system_id":"levelo_inurba_marseille","lat":43.27468,"lon":5.39594,"is_reserved":false,"is_disabled":true,"rental_uris":{"android":"levelo://app?vid=22dca147-1260-44d8-822d-d9d1d50cce31","ios":"levelo://app?vid=22dca147-1260-44d8-822d-d9d1d50cce31"},"vehicle_type_id":"4","last_reported":1753643333,"current_range_meters":6400,"station_id":"","pricing_plan_id":"cebpf4jnsgd1na2vs0mg"},{"bike_id":"b12dbb31-5c75-4551-bc03-29f3c4082217","system_id":"levelo_inurba_marseille","lat":43.21156,"lon":5.35047,"is_reserved":false,"is_disabled":false,"rental_uris":{"android":"levelo://app?vid=b12dbb31-5c75-4551-bc03-29f3c4082217","ios":"levelo://app?vid=b12dbb31-5c75-4551-bc03-29f3c4082217"},"vehicle_type_id":"4","last_reported":1753643333,"current_range_meters":6000,"station_id":"st_cvj6sg6p6f1abm77japg","pricing_plan_id":"cebpf4jnsgd1na2vs0mg"},{"bike_id":"ffe67fde-d4ed-4433-b9a1-ae928da1256a","system_id":"levelo_inurba_marseille","lat":43.29022,"lon":5.38149,"is_reserved":false,"is_disabled":false,"rental_uris":{"android":"levelo://app?vid=ffe67fde-d4ed-4433-b9a1-ae928da1256a","ios":"levelo://app?vid=ffe67fde-d4ed-4433-b9a1-ae928da1256a"},"vehicle_type_id":"4","last_reported":1753643333,"current_range_meters":6000,"station_id":"ce4bh4p2rcd13ifvqe1g","pricing_plan_id":"cebpf4jnsgd1na2vs0mg"},{"bike_id":"0627d2d9-4aa1-4450-bef8-292fa363468d","system_id":"levelo_inurba_marseille","lat":43.30148,"lon":5.37419,"is_reserved":false,"is_disabled":false,"rental_uris":{"android":"levelo://app?vid=0627d2d9-4aa1-4450-bef8-292fa363468d","ios":"levelo://app?vid=0627d2d9-4aa1-4450-bef8-292fa363468d"},"vehicle_type_id":"4","last_reported":1753643333,"current_range_meters":6000,"station_id":"ce4bgs92rcd13ifvqcc0","pricing_plan_id":"cebpf4jnsgd1na2vs0mg"},{"bike_id":"990eb3e5-15e9-44a1-85d5-1f979e53a5bd","system_id":"levelo_inurba_marseille","lat":43.23947,"lon":5.36637,"is_reserved":false,"is_disabled":true,"rental_uris":{"android":"levelo://app?vid=990eb3e5-15e9-44a1-85d5-1f979e53a5bd","ios":"levelo://app?vid=990eb3e5-15e9-44a1-85d5-1f979e53a5bd"},"vehicle_type_id":"4","last_reported":1753643333,"current_range_meters":6400,"station_id":"ce4bhi12rcd13ifvqfp0","pricing_plan_id":"cebpf4jnsgd1na2vs0mg"},{"bike_id":"0b6e37e1-db39-4d64-9941-7e484c9ea038","system_id":"levelo_inurba_marseille","lat":43.30148,"lon":5.38097,"is_reserved":false,"is_disabled":true,"rental_uris":{"android":"levelo://app?vid=0b6e37e1-db39-4d64-9941-7e484c9ea038","ios":"levelo://app?vid=0b6e37e1-db39-4d64-9941-7e484c9ea038"},"vehicle_type_id":"4","last_reported":1753643333,"current_range_meters":6400,"station_id":"","pricing_plan_id":"cebpf4jnsgd1na2vs0mg"},{"bike_id":"a3fe9995-2e3e-423b-9540-429a92fa997e","system_id":"levelo_inurba_marseille","lat":43.301852,"lon":5.371594,"is_reserved":false,"is_disabled":false,"rental_uris":{"android":"levelo://app?vid=a3fe9995-2e3e-423b-9540-429a92fa997e","ios":"levelo://app?vid=a3fe9995-2e3e-423b-9540-429a92fa997e"},"vehicle_type_id":"4","last_reported":1753643333,"current_range_meters":6400,"station_id":"","pricing_plan_id":"cebpf4jnsgd1na2vs0mg"},{"bike_id":"49ae05fd-0723-46be-ad7e-6d9db5f24077","system_id":"levelo_inurba_marseille","lat":43.29032,"lon":5.38644,"is_reserved":false,"is_disabled":false,"rental_uris":{"android":"levelo://app?vid=49ae05fd-0723-46be-ad7e-6d9db5f24077","ios":"levelo://app?vid=49ae05fd-0723-46be-ad7e-6d9db5f24077"},"vehicle_type_id":"4","last_reported":1753643333,"current_range_meters":6400,"station_id":"ce4bh4p2rcd13ifvqe0g","pricing_plan_id":"cebpf4jnsgd1na2vs0mg"},{"bike_id":"9c418ca3-3e71-47c6-9bcc-d2c00e440b92","system_id":"levelo_inurba_marseille","lat":43.29622,"lon":5.37168,"is_reserved":false,"is_disabled":false,"rental_uris":{"android":"levelo://app?vid=9c418ca3-3e71-47c6-9bcc-d2c00e440b92","ios":"levelo://app?vid=9c418ca3-3e71-47c6-9bcc-d2c00e440b92"},"vehicle_type_id":"4","last_reported":1753643333,"current_range_meters":6400,"station_id":"ce4bgnh2rcd13ifvqc0g","pricing_plan_id":"cebpf4jnsgd1na2vs0mg"},{"bike_id":"b961f4cc-f73c-489b-b42e-74e5c1a90645","system_id":"levelo_inurba_marseille","lat":43.29257,"lon":5.40895,"is_reserved":false,"is_disabled":false,"rental_uris":{"android":"levelo://app?vid=b961f4cc-f73c-489b-b42e-74e5c1a90645","ios":"levelo://app?vid=b961f4cc-f73c-489b-b42e-74e5c1a90645"},"vehicle_type_id":"4","last_reported":1753643333,"current_range_meters":6400,"station_id":"ce4bh192rcd13ifvqdc0","pricing_plan_id":"cebpf4jnsgd1na2vs0mg"},{"bike_id":"52047a59-1348-4458-822d-58062d6b0f25","system_id":"levelo_inurba_marseille","lat":43.28422,"lon":5.37515,"is_reserved":false,"is_disabled":false,"rental_uris":{"android":"levelo://app?vid=52047a59-1348-4458-822d-58062d6b0f25","ios":"levelo://app?vid=52047a59-1348-4458-822d-58062d6b0f25"},"vehicle_type_id":"4","last_reported":1753643333,"current_range_meters":6800,"station_id":"ce4bh412rcd13ifvqds0","pricing_plan_id":"cebpf4jnsgd1na2vs0mg"},{"bike_id":"de99b14c-9afd-4bdd-bc56-50354c110c3d","system_id":"levelo_inurba_marseille","lat":43.25467,"lon":5.37687,"is_reserved":false,"is_disabled":false,"rental_uris":{"android":"levelo://app?vid=de99b14c-9afd-4bdd-bc56-50354c110c3d","ios":"levelo://app?vid=de99b14c-9afd-4bdd-bc56-50354c110c3d"},"vehicle_type_id":"4","last_reported":1753643333,"current_range_meters":6800,"station_id":"","pricing_plan_id":"cebpf4jnsgd1na2vs0mg"},{"bike_id":"da259aac-a853-4a79-848f-638a4920d025","system_id":"levelo_inurba_marseille","lat":43.29008,"lon":5.38151,"is_reserved":false,"is_disabled":false,"rental_uris":{"android":"levelo://app?vid=da259aac-a853-4a79-848f-638a4920d025","ios":"levelo://app?vid=da259aac-a853-4a79-848f-638a4920d025"},"vehicle_type_id":"4","last_reported":1753643333,"current_range_meters":6800,"station_id":"ce4bh4p2rcd13ifvqe1g","pricing_plan_id":"cebpf4jnsgd1na2vs0mg"},{"bike_id":"a520741a-dcb6-494d-9d43-0ad113907acb","system_id":"levelo_inurba_marseille","lat":43.29241,"lon":5.40033,"is_reserved":false,"is_disabled":false,"rental_uris":{"android":"levelo://app?vid=a520741a-dcb6-494d-9d43-0ad113907acb","ios":"levelo://app?vid=a520741a-dcb6-494d-9d43-0ad113907acb"},"vehicle_type_id":"4","last_reported":1753643333,"current_range_meters":6800,"station_id":"","pricing_plan_id":"cebpf4jnsgd1na2vs0mg"},{"bike_id":"0ed53f46-29e9-4af6-be43-1bb7fa322a9b","system_id":"levelo_inurba_marseille","lat":43.30921,"lon":5.40148,"is_reserved":false,"is_disabled":true,"rental_uris":{"android":"levelo://app?vid=0ed53f46-29e9-4af6-be43-1bb7fa322a9b","ios":"levelo://app?vid=0ed53f46-29e9-4af6-be43-1bb7fa322a9b"},"vehicle_type_id":"4","last_reported":1753643333,"current_range_meters":6800,"station_id":"ce4bgvp2rcd13ifvqct0","pricing_plan_id":"cebpf4jnsgd1na2vs0mg"},{"bike_id":"eface009-6b93-402d-8d56-5eda4fd5fffb","system_id":"levelo_inurba_marseille","lat":43.2757,"lon":5.38426,"is_reserved":false,"is_disabled":false,"rental_uris":{"android":"levelo://app?vid=eface009-6b93-402d-8d56-5eda4fd5fffb","ios":"levelo://app?vid=eface009-6b93-402d-8d56-5eda4fd5fffb"},"vehicle_type_id":"4","last_reported":1753643333,"current_range_meters":6800,"station_id":"ce4bhh92rcd13ifvqfi0","pricing_plan_id":"cebpf4jnsgd1na2vs0mg"},{"bike_id":"a0c9ec3d-40a9-4732-a8ea-b6a39d03007b","system_id":"levelo_inurba_marseille","lat":43.28154,"lon":5.42635,"is_reserved":false,"is_disabled":false,"rental_uris":{"android":"levelo://app?vid=a0c9ec3d-40a9-4732-a8ea-b6a39d03007b","ios":"levelo://app?vid=a0c9ec3d-40a9-4732-a8ea-b6a39d03007b"},"vehicle_type_id":"4","last_reported":1753643333,"current_range_meters":6800,"station_id":"ce4bhnh2rcd13ifvqgug","pricing_plan_id":"cebpf4jnsgd1na2vs0mg"},{"bike_id":"04deb281-b05a-4548-ada2-1e83a2fb3fcc","system_id":"levelo_inurba_marseille","lat":43.293,"lon":5.37452,"is_reserved":false,"is_disabled":false,"rental_uris":{"android":"levelo://app?vid=04deb281-b05a-4548-ada2-1e83a2fb3fcc","ios":"levelo://app?vid=04deb281-b05a-4548-ada2-1e83a2fb3fcc"},"vehicle_type_id":"4","last_reported":1753643333,"current_range_meters":6400,"station_id":"ce4bgi12rcd13ifvqb70","pricing_plan_id":"cebpf4jnsgd1na2vs0mg"},{"bike_id":"732f5e8c-b3ae-40b6-b0bf-e535f0379f4d","system_id":"levelo_inurba_marseille","lat":43.29035,"lon":5.39966,"is_reserved":false,"is_disabled":false,"rental_uris":{"android":"levelo://app?vid=732f5e8c-b3ae-40b6-b0bf-e535f0379f4d","ios":"levelo://app?vid=732f5e8c-b3ae-40b6-b0bf-e535f0379f4d"},"vehicle_type_id":"4","last_reported":1753643333,"current_range_meters":6800,"station_id":"ce4bh392rcd13ifvqdm0","pricing_plan_id":"cebpf4jnsgd1na2vs0mg"},{"bike_id":"57755280-973c-4ff3-9c25-8f15e2c5b510","system_id":"levelo_inurba_marseille","lat":43.31872,"lon":5.37373,"is_reserved":false,"is_disabled":true,"rental_uris":{"android":"levelo://app?vid=57755280-973c-4ff3-9c25-8f15e2c5b510","ios":"levelo://app?vid=57755280-973c-4ff3-9c25-8f15e2c5b510"},"vehicle_type_id":"4","last_reported":1753643333,"current_range_meters":6800,"station_id":"","pricing_plan_id":"cebpf4jnsgd1na2vs0mg"},{"bike_id":"ae2d2903-2541-4256-895c-34eff0876243","system_id":"levelo_inurba_marseille","lat":43.29528,"lon":5.394,"is_reserved":false,"is_disabled":false,"rental_uris":{"android":"levelo://app?vid=ae2d2903-2541-4256-895c-34eff0876243","ios":"levelo://app?vid=ae2d2903-2541-4256-895c-34eff0876243"},"vehicle_type_id":"4","last_reported":1753643333,"current_range_meters":7200,"station_id":"ce4bh292rcd13ifvqdf0","pricing_plan_id":"cebpf4jnsgd1na2vs0mg"},{"bike_id":"8e878e8f-5d80-490d-b86c-324c23d42717","system_id":"levelo_inurba_marseille","lat":43.291875,"lon":5.407268,"is_reserved":false,"is_disabled":false,"rental_uris":{"android":"levelo://app?vid=8e878e8f-5d80-490d-b86c-324c23d42717","ios":"levelo://app?vid=8e878e8f-5d80-490d-b86c-324c23d42717"},"vehicle_type_id":"4","last_reported":1753643333,"current_range_meters":7200,"station_id":"","pricing_plan_id":"cebpf4jnsgd1na2vs0mg"},{"bike_id":"0145dd5d-29c0-4533-ab4b-727a62b7fc96","system_id":"levelo_inurba_marseille","lat":43.29259,"lon":5.38443,"is_reserved":false,"is_disabled":false,"rental_uris":{"android":"levelo://app?vid=0145dd5d-29c0-4533-ab4b-727a62b7fc96","ios":"levelo://app?vid=0145dd5d-29c0-4533-ab4b-727a62b7fc96"},"vehicle_type_id":"4","last_reported":1753643333,"current_range_meters":7200,"station_id":"ce4bh692rcd13ifvqea0","pricing_plan_id":"cebpf4jnsgd1na2vs0mg"},{"bike_id":"8773bccd-7e82-4ac3-a21b-29c14265880e","system_id":"levelo_inurba_marseille","lat":43.28405,"lon":5.37497,"is_reserved":false,"is_disabled":false,"rental_uris":{"android":"levelo://app?vid=8773bccd-7e82-4ac3-a21b-29c14265880e","ios":"levelo://app?vid=8773bccd-7e82-4ac3-a21b-29c14265880e"},"vehicle_type_id":"4","last_reported":1753643333,"current_range_meters":6800,"station_id":"ce4bh412rcd13ifvqds0","pricing_plan_id":"cebpf4jnsgd1na2vs0mg"},{"bike_id":"d620d18f-b5a0-4d29-bbb7-9d0134391b23","system_id":"levelo_inurba_marseille","lat":43.28702,"lon":5.37402,"is_reserved":false,"is_disabled":false,"rental_uris":{"android":"levelo://app?vid=d620d18f-b5a0-4d29-bbb7-9d0134391b23","ios":"levelo://app?vid=d620d18f-b5a0-4d29-bbb7-9d0134391b23"},"vehicle_type_id":"4","last_reported":1753643333,"current_range_meters":7200,"station_id":"ce4bh3p2rcd13ifvqdq0","pricing_plan_id":"cebpf4jnsgd1na2vs0mg"},{"bike_id":"2e193f90-3796-450d-a2f3-26edcff414cf","system_id":"levelo_inurba_marseille","lat":43.26938,"lon":5.40249,"is_reserved":false,"is_disabled":false,"rental_uris":{"android":"levelo://app?vid=2e193f90-3796-450d-a2f3-26edcff414cf","ios":"levelo://app?vid=2e193f90-3796-450d-a2f3-26edcff414cf"},"vehicle_type_id":"4","last_reported":1753643333,"current_range_meters":6800,"station_id":"cjm6bp8fraef2m0cb0m0","pricing_plan_id":"cebpf4jnsgd1na2vs0mg"},{"bike_id":"1e555c6b-044c-4bd1-a690-5b7bdd1ff5ab","system_id":"levelo_inurba_marseille","lat":43.30965,"lon":5.39016,"is_reserved":false,"is_disabled":true,"rental_uris":{"android":"levelo://app?vid=1e555c6b-044c-4bd1-a690-5b7bdd1ff5ab","ios":"levelo://app?vid=1e555c6b-044c-4bd1-a690-5b7bdd1ff5ab"},"vehicle_type_id":"4","last_reported":1753643333,"current_range_meters":8000,"station_id":"ce4bgup2rcd13ifvqco0","pricing_plan_id":"cebpf4jnsgd1na2vs0mg"},{"bike_id":"a9a1d5ab-47c9-4e04-840f-0600efad0128","system_id":"levelo_inurba_marseille","lat":43.24177,"lon":5.39729,"is_reserved":false,"is_disabled":false,"rental_uris":{"android":"levelo://app?vid=a9a1d5ab-47c9-4e04-840f-0600efad0128","ios":"levelo://app?vid=a9a1d5ab-47c9-4e04-840f-0600efad0128"},"vehicle_type_id":"4","last_reported":1753643333,"current_range_meters":8000,"station_id":"ce4bhn12rcd13ifvqgpg","pricing_plan_id":"cebpf4jnsgd1na2vs0mg"},{"bike_id":"d1b59881-4f2d-4762-9e97-90b855d07136","system_id":"levelo_inurba_marseille","lat":43.31111,"lon":5.37766,"is_reserved":false,"is_disabled":false,"rental_uris":{"android":"levelo://app?vid=d1b59881-4f2d-4762-9e97-90b855d07136","ios":"levelo://app?vid=d1b59881-4f2d-4762-9e97-90b855d07136"},"vehicle_type_id":"4","last_reported":1753643333,"current_range_meters":8000,"station_id":"ce4bgt92rcd13ifvqcg0","pricing_plan_id":"cebpf4jnsgd1na2vs0mg"},{"bike_id":"2e96de47-5496-4186-b025-5e357d554d17","system_id":"levelo_inurba_marseille","lat":43.295858,"lon":5.374976,"is_reserved":false,"is_disabled":false,"rental_uris":{"android":"levelo://app?vid=2e96de47-5496-4186-b025-5e357d554d17","ios":"levelo://app?vid=2e96de47-5496-4186-b025-5e357d554d17"},"vehicle_type_id":"4","last_reported":1753643333,"current_range_meters":8000,"station_id":"ce4bgh92rcd13ifvqb50","pricing_plan_id":"cebpf4jnsgd1na2vs0mg"},{"bike_id":"f2c0d178-a474-46a0-b002-379a7a30c411","system_id":"levelo_inurba_marseille","lat":43.29418,"lon":5.37584,"is_reserved":false,"is_disabled":false,"rental_uris":{"android":"levelo://app?vid=f2c0d178-a474-46a0-b002-379a7a30c411","ios":"levelo://app?vid=f2c0d178-a474-46a0-b002-379a7a30c411"},"vehicle_type_id":"4","last_reported":1753643333,"current_range_meters":8400,"station_id":"","pricing_plan_id":"cebpf4jnsgd1na2vs0mg"},{"bike_id":"dd5b3db2-62f9-4716-992d-435138b6493d","system_id":"levelo_inurba_marseille","lat":43.308187,"lon":5.381512,"is_reserved":false,"is_disabled":true,"rental_uris":{"android":"levelo://app?vid=dd5b3db2-62f9-4716-992d-435138b6493d","ios":"levelo://app?vid=dd5b3db2-62f9-4716-992d-435138b6493d"},"vehicle_type_id":"4","last_reported":1753643333,"current_range_meters":8400,"station_id":"ce4bgt12rcd13ifvqce0","pricing_plan_id":"cebpf4jnsgd1na2vs0mg"},{"bike_id":"2698940b-2307-49a3-9232-a2845e2c80bf","system_id":"levelo_inurba_marseille","lat":43.29952,"lon":5.39722,"is_reserved":false,"is_disabled":false,"rental_uris":{"android":"levelo://app?vid=2698940b-2307-49a3-9232-a2845e2c80bf","ios":"levelo://app?vid=2698940b-2307-49a3-9232-a2845e2c80bf"},"vehicle_type_id":"4","last_reported":1753643333,"current_range_meters":8400,"station_id":"","pricing_plan_id":"cebpf4jnsgd1na2vs0mg"},{"bike_id":"004ede5d-0666-4cc3-bf35-644efe3e3db7","system_id":"levelo_inurba_marseille","lat":43.298139,"lon":5.381108,"is_reserved":false,"is_disabled":false,"rental_uris":{"android":"levelo://app?vid=004ede5d-0666-4cc3-bf35-644efe3e3db7","ios":"levelo://app?vid=004ede5d-0666-4cc3-bf35-644efe3e3db7"},"vehicle_type_id":"4","last_reported":1753643333,"current_range_meters":8400,"station_id":"ce4bgip2rcd13ifvqbb0","pricing_plan_id":"cebpf4jnsgd1na2vs0mg"},{"bike_id":"b0a75d56-bdf0-47e2-b8e5-56e1d05949ac","system_id":"levelo_inurba_marseille","lat":43.29977,"lon":5.38497,"is_reserved":false,"is_disabled":false,"rental_uris":{"android":"levelo://app?vid=b0a75d56-bdf0-47e2-b8e5-56e1d05949ac","ios":"levelo://app?vid=b0a75d56-bdf0-47e2-b8e5-56e1d05949ac"},"vehicle_type_id":"4","last_reported":1753643333,"current_range_meters":8400,"station_id":"ce4bgj92rcd13ifvqbd0","pricing_plan_id":"cebpf4jnsgd1na2vs0mg"},{"bike_id":"806213bd-5a5f-471b-a28d-1402d5ea01e3","system_id":"levelo_inurba_marseille","lat":43.26937,"lon":5.40256,"is_reserved":false,"is_disabled":false,"rental_uris":{"android":"levelo://app?vid=806213bd-5a5f-471b-a28d-1402d5ea01e3","ios":"levelo://app?vid=806213bd-5a5f-471b-a28d-1402d5ea01e3"},"vehicle_type_id":"4","last_reported":1753643333,"current_range_meters":8400,"station_id":"cjm6bp8fraef2m0cb0m0","pricing_plan_id":"cebpf4jnsgd1na2vs0mg"},{"bike_id":"45582577-1203-4ad6-8ad4-09512100e622","system_id":"levelo_inurba_marseille","lat":43.29087,"lon":5.38144,"is_reserved":false,"is_disabled":false,"rental_uris":{"android":"levelo://app?vid=45582577-1203-4ad6-8ad4-09512100e622","ios":"levelo://app?vid=45582577-1203-4ad6-8ad4-09512100e622"},"vehicle_type_id":"4","last_reported":1753643333,"current_range_meters":8800,"station_id":"ce4bh512rcd13ifvqe2g","pricing_plan_id":"cebpf4jnsgd1na2vs0mg"},{"bike_id":"c3c2652b-f2d7-4ed4-89ec-9559feb01451","system_id":"levelo_inurba_marseille","lat":43.29226,"lon":5.360481,"is_reserved":false,"is_disabled":true,"rental_uris":{"android":"levelo://app?vid=c3c2652b-f2d7-4ed4-89ec-9559feb01451","ios":"levelo://app?vid=c3c2652b-f2d7-4ed4-89ec-9559feb01451"},"vehicle_type_id":"4","last_reported":1753643333,"current_range_meters":8800,"station_id":"ce4bhbh2rcd13ifvqeqg","pricing_plan_id":"cebpf4jnsgd1na2vs0mg"},{"bike_id":"eddeefcd-9225-4a0b-89f2-5b6e40a83c79","system_id":"levelo_inurba_marseille","lat":43.28926,"lon":5.38401,"is_reserved":false,"is_disabled":false,"rental_uris":{"android":"levelo://app?vid=eddeefcd-9225-4a0b-89f2-5b6e40a83c79","ios":"levelo://app?vid=eddeefcd-9225-4a0b-89f2-5b6e40a83c79"},"vehicle_type_id":"4","last_reported":1753643333,"current_range_meters":8800,"station_id":"ce4bh612rcd13ifvqe6g","pricing_plan_id":"cebpf4jnsgd1na2vs0mg"},{"bike_id":"ad676354-5f32-402a-ace7-3af7e2297b05","system_id":"levelo_inurba_marseille","lat":43.32366,"lon":5.36765,"is_reserved":false,"is_disabled":false,"rental_uris":{"android":"levelo://app?vid=ad676354-5f32-402a-ace7-3af7e2297b05","ios":"levelo://app?vid=ad676354-5f32-402a-ace7-3af7e2297b05"},"vehicle_type_id":"4","last_reported":1753643333,"current_range_meters":8800,"station_id":"ce4bhsh2rcd13ifvqi2g","pricing_plan_id":"cebpf4jnsgd1na2vs0mg"},{"bike_id":"02cab979-ccb2-40ce-bd89-cd624415fc04","system_id":"levelo_inurba_marseille","lat":43.27749,"lon":5.39876,"is_reserved":false,"is_disabled":false,"rental_uris":{"android":"levelo://app?vid=02cab979-ccb2-40ce-bd89-cd624415fc04","ios":"levelo://app?vid=02cab979-ccb2-40ce-bd89-cd624415fc04"},"vehicle_type_id":"4","last_reported":1753643333,"current_range_meters":8800,"station_id":"","pricing_plan_id":"cebpf4jnsgd1na2vs0mg"},{"bike_id":"38251271-66fd-48b9-85bb-0c10d37fae34","system_id":"levelo_inurba_marseille","lat":43.30679,"lon":5.36575,"is_reserved":false,"is_disabled":false,"rental_uris":{"android":"levelo://app?vid=38251271-66fd-48b9-85bb-0c10d37fae34","ios":"levelo://app?vid=38251271-66fd-48b9-85bb-0c10d37fae34"},"vehicle_type_id":"4","last_reported":1753643333,"current_range_meters":8800,"station_id":"","pricing_plan_id":"cebpf4jnsgd1na2vs0mg"},{"bike_id":"1724e727-4de7-48fe-bbf9-3168aaff9433","system_id":"levelo_inurba_marseille","lat":43.2953,"lon":5.37492,"is_reserved":false,"is_disabled":false,"rental_uris":{"android":"levelo://app?vid=1724e727-4de7-48fe-bbf9-3168aaff9433","ios":"levelo://app?vid=1724e727-4de7-48fe-bbf9-3168aaff9433"},"vehicle_type_id":"4","last_reported":1753643333,"current_range_meters":8800,"station_id":"ce4bgkp2rcd13ifvqbmg","pricing_plan_id":"cebpf4jnsgd1na2vs0mg"},{"bike_id":"9188366a-c6a3-4354-b558-553177316347","system_id":"levelo_inurba_marseille","lat":43.26233,"lon":5.3743,"is_reserved":false,"is_disabled":true,"rental_uris":{"android":"levelo://app?vid=9188366a-c6a3-4354-b558-553177316347","ios":"levelo://app?vid=9188366a-c6a3-4354-b558-553177316347"},"vehicle_type_id":"4","last_reported":1753643333,"current_range_meters":8800,"station_id":"","pricing_plan_id":"cebpf4jnsgd1na2vs0mg"},{"bike_id":"042a8476-d3c4-476b-9557-f32c03e9d625","system_id":"levelo_inurba_marseille","lat":43.3393,"lon":5.35696,"is_reserved":false,"is_disabled":false,"rental_uris":{"android":"levelo://app?vid=042a8476-d3c4-476b-9557-f32c03e9d625","ios":"levelo://app?vid=042a8476-d3c4-476b-9557-f32c03e9d625"},"vehicle_type_id":"4","last_reported":1753643333,"current_range_meters":8800,"station_id":"","pricing_plan_id":"cebpf4jnsgd1na2vs0mg"},{"bike_id":"cd0d4afa-9de1-4afb-923d-b45a4942c9a1","system_id":"levelo_inurba_marseille","lat":43.22491,"lon":5.34776,"is_reserved":false,"is_disabled":false,"rental_uris":{"android":"levelo://app?vid=cd0d4afa-9de1-4afb-923d-b45a4942c9a1","ios":"levelo://app?vid=cd0d4afa-9de1-4afb-923d-b45a4942c9a1"},"vehicle_type_id":"4","last_reported":1753643333,"current_range_meters":8800,"station_id":"st_cvj5dfep6f1abm77gieg","pricing_plan_id":"cebpf4jnsgd1na2vs0mg"},{"bike_id":"9377d52d-7c04-4205-81e5-05265b3eabff","system_id":"levelo_inurba_marseille","lat":43.28703,"lon":5.37945,"is_reserved":false,"is_disabled":true,"rental_uris":{"android":"levelo://app?vid=9377d52d-7c04-4205-81e5-05265b3eabff","ios":"levelo://app?vid=9377d52d-7c04-4205-81e5-05265b3eabff"},"vehicle_type_id":"4","last_reported":1753643333,"current_range_meters":9200,"station_id":"ce4bh9p2rcd13ifvqec0","pricing_plan_id":"cebpf4jnsgd1na2vs0mg"},{"bike_id":"03e725e2-46f7-4eee-927c-1ebbfa615d5a","system_id":"levelo_inurba_marseille","lat":43.2919,"lon":5.35791,"is_reserved":false,"is_disabled":true,"rental_uris":{"android":"levelo://app?vid=03e725e2-46f7-4eee-927c-1ebbfa615d5a","ios":"levelo://app?vid=03e725e2-46f7-4eee-927c-1ebbfa615d5a"},"vehicle_type_id":"4","last_reported":1753643333,"current_range_meters":9200,"station_id":"ce4bhb12rcd13ifvqel0","pricing_plan_id":"cebpf4jnsgd1na2vs0mg"},{"bike_id":"43cf4049-15dd-4e8c-88a8-61cd8dc10bf5","system_id":"levelo_inurba_marseille","lat":43.33271,"lon":5.38007,"is_reserved":false,"is_disabled":true,"rental_uris":{"android":"levelo://app?vid=43cf4049-15dd-4e8c-88a8-61cd8dc10bf5","ios":"levelo://app?vid=43cf4049-15dd-4e8c-88a8-61cd8dc10bf5"},"vehicle_type_id":"4","last_reported":1753643333,"current_range_meters":9200,"station_id":"","pricing_plan_id":"cebpf4jnsgd1na2vs0mg"},{"bike_id":"d5a63dee-a415-40f6-88a8-f1d25d6ddaa1","system_id":"levelo_inurba_marseille","lat":43.290311,"lon":5.399895,"is_reserved":false,"is_disabled":true,"rental_uris":{"android":"levelo://app?vid=d5a63dee-a415-40f6-88a8-f1d25d6ddaa1","ios":"levelo://app?vid=d5a63dee-a415-40f6-88a8-f1d25d6ddaa1"},"vehicle_type_id":"4","last_reported":1753643333,"current_range_meters":9200,"station_id":"ce4bh392rcd13ifvqdm0","pricing_plan_id":"cebpf4jnsgd1na2vs0mg"},{"bike_id":"96e8f9e2-5ed4-4a64-abed-b574666ba88d","system_id":"levelo_inurba_marseille","lat":43.21168,"lon":5.3508,"is_reserved":false,"is_disabled":false,"rental_uris":{"android":"levelo://app?vid=96e8f9e2-5ed4-4a64-abed-b574666ba88d","ios":"levelo://app?vid=96e8f9e2-5ed4-4a64-abed-b574666ba88d"},"vehicle_type_id":"4","last_reported":1753643333,"current_range_meters":9200,"station_id":"st_cvj6sg6p6f1abm77japg","pricing_plan_id":"cebpf4jnsgd1na2vs0mg"},{"bike_id":"279517aa-5882-4cf0-8644-89bcd9eb575e","system_id":"levelo_inurba_marseille","lat":43.28418,"lon":5.37515,"is_reserved":false,"is_disabled":false,"rental_uris":{"android":"levelo://app?vid=279517aa-5882-4cf0-8644-89bcd9eb575e","ios":"levelo://app?vid=279517aa-5882-4cf0-8644-89bcd9eb575e"},"vehicle_type_id":"4","last_reported":1753643333,"current_range_meters":9200,"station_id":"ce4bh412rcd13ifvqds0","pricing_plan_id":"cebpf4jnsgd1na2vs0mg"},{"bike_id":"1476ef66-e321-405c-933a-a4465ebb5fe5","system_id":"levelo_inurba_marseille","lat":43.25586,"lon":5.38225,"is_reserved":false,"is_disabled":false,"rental_uris":{"android":"levelo://app?vid=1476ef66-e321-405c-933a-a4465ebb5fe5","ios":"levelo://app?vid=1476ef66-e321-405c-933a-a4465ebb5fe5"},"vehicle_type_id":"4","last_reported":1753643333,"current_range_meters":9200,"station_id":"ce4bhih2rcd13ifvqfs0","pricing_plan_id":"cebpf4jnsgd1na2vs0mg"},{"bike_id":"21e370fe-e3aa-4531-b97f-0adb889ea533","system_id":"levelo_inurba_marseille","lat":43.26499,"lon":5.39532,"is_reserved":false,"is_disabled":false,"rental_uris":{"android":"levelo://app?vid=21e370fe-e3aa-4531-b97f-0adb889ea533","ios":"levelo://app?vid=21e370fe-e3aa-4531-b97f-0adb889ea533"},"vehicle_type_id":"4","last_reported":1753643333,"current_range_meters":9200,"station_id":"ce4bhi12rcd13ifvqfq0","pricing_plan_id":"cebpf4jnsgd1na2vs0mg"},{"bike_id":"06ae5133-bccf-408e-b3ff-0ac9162fc961","system_id":"levelo_inurba_marseille","lat":43.295767,"lon":5.399693,"is_reserved":false,"is_disabled":false,"rental_uris":{"android":"levelo://app?vid=06ae5133-bccf-408e-b3ff-0ac9162fc961","ios":"levelo://app?vid=06ae5133-bccf-408e-b3ff-0ac9162fc961"},"vehicle_type_id":"4","last_reported":1753643333,"current_range_meters":9200,"station_id":"ce4bh312rcd13ifvqdj0","pricing_plan_id":"cebpf4jnsgd1na2vs0mg"},{"bike_id":"7e65c5ea-0429-45f5-a396-bd32e67f0744","system_id":"levelo_inurba_marseille","lat":43.3346,"lon":5.40044,"is_reserved":false,"is_disabled":false,"rental_uris":{"android":"levelo://app?vid=7e65c5ea-0429-45f5-a396-bd32e67f0744","ios":"levelo://app?vid=7e65c5ea-0429-45f5-a396-bd32e67f0744"},"vehicle_type_id":"4","last_reported":1753643333,"current_range_meters":9200,"station_id":"","pricing_plan_id":"cebpf4jnsgd1na2vs0mg"},{"bike_id":"3ab8c0db-6d91-4e29-9fb7-28e6dc8d1948","system_id":"levelo_inurba_marseille","lat":43.30142,"lon":5.37408,"is_reserved":false,"is_disabled":false,"rental_uris":{"android":"levelo://app?vid=3ab8c0db-6d91-4e29-9fb7-28e6dc8d1948","ios":"levelo://app?vid=3ab8c0db-6d91-4e29-9fb7-28e6dc8d1948"},"vehicle_type_id":"4","last_reported":1753643333,"current_range_meters":9200,"station_id":"ce4bgs92rcd13ifvqcc0","pricing_plan_id":"cebpf4jnsgd1na2vs0mg"},{"bike_id":"60b3550b-be1f-41d3-954c-c239e7ccbfc2","system_id":"levelo_inurba_marseille","lat":43.24809,"lon":5.37453,"is_reserved":false,"is_disabled":false,"rental_uris":{"android":"levelo://app?vid=60b3550b-be1f-41d3-954c-c239e7ccbfc2","ios":"levelo://app?vid=60b3550b-be1f-41d3-954c-c239e7ccbfc2"},"vehicle_type_id":"4","last_reported":1753643333,"current_range_meters":9600,"station_id":"ce4bhgh2rcd13ifvqfb0","pricing_plan_id":"cebpf4jnsgd1na2vs0mg"},{"bike_id":"995558ba-1cf6-496a-a6b0-23d08ae1a983","system_id":"levelo_inurba_marseille","lat":43.295812,"lon":5.375161,"is_reserved":false,"is_disabled":false,"rental_uris":{"android":"levelo://app?vid=995558ba-1cf6-496a-a6b0-23d08ae1a983","ios":"levelo://app?vid=995558ba-1cf6-496a-a6b0-23d08ae1a983"},"vehicle_type_id":"4","last_reported":1753643333,"current_range_meters":9600,"station_id":"ce4bgh92rcd13ifvqb50","pricing_plan_id":"cebpf4jnsgd1na2vs0mg"},{"bike_id":"2ed58ec0-2cc9-46cb-8d0b-b43ee8d6be24","system_id":"levelo_inurba_marseille","lat":43.28474,"lon":5.38416,"is_reserved":false,"is_disabled":false,"rental_uris":{"android":"levelo://app?vid=2ed58ec0-2cc9-46cb-8d0b-b43ee8d6be24","ios":"levelo://app?vid=2ed58ec0-2cc9-46cb-8d0b-b43ee8d6be24"},"vehicle_type_id":"4","last_reported":1753643333,"current_range_meters":9600,"station_id":"ce4bh512rcd13ifvqe3g","pricing_plan_id":"cebpf4jnsgd1na2vs0mg"},{"bike_id":"a719e1a9-4338-43db-96b1-e06375cf4889","system_id":"levelo_inurba_marseille","lat":43.30788,"lon":5.37651,"is_reserved":false,"is_disabled":false,"rental_uris":{"android":"levelo://app?vid=a719e1a9-4338-43db-96b1-e06375cf4889","ios":"levelo://app?vid=a719e1a9-4338-43db-96b1-e06375cf4889"},"vehicle_type_id":"4","last_reported":1753643333,"current_range_meters":9600,"station_id":"ce4bgv92rcd13ifvqcq0","pricing_plan_id":"cebpf4jnsgd1na2vs0mg"},{"bike_id":"0fa3827c-4638-4652-89a5-4a2d7fc553f3","system_id":"levelo_inurba_marseille","lat":43.30912,"lon":5.36844,"is_reserved":false,"is_disabled":false,"rental_uris":{"android":"levelo://app?vid=0fa3827c-4638-4652-89a5-4a2d7fc553f3","ios":"levelo://app?vid=0fa3827c-4638-4652-89a5-4a2d7fc553f3"},"vehicle_type_id":"4","last_reported":1753643333,"current_range_meters":9200,"station_id":"ce4bgn92rcd13ifvqbvg","pricing_plan_id":"cebpf4jnsgd1na2vs0mg"},{"bike_id":"3104c790-29d2-4ea4-9999-d201ee18d159","system_id":"levelo_inurba_marseille","lat":43.28615,"lon":5.35098,"is_reserved":false,"is_disabled":false,"rental_uris":{"android":"levelo://app?vid=3104c790-29d2-4ea4-9999-d201ee18d159","ios":"levelo://app?vid=3104c790-29d2-4ea4-9999-d201ee18d159"},"vehicle_type_id":"4","last_reported":1753643333,"current_range_meters":9600,"station_id":"ce4bhch2rcd13ifvqeug","pricing_plan_id":"cebpf4jnsgd1na2vs0mg"},{"bike_id":"654f1966-04bb-4fdb-8a3c-713c2d0143df","system_id":"levelo_inurba_marseille","lat":43.3014,"lon":5.38767,"is_reserved":false,"is_disabled":false,"rental_uris":{"android":"levelo://app?vid=654f1966-04bb-4fdb-8a3c-713c2d0143df","ios":"levelo://app?vid=654f1966-04bb-4fdb-8a3c-713c2d0143df"},"vehicle_type_id":"4","last_reported":1753643333,"current_range_meters":9200,"station_id":"ce4bghh2rcd13ifvqb60","pricing_plan_id":"cebpf4jnsgd1na2vs0mg"},{"bike_id":"f2876902-0402-4dca-8fa2-0ffba379c9ac","system_id":"levelo_inurba_marseille","lat":43.29062,"lon":5.37565,"is_reserved":false,"is_disabled":false,"rental_uris":{"android":"levelo://app?vid=f2876902-0402-4dca-8fa2-0ffba379c9ac","ios":"levelo://app?vid=f2876902-0402-4dca-8fa2-0ffba379c9ac"},"vehicle_type_id":"4","last_reported":1753643333,"current_range_meters":9600,"station_id":"ce4bh692rcd13ifvqe90","pricing_plan_id":"cebpf4jnsgd1na2vs0mg"},{"bike_id":"d98a6299-56fc-4cdb-83f5-19fbc79d8811","system_id":"levelo_inurba_marseille","lat":43.30533,"lon":5.3669,"is_reserved":false,"is_disabled":false,"rental_uris":{"android":"levelo://app?vid=d98a6299-56fc-4cdb-83f5-19fbc79d8811","ios":"levelo://app?vid=d98a6299-56fc-4cdb-83f5-19fbc79d8811"},"vehicle_type_id":"4","last_reported":1753643333,"current_range_meters":9600,"station_id":"ce4bgrp2rcd13ifvqc9g","pricing_plan_id":"cebpf4jnsgd1na2vs0mg"},{"bike_id":"ff6db71b-a463-4685-b650-05756d79427c","system_id":"levelo_inurba_marseille","lat":43.28617,"lon":5.37043,"is_reserved":false,"is_disabled":false,"rental_uris":{"android":"levelo://app?vid=ff6db71b-a463-4685-b650-05756d79427c","ios":"levelo://app?vid=ff6db71b-a463-4685-b650-05756d79427c"},"vehicle_type_id":"4","last_reported":1753643333,"current_range_meters":10000,"station_id":"ce4bht12rcd13ifvqi60","pricing_plan_id":"cebpf4jnsgd1na2vs0mg"},{"bike_id":"898d1f8e-e261-4f25-9386-a6825028d102","system_id":"levelo_inurba_marseille","lat":43.29086,"lon":5.47314,"is_reserved":false,"is_disabled":false,"rental_uris":{"android":"levelo://app?vid=898d1f8e-e261-4f25-9386-a6825028d102","ios":"levelo://app?vid=898d1f8e-e261-4f25-9386-a6825028d102"},"vehicle_type_id":"4","last_reported":1753643333,"current_range_meters":10000,"station_id":"","pricing_plan_id":"cebpf4jnsgd1na2vs0mg"},{"bike_id":"600c7996-04b1-4122-96ca-31e81f85a9b9","system_id":"levelo_inurba_marseille","lat":43.31118,"lon":5.37767,"is_reserved":false,"is_disabled":false,"rental_uris":{"android":"levelo://app?vid=600c7996-04b1-4122-96ca-31e81f85a9b9","ios":"levelo://app?vid=600c7996-04b1-4122-96ca-31e81f85a9b9"},"vehicle_type_id":"4","last_reported":1753643333,"current_range_meters":9600,"station_id":"ce4bgt92rcd13ifvqcg0","pricing_plan_id":"cebpf4jnsgd1na2vs0mg"},{"bike_id":"9dfdeb8a-ee13-4931-94b4-ad2b5f23aa4b","system_id":"levelo_inurba_marseille","lat":43.23181,"lon":5.39974,"is_reserved":false,"is_disabled":true,"rental_uris":{"android":"levelo://app?vid=9dfdeb8a-ee13-4931-94b4-ad2b5f23aa4b","ios":"levelo://app?vid=9dfdeb8a-ee13-4931-94b4-ad2b5f23aa4b"},"vehicle_type_id":"4","last_reported":1753643333,"current_range_meters":10000,"station_id":"ce4bhn12rcd13ifvqgqg","pricing_plan_id":"cebpf4jnsgd1na2vs0mg"},{"bike_id":"c9f98743-f0fc-45c3-a6bc-7ba7ba401715","system_id":"levelo_inurba_marseille","lat":43.2862,"lon":5.35093,"is_reserved":false,"is_disabled":false,"rental_uris":{"android":"levelo://app?vid=c9f98743-f0fc-45c3-a6bc-7ba7ba401715","ios":"levelo://app?vid=c9f98743-f0fc-45c3-a6bc-7ba7ba401715"},"vehicle_type_id":"4","last_reported":1753643333,"current_range_meters":10000,"station_id":"ce4bhch2rcd13ifvqeug","pricing_plan_id":"cebpf4jnsgd1na2vs0mg"},{"bike_id":"a05343f6-5345-451e-92c9-8d14b4ec04eb","system_id":"levelo_inurba_marseille","lat":43.314919,"lon":5.373082,"is_reserved":false,"is_disabled":false,"rental_uris":{"android":"levelo://app?vid=a05343f6-5345-451e-92c9-8d14b4ec04eb","ios":"levelo://app?vid=a05343f6-5345-451e-92c9-8d14b4ec04eb"},"vehicle_type_id":"4","last_reported":1753643333,"current_range_meters":10000,"station_id":"","pricing_plan_id":"cebpf4jnsgd1na2vs0mg"},{"bike_id":"e7b49e8d-906d-4885-95f0-eb8e95d243e5","system_id":"levelo_inurba_marseille","lat":43.2885,"lon":5.35864,"is_reserved":false,"is_disabled":false,"rental_uris":{"android":"levelo://app?vid=e7b49e8d-906d-4885-95f0-eb8e95d243e5","ios":"levelo://app?vid=e7b49e8d-906d-4885-95f0-eb8e95d243e5"},"vehicle_type_id":"4","last_reported":1753643333,"current_range_meters":10000,"station_id":"ce4bhb12rcd13ifvqem0","pricing_plan_id":"cebpf4jnsgd1na2vs0mg"},{"bike_id":"9a64460f-6e5c-4b16-bf66-11f3838672f8","system_id":"levelo_inurba_marseille","lat":43.29907,"lon":5.37471,"is_reserved":false,"is_disabled":false,"rental_uris":{"android":"levelo://app?vid=9a64460f-6e5c-4b16-bf66-11f3838672f8","ios":"levelo://app?vid=9a64460f-6e5c-4b16-bf66-11f3838672f8"},"vehicle_type_id":"4","last_reported":1753643333,"current_range_meters":10000,"station_id":"ce4bgjh2rcd13ifvqbg0","pricing_plan_id":"cebpf4jnsgd1na2vs0mg"},{"bike_id":"bf7358b0-7e89-4b6c-89e8-f39f6a770a59","system_id":"levelo_inurba_marseille","lat":43.28409,"lon":5.37533,"is_reserved":false,"is_disabled":false,"rental_uris":{"android":"levelo://app?vid=bf7358b0-7e89-4b6c-89e8-f39f6a770a59","ios":"levelo://app?vid=bf7358b0-7e89-4b6c-89e8-f39f6a770a59"},"vehicle_type_id":"4","last_reported":1753643333,"current_range_meters":10000,"station_id":"ce4bh412rcd13ifvqds0","pricing_plan_id":"cebpf4jnsgd1na2vs0mg"},{"bike_id":"a1d5115b-997f-44a5-8b4b-21cb29757407","system_id":"levelo_inurba_marseille","lat":43.31214,"lon":5.37305,"is_reserved":false,"is_disabled":false,"rental_uris":{"android":"levelo://app?vid=a1d5115b-997f-44a5-8b4b-21cb29757407","ios":"levelo://app?vid=a1d5115b-997f-44a5-8b4b-21cb29757407"},"vehicle_type_id":"4","last_reported":1753643333,"current_range_meters":10000,"station_id":"","pricing_plan_id":"cebpf4jnsgd1na2vs0mg"},{"bike_id":"9102cabb-989f-4379-b74a-7ec7bf2a44b3","system_id":"levelo_inurba_marseille","lat":43.217552,"lon":5.34596,"is_reserved":false,"is_disabled":true,"rental_uris":{"android":"levelo://app?vid=9102cabb-989f-4379-b74a-7ec7bf2a44b3","ios":"levelo://app?vid=9102cabb-989f-4379-b74a-7ec7bf2a44b3"},"vehicle_type_id":"4","last_reported":1753643333,"current_range_meters":10800,"station_id":"","pricing_plan_id":"cebpf4jnsgd1na2vs0mg"},{"bike_id":"7948d0cb-2301-4649-a622-4a219c98d217","system_id":"levelo_inurba_marseille","lat":43.3137,"lon":5.38476,"is_reserved":false,"is_disabled":false,"rental_uris":{"android":"levelo://app?vid=7948d0cb-2301-4649-a622-4a219c98d217","ios":"levelo://app?vid=7948d0cb-2301-4649-a622-4a219c98d217"},"vehicle_type_id":"4","last_reported":1753643333,"current_range_meters":10800,"station_id":"ce4bgt92rcd13ifvqcf0","pricing_plan_id":"cebpf4jnsgd1na2vs0mg"},{"bike_id":"0271a971-a1f3-4db7-86cf-99ec793c582a","system_id":"levelo_inurba_marseille","lat":43.2919,"lon":5.39314,"is_reserved":false,"is_disabled":false,"rental_uris":{"android":"levelo://app?vid=0271a971-a1f3-4db7-86cf-99ec793c582a","ios":"levelo://app?vid=0271a971-a1f3-4db7-86cf-99ec793c582a"},"vehicle_type_id":"4","last_reported":1753643333,"current_range_meters":10800,"station_id":"ce4bh192rcd13ifvqdd0","pricing_plan_id":"cebpf4jnsgd1na2vs0mg"},{"bike_id":"6a38ad86-92b8-4aed-98d7-3569ef9cc105","system_id":"levelo_inurba_marseille","lat":43.2174,"lon":5.34588,"is_reserved":false,"is_disabled":true,"rental_uris":{"android":"levelo://app?vid=6a38ad86-92b8-4aed-98d7-3569ef9cc105","ios":"levelo://app?vid=6a38ad86-92b8-4aed-98d7-3569ef9cc105"},"vehicle_type_id":"4","last_reported":1753643333,"current_range_meters":10800,"station_id":"st_cvj6r9ubvosntc0bgbag","pricing_plan_id":"cebpf4jnsgd1na2vs0mg"},{"bike_id":"7fe8107c-aa92-49b9-a3d4-b0180595b13e","system_id":"levelo_inurba_marseille","lat":43.298235,"lon":5.376573,"is_reserved":false,"is_disabled":false,"rental_uris":{"android":"levelo://app?vid=7fe8107c-aa92-49b9-a3d4-b0180595b13e","ios":"levelo://app?vid=7fe8107c-aa92-49b9-a3d4-b0180595b13e"},"vehicle_type_id":"4","last_reported":1753643333,"current_range_meters":10800,"station_id":"","pricing_plan_id":"cebpf4jnsgd1na2vs0mg"},{"bike_id":"1e5c96a6-9d0f-4d5f-85ef-5a5f8ac0317a","system_id":"levelo_inurba_marseille","lat":43.33413,"lon":5.39078,"is_reserved":false,"is_disabled":false,"rental_uris":{"android":"levelo://app?vid=1e5c96a6-9d0f-4d5f-85ef-5a5f8ac0317a","ios":"levelo://app?vid=1e5c96a6-9d0f-4d5f-85ef-5a5f8ac0317a"},"vehicle_type_id":"4","last_reported":1753643333,"current_range_meters":10800,"station_id":"","pricing_plan_id":"cebpf4jnsgd1na2vs0mg"},{"bike_id":"43dbc09e-d0e4-4ddb-bafe-4f55874d23a9","system_id":"levelo_inurba_marseille","lat":43.3023,"lon":5.38225,"is_reserved":false,"is_disabled":false,"rental_uris":{"android":"levelo://app?vid=43dbc09e-d0e4-4ddb-bafe-4f55874d23a9","ios":"levelo://app?vid=43dbc09e-d0e4-4ddb-bafe-4f55874d23a9"},"vehicle_type_id":"4","last_reported":1753643333,"current_range_meters":10800,"station_id":"","pricing_plan_id":"cebpf4jnsgd1na2vs0mg"},{"bike_id":"cccc350b-e80a-4763-a89b-f37993b84a82","system_id":"levelo_inurba_marseille","lat":43.26577,"lon":5.39014,"is_reserved":false,"is_disabled":false,"rental_uris":{"android":"levelo://app?vid=cccc350b-e80a-4763-a89b-f37993b84a82","ios":"levelo://app?vid=cccc350b-e80a-4763-a89b-f37993b84a82"},"vehicle_type_id":"4","last_reported":1753643333,"current_range_meters":10800,"station_id":"ce4bhe12rcd13ifvqf30","pricing_plan_id":"cebpf4jnsgd1na2vs0mg"},{"bike_id":"1d2f92cc-5eee-4686-a745-6cb2184d6c85","system_id":"levelo_inurba_marseille","lat":43.31717,"lon":5.37807,"is_reserved":false,"is_disabled":false,"rental_uris":{"android":"levelo://app?vid=1d2f92cc-5eee-4686-a745-6cb2184d6c85","ios":"levelo://app?vid=1d2f92cc-5eee-4686-a745-6cb2184d6c85"},"vehicle_type_id":"4","last_reported":1753643333,"current_range_meters":10800,"station_id":"","pricing_plan_id":"cebpf4jnsgd1na2vs0mg"},{"bike_id":"e16be63e-9772-4697-933e-55548c2c7ebb","system_id":"levelo_inurba_marseille","lat":43.29527,"lon":5.37522,"is_reserved":false,"is_disabled":false,"rental_uris":{"android":"levelo://app?vid=e16be63e-9772-4697-933e-55548c2c7ebb","ios":"levelo://app?vid=e16be63e-9772-4697-933e-55548c2c7ebb"},"vehicle_type_id":"4","last_reported":1753643333,"current_range_meters":10800,"station_id":"ce4bgkp2rcd13ifvqbmg","pricing_plan_id":"cebpf4jnsgd1na2vs0mg"},{"bike_id":"63f56027-7510-41f8-b491-a13f0ece03ec","system_id":"levelo_inurba_marseille","lat":43.284416,"lon":5.39205,"is_reserved":false,"is_disabled":false,"rental_uris":{"android":"levelo://app?vid=63f56027-7510-41f8-b491-a13f0ece03ec","ios":"levelo://app?vid=63f56027-7510-41f8-b491-a13f0ece03ec"},"vehicle_type_id":"4","last_reported":1753643333,"current_range_meters":11200,"station_id":"ce4bhoh2rcd13ifvqh5g","pricing_plan_id":"cebpf4jnsgd1na2vs0mg"},{"bike_id":"d25570e3-87c9-4356-ba9f-96a9aa944e99","system_id":"levelo_inurba_marseille","lat":43.28346,"lon":5.38107,"is_reserved":false,"is_disabled":false,"rental_uris":{"android":"levelo://app?vid=d25570e3-87c9-4356-ba9f-96a9aa944e99","ios":"levelo://app?vid=d25570e3-87c9-4356-ba9f-96a9aa944e99"},"vehicle_type_id":"4","last_reported":1753643333,"current_range_meters":11200,"station_id":"ce4bh412rcd13ifvqdr0","pricing_plan_id":"cebpf4jnsgd1na2vs0mg"},{"bike_id":"66accc51-52d8-488b-bf6e-6c2bd6f77388","system_id":"levelo_inurba_marseille","lat":43.2979,"lon":5.38084,"is_reserved":false,"is_disabled":false,"rental_uris":{"android":"levelo://app?vid=66accc51-52d8-488b-bf6e-6c2bd6f77388","ios":"levelo://app?vid=66accc51-52d8-488b-bf6e-6c2bd6f77388"},"vehicle_type_id":"4","last_reported":1753643333,"current_range_meters":11200,"station_id":"ce4bgip2rcd13ifvqbb0","pricing_plan_id":"cebpf4jnsgd1na2vs0mg"},{"bike_id":"2bfef089-6018-4e77-bb76-6c73defc3043","system_id":"levelo_inurba_marseille","lat":43.28915,"lon":5.38395,"is_reserved":false,"is_disabled":false,"rental_uris":{"android":"levelo://app?vid=2bfef089-6018-4e77-bb76-6c73defc3043","ios":"levelo://app?vid=2bfef089-6018-4e77-bb76-6c73defc3043"},"vehicle_type_id":"4","last_reported":1753643333,"current_range_meters":11200,"station_id":"ce4bh612rcd13ifvqe6g","pricing_plan_id":"cebpf4jnsgd1na2vs0mg"},{"bike_id":"d8adee83-dc1e-4ff1-879f-3a202b2325f9","system_id":"levelo_inurba_marseille","lat":43.29023,"lon":5.38637,"is_reserved":false,"is_disabled":false,"rental_uris":{"android":"levelo://app?vid=d8adee83-dc1e-4ff1-879f-3a202b2325f9","ios":"levelo://app?vid=d8adee83-dc1e-4ff1-879f-3a202b2325f9"},"vehicle_type_id":"4","last_reported":1753643333,"current_range_meters":11200,"station_id":"ce4bh4p2rcd13ifvqe0g","pricing_plan_id":"cebpf4jnsgd1na2vs0mg"},{"bike_id":"198a8a48-9082-408a-ac7c-20dca32fbf4e","system_id":"levelo_inurba_marseille","lat":43.32057,"lon":5.40919,"is_reserved":false,"is_disabled":false,"rental_uris":{"android":"levelo://app?vid=198a8a48-9082-408a-ac7c-20dca32fbf4e","ios":"levelo://app?vid=198a8a48-9082-408a-ac7c-20dca32fbf4e"},"vehicle_type_id":"4","last_reported":1753643333,"current_range_meters":11200,"station_id":"","pricing_plan_id":"cebpf4jnsgd1na2vs0mg"},{"bike_id":"3d91db15-29dc-4f91-9b59-367c157057f1","system_id":"levelo_inurba_marseille","lat":43.29033,"lon":5.38637,"is_reserved":false,"is_disabled":false,"rental_uris":{"android":"levelo://app?vid=3d91db15-29dc-4f91-9b59-367c157057f1","ios":"levelo://app?vid=3d91db15-29dc-4f91-9b59-367c157057f1"},"vehicle_type_id":"4","last_reported":1753643333,"current_range_meters":11600,"station_id":"ce4bh4p2rcd13ifvqe0g","pricing_plan_id":"cebpf4jnsgd1na2vs0mg"},{"bike_id":"30dae34a-0aef-4324-9f46-76558a2c47bf","system_id":"levelo_inurba_marseille","lat":43.2902,"lon":5.3814,"is_reserved":false,"is_disabled":false,"rental_uris":{"android":"levelo://app?vid=30dae34a-0aef-4324-9f46-76558a2c47bf","ios":"levelo://app?vid=30dae34a-0aef-4324-9f46-76558a2c47bf"},"vehicle_type_id":"4","last_reported":1753643333,"current_range_meters":11600,"station_id":"ce4bh4p2rcd13ifvqe1g","pricing_plan_id":"cebpf4jnsgd1na2vs0mg"},{"bike_id":"a5982828-a0c7-4731-8124-643730bdb30f","system_id":"levelo_inurba_marseille","lat":43.29206,"lon":5.3931,"is_reserved":false,"is_disabled":false,"rental_uris":{"android":"levelo://app?vid=a5982828-a0c7-4731-8124-643730bdb30f","ios":"levelo://app?vid=a5982828-a0c7-4731-8124-643730bdb30f"},"vehicle_type_id":"4","last_reported":1753643333,"current_range_meters":11600,"station_id":"ce4bh192rcd13ifvqdd0","pricing_plan_id":"cebpf4jnsgd1na2vs0mg"},{"bike_id":"3438576b-ba6f-4afe-a771-3c1e984bcb44","system_id":"levelo_inurba_marseille","lat":43.2953,"lon":5.375,"is_reserved":false,"is_disabled":false,"rental_uris":{"android":"levelo://app?vid=3438576b-ba6f-4afe-a771-3c1e984bcb44","ios":"levelo://app?vid=3438576b-ba6f-4afe-a771-3c1e984bcb44"},"vehicle_type_id":"4","last_reported":1753643333,"current_range_meters":11200,"station_id":"ce4bgkp2rcd13ifvqbmg","pricing_plan_id":"cebpf4jnsgd1na2vs0mg"},{"bike_id":"771b173f-f7f3-4770-b96b-55c7464661a6","system_id":"levelo_inurba_marseille","lat":43.29531,"lon":5.38534,"is_reserved":false,"is_disabled":false,"rental_uris":{"android":"levelo://app?vid=771b173f-f7f3-4770-b96b-55c7464661a6","ios":"levelo://app?vid=771b173f-f7f3-4770-b96b-55c7464661a6"},"vehicle_type_id":"4","last_reported":1753643333,"current_range_meters":11600,"station_id":"ce4bgih2rcd13ifvqba0","pricing_plan_id":"cebpf4jnsgd1na2vs0mg"},{"bike_id":"cfc11d41-18a0-4668-893c-aee7ad86e5ac","system_id":"levelo_inurba_marseille","lat":43.257268,"lon":5.411075,"is_reserved":false,"is_disabled":false,"rental_uris":{"android":"levelo://app?vid=cfc11d41-18a0-4668-893c-aee7ad86e5ac","ios":"levelo://app?vid=cfc11d41-18a0-4668-893c-aee7ad86e5ac"},"vehicle_type_id":"4","last_reported":1753643333,"current_range_meters":11600,"station_id":"ce4bhkp2rcd13ifvqgd0","pricing_plan_id":"cebpf4jnsgd1na2vs0mg"},{"bike_id":"6d550a5d-b75c-4e5c-9515-19dd2ae641ff","system_id":"levelo_inurba_marseille","lat":43.29839,"lon":5.36268,"is_reserved":false,"is_disabled":false,"rental_uris":{"android":"levelo://app?vid=6d550a5d-b75c-4e5c-9515-19dd2ae641ff","ios":"levelo://app?vid=6d550a5d-b75c-4e5c-9515-19dd2ae641ff"},"vehicle_type_id":"4","last_reported":1753643333,"current_range_meters":11600,"station_id":"ce4bgpp2rcd13ifvqc3g","pricing_plan_id":"cebpf4jnsgd1na2vs0mg"},{"bike_id":"e6007d33-19cf-456c-b786-9640c637f617","system_id":"levelo_inurba_marseille","lat":43.27373,"lon":5.36258,"is_reserved":false,"is_disabled":false,"rental_uris":{"android":"levelo://app?vid=e6007d33-19cf-456c-b786-9640c637f617","ios":"levelo://app?vid=e6007d33-19cf-456c-b786-9640c637f617"},"vehicle_type_id":"4","last_reported":1753643333,"current_range_meters":11600,"station_id":"ce4bhbh2rcd13ifvqeo0","pricing_plan_id":"cebpf4jnsgd1na2vs0mg"},{"bike_id":"da0dea9a-07a2-4249-aa7c-2489e28d40de","system_id":"levelo_inurba_marseille","lat":43.29605,"lon":5.36239,"is_reserved":false,"is_disabled":false,"rental_uris":{"android":"levelo://app?vid=da0dea9a-07a2-4249-aa7c-2489e28d40de","ios":"levelo://app?vid=da0dea9a-07a2-4249-aa7c-2489e28d40de"},"vehicle_type_id":"4","last_reported":1753643333,"current_range_meters":12000,"station_id":"","pricing_plan_id":"cebpf4jnsgd1na2vs0mg"},{"bike_id":"7fd8db4f-e9ef-4085-aedb-c0be7d2c962b","system_id":"levelo_inurba_marseille","lat":43.29624,"lon":5.37829,"is_reserved":false,"is_disabled":false,"rental_uris":{"android":"levelo://app?vid=7fd8db4f-e9ef-4085-aedb-c0be7d2c962b","ios":"levelo://app?vid=7fd8db4f-e9ef-4085-aedb-c0be7d2c962b"},"vehicle_type_id":"4","last_reported":1753643333,"current_range_meters":12000,"station_id":"","pricing_plan_id":"cebpf4jnsgd1na2vs0mg"},{"bike_id":"905576ef-66ce-426e-9600-566828c3b671","system_id":"levelo_inurba_marseille","lat":43.21705,"lon":5.3459,"is_reserved":false,"is_disabled":true,"rental_uris":{"android":"levelo://app?vid=905576ef-66ce-426e-9600-566828c3b671","ios":"levelo://app?vid=905576ef-66ce-426e-9600-566828c3b671"},"vehicle_type_id":"4","last_reported":1753643333,"current_range_meters":12000,"station_id":"","pricing_plan_id":"cebpf4jnsgd1na2vs0mg"},{"bike_id":"4d56bced-a7ea-420d-9a0c-5a0e76946a80","system_id":"levelo_inurba_marseille","lat":43.31111,"lon":5.37777,"is_reserved":false,"is_disabled":false,"rental_uris":{"android":"levelo://app?vid=4d56bced-a7ea-420d-9a0c-5a0e76946a80","ios":"levelo://app?vid=4d56bced-a7ea-420d-9a0c-5a0e76946a80"},"vehicle_type_id":"4","last_reported":1753643333,"current_range_meters":12000,"station_id":"ce4bgt92rcd13ifvqcg0","pricing_plan_id":"cebpf4jnsgd1na2vs0mg"},{"bike_id":"f4899887-2a19-42a5-8952-460b958e2eb0","system_id":"levelo_inurba_marseille","lat":43.292842,"lon":5.401136,"is_reserved":false,"is_disabled":false,"rental_uris":{"android":"levelo://app?vid=f4899887-2a19-42a5-8952-460b958e2eb0","ios":"levelo://app?vid=f4899887-2a19-42a5-8952-460b958e2eb0"},"vehicle_type_id":"4","last_reported":1753643333,"current_range_meters":12000,"station_id":"ce4bh312rcd13ifvqdk0","pricing_plan_id":"cebpf4jnsgd1na2vs0mg"},{"bike_id":"6e0d469e-c7b7-478d-b94e-daf583879f57","system_id":"levelo_inurba_marseille","lat":43.23198,"lon":5.35532,"is_reserved":false,"is_disabled":false,"rental_uris":{"android":"levelo://app?vid=6e0d469e-c7b7-478d-b94e-daf583879f57","ios":"levelo://app?vid=6e0d469e-c7b7-478d-b94e-daf583879f57"},"vehicle_type_id":"4","last_reported":1753643333,"current_range_meters":12000,"station_id":"ce4bhu92rcd13ifvqi70","pricing_plan_id":"cebpf4jnsgd1na2vs0mg"},{"bike_id":"71bf4b3c-13c9-4758-8abf-461fd93f4a3f","system_id":"levelo_inurba_marseille","lat":43.26206,"lon":5.37454,"is_reserved":false,"is_disabled":false,"rental_uris":{"android":"levelo://app?vid=71bf4b3c-13c9-4758-8abf-461fd93f4a3f","ios":"levelo://app?vid=71bf4b3c-13c9-4758-8abf-461fd93f4a3f"},"vehicle_type_id":"4","last_reported":1753643333,"current_range_meters":12000,"station_id":"ce4bhgp2rcd13ifvqfc0","pricing_plan_id":"cebpf4jnsgd1na2vs0mg"},{"bike_id":"416acd6b-072a-494f-b869-b2b61f9cc9d7","system_id":"levelo_inurba_marseille","lat":43.22504,"lon":5.34773,"is_reserved":false,"is_disabled":false,"rental_uris":{"android":"levelo://app?vid=416acd6b-072a-494f-b869-b2b61f9cc9d7","ios":"levelo://app?vid=416acd6b-072a-494f-b869-b2b61f9cc9d7"},"vehicle_type_id":"4","last_reported":1753643333,"current_range_meters":12000,"station_id":"st_cvj5dfep6f1abm77gieg","pricing_plan_id":"cebpf4jnsgd1na2vs0mg"},{"bike_id":"e5f45e86-a25f-4bde-9c89-4e7b0afd2dbd","system_id":"levelo_inurba_marseille","lat":43.28415,"lon":5.37504,"is_reserved":false,"is_disabled":false,"rental_uris":{"android":"levelo://app?vid=e5f45e86-a25f-4bde-9c89-4e7b0afd2dbd","ios":"levelo://app?vid=e5f45e86-a25f-4bde-9c89-4e7b0afd2dbd"},"vehicle_type_id":"4","last_reported":1753643333,"current_range_meters":12400,"station_id":"ce4bh412rcd13ifvqds0","pricing_plan_id":"cebpf4jnsgd1na2vs0mg"},{"bike_id":"3fc335d6-2ad1-410b-831a-3defb6d242c6","system_id":"levelo_inurba_marseille","lat":43.29778,"lon":5.37109,"is_reserved":false,"is_disabled":false,"rental_uris":{"android":"levelo://app?vid=3fc335d6-2ad1-410b-831a-3defb6d242c6","ios":"levelo://app?vid=3fc335d6-2ad1-410b-831a-3defb6d242c6"},"vehicle_type_id":"4","last_reported":1753643333,"current_range_meters":12000,"station_id":"ce4bgop2rcd13ifvqc1g","pricing_plan_id":"cebpf4jnsgd1na2vs0mg"},{"bike_id":"8b091c87-00a4-4e64-a058-ca35b401f679","system_id":"levelo_inurba_marseille","lat":43.24815,"lon":5.3746,"is_reserved":false,"is_disabled":true,"rental_uris":{"android":"levelo://app?vid=8b091c87-00a4-4e64-a058-ca35b401f679","ios":"levelo://app?vid=8b091c87-00a4-4e64-a058-ca35b401f679"},"vehicle_type_id":"4","last_reported":1753643333,"current_range_meters":12400,"station_id":"ce4bhgh2rcd13ifvqfb0","pricing_plan_id":"cebpf4jnsgd1na2vs0mg"},{"bike_id":"463e03fe-b9b0-4212-a764-9bd6d78e3c2e","system_id":"levelo_inurba_marseille","lat":43.31014,"lon":5.38137,"is_reserved":false,"is_disabled":false,"rental_uris":{"android":"levelo://app?vid=463e03fe-b9b0-4212-a764-9bd6d78e3c2e","ios":"levelo://app?vid=463e03fe-b9b0-4212-a764-9bd6d78e3c2e"},"vehicle_type_id":"4","last_reported":1753643333,"current_range_meters":12400,"station_id":"","pricing_plan_id":"cebpf4jnsgd1na2vs0mg"},{"bike_id":"7034d87e-ff4b-473f-9240-13fec7d24f0a","system_id":"levelo_inurba_marseille","lat":43.29258,"lon":5.40907,"is_reserved":false,"is_disabled":false,"rental_uris":{"android":"levelo://app?vid=7034d87e-ff4b-473f-9240-13fec7d24f0a","ios":"levelo://app?vid=7034d87e-ff4b-473f-9240-13fec7d24f0a"},"vehicle_type_id":"4","last_reported":1753643333,"current_range_meters":12400,"station_id":"ce4bh192rcd13ifvqdc0","pricing_plan_id":"cebpf4jnsgd1na2vs0mg"},{"bike_id":"76688f1c-5db9-4dc6-8543-93a7df4bc124","system_id":"levelo_inurba_marseille","lat":43.292827,"lon":5.368392,"is_reserved":false,"is_disabled":false,"rental_uris":{"android":"levelo://app?vid=76688f1c-5db9-4dc6-8543-93a7df4bc124","ios":"levelo://app?vid=76688f1c-5db9-4dc6-8543-93a7df4bc124"},"vehicle_type_id":"4","last_reported":1753643333,"current_range_meters":12400,"station_id":"ce4bhbp2rcd13ifvqesg","pricing_plan_id":"cebpf4jnsgd1na2vs0mg"},{"bike_id":"bbd4e861-1398-427f-9916-217ed9782a8f","system_id":"levelo_inurba_marseille","lat":43.29579,"lon":5.36748,"is_reserved":false,"is_disabled":false,"rental_uris":{"android":"levelo://app?vid=bbd4e861-1398-427f-9916-217ed9782a8f","ios":"levelo://app?vid=bbd4e861-1398-427f-9916-217ed9782a8f"},"vehicle_type_id":"4","last_reported":1753643333,"current_range_meters":12400,"station_id":"ce4bgph2rcd13ifvqc2g","pricing_plan_id":"cebpf4jnsgd1na2vs0mg"},{"bike_id":"e9a8d63b-fa81-46c6-beda-fc19c9771f5d","system_id":"levelo_inurba_marseille","lat":43.31229,"lon":5.36862,"is_reserved":false,"is_disabled":false,"rental_uris":{"android":"levelo://app?vid=e9a8d63b-fa81-46c6-beda-fc19c9771f5d","ios":"levelo://app?vid=e9a8d63b-fa81-46c6-beda-fc19c9771f5d"},"vehicle_type_id":"4","last_reported":1753643333,"current_range_meters":12000,"station_id":"ce4bgl92rcd13ifvqbq0","pricing_plan_id":"cebpf4jnsgd1na2vs0mg"},{"bike_id":"2e189901-60b5-4e7f-9fea-e591db1db61f","system_id":"levelo_inurba_marseille","lat":43.251166,"lon":5.403162,"is_reserved":false,"is_disabled":false,"rental_uris":{"android":"levelo://app?vid=2e189901-60b5-4e7f-9fea-e591db1db61f","ios":"levelo://app?vid=2e189901-60b5-4e7f-9fea-e591db1db61f"},"vehicle_type_id":"4","last_reported":1753643333,"current_range_meters":12400,"station_id":"ce4bhlh2rcd13ifvqgig","pricing_plan_id":"cebpf4jnsgd1na2vs0mg"},{"bike_id":"e93689f3-25dc-4193-bbc3-fc3901826c20","system_id":"levelo_inurba_marseille","lat":43.29261,"lon":5.38441,"is_reserved":false,"is_disabled":false,"rental_uris":{"android":"levelo://app?vid=e93689f3-25dc-4193-bbc3-fc3901826c20","ios":"levelo://app?vid=e93689f3-25dc-4193-bbc3-fc3901826c20"},"vehicle_type_id":"4","last_reported":1753643333,"current_range_meters":12400,"station_id":"ce4bh692rcd13ifvqea0","pricing_plan_id":"cebpf4jnsgd1na2vs0mg"},{"bike_id":"8512b265-75e1-49d7-bb7d-bd988c357d7c","system_id":"levelo_inurba_marseille","lat":43.28677,"lon":5.40019,"is_reserved":false,"is_disabled":true,"rental_uris":{"android":"levelo://app?vid=8512b265-75e1-49d7-bb7d-bd988c357d7c","ios":"levelo://app?vid=8512b265-75e1-49d7-bb7d-bd988c357d7c"},"vehicle_type_id":"4","last_reported":1753643333,"current_range_meters":12400,"station_id":"ce4bho92rcd13ifvqh3g","pricing_plan_id":"cebpf4jnsgd1na2vs0mg"},{"bike_id":"f0beafc6-4f1d-406d-9b81-bf9ae37556b7","system_id":"levelo_inurba_marseille","lat":43.22927,"lon":5.35337,"is_reserved":false,"is_disabled":false,"rental_uris":{"android":"levelo://app?vid=f0beafc6-4f1d-406d-9b81-bf9ae37556b7","ios":"levelo://app?vid=f0beafc6-4f1d-406d-9b81-bf9ae37556b7"},"vehicle_type_id":"4","last_reported":1753643333,"current_range_meters":12800,"station_id":"cpo3532slgdg3j2ikp40","pricing_plan_id":"cebpf4jnsgd1na2vs0mg"},{"bike_id":"6ba70e19-62eb-44ac-aafa-f46e061900c2","system_id":"levelo_inurba_marseille","lat":43.29579,"lon":5.36744,"is_reserved":false,"is_disabled":false,"rental_uris":{"android":"levelo://app?vid=6ba70e19-62eb-44ac-aafa-f46e061900c2","ios":"levelo://app?vid=6ba70e19-62eb-44ac-aafa-f46e061900c2"},"vehicle_type_id":"4","last_reported":1753643333,"current_range_meters":12800,"station_id":"ce4bgph2rcd13ifvqc2g","pricing_plan_id":"cebpf4jnsgd1na2vs0mg"},{"bike_id":"4727e35d-1b47-444a-9c64-59bf727e6bda","system_id":"levelo_inurba_marseille","lat":43.28837,"lon":5.39328,"is_reserved":false,"is_disabled":false,"rental_uris":{"android":"levelo://app?vid=4727e35d-1b47-444a-9c64-59bf727e6bda","ios":"levelo://app?vid=4727e35d-1b47-444a-9c64-59bf727e6bda"},"vehicle_type_id":"4","last_reported":1753643333,"current_range_meters":12800,"station_id":"ce4bh2p2rcd13ifvqdi0","pricing_plan_id":"cebpf4jnsgd1na2vs0mg"},{"bike_id":"00ed14a9-7d08-4cc9-9b42-41f67139c4ac","system_id":"levelo_inurba_marseille","lat":43.26953,"lon":5.38619,"is_reserved":false,"is_disabled":true,"rental_uris":{"android":"levelo://app?vid=00ed14a9-7d08-4cc9-9b42-41f67139c4ac","ios":"levelo://app?vid=00ed14a9-7d08-4cc9-9b42-41f67139c4ac"},"vehicle_type_id":"4","last_reported":1753643333,"current_range_meters":12800,"station_id":"ce4bhh92rcd13ifvqfh0","pricing_plan_id":"cebpf4jnsgd1na2vs0mg"},{"bike_id":"7d148603-9d75-4ff4-942d-4025d8974564","system_id":"levelo_inurba_marseille","lat":43.257396,"lon":5.410984,"is_reserved":false,"is_disabled":false,"rental_uris":{"android":"levelo://app?vid=7d148603-9d75-4ff4-942d-4025d8974564","ios":"levelo://app?vid=7d148603-9d75-4ff4-942d-4025d8974564"},"vehicle_type_id":"4","last_reported":1753643333,"current_range_meters":12800,"station_id":"ce4bhkp2rcd13ifvqgd0","pricing_plan_id":"cebpf4jnsgd1na2vs0mg"},{"bike_id":"4675c641-309f-4c25-8594-c8cdedd2fb6c","system_id":"levelo_inurba_marseille","lat":43.25681,"lon":5.41173,"is_reserved":false,"is_disabled":false,"rental_uris":{"android":"levelo://app?vid=4675c641-309f-4c25-8594-c8cdedd2fb6c","ios":"levelo://app?vid=4675c641-309f-4c25-8594-c8cdedd2fb6c"},"vehicle_type_id":"4","last_reported":1753643333,"current_range_meters":12800,"station_id":"ce4bhkp2rcd13ifvqgd0","pricing_plan_id":"cebpf4jnsgd1na2vs0mg"},{"bike_id":"d1ee7493-1c8a-469d-8c3c-eed7b0a6afe5","system_id":"levelo_inurba_marseille","lat":43.299683,"lon":5.386239,"is_reserved":false,"is_disabled":false,"rental_uris":{"android":"levelo://app?vid=d1ee7493-1c8a-469d-8c3c-eed7b0a6afe5","ios":"levelo://app?vid=d1ee7493-1c8a-469d-8c3c-eed7b0a6afe5"},"vehicle_type_id":"4","last_reported":1753643333,"current_range_meters":13600,"station_id":"","pricing_plan_id":"cebpf4jnsgd1na2vs0mg"},{"bike_id":"eea20b6a-7255-4863-80aa-598216fe9bfc","system_id":"levelo_inurba_marseille","lat":43.30132,"lon":5.37412,"is_reserved":false,"is_disabled":false,"rental_uris":{"android":"levelo://app?vid=eea20b6a-7255-4863-80aa-598216fe9bfc","ios":"levelo://app?vid=eea20b6a-7255-4863-80aa-598216fe9bfc"},"vehicle_type_id":"4","last_reported":1753643333,"current_range_meters":13600,"station_id":"ce4bgs92rcd13ifvqcc0","pricing_plan_id":"cebpf4jnsgd1na2vs0mg"},{"bike_id":"fc17dd07-1a4a-4aa7-beb0-db0d740f1929","system_id":"levelo_inurba_marseille","lat":43.2293,"lon":5.35368,"is_reserved":false,"is_disabled":false,"rental_uris":{"android":"levelo://app?vid=fc17dd07-1a4a-4aa7-beb0-db0d740f1929","ios":"levelo://app?vid=fc17dd07-1a4a-4aa7-beb0-db0d740f1929"},"vehicle_type_id":"4","last_reported":1753643333,"current_range_meters":13600,"station_id":"cpo3532slgdg3j2ikp40","pricing_plan_id":"cebpf4jnsgd1na2vs0mg"},{"bike_id":"cb84cebc-9049-4733-8ecc-818c9a283ed3","system_id":"levelo_inurba_marseille","lat":43.30756,"lon":5.36601,"is_reserved":false,"is_disabled":false,"rental_uris":{"android":"levelo://app?vid=cb84cebc-9049-4733-8ecc-818c9a283ed3","ios":"levelo://app?vid=cb84cebc-9049-4733-8ecc-818c9a283ed3"},"vehicle_type_id":"4","last_reported":1753643333,"current_range_meters":14000,"station_id":"","pricing_plan_id":"cebpf4jnsgd1na2vs0mg"},{"bike_id":"4419d313-15c7-4505-87a1-a0df8ef32c2f","system_id":"levelo_inurba_marseille","lat":43.28438,"lon":5.39189,"is_reserved":false,"is_disabled":false,"rental_uris":{"android":"levelo://app?vid=4419d313-15c7-4505-87a1-a0df8ef32c2f","ios":"levelo://app?vid=4419d313-15c7-4505-87a1-a0df8ef32c2f"},"vehicle_type_id":"4","last_reported":1753643333,"current_range_meters":13600,"station_id":"ce4bhoh2rcd13ifvqh5g","pricing_plan_id":"cebpf4jnsgd1na2vs0mg"},{"bike_id":"688a04e1-05b6-4fc7-b03c-b784b8613797","system_id":"levelo_inurba_marseille","lat":43.29191,"lon":5.39311,"is_reserved":false,"is_disabled":false,"rental_uris":{"android":"levelo://app?vid=688a04e1-05b6-4fc7-b03c-b784b8613797","ios":"levelo://app?vid=688a04e1-05b6-4fc7-b03c-b784b8613797"},"vehicle_type_id":"4","last_reported":1753643333,"current_range_meters":13600,"station_id":"ce4bh192rcd13ifvqdd0","pricing_plan_id":"cebpf4jnsgd1na2vs0mg"},{"bike_id":"3a4ab351-fbb8-456f-b30c-d7e79afc53af","system_id":"levelo_inurba_marseille","lat":43.24546,"lon":5.39523,"is_reserved":false,"is_disabled":false,"rental_uris":{"android":"levelo://app?vid=3a4ab351-fbb8-456f-b30c-d7e79afc53af","ios":"levelo://app?vid=3a4ab351-fbb8-456f-b30c-d7e79afc53af"},"vehicle_type_id":"4","last_reported":1753643333,"current_range_meters":13600,"station_id":"ce4bhlp2rcd13ifvqgjg","pricing_plan_id":"cebpf4jnsgd1na2vs0mg"},{"bike_id":"8f785e69-82ae-4e1d-82c1-f85cc3f67788","system_id":"levelo_inurba_marseille","lat":43.29098,"lon":5.38147,"is_reserved":false,"is_disabled":true,"rental_uris":{"android":"levelo://app?vid=8f785e69-82ae-4e1d-82c1-f85cc3f67788","ios":"levelo://app?vid=8f785e69-82ae-4e1d-82c1-f85cc3f67788"},"vehicle_type_id":"4","last_reported":1753643333,"current_range_meters":14000,"station_id":"ce4bh512rcd13ifvqe2g","pricing_plan_id":"cebpf4jnsgd1na2vs0mg"},{"bike_id":"710e528c-f5e2-4f10-8f2c-efcdc4d27379","system_id":"levelo_inurba_marseille","lat":43.27988,"lon":5.40011,"is_reserved":false,"is_disabled":true,"rental_uris":{"android":"levelo://app?vid=710e528c-f5e2-4f10-8f2c-efcdc4d27379","ios":"levelo://app?vid=710e528c-f5e2-4f10-8f2c-efcdc4d27379"},"vehicle_type_id":"4","last_reported":1753643333,"current_range_meters":14000,"station_id":"ce4bho92rcd13ifvqh4g","pricing_plan_id":"cebpf4jnsgd1na2vs0mg"},{"bike_id":"bf3b53b2-3e96-407b-b4d4-d797204ff8bd","system_id":"levelo_inurba_marseille","lat":43.29893,"lon":5.39743,"is_reserved":false,"is_disabled":true,"rental_uris":{"android":"levelo://app?vid=bf3b53b2-3e96-407b-b4d4-d797204ff8bd","ios":"levelo://app?vid=bf3b53b2-3e96-407b-b4d4-d797204ff8bd"},"vehicle_type_id":"4","last_reported":1753643333,"current_range_meters":14000,"station_id":"ce4bh0h2rcd13ifvqd50","pricing_plan_id":"cebpf4jnsgd1na2vs0mg"},{"bike_id":"903a25fb-6b02-4f64-bcae-08947e87361e","system_id":"levelo_inurba_marseille","lat":43.29525,"lon":5.38536,"is_reserved":false,"is_disabled":false,"rental_uris":{"android":"levelo://app?vid=903a25fb-6b02-4f64-bcae-08947e87361e","ios":"levelo://app?vid=903a25fb-6b02-4f64-bcae-08947e87361e"},"vehicle_type_id":"4","last_reported":1753643333,"current_range_meters":14000,"station_id":"ce4bgih2rcd13ifvqba0","pricing_plan_id":"cebpf4jnsgd1na2vs0mg"},{"bike_id":"66d3c823-7f9c-42e6-aa14-f505a34e6666","system_id":"levelo_inurba_marseille","lat":43.30352,"lon":5.41878,"is_reserved":false,"is_disabled":false,"rental_uris":{"android":"levelo://app?vid=66d3c823-7f9c-42e6-aa14-f505a34e6666","ios":"levelo://app?vid=66d3c823-7f9c-42e6-aa14-f505a34e6666"},"vehicle_type_id":"4","last_reported":1753643333,"current_range_meters":14000,"station_id":"ce4bhop2rcd13ifvqh7g","pricing_plan_id":"cebpf4jnsgd1na2vs0mg"},{"bike_id":"220cf17f-9c61-468f-af88-f24ca56003a4","system_id":"levelo_inurba_marseille","lat":43.30196,"lon":5.37965,"is_reserved":false,"is_disabled":false,"rental_uris":{"android":"levelo://app?vid=220cf17f-9c61-468f-af88-f24ca56003a4","ios":"levelo://app?vid=220cf17f-9c61-468f-af88-f24ca56003a4"},"vehicle_type_id":"4","last_reported":1753643333,"current_range_meters":16000,"station_id":"","pricing_plan_id":"cebpf4jnsgd1na2vs0mg"},{"bike_id":"9306cb98-ff63-47ed-9064-9c9a8b611a79","system_id":"levelo_inurba_marseille","lat":43.29643,"lon":5.37313,"is_reserved":false,"is_disabled":false,"rental_uris":{"android":"levelo://app?vid=9306cb98-ff63-47ed-9064-9c9a8b611a79","ios":"levelo://app?vid=9306cb98-ff63-47ed-9064-9c9a8b611a79"},"vehicle_type_id":"4","last_reported":1753643333,"current_range_meters":14000,"station_id":"ce4bgk12rcd13ifvqbj0","pricing_plan_id":"cebpf4jnsgd1na2vs0mg"},{"bike_id":"388bc238-fad7-406c-9d22-fb5bb71926c0","system_id":"levelo_inurba_marseille","lat":43.28403,"lon":5.37529,"is_reserved":false,"is_disabled":false,"rental_uris":{"android":"levelo://app?vid=388bc238-fad7-406c-9d22-fb5bb71926c0","ios":"levelo://app?vid=388bc238-fad7-406c-9d22-fb5bb71926c0"},"vehicle_type_id":"4","last_reported":1753643333,"current_range_meters":14000,"station_id":"ce4bh412rcd13ifvqds0","pricing_plan_id":"cebpf4jnsgd1na2vs0mg"},{"bike_id":"a41baa72-1391-4d84-a2d6-75498447c2b3","system_id":"levelo_inurba_marseille","lat":43.28154,"lon":5.42637,"is_reserved":false,"is_disabled":false,"rental_uris":{"android":"levelo://app?vid=a41baa72-1391-4d84-a2d6-75498447c2b3","ios":"levelo://app?vid=a41baa72-1391-4d84-a2d6-75498447c2b3"},"vehicle_type_id":"4","last_reported":1753643333,"current_range_meters":14400,"station_id":"ce4bhnh2rcd13ifvqgug","pricing_plan_id":"cebpf4jnsgd1na2vs0mg"},{"bike_id":"056fae12-7f56-48bc-8b57-b38e9df561a1","system_id":"levelo_inurba_marseille","lat":43.29251,"lon":5.38437,"is_reserved":false,"is_disabled":false,"rental_uris":{"android":"levelo://app?vid=056fae12-7f56-48bc-8b57-b38e9df561a1","ios":"levelo://app?vid=056fae12-7f56-48bc-8b57-b38e9df561a1"},"vehicle_type_id":"4","last_reported":1753643333,"current_range_meters":14400,"station_id":"ce4bh692rcd13ifvqea0","pricing_plan_id":"cebpf4jnsgd1na2vs0mg"},{"bike_id":"3ea3f346-5119-4e7a-9acb-4f55569d9c60","system_id":"levelo_inurba_marseille","lat":43.30306,"lon":5.36901,"is_reserved":false,"is_disabled":false,"rental_uris":{"android":"levelo://app?vid=3ea3f346-5119-4e7a-9acb-4f55569d9c60","ios":"levelo://app?vid=3ea3f346-5119-4e7a-9acb-4f55569d9c60"},"vehicle_type_id":"4","last_reported":1753643333,"current_range_meters":14400,"station_id":"","pricing_plan_id":"cebpf4jnsgd1na2vs0mg"},{"bike_id":"3dac6e7a-6727-4547-a162-4acf06c4c2f5","system_id":"levelo_inurba_marseille","lat":43.2465,"lon":5.38888,"is_reserved":false,"is_disabled":false,"rental_uris":{"android":"levelo://app?vid=3dac6e7a-6727-4547-a162-4acf06c4c2f5","ios":"levelo://app?vid=3dac6e7a-6727-4547-a162-4acf06c4c2f5"},"vehicle_type_id":"4","last_reported":1753643333,"current_range_meters":14400,"station_id":"ce4bhg12rcd13ifvqf60","pricing_plan_id":"cebpf4jnsgd1na2vs0mg"},{"bike_id":"56ec8761-dee0-49c1-aba7-a69ac65d386f","system_id":"levelo_inurba_marseille","lat":43.22929,"lon":5.353761,"is_reserved":false,"is_disabled":false,"rental_uris":{"android":"levelo://app?vid=56ec8761-dee0-49c1-aba7-a69ac65d386f","ios":"levelo://app?vid=56ec8761-dee0-49c1-aba7-a69ac65d386f"},"vehicle_type_id":"4","last_reported":1753643333,"current_range_meters":14400,"station_id":"cpo3532slgdg3j2ikp40","pricing_plan_id":"cebpf4jnsgd1na2vs0mg"},{"bike_id":"264fbea3-2c7f-4636-bd2b-32e60faed0d5","system_id":"levelo_inurba_marseille","lat":43.22462,"lon":5.34764,"is_reserved":false,"is_disabled":false,"rental_uris":{"android":"levelo://app?vid=264fbea3-2c7f-4636-bd2b-32e60faed0d5","ios":"levelo://app?vid=264fbea3-2c7f-4636-bd2b-32e60faed0d5"},"vehicle_type_id":"4","last_reported":1753643333,"current_range_meters":14400,"station_id":"st_cvj5dfep6f1abm77gieg","pricing_plan_id":"cebpf4jnsgd1na2vs0mg"},{"bike_id":"1a1b8d12-d67f-4fe1-861a-9f4486522b33","system_id":"levelo_inurba_marseille","lat":43.27072,"lon":5.42282,"is_reserved":false,"is_disabled":false,"rental_uris":{"android":"levelo://app?vid=1a1b8d12-d67f-4fe1-861a-9f4486522b33","ios":"levelo://app?vid=1a1b8d12-d67f-4fe1-861a-9f4486522b33"},"vehicle_type_id":"4","last_reported":1753643333,"current_range_meters":14400,"station_id":"ce4bhk92rcd13ifvqgb0","pricing_plan_id":"cebpf4jnsgd1na2vs0mg"},{"bike_id":"8d801f83-3686-49fa-a7fd-3701c57be20d","system_id":"levelo_inurba_marseille","lat":43.2406,"lon":5.37759,"is_reserved":false,"is_disabled":false,"rental_uris":{"android":"levelo://app?vid=8d801f83-3686-49fa-a7fd-3701c57be20d","ios":"levelo://app?vid=8d801f83-3686-49fa-a7fd-3701c57be20d"},"vehicle_type_id":"4","last_reported":1753643333,"current_range_meters":14400,"station_id":"ce4bhnp2rcd13ifvqgvg","pricing_plan_id":"cebpf4jnsgd1na2vs0mg"},{"bike_id":"3152576e-d602-4c3f-980e-717f41aed773","system_id":"levelo_inurba_marseille","lat":43.33737,"lon":5.37465,"is_reserved":false,"is_disabled":false,"rental_uris":{"android":"levelo://app?vid=3152576e-d602-4c3f-980e-717f41aed773","ios":"levelo://app?vid=3152576e-d602-4c3f-980e-717f41aed773"},"vehicle_type_id":"4","last_reported":1753643333,"current_range_meters":14400,"station_id":"","pricing_plan_id":"cebpf4jnsgd1na2vs0mg"},{"bike_id":"3ffeb0e7-4adc-4b77-a6a3-e9368acc06d9","system_id":"levelo_inurba_marseille","lat":43.28671,"lon":5.3868,"is_reserved":false,"is_disabled":false,"rental_uris":{"android":"levelo://app?vid=3ffeb0e7-4adc-4b77-a6a3-e9368acc06d9","ios":"levelo://app?vid=3ffeb0e7-4adc-4b77-a6a3-e9368acc06d9"},"vehicle_type_id":"4","last_reported":1753643333,"current_range_meters":14800,"station_id":"ce4bh492rcd13ifvqdug","pricing_plan_id":"cebpf4jnsgd1na2vs0mg"},{"bike_id":"48538135-5d0a-49ee-9320-155fbd091354","system_id":"levelo_inurba_marseille","lat":43.25853,"lon":5.40955,"is_reserved":false,"is_disabled":false,"rental_uris":{"android":"levelo://app?vid=48538135-5d0a-49ee-9320-155fbd091354","ios":"levelo://app?vid=48538135-5d0a-49ee-9320-155fbd091354"},"vehicle_type_id":"4","last_reported":1753643333,"current_range_meters":14800,"station_id":"ce4bhm92rcd13ifvqglg","pricing_plan_id":"cebpf4jnsgd1na2vs0mg"},{"bike_id":"a591545e-2b41-4298-a6a7-8e4c88bde821","system_id":"levelo_inurba_marseille","lat":43.28601,"lon":5.3706,"is_reserved":false,"is_disabled":false,"rental_uris":{"android":"levelo://app?vid=a591545e-2b41-4298-a6a7-8e4c88bde821","ios":"levelo://app?vid=a591545e-2b41-4298-a6a7-8e4c88bde821"},"vehicle_type_id":"4","last_reported":1753643333,"current_range_meters":14800,"station_id":"ce4bht12rcd13ifvqi60","pricing_plan_id":"cebpf4jnsgd1na2vs0mg"},{"bike_id":"d8cd6055-23c8-4622-a5bf-68f9b9ebfe53","system_id":"levelo_inurba_marseille","lat":43.27073,"lon":5.42285,"is_reserved":false,"is_disabled":true,"rental_uris":{"android":"levelo://app?vid=d8cd6055-23c8-4622-a5bf-68f9b9ebfe53","ios":"levelo://app?vid=d8cd6055-23c8-4622-a5bf-68f9b9ebfe53"},"vehicle_type_id":"4","last_reported":1753643333,"current_range_meters":14800,"station_id":"ce4bhk92rcd13ifvqgb0","pricing_plan_id":"cebpf4jnsgd1na2vs0mg"},{"bike_id":"83bbca6d-2534-4f05-bae4-1e3346fe94a2","system_id":"levelo_inurba_marseille","lat":43.31996,"lon":5.38157,"is_reserved":false,"is_disabled":false,"rental_uris":{"android":"levelo://app?vid=83bbca6d-2534-4f05-bae4-1e3346fe94a2","ios":"levelo://app?vid=83bbca6d-2534-4f05-bae4-1e3346fe94a2"},"vehicle_type_id":"4","last_reported":1753643333,"current_range_meters":14400,"station_id":"ce4bhr12rcd13ifvqhpg","pricing_plan_id":"cebpf4jnsgd1na2vs0mg"},{"bike_id":"a99f6048-372e-437d-a88b-8cc677d599f3","system_id":"levelo_inurba_marseille","lat":43.29896,"lon":5.43669,"is_reserved":false,"is_disabled":false,"rental_uris":{"android":"levelo://app?vid=a99f6048-372e-437d-a88b-8cc677d599f3","ios":"levelo://app?vid=a99f6048-372e-437d-a88b-8cc677d599f3"},"vehicle_type_id":"4","last_reported":1753643333,"current_range_meters":15200,"station_id":"ce4bhpp2rcd13ifvqhfg","pricing_plan_id":"cebpf4jnsgd1na2vs0mg"},{"bike_id":"87a4d710-c859-4883-a056-db27db09862e","system_id":"levelo_inurba_marseille","lat":43.277585,"lon":5.355971,"is_reserved":false,"is_disabled":false,"rental_uris":{"android":"levelo://app?vid=87a4d710-c859-4883-a056-db27db09862e","ios":"levelo://app?vid=87a4d710-c859-4883-a056-db27db09862e"},"vehicle_type_id":"4","last_reported":1753643333,"current_range_meters":15200,"station_id":"","pricing_plan_id":"cebpf4jnsgd1na2vs0mg"},{"bike_id":"07d3cffa-1b37-446e-b174-2bca63c8eba1","system_id":"levelo_inurba_marseille","lat":43.30424,"lon":5.38887,"is_reserved":false,"is_disabled":false,"rental_uris":{"android":"levelo://app?vid=07d3cffa-1b37-446e-b174-2bca63c8eba1","ios":"levelo://app?vid=07d3cffa-1b37-446e-b174-2bca63c8eba1"},"vehicle_type_id":"4","last_reported":1753643333,"current_range_meters":15200,"station_id":"ce4bgk12rcd13ifvqbi0","pricing_plan_id":"cebpf4jnsgd1na2vs0mg"},{"bike_id":"c63862ec-c54e-4174-9a06-60a4b8e3e9f1","system_id":"levelo_inurba_marseille","lat":43.255032,"lon":5.401229,"is_reserved":false,"is_disabled":false,"rental_uris":{"android":"levelo://app?vid=c63862ec-c54e-4174-9a06-60a4b8e3e9f1","ios":"levelo://app?vid=c63862ec-c54e-4174-9a06-60a4b8e3e9f1"},"vehicle_type_id":"4","last_reported":1753643333,"current_range_meters":15200,"station_id":"ce4bhkp2rcd13ifvqgd0","pricing_plan_id":"cebpf4jnsgd1na2vs0mg"},{"bike_id":"4aca4962-8433-4e72-90ef-32939ad1f7d0","system_id":"levelo_inurba_marseille","lat":43.29032,"lon":5.38639,"is_reserved":false,"is_disabled":false,"rental_uris":{"android":"levelo://app?vid=4aca4962-8433-4e72-90ef-32939ad1f7d0","ios":"levelo://app?vid=4aca4962-8433-4e72-90ef-32939ad1f7d0"},"vehicle_type_id":"4","last_reported":1753643333,"current_range_meters":15200,"station_id":"ce4bh4p2rcd13ifvqe0g","pricing_plan_id":"cebpf4jnsgd1na2vs0mg"},{"bike_id":"79f6ea4b-2bac-44a5-9218-b91dfaab399b","system_id":"levelo_inurba_marseille","lat":43.29523,"lon":5.38538,"is_reserved":false,"is_disabled":false,"rental_uris":{"android":"levelo://app?vid=79f6ea4b-2bac-44a5-9218-b91dfaab399b","ios":"levelo://app?vid=79f6ea4b-2bac-44a5-9218-b91dfaab399b"},"vehicle_type_id":"4","last_reported":1753643333,"current_range_meters":15200,"station_id":"ce4bgih2rcd13ifvqba0","pricing_plan_id":"cebpf4jnsgd1na2vs0mg"},{"bike_id":"2675420e-931f-4f28-b71c-8d75405675a7","system_id":"levelo_inurba_marseille","lat":43.31362,"lon":5.38497,"is_reserved":false,"is_disabled":false,"rental_uris":{"android":"levelo://app?vid=2675420e-931f-4f28-b71c-8d75405675a7","ios":"levelo://app?vid=2675420e-931f-4f28-b71c-8d75405675a7"},"vehicle_type_id":"4","last_reported":1753643333,"current_range_meters":15200,"station_id":"ce4bgt92rcd13ifvqcf0","pricing_plan_id":"cebpf4jnsgd1na2vs0mg"},{"bike_id":"86eac071-6efc-4ee8-b670-208c103c36e8","system_id":"levelo_inurba_marseille","lat":43.3042,"lon":5.41279,"is_reserved":false,"is_disabled":false,"rental_uris":{"android":"levelo://app?vid=86eac071-6efc-4ee8-b670-208c103c36e8","ios":"levelo://app?vid=86eac071-6efc-4ee8-b670-208c103c36e8"},"vehicle_type_id":"4","last_reported":1753643333,"current_range_meters":15200,"station_id":"ce4bhop2rcd13ifvqh8g","pricing_plan_id":"cebpf4jnsgd1na2vs0mg"},{"bike_id":"2edf8151-cb92-46cc-9321-24e397aeed28","system_id":"levelo_inurba_marseille","lat":43.23048,"lon":5.35493,"is_reserved":false,"is_disabled":false,"rental_uris":{"android":"levelo://app?vid=2edf8151-cb92-46cc-9321-24e397aeed28","ios":"levelo://app?vid=2edf8151-cb92-46cc-9321-24e397aeed28"},"vehicle_type_id":"4","last_reported":1753643333,"current_range_meters":16000,"station_id":"cpo3342slgdg3j2ifvpg","pricing_plan_id":"cebpf4jnsgd1na2vs0mg"},{"bike_id":"8b1dab48-6360-4d80-b843-8baee10b4685","system_id":"levelo_inurba_marseille","lat":43.32379,"lon":5.43704,"is_reserved":false,"is_disabled":false,"rental_uris":{"android":"levelo://app?vid=8b1dab48-6360-4d80-b843-8baee10b4685","ios":"levelo://app?vid=8b1dab48-6360-4d80-b843-8baee10b4685"},"vehicle_type_id":"4","last_reported":1753643333,"current_range_meters":16000,"station_id":"ce4bhp92rcd13ifvqhcg","pricing_plan_id":"cebpf4jnsgd1na2vs0mg"},{"bike_id":"b72b594c-e0d6-40cd-a5df-7f8f1f9ff13a","system_id":"levelo_inurba_marseille","lat":43.29526,"lon":5.38547,"is_reserved":false,"is_disabled":false,"rental_uris":{"android":"levelo://app?vid=b72b594c-e0d6-40cd-a5df-7f8f1f9ff13a","ios":"levelo://app?vid=b72b594c-e0d6-40cd-a5df-7f8f1f9ff13a"},"vehicle_type_id":"4","last_reported":1753643333,"current_range_meters":16000,"station_id":"ce4bgih2rcd13ifvqba0","pricing_plan_id":"cebpf4jnsgd1na2vs0mg"},{"bike_id":"dfa4d3b1-8fc2-4d37-823d-1e6c0071a29e","system_id":"levelo_inurba_marseille","lat":43.24168,"lon":5.36394,"is_reserved":false,"is_disabled":false,"rental_uris":{"android":"levelo://app?vid=dfa4d3b1-8fc2-4d37-823d-1e6c0071a29e","ios":"levelo://app?vid=dfa4d3b1-8fc2-4d37-823d-1e6c0071a29e"},"vehicle_type_id":"4","last_reported":1753643333,"current_range_meters":16000,"station_id":"cpo36qri1sfpv3e86is0","pricing_plan_id":"cebpf4jnsgd1na2vs0mg"},{"bike_id":"78a8a8f6-1cbe-48a7-afd7-d8db96ba8c71","system_id":"levelo_inurba_marseille","lat":43.301926,"lon":5.365919,"is_reserved":false,"is_disabled":true,"rental_uris":{"android":"levelo://app?vid=78a8a8f6-1cbe-48a7-afd7-d8db96ba8c71","ios":"levelo://app?vid=78a8a8f6-1cbe-48a7-afd7-d8db96ba8c71"},"vehicle_type_id":"4","last_reported":1753643333,"current_range_meters":16000,"station_id":"ce4bgrh2rcd13ifvqc8g","pricing_plan_id":"cebpf4jnsgd1na2vs0mg"},{"bike_id":"224ff97b-16fe-48f6-9697-a07438dee2db","system_id":"levelo_inurba_marseille","lat":43.298,"lon":5.38092,"is_reserved":false,"is_disabled":false,"rental_uris":{"android":"levelo://app?vid=224ff97b-16fe-48f6-9697-a07438dee2db","ios":"levelo://app?vid=224ff97b-16fe-48f6-9697-a07438dee2db"},"vehicle_type_id":"4","last_reported":1753643333,"current_range_meters":16000,"station_id":"ce4bgip2rcd13ifvqbb0","pricing_plan_id":"cebpf4jnsgd1na2vs0mg"},{"bike_id":"5f3b4fd1-eae6-41fc-8eb7-bc8b29b63214","system_id":"levelo_inurba_marseille","lat":43.3236,"lon":5.3676,"is_reserved":false,"is_disabled":false,"rental_uris":{"android":"levelo://app?vid=5f3b4fd1-eae6-41fc-8eb7-bc8b29b63214","ios":"levelo://app?vid=5f3b4fd1-eae6-41fc-8eb7-bc8b29b63214"},"vehicle_type_id":"4","last_reported":1753643333,"current_range_meters":16000,"station_id":"ce4bhsh2rcd13ifvqi2g","pricing_plan_id":"cebpf4jnsgd1na2vs0mg"},{"bike_id":"21119b74-9092-450b-a780-dc3f5e5aa101","system_id":"levelo_inurba_marseille","lat":43.240836,"lon":5.377465,"is_reserved":false,"is_disabled":false,"rental_uris":{"android":"levelo://app?vid=21119b74-9092-450b-a780-dc3f5e5aa101","ios":"levelo://app?vid=21119b74-9092-450b-a780-dc3f5e5aa101"},"vehicle_type_id":"4","last_reported":1753643333,"current_range_meters":16000,"station_id":"ce4bhnp2rcd13ifvqgvg","pricing_plan_id":"cebpf4jnsgd1na2vs0mg"},{"bike_id":"b30d2e1a-5293-443b-8819-90074cbc1e40","system_id":"levelo_inurba_marseille","lat":43.32351,"lon":5.36748,"is_reserved":false,"is_disabled":false,"rental_uris":{"android":"levelo://app?vid=b30d2e1a-5293-443b-8819-90074cbc1e40","ios":"levelo://app?vid=b30d2e1a-5293-443b-8819-90074cbc1e40"},"vehicle_type_id":"4","last_reported":1753643333,"current_range_meters":16000,"station_id":"ce4bhsh2rcd13ifvqi2g","pricing_plan_id":"cebpf4jnsgd1na2vs0mg"},{"bike_id":"329681ee-4b7c-4b42-a093-9c4985b10282","system_id":"levelo_inurba_marseille","lat":43.28418,"lon":5.34999,"is_reserved":false,"is_disabled":true,"rental_uris":{"android":"levelo://app?vid=329681ee-4b7c-4b42-a093-9c4985b10282","ios":"levelo://app?vid=329681ee-4b7c-4b42-a093-9c4985b10282"},"vehicle_type_id":"4","last_reported":1753643333,"current_range_meters":16000,"station_id":"ce4bhbh2rcd13ifvqepg","pricing_plan_id":"cebpf4jnsgd1na2vs0mg"},{"bike_id":"feb40379-0815-4a68-aadb-305942f11d04","system_id":"levelo_inurba_marseille","lat":43.24949,"lon":5.38998,"is_reserved":false,"is_disabled":false,"rental_uris":{"android":"levelo://app?vid=feb40379-0815-4a68-aadb-305942f11d04","ios":"levelo://app?vid=feb40379-0815-4a68-aadb-305942f11d04"},"vehicle_type_id":"4","last_reported":1753643333,"current_range_meters":16000,"station_id":"","pricing_plan_id":"cebpf4jnsgd1na2vs0mg"},{"bike_id":"4da5b697-8ed7-41a6-b571-36a99f078244","system_id":"levelo_inurba_marseille","lat":43.303279,"lon":5.404421,"is_reserved":false,"is_disabled":false,"rental_uris":{"android":"levelo://app?vid=4da5b697-8ed7-41a6-b571-36a99f078244","ios":"levelo://app?vid=4da5b697-8ed7-41a6-b571-36a99f078244"},"vehicle_type_id":"4","last_reported":1753643333,"current_range_meters":15200,"station_id":"ce4bh012rcd13ifvqd10","pricing_plan_id":"cebpf4jnsgd1na2vs0mg"},{"bike_id":"b2e80c2c-cca4-43c9-b626-e46bbf2de62d","system_id":"levelo_inurba_marseille","lat":43.28418,"lon":5.34986,"is_reserved":false,"is_disabled":false,"rental_uris":{"android":"levelo://app?vid=b2e80c2c-cca4-43c9-b626-e46bbf2de62d","ios":"levelo://app?vid=b2e80c2c-cca4-43c9-b626-e46bbf2de62d"},"vehicle_type_id":"4","last_reported":1753643333,"current_range_meters":16000,"station_id":"ce4bhbh2rcd13ifvqepg","pricing_plan_id":"cebpf4jnsgd1na2vs0mg"},{"bike_id":"cee55ad0-56fd-4ee4-9dfe-cbd4482ac405","system_id":"levelo_inurba_marseille","lat":43.29692,"lon":5.37303,"is_reserved":false,"is_disabled":false,"rental_uris":{"android":"levelo://app?vid=cee55ad0-56fd-4ee4-9dfe-cbd4482ac405","ios":"levelo://app?vid=cee55ad0-56fd-4ee4-9dfe-cbd4482ac405"},"vehicle_type_id":"4","last_reported":1753643333,"current_range_meters":16400,"station_id":"ce4bgk12rcd13ifvqbj0","pricing_plan_id":"cebpf4jnsgd1na2vs0mg"},{"bike_id":"3e02d1f0-0222-4858-946c-ee2ac9060ae6","system_id":"levelo_inurba_marseille","lat":43.28153,"lon":5.42635,"is_reserved":false,"is_disabled":false,"rental_uris":{"android":"levelo://app?vid=3e02d1f0-0222-4858-946c-ee2ac9060ae6","ios":"levelo://app?vid=3e02d1f0-0222-4858-946c-ee2ac9060ae6"},"vehicle_type_id":"4","last_reported":1753643333,"current_range_meters":16400,"station_id":"ce4bhnh2rcd13ifvqgug","pricing_plan_id":"cebpf4jnsgd1na2vs0mg"},{"bike_id":"f268ccaa-2458-4d18-b114-0f155810fa39","system_id":"levelo_inurba_marseille","lat":43.29527,"lon":5.38536,"is_reserved":false,"is_disabled":false,"rental_uris":{"android":"levelo://app?vid=f268ccaa-2458-4d18-b114-0f155810fa39","ios":"levelo://app?vid=f268ccaa-2458-4d18-b114-0f155810fa39"},"vehicle_type_id":"4","last_reported":1753643333,"current_range_meters":16400,"station_id":"ce4bgih2rcd13ifvqba0","pricing_plan_id":"cebpf4jnsgd1na2vs0mg"},{"bike_id":"61f03b96-eba5-4b16-b393-41a82afa26e7","system_id":"levelo_inurba_marseille","lat":43.2973,"lon":5.37693,"is_reserved":false,"is_disabled":true,"rental_uris":{"android":"levelo://app?vid=61f03b96-eba5-4b16-b393-41a82afa26e7","ios":"levelo://app?vid=61f03b96-eba5-4b16-b393-41a82afa26e7"},"vehicle_type_id":"4","last_reported":1753643333,"current_range_meters":16400,"station_id":"ce4bgkh2rcd13ifvqbl0","pricing_plan_id":"cebpf4jnsgd1na2vs0mg"},{"bike_id":"c7cf243a-7c39-4dde-b215-d7ee8c6b7e48","system_id":"levelo_inurba_marseille","lat":43.31768,"lon":5.40416,"is_reserved":false,"is_disabled":false,"rental_uris":{"android":"levelo://app?vid=c7cf243a-7c39-4dde-b215-d7ee8c6b7e48","ios":"levelo://app?vid=c7cf243a-7c39-4dde-b215-d7ee8c6b7e48"},"vehicle_type_id":"4","last_reported":1753643333,"current_range_meters":16400,"station_id":"ce4bh012rcd13ifvqd00","pricing_plan_id":"cebpf4jnsgd1na2vs0mg"},{"bike_id":"fa89c84e-fc7b-4100-b21d-6043be82dee0","system_id":"levelo_inurba_marseille","lat":43.2861,"lon":5.35101,"is_reserved":false,"is_disabled":false,"rental_uris":{"android":"levelo://app?vid=fa89c84e-fc7b-4100-b21d-6043be82dee0","ios":"levelo://app?vid=fa89c84e-fc7b-4100-b21d-6043be82dee0"},"vehicle_type_id":"4","last_reported":1753643333,"current_range_meters":16400,"station_id":"ce4bhch2rcd13ifvqeug","pricing_plan_id":"cebpf4jnsgd1na2vs0mg"},{"bike_id":"b1ce726d-f66e-4a21-9e58-bcc99e079d39","system_id":"levelo_inurba_marseille","lat":43.276,"lon":5.36118,"is_reserved":false,"is_disabled":false,"rental_uris":{"android":"levelo://app?vid=b1ce726d-f66e-4a21-9e58-bcc99e079d39","ios":"levelo://app?vid=b1ce726d-f66e-4a21-9e58-bcc99e079d39"},"vehicle_type_id":"4","last_reported":1753643333,"current_range_meters":16400,"station_id":"ce4bgj92rcd13ifvqbe0","pricing_plan_id":"cebpf4jnsgd1na2vs0mg"},{"bike_id":"098b018e-2607-4af2-bc10-8758893e88ea","system_id":"levelo_inurba_marseille","lat":43.24051,"lon":5.37756,"is_reserved":false,"is_disabled":false,"rental_uris":{"android":"levelo://app?vid=098b018e-2607-4af2-bc10-8758893e88ea","ios":"levelo://app?vid=098b018e-2607-4af2-bc10-8758893e88ea"},"vehicle_type_id":"4","last_reported":1753643333,"current_range_meters":16400,"station_id":"ce4bhnp2rcd13ifvqgvg","pricing_plan_id":"cebpf4jnsgd1na2vs0mg"},{"bike_id":"947cf9dd-0905-42a3-aafb-8e1c05b7ea7a","system_id":"levelo_inurba_marseille","lat":43.3082,"lon":5.38198,"is_reserved":false,"is_disabled":false,"rental_uris":{"android":"levelo://app?vid=947cf9dd-0905-42a3-aafb-8e1c05b7ea7a","ios":"levelo://app?vid=947cf9dd-0905-42a3-aafb-8e1c05b7ea7a"},"vehicle_type_id":"4","last_reported":1753643333,"current_range_meters":16400,"station_id":"ce4bgt12rcd13ifvqce0","pricing_plan_id":"cebpf4jnsgd1na2vs0mg"},{"bike_id":"79a87b8d-8027-4f4c-a9ac-fd13f921b67d","system_id":"levelo_inurba_marseille","lat":43.24653,"lon":5.38895,"is_reserved":false,"is_disabled":false,"rental_uris":{"android":"levelo://app?vid=79a87b8d-8027-4f4c-a9ac-fd13f921b67d","ios":"levelo://app?vid=79a87b8d-8027-4f4c-a9ac-fd13f921b67d"},"vehicle_type_id":"4","last_reported":1753643333,"current_range_meters":16400,"station_id":"ce4bhg12rcd13ifvqf60","pricing_plan_id":"cebpf4jnsgd1na2vs0mg"},{"bike_id":"209c73e6-1f69-4d13-9fed-77cb46eecd05","system_id":"levelo_inurba_marseille","lat":43.34681,"lon":5.38065,"is_reserved":false,"is_disabled":false,"rental_uris":{"android":"levelo://app?vid=209c73e6-1f69-4d13-9fed-77cb46eecd05","ios":"levelo://app?vid=209c73e6-1f69-4d13-9fed-77cb46eecd05"},"vehicle_type_id":"4","last_reported":1753643333,"current_range_meters":16400,"station_id":"","pricing_plan_id":"cebpf4jnsgd1na2vs0mg"},{"bike_id":"973c1e37-1f79-4ab1-8d8f-e1af10663c11","system_id":"levelo_inurba_marseille","lat":43.29776,"lon":5.38085,"is_reserved":false,"is_disabled":false,"rental_uris":{"android":"levelo://app?vid=973c1e37-1f79-4ab1-8d8f-e1af10663c11","ios":"levelo://app?vid=973c1e37-1f79-4ab1-8d8f-e1af10663c11"},"vehicle_type_id":"4","last_reported":1753643333,"current_range_meters":16800,"station_id":"ce4bgip2rcd13ifvqbb0","pricing_plan_id":"cebpf4jnsgd1na2vs0mg"},{"bike_id":"da049fac-3e24-435e-a3f7-f4b220c2f063","system_id":"levelo_inurba_marseille","lat":43.28935,"lon":5.36639,"is_reserved":false,"is_disabled":false,"rental_uris":{"android":"levelo://app?vid=da049fac-3e24-435e-a3f7-f4b220c2f063","ios":"levelo://app?vid=da049fac-3e24-435e-a3f7-f4b220c2f063"},"vehicle_type_id":"4","last_reported":1753643333,"current_range_meters":16800,"station_id":"ce4bhap2rcd13ifvqek0","pricing_plan_id":"cebpf4jnsgd1na2vs0mg"},{"bike_id":"4d183f5b-2de5-4832-836a-ad19975cd48c","system_id":"levelo_inurba_marseille","lat":43.31988,"lon":5.38165,"is_reserved":false,"is_disabled":false,"rental_uris":{"android":"levelo://app?vid=4d183f5b-2de5-4832-836a-ad19975cd48c","ios":"levelo://app?vid=4d183f5b-2de5-4832-836a-ad19975cd48c"},"vehicle_type_id":"4","last_reported":1753643333,"current_range_meters":16800,"station_id":"ce4bhr12rcd13ifvqhpg","pricing_plan_id":"cebpf4jnsgd1na2vs0mg"},{"bike_id":"d55488e5-f756-4071-b124-c7dad80db2be","system_id":"levelo_inurba_marseille","lat":43.29543,"lon":5.3852,"is_reserved":false,"is_disabled":false,"rental_uris":{"android":"levelo://app?vid=d55488e5-f756-4071-b124-c7dad80db2be","ios":"levelo://app?vid=d55488e5-f756-4071-b124-c7dad80db2be"},"vehicle_type_id":"4","last_reported":1753643333,"current_range_meters":16800,"station_id":"ce4bgih2rcd13ifvqba0","pricing_plan_id":"cebpf4jnsgd1na2vs0mg"},{"bike_id":"95dd70e4-879c-49e7-b318-a6c71b22a43e","system_id":"levelo_inurba_marseille","lat":43.2703,"lon":5.39295,"is_reserved":false,"is_disabled":false,"rental_uris":{"android":"levelo://app?vid=95dd70e4-879c-49e7-b318-a6c71b22a43e","ios":"levelo://app?vid=95dd70e4-879c-49e7-b318-a6c71b22a43e"},"vehicle_type_id":"4","last_reported":1753643333,"current_range_meters":16800,"station_id":"","pricing_plan_id":"cebpf4jnsgd1na2vs0mg"},{"bike_id":"baa049fa-c3e2-4c1a-8082-0c6c10cd9a92","system_id":"levelo_inurba_marseille","lat":43.23031,"lon":5.35518,"is_reserved":false,"is_disabled":false,"rental_uris":{"android":"levelo://app?vid=baa049fa-c3e2-4c1a-8082-0c6c10cd9a92","ios":"levelo://app?vid=baa049fa-c3e2-4c1a-8082-0c6c10cd9a92"},"vehicle_type_id":"4","last_reported":1753643333,"current_range_meters":16800,"station_id":"cpo3342slgdg3j2ifvpg","pricing_plan_id":"cebpf4jnsgd1na2vs0mg"},{"bike_id":"363860ed-6d0c-40e8-91e3-2c5053026ca7","system_id":"levelo_inurba_marseille","lat":43.22927,"lon":5.3537,"is_reserved":false,"is_disabled":false,"rental_uris":{"android":"levelo://app?vid=363860ed-6d0c-40e8-91e3-2c5053026ca7","ios":"levelo://app?vid=363860ed-6d0c-40e8-91e3-2c5053026ca7"},"vehicle_type_id":"4","last_reported":1753643333,"current_range_meters":16800,"station_id":"cpo3532slgdg3j2ikp40","pricing_plan_id":"cebpf4jnsgd1na2vs0mg"},{"bike_id":"536dd0a6-7f1b-40ed-af5a-c920c69aac4b","system_id":"levelo_inurba_marseille","lat":43.27632,"lon":5.36092,"is_reserved":false,"is_disabled":false,"rental_uris":{"android":"levelo://app?vid=536dd0a6-7f1b-40ed-af5a-c920c69aac4b","ios":"levelo://app?vid=536dd0a6-7f1b-40ed-af5a-c920c69aac4b"},"vehicle_type_id":"4","last_reported":1753643333,"current_range_meters":16800,"station_id":"ce4bgj92rcd13ifvqbe0","pricing_plan_id":"cebpf4jnsgd1na2vs0mg"},{"bike_id":"149fbe11-3bce-47a0-b584-c7c7bd6bb12f","system_id":"levelo_inurba_marseille","lat":43.21598,"lon":5.34438,"is_reserved":false,"is_disabled":false,"rental_uris":{"android":"levelo://app?vid=149fbe11-3bce-47a0-b584-c7c7bd6bb12f","ios":"levelo://app?vid=149fbe11-3bce-47a0-b584-c7c7bd6bb12f"},"vehicle_type_id":"4","last_reported":1753643333,"current_range_meters":16800,"station_id":"","pricing_plan_id":"cebpf4jnsgd1na2vs0mg"},{"bike_id":"6238abb3-baac-4bb2-91fc-857b53675b1d","system_id":"levelo_inurba_marseille","lat":43.2938,"lon":5.37839,"is_reserved":false,"is_disabled":true,"rental_uris":{"android":"levelo://app?vid=6238abb3-baac-4bb2-91fc-857b53675b1d","ios":"levelo://app?vid=6238abb3-baac-4bb2-91fc-857b53675b1d"},