{"last_updated":1781624158,"ttl":60,"version":"2.2","data":{"bikes":[{"bike_id":"a15dd3fd-a54e-4add-a3c0-b20a9760fd44","system_id":"levelo_inurba_marseille","lat":43.337444,"lon":5.374475,"is_reserved":false,"is_disabled":false,"rental_uris":{"android":"levelo://app?vid=a15dd3fd-a54e-4add-a3c0-b20a9760fd44","ios":"levelo://app?vid=a15dd3fd-a54e-4add-a3c0-b20a9760fd44"},"vehicle_type_id":"4","last_reported":1781624160,"current_range_meters":0,"station_id":"","pricing_plan_id":"cebpf4jnsgd1na2vs0mg"},{"bike_id":"848730fd-c616-4f21-9332-f2f26a6289b8","system_id":"levelo_inurba_marseille","lat":43.284157,"lon":5.349815,"is_reserved":false,"is_disabled":false,"rental_uris":{"android":"levelo://app?vid=848730fd-c616-4f21-9332-f2f26a6289b8","ios":"levelo://app?vid=848730fd-c616-4f21-9332-f2f26a6289b8"},"vehicle_type_id":"4","last_reported":1781624160,"current_range_meters":2800,"station_id":"ce4bhbh2rcd13ifvqepg","pricing_plan_id":"cebpf4jnsgd1na2vs0mg"},{"bike_id":"96d267e3-9f56-4dba-8ec6-37338f9f11ce","system_id":"levelo_inurba_marseille","lat":43.32498,"lon":5.38264,"is_reserved":false,"is_disabled":false,"rental_uris":{"android":"levelo://app?vid=96d267e3-9f56-4dba-8ec6-37338f9f11ce","ios":"levelo://app?vid=96d267e3-9f56-4dba-8ec6-37338f9f11ce"},"vehicle_type_id":"4","last_reported":1781624160,"current_range_meters":2800,"station_id":"st_d4asgbiv49dc73anf9m0","pricing_plan_id":"cebpf4jnsgd1na2vs0mg"},{"bike_id":"d7301e94-0c6e-47a2-8f94-141fcb0c53c6","system_id":"levelo_inurba_marseille","lat":43.24575,"lon":5.41627,"is_reserved":false,"is_disabled":false,"rental_uris":{"android":"levelo://app?vid=d7301e94-0c6e-47a2-8f94-141fcb0c53c6","ios":"levelo://app?vid=d7301e94-0c6e-47a2-8f94-141fcb0c53c6"},"vehicle_type_id":"4","last_reported":1781624160,"current_range_meters":2800,"station_id":"","pricing_plan_id":"cebpf4jnsgd1na2vs0mg"},{"bike_id":"8e8a9572-e95f-4d8a-a991-7ef30ec38b5b","system_id":"levelo_inurba_marseille","lat":43.29789,"lon":5.40423,"is_reserved":false,"is_disabled":false,"rental_uris":{"android":"levelo://app?vid=8e8a9572-e95f-4d8a-a991-7ef30ec38b5b","ios":"levelo://app?vid=8e8a9572-e95f-4d8a-a991-7ef30ec38b5b"},"vehicle_type_id":"4","last_reported":1781624160,"current_range_meters":2800,"station_id":"ce4bh112rcd13ifvqd90","pricing_plan_id":"cebpf4jnsgd1na2vs0mg"},{"bike_id":"9e2588b3-5964-49a5-b039-4d9a5c9c4878","system_id":"levelo_inurba_marseille","lat":43.30159,"lon":5.38064,"is_reserved":false,"is_disabled":false,"rental_uris":{"android":"levelo://app?vid=9e2588b3-5964-49a5-b039-4d9a5c9c4878","ios":"levelo://app?vid=9e2588b3-5964-49a5-b039-4d9a5c9c4878"},"vehicle_type_id":"4","last_reported":1781624160,"current_range_meters":2800,"station_id":"ce4bgjp2rcd13ifvqbh0","pricing_plan_id":"cebpf4jnsgd1na2vs0mg"},{"bike_id":"333e45f1-ae44-4dad-b653-05e79b2309db","system_id":"levelo_inurba_marseille","lat":43.27948,"lon":5.410462,"is_reserved":false,"is_disabled":false,"rental_uris":{"android":"levelo://app?vid=333e45f1-ae44-4dad-b653-05e79b2309db","ios":"levelo://app?vid=333e45f1-ae44-4dad-b653-05e79b2309db"},"vehicle_type_id":"4","last_reported":1781624160,"current_range_meters":2800,"station_id":"ce4bhnp2rcd13ifvqh0g","pricing_plan_id":"cebpf4jnsgd1na2vs0mg"},{"bike_id":"1d5f3f99-712a-4d30-8090-1691c5124cd7","system_id":"levelo_inurba_marseille","lat":43.30446,"lon":5.3889,"is_reserved":false,"is_disabled":false,"rental_uris":{"android":"levelo://app?vid=1d5f3f99-712a-4d30-8090-1691c5124cd7","ios":"levelo://app?vid=1d5f3f99-712a-4d30-8090-1691c5124cd7"},"vehicle_type_id":"4","last_reported":1781624160,"current_range_meters":2800,"station_id":"","pricing_plan_id":"cebpf4jnsgd1na2vs0mg"},{"bike_id":"e61902e3-5caf-4f85-8eb8-65fd858fc4b0","system_id":"levelo_inurba_marseille","lat":43.28088,"lon":5.35309,"is_reserved":false,"is_disabled":true,"rental_uris":{"android":"levelo://app?vid=e61902e3-5caf-4f85-8eb8-65fd858fc4b0","ios":"levelo://app?vid=e61902e3-5caf-4f85-8eb8-65fd858fc4b0"},"vehicle_type_id":"4","last_reported":1781624160,"current_range_meters":2800,"station_id":"","pricing_plan_id":"cebpf4jnsgd1na2vs0mg"},{"bike_id":"5f132df8-313c-45fa-a698-f26014a392de","system_id":"levelo_inurba_marseille","lat":43.2962,"lon":5.40606,"is_reserved":false,"is_disabled":false,"rental_uris":{"android":"levelo://app?vid=5f132df8-313c-45fa-a698-f26014a392de","ios":"levelo://app?vid=5f132df8-313c-45fa-a698-f26014a392de"},"vehicle_type_id":"4","last_reported":1781624160,"current_range_meters":2800,"station_id":"ce4bh0h2rcd13ifvqd60","pricing_plan_id":"cebpf4jnsgd1na2vs0mg"},{"bike_id":"46c04dc8-7f18-468a-8da7-51e4c4f5e573","system_id":"levelo_inurba_marseille","lat":43.284857,"lon":5.38419,"is_reserved":false,"is_disabled":true,"rental_uris":{"android":"levelo://app?vid=46c04dc8-7f18-468a-8da7-51e4c4f5e573","ios":"levelo://app?vid=46c04dc8-7f18-468a-8da7-51e4c4f5e573"},"vehicle_type_id":"4","last_reported":1781624160,"current_range_meters":2800,"station_id":"ce4bh512rcd13ifvqe3g","pricing_plan_id":"cebpf4jnsgd1na2vs0mg"},{"bike_id":"980a38b9-9a91-4ca6-a5e0-fe9ec8066f54","system_id":"levelo_inurba_marseille","lat":43.26779,"lon":5.3843,"is_reserved":false,"is_disabled":false,"rental_uris":{"android":"levelo://app?vid=980a38b9-9a91-4ca6-a5e0-fe9ec8066f54","ios":"levelo://app?vid=980a38b9-9a91-4ca6-a5e0-fe9ec8066f54"},"vehicle_type_id":"4","last_reported":1781624160,"current_range_meters":2800,"station_id":"","pricing_plan_id":"cebpf4jnsgd1na2vs0mg"},{"bike_id":"2f0aa55c-a151-4e93-b0f2-5dea1ee62685","system_id":"levelo_inurba_marseille","lat":43.29558,"lon":5.42295,"is_reserved":false,"is_disabled":false,"rental_uris":{"android":"levelo://app?vid=2f0aa55c-a151-4e93-b0f2-5dea1ee62685","ios":"levelo://app?vid=2f0aa55c-a151-4e93-b0f2-5dea1ee62685"},"vehicle_type_id":"4","last_reported":1781624160,"current_range_meters":2800,"station_id":"ce4bhph2rcd13ifvqhdg","pricing_plan_id":"cebpf4jnsgd1na2vs0mg"},{"bike_id":"c5ee4257-f7af-4b5a-a949-8289e68487cd","system_id":"levelo_inurba_marseille","lat":43.28374,"lon":5.45997,"is_reserved":false,"is_disabled":false,"rental_uris":{"android":"levelo://app?vid=c5ee4257-f7af-4b5a-a949-8289e68487cd","ios":"levelo://app?vid=c5ee4257-f7af-4b5a-a949-8289e68487cd"},"vehicle_type_id":"4","last_reported":1781624160,"current_range_meters":2800,"station_id":"","pricing_plan_id":"cebpf4jnsgd1na2vs0mg"},{"bike_id":"a32c4a18-0f8f-40ed-aab4-a8e7a198abcb","system_id":"levelo_inurba_marseille","lat":43.28592,"lon":5.39917,"is_reserved":false,"is_disabled":true,"rental_uris":{"android":"levelo://app?vid=a32c4a18-0f8f-40ed-aab4-a8e7a198abcb","ios":"levelo://app?vid=a32c4a18-0f8f-40ed-aab4-a8e7a198abcb"},"vehicle_type_id":"4","last_reported":1781624160,"current_range_meters":2800,"station_id":"st_d4a7ka997mjs738ck50g","pricing_plan_id":"cebpf4jnsgd1na2vs0mg"},{"bike_id":"9d78efe0-b47a-4879-93f1-3616b855d760","system_id":"levelo_inurba_marseille","lat":43.29239,"lon":5.40172,"is_reserved":false,"is_disabled":false,"rental_uris":{"android":"levelo://app?vid=9d78efe0-b47a-4879-93f1-3616b855d760","ios":"levelo://app?vid=9d78efe0-b47a-4879-93f1-3616b855d760"},"vehicle_type_id":"4","last_reported":1781624160,"current_range_meters":2800,"station_id":"ce4bh312rcd13ifvqdk0","pricing_plan_id":"cebpf4jnsgd1na2vs0mg"},{"bike_id":"0f856163-a9db-45fb-be49-872c6db9182a","system_id":"levelo_inurba_marseille","lat":43.29793,"lon":5.38068,"is_reserved":false,"is_disabled":false,"rental_uris":{"android":"levelo://app?vid=0f856163-a9db-45fb-be49-872c6db9182a","ios":"levelo://app?vid=0f856163-a9db-45fb-be49-872c6db9182a"},"vehicle_type_id":"4","last_reported":1781624160,"current_range_meters":2800,"station_id":"ce4bgip2rcd13ifvqbb0","pricing_plan_id":"cebpf4jnsgd1na2vs0mg"},{"bike_id":"8fcff073-6886-426e-a7e4-4d52b3d5e9a9","system_id":"levelo_inurba_marseille","lat":43.33385,"lon":5.41049,"is_reserved":false,"is_disabled":false,"rental_uris":{"android":"levelo://app?vid=8fcff073-6886-426e-a7e4-4d52b3d5e9a9","ios":"levelo://app?vid=8fcff073-6886-426e-a7e4-4d52b3d5e9a9"},"vehicle_type_id":"4","last_reported":1781624160,"current_range_meters":2800,"station_id":"","pricing_plan_id":"cebpf4jnsgd1na2vs0mg"},{"bike_id":"87a56ddb-4ca1-4c09-9c8e-11ae22c38cce","system_id":"levelo_inurba_marseille","lat":43.2738,"lon":5.36255,"is_reserved":false,"is_disabled":false,"rental_uris":{"android":"levelo://app?vid=87a56ddb-4ca1-4c09-9c8e-11ae22c38cce","ios":"levelo://app?vid=87a56ddb-4ca1-4c09-9c8e-11ae22c38cce"},"vehicle_type_id":"4","last_reported":1781624160,"current_range_meters":2800,"station_id":"ce4bhbh2rcd13ifvqeo0","pricing_plan_id":"cebpf4jnsgd1na2vs0mg"},{"bike_id":"766eb082-22a4-4364-8c3b-472e7fd67c83","system_id":"levelo_inurba_marseille","lat":43.299287,"lon":5.373787,"is_reserved":false,"is_disabled":false,"rental_uris":{"android":"levelo://app?vid=766eb082-22a4-4364-8c3b-472e7fd67c83","ios":"levelo://app?vid=766eb082-22a4-4364-8c3b-472e7fd67c83"},"vehicle_type_id":"4","last_reported":1781624160,"current_range_meters":2800,"station_id":"ce4bgrh2rcd13ifvqc8g","pricing_plan_id":"cebpf4jnsgd1na2vs0mg"},{"bike_id":"6870c87b-a1cf-4519-8671-4b8cb055cd3f","system_id":"levelo_inurba_marseille","lat":43.2816,"lon":5.42634,"is_reserved":false,"is_disabled":false,"rental_uris":{"android":"levelo://app?vid=6870c87b-a1cf-4519-8671-4b8cb055cd3f","ios":"levelo://app?vid=6870c87b-a1cf-4519-8671-4b8cb055cd3f"},"vehicle_type_id":"4","last_reported":1781624160,"current_range_meters":2800,"station_id":"ce4bhnh2rcd13ifvqgug","pricing_plan_id":"cebpf4jnsgd1na2vs0mg"},{"bike_id":"bf1f71b5-5669-4130-97fc-53563c4e9fa6","system_id":"levelo_inurba_marseille","lat":43.27912,"lon":5.39575,"is_reserved":false,"is_disabled":false,"rental_uris":{"android":"levelo://app?vid=bf1f71b5-5669-4130-97fc-53563c4e9fa6","ios":"levelo://app?vid=bf1f71b5-5669-4130-97fc-53563c4e9fa6"},"vehicle_type_id":"4","last_reported":1781624160,"current_range_meters":2800,"station_id":"ce4bhf92rcd13ifvqf40","pricing_plan_id":"cebpf4jnsgd1na2vs0mg"},{"bike_id":"6aa6b80d-69be-4dd6-8465-0ae4284706f5","system_id":"levelo_inurba_marseille","lat":43.29256,"lon":5.38024,"is_reserved":false,"is_disabled":false,"rental_uris":{"android":"levelo://app?vid=6aa6b80d-69be-4dd6-8465-0ae4284706f5","ios":"levelo://app?vid=6aa6b80d-69be-4dd6-8465-0ae4284706f5"},"vehicle_type_id":"4","last_reported":1781624160,"current_range_meters":2800,"station_id":"","pricing_plan_id":"cebpf4jnsgd1na2vs0mg"},{"bike_id":"93d8871d-fa42-4a51-bbf8-2fc51b8851e6","system_id":"levelo_inurba_marseille","lat":43.282591,"lon":5.350648,"is_reserved":false,"is_disabled":false,"rental_uris":{"android":"levelo://app?vid=93d8871d-fa42-4a51-bbf8-2fc51b8851e6","ios":"levelo://app?vid=93d8871d-fa42-4a51-bbf8-2fc51b8851e6"},"vehicle_type_id":"4","last_reported":1781624160,"current_range_meters":2800,"station_id":"ce4bhbp2rcd13ifvqerg","pricing_plan_id":"cebpf4jnsgd1na2vs0mg"},{"bike_id":"029d1634-9c16-494e-9643-a6f90891bb95","system_id":"levelo_inurba_marseille","lat":43.26929,"lon":5.38924,"is_reserved":false,"is_disabled":false,"rental_uris":{"android":"levelo://app?vid=029d1634-9c16-494e-9643-a6f90891bb95","ios":"levelo://app?vid=029d1634-9c16-494e-9643-a6f90891bb95"},"vehicle_type_id":"4","last_reported":1781624160,"current_range_meters":2800,"station_id":"ce4bhhh2rcd13ifvqfl0","pricing_plan_id":"cebpf4jnsgd1na2vs0mg"},{"bike_id":"1a958232-cb79-4b53-91a1-818be5af4b26","system_id":"levelo_inurba_marseille","lat":43.22565,"lon":5.41626,"is_reserved":false,"is_disabled":false,"rental_uris":{"android":"levelo://app?vid=1a958232-cb79-4b53-91a1-818be5af4b26","ios":"levelo://app?vid=1a958232-cb79-4b53-91a1-818be5af4b26"},"vehicle_type_id":"4","last_reported":1781624160,"current_range_meters":3200,"station_id":"st_d2o4gvlbi1j2169b742g","pricing_plan_id":"cebpf4jnsgd1na2vs0mg"},{"bike_id":"780aad59-4d6d-4bb5-a0f0-2d87cc474829","system_id":"levelo_inurba_marseille","lat":43.291932,"lon":5.393154,"is_reserved":false,"is_disabled":false,"rental_uris":{"android":"levelo://app?vid=780aad59-4d6d-4bb5-a0f0-2d87cc474829","ios":"levelo://app?vid=780aad59-4d6d-4bb5-a0f0-2d87cc474829"},"vehicle_type_id":"4","last_reported":1781624160,"current_range_meters":3200,"station_id":"ce4bh192rcd13ifvqdd0","pricing_plan_id":"cebpf4jnsgd1na2vs0mg"},{"bike_id":"48686ea1-1f82-489d-ad30-fd2f21349580","system_id":"levelo_inurba_marseille","lat":43.337533,"lon":5.374474,"is_reserved":false,"is_disabled":false,"rental_uris":{"android":"levelo://app?vid=48686ea1-1f82-489d-ad30-fd2f21349580","ios":"levelo://app?vid=48686ea1-1f82-489d-ad30-fd2f21349580"},"vehicle_type_id":"4","last_reported":1781624160,"current_range_meters":3200,"station_id":"","pricing_plan_id":"cebpf4jnsgd1na2vs0mg"},{"bike_id":"27b673d3-bbfe-41e3-8fe8-9e18e21739be","system_id":"levelo_inurba_marseille","lat":43.28483,"lon":5.48392,"is_reserved":false,"is_disabled":false,"rental_uris":{"android":"levelo://app?vid=27b673d3-bbfe-41e3-8fe8-9e18e21739be","ios":"levelo://app?vid=27b673d3-bbfe-41e3-8fe8-9e18e21739be"},"vehicle_type_id":"4","last_reported":1781624160,"current_range_meters":3200,"station_id":"st_d3svhcjqgbts73a3dn0g","pricing_plan_id":"cebpf4jnsgd1na2vs0mg"},{"bike_id":"656eaf13-f35d-4ca9-9754-ab4862a11444","system_id":"levelo_inurba_marseille","lat":43.30326,"lon":5.40437,"is_reserved":false,"is_disabled":false,"rental_uris":{"android":"levelo://app?vid=656eaf13-f35d-4ca9-9754-ab4862a11444","ios":"levelo://app?vid=656eaf13-f35d-4ca9-9754-ab4862a11444"},"vehicle_type_id":"4","last_reported":1781624160,"current_range_meters":3200,"station_id":"ce4bh012rcd13ifvqd10","pricing_plan_id":"cebpf4jnsgd1na2vs0mg"},{"bike_id":"270cf2d2-4c8d-4fd6-98e0-7d5837c37284","system_id":"levelo_inurba_marseille","lat":43.218,"lon":5.34589,"is_reserved":false,"is_disabled":true,"rental_uris":{"android":"levelo://app?vid=270cf2d2-4c8d-4fd6-98e0-7d5837c37284","ios":"levelo://app?vid=270cf2d2-4c8d-4fd6-98e0-7d5837c37284"},"vehicle_type_id":"4","last_reported":1781624160,"current_range_meters":3200,"station_id":"","pricing_plan_id":"cebpf4jnsgd1na2vs0mg"},{"bike_id":"aeee5567-cd54-4d88-9d99-fc1883851d0e","system_id":"levelo_inurba_marseille","lat":43.32489,"lon":5.383,"is_reserved":false,"is_disabled":false,"rental_uris":{"android":"levelo://app?vid=aeee5567-cd54-4d88-9d99-fc1883851d0e","ios":"levelo://app?vid=aeee5567-cd54-4d88-9d99-fc1883851d0e"},"vehicle_type_id":"4","last_reported":1781624160,"current_range_meters":3200,"station_id":"st_d4asgbiv49dc73anf9m0","pricing_plan_id":"cebpf4jnsgd1na2vs0mg"},{"bike_id":"42570adb-e783-4566-a45a-889e0373e1da","system_id":"levelo_inurba_marseille","lat":43.27972,"lon":5.38689,"is_reserved":false,"is_disabled":true,"rental_uris":{"android":"levelo://app?vid=42570adb-e783-4566-a45a-889e0373e1da","ios":"levelo://app?vid=42570adb-e783-4566-a45a-889e0373e1da"},"vehicle_type_id":"4","last_reported":1781624160,"current_range_meters":3200,"station_id":"ce4bhg12rcd13ifvqf80","pricing_plan_id":"cebpf4jnsgd1na2vs0mg"},{"bike_id":"7f821429-926c-4d3d-839a-7379d954fc27","system_id":"levelo_inurba_marseille","lat":43.32128,"lon":5.36779,"is_reserved":false,"is_disabled":false,"rental_uris":{"android":"levelo://app?vid=7f821429-926c-4d3d-839a-7379d954fc27","ios":"levelo://app?vid=7f821429-926c-4d3d-839a-7379d954fc27"},"vehicle_type_id":"4","last_reported":1781624160,"current_range_meters":3200,"station_id":"ce4bhrh2rcd13ifvqhug","pricing_plan_id":"cebpf4jnsgd1na2vs0mg"},{"bike_id":"fa541b92-8ad3-4289-80a2-67af458828c6","system_id":"levelo_inurba_marseille","lat":43.2868,"lon":5.46907,"is_reserved":false,"is_disabled":false,"rental_uris":{"android":"levelo://app?vid=fa541b92-8ad3-4289-80a2-67af458828c6","ios":"levelo://app?vid=fa541b92-8ad3-4289-80a2-67af458828c6"},"vehicle_type_id":"4","last_reported":1781624160,"current_range_meters":3200,"station_id":"","pricing_plan_id":"cebpf4jnsgd1na2vs0mg"},{"bike_id":"25a6c1c0-9277-43bb-bc79-937952f83bec","system_id":"levelo_inurba_marseille","lat":43.31325,"lon":5.39701,"is_reserved":false,"is_disabled":false,"rental_uris":{"android":"levelo://app?vid=25a6c1c0-9277-43bb-bc79-937952f83bec","ios":"levelo://app?vid=25a6c1c0-9277-43bb-bc79-937952f83bec"},"vehicle_type_id":"4","last_reported":1781624160,"current_range_meters":3200,"station_id":"ce4bgvp2rcd13ifvqcu0","pricing_plan_id":"cebpf4jnsgd1na2vs0mg"},{"bike_id":"900d9a85-643c-4942-8c6f-cb299778f9c6","system_id":"levelo_inurba_marseille","lat":43.295319,"lon":5.394012,"is_reserved":false,"is_disabled":false,"rental_uris":{"android":"levelo://app?vid=900d9a85-643c-4942-8c6f-cb299778f9c6","ios":"levelo://app?vid=900d9a85-643c-4942-8c6f-cb299778f9c6"},"vehicle_type_id":"4","last_reported":1781624160,"current_range_meters":3200,"station_id":"ce4bh292rcd13ifvqdf0","pricing_plan_id":"cebpf4jnsgd1na2vs0mg"},{"bike_id":"4975f4e0-77c7-4867-b16c-2716a77a3ad0","system_id":"levelo_inurba_marseille","lat":43.28905,"lon":5.37772,"is_reserved":false,"is_disabled":false,"rental_uris":{"android":"levelo://app?vid=4975f4e0-77c7-4867-b16c-2716a77a3ad0","ios":"levelo://app?vid=4975f4e0-77c7-4867-b16c-2716a77a3ad0"},"vehicle_type_id":"4","last_reported":1781624160,"current_range_meters":3200,"station_id":"","pricing_plan_id":"cebpf4jnsgd1na2vs0mg"},{"bike_id":"be817498-d858-4167-a926-f9ee7661183f","system_id":"levelo_inurba_marseille","lat":43.30213,"lon":5.3947,"is_reserved":false,"is_disabled":false,"rental_uris":{"android":"levelo://app?vid=be817498-d858-4167-a926-f9ee7661183f","ios":"levelo://app?vid=be817498-d858-4167-a926-f9ee7661183f"},"vehicle_type_id":"4","last_reported":1781624160,"current_range_meters":3200,"station_id":"ce4bh0p2rcd13ifvqd70","pricing_plan_id":"cebpf4jnsgd1na2vs0mg"},{"bike_id":"d64f90f0-a7cf-4e74-b76b-5ab3f5435ae6","system_id":"levelo_inurba_marseille","lat":43.30154,"lon":5.39868,"is_reserved":false,"is_disabled":false,"rental_uris":{"android":"levelo://app?vid=d64f90f0-a7cf-4e74-b76b-5ab3f5435ae6","ios":"levelo://app?vid=d64f90f0-a7cf-4e74-b76b-5ab3f5435ae6"},"vehicle_type_id":"4","last_reported":1781624160,"current_range_meters":3200,"station_id":"ce4bh0h2rcd13ifvqd40","pricing_plan_id":"cebpf4jnsgd1na2vs0mg"},{"bike_id":"51d69121-6b78-454b-8ecb-a8c2fa310c00","system_id":"levelo_inurba_marseille","lat":43.28001,"lon":5.40004,"is_reserved":false,"is_disabled":false,"rental_uris":{"android":"levelo://app?vid=51d69121-6b78-454b-8ecb-a8c2fa310c00","ios":"levelo://app?vid=51d69121-6b78-454b-8ecb-a8c2fa310c00"},"vehicle_type_id":"4","last_reported":1781624160,"current_range_meters":3200,"station_id":"ce4bho92rcd13ifvqh4g","pricing_plan_id":"cebpf4jnsgd1na2vs0mg"},{"bike_id":"bae1273f-3f9e-4ae1-9d90-6d49741b8c15","system_id":"levelo_inurba_marseille","lat":43.30335,"lon":5.40717,"is_reserved":false,"is_disabled":false,"rental_uris":{"android":"levelo://app?vid=bae1273f-3f9e-4ae1-9d90-6d49741b8c15","ios":"levelo://app?vid=bae1273f-3f9e-4ae1-9d90-6d49741b8c15"},"vehicle_type_id":"4","last_reported":1781624160,"current_range_meters":3200,"station_id":"","pricing_plan_id":"cebpf4jnsgd1na2vs0mg"},{"bike_id":"8ca18689-1446-4ab5-a03e-e79bd87ea101","system_id":"levelo_inurba_marseille","lat":43.30602,"lon":5.37234,"is_reserved":false,"is_disabled":false,"rental_uris":{"android":"levelo://app?vid=8ca18689-1446-4ab5-a03e-e79bd87ea101","ios":"levelo://app?vid=8ca18689-1446-4ab5-a03e-e79bd87ea101"},"vehicle_type_id":"4","last_reported":1781624160,"current_range_meters":3200,"station_id":"ce4bgqh2rcd13ifvqc4g","pricing_plan_id":"cebpf4jnsgd1na2vs0mg"},{"bike_id":"67ea9b05-b25d-41fa-a59a-5f301c310304","system_id":"levelo_inurba_marseille","lat":43.29019,"lon":5.38647,"is_reserved":false,"is_disabled":false,"rental_uris":{"android":"levelo://app?vid=67ea9b05-b25d-41fa-a59a-5f301c310304","ios":"levelo://app?vid=67ea9b05-b25d-41fa-a59a-5f301c310304"},"vehicle_type_id":"4","last_reported":1781624160,"current_range_meters":3200,"station_id":"ce4bh4p2rcd13ifvqe0g","pricing_plan_id":"cebpf4jnsgd1na2vs0mg"},{"bike_id":"b40f3110-ca5f-424f-b278-c55ed5e853fd","system_id":"levelo_inurba_marseille","lat":43.22416,"lon":5.34753,"is_reserved":false,"is_disabled":false,"rental_uris":{"android":"levelo://app?vid=b40f3110-ca5f-424f-b278-c55ed5e853fd","ios":"levelo://app?vid=b40f3110-ca5f-424f-b278-c55ed5e853fd"},"vehicle_type_id":"4","last_reported":1781624160,"current_range_meters":3200,"station_id":"","pricing_plan_id":"cebpf4jnsgd1na2vs0mg"},{"bike_id":"e9ffa3c5-751f-4f2c-b61b-1b8384df8c58","system_id":"levelo_inurba_marseille","lat":43.29707,"lon":5.36607,"is_reserved":false,"is_disabled":false,"rental_uris":{"android":"levelo://app?vid=e9ffa3c5-751f-4f2c-b61b-1b8384df8c58","ios":"levelo://app?vid=e9ffa3c5-751f-4f2c-b61b-1b8384df8c58"},"vehicle_type_id":"4","last_reported":1781624160,"current_range_meters":3200,"station_id":"ce4bgn12rcd13ifvqbt0","pricing_plan_id":"cebpf4jnsgd1na2vs0mg"},{"bike_id":"9a16e849-67b9-4ce6-8bbc-3f76319a0666","system_id":"levelo_inurba_marseille","lat":43.26778,"lon":5.3943,"is_reserved":false,"is_disabled":true,"rental_uris":{"android":"levelo://app?vid=9a16e849-67b9-4ce6-8bbc-3f76319a0666","ios":"levelo://app?vid=9a16e849-67b9-4ce6-8bbc-3f76319a0666"},"vehicle_type_id":"4","last_reported":1781624160,"current_range_meters":3600,"station_id":"ce4bhh12rcd13ifvqfg0","pricing_plan_id":"cebpf4jnsgd1na2vs0mg"},{"bike_id":"a2c88458-1f14-4941-ba0a-13ddd145636b","system_id":"levelo_inurba_marseille","lat":43.29861,"lon":5.39735,"is_reserved":false,"is_disabled":false,"rental_uris":{"android":"levelo://app?vid=a2c88458-1f14-4941-ba0a-13ddd145636b","ios":"levelo://app?vid=a2c88458-1f14-4941-ba0a-13ddd145636b"},"vehicle_type_id":"4","last_reported":1781624160,"current_range_meters":3600,"station_id":"ce4bh0h2rcd13ifvqd50","pricing_plan_id":"cebpf4jnsgd1na2vs0mg"},{"bike_id":"2a417ff9-f6d8-4687-94e1-c8482231be43","system_id":"levelo_inurba_marseille","lat":43.24461,"lon":5.42523,"is_reserved":false,"is_disabled":false,"rental_uris":{"android":"levelo://app?vid=2a417ff9-f6d8-4687-94e1-c8482231be43","ios":"levelo://app?vid=2a417ff9-f6d8-4687-94e1-c8482231be43"},"vehicle_type_id":"4","last_reported":1781624160,"current_range_meters":3600,"station_id":"st_d4a3vfp97mjs738cd8kg","pricing_plan_id":"cebpf4jnsgd1na2vs0mg"},{"bike_id":"eac4e81e-36b1-4275-91a6-c0cb69b47b04","system_id":"levelo_inurba_marseille","lat":43.31877,"lon":5.3682,"is_reserved":false,"is_disabled":false,"rental_uris":{"android":"levelo://app?vid=eac4e81e-36b1-4275-91a6-c0cb69b47b04","ios":"levelo://app?vid=eac4e81e-36b1-4275-91a6-c0cb69b47b04"},"vehicle_type_id":"4","last_reported":1781624160,"current_range_meters":3600,"station_id":"st_d6o2h0d0559c73evc1b0","pricing_plan_id":"cebpf4jnsgd1na2vs0mg"},{"bike_id":"d1b88a5e-ce2a-406d-bc57-e78bc6e3536b","system_id":"levelo_inurba_marseille","lat":43.28427,"lon":5.37136,"is_reserved":false,"is_disabled":true,"rental_uris":{"android":"levelo://app?vid=d1b88a5e-ce2a-406d-bc57-e78bc6e3536b","ios":"levelo://app?vid=d1b88a5e-ce2a-406d-bc57-e78bc6e3536b"},"vehicle_type_id":"4","last_reported":1781624160,"current_range_meters":3600,"station_id":"","pricing_plan_id":"cebpf4jnsgd1na2vs0mg"},{"bike_id":"a3501f4b-362a-4138-9a71-94f9db606069","system_id":"levelo_inurba_marseille","lat":43.25878,"lon":5.39894,"is_reserved":false,"is_disabled":true,"rental_uris":{"android":"levelo://app?vid=a3501f4b-362a-4138-9a71-94f9db606069","ios":"levelo://app?vid=a3501f4b-362a-4138-9a71-94f9db606069"},"vehicle_type_id":"4","last_reported":1781624160,"current_range_meters":3600,"station_id":"ce4bhl92rcd13ifvqghg","pricing_plan_id":"cebpf4jnsgd1na2vs0mg"},{"bike_id":"1561ef3b-824b-4710-bc8d-76e516611443","system_id":"levelo_inurba_marseille","lat":43.30187,"lon":5.39345,"is_reserved":false,"is_disabled":false,"rental_uris":{"android":"levelo://app?vid=1561ef3b-824b-4710-bc8d-76e516611443","ios":"levelo://app?vid=1561ef3b-824b-4710-bc8d-76e516611443"},"vehicle_type_id":"4","last_reported":1781624160,"current_range_meters":3600,"station_id":"","pricing_plan_id":"cebpf4jnsgd1na2vs0mg"},{"bike_id":"e3f746df-c3c2-4279-aefd-3dbe35e4c9cf","system_id":"levelo_inurba_marseille","lat":43.26187,"lon":5.37451,"is_reserved":false,"is_disabled":false,"rental_uris":{"android":"levelo://app?vid=e3f746df-c3c2-4279-aefd-3dbe35e4c9cf","ios":"levelo://app?vid=e3f746df-c3c2-4279-aefd-3dbe35e4c9cf"},"vehicle_type_id":"4","last_reported":1781624160,"current_range_meters":3600,"station_id":"ce4bhgp2rcd13ifvqfc0","pricing_plan_id":"cebpf4jnsgd1na2vs0mg"},{"bike_id":"cd845403-ce24-405a-aa17-72c12007fb35","system_id":"levelo_inurba_marseille","lat":43.29167,"lon":5.38467,"is_reserved":false,"is_disabled":false,"rental_uris":{"android":"levelo://app?vid=cd845403-ce24-405a-aa17-72c12007fb35","ios":"levelo://app?vid=cd845403-ce24-405a-aa17-72c12007fb35"},"vehicle_type_id":"4","last_reported":1781624160,"current_range_meters":3600,"station_id":"","pricing_plan_id":"cebpf4jnsgd1na2vs0mg"},{"bike_id":"6c3820b6-6df0-4992-80bc-a8b31d6d743d","system_id":"levelo_inurba_marseille","lat":43.28855,"lon":5.42519,"is_reserved":false,"is_disabled":false,"rental_uris":{"android":"levelo://app?vid=6c3820b6-6df0-4992-80bc-a8b31d6d743d","ios":"levelo://app?vid=6c3820b6-6df0-4992-80bc-a8b31d6d743d"},"vehicle_type_id":"4","last_reported":1781624160,"current_range_meters":3600,"station_id":"st_d3b462108ojc7389ooeg","pricing_plan_id":"cebpf4jnsgd1na2vs0mg"},{"bike_id":"7a3f73fe-80c0-4e70-b6ea-fb8eb27e453c","system_id":"levelo_inurba_marseille","lat":43.28455,"lon":5.35888,"is_reserved":false,"is_disabled":false,"rental_uris":{"android":"levelo://app?vid=7a3f73fe-80c0-4e70-b6ea-fb8eb27e453c","ios":"levelo://app?vid=7a3f73fe-80c0-4e70-b6ea-fb8eb27e453c"},"vehicle_type_id":"4","last_reported":1781624160,"current_range_meters":3600,"station_id":"ce4bhah2rcd13ifvqei0","pricing_plan_id":"cebpf4jnsgd1na2vs0mg"},{"bike_id":"ff42a7be-ca58-4a45-aa10-3e8b1c1cf782","system_id":"levelo_inurba_marseille","lat":43.26569,"lon":5.39035,"is_reserved":false,"is_disabled":false,"rental_uris":{"android":"levelo://app?vid=ff42a7be-ca58-4a45-aa10-3e8b1c1cf782","ios":"levelo://app?vid=ff42a7be-ca58-4a45-aa10-3e8b1c1cf782"},"vehicle_type_id":"4","last_reported":1781624160,"current_range_meters":3600,"station_id":"ce4bhe12rcd13ifvqf30","pricing_plan_id":"cebpf4jnsgd1na2vs0mg"},{"bike_id":"13de0ef9-2ae5-47f2-b65d-f2f9b4f07d99","system_id":"levelo_inurba_marseille","lat":43.24812,"lon":5.37462,"is_reserved":false,"is_disabled":false,"rental_uris":{"android":"levelo://app?vid=13de0ef9-2ae5-47f2-b65d-f2f9b4f07d99","ios":"levelo://app?vid=13de0ef9-2ae5-47f2-b65d-f2f9b4f07d99"},"vehicle_type_id":"4","last_reported":1781624160,"current_range_meters":3600,"station_id":"ce4bhgh2rcd13ifvqfb0","pricing_plan_id":"cebpf4jnsgd1na2vs0mg"},{"bike_id":"7a2c566c-09e3-4e8d-998e-ff9429a929d9","system_id":"levelo_inurba_marseille","lat":43.29879,"lon":5.39736,"is_reserved":false,"is_disabled":false,"rental_uris":{"android":"levelo://app?vid=7a2c566c-09e3-4e8d-998e-ff9429a929d9","ios":"levelo://app?vid=7a2c566c-09e3-4e8d-998e-ff9429a929d9"},"vehicle_type_id":"4","last_reported":1781624160,"current_range_meters":4000,"station_id":"ce4bh0h2rcd13ifvqd50","pricing_plan_id":"cebpf4jnsgd1na2vs0mg"},{"bike_id":"97224dc5-d5ab-442e-8787-1956d29a2e8b","system_id":"levelo_inurba_marseille","lat":43.28932,"lon":5.39622,"is_reserved":false,"is_disabled":false,"rental_uris":{"android":"levelo://app?vid=97224dc5-d5ab-442e-8787-1956d29a2e8b","ios":"levelo://app?vid=97224dc5-d5ab-442e-8787-1956d29a2e8b"},"vehicle_type_id":"4","last_reported":1781624160,"current_range_meters":4000,"station_id":"ce4bh3h2rcd13ifvqdn0","pricing_plan_id":"cebpf4jnsgd1na2vs0mg"},{"bike_id":"5d4f76e0-d62c-4c43-a407-4b45c8e04a06","system_id":"levelo_inurba_marseille","lat":43.28362,"lon":5.38629,"is_reserved":false,"is_disabled":false,"rental_uris":{"android":"levelo://app?vid=5d4f76e0-d62c-4c43-a407-4b45c8e04a06","ios":"levelo://app?vid=5d4f76e0-d62c-4c43-a407-4b45c8e04a06"},"vehicle_type_id":"4","last_reported":1781624160,"current_range_meters":4000,"station_id":"ce4bh492rcd13ifvqdvg","pricing_plan_id":"cebpf4jnsgd1na2vs0mg"},{"bike_id":"e1b280c5-4213-4481-bf86-6fa1a5a6b4c1","system_id":"levelo_inurba_marseille","lat":43.2898,"lon":5.37825,"is_reserved":false,"is_disabled":false,"rental_uris":{"android":"levelo://app?vid=e1b280c5-4213-4481-bf86-6fa1a5a6b4c1","ios":"levelo://app?vid=e1b280c5-4213-4481-bf86-6fa1a5a6b4c1"},"vehicle_type_id":"4","last_reported":1781624160,"current_range_meters":4000,"station_id":"ce4bh9p2rcd13ifvqed0","pricing_plan_id":"cebpf4jnsgd1na2vs0mg"},{"bike_id":"b49fd32b-13ca-42c5-a822-300138d3d7ff","system_id":"levelo_inurba_marseille","lat":43.30196,"lon":5.41783,"is_reserved":false,"is_disabled":false,"rental_uris":{"android":"levelo://app?vid=b49fd32b-13ca-42c5-a822-300138d3d7ff","ios":"levelo://app?vid=b49fd32b-13ca-42c5-a822-300138d3d7ff"},"vehicle_type_id":"4","last_reported":1781624160,"current_range_meters":4000,"station_id":"","pricing_plan_id":"cebpf4jnsgd1na2vs0mg"},{"bike_id":"f643282f-bb83-4d5c-9a02-44db067f4f64","system_id":"levelo_inurba_marseille","lat":43.26562,"lon":5.3903,"is_reserved":false,"is_disabled":false,"rental_uris":{"android":"levelo://app?vid=f643282f-bb83-4d5c-9a02-44db067f4f64","ios":"levelo://app?vid=f643282f-bb83-4d5c-9a02-44db067f4f64"},"vehicle_type_id":"4","last_reported":1781624160,"current_range_meters":4000,"station_id":"ce4bhe12rcd13ifvqf30","pricing_plan_id":"cebpf4jnsgd1na2vs0mg"},{"bike_id":"9973f64f-e0ad-4a5c-9510-1d3452465a7d","system_id":"levelo_inurba_marseille","lat":43.25599,"lon":5.38231,"is_reserved":false,"is_disabled":false,"rental_uris":{"android":"levelo://app?vid=9973f64f-e0ad-4a5c-9510-1d3452465a7d","ios":"levelo://app?vid=9973f64f-e0ad-4a5c-9510-1d3452465a7d"},"vehicle_type_id":"4","last_reported":1781624160,"current_range_meters":4000,"station_id":"ce4bhih2rcd13ifvqfs0","pricing_plan_id":"cebpf4jnsgd1na2vs0mg"},{"bike_id":"f51f5ef9-9ee9-416d-8d00-35163742cfd6","system_id":"levelo_inurba_marseille","lat":43.28948,"lon":5.3636,"is_reserved":false,"is_disabled":true,"rental_uris":{"android":"levelo://app?vid=f51f5ef9-9ee9-416d-8d00-35163742cfd6","ios":"levelo://app?vid=f51f5ef9-9ee9-416d-8d00-35163742cfd6"},"vehicle_type_id":"4","last_reported":1781624160,"current_range_meters":4000,"station_id":"ce4bhc92rcd13ifvqetg","pricing_plan_id":"cebpf4jnsgd1na2vs0mg"},{"bike_id":"a517d1d4-8237-42c9-9338-f0cf6966e938","system_id":"levelo_inurba_marseille","lat":43.30592,"lon":5.39354,"is_reserved":false,"is_disabled":false,"rental_uris":{"android":"levelo://app?vid=a517d1d4-8237-42c9-9338-f0cf6966e938","ios":"levelo://app?vid=a517d1d4-8237-42c9-9338-f0cf6966e938"},"vehicle_type_id":"4","last_reported":1781624160,"current_range_meters":4000,"station_id":"ce4bh0p2rcd13ifvqd80","pricing_plan_id":"cebpf4jnsgd1na2vs0mg"},{"bike_id":"172e2420-5254-4959-93d9-5c35f9258439","system_id":"levelo_inurba_marseille","lat":43.295897,"lon":5.385462,"is_reserved":false,"is_disabled":false,"rental_uris":{"android":"levelo://app?vid=172e2420-5254-4959-93d9-5c35f9258439","ios":"levelo://app?vid=172e2420-5254-4959-93d9-5c35f9258439"},"vehicle_type_id":"4","last_reported":1781624160,"current_range_meters":4000,"station_id":"","pricing_plan_id":"cebpf4jnsgd1na2vs0mg"},{"bike_id":"11b6286e-9c59-42f2-bf3b-27538bd2eaa5","system_id":"levelo_inurba_marseille","lat":43.25235,"lon":5.3808,"is_reserved":false,"is_disabled":false,"rental_uris":{"android":"levelo://app?vid=11b6286e-9c59-42f2-bf3b-27538bd2eaa5","ios":"levelo://app?vid=11b6286e-9c59-42f2-bf3b-27538bd2eaa5"},"vehicle_type_id":"4","last_reported":1781624160,"current_range_meters":4000,"station_id":"","pricing_plan_id":"cebpf4jnsgd1na2vs0mg"},{"bike_id":"2c7fd776-5934-45a3-88fb-d42517ff55d4","system_id":"levelo_inurba_marseille","lat":43.28135,"lon":5.38912,"is_reserved":false,"is_disabled":false,"rental_uris":{"android":"levelo://app?vid=2c7fd776-5934-45a3-88fb-d42517ff55d4","ios":"levelo://app?vid=2c7fd776-5934-45a3-88fb-d42517ff55d4"},"vehicle_type_id":"4","last_reported":1781624160,"current_range_meters":4000,"station_id":"","pricing_plan_id":"cebpf4jnsgd1na2vs0mg"},{"bike_id":"4374082c-434f-4134-b6be-02b4409a7eee","system_id":"levelo_inurba_marseille","lat":43.289285,"lon":5.383945,"is_reserved":false,"is_disabled":false,"rental_uris":{"android":"levelo://app?vid=4374082c-434f-4134-b6be-02b4409a7eee","ios":"levelo://app?vid=4374082c-434f-4134-b6be-02b4409a7eee"},"vehicle_type_id":"4","last_reported":1781624160,"current_range_meters":4000,"station_id":"ce4bh612rcd13ifvqe6g","pricing_plan_id":"cebpf4jnsgd1na2vs0mg"},{"bike_id":"c2894881-b530-4008-b3a4-0bff0dcf5c06","system_id":"levelo_inurba_marseille","lat":43.29873,"lon":5.39727,"is_reserved":false,"is_disabled":false,"rental_uris":{"android":"levelo://app?vid=c2894881-b530-4008-b3a4-0bff0dcf5c06","ios":"levelo://app?vid=c2894881-b530-4008-b3a4-0bff0dcf5c06"},"vehicle_type_id":"4","last_reported":1781624160,"current_range_meters":4000,"station_id":"ce4bh0h2rcd13ifvqd50","pricing_plan_id":"cebpf4jnsgd1na2vs0mg"},{"bike_id":"01b21163-b0a9-409d-9e47-1839add55b94","system_id":"levelo_inurba_marseille","lat":43.2757,"lon":5.38412,"is_reserved":false,"is_disabled":false,"rental_uris":{"android":"levelo://app?vid=01b21163-b0a9-409d-9e47-1839add55b94","ios":"levelo://app?vid=01b21163-b0a9-409d-9e47-1839add55b94"},"vehicle_type_id":"4","last_reported":1781624160,"current_range_meters":4000,"station_id":"ce4bhh92rcd13ifvqfi0","pricing_plan_id":"cebpf4jnsgd1na2vs0mg"},{"bike_id":"6c75ea55-36a8-4c7f-989b-d0fca4be45d9","system_id":"levelo_inurba_marseille","lat":43.28145,"lon":5.40133,"is_reserved":false,"is_disabled":false,"rental_uris":{"android":"levelo://app?vid=6c75ea55-36a8-4c7f-989b-d0fca4be45d9","ios":"levelo://app?vid=6c75ea55-36a8-4c7f-989b-d0fca4be45d9"},"vehicle_type_id":"4","last_reported":1781624160,"current_range_meters":4000,"station_id":"","pricing_plan_id":"cebpf4jnsgd1na2vs0mg"},{"bike_id":"bfd42ca6-d834-40a9-9b22-d02ddbfa0fe8","system_id":"levelo_inurba_marseille","lat":43.22673,"lon":5.34795,"is_reserved":false,"is_disabled":false,"rental_uris":{"android":"levelo://app?vid=bfd42ca6-d834-40a9-9b22-d02ddbfa0fe8","ios":"levelo://app?vid=bfd42ca6-d834-40a9-9b22-d02ddbfa0fe8"},"vehicle_type_id":"4","last_reported":1781624160,"current_range_meters":4400,"station_id":"","pricing_plan_id":"cebpf4jnsgd1na2vs0mg"},{"bike_id":"67ff7e8b-853f-4c75-abe5-947bae418727","system_id":"levelo_inurba_marseille","lat":43.24536,"lon":5.4118,"is_reserved":false,"is_disabled":true,"rental_uris":{"android":"levelo://app?vid=67ff7e8b-853f-4c75-abe5-947bae418727","ios":"levelo://app?vid=67ff7e8b-853f-4c75-abe5-947bae418727"},"vehicle_type_id":"4","last_reported":1781624160,"current_range_meters":4400,"station_id":"","pricing_plan_id":"cebpf4jnsgd1na2vs0mg"},{"bike_id":"96dc4e41-3373-471e-b537-2ef7d66a978b","system_id":"levelo_inurba_marseille","lat":43.30781,"lon":5.3764,"is_reserved":false,"is_disabled":true,"rental_uris":{"android":"levelo://app?vid=96dc4e41-3373-471e-b537-2ef7d66a978b","ios":"levelo://app?vid=96dc4e41-3373-471e-b537-2ef7d66a978b"},"vehicle_type_id":"4","last_reported":1781624160,"current_range_meters":4400,"station_id":"ce4bgv92rcd13ifvqcq0","pricing_plan_id":"cebpf4jnsgd1na2vs0mg"},{"bike_id":"e08edca0-6d0b-4282-98b0-1a2402d77cae","system_id":"levelo_inurba_marseille","lat":43.27206,"lon":5.39179,"is_reserved":false,"is_disabled":false,"rental_uris":{"android":"levelo://app?vid=e08edca0-6d0b-4282-98b0-1a2402d77cae","ios":"levelo://app?vid=e08edca0-6d0b-4282-98b0-1a2402d77cae"},"vehicle_type_id":"4","last_reported":1781624160,"current_range_meters":4400,"station_id":"ce4bhhp2rcd13ifvqfm0","pricing_plan_id":"cebpf4jnsgd1na2vs0mg"},{"bike_id":"9ec7e7f2-3ab2-4692-be5f-7601925fd01a","system_id":"levelo_inurba_marseille","lat":43.29779,"lon":5.38534,"is_reserved":false,"is_disabled":false,"rental_uris":{"android":"levelo://app?vid=9ec7e7f2-3ab2-4692-be5f-7601925fd01a","ios":"levelo://app?vid=9ec7e7f2-3ab2-4692-be5f-7601925fd01a"},"vehicle_type_id":"4","last_reported":1781624160,"current_range_meters":4400,"station_id":"","pricing_plan_id":"cebpf4jnsgd1na2vs0mg"},{"bike_id":"ee0e8372-78e2-4c78-961e-4f11be9c982f","system_id":"levelo_inurba_marseille","lat":43.28703,"lon":5.46684,"is_reserved":false,"is_disabled":false,"rental_uris":{"android":"levelo://app?vid=ee0e8372-78e2-4c78-961e-4f11be9c982f","ios":"levelo://app?vid=ee0e8372-78e2-4c78-961e-4f11be9c982f"},"vehicle_type_id":"4","last_reported":1781624160,"current_range_meters":4400,"station_id":"st_d6tc3vkotcvc738tfjhg","pricing_plan_id":"cebpf4jnsgd1na2vs0mg"},{"bike_id":"dd13e457-fafe-4d2c-aaef-e5d882c6f5fa","system_id":"levelo_inurba_marseille","lat":43.31978,"lon":5.38177,"is_reserved":false,"is_disabled":false,"rental_uris":{"android":"levelo://app?vid=dd13e457-fafe-4d2c-aaef-e5d882c6f5fa","ios":"levelo://app?vid=dd13e457-fafe-4d2c-aaef-e5d882c6f5fa"},"vehicle_type_id":"4","last_reported":1781624160,"current_range_meters":4400,"station_id":"ce4bhr12rcd13ifvqhpg","pricing_plan_id":"cebpf4jnsgd1na2vs0mg"},{"bike_id":"cfe1147b-0860-445b-b8fc-fa8838d5b4ed","system_id":"levelo_inurba_marseille","lat":43.29211,"lon":5.39276,"is_reserved":false,"is_disabled":true,"rental_uris":{"android":"levelo://app?vid=cfe1147b-0860-445b-b8fc-fa8838d5b4ed","ios":"levelo://app?vid=cfe1147b-0860-445b-b8fc-fa8838d5b4ed"},"vehicle_type_id":"4","last_reported":1781624160,"current_range_meters":4400,"station_id":"ce4bh192rcd13ifvqdd0","pricing_plan_id":"cebpf4jnsgd1na2vs0mg"},{"bike_id":"f71acf28-3040-40f4-9e27-7a01f0aaa266","system_id":"levelo_inurba_marseille","lat":43.29244,"lon":5.40912,"is_reserved":false,"is_disabled":true,"rental_uris":{"android":"levelo://app?vid=f71acf28-3040-40f4-9e27-7a01f0aaa266","ios":"levelo://app?vid=f71acf28-3040-40f4-9e27-7a01f0aaa266"},"vehicle_type_id":"4","last_reported":1781624160,"current_range_meters":4400,"station_id":"ce4bh192rcd13ifvqdc0","pricing_plan_id":"cebpf4jnsgd1na2vs0mg"},{"bike_id":"7a6e72fe-30e7-444f-9e9d-2eac6ea2b7b7","system_id":"levelo_inurba_marseille","lat":43.30463,"lon":5.37905,"is_reserved":false,"is_disabled":false,"rental_uris":{"android":"levelo://app?vid=7a6e72fe-30e7-444f-9e9d-2eac6ea2b7b7","ios":"levelo://app?vid=7a6e72fe-30e7-444f-9e9d-2eac6ea2b7b7"},"vehicle_type_id":"4","last_reported":1781624160,"current_range_meters":4400,"station_id":"ce4bgup2rcd13ifvqcn0","pricing_plan_id":"cebpf4jnsgd1na2vs0mg"},{"bike_id":"fa601219-3f7e-4279-b728-bd7433dfe518","system_id":"levelo_inurba_marseille","lat":43.28481,"lon":5.48394,"is_reserved":false,"is_disabled":false,"rental_uris":{"android":"levelo://app?vid=fa601219-3f7e-4279-b728-bd7433dfe518","ios":"levelo://app?vid=fa601219-3f7e-4279-b728-bd7433dfe518"},"vehicle_type_id":"4","last_reported":1781624160,"current_range_meters":4400,"station_id":"st_d3svhcjqgbts73a3dn0g","pricing_plan_id":"cebpf4jnsgd1na2vs0mg"},{"bike_id":"dcb0c986-3b65-44f8-add8-c2a070bd881f","system_id":"levelo_inurba_marseille","lat":43.3124,"lon":5.36889,"is_reserved":false,"is_disabled":false,"rental_uris":{"android":"levelo://app?vid=dcb0c986-3b65-44f8-add8-c2a070bd881f","ios":"levelo://app?vid=dcb0c986-3b65-44f8-add8-c2a070bd881f"},"vehicle_type_id":"4","last_reported":1781624160,"current_range_meters":4400,"station_id":"ce4bgl92rcd13ifvqbq0","pricing_plan_id":"cebpf4jnsgd1na2vs0mg"},{"bike_id":"fa4cf54c-d0a5-4188-9f4b-fe81f81a3ab7","system_id":"levelo_inurba_marseille","lat":43.31186,"lon":5.3689,"is_reserved":false,"is_disabled":true,"rental_uris":{"android":"levelo://app?vid=fa4cf54c-d0a5-4188-9f4b-fe81f81a3ab7","ios":"levelo://app?vid=fa4cf54c-d0a5-4188-9f4b-fe81f81a3ab7"},"vehicle_type_id":"4","last_reported":1781624160,"current_range_meters":4400,"station_id":"","pricing_plan_id":"cebpf4jnsgd1na2vs0mg"},{"bike_id":"7247b73f-fb50-4b00-bdfd-4607df17f330","system_id":"levelo_inurba_marseille","lat":43.23356,"lon":5.43599,"is_reserved":false,"is_disabled":false,"rental_uris":{"android":"levelo://app?vid=7247b73f-fb50-4b00-bdfd-4607df17f330","ios":"levelo://app?vid=7247b73f-fb50-4b00-bdfd-4607df17f330"},"vehicle_type_id":"4","last_reported":1781624160,"current_range_meters":4400,"station_id":"","pricing_plan_id":"cebpf4jnsgd1na2vs0mg"},{"bike_id":"4367c2f4-d544-4011-8326-25555523b69d","system_id":"levelo_inurba_marseille","lat":43.22673,"lon":5.40321,"is_reserved":false,"is_disabled":false,"rental_uris":{"android":"levelo://app?vid=4367c2f4-d544-4011-8326-25555523b69d","ios":"levelo://app?vid=4367c2f4-d544-4011-8326-25555523b69d"},"vehicle_type_id":"4","last_reported":1781624160,"current_range_meters":4400,"station_id":"","pricing_plan_id":"cebpf4jnsgd1na2vs0mg"},{"bike_id":"5df6ef9c-ee27-4e7c-b9e7-4cd7f000248f","system_id":"levelo_inurba_marseille","lat":43.304391,"lon":5.388952,"is_reserved":false,"is_disabled":false,"rental_uris":{"android":"levelo://app?vid=5df6ef9c-ee27-4e7c-b9e7-4cd7f000248f","ios":"levelo://app?vid=5df6ef9c-ee27-4e7c-b9e7-4cd7f000248f"},"vehicle_type_id":"4","last_reported":1781624160,"current_range_meters":4400,"station_id":"ce4bgk12rcd13ifvqbi0","pricing_plan_id":"cebpf4jnsgd1na2vs0mg"},{"bike_id":"1e64f5ae-bb19-4047-8a80-a9ce4070bbb9","system_id":"levelo_inurba_marseille","lat":43.28415,"lon":5.34976,"is_reserved":false,"is_disabled":false,"rental_uris":{"android":"levelo://app?vid=1e64f5ae-bb19-4047-8a80-a9ce4070bbb9","ios":"levelo://app?vid=1e64f5ae-bb19-4047-8a80-a9ce4070bbb9"},"vehicle_type_id":"4","last_reported":1781624160,"current_range_meters":4400,"station_id":"ce4bhbh2rcd13ifvqepg","pricing_plan_id":"cebpf4jnsgd1na2vs0mg"},{"bike_id":"6fcece8f-5fbc-4abe-8003-a1a227633597","system_id":"levelo_inurba_marseille","lat":43.3272,"lon":5.40143,"is_reserved":false,"is_disabled":false,"rental_uris":{"android":"levelo://app?vid=6fcece8f-5fbc-4abe-8003-a1a227633597","ios":"levelo://app?vid=6fcece8f-5fbc-4abe-8003-a1a227633597"},"vehicle_type_id":"4","last_reported":1781624160,"current_range_meters":4400,"station_id":"","pricing_plan_id":"cebpf4jnsgd1na2vs0mg"},{"bike_id":"bdc7b946-fa64-4d33-bb19-86380c27c8df","system_id":"levelo_inurba_marseille","lat":43.2976,"lon":5.36757,"is_reserved":false,"is_disabled":false,"rental_uris":{"android":"levelo://app?vid=bdc7b946-fa64-4d33-bb19-86380c27c8df","ios":"levelo://app?vid=bdc7b946-fa64-4d33-bb19-86380c27c8df"},"vehicle_type_id":"4","last_reported":1781624160,"current_range_meters":4400,"station_id":"","pricing_plan_id":"cebpf4jnsgd1na2vs0mg"},{"bike_id":"60da3b4b-0d47-4a4b-a1a7-673db4562445","system_id":"levelo_inurba_marseille","lat":43.29873,"lon":5.3892,"is_reserved":false,"is_disabled":false,"rental_uris":{"android":"levelo://app?vid=60da3b4b-0d47-4a4b-a1a7-673db4562445","ios":"levelo://app?vid=60da3b4b-0d47-4a4b-a1a7-673db4562445"},"vehicle_type_id":"4","last_reported":1781624160,"current_range_meters":4400,"station_id":"ce4bh392rcd13ifvqdl0","pricing_plan_id":"cebpf4jnsgd1na2vs0mg"},{"bike_id":"782762c4-1d99-419b-b8b6-9618a881f098","system_id":"levelo_inurba_marseille","lat":43.23183,"lon":5.39974,"is_reserved":false,"is_disabled":false,"rental_uris":{"android":"levelo://app?vid=782762c4-1d99-419b-b8b6-9618a881f098","ios":"levelo://app?vid=782762c4-1d99-419b-b8b6-9618a881f098"},"vehicle_type_id":"4","last_reported":1781624160,"current_range_meters":4400,"station_id":"ce4bhn12rcd13ifvqgqg","pricing_plan_id":"cebpf4jnsgd1na2vs0mg"},{"bike_id":"81b9473f-3268-41b0-960d-e6496bac04f6","system_id":"levelo_inurba_marseille","lat":43.31885,"lon":5.36817,"is_reserved":false,"is_disabled":false,"rental_uris":{"android":"levelo://app?vid=81b9473f-3268-41b0-960d-e6496bac04f6","ios":"levelo://app?vid=81b9473f-3268-41b0-960d-e6496bac04f6"},"vehicle_type_id":"4","last_reported":1781624160,"current_range_meters":4400,"station_id":"st_d6o2h0d0559c73evc1b0","pricing_plan_id":"cebpf4jnsgd1na2vs0mg"},{"bike_id":"11b399e9-0d52-4738-94a0-440ea29a542d","system_id":"levelo_inurba_marseille","lat":43.29949,"lon":5.37904,"is_reserved":false,"is_disabled":false,"rental_uris":{"android":"levelo://app?vid=11b399e9-0d52-4738-94a0-440ea29a542d","ios":"levelo://app?vid=11b399e9-0d52-4738-94a0-440ea29a542d"},"vehicle_type_id":"4","last_reported":1781624160,"current_range_meters":4800,"station_id":"","pricing_plan_id":"cebpf4jnsgd1na2vs0mg"},{"bike_id":"f5662c74-763e-4ace-a90f-34be52be210e","system_id":"levelo_inurba_marseille","lat":43.28216,"lon":5.35021,"is_reserved":false,"is_disabled":true,"rental_uris":{"android":"levelo://app?vid=f5662c74-763e-4ace-a90f-34be52be210e","ios":"levelo://app?vid=f5662c74-763e-4ace-a90f-34be52be210e"},"vehicle_type_id":"4","last_reported":1781624160,"current_range_meters":4800,"station_id":"","pricing_plan_id":"cebpf4jnsgd1na2vs0mg"},{"bike_id":"8d88c884-25dd-4c21-9b63-a70529b3f7f7","system_id":"levelo_inurba_marseille","lat":43.33141,"lon":5.37944,"is_reserved":false,"is_disabled":false,"rental_uris":{"android":"levelo://app?vid=8d88c884-25dd-4c21-9b63-a70529b3f7f7","ios":"levelo://app?vid=8d88c884-25dd-4c21-9b63-a70529b3f7f7"},"vehicle_type_id":"4","last_reported":1781624160,"current_range_meters":4800,"station_id":"","pricing_plan_id":"cebpf4jnsgd1na2vs0mg"},{"bike_id":"7157ebe5-83dd-45e7-baa5-cc34854d3c11","system_id":"levelo_inurba_marseille","lat":43.28851,"lon":5.39311,"is_reserved":false,"is_disabled":false,"rental_uris":{"android":"levelo://app?vid=7157ebe5-83dd-45e7-baa5-cc34854d3c11","ios":"levelo://app?vid=7157ebe5-83dd-45e7-baa5-cc34854d3c11"},"vehicle_type_id":"4","last_reported":1781624160,"current_range_meters":4800,"station_id":"ce4bh2p2rcd13ifvqdi0","pricing_plan_id":"cebpf4jnsgd1na2vs0mg"},{"bike_id":"43557268-d058-408c-ab03-d4deb2c02d3f","system_id":"levelo_inurba_marseille","lat":43.24656,"lon":5.39293,"is_reserved":false,"is_disabled":false,"rental_uris":{"android":"levelo://app?vid=43557268-d058-408c-ab03-d4deb2c02d3f","ios":"levelo://app?vid=43557268-d058-408c-ab03-d4deb2c02d3f"},"vehicle_type_id":"4","last_reported":1781624160,"current_range_meters":4800,"station_id":"","pricing_plan_id":"cebpf4jnsgd1na2vs0mg"},{"bike_id":"0eb76448-e8ab-41af-8f39-bbe3a61ce3d6","system_id":"levelo_inurba_marseille","lat":43.27921,"lon":5.39574,"is_reserved":false,"is_disabled":false,"rental_uris":{"android":"levelo://app?vid=0eb76448-e8ab-41af-8f39-bbe3a61ce3d6","ios":"levelo://app?vid=0eb76448-e8ab-41af-8f39-bbe3a61ce3d6"},"vehicle_type_id":"4","last_reported":1781624160,"current_range_meters":4800,"station_id":"ce4bhf92rcd13ifvqf40","pricing_plan_id":"cebpf4jnsgd1na2vs0mg"},{"bike_id":"40a57909-b821-4875-a3e8-d66c6a6241f2","system_id":"levelo_inurba_marseille","lat":43.29524,"lon":5.39036,"is_reserved":false,"is_disabled":false,"rental_uris":{"android":"levelo://app?vid=40a57909-b821-4875-a3e8-d66c6a6241f2","ios":"levelo://app?vid=40a57909-b821-4875-a3e8-d66c6a6241f2"},"vehicle_type_id":"4","last_reported":1781624160,"current_range_meters":4800,"station_id":"ce4bh3p2rcd13ifvqdp0","pricing_plan_id":"cebpf4jnsgd1na2vs0mg"},{"bike_id":"7a39971b-e8c3-42e4-9a4f-9093e7c26404","system_id":"levelo_inurba_marseille","lat":43.22553,"lon":5.41626,"is_reserved":false,"is_disabled":false,"rental_uris":{"android":"levelo://app?vid=7a39971b-e8c3-42e4-9a4f-9093e7c26404","ios":"levelo://app?vid=7a39971b-e8c3-42e4-9a4f-9093e7c26404"},"vehicle_type_id":"4","last_reported":1781624160,"current_range_meters":4800,"station_id":"st_d2o4gvlbi1j2169b742g","pricing_plan_id":"cebpf4jnsgd1na2vs0mg"},{"bike_id":"11c480e0-3abb-4625-8ead-433c853b116f","system_id":"levelo_inurba_marseille","lat":43.30141,"lon":5.39872,"is_reserved":false,"is_disabled":false,"rental_uris":{"android":"levelo://app?vid=11c480e0-3abb-4625-8ead-433c853b116f","ios":"levelo://app?vid=11c480e0-3abb-4625-8ead-433c853b116f"},"vehicle_type_id":"4","last_reported":1781624160,"current_range_meters":4800,"station_id":"ce4bh0h2rcd13ifvqd40","pricing_plan_id":"cebpf4jnsgd1na2vs0mg"},{"bike_id":"4e8bd121-268d-4dc5-a624-d73ef74cfb0b","system_id":"levelo_inurba_marseille","lat":43.27828,"lon":5.39214,"is_reserved":false,"is_disabled":false,"rental_uris":{"android":"levelo://app?vid=4e8bd121-268d-4dc5-a624-d73ef74cfb0b","ios":"levelo://app?vid=4e8bd121-268d-4dc5-a624-d73ef74cfb0b"},"vehicle_type_id":"4","last_reported":1781624160,"current_range_meters":4800,"station_id":"ce4bhjp2rcd13ifvqga0","pricing_plan_id":"cebpf4jnsgd1na2vs0mg"},{"bike_id":"af9862e0-50d4-4f19-9685-d2e303e78c1d","system_id":"levelo_inurba_marseille","lat":43.24481,"lon":5.43956,"is_reserved":false,"is_disabled":false,"rental_uris":{"android":"levelo://app?vid=af9862e0-50d4-4f19-9685-d2e303e78c1d","ios":"levelo://app?vid=af9862e0-50d4-4f19-9685-d2e303e78c1d"},"vehicle_type_id":"4","last_reported":1781624160,"current_range_meters":4800,"station_id":"","pricing_plan_id":"cebpf4jnsgd1na2vs0mg"},{"bike_id":"ec646362-fb1f-4cc8-b2b1-402472799dd8","system_id":"levelo_inurba_marseille","lat":43.25102,"lon":5.39525,"is_reserved":false,"is_disabled":false,"rental_uris":{"android":"levelo://app?vid=ec646362-fb1f-4cc8-b2b1-402472799dd8","ios":"levelo://app?vid=ec646362-fb1f-4cc8-b2b1-402472799dd8"},"vehicle_type_id":"4","last_reported":1781624160,"current_range_meters":4800,"station_id":"ce4bhm12rcd13ifvqgkg","pricing_plan_id":"cebpf4jnsgd1na2vs0mg"},{"bike_id":"cdfbb22e-8ddf-48fd-9710-46a090a00360","system_id":"levelo_inurba_marseille","lat":43.22554,"lon":5.41632,"is_reserved":false,"is_disabled":false,"rental_uris":{"android":"levelo://app?vid=cdfbb22e-8ddf-48fd-9710-46a090a00360","ios":"levelo://app?vid=cdfbb22e-8ddf-48fd-9710-46a090a00360"},"vehicle_type_id":"4","last_reported":1781624160,"current_range_meters":4800,"station_id":"st_d2o4gvlbi1j2169b742g","pricing_plan_id":"cebpf4jnsgd1na2vs0mg"},{"bike_id":"6637099a-7831-476a-a77c-ad16c713edec","system_id":"levelo_inurba_marseille","lat":43.2316,"lon":5.4048,"is_reserved":false,"is_disabled":false,"rental_uris":{"android":"levelo://app?vid=6637099a-7831-476a-a77c-ad16c713edec","ios":"levelo://app?vid=6637099a-7831-476a-a77c-ad16c713edec"},"vehicle_type_id":"4","last_reported":1781624160,"current_range_meters":4800,"station_id":"","pricing_plan_id":"cebpf4jnsgd1na2vs0mg"},{"bike_id":"c2cd4ee9-7d40-4ecc-9b92-a4ed2bff4747","system_id":"levelo_inurba_marseille","lat":43.28477,"lon":5.48399,"is_reserved":false,"is_disabled":false,"rental_uris":{"android":"levelo://app?vid=c2cd4ee9-7d40-4ecc-9b92-a4ed2bff4747","ios":"levelo://app?vid=c2cd4ee9-7d40-4ecc-9b92-a4ed2bff4747"},"vehicle_type_id":"4","last_reported":1781624160,"current_range_meters":4800,"station_id":"st_d3svhcjqgbts73a3dn0g","pricing_plan_id":"cebpf4jnsgd1na2vs0mg"},{"bike_id":"c6434066-a53a-4b7c-acbd-414735b04ba6","system_id":"levelo_inurba_marseille","lat":43.283464,"lon":5.381074,"is_reserved":false,"is_disabled":false,"rental_uris":{"android":"levelo://app?vid=c6434066-a53a-4b7c-acbd-414735b04ba6","ios":"levelo://app?vid=c6434066-a53a-4b7c-acbd-414735b04ba6"},"vehicle_type_id":"4","last_reported":1781624160,"current_range_meters":4800,"station_id":"ce4bh412rcd13ifvqdr0","pricing_plan_id":"cebpf4jnsgd1na2vs0mg"},{"bike_id":"0acdfef8-ac06-4cb0-b570-f1b7d757fae2","system_id":"levelo_inurba_marseille","lat":43.28151,"lon":5.42645,"is_reserved":false,"is_disabled":false,"rental_uris":{"android":"levelo://app?vid=0acdfef8-ac06-4cb0-b570-f1b7d757fae2","ios":"levelo://app?vid=0acdfef8-ac06-4cb0-b570-f1b7d757fae2"},"vehicle_type_id":"4","last_reported":1781624160,"current_range_meters":4800,"station_id":"ce4bhnh2rcd13ifvqgug","pricing_plan_id":"cebpf4jnsgd1na2vs0mg"},{"bike_id":"7e24003c-ccef-452d-b7ea-bb32301ce04a","system_id":"levelo_inurba_marseille","lat":43.27597,"lon":5.38751,"is_reserved":false,"is_disabled":false,"rental_uris":{"android":"levelo://app?vid=7e24003c-ccef-452d-b7ea-bb32301ce04a","ios":"levelo://app?vid=7e24003c-ccef-452d-b7ea-bb32301ce04a"},"vehicle_type_id":"4","last_reported":1781624160,"current_range_meters":4800,"station_id":"","pricing_plan_id":"cebpf4jnsgd1na2vs0mg"},{"bike_id":"5375a43e-373a-479c-bb46-72e222ca2f95","system_id":"levelo_inurba_marseille","lat":43.2433,"lon":5.38422,"is_reserved":false,"is_disabled":false,"rental_uris":{"android":"levelo://app?vid=5375a43e-373a-479c-bb46-72e222ca2f95","ios":"levelo://app?vid=5375a43e-373a-479c-bb46-72e222ca2f95"},"vehicle_type_id":"4","last_reported":1781624160,"current_range_meters":5600,"station_id":"","pricing_plan_id":"cebpf4jnsgd1na2vs0mg"},{"bike_id":"b8da5bbd-79eb-4a99-baa7-5a5e26e28550","system_id":"levelo_inurba_marseille","lat":43.29622,"lon":5.37713,"is_reserved":false,"is_disabled":false,"rental_uris":{"android":"levelo://app?vid=b8da5bbd-79eb-4a99-baa7-5a5e26e28550","ios":"levelo://app?vid=b8da5bbd-79eb-4a99-baa7-5a5e26e28550"},"vehicle_type_id":"4","last_reported":1781624160,"current_range_meters":5600,"station_id":"ce4bgi92rcd13ifvqb90","pricing_plan_id":"cebpf4jnsgd1na2vs0mg"},{"bike_id":"70cf2e80-b98a-426c-8ec6-e3a43ed18eb8","system_id":"levelo_inurba_marseille","lat":43.32365,"lon":5.36748,"is_reserved":false,"is_disabled":false,"rental_uris":{"android":"levelo://app?vid=70cf2e80-b98a-426c-8ec6-e3a43ed18eb8","ios":"levelo://app?vid=70cf2e80-b98a-426c-8ec6-e3a43ed18eb8"},"vehicle_type_id":"4","last_reported":1781624160,"current_range_meters":5600,"station_id":"ce4bhsh2rcd13ifvqi2g","pricing_plan_id":"cebpf4jnsgd1na2vs0mg"},{"bike_id":"339b5cb9-05bc-40b7-90f7-c320d31f72f3","system_id":"levelo_inurba_marseille","lat":43.25743,"lon":5.41106,"is_reserved":false,"is_disabled":false,"rental_uris":{"android":"levelo://app?vid=339b5cb9-05bc-40b7-90f7-c320d31f72f3","ios":"levelo://app?vid=339b5cb9-05bc-40b7-90f7-c320d31f72f3"},"vehicle_type_id":"4","last_reported":1781624160,"current_range_meters":5600,"station_id":"ce4bhkp2rcd13ifvqgd0","pricing_plan_id":"cebpf4jnsgd1na2vs0mg"},{"bike_id":"cf2e521c-a00b-43a5-95d2-d10ec94815eb","system_id":"levelo_inurba_marseille","lat":43.24804,"lon":5.374644,"is_reserved":false,"is_disabled":false,"rental_uris":{"android":"levelo://app?vid=cf2e521c-a00b-43a5-95d2-d10ec94815eb","ios":"levelo://app?vid=cf2e521c-a00b-43a5-95d2-d10ec94815eb"},"vehicle_type_id":"4","last_reported":1781624160,"current_range_meters":5600,"station_id":"ce4bhgh2rcd13ifvqfb0","pricing_plan_id":"cebpf4jnsgd1na2vs0mg"},{"bike_id":"3ee66724-67c9-4b69-a701-dae857e2d134","system_id":"levelo_inurba_marseille","lat":43.2433,"lon":5.40523,"is_reserved":false,"is_disabled":false,"rental_uris":{"android":"levelo://app?vid=3ee66724-67c9-4b69-a701-dae857e2d134","ios":"levelo://app?vid=3ee66724-67c9-4b69-a701-dae857e2d134"},"vehicle_type_id":"4","last_reported":1781624160,"current_range_meters":5600,"station_id":"","pricing_plan_id":"cebpf4jnsgd1na2vs0mg"},{"bike_id":"f3f743fd-b533-4dab-b57a-30119eb06500","system_id":"levelo_inurba_marseille","lat":43.29528,"lon":5.3903,"is_reserved":false,"is_disabled":false,"rental_uris":{"android":"levelo://app?vid=f3f743fd-b533-4dab-b57a-30119eb06500","ios":"levelo://app?vid=f3f743fd-b533-4dab-b57a-30119eb06500"},"vehicle_type_id":"4","last_reported":1781624160,"current_range_meters":5600,"station_id":"ce4bh3p2rcd13ifvqdp0","pricing_plan_id":"cebpf4jnsgd1na2vs0mg"},{"bike_id":"0f9aee9c-d368-46ce-a204-b7c5f53e47a5","system_id":"levelo_inurba_marseille","lat":43.32096,"lon":5.36784,"is_reserved":false,"is_disabled":false,"rental_uris":{"android":"levelo://app?vid=0f9aee9c-d368-46ce-a204-b7c5f53e47a5","ios":"levelo://app?vid=0f9aee9c-d368-46ce-a204-b7c5f53e47a5"},"vehicle_type_id":"4","last_reported":1781624160,"current_range_meters":5600,"station_id":"ce4bhrh2rcd13ifvqhug","pricing_plan_id":"cebpf4jnsgd1na2vs0mg"},{"bike_id":"919bb91d-12fa-4609-a68c-056ed0124c3f","system_id":"levelo_inurba_marseille","lat":43.25827,"lon":5.3944,"is_reserved":false,"is_disabled":false,"rental_uris":{"android":"levelo://app?vid=919bb91d-12fa-4609-a68c-056ed0124c3f","ios":"levelo://app?vid=919bb91d-12fa-4609-a68c-056ed0124c3f"},"vehicle_type_id":"4","last_reported":1781624160,"current_range_meters":5600,"station_id":"ce4bhip2rcd13ifvqft0","pricing_plan_id":"cebpf4jnsgd1na2vs0mg"},{"bike_id":"f0b9fffa-9136-4f5f-a36c-7e1b1902153b","system_id":"levelo_inurba_marseille","lat":43.21255,"lon":5.34974,"is_reserved":false,"is_disabled":false,"rental_uris":{"android":"levelo://app?vid=f0b9fffa-9136-4f5f-a36c-7e1b1902153b","ios":"levelo://app?vid=f0b9fffa-9136-4f5f-a36c-7e1b1902153b"},"vehicle_type_id":"4","last_reported":1781624160,"current_range_meters":5600,"station_id":"","pricing_plan_id":"cebpf4jnsgd1na2vs0mg"},{"bike_id":"43b62834-45a3-44c4-b21b-d1228f5dffea","system_id":"levelo_inurba_marseille","lat":43.30276,"lon":5.39332,"is_reserved":false,"is_disabled":false,"rental_uris":{"android":"levelo://app?vid=43b62834-45a3-44c4-b21b-d1228f5dffea","ios":"levelo://app?vid=43b62834-45a3-44c4-b21b-d1228f5dffea"},"vehicle_type_id":"4","last_reported":1781624160,"current_range_meters":5600,"station_id":"","pricing_plan_id":"cebpf4jnsgd1na2vs0mg"},{"bike_id":"50bdfe89-b453-48d6-8638-29e720eddc82","system_id":"levelo_inurba_marseille","lat":43.29202,"lon":5.39321,"is_reserved":false,"is_disabled":false,"rental_uris":{"android":"levelo://app?vid=50bdfe89-b453-48d6-8638-29e720eddc82","ios":"levelo://app?vid=50bdfe89-b453-48d6-8638-29e720eddc82"},"vehicle_type_id":"4","last_reported":1781624160,"current_range_meters":5600,"station_id":"ce4bh192rcd13ifvqdd0","pricing_plan_id":"cebpf4jnsgd1na2vs0mg"},{"bike_id":"88b13031-8bd9-43b9-9351-e6f4828ab099","system_id":"levelo_inurba_marseille","lat":43.27914,"lon":5.39586,"is_reserved":false,"is_disabled":false,"rental_uris":{"android":"levelo://app?vid=88b13031-8bd9-43b9-9351-e6f4828ab099","ios":"levelo://app?vid=88b13031-8bd9-43b9-9351-e6f4828ab099"},"vehicle_type_id":"4","last_reported":1781624160,"current_range_meters":5600,"station_id":"ce4bhf92rcd13ifvqf40","pricing_plan_id":"cebpf4jnsgd1na2vs0mg"},{"bike_id":"9f6bb2e6-dcdf-4017-a6ae-7d1c64e6e192","system_id":"levelo_inurba_marseille","lat":43.30431,"lon":5.37919,"is_reserved":false,"is_disabled":true,"rental_uris":{"android":"levelo://app?vid=9f6bb2e6-dcdf-4017-a6ae-7d1c64e6e192","ios":"levelo://app?vid=9f6bb2e6-dcdf-4017-a6ae-7d1c64e6e192"},"vehicle_type_id":"4","last_reported":1781624160,"current_range_meters":5600,"station_id":"ce4bgup2rcd13ifvqcn0","pricing_plan_id":"cebpf4jnsgd1na2vs0mg"},{"bike_id":"4e3b7581-6291-4b61-a2ac-d497f3cdb36e","system_id":"levelo_inurba_marseille","lat":43.30137,"lon":5.38772,"is_reserved":false,"is_disabled":false,"rental_uris":{"android":"levelo://app?vid=4e3b7581-6291-4b61-a2ac-d497f3cdb36e","ios":"levelo://app?vid=4e3b7581-6291-4b61-a2ac-d497f3cdb36e"},"vehicle_type_id":"4","last_reported":1781624160,"current_range_meters":5600,"station_id":"ce4bghh2rcd13ifvqb60","pricing_plan_id":"cebpf4jnsgd1na2vs0mg"},{"bike_id":"61080484-82dc-4654-99d1-b5c44316070d","system_id":"levelo_inurba_marseille","lat":43.29792,"lon":5.40411,"is_reserved":false,"is_disabled":false,"rental_uris":{"android":"levelo://app?vid=61080484-82dc-4654-99d1-b5c44316070d","ios":"levelo://app?vid=61080484-82dc-4654-99d1-b5c44316070d"},"vehicle_type_id":"4","last_reported":1781624160,"current_range_meters":5600,"station_id":"ce4bh112rcd13ifvqd90","pricing_plan_id":"cebpf4jnsgd1na2vs0mg"},{"bike_id":"68eae743-3e97-4554-acc7-2f10bbf44937","system_id":"levelo_inurba_marseille","lat":43.25092,"lon":5.39514,"is_reserved":false,"is_disabled":false,"rental_uris":{"android":"levelo://app?vid=68eae743-3e97-4554-acc7-2f10bbf44937","ios":"levelo://app?vid=68eae743-3e97-4554-acc7-2f10bbf44937"},"vehicle_type_id":"4","last_reported":1781624160,"current_range_meters":5600,"station_id":"ce4bhm12rcd13ifvqgkg","pricing_plan_id":"cebpf4jnsgd1na2vs0mg"},{"bike_id":"9d681a4a-1eb7-4b5b-b9f2-2b1eefd455cc","system_id":"levelo_inurba_marseille","lat":43.26947,"lon":5.38628,"is_reserved":false,"is_disabled":true,"rental_uris":{"android":"levelo://app?vid=9d681a4a-1eb7-4b5b-b9f2-2b1eefd455cc","ios":"levelo://app?vid=9d681a4a-1eb7-4b5b-b9f2-2b1eefd455cc"},"vehicle_type_id":"4","last_reported":1781624160,"current_range_meters":6000,"station_id":"ce4bhh92rcd13ifvqfh0","pricing_plan_id":"cebpf4jnsgd1na2vs0mg"},{"bike_id":"cc3b9785-3517-411c-94ac-dc17f6216211","system_id":"levelo_inurba_marseille","lat":43.29726,"lon":5.37723,"is_reserved":false,"is_disabled":false,"rental_uris":{"android":"levelo://app?vid=cc3b9785-3517-411c-94ac-dc17f6216211","ios":"levelo://app?vid=cc3b9785-3517-411c-94ac-dc17f6216211"},"vehicle_type_id":"4","last_reported":1781624160,"current_range_meters":6000,"station_id":"ce4bgkh2rcd13ifvqbl0","pricing_plan_id":"cebpf4jnsgd1na2vs0mg"},{"bike_id":"375213da-2118-4abc-a95b-ceb41ef2a95e","system_id":"levelo_inurba_marseille","lat":43.31237,"lon":5.36822,"is_reserved":false,"is_disabled":false,"rental_uris":{"android":"levelo://app?vid=375213da-2118-4abc-a95b-ceb41ef2a95e","ios":"levelo://app?vid=375213da-2118-4abc-a95b-ceb41ef2a95e"},"vehicle_type_id":"4","last_reported":1781624160,"current_range_meters":6000,"station_id":"ce4bgl92rcd13ifvqbq0","pricing_plan_id":"cebpf4jnsgd1na2vs0mg"},{"bike_id":"722b93a9-4b8d-41b6-95f8-df801c919a1d","system_id":"levelo_inurba_marseille","lat":43.26506,"lon":5.36954,"is_reserved":false,"is_disabled":false,"rental_uris":{"android":"levelo://app?vid=722b93a9-4b8d-41b6-95f8-df801c919a1d","ios":"levelo://app?vid=722b93a9-4b8d-41b6-95f8-df801c919a1d"},"vehicle_type_id":"4","last_reported":1781624160,"current_range_meters":6000,"station_id":"","pricing_plan_id":"cebpf4jnsgd1na2vs0mg"},{"bike_id":"38bb783b-3e80-4955-8650-710bf55204c2","system_id":"levelo_inurba_marseille","lat":43.3054,"lon":5.3657,"is_reserved":false,"is_disabled":false,"rental_uris":{"android":"levelo://app?vid=38bb783b-3e80-4955-8650-710bf55204c2","ios":"levelo://app?vid=38bb783b-3e80-4955-8650-710bf55204c2"},"vehicle_type_id":"4","last_reported":1781624160,"current_range_meters":6000,"station_id":"ce4bgs12rcd13ifvqcag","pricing_plan_id":"cebpf4jnsgd1na2vs0mg"},{"bike_id":"94becfac-38c4-4af5-97fc-fd6ee4d63697","system_id":"levelo_inurba_marseille","lat":43.32661,"lon":5.409949,"is_reserved":false,"is_disabled":false,"rental_uris":{"android":"levelo://app?vid=94becfac-38c4-4af5-97fc-fd6ee4d63697","ios":"levelo://app?vid=94becfac-38c4-4af5-97fc-fd6ee4d63697"},"vehicle_type_id":"4","last_reported":1781624160,"current_range_meters":6000,"station_id":"ce4bhpp2rcd13ifvqhgg","pricing_plan_id":"cebpf4jnsgd1na2vs0mg"},{"bike_id":"c393d015-65f2-4c5e-83a1-1da3a6cfcacc","system_id":"levelo_inurba_marseille","lat":43.25098,"lon":5.3952,"is_reserved":false,"is_disabled":false,"rental_uris":{"android":"levelo://app?vid=c393d015-65f2-4c5e-83a1-1da3a6cfcacc","ios":"levelo://app?vid=c393d015-65f2-4c5e-83a1-1da3a6cfcacc"},"vehicle_type_id":"4","last_reported":1781624160,"current_range_meters":6000,"station_id":"ce4bhm12rcd13ifvqgkg","pricing_plan_id":"cebpf4jnsgd1na2vs0mg"},{"bike_id":"aa84d00a-fe84-47b6-bde8-a770cd993f2a","system_id":"levelo_inurba_marseille","lat":43.29775,"lon":5.39336,"is_reserved":false,"is_disabled":false,"rental_uris":{"android":"levelo://app?vid=aa84d00a-fe84-47b6-bde8-a770cd993f2a","ios":"levelo://app?vid=aa84d00a-fe84-47b6-bde8-a770cd993f2a"},"vehicle_type_id":"4","last_reported":1781624160,"current_range_meters":6000,"station_id":"chh1huq6cuj3fo74tm60","pricing_plan_id":"cebpf4jnsgd1na2vs0mg"},{"bike_id":"e3a15d04-a4b6-42b0-9893-da0f82866b3e","system_id":"levelo_inurba_marseille","lat":43.25861,"lon":5.399,"is_reserved":false,"is_disabled":false,"rental_uris":{"android":"levelo://app?vid=e3a15d04-a4b6-42b0-9893-da0f82866b3e","ios":"levelo://app?vid=e3a15d04-a4b6-42b0-9893-da0f82866b3e"},"vehicle_type_id":"4","last_reported":1781624160,"current_range_meters":6000,"station_id":"ce4bhl92rcd13ifvqghg","pricing_plan_id":"cebpf4jnsgd1na2vs0mg"},{"bike_id":"5d129347-af29-49ea-afd9-83b4c48fb447","system_id":"levelo_inurba_marseille","lat":43.28478,"lon":5.48388,"is_reserved":false,"is_disabled":false,"rental_uris":{"android":"levelo://app?vid=5d129347-af29-49ea-afd9-83b4c48fb447","ios":"levelo://app?vid=5d129347-af29-49ea-afd9-83b4c48fb447"},"vehicle_type_id":"4","last_reported":1781624160,"current_range_meters":6000,"station_id":"st_d3svhcjqgbts73a3dn0g","pricing_plan_id":"cebpf4jnsgd1na2vs0mg"},{"bike_id":"4554ec88-3bd2-45bc-9f18-5808605ba0cd","system_id":"levelo_inurba_marseille","lat":43.30905,"lon":5.36867,"is_reserved":false,"is_disabled":false,"rental_uris":{"android":"levelo://app?vid=4554ec88-3bd2-45bc-9f18-5808605ba0cd","ios":"levelo://app?vid=4554ec88-3bd2-45bc-9f18-5808605ba0cd"},"vehicle_type_id":"4","last_reported":1781624160,"current_range_meters":6000,"station_id":"ce4bgn92rcd13ifvqbvg","pricing_plan_id":"cebpf4jnsgd1na2vs0mg"},{"bike_id":"8109a4a1-1a37-4965-b832-4e9986b75afd","system_id":"levelo_inurba_marseille","lat":43.29868,"lon":5.38912,"is_reserved":false,"is_disabled":true,"rental_uris":{"android":"levelo://app?vid=8109a4a1-1a37-4965-b832-4e9986b75afd","ios":"levelo://app?vid=8109a4a1-1a37-4965-b832-4e9986b75afd"},"vehicle_type_id":"4","last_reported":1781624160,"current_range_meters":6000,"station_id":"ce4bh392rcd13ifvqdl0","pricing_plan_id":"cebpf4jnsgd1na2vs0mg"},{"bike_id":"70224094-71e5-415c-b7eb-7f643bb13bf6","system_id":"levelo_inurba_marseille","lat":43.31395,"lon":5.38497,"is_reserved":false,"is_disabled":false,"rental_uris":{"android":"levelo://app?vid=70224094-71e5-415c-b7eb-7f643bb13bf6","ios":"levelo://app?vid=70224094-71e5-415c-b7eb-7f643bb13bf6"},"vehicle_type_id":"4","last_reported":1781624160,"current_range_meters":6000,"station_id":"ce4bgt92rcd13ifvqcf0","pricing_plan_id":"cebpf4jnsgd1na2vs0mg"},{"bike_id":"585cd42b-8eec-4ad9-87fd-6d158b6c569c","system_id":"levelo_inurba_marseille","lat":43.28473,"lon":5.38433,"is_reserved":false,"is_disabled":false,"rental_uris":{"android":"levelo://app?vid=585cd42b-8eec-4ad9-87fd-6d158b6c569c","ios":"levelo://app?vid=585cd42b-8eec-4ad9-87fd-6d158b6c569c"},"vehicle_type_id":"4","last_reported":1781624160,"current_range_meters":6400,"station_id":"ce4bh512rcd13ifvqe3g","pricing_plan_id":"cebpf4jnsgd1na2vs0mg"},{"bike_id":"6116c5f1-dff1-49bb-99c3-21a3ad77c0f8","system_id":"levelo_inurba_marseille","lat":43.2848,"lon":5.48387,"is_reserved":false,"is_disabled":false,"rental_uris":{"android":"levelo://app?vid=6116c5f1-dff1-49bb-99c3-21a3ad77c0f8","ios":"levelo://app?vid=6116c5f1-dff1-49bb-99c3-21a3ad77c0f8"},"vehicle_type_id":"4","last_reported":1781624160,"current_range_meters":6400,"station_id":"st_d3svhcjqgbts73a3dn0g","pricing_plan_id":"cebpf4jnsgd1na2vs0mg"},{"bike_id":"f443e024-361d-4ce8-9a19-0cb3869f75f7","system_id":"levelo_inurba_marseille","lat":43.32508,"lon":5.38286,"is_reserved":false,"is_disabled":false,"rental_uris":{"android":"levelo://app?vid=f443e024-361d-4ce8-9a19-0cb3869f75f7","ios":"levelo://app?vid=f443e024-361d-4ce8-9a19-0cb3869f75f7"},"vehicle_type_id":"4","last_reported":1781624160,"current_range_meters":6400,"station_id":"st_d4asgbiv49dc73anf9m0","pricing_plan_id":"cebpf4jnsgd1na2vs0mg"},{"bike_id":"945e53c5-21ab-4925-bfcd-e622dc1f0435","system_id":"levelo_inurba_marseille","lat":43.27714,"lon":5.39596,"is_reserved":false,"is_disabled":false,"rental_uris":{"android":"levelo://app?vid=945e53c5-21ab-4925-bfcd-e622dc1f0435","ios":"levelo://app?vid=945e53c5-21ab-4925-bfcd-e622dc1f0435"},"vehicle_type_id":"4","last_reported":1781624160,"current_range_meters":6400,"station_id":"","pricing_plan_id":"cebpf4jnsgd1na2vs0mg"},{"bike_id":"2a847826-447c-4797-8bb6-b3de690c24be","system_id":"levelo_inurba_marseille","lat":43.30834,"lon":5.3813,"is_reserved":false,"is_disabled":false,"rental_uris":{"android":"levelo://app?vid=2a847826-447c-4797-8bb6-b3de690c24be","ios":"levelo://app?vid=2a847826-447c-4797-8bb6-b3de690c24be"},"vehicle_type_id":"4","last_reported":1781624160,"current_range_meters":6400,"station_id":"ce4bgt12rcd13ifvqce0","pricing_plan_id":"cebpf4jnsgd1na2vs0mg"},{"bike_id":"95a59b66-6afe-4344-95e0-05f5290b94e3","system_id":"levelo_inurba_marseille","lat":43.297052,"lon":5.366112,"is_reserved":false,"is_disabled":false,"rental_uris":{"android":"levelo://app?vid=95a59b66-6afe-4344-95e0-05f5290b94e3","ios":"levelo://app?vid=95a59b66-6afe-4344-95e0-05f5290b94e3"},"vehicle_type_id":"4","last_reported":1781624160,"current_range_meters":6400,"station_id":"ce4bgn12rcd13ifvqbt0","pricing_plan_id":"cebpf4jnsgd1na2vs0mg"},{"bike_id":"4a19ee25-c472-4611-a863-fcf027e68f5e","system_id":"levelo_inurba_marseille","lat":43.21211,"lon":5.3505,"is_reserved":false,"is_disabled":false,"rental_uris":{"android":"levelo://app?vid=4a19ee25-c472-4611-a863-fcf027e68f5e","ios":"levelo://app?vid=4a19ee25-c472-4611-a863-fcf027e68f5e"},"vehicle_type_id":"4","last_reported":1781624160,"current_range_meters":6400,"station_id":"st_cvj6sg6p6f1abm77japg","pricing_plan_id":"cebpf4jnsgd1na2vs0mg"},{"bike_id":"86a984b0-9c9f-4a03-8340-54f224a5c66a","system_id":"levelo_inurba_marseille","lat":43.30437,"lon":5.38874,"is_reserved":false,"is_disabled":false,"rental_uris":{"android":"levelo://app?vid=86a984b0-9c9f-4a03-8340-54f224a5c66a","ios":"levelo://app?vid=86a984b0-9c9f-4a03-8340-54f224a5c66a"},"vehicle_type_id":"4","last_reported":1781624160,"current_range_meters":6400,"station_id":"ce4bgk12rcd13ifvqbi0","pricing_plan_id":"cebpf4jnsgd1na2vs0mg"},{"bike_id":"006e5a0f-74d4-4ba9-8e1d-7177d0284781","system_id":"levelo_inurba_marseille","lat":43.24467,"lon":5.42537,"is_reserved":false,"is_disabled":false,"rental_uris":{"android":"levelo://app?vid=006e5a0f-74d4-4ba9-8e1d-7177d0284781","ios":"levelo://app?vid=006e5a0f-74d4-4ba9-8e1d-7177d0284781"},"vehicle_type_id":"4","last_reported":1781624160,"current_range_meters":6400,"station_id":"st_d4a3vfp97mjs738cd8kg","pricing_plan_id":"cebpf4jnsgd1na2vs0mg"},{"bike_id":"b69f6881-fb77-4ac7-95f9-cb8b7b3351ce","system_id":"levelo_inurba_marseille","lat":43.33532,"lon":5.37456,"is_reserved":false,"is_disabled":false,"rental_uris":{"android":"levelo://app?vid=b69f6881-fb77-4ac7-95f9-cb8b7b3351ce","ios":"levelo://app?vid=b69f6881-fb77-4ac7-95f9-cb8b7b3351ce"},"vehicle_type_id":"4","last_reported":1781624160,"current_range_meters":6400,"station_id":"st_d46tts09ee8s73dlu43g","pricing_plan_id":"cebpf4jnsgd1na2vs0mg"},{"bike_id":"9380d50d-7e0d-42a2-9f8b-f0ffbda091a7","system_id":"levelo_inurba_marseille","lat":43.30264,"lon":5.37694,"is_reserved":false,"is_disabled":false,"rental_uris":{"android":"levelo://app?vid=9380d50d-7e0d-42a2-9f8b-f0ffbda091a7","ios":"levelo://app?vid=9380d50d-7e0d-42a2-9f8b-f0ffbda091a7"},"vehicle_type_id":"4","last_reported":1781624160,"current_range_meters":6400,"station_id":"ce4bguh2rcd13ifvqcj0","pricing_plan_id":"cebpf4jnsgd1na2vs0mg"},{"bike_id":"eba5bb55-d5e4-4833-bb81-0cf61442c817","system_id":"levelo_inurba_marseille","lat":43.22558,"lon":5.41631,"is_reserved":false,"is_disabled":false,"rental_uris":{"android":"levelo://app?vid=eba5bb55-d5e4-4833-bb81-0cf61442c817","ios":"levelo://app?vid=eba5bb55-d5e4-4833-bb81-0cf61442c817"},"vehicle_type_id":"4","last_reported":1781624160,"current_range_meters":6400,"station_id":"st_d2o4gvlbi1j2169b742g","pricing_plan_id":"cebpf4jnsgd1na2vs0mg"},{"bike_id":"2ed42e6f-0ce9-4d9e-a7d6-57b256d631b8","system_id":"levelo_inurba_marseille","lat":43.24949,"lon":5.40502,"is_reserved":false,"is_disabled":false,"rental_uris":{"android":"levelo://app?vid=2ed42e6f-0ce9-4d9e-a7d6-57b256d631b8","ios":"levelo://app?vid=2ed42e6f-0ce9-4d9e-a7d6-57b256d631b8"},"vehicle_type_id":"4","last_reported":1781624160,"current_range_meters":6400,"station_id":"st_d2ngiaodas8pm72gd1h0","pricing_plan_id":"cebpf4jnsgd1na2vs0mg"},{"bike_id":"29ecdc3c-9c93-4210-8b2a-65b1df0f964f","system_id":"levelo_inurba_marseille","lat":43.30877,"lon":5.36851,"is_reserved":false,"is_disabled":false,"rental_uris":{"android":"levelo://app?vid=29ecdc3c-9c93-4210-8b2a-65b1df0f964f","ios":"levelo://app?vid=29ecdc3c-9c93-4210-8b2a-65b1df0f964f"},"vehicle_type_id":"4","last_reported":1781624160,"current_range_meters":6400,"station_id":"ce4bgn92rcd13ifvqbvg","pricing_plan_id":"cebpf4jnsgd1na2vs0mg"},{"bike_id":"40c757bc-2afc-49ad-b22a-31461e2dc797","system_id":"levelo_inurba_marseille","lat":43.293,"lon":5.37459,"is_reserved":false,"is_disabled":false,"rental_uris":{"android":"levelo://app?vid=40c757bc-2afc-49ad-b22a-31461e2dc797","ios":"levelo://app?vid=40c757bc-2afc-49ad-b22a-31461e2dc797"},"vehicle_type_id":"4","last_reported":1781624160,"current_range_meters":6400,"station_id":"ce4bgi12rcd13ifvqb70","pricing_plan_id":"cebpf4jnsgd1na2vs0mg"},{"bike_id":"7fbb2cde-b59f-4a6a-9305-7fdaacd08319","system_id":"levelo_inurba_marseille","lat":43.29966,"lon":5.38485,"is_reserved":false,"is_disabled":false,"rental_uris":{"android":"levelo://app?vid=7fbb2cde-b59f-4a6a-9305-7fdaacd08319","ios":"levelo://app?vid=7fbb2cde-b59f-4a6a-9305-7fdaacd08319"},"vehicle_type_id":"4","last_reported":1781624160,"current_range_meters":6400,"station_id":"ce4bgj92rcd13ifvqbd0","pricing_plan_id":"cebpf4jnsgd1na2vs0mg"},{"bike_id":"ee98538e-e4fb-42ef-85d0-b08a6e141963","system_id":"levelo_inurba_marseille","lat":43.23147,"lon":5.43729,"is_reserved":false,"is_disabled":false,"rental_uris":{"android":"levelo://app?vid=ee98538e-e4fb-42ef-85d0-b08a6e141963","ios":"levelo://app?vid=ee98538e-e4fb-42ef-85d0-b08a6e141963"},"vehicle_type_id":"4","last_reported":1781624160,"current_range_meters":6400,"station_id":"ce4bhmp2rcd13ifvqgog","pricing_plan_id":"cebpf4jnsgd1na2vs0mg"},{"bike_id":"b42c449e-e17e-4c2c-b847-a284249d29d7","system_id":"levelo_inurba_marseille","lat":43.27615,"lon":5.3612,"is_reserved":false,"is_disabled":false,"rental_uris":{"android":"levelo://app?vid=b42c449e-e17e-4c2c-b847-a284249d29d7","ios":"levelo://app?vid=b42c449e-e17e-4c2c-b847-a284249d29d7"},"vehicle_type_id":"4","last_reported":1781624160,"current_range_meters":6400,"station_id":"ce4bgj92rcd13ifvqbe0","pricing_plan_id":"cebpf4jnsgd1na2vs0mg"},{"bike_id":"2abf4820-2c55-4e11-98d1-0ec39bf7fad5","system_id":"levelo_inurba_marseille","lat":43.28701,"lon":5.46688,"is_reserved":false,"is_disabled":false,"rental_uris":{"android":"levelo://app?vid=2abf4820-2c55-4e11-98d1-0ec39bf7fad5","ios":"levelo://app?vid=2abf4820-2c55-4e11-98d1-0ec39bf7fad5"},"vehicle_type_id":"4","last_reported":1781624160,"current_range_meters":6400,"station_id":"st_d6tc3vkotcvc738tfjhg","pricing_plan_id":"cebpf4jnsgd1na2vs0mg"},{"bike_id":"e279cba9-5e7d-4906-b673-9dd8a7a6dde1","system_id":"levelo_inurba_marseille","lat":43.297798,"lon":5.404081,"is_reserved":false,"is_disabled":false,"rental_uris":{"android":"levelo://app?vid=e279cba9-5e7d-4906-b673-9dd8a7a6dde1","ios":"levelo://app?vid=e279cba9-5e7d-4906-b673-9dd8a7a6dde1"},"vehicle_type_id":"4","last_reported":1781624160,"current_range_meters":6400,"station_id":"ce4bh112rcd13ifvqd90","pricing_plan_id":"cebpf4jnsgd1na2vs0mg"},{"bike_id":"6275a8ee-571e-4f60-9ee1-0bc36fe6c5d0","system_id":"levelo_inurba_marseille","lat":43.27184,"lon":5.40975,"is_reserved":false,"is_disabled":false,"rental_uris":{"android":"levelo://app?vid=6275a8ee-571e-4f60-9ee1-0bc36fe6c5d0","ios":"levelo://app?vid=6275a8ee-571e-4f60-9ee1-0bc36fe6c5d0"},"vehicle_type_id":"4","last_reported":1781624160,"current_range_meters":6400,"station_id":"ce4bhl12rcd13ifvqgf0","pricing_plan_id":"cebpf4jnsgd1na2vs0mg"},{"bike_id":"85890b7b-2403-447a-ad52-97a75ebad38b","system_id":"levelo_inurba_marseille","lat":43.22533,"lon":5.3483,"is_reserved":false,"is_disabled":false,"rental_uris":{"android":"levelo://app?vid=85890b7b-2403-447a-ad52-97a75ebad38b","ios":"levelo://app?vid=85890b7b-2403-447a-ad52-97a75ebad38b"},"vehicle_type_id":"4","last_reported":1781624160,"current_range_meters":6400,"station_id":"st_cvj5dfep6f1abm77gieg","pricing_plan_id":"cebpf4jnsgd1na2vs0mg"},{"bike_id":"c379b1eb-fc40-471c-8b65-9a2592631260","system_id":"levelo_inurba_marseille","lat":43.28601,"lon":5.37065,"is_reserved":false,"is_disabled":false,"rental_uris":{"android":"levelo://app?vid=c379b1eb-fc40-471c-8b65-9a2592631260","ios":"levelo://app?vid=c379b1eb-fc40-471c-8b65-9a2592631260"},"vehicle_type_id":"4","last_reported":1781624160,"current_range_meters":6400,"station_id":"ce4bht12rcd13ifvqi60","pricing_plan_id":"cebpf4jnsgd1na2vs0mg"},{"bike_id":"71575dbe-cbcb-48b7-9adc-dc15199a7307","system_id":"levelo_inurba_marseille","lat":43.26549,"lon":5.39022,"is_reserved":false,"is_disabled":false,"rental_uris":{"android":"levelo://app?vid=71575dbe-cbcb-48b7-9adc-dc15199a7307","ios":"levelo://app?vid=71575dbe-cbcb-48b7-9adc-dc15199a7307"},"vehicle_type_id":"4","last_reported":1781624160,"current_range_meters":6800,"station_id":"ce4bhe12rcd13ifvqf30","pricing_plan_id":"cebpf4jnsgd1na2vs0mg"},{"bike_id":"98ac762a-026b-4aa9-bf69-b1d41ed76dc0","system_id":"levelo_inurba_marseille","lat":43.30877,"lon":5.37189,"is_reserved":false,"is_disabled":true,"rental_uris":{"android":"levelo://app?vid=98ac762a-026b-4aa9-bf69-b1d41ed76dc0","ios":"levelo://app?vid=98ac762a-026b-4aa9-bf69-b1d41ed76dc0"},"vehicle_type_id":"4","last_reported":1781624160,"current_range_meters":6800,"station_id":"ce4bguh2rcd13ifvqckg","pricing_plan_id":"cebpf4jnsgd1na2vs0mg"},{"bike_id":"9a8ad781-d0bb-480a-9de9-779a6475e47c","system_id":"levelo_inurba_marseille","lat":43.32354,"lon":5.36734,"is_reserved":false,"is_disabled":false,"rental_uris":{"android":"levelo://app?vid=9a8ad781-d0bb-480a-9de9-779a6475e47c","ios":"levelo://app?vid=9a8ad781-d0bb-480a-9de9-779a6475e47c"},"vehicle_type_id":"4","last_reported":1781624160,"current_range_meters":6800,"station_id":"ce4bhsh2rcd13ifvqi2g","pricing_plan_id":"cebpf4jnsgd1na2vs0mg"},{"bike_id":"2034e191-c146-4ecb-8fcd-75f54a8c1ed5","system_id":"levelo_inurba_marseille","lat":43.255,"lon":5.37664,"is_reserved":false,"is_disabled":false,"rental_uris":{"android":"levelo://app?vid=2034e191-c146-4ecb-8fcd-75f54a8c1ed5","ios":"levelo://app?vid=2034e191-c146-4ecb-8fcd-75f54a8c1ed5"},"vehicle_type_id":"4","last_reported":1781624160,"current_range_meters":6800,"station_id":"ce4bhh12rcd13ifvqff0","pricing_plan_id":"cebpf4jnsgd1na2vs0mg"},{"bike_id":"1a381e5b-ebe9-4f0f-81db-f151eeaeb887","system_id":"levelo_inurba_marseille","lat":43.30277,"lon":5.37995,"is_reserved":false,"is_disabled":false,"rental_uris":{"android":"levelo://app?vid=1a381e5b-ebe9-4f0f-81db-f151eeaeb887","ios":"levelo://app?vid=1a381e5b-ebe9-4f0f-81db-f151eeaeb887"},"vehicle_type_id":"4","last_reported":1781624160,"current_range_meters":6800,"station_id":"","pricing_plan_id":"cebpf4jnsgd1na2vs0mg"},{"bike_id":"15beb987-bfc5-4c2b-8451-407674f63bdf","system_id":"levelo_inurba_marseille","lat":43.32526,"lon":5.41496,"is_reserved":false,"is_disabled":false,"rental_uris":{"android":"levelo://app?vid=15beb987-bfc5-4c2b-8451-407674f63bdf","ios":"levelo://app?vid=15beb987-bfc5-4c2b-8451-407674f63bdf"},"vehicle_type_id":"4","last_reported":1781624160,"current_range_meters":6800,"station_id":"","pricing_plan_id":"cebpf4jnsgd1na2vs0mg"},{"bike_id":"e5623c00-8257-4182-8391-4bcf2c41c7d7","system_id":"levelo_inurba_marseille","lat":43.30571,"lon":5.36683,"is_reserved":false,"is_disabled":false,"rental_uris":{"android":"levelo://app?vid=e5623c00-8257-4182-8391-4bcf2c41c7d7","ios":"levelo://app?vid=e5623c00-8257-4182-8391-4bcf2c41c7d7"},"vehicle_type_id":"4","last_reported":1781624160,"current_range_meters":6800,"station_id":"","pricing_plan_id":"cebpf4jnsgd1na2vs0mg"},{"bike_id":"d68ee0ff-9827-4578-9772-bca1293f0f89","system_id":"levelo_inurba_marseille","lat":43.28473,"lon":5.48399,"is_reserved":false,"is_disabled":false,"rental_uris":{"android":"levelo://app?vid=d68ee0ff-9827-4578-9772-bca1293f0f89","ios":"levelo://app?vid=d68ee0ff-9827-4578-9772-bca1293f0f89"},"vehicle_type_id":"4","last_reported":1781624160,"current_range_meters":6800,"station_id":"st_d3svhcjqgbts73a3dn0g","pricing_plan_id":"cebpf4jnsgd1na2vs0mg"},{"bike_id":"f480fb0a-6862-478c-9196-1a860756b68f","system_id":"levelo_inurba_marseille","lat":43.30291,"lon":5.39208,"is_reserved":false,"is_disabled":false,"rental_uris":{"android":"levelo://app?vid=f480fb0a-6862-478c-9196-1a860756b68f","ios":"levelo://app?vid=f480fb0a-6862-478c-9196-1a860756b68f"},"vehicle_type_id":"4","last_reported":1781624160,"current_range_meters":6800,"station_id":"ce4bgkh2rcd13ifvqbk0","pricing_plan_id":"cebpf4jnsgd1na2vs0mg"},{"bike_id":"5c873f8b-765b-4a52-b4cc-4439b4ee485f","system_id":"levelo_inurba_marseille","lat":43.31077,"lon":5.42419,"is_reserved":false,"is_disabled":true,"rental_uris":{"android":"levelo://app?vid=5c873f8b-765b-4a52-b4cc-4439b4ee485f","ios":"levelo://app?vid=5c873f8b-765b-4a52-b4cc-4439b4ee485f"},"vehicle_type_id":"4","last_reported":1781624160,"current_range_meters":6800,"station_id":"ce4bhp92rcd13ifvqhag","pricing_plan_id":"cebpf4jnsgd1na2vs0mg"},{"bike_id":"f79fa418-a964-4630-9c2c-3c819f8f3126","system_id":"levelo_inurba_marseille","lat":43.2862,"lon":5.35097,"is_reserved":false,"is_disabled":false,"rental_uris":{"android":"levelo://app?vid=f79fa418-a964-4630-9c2c-3c819f8f3126","ios":"levelo://app?vid=f79fa418-a964-4630-9c2c-3c819f8f3126"},"vehicle_type_id":"4","last_reported":1781624160,"current_range_meters":6800,"station_id":"ce4bhch2rcd13ifvqeug","pricing_plan_id":"cebpf4jnsgd1na2vs0mg"},{"bike_id":"b4b692fe-7662-49d3-9a9e-9effadf56b0e","system_id":"levelo_inurba_marseille","lat":43.31341,"lon":5.38516,"is_reserved":false,"is_disabled":false,"rental_uris":{"android":"levelo://app?vid=b4b692fe-7662-49d3-9a9e-9effadf56b0e","ios":"levelo://app?vid=b4b692fe-7662-49d3-9a9e-9effadf56b0e"},"vehicle_type_id":"4","last_reported":1781624160,"current_range_meters":6800,"station_id":"ce4bgt92rcd13ifvqcf0","pricing_plan_id":"cebpf4jnsgd1na2vs0mg"},{"bike_id":"e28c8f3f-6de2-4694-981a-7585934006f3","system_id":"levelo_inurba_marseille","lat":43.28482,"lon":5.48364,"is_reserved":false,"is_disabled":false,"rental_uris":{"android":"levelo://app?vid=e28c8f3f-6de2-4694-981a-7585934006f3","ios":"levelo://app?vid=e28c8f3f-6de2-4694-981a-7585934006f3"},"vehicle_type_id":"4","last_reported":1781624160,"current_range_meters":6800,"station_id":"st_d3svhcjqgbts73a3dn0g","pricing_plan_id":"cebpf4jnsgd1na2vs0mg"},{"bike_id":"9baa21c9-eaaa-498e-b872-7d321b27ea84","system_id":"levelo_inurba_marseille","lat":43.26052,"lon":5.39382,"is_reserved":false,"is_disabled":false,"rental_uris":{"android":"levelo://app?vid=9baa21c9-eaaa-498e-b872-7d321b27ea84","ios":"levelo://app?vid=9baa21c9-eaaa-498e-b872-7d321b27ea84"},"vehicle_type_id":"4","last_reported":1781624160,"current_range_meters":6800,"station_id":"ce4bhh92rcd13ifvqfj0","pricing_plan_id":"cebpf4jnsgd1na2vs0mg"},{"bike_id":"78a48a54-862b-4c00-8a01-f36168b0101b","system_id":"levelo_inurba_marseille","lat":43.25892,"lon":5.38882,"is_reserved":false,"is_disabled":false,"rental_uris":{"android":"levelo://app?vid=78a48a54-862b-4c00-8a01-f36168b0101b","ios":"levelo://app?vid=78a48a54-862b-4c00-8a01-f36168b0101b"},"vehicle_type_id":"4","last_reported":1781624160,"current_range_meters":6800,"station_id":"","pricing_plan_id":"cebpf4jnsgd1na2vs0mg"},{"bike_id":"b8ce4aa5-e834-430d-bb23-e85e7d4bbab7","system_id":"levelo_inurba_marseille","lat":43.2871,"lon":5.46693,"is_reserved":false,"is_disabled":false,"rental_uris":{"android":"levelo://app?vid=b8ce4aa5-e834-430d-bb23-e85e7d4bbab7","ios":"levelo://app?vid=b8ce4aa5-e834-430d-bb23-e85e7d4bbab7"},"vehicle_type_id":"4","last_reported":1781624160,"current_range_meters":6800,"station_id":"st_d6tc3vkotcvc738tfjhg","pricing_plan_id":"cebpf4jnsgd1na2vs0mg"},{"bike_id":"57aa072b-4f7e-43f5-a89b-0cdd2fa99d15","system_id":"levelo_inurba_marseille","lat":43.27971,"lon":5.39119,"is_reserved":false,"is_disabled":false,"rental_uris":{"android":"levelo://app?vid=57aa072b-4f7e-43f5-a89b-0cdd2fa99d15","ios":"levelo://app?vid=57aa072b-4f7e-43f5-a89b-0cdd2fa99d15"},"vehicle_type_id":"4","last_reported":1781624160,"current_range_meters":6800,"station_id":"","pricing_plan_id":"cebpf4jnsgd1na2vs0mg"},{"bike_id":"9e64dc1e-7ea0-484e-9035-a017d813ecbf","system_id":"levelo_inurba_marseille","lat":43.26535,"lon":5.37279,"is_reserved":false,"is_disabled":false,"rental_uris":{"android":"levelo://app?vid=9e64dc1e-7ea0-484e-9035-a017d813ecbf","ios":"levelo://app?vid=9e64dc1e-7ea0-484e-9035-a017d813ecbf"},"vehicle_type_id":"4","last_reported":1781624160,"current_range_meters":6800,"station_id":"ce4bhg12rcd13ifvqf70","pricing_plan_id":"cebpf4jnsgd1na2vs0mg"},{"bike_id":"5bbf0675-a206-4669-87e7-89e5ac9fbc6a","system_id":"levelo_inurba_marseille","lat":43.2993,"lon":5.36557,"is_reserved":false,"is_disabled":true,"rental_uris":{"android":"levelo://app?vid=5bbf0675-a206-4669-87e7-89e5ac9fbc6a","ios":"levelo://app?vid=5bbf0675-a206-4669-87e7-89e5ac9fbc6a"},"vehicle_type_id":"4","last_reported":1781624160,"current_range_meters":6800,"station_id":"ce4bgm92rcd13ifvqbr0","pricing_plan_id":"cebpf4jnsgd1na2vs0mg"},{"bike_id":"3e5252a0-0f23-4567-a479-c84b27ac9f08","system_id":"levelo_inurba_marseille","lat":43.28151,"lon":5.395654,"is_reserved":false,"is_disabled":false,"rental_uris":{"android":"levelo://app?vid=3e5252a0-0f23-4567-a479-c84b27ac9f08","ios":"levelo://app?vid=3e5252a0-0f23-4567-a479-c84b27ac9f08"},"vehicle_type_id":"4","last_reported":1781624160,"current_range_meters":6800,"station_id":"ce4bho12rcd13ifvqh2g","pricing_plan_id":"cebpf4jnsgd1na2vs0mg"},{"bike_id":"23c17ca6-15ce-43ce-b09f-bc3beedf35ab","system_id":"levelo_inurba_marseille","lat":43.3051,"lon":5.38444,"is_reserved":false,"is_disabled":false,"rental_uris":{"android":"levelo://app?vid=23c17ca6-15ce-43ce-b09f-bc3beedf35ab","ios":"levelo://app?vid=23c17ca6-15ce-43ce-b09f-bc3beedf35ab"},"vehicle_type_id":"4","last_reported":1781624160,"current_range_meters":7200,"station_id":"ce4bgg92rcd13ifvqb30","pricing_plan_id":"cebpf4jnsgd1na2vs0mg"},{"bike_id":"bc0d9c82-92ad-4e0b-9d2c-35b903f7a833","system_id":"levelo_inurba_marseille","lat":43.28292,"lon":5.35065,"is_reserved":false,"is_disabled":false,"rental_uris":{"android":"levelo://app?vid=bc0d9c82-92ad-4e0b-9d2c-35b903f7a833","ios":"levelo://app?vid=bc0d9c82-92ad-4e0b-9d2c-35b903f7a833"},"vehicle_type_id":"4","last_reported":1781624160,"current_range_meters":7200,"station_id":"ce4bhbp2rcd13ifvqerg","pricing_plan_id":"cebpf4jnsgd1na2vs0mg"},{"bike_id":"292b4d83-8027-43f2-8882-df104c31cba4","system_id":"levelo_inurba_marseille","lat":43.32087,"lon":5.36791,"is_reserved":false,"is_disabled":false,"rental_uris":{"android":"levelo://app?vid=292b4d83-8027-43f2-8882-df104c31cba4","ios":"levelo://app?vid=292b4d83-8027-43f2-8882-df104c31cba4"},"vehicle_type_id":"4","last_reported":1781624160,"current_range_meters":7200,"station_id":"ce4bhrh2rcd13ifvqhug","pricing_plan_id":"cebpf4jnsgd1na2vs0mg"},{"bike_id":"faaa26f7-2b76-4505-a6d9-bed0c36d31c8","system_id":"levelo_inurba_marseille","lat":43.28863,"lon":5.35835,"is_reserved":false,"is_disabled":false,"rental_uris":{"android":"levelo://app?vid=faaa26f7-2b76-4505-a6d9-bed0c36d31c8","ios":"levelo://app?vid=faaa26f7-2b76-4505-a6d9-bed0c36d31c8"},"vehicle_type_id":"4","last_reported":1781624160,"current_range_meters":7200,"station_id":"ce4bhb12rcd13ifvqem0","pricing_plan_id":"cebpf4jnsgd1na2vs0mg"},{"bike_id":"2382f2e8-91d6-49ee-93ef-7bf968868733","system_id":"levelo_inurba_marseille","lat":43.26559,"lon":5.39042,"is_reserved":false,"is_disabled":false,"rental_uris":{"android":"levelo://app?vid=2382f2e8-91d6-49ee-93ef-7bf968868733","ios":"levelo://app?vid=2382f2e8-91d6-49ee-93ef-7bf968868733"},"vehicle_type_id":"4","last_reported":1781624160,"current_range_meters":7200,"station_id":"ce4bhe12rcd13ifvqf30","pricing_plan_id":"cebpf4jnsgd1na2vs0mg"},{"bike_id":"945cbcc7-a1c4-45fd-a7a8-c316d02dec1c","system_id":"levelo_inurba_marseille","lat":43.289764,"lon":5.378389,"is_reserved":false,"is_disabled":false,"rental_uris":{"android":"levelo://app?vid=945cbcc7-a1c4-45fd-a7a8-c316d02dec1c","ios":"levelo://app?vid=945cbcc7-a1c4-45fd-a7a8-c316d02dec1c"},"vehicle_type_id":"4","last_reported":1781624160,"current_range_meters":7200,"station_id":"ce4bh9p2rcd13ifvqed0","pricing_plan_id":"cebpf4jnsgd1na2vs0mg"},{"bike_id":"670834aa-6826-4e8a-80c1-e10b61766ca4","system_id":"levelo_inurba_marseille","lat":43.27919,"lon":5.39588,"is_reserved":false,"is_disabled":false,"rental_uris":{"android":"levelo://app?vid=670834aa-6826-4e8a-80c1-e10b61766ca4","ios":"levelo://app?vid=670834aa-6826-4e8a-80c1-e10b61766ca4"},"vehicle_type_id":"4","last_reported":1781624160,"current_range_meters":7200,"station_id":"ce4bhf92rcd13ifvqf40","pricing_plan_id":"cebpf4jnsgd1na2vs0mg"},{"bike_id":"017d0b60-22dd-4a44-8a27-a53cb5de9e22","system_id":"levelo_inurba_marseille","lat":43.231966,"lon":5.355541,"is_reserved":false,"is_disabled":false,"rental_uris":{"android":"levelo://app?vid=017d0b60-22dd-4a44-8a27-a53cb5de9e22","ios":"levelo://app?vid=017d0b60-22dd-4a44-8a27-a53cb5de9e22"},"vehicle_type_id":"4","last_reported":1781624160,"current_range_meters":7200,"station_id":"ce4bhu92rcd13ifvqi70","pricing_plan_id":"cebpf4jnsgd1na2vs0mg"},{"bike_id":"96a488e2-3301-4c74-b7c0-537d3a9e38b5","system_id":"levelo_inurba_marseille","lat":43.278134,"lon":5.407206,"is_reserved":false,"is_disabled":false,"rental_uris":{"android":"levelo://app?vid=96a488e2-3301-4c74-b7c0-537d3a9e38b5","ios":"levelo://app?vid=96a488e2-3301-4c74-b7c0-537d3a9e38b5"},"vehicle_type_id":"4","last_reported":1781624160,"current_range_meters":7200,"station_id":"ce4bhnh2rcd13ifvqgtg","pricing_plan_id":"cebpf4jnsgd1na2vs0mg"},{"bike_id":"54c5e148-f1a0-4162-b9ba-8f406c3161f9","system_id":"levelo_inurba_marseille","lat":43.25844,"lon":5.38869,"is_reserved":false,"is_disabled":false,"rental_uris":{"android":"levelo://app?vid=54c5e148-f1a0-4162-b9ba-8f406c3161f9","ios":"levelo://app?vid=54c5e148-f1a0-4162-b9ba-8f406c3161f9"},"vehicle_type_id":"4","last_reported":1781624160,"current_range_meters":7200,"station_id":"","pricing_plan_id":"cebpf4jnsgd1na2vs0mg"},{"bike_id":"8e5fdfdb-f342-42c0-ad96-278b98b0a496","system_id":"levelo_inurba_marseille","lat":43.24162,"lon":5.39741,"is_reserved":false,"is_disabled":false,"rental_uris":{"android":"levelo://app?vid=8e5fdfdb-f342-42c0-ad96-278b98b0a496","ios":"levelo://app?vid=8e5fdfdb-f342-42c0-ad96-278b98b0a496"},"vehicle_type_id":"4","last_reported":1781624160,"current_range_meters":7200,"station_id":"ce4bhn12rcd13ifvqgpg","pricing_plan_id":"cebpf4jnsgd1na2vs0mg"},{"bike_id":"6f907cc3-52ed-480f-bb77-a770fa039419","system_id":"levelo_inurba_marseille","lat":43.2396,"lon":5.36628,"is_reserved":false,"is_disabled":false,"rental_uris":{"android":"levelo://app?vid=6f907cc3-52ed-480f-bb77-a770fa039419","ios":"levelo://app?vid=6f907cc3-52ed-480f-bb77-a770fa039419"},"vehicle_type_id":"4","last_reported":1781624160,"current_range_meters":7200,"station_id":"ce4bhi12rcd13ifvqfp0","pricing_plan_id":"cebpf4jnsgd1na2vs0mg"},{"bike_id":"02e4b69e-20a4-4bc7-8948-2d1361233598","system_id":"levelo_inurba_marseille","lat":43.29536,"lon":5.38543,"is_reserved":false,"is_disabled":false,"rental_uris":{"android":"levelo://app?vid=02e4b69e-20a4-4bc7-8948-2d1361233598","ios":"levelo://app?vid=02e4b69e-20a4-4bc7-8948-2d1361233598"},"vehicle_type_id":"4","last_reported":1781624160,"current_range_meters":7200,"station_id":"ce4bgih2rcd13ifvqba0","pricing_plan_id":"cebpf4jnsgd1na2vs0mg"},{"bike_id":"8f23af7c-562c-4c4d-b7d1-f2416b74ad94","system_id":"levelo_inurba_marseille","lat":43.23189,"lon":5.39985,"is_reserved":false,"is_disabled":false,"rental_uris":{"android":"levelo://app?vid=8f23af7c-562c-4c4d-b7d1-f2416b74ad94","ios":"levelo://app?vid=8f23af7c-562c-4c4d-b7d1-f2416b74ad94"},"vehicle_type_id":"4","last_reported":1781624160,"current_range_meters":7200,"station_id":"ce4bhn12rcd13ifvqgqg","pricing_plan_id":"cebpf4jnsgd1na2vs0mg"},{"bike_id":"35f86b30-2f9a-4a81-b54b-6e41ce7560f5","system_id":"levelo_inurba_marseille","lat":43.25815,"lon":5.39445,"is_reserved":false,"is_disabled":false,"rental_uris":{"android":"levelo://app?vid=35f86b30-2f9a-4a81-b54b-6e41ce7560f5","ios":"levelo://app?vid=35f86b30-2f9a-4a81-b54b-6e41ce7560f5"},"vehicle_type_id":"4","last_reported":1781624160,"current_range_meters":7200,"station_id":"ce4bhip2rcd13ifvqft0","pricing_plan_id":"cebpf4jnsgd1na2vs0mg"},{"bike_id":"827c0b49-7a8d-4583-9d7a-708d84f7ae54","system_id":"levelo_inurba_marseille","lat":43.26945,"lon":5.38633,"is_reserved":false,"is_disabled":true,"rental_uris":{"android":"levelo://app?vid=827c0b49-7a8d-4583-9d7a-708d84f7ae54","ios":"levelo://app?vid=827c0b49-7a8d-4583-9d7a-708d84f7ae54"},"vehicle_type_id":"4","last_reported":1781624160,"current_range_meters":7200,"station_id":"ce4bhh92rcd13ifvqfh0","pricing_plan_id":"cebpf4jnsgd1na2vs0mg"},{"bike_id":"ad59514a-51a8-427b-874c-51c94c128d7e","system_id":"levelo_inurba_marseille","lat":43.21707,"lon":5.34652,"is_reserved":false,"is_disabled":false,"rental_uris":{"android":"levelo://app?vid=ad59514a-51a8-427b-874c-51c94c128d7e","ios":"levelo://app?vid=ad59514a-51a8-427b-874c-51c94c128d7e"},"vehicle_type_id":"4","last_reported":1781624160,"current_range_meters":7200,"station_id":"","pricing_plan_id":"cebpf4jnsgd1na2vs0mg"},{"bike_id":"4e8e3fd0-de15-45de-9d13-fc3bb689abe8","system_id":"levelo_inurba_marseille","lat":43.2955,"lon":5.42284,"is_reserved":false,"is_disabled":false,"rental_uris":{"android":"levelo://app?vid=4e8e3fd0-de15-45de-9d13-fc3bb689abe8","ios":"levelo://app?vid=4e8e3fd0-de15-45de-9d13-fc3bb689abe8"},"vehicle_type_id":"4","last_reported":1781624160,"current_range_meters":7200,"station_id":"ce4bhph2rcd13ifvqhdg","pricing_plan_id":"cebpf4jnsgd1na2vs0mg"},{"bike_id":"ff997dbb-216e-4b4f-9283-ee4b6083490f","system_id":"levelo_inurba_marseille","lat":43.251215,"lon":5.403205,"is_reserved":false,"is_disabled":false,"rental_uris":{"android":"levelo://app?vid=ff997dbb-216e-4b4f-9283-ee4b6083490f","ios":"levelo://app?vid=ff997dbb-216e-4b4f-9283-ee4b6083490f"},"vehicle_type_id":"4","last_reported":1781624160,"current_range_meters":7200,"station_id":"ce4bhlh2rcd13ifvqgig","pricing_plan_id":"cebpf4jnsgd1na2vs0mg"},{"bike_id":"ba6c1e5e-5925-48a8-9a9a-6ca5802f5a77","system_id":"levelo_inurba_marseille","lat":43.30548,"lon":5.36557,"is_reserved":false,"is_disabled":false,"rental_uris":{"android":"levelo://app?vid=ba6c1e5e-5925-48a8-9a9a-6ca5802f5a77","ios":"levelo://app?vid=ba6c1e5e-5925-48a8-9a9a-6ca5802f5a77"},"vehicle_type_id":"4","last_reported":1781624160,"current_range_meters":7200,"station_id":"ce4bgs12rcd13ifvqcag","pricing_plan_id":"cebpf4jnsgd1na2vs0mg"},{"bike_id":"7203ec31-39e3-451c-a64b-df0fc147cb90","system_id":"levelo_inurba_marseille","lat":43.25083,"lon":5.39516,"is_reserved":false,"is_disabled":false,"rental_uris":{"android":"levelo://app?vid=7203ec31-39e3-451c-a64b-df0fc147cb90","ios":"levelo://app?vid=7203ec31-39e3-451c-a64b-df0fc147cb90"},"vehicle_type_id":"4","last_reported":1781624160,"current_range_meters":7200,"station_id":"ce4bhm12rcd13ifvqgkg","pricing_plan_id":"cebpf4jnsgd1na2vs0mg"},{"bike_id":"7afd5665-6d1a-4686-b9f6-3f8c15d05dfb","system_id":"levelo_inurba_marseille","lat":43.27382,"lon":5.36265,"is_reserved":false,"is_disabled":false,"rental_uris":{"android":"levelo://app?vid=7afd5665-6d1a-4686-b9f6-3f8c15d05dfb","ios":"levelo://app?vid=7afd5665-6d1a-4686-b9f6-3f8c15d05dfb"},"vehicle_type_id":"4","last_reported":1781624160,"current_range_meters":7200,"station_id":"ce4bhbh2rcd13ifvqeo0","pricing_plan_id":"cebpf4jnsgd1na2vs0mg"},{"bike_id":"718145fd-c654-497f-a35b-3d479b03840d","system_id":"levelo_inurba_marseille","lat":43.32647,"lon":5.40994,"is_reserved":false,"is_disabled":false,"rental_uris":{"android":"levelo://app?vid=718145fd-c654-497f-a35b-3d479b03840d","ios":"levelo://app?vid=718145fd-c654-497f-a35b-3d479b03840d"},"vehicle_type_id":"4","last_reported":1781624160,"current_range_meters":7200,"station_id":"ce4bhpp2rcd13ifvqhgg","pricing_plan_id":"cebpf4jnsgd1na2vs0mg"},{"bike_id":"099c867d-b078-44a9-8d82-bea7828e3a1e","system_id":"levelo_inurba_marseille","lat":43.292999,"lon":5.374612,"is_reserved":false,"is_disabled":false,"rental_uris":{"android":"levelo://app?vid=099c867d-b078-44a9-8d82-bea7828e3a1e","ios":"levelo://app?vid=099c867d-b078-44a9-8d82-bea7828e3a1e"},"vehicle_type_id":"4","last_reported":1781624160,"current_range_meters":7200,"station_id":"ce4bgi12rcd13ifvqb70","pricing_plan_id":"cebpf4jnsgd1na2vs0mg"},{"bike_id":"b220c077-18c2-424b-88c3-f3990c538b2b","system_id":"levelo_inurba_marseille","lat":43.32339,"lon":5.38545,"is_reserved":false,"is_disabled":false,"rental_uris":{"android":"levelo://app?vid=b220c077-18c2-424b-88c3-f3990c538b2b","ios":"levelo://app?vid=b220c077-18c2-424b-88c3-f3990c538b2b"},"vehicle_type_id":"4","last_reported":1781624160,"current_range_meters":7200,"station_id":"st_d45171o9ee8s73djdqug","pricing_plan_id":"cebpf4jnsgd1na2vs0mg"},{"bike_id":"91630189-58fb-44b0-96df-29fedd1777dd","system_id":"levelo_inurba_marseille","lat":43.30253,"lon":5.40091,"is_reserved":false,"is_disabled":false,"rental_uris":{"android":"levelo://app?vid=91630189-58fb-44b0-96df-29fedd1777dd","ios":"levelo://app?vid=91630189-58fb-44b0-96df-29fedd1777dd"},"vehicle_type_id":"4","last_reported":1781624160,"current_range_meters":8000,"station_id":"ce4bgvh2rcd13ifvqcs0","pricing_plan_id":"cebpf4jnsgd1na2vs0mg"},{"bike_id":"8cba7c16-ce62-47f7-8c45-ff23dded65d1","system_id":"levelo_inurba_marseille","lat":43.2608,"lon":5.39375,"is_reserved":false,"is_disabled":false,"rental_uris":{"android":"levelo://app?vid=8cba7c16-ce62-47f7-8c45-ff23dded65d1","ios":"levelo://app?vid=8cba7c16-ce62-47f7-8c45-ff23dded65d1"},"vehicle_type_id":"4","last_reported":1781624160,"current_range_meters":8000,"station_id":"ce4bhh92rcd13ifvqfj0","pricing_plan_id":"cebpf4jnsgd1na2vs0mg"},{"bike_id":"c633ff03-33a5-4be2-adb0-ba400e9ee502","system_id":"levelo_inurba_marseille","lat":43.30324,"lon":5.40448,"is_reserved":false,"is_disabled":false,"rental_uris":{"android":"levelo://app?vid=c633ff03-33a5-4be2-adb0-ba400e9ee502","ios":"levelo://app?vid=c633ff03-33a5-4be2-adb0-ba400e9ee502"},"vehicle_type_id":"4","last_reported":1781624160,"current_range_meters":8000,"station_id":"ce4bh012rcd13ifvqd10","pricing_plan_id":"cebpf4jnsgd1na2vs0mg"},{"bike_id":"ebf35d4a-c5de-488a-b0d7-1f0c6c2d185e","system_id":"levelo_inurba_marseille","lat":43.26227,"lon":5.40454,"is_reserved":false,"is_disabled":false,"rental_uris":{"android":"levelo://app?vid=ebf35d4a-c5de-488a-b0d7-1f0c6c2d185e","ios":"levelo://app?vid=ebf35d4a-c5de-488a-b0d7-1f0c6c2d185e"},"vehicle_type_id":"4","last_reported":1781624160,"current_range_meters":8000,"station_id":"ce4bhmh2rcd13ifvqgmg","pricing_plan_id":"cebpf4jnsgd1na2vs0mg"},{"bike_id":"6ebd801c-2261-4e77-9845-38417778256c","system_id":"levelo_inurba_marseille","lat":43.29264,"lon":5.4013,"is_reserved":false,"is_disabled":true,"rental_uris":{"android":"levelo://app?vid=6ebd801c-2261-4e77-9845-38417778256c","ios":"levelo://app?vid=6ebd801c-2261-4e77-9845-38417778256c"},"vehicle_type_id":"4","last_reported":1781624160,"current_range_meters":8000,"station_id":"ce4bh312rcd13ifvqdk0","pricing_plan_id":"cebpf4jnsgd1na2vs0mg"},{"bike_id":"af95dff3-e0be-4f26-9360-bc5fa5ee838c","system_id":"levelo_inurba_marseille","lat":43.3212,"lon":5.36777,"is_reserved":false,"is_disabled":false,"rental_uris":{"android":"levelo://app?vid=af95dff3-e0be-4f26-9360-bc5fa5ee838c","ios":"levelo://app?vid=af95dff3-e0be-4f26-9360-bc5fa5ee838c"},"vehicle_type_id":"4","last_reported":1781624160,"current_range_meters":8000,"station_id":"ce4bhrh2rcd13ifvqhug","pricing_plan_id":"cebpf4jnsgd1na2vs0mg"},{"bike_id":"76ecdf96-44a8-42b8-9201-cbe7671d3ddc","system_id":"levelo_inurba_marseille","lat":43.28486,"lon":5.48389,"is_reserved":false,"is_disabled":false,"rental_uris":{"android":"levelo://app?vid=76ecdf96-44a8-42b8-9201-cbe7671d3ddc","ios":"levelo://app?vid=76ecdf96-44a8-42b8-9201-cbe7671d3ddc"},"vehicle_type_id":"4","last_reported":1781624160,"current_range_meters":8000,"station_id":"st_d3svhcjqgbts73a3dn0g","pricing_plan_id":"cebpf4jnsgd1na2vs0mg"},{"bike_id":"4ef05435-d8b5-45ff-9660-a31f4103c6e1","system_id":"levelo_inurba_marseille","lat":43.25393,"lon":5.37561,"is_reserved":false,"is_disabled":false,"rental_uris":{"android":"levelo://app?vid=4ef05435-d8b5-45ff-9660-a31f4103c6e1","ios":"levelo://app?vid=4ef05435-d8b5-45ff-9660-a31f4103c6e1"},"vehicle_type_id":"4","last_reported":1781624160,"current_range_meters":8000,"station_id":"","pricing_plan_id":"cebpf4jnsgd1na2vs0mg"},