{"last_updated":1728122857,"ttl":60,"version":"2.2","data":{"bikes":[{"bike_id":"7b5918c9-286b-4a5d-8c11-f495ad5c7f7a","system_id":"levelo_inurba_marseille","lat":43.30796,"lon":5.43517,"is_reserved":false,"is_disabled":false,"rental_uris":{"android":"levelo://app?vid=7b5918c9-286b-4a5d-8c11-f495ad5c7f7a","ios":"levelo://app?vid=7b5918c9-286b-4a5d-8c11-f495ad5c7f7a"},"vehicle_type_id":"4","last_reported":1728122858,"current_range_meters":8400,"station_id":"ce4bhph2rcd13ifvqheg","pricing_plan_id":"cebpf4jnsgd1na2vs0mg"},{"bike_id":"e4b84675-a2ef-4a08-972b-c8ccf50cd9f9","system_id":"levelo_inurba_marseille","lat":43.23194,"lon":5.39972,"is_reserved":false,"is_disabled":false,"rental_uris":{"android":"levelo://app?vid=e4b84675-a2ef-4a08-972b-c8ccf50cd9f9","ios":"levelo://app?vid=e4b84675-a2ef-4a08-972b-c8ccf50cd9f9"},"vehicle_type_id":"4","last_reported":1728122858,"current_range_meters":38800,"station_id":"ce4bhn12rcd13ifvqgqg","pricing_plan_id":"cebpf4jnsgd1na2vs0mg"},{"bike_id":"d053e2e9-1a8a-40b2-a20d-3968561954ac","system_id":"levelo_inurba_marseille","lat":43.26798,"lon":5.3941,"is_reserved":false,"is_disabled":false,"rental_uris":{"android":"levelo://app?vid=d053e2e9-1a8a-40b2-a20d-3968561954ac","ios":"levelo://app?vid=d053e2e9-1a8a-40b2-a20d-3968561954ac"},"vehicle_type_id":"4","last_reported":1728122858,"current_range_meters":17600,"station_id":"ce4bhh12rcd13ifvqfg0","pricing_plan_id":"cebpf4jnsgd1na2vs0mg"},{"bike_id":"f4595530-d232-414f-97eb-1f8005c70977","system_id":"levelo_inurba_marseille","lat":43.32368,"lon":5.38884,"is_reserved":false,"is_disabled":false,"rental_uris":{"android":"levelo://app?vid=f4595530-d232-414f-97eb-1f8005c70977","ios":"levelo://app?vid=f4595530-d232-414f-97eb-1f8005c70977"},"vehicle_type_id":"4","last_reported":1728122858,"current_range_meters":38400,"station_id":"ce4bhqp2rcd13ifvqhog","pricing_plan_id":"cebpf4jnsgd1na2vs0mg"},{"bike_id":"392fa318-32c2-4bf5-b741-e4e4ea41ff9e","system_id":"levelo_inurba_marseille","lat":43.30613,"lon":5.37246,"is_reserved":false,"is_disabled":false,"rental_uris":{"android":"levelo://app?vid=392fa318-32c2-4bf5-b741-e4e4ea41ff9e","ios":"levelo://app?vid=392fa318-32c2-4bf5-b741-e4e4ea41ff9e"},"vehicle_type_id":"4","last_reported":1728122858,"current_range_meters":16400,"station_id":"ce4bgqh2rcd13ifvqc4g","pricing_plan_id":"cebpf4jnsgd1na2vs0mg"},{"bike_id":"a56c66a8-2c2c-450d-99ae-17d6eaa42433","system_id":"levelo_inurba_marseille","lat":43.24392,"lon":5.37054,"is_reserved":false,"is_disabled":false,"rental_uris":{"android":"levelo://app?vid=a56c66a8-2c2c-450d-99ae-17d6eaa42433","ios":"levelo://app?vid=a56c66a8-2c2c-450d-99ae-17d6eaa42433"},"vehicle_type_id":"4","last_reported":1728122858,"current_range_meters":38000,"station_id":"ce4bhhh2rcd13ifvqfk0","pricing_plan_id":"cebpf4jnsgd1na2vs0mg"},{"bike_id":"5e9cb80f-bd7b-40ad-864b-a9c73b8cd1c2","system_id":"levelo_inurba_marseille","lat":43.29508,"lon":5.37531,"is_reserved":false,"is_disabled":false,"rental_uris":{"android":"levelo://app?vid=5e9cb80f-bd7b-40ad-864b-a9c73b8cd1c2","ios":"levelo://app?vid=5e9cb80f-bd7b-40ad-864b-a9c73b8cd1c2"},"vehicle_type_id":"4","last_reported":1728122858,"current_range_meters":38800,"station_id":"ce4bgkp2rcd13ifvqbmg","pricing_plan_id":"cebpf4jnsgd1na2vs0mg"},{"bike_id":"faa8a042-a83a-48e5-992e-1bf7b0a4d6b9","system_id":"levelo_inurba_marseille","lat":43.29102,"lon":5.38152,"is_reserved":false,"is_disabled":false,"rental_uris":{"android":"levelo://app?vid=faa8a042-a83a-48e5-992e-1bf7b0a4d6b9","ios":"levelo://app?vid=faa8a042-a83a-48e5-992e-1bf7b0a4d6b9"},"vehicle_type_id":"4","last_reported":1728122858,"current_range_meters":38800,"station_id":"ce4bh512rcd13ifvqe2g","pricing_plan_id":"cebpf4jnsgd1na2vs0mg"},{"bike_id":"756088e4-bd38-4606-aa6f-cbbf1461af00","system_id":"levelo_inurba_marseille","lat":43.22936,"lon":5.35379,"is_reserved":false,"is_disabled":false,"rental_uris":{"android":"levelo://app?vid=756088e4-bd38-4606-aa6f-cbbf1461af00","ios":"levelo://app?vid=756088e4-bd38-4606-aa6f-cbbf1461af00"},"vehicle_type_id":"4","last_reported":1728122858,"current_range_meters":8400,"station_id":"cpo3532slgdg3j2ikp40","pricing_plan_id":"cebpf4jnsgd1na2vs0mg"},{"bike_id":"469e4615-69fd-4f50-ab75-3a5649cbabf7","system_id":"levelo_inurba_marseille","lat":43.308,"lon":5.43524,"is_reserved":false,"is_disabled":false,"rental_uris":{"android":"levelo://app?vid=469e4615-69fd-4f50-ab75-3a5649cbabf7","ios":"levelo://app?vid=469e4615-69fd-4f50-ab75-3a5649cbabf7"},"vehicle_type_id":"4","last_reported":1728122858,"current_range_meters":12400,"station_id":"ce4bhph2rcd13ifvqheg","pricing_plan_id":"cebpf4jnsgd1na2vs0mg"},{"bike_id":"ff72c5c6-551a-4b6d-9d71-c9d5d5fd5b0c","system_id":"levelo_inurba_marseille","lat":43.30461,"lon":5.37906,"is_reserved":false,"is_disabled":false,"rental_uris":{"android":"levelo://app?vid=ff72c5c6-551a-4b6d-9d71-c9d5d5fd5b0c","ios":"levelo://app?vid=ff72c5c6-551a-4b6d-9d71-c9d5d5fd5b0c"},"vehicle_type_id":"4","last_reported":1728122858,"current_range_meters":38000,"station_id":"ce4bgup2rcd13ifvqcn0","pricing_plan_id":"cebpf4jnsgd1na2vs0mg"},{"bike_id":"b8a17cac-af11-4126-8663-8442a3531478","system_id":"levelo_inurba_marseille","lat":43.31386,"lon":5.38486,"is_reserved":false,"is_disabled":false,"rental_uris":{"android":"levelo://app?vid=b8a17cac-af11-4126-8663-8442a3531478","ios":"levelo://app?vid=b8a17cac-af11-4126-8663-8442a3531478"},"vehicle_type_id":"4","last_reported":1728122858,"current_range_meters":25600,"station_id":"ce4bgt92rcd13ifvqcf0","pricing_plan_id":"cebpf4jnsgd1na2vs0mg"},{"bike_id":"0ab460f8-b4be-4e2d-adf0-6c100fcce9a9","system_id":"levelo_inurba_marseille","lat":43.24069,"lon":5.37765,"is_reserved":false,"is_disabled":false,"rental_uris":{"android":"levelo://app?vid=0ab460f8-b4be-4e2d-adf0-6c100fcce9a9","ios":"levelo://app?vid=0ab460f8-b4be-4e2d-adf0-6c100fcce9a9"},"vehicle_type_id":"4","last_reported":1728122858,"current_range_meters":30000,"station_id":"ce4bhnp2rcd13ifvqgvg","pricing_plan_id":"cebpf4jnsgd1na2vs0mg"},{"bike_id":"b0d97aa1-e55a-4e57-88a6-c275a37985b3","system_id":"levelo_inurba_marseille","lat":43.26555,"lon":5.37283,"is_reserved":false,"is_disabled":false,"rental_uris":{"android":"levelo://app?vid=b0d97aa1-e55a-4e57-88a6-c275a37985b3","ios":"levelo://app?vid=b0d97aa1-e55a-4e57-88a6-c275a37985b3"},"vehicle_type_id":"4","last_reported":1728122858,"current_range_meters":31200,"station_id":"ce4bhg12rcd13ifvqf70","pricing_plan_id":"cebpf4jnsgd1na2vs0mg"},{"bike_id":"f7345fb0-c49d-4991-bee3-0497a705e08c","system_id":"levelo_inurba_marseille","lat":43.29716,"lon":5.37699,"is_reserved":false,"is_disabled":false,"rental_uris":{"android":"levelo://app?vid=f7345fb0-c49d-4991-bee3-0497a705e08c","ios":"levelo://app?vid=f7345fb0-c49d-4991-bee3-0497a705e08c"},"vehicle_type_id":"4","last_reported":1728122858,"current_range_meters":34800,"station_id":"ce4bgkh2rcd13ifvqbl0","pricing_plan_id":"cebpf4jnsgd1na2vs0mg"},{"bike_id":"e5e68093-094e-4829-99bd-03efe9686e84","system_id":"levelo_inurba_marseille","lat":43.3134,"lon":5.39689,"is_reserved":false,"is_disabled":false,"rental_uris":{"android":"levelo://app?vid=e5e68093-094e-4829-99bd-03efe9686e84","ios":"levelo://app?vid=e5e68093-094e-4829-99bd-03efe9686e84"},"vehicle_type_id":"4","last_reported":1728122858,"current_range_meters":38400,"station_id":"ce4bgvp2rcd13ifvqcu0","pricing_plan_id":"cebpf4jnsgd1na2vs0mg"},{"bike_id":"c3672803-fc05-4da2-a6fb-1497db3d7f9f","system_id":"levelo_inurba_marseille","lat":43.297733,"lon":5.371037,"is_reserved":false,"is_disabled":false,"rental_uris":{"android":"levelo://app?vid=c3672803-fc05-4da2-a6fb-1497db3d7f9f","ios":"levelo://app?vid=c3672803-fc05-4da2-a6fb-1497db3d7f9f"},"vehicle_type_id":"4","last_reported":1728122858,"current_range_meters":36000,"station_id":"ce4bgop2rcd13ifvqc1g","pricing_plan_id":"cebpf4jnsgd1na2vs0mg"},{"bike_id":"37042c1b-99f0-4379-a7d0-0b6867cdb669","system_id":"levelo_inurba_marseille","lat":43.23175,"lon":5.39986,"is_reserved":false,"is_disabled":false,"rental_uris":{"android":"levelo://app?vid=37042c1b-99f0-4379-a7d0-0b6867cdb669","ios":"levelo://app?vid=37042c1b-99f0-4379-a7d0-0b6867cdb669"},"vehicle_type_id":"4","last_reported":1728122858,"current_range_meters":38800,"station_id":"ce4bhn12rcd13ifvqgqg","pricing_plan_id":"cebpf4jnsgd1na2vs0mg"},{"bike_id":"3fcd9509-291d-4e4c-8059-389700352c75","system_id":"levelo_inurba_marseille","lat":43.25722,"lon":5.41111,"is_reserved":false,"is_disabled":false,"rental_uris":{"android":"levelo://app?vid=3fcd9509-291d-4e4c-8059-389700352c75","ios":"levelo://app?vid=3fcd9509-291d-4e4c-8059-389700352c75"},"vehicle_type_id":"4","last_reported":1728122858,"current_range_meters":28400,"station_id":"ce4bhkp2rcd13ifvqgd0","pricing_plan_id":"cebpf4jnsgd1na2vs0mg"},{"bike_id":"45ad2c28-a8cd-47c1-b919-c410b05e8ed1","system_id":"levelo_inurba_marseille","lat":43.23192,"lon":5.35548,"is_reserved":false,"is_disabled":false,"rental_uris":{"android":"levelo://app?vid=45ad2c28-a8cd-47c1-b919-c410b05e8ed1","ios":"levelo://app?vid=45ad2c28-a8cd-47c1-b919-c410b05e8ed1"},"vehicle_type_id":"4","last_reported":1728122858,"current_range_meters":26800,"station_id":"ce4bhu92rcd13ifvqi70","pricing_plan_id":"cebpf4jnsgd1na2vs0mg"},{"bike_id":"f7832a66-8d42-4cf5-bca1-d817a4db033e","system_id":"levelo_inurba_marseille","lat":43.295197,"lon":5.390413,"is_reserved":false,"is_disabled":false,"rental_uris":{"android":"levelo://app?vid=f7832a66-8d42-4cf5-bca1-d817a4db033e","ios":"levelo://app?vid=f7832a66-8d42-4cf5-bca1-d817a4db033e"},"vehicle_type_id":"4","last_reported":1728122858,"current_range_meters":8000,"station_id":"ce4bhi12rcd13ifvqfq0","pricing_plan_id":"cebpf4jnsgd1na2vs0mg"},{"bike_id":"66be19b6-8afc-4b28-83bf-1b088b211bfc","system_id":"levelo_inurba_marseille","lat":43.26038,"lon":5.37546,"is_reserved":false,"is_disabled":false,"rental_uris":{"android":"levelo://app?vid=66be19b6-8afc-4b28-83bf-1b088b211bfc","ios":"levelo://app?vid=66be19b6-8afc-4b28-83bf-1b088b211bfc"},"vehicle_type_id":"4","last_reported":1728122858,"current_range_meters":10000,"station_id":"ce4bhgh2rcd13ifvqfa0","pricing_plan_id":"cebpf4jnsgd1na2vs0mg"},{"bike_id":"69b2ab72-6eb7-403d-85c7-be72aa2ab82b","system_id":"levelo_inurba_marseille","lat":43.30102,"lon":5.40056,"is_reserved":false,"is_disabled":false,"rental_uris":{"android":"levelo://app?vid=69b2ab72-6eb7-403d-85c7-be72aa2ab82b","ios":"levelo://app?vid=69b2ab72-6eb7-403d-85c7-be72aa2ab82b"},"vehicle_type_id":"4","last_reported":1728122858,"current_range_meters":18000,"station_id":"","pricing_plan_id":"cebpf4jnsgd1na2vs0mg"},{"bike_id":"e0636737-6609-4b96-9675-bf18398bf505","system_id":"levelo_inurba_marseille","lat":43.25104,"lon":5.40327,"is_reserved":false,"is_disabled":false,"rental_uris":{"android":"levelo://app?vid=e0636737-6609-4b96-9675-bf18398bf505","ios":"levelo://app?vid=e0636737-6609-4b96-9675-bf18398bf505"},"vehicle_type_id":"4","last_reported":1728122858,"current_range_meters":33200,"station_id":"ce4bhlh2rcd13ifvqgig","pricing_plan_id":"cebpf4jnsgd1na2vs0mg"},{"bike_id":"73a24e0e-e6db-43a8-bdc3-253983d48aa8","system_id":"levelo_inurba_marseille","lat":43.25586,"lon":5.38232,"is_reserved":false,"is_disabled":false,"rental_uris":{"android":"levelo://app?vid=73a24e0e-e6db-43a8-bdc3-253983d48aa8","ios":"levelo://app?vid=73a24e0e-e6db-43a8-bdc3-253983d48aa8"},"vehicle_type_id":"4","last_reported":1728122858,"current_range_meters":39200,"station_id":"ce4bhih2rcd13ifvqfs0","pricing_plan_id":"cebpf4jnsgd1na2vs0mg"},{"bike_id":"2ee470a2-f6fc-41c4-9ed0-be15e787887a","system_id":"levelo_inurba_marseille","lat":43.23967,"lon":5.36634,"is_reserved":false,"is_disabled":false,"rental_uris":{"android":"levelo://app?vid=2ee470a2-f6fc-41c4-9ed0-be15e787887a","ios":"levelo://app?vid=2ee470a2-f6fc-41c4-9ed0-be15e787887a"},"vehicle_type_id":"4","last_reported":1728122858,"current_range_meters":38800,"station_id":"ce4bhi12rcd13ifvqfp0","pricing_plan_id":"cebpf4jnsgd1na2vs0mg"},{"bike_id":"bc54aa5a-da10-4aea-b2d7-ad7518cc716d","system_id":"levelo_inurba_marseille","lat":43.284454,"lon":5.349586,"is_reserved":false,"is_disabled":false,"rental_uris":{"android":"levelo://app?vid=bc54aa5a-da10-4aea-b2d7-ad7518cc716d","ios":"levelo://app?vid=bc54aa5a-da10-4aea-b2d7-ad7518cc716d"},"vehicle_type_id":"4","last_reported":1728122858,"current_range_meters":31200,"station_id":"ce4bhbh2rcd13ifvqepg","pricing_plan_id":"cebpf4jnsgd1na2vs0mg"},{"bike_id":"e6b2df58-b4a0-4aec-933d-a62e42f34d34","system_id":"levelo_inurba_marseille","lat":43.33727,"lon":5.39194,"is_reserved":false,"is_disabled":false,"rental_uris":{"android":"levelo://app?vid=e6b2df58-b4a0-4aec-933d-a62e42f34d34","ios":"levelo://app?vid=e6b2df58-b4a0-4aec-933d-a62e42f34d34"},"vehicle_type_id":"4","last_reported":1728122858,"current_range_meters":14000,"station_id":"ce4bhr92rcd13ifvqhsg","pricing_plan_id":"cebpf4jnsgd1na2vs0mg"},{"bike_id":"a20defd8-4cf4-4093-aed2-596ba3be1d30","system_id":"levelo_inurba_marseille","lat":43.24068,"lon":5.37754,"is_reserved":false,"is_disabled":false,"rental_uris":{"android":"levelo://app?vid=a20defd8-4cf4-4093-aed2-596ba3be1d30","ios":"levelo://app?vid=a20defd8-4cf4-4093-aed2-596ba3be1d30"},"vehicle_type_id":"4","last_reported":1728122858,"current_range_meters":24400,"station_id":"ce4bhnp2rcd13ifvqgvg","pricing_plan_id":"cebpf4jnsgd1na2vs0mg"},{"bike_id":"1622c62b-20ed-43b2-a8d0-b02098367a11","system_id":"levelo_inurba_marseille","lat":43.26197,"lon":5.37925,"is_reserved":false,"is_disabled":false,"rental_uris":{"android":"levelo://app?vid=1622c62b-20ed-43b2-a8d0-b02098367a11","ios":"levelo://app?vid=1622c62b-20ed-43b2-a8d0-b02098367a11"},"vehicle_type_id":"4","last_reported":1728122858,"current_range_meters":39200,"station_id":"ce4bhjp2rcd13ifvqg90","pricing_plan_id":"cebpf4jnsgd1na2vs0mg"},{"bike_id":"d77938b7-ff1e-465c-a8b9-4b07085a5cc9","system_id":"levelo_inurba_marseille","lat":43.23062,"lon":5.35488,"is_reserved":false,"is_disabled":false,"rental_uris":{"android":"levelo://app?vid=d77938b7-ff1e-465c-a8b9-4b07085a5cc9","ios":"levelo://app?vid=d77938b7-ff1e-465c-a8b9-4b07085a5cc9"},"vehicle_type_id":"4","last_reported":1728122858,"current_range_meters":12800,"station_id":"cpo3342slgdg3j2ifvpg","pricing_plan_id":"cebpf4jnsgd1na2vs0mg"},{"bike_id":"852457a1-813f-46b8-bb13-232384e208e9","system_id":"levelo_inurba_marseille","lat":43.3377,"lon":5.37437,"is_reserved":false,"is_disabled":false,"rental_uris":{"android":"levelo://app?vid=852457a1-813f-46b8-bb13-232384e208e9","ios":"levelo://app?vid=852457a1-813f-46b8-bb13-232384e208e9"},"vehicle_type_id":"4","last_reported":1728122858,"current_range_meters":34000,"station_id":"","pricing_plan_id":"cebpf4jnsgd1na2vs0mg"},{"bike_id":"0d79ef91-e03a-4511-b960-a6f350f28d65","system_id":"levelo_inurba_marseille","lat":43.23062,"lon":5.35491,"is_reserved":false,"is_disabled":false,"rental_uris":{"android":"levelo://app?vid=0d79ef91-e03a-4511-b960-a6f350f28d65","ios":"levelo://app?vid=0d79ef91-e03a-4511-b960-a6f350f28d65"},"vehicle_type_id":"4","last_reported":1728122858,"current_range_meters":19600,"station_id":"cpo3342slgdg3j2ifvpg","pricing_plan_id":"cebpf4jnsgd1na2vs0mg"},{"bike_id":"8e7f4a7b-d99e-4af4-9ae5-4a83a0f70ae4","system_id":"levelo_inurba_marseille","lat":43.28847,"lon":5.35306,"is_reserved":false,"is_disabled":false,"rental_uris":{"android":"levelo://app?vid=8e7f4a7b-d99e-4af4-9ae5-4a83a0f70ae4","ios":"levelo://app?vid=8e7f4a7b-d99e-4af4-9ae5-4a83a0f70ae4"},"vehicle_type_id":"4","last_reported":1728122858,"current_range_meters":14000,"station_id":"ce4bgpp2rcd13ifvqc3g","pricing_plan_id":"cebpf4jnsgd1na2vs0mg"},{"bike_id":"190024fe-3aeb-487b-b51b-eb04820f7348","system_id":"levelo_inurba_marseille","lat":43.3047,"lon":5.37899,"is_reserved":false,"is_disabled":false,"rental_uris":{"android":"levelo://app?vid=190024fe-3aeb-487b-b51b-eb04820f7348","ios":"levelo://app?vid=190024fe-3aeb-487b-b51b-eb04820f7348"},"vehicle_type_id":"4","last_reported":1728122858,"current_range_meters":30000,"station_id":"ce4bgup2rcd13ifvqcn0","pricing_plan_id":"cebpf4jnsgd1na2vs0mg"},{"bike_id":"a53b98f8-52a1-4fbf-9c54-5ce202cb9f71","system_id":"levelo_inurba_marseille","lat":43.27373,"lon":5.36248,"is_reserved":false,"is_disabled":false,"rental_uris":{"android":"levelo://app?vid=a53b98f8-52a1-4fbf-9c54-5ce202cb9f71","ios":"levelo://app?vid=a53b98f8-52a1-4fbf-9c54-5ce202cb9f71"},"vehicle_type_id":"4","last_reported":1728122858,"current_range_meters":37600,"station_id":"ce4bhbh2rcd13ifvqeo0","pricing_plan_id":"cebpf4jnsgd1na2vs0mg"},{"bike_id":"54d09a39-e79d-434c-8a05-a8f2660c6a94","system_id":"levelo_inurba_marseille","lat":43.29902,"lon":5.43673,"is_reserved":false,"is_disabled":false,"rental_uris":{"android":"levelo://app?vid=54d09a39-e79d-434c-8a05-a8f2660c6a94","ios":"levelo://app?vid=54d09a39-e79d-434c-8a05-a8f2660c6a94"},"vehicle_type_id":"4","last_reported":1728122858,"current_range_meters":12000,"station_id":"ce4bhpp2rcd13ifvqhfg","pricing_plan_id":"cebpf4jnsgd1na2vs0mg"},{"bike_id":"8fdd4710-87f4-48c7-83b6-b9e906459d33","system_id":"levelo_inurba_marseille","lat":43.29263,"lon":5.40143,"is_reserved":false,"is_disabled":false,"rental_uris":{"android":"levelo://app?vid=8fdd4710-87f4-48c7-83b6-b9e906459d33","ios":"levelo://app?vid=8fdd4710-87f4-48c7-83b6-b9e906459d33"},"vehicle_type_id":"4","last_reported":1728122858,"current_range_meters":0,"station_id":"ce4bh312rcd13ifvqdk0","pricing_plan_id":"cebpf4jnsgd1na2vs0mg"},{"bike_id":"e88589c2-9daf-4f7c-9d5a-36ecf8f63f21","system_id":"levelo_inurba_marseille","lat":43.3266,"lon":5.40983,"is_reserved":false,"is_disabled":false,"rental_uris":{"android":"levelo://app?vid=e88589c2-9daf-4f7c-9d5a-36ecf8f63f21","ios":"levelo://app?vid=e88589c2-9daf-4f7c-9d5a-36ecf8f63f21"},"vehicle_type_id":"4","last_reported":1728122858,"current_range_meters":37600,"station_id":"ce4bhpp2rcd13ifvqhgg","pricing_plan_id":"cebpf4jnsgd1na2vs0mg"},{"bike_id":"36bb2c6f-7f12-4e31-98ee-a17e5ebb44aa","system_id":"levelo_inurba_marseille","lat":43.29587,"lon":5.36733,"is_reserved":false,"is_disabled":false,"rental_uris":{"android":"levelo://app?vid=36bb2c6f-7f12-4e31-98ee-a17e5ebb44aa","ios":"levelo://app?vid=36bb2c6f-7f12-4e31-98ee-a17e5ebb44aa"},"vehicle_type_id":"4","last_reported":1728122858,"current_range_meters":38000,"station_id":"ce4bgph2rcd13ifvqc2g","pricing_plan_id":"cebpf4jnsgd1na2vs0mg"},{"bike_id":"f2d97acb-1d32-4e87-8374-8721d7c706d1","system_id":"levelo_inurba_marseille","lat":43.26064,"lon":5.39394,"is_reserved":false,"is_disabled":false,"rental_uris":{"android":"levelo://app?vid=f2d97acb-1d32-4e87-8374-8721d7c706d1","ios":"levelo://app?vid=f2d97acb-1d32-4e87-8374-8721d7c706d1"},"vehicle_type_id":"4","last_reported":1728122858,"current_range_meters":28400,"station_id":"ce4bhh92rcd13ifvqfj0","pricing_plan_id":"cebpf4jnsgd1na2vs0mg"},{"bike_id":"e58cd69b-6df5-4dfd-9113-9904cf6e07c3","system_id":"levelo_inurba_marseille","lat":43.24388,"lon":5.37059,"is_reserved":false,"is_disabled":false,"rental_uris":{"android":"levelo://app?vid=e58cd69b-6df5-4dfd-9113-9904cf6e07c3","ios":"levelo://app?vid=e58cd69b-6df5-4dfd-9113-9904cf6e07c3"},"vehicle_type_id":"4","last_reported":1728122858,"current_range_meters":30800,"station_id":"ce4bhhh2rcd13ifvqfk0","pricing_plan_id":"cebpf4jnsgd1na2vs0mg"},{"bike_id":"de59a9fc-b97f-4713-a607-8410087dc39b","system_id":"levelo_inurba_marseille","lat":43.28624,"lon":5.35098,"is_reserved":false,"is_disabled":false,"rental_uris":{"android":"levelo://app?vid=de59a9fc-b97f-4713-a607-8410087dc39b","ios":"levelo://app?vid=de59a9fc-b97f-4713-a607-8410087dc39b"},"vehicle_type_id":"4","last_reported":1728122858,"current_range_meters":31200,"station_id":"ce4bhch2rcd13ifvqeug","pricing_plan_id":"cebpf4jnsgd1na2vs0mg"},{"bike_id":"a2757abc-4224-428a-a673-690954ea5d2d","system_id":"levelo_inurba_marseille","lat":43.2501,"lon":5.38192,"is_reserved":false,"is_disabled":false,"rental_uris":{"android":"levelo://app?vid=a2757abc-4224-428a-a673-690954ea5d2d","ios":"levelo://app?vid=a2757abc-4224-428a-a673-690954ea5d2d"},"vehicle_type_id":"4","last_reported":1728122858,"current_range_meters":22400,"station_id":"","pricing_plan_id":"cebpf4jnsgd1na2vs0mg"},{"bike_id":"2bd7e949-580a-4297-b427-4b62fa0e3480","system_id":"levelo_inurba_marseille","lat":43.23132,"lon":5.43705,"is_reserved":false,"is_disabled":false,"rental_uris":{"android":"levelo://app?vid=2bd7e949-580a-4297-b427-4b62fa0e3480","ios":"levelo://app?vid=2bd7e949-580a-4297-b427-4b62fa0e3480"},"vehicle_type_id":"4","last_reported":1728122858,"current_range_meters":35600,"station_id":"ce4bhmp2rcd13ifvqgog","pricing_plan_id":"cebpf4jnsgd1na2vs0mg"},{"bike_id":"308ae973-a71c-45c1-9a03-b73643f01e25","system_id":"levelo_inurba_marseille","lat":43.3171,"lon":5.43706,"is_reserved":false,"is_disabled":false,"rental_uris":{"android":"levelo://app?vid=308ae973-a71c-45c1-9a03-b73643f01e25","ios":"levelo://app?vid=308ae973-a71c-45c1-9a03-b73643f01e25"},"vehicle_type_id":"4","last_reported":1728122858,"current_range_meters":24400,"station_id":"ce4bhp92rcd13ifvqhcg","pricing_plan_id":"cebpf4jnsgd1na2vs0mg"},{"bike_id":"7f9615d8-3abe-410d-a5b7-ed566d4cff7a","system_id":"levelo_inurba_marseille","lat":43.26567,"lon":5.39003,"is_reserved":false,"is_disabled":false,"rental_uris":{"android":"levelo://app?vid=7f9615d8-3abe-410d-a5b7-ed566d4cff7a","ios":"levelo://app?vid=7f9615d8-3abe-410d-a5b7-ed566d4cff7a"},"vehicle_type_id":"4","last_reported":1728122858,"current_range_meters":23200,"station_id":"ce4bhe12rcd13ifvqf30","pricing_plan_id":"cebpf4jnsgd1na2vs0mg"},{"bike_id":"baba7691-81ff-4c7d-90d9-c89eba9696cb","system_id":"levelo_inurba_marseille","lat":43.25929,"lon":5.40912,"is_reserved":false,"is_disabled":false,"rental_uris":{"android":"levelo://app?vid=baba7691-81ff-4c7d-90d9-c89eba9696cb","ios":"levelo://app?vid=baba7691-81ff-4c7d-90d9-c89eba9696cb"},"vehicle_type_id":"4","last_reported":1728122858,"current_range_meters":36800,"station_id":"ce4bhm92rcd13ifvqglg","pricing_plan_id":"cebpf4jnsgd1na2vs0mg"},{"bike_id":"1b594013-10a1-45f5-b800-a8e42c9ad8cb","system_id":"levelo_inurba_marseille","lat":43.28151,"lon":5.42647,"is_reserved":false,"is_disabled":false,"rental_uris":{"android":"levelo://app?vid=1b594013-10a1-45f5-b800-a8e42c9ad8cb","ios":"levelo://app?vid=1b594013-10a1-45f5-b800-a8e42c9ad8cb"},"vehicle_type_id":"4","last_reported":1728122858,"current_range_meters":38800,"station_id":"ce4bhnh2rcd13ifvqgug","pricing_plan_id":"cebpf4jnsgd1na2vs0mg"},{"bike_id":"6adca5ea-283b-4e62-8ab0-675c58b51d84","system_id":"levelo_inurba_marseille","lat":43.29299,"lon":5.37461,"is_reserved":false,"is_disabled":false,"rental_uris":{"android":"levelo://app?vid=6adca5ea-283b-4e62-8ab0-675c58b51d84","ios":"levelo://app?vid=6adca5ea-283b-4e62-8ab0-675c58b51d84"},"vehicle_type_id":"4","last_reported":1728122858,"current_range_meters":5600,"station_id":"ce4bgi12rcd13ifvqb70","pricing_plan_id":"cebpf4jnsgd1na2vs0mg"},{"bike_id":"9bc0503a-c3cf-4ccc-af87-a50a9776159c","system_id":"levelo_inurba_marseille","lat":43.30947,"lon":5.39036,"is_reserved":false,"is_disabled":false,"rental_uris":{"android":"levelo://app?vid=9bc0503a-c3cf-4ccc-af87-a50a9776159c","ios":"levelo://app?vid=9bc0503a-c3cf-4ccc-af87-a50a9776159c"},"vehicle_type_id":"4","last_reported":1728122858,"current_range_meters":33200,"station_id":"ce4bgup2rcd13ifvqco0","pricing_plan_id":"cebpf4jnsgd1na2vs0mg"},{"bike_id":"560cbcfd-dddb-4948-9f2b-ea57c785178f","system_id":"levelo_inurba_marseille","lat":43.25582,"lon":5.38233,"is_reserved":false,"is_disabled":false,"rental_uris":{"android":"levelo://app?vid=560cbcfd-dddb-4948-9f2b-ea57c785178f","ios":"levelo://app?vid=560cbcfd-dddb-4948-9f2b-ea57c785178f"},"vehicle_type_id":"4","last_reported":1728122858,"current_range_meters":23200,"station_id":"ce4bhih2rcd13ifvqfs0","pricing_plan_id":"cebpf4jnsgd1na2vs0mg"},{"bike_id":"e5e43828-a215-457d-9526-dc97b02d3d09","system_id":"levelo_inurba_marseille","lat":43.23967,"lon":5.36633,"is_reserved":false,"is_disabled":false,"rental_uris":{"android":"levelo://app?vid=e5e43828-a215-457d-9526-dc97b02d3d09","ios":"levelo://app?vid=e5e43828-a215-457d-9526-dc97b02d3d09"},"vehicle_type_id":"4","last_reported":1728122858,"current_range_meters":21600,"station_id":"ce4bhi12rcd13ifvqfp0","pricing_plan_id":"cebpf4jnsgd1na2vs0mg"},{"bike_id":"f00b4cff-1615-45e1-bac9-44961e1a1ae2","system_id":"levelo_inurba_marseille","lat":43.28151,"lon":5.42642,"is_reserved":false,"is_disabled":false,"rental_uris":{"android":"levelo://app?vid=f00b4cff-1615-45e1-bac9-44961e1a1ae2","ios":"levelo://app?vid=f00b4cff-1615-45e1-bac9-44961e1a1ae2"},"vehicle_type_id":"4","last_reported":1728122858,"current_range_meters":26000,"station_id":"ce4bhnh2rcd13ifvqgug","pricing_plan_id":"cebpf4jnsgd1na2vs0mg"},{"bike_id":"bf214ee5-bcc3-48ed-b2c5-a945b0468078","system_id":"levelo_inurba_marseille","lat":43.24642,"lon":5.38898,"is_reserved":false,"is_disabled":false,"rental_uris":{"android":"levelo://app?vid=bf214ee5-bcc3-48ed-b2c5-a945b0468078","ios":"levelo://app?vid=bf214ee5-bcc3-48ed-b2c5-a945b0468078"},"vehicle_type_id":"4","last_reported":1728122858,"current_range_meters":18000,"station_id":"ce4bhg12rcd13ifvqf60","pricing_plan_id":"cebpf4jnsgd1na2vs0mg"},{"bike_id":"a3f87593-f91c-424c-8b11-f4aa40b65d37","system_id":"levelo_inurba_marseille","lat":43.29557,"lon":5.42293,"is_reserved":false,"is_disabled":false,"rental_uris":{"android":"levelo://app?vid=a3f87593-f91c-424c-8b11-f4aa40b65d37","ios":"levelo://app?vid=a3f87593-f91c-424c-8b11-f4aa40b65d37"},"vehicle_type_id":"4","last_reported":1728122858,"current_range_meters":38000,"station_id":"ce4bhph2rcd13ifvqhdg","pricing_plan_id":"cebpf4jnsgd1na2vs0mg"},{"bike_id":"048b48e2-fdf6-4f53-aa74-369aa9ffb52c","system_id":"levelo_inurba_marseille","lat":43.23148,"lon":5.43718,"is_reserved":false,"is_disabled":false,"rental_uris":{"android":"levelo://app?vid=048b48e2-fdf6-4f53-aa74-369aa9ffb52c","ios":"levelo://app?vid=048b48e2-fdf6-4f53-aa74-369aa9ffb52c"},"vehicle_type_id":"4","last_reported":1728122858,"current_range_meters":17200,"station_id":"ce4bhmp2rcd13ifvqgog","pricing_plan_id":"cebpf4jnsgd1na2vs0mg"},{"bike_id":"1bb965c6-c1b5-4877-bfa7-58981b7bc646","system_id":"levelo_inurba_marseille","lat":43.30504,"lon":5.38018,"is_reserved":false,"is_disabled":false,"rental_uris":{"android":"levelo://app?vid=1bb965c6-c1b5-4877-bfa7-58981b7bc646","ios":"levelo://app?vid=1bb965c6-c1b5-4877-bfa7-58981b7bc646"},"vehicle_type_id":"4","last_reported":1728122858,"current_range_meters":28800,"station_id":"ce4bgup2rcd13ifvqcn0","pricing_plan_id":"cebpf4jnsgd1na2vs0mg"},{"bike_id":"13a35d1a-1c21-4cdd-9282-17040c700716","system_id":"levelo_inurba_marseille","lat":43.32537,"lon":5.41446,"is_reserved":false,"is_disabled":false,"rental_uris":{"android":"levelo://app?vid=13a35d1a-1c21-4cdd-9282-17040c700716","ios":"levelo://app?vid=13a35d1a-1c21-4cdd-9282-17040c700716"},"vehicle_type_id":"4","last_reported":1728122858,"current_range_meters":38800,"station_id":"ce4bhq12rcd13ifvqhhg","pricing_plan_id":"cebpf4jnsgd1na2vs0mg"},{"bike_id":"74f81c16-ec40-44a3-acf2-e6f6358a2cf3","system_id":"levelo_inurba_marseille","lat":43.29271,"lon":5.36846,"is_reserved":false,"is_disabled":false,"rental_uris":{"android":"levelo://app?vid=74f81c16-ec40-44a3-acf2-e6f6358a2cf3","ios":"levelo://app?vid=74f81c16-ec40-44a3-acf2-e6f6358a2cf3"},"vehicle_type_id":"4","last_reported":1728122858,"current_range_meters":30000,"station_id":"ce4bhbp2rcd13ifvqesg","pricing_plan_id":"cebpf4jnsgd1na2vs0mg"},{"bike_id":"5991f84f-21f0-4a7e-908b-cd019d1c55c9","system_id":"levelo_inurba_marseille","lat":43.29192,"lon":5.35795,"is_reserved":false,"is_disabled":false,"rental_uris":{"android":"levelo://app?vid=5991f84f-21f0-4a7e-908b-cd019d1c55c9","ios":"levelo://app?vid=5991f84f-21f0-4a7e-908b-cd019d1c55c9"},"vehicle_type_id":"4","last_reported":1728122858,"current_range_meters":38000,"station_id":"ce4bhb12rcd13ifvqel0","pricing_plan_id":"cebpf4jnsgd1na2vs0mg"},{"bike_id":"191d52ca-e5c2-4e5e-bd8a-f15d0ea8433b","system_id":"levelo_inurba_marseille","lat":43.2978,"lon":5.37107,"is_reserved":false,"is_disabled":false,"rental_uris":{"android":"levelo://app?vid=191d52ca-e5c2-4e5e-bd8a-f15d0ea8433b","ios":"levelo://app?vid=191d52ca-e5c2-4e5e-bd8a-f15d0ea8433b"},"vehicle_type_id":"4","last_reported":1728122858,"current_range_meters":27200,"station_id":"ce4bgop2rcd13ifvqc1g","pricing_plan_id":"cebpf4jnsgd1na2vs0mg"},{"bike_id":"696644f5-1423-4196-8c71-bccdf5f2a225","system_id":"levelo_inurba_marseille","lat":43.28419,"lon":5.34989,"is_reserved":false,"is_disabled":false,"rental_uris":{"android":"levelo://app?vid=696644f5-1423-4196-8c71-bccdf5f2a225","ios":"levelo://app?vid=696644f5-1423-4196-8c71-bccdf5f2a225"},"vehicle_type_id":"4","last_reported":1728122858,"current_range_meters":38400,"station_id":"ce4bhbh2rcd13ifvqepg","pricing_plan_id":"cebpf4jnsgd1na2vs0mg"},{"bike_id":"3b331ddc-b6e0-4524-a213-681816e88962","system_id":"levelo_inurba_marseille","lat":43.32358,"lon":5.38884,"is_reserved":false,"is_disabled":false,"rental_uris":{"android":"levelo://app?vid=3b331ddc-b6e0-4524-a213-681816e88962","ios":"levelo://app?vid=3b331ddc-b6e0-4524-a213-681816e88962"},"vehicle_type_id":"4","last_reported":1728122858,"current_range_meters":23200,"station_id":"ce4bhqp2rcd13ifvqhog","pricing_plan_id":"cebpf4jnsgd1na2vs0mg"},{"bike_id":"2f337cc6-9141-49b7-8d58-9e3bdedc3f11","system_id":"levelo_inurba_marseille","lat":43.23195,"lon":5.35552,"is_reserved":false,"is_disabled":false,"rental_uris":{"android":"levelo://app?vid=2f337cc6-9141-49b7-8d58-9e3bdedc3f11","ios":"levelo://app?vid=2f337cc6-9141-49b7-8d58-9e3bdedc3f11"},"vehicle_type_id":"4","last_reported":1728122858,"current_range_meters":21600,"station_id":"ce4bhu92rcd13ifvqi70","pricing_plan_id":"cebpf4jnsgd1na2vs0mg"},{"bike_id":"767b5572-7a96-45fd-9ea6-1b05056115f2","system_id":"levelo_inurba_marseille","lat":43.33025,"lon":5.39039,"is_reserved":false,"is_disabled":false,"rental_uris":{"android":"levelo://app?vid=767b5572-7a96-45fd-9ea6-1b05056115f2","ios":"levelo://app?vid=767b5572-7a96-45fd-9ea6-1b05056115f2"},"vehicle_type_id":"4","last_reported":1728122858,"current_range_meters":32400,"station_id":"ce4bhr92rcd13ifvqhrg","pricing_plan_id":"cebpf4jnsgd1na2vs0mg"},{"bike_id":"f617eaec-9b92-45f6-85bf-a5afb7f07d24","system_id":"levelo_inurba_marseille","lat":43.31333,"lon":5.39698,"is_reserved":false,"is_disabled":false,"rental_uris":{"android":"levelo://app?vid=f617eaec-9b92-45f6-85bf-a5afb7f07d24","ios":"levelo://app?vid=f617eaec-9b92-45f6-85bf-a5afb7f07d24"},"vehicle_type_id":"4","last_reported":1728122858,"current_range_meters":38800,"station_id":"ce4bgvp2rcd13ifvqcu0","pricing_plan_id":"cebpf4jnsgd1na2vs0mg"},{"bike_id":"111479af-5882-4150-805f-61f12bd8930d","system_id":"levelo_inurba_marseille","lat":43.23961,"lon":5.36629,"is_reserved":false,"is_disabled":false,"rental_uris":{"android":"levelo://app?vid=111479af-5882-4150-805f-61f12bd8930d","ios":"levelo://app?vid=111479af-5882-4150-805f-61f12bd8930d"},"vehicle_type_id":"4","last_reported":1728122858,"current_range_meters":26000,"station_id":"","pricing_plan_id":"cebpf4jnsgd1na2vs0mg"},{"bike_id":"f5d9cad8-a761-48f8-afe7-0ffd566e47ef","system_id":"levelo_inurba_marseille","lat":43.29191,"lon":5.39343,"is_reserved":false,"is_disabled":false,"rental_uris":{"android":"levelo://app?vid=f5d9cad8-a761-48f8-afe7-0ffd566e47ef","ios":"levelo://app?vid=f5d9cad8-a761-48f8-afe7-0ffd566e47ef"},"vehicle_type_id":"4","last_reported":1728122858,"current_range_meters":38800,"station_id":"ce4bh192rcd13ifvqdd0","pricing_plan_id":"cebpf4jnsgd1na2vs0mg"},{"bike_id":"72bbe761-9e6f-4875-967a-637883cd8459","system_id":"levelo_inurba_marseille","lat":43.24999,"lon":5.38931,"is_reserved":false,"is_disabled":false,"rental_uris":{"android":"levelo://app?vid=72bbe761-9e6f-4875-967a-637883cd8459","ios":"levelo://app?vid=72bbe761-9e6f-4875-967a-637883cd8459"},"vehicle_type_id":"4","last_reported":1728122858,"current_range_meters":38800,"station_id":"ce4bhgp2rcd13ifvqfd0","pricing_plan_id":"cebpf4jnsgd1na2vs0mg"},{"bike_id":"a663288b-bb6c-4613-a839-024bc7abce88","system_id":"levelo_inurba_marseille","lat":43.30527,"lon":5.36708,"is_reserved":false,"is_disabled":false,"rental_uris":{"android":"levelo://app?vid=a663288b-bb6c-4613-a839-024bc7abce88","ios":"levelo://app?vid=a663288b-bb6c-4613-a839-024bc7abce88"},"vehicle_type_id":"4","last_reported":1728122858,"current_range_meters":16800,"station_id":"ce4bgrp2rcd13ifvqc9g","pricing_plan_id":"cebpf4jnsgd1na2vs0mg"},{"bike_id":"af4274e7-8917-4f38-82c3-5d5e85317a39","system_id":"levelo_inurba_marseille","lat":43.27047,"lon":5.40265,"is_reserved":false,"is_disabled":false,"rental_uris":{"android":"levelo://app?vid=af4274e7-8917-4f38-82c3-5d5e85317a39","ios":"levelo://app?vid=af4274e7-8917-4f38-82c3-5d5e85317a39"},"vehicle_type_id":"4","last_reported":1728122858,"current_range_meters":24400,"station_id":"ce4bhk92rcd13ifvqgc0","pricing_plan_id":"cebpf4jnsgd1na2vs0mg"},{"bike_id":"fcfb42de-cde1-4ec3-8e89-f197fdfcc1a8","system_id":"levelo_inurba_marseille","lat":43.23966,"lon":5.36638,"is_reserved":false,"is_disabled":false,"rental_uris":{"android":"levelo://app?vid=fcfb42de-cde1-4ec3-8e89-f197fdfcc1a8","ios":"levelo://app?vid=fcfb42de-cde1-4ec3-8e89-f197fdfcc1a8"},"vehicle_type_id":"4","last_reported":1728122858,"current_range_meters":38800,"station_id":"ce4bhi12rcd13ifvqfp0","pricing_plan_id":"cebpf4jnsgd1na2vs0mg"},{"bike_id":"7101b9db-d328-47cf-a085-f83e3e2a7f92","system_id":"levelo_inurba_marseille","lat":43.26803,"lon":5.40264,"is_reserved":false,"is_disabled":false,"rental_uris":{"android":"levelo://app?vid=7101b9db-d328-47cf-a085-f83e3e2a7f92","ios":"levelo://app?vid=7101b9db-d328-47cf-a085-f83e3e2a7f92"},"vehicle_type_id":"4","last_reported":1728122858,"current_range_meters":8400,"station_id":"ce501612rcd8frsf0b60","pricing_plan_id":"cebpf4jnsgd1na2vs0mg"},{"bike_id":"7e66880f-0900-49ff-af7a-be31fbfac82a","system_id":"levelo_inurba_marseille","lat":43.31357,"lon":5.36704,"is_reserved":false,"is_disabled":false,"rental_uris":{"android":"levelo://app?vid=7e66880f-0900-49ff-af7a-be31fbfac82a","ios":"levelo://app?vid=7e66880f-0900-49ff-af7a-be31fbfac82a"},"vehicle_type_id":"4","last_reported":1728122858,"current_range_meters":38000,"station_id":"ce4bgr92rcd13ifvqc6g","pricing_plan_id":"cebpf4jnsgd1na2vs0mg"},{"bike_id":"1bfb2245-34de-41e3-8dcc-d46bf304c39e","system_id":"levelo_inurba_marseille","lat":43.231525,"lon":5.437092,"is_reserved":false,"is_disabled":false,"rental_uris":{"android":"levelo://app?vid=1bfb2245-34de-41e3-8dcc-d46bf304c39e","ios":"levelo://app?vid=1bfb2245-34de-41e3-8dcc-d46bf304c39e"},"vehicle_type_id":"4","last_reported":1728122858,"current_range_meters":35200,"station_id":"ce4bhmp2rcd13ifvqgog","pricing_plan_id":"cebpf4jnsgd1na2vs0mg"},{"bike_id":"5988793a-285f-4780-8993-ffdd9d9b876f","system_id":"levelo_inurba_marseille","lat":43.29716,"lon":5.36615,"is_reserved":false,"is_disabled":false,"rental_uris":{"android":"levelo://app?vid=5988793a-285f-4780-8993-ffdd9d9b876f","ios":"levelo://app?vid=5988793a-285f-4780-8993-ffdd9d9b876f"},"vehicle_type_id":"4","last_reported":1728122858,"current_range_meters":8400,"station_id":"ce4bgn12rcd13ifvqbt0","pricing_plan_id":"cebpf4jnsgd1na2vs0mg"},{"bike_id":"50cbe535-0a7c-404c-a193-b39d3ad011e2","system_id":"levelo_inurba_marseille","lat":43.27565,"lon":5.38438,"is_reserved":false,"is_disabled":false,"rental_uris":{"android":"levelo://app?vid=50cbe535-0a7c-404c-a193-b39d3ad011e2","ios":"levelo://app?vid=50cbe535-0a7c-404c-a193-b39d3ad011e2"},"vehicle_type_id":"4","last_reported":1728122858,"current_range_meters":8000,"station_id":"ce4bhh92rcd13ifvqfi0","pricing_plan_id":"cebpf4jnsgd1na2vs0mg"},{"bike_id":"79b9780c-0672-46ff-af34-19be6dec4043","system_id":"levelo_inurba_marseille","lat":43.3171,"lon":5.43707,"is_reserved":false,"is_disabled":false,"rental_uris":{"android":"levelo://app?vid=79b9780c-0672-46ff-af34-19be6dec4043","ios":"levelo://app?vid=79b9780c-0672-46ff-af34-19be6dec4043"},"vehicle_type_id":"4","last_reported":1728122858,"current_range_meters":24800,"station_id":"ce4bhp92rcd13ifvqhcg","pricing_plan_id":"cebpf4jnsgd1na2vs0mg"},{"bike_id":"a2fe1412-c4e0-488d-87b7-e06eca14a5ce","system_id":"levelo_inurba_marseille","lat":43.28424,"lon":5.3498,"is_reserved":false,"is_disabled":false,"rental_uris":{"android":"levelo://app?vid=a2fe1412-c4e0-488d-87b7-e06eca14a5ce","ios":"levelo://app?vid=a2fe1412-c4e0-488d-87b7-e06eca14a5ce"},"vehicle_type_id":"4","last_reported":1728122858,"current_range_meters":26000,"station_id":"ce4bhbh2rcd13ifvqepg","pricing_plan_id":"cebpf4jnsgd1na2vs0mg"},{"bike_id":"88d763e9-254b-4f45-a733-903d4efd49e1","system_id":"levelo_inurba_marseille","lat":43.31077,"lon":5.38341,"is_reserved":false,"is_disabled":false,"rental_uris":{"android":"levelo://app?vid=88d763e9-254b-4f45-a733-903d4efd49e1","ios":"levelo://app?vid=88d763e9-254b-4f45-a733-903d4efd49e1"},"vehicle_type_id":"4","last_reported":1728122858,"current_range_meters":35200,"station_id":"ce4bgv92rcd13ifvqcr0","pricing_plan_id":"cebpf4jnsgd1na2vs0mg"},{"bike_id":"2757b63e-5c67-41ac-a0f3-d5a9085e20f5","system_id":"levelo_inurba_marseille","lat":43.28668,"lon":5.36346,"is_reserved":false,"is_disabled":false,"rental_uris":{"android":"levelo://app?vid=2757b63e-5c67-41ac-a0f3-d5a9085e20f5","ios":"levelo://app?vid=2757b63e-5c67-41ac-a0f3-d5a9085e20f5"},"vehicle_type_id":"4","last_reported":1728122858,"current_range_meters":35200,"station_id":"ce4bhah2rcd13ifvqej0","pricing_plan_id":"cebpf4jnsgd1na2vs0mg"},{"bike_id":"b3490f81-990c-4d77-b92d-53dde7d596b3","system_id":"levelo_inurba_marseille","lat":43.29688,"lon":5.37285,"is_reserved":false,"is_disabled":false,"rental_uris":{"android":"levelo://app?vid=b3490f81-990c-4d77-b92d-53dde7d596b3","ios":"levelo://app?vid=b3490f81-990c-4d77-b92d-53dde7d596b3"},"vehicle_type_id":"4","last_reported":1728122858,"current_range_meters":38000,"station_id":"ce4bgk12rcd13ifvqbj0","pricing_plan_id":"cebpf4jnsgd1na2vs0mg"},{"bike_id":"e1dbd253-d899-4d66-9cfa-13cfa15ffe2d","system_id":"levelo_inurba_marseille","lat":43.29702,"lon":5.37698,"is_reserved":false,"is_disabled":false,"rental_uris":{"android":"levelo://app?vid=e1dbd253-d899-4d66-9cfa-13cfa15ffe2d","ios":"levelo://app?vid=e1dbd253-d899-4d66-9cfa-13cfa15ffe2d"},"vehicle_type_id":"4","last_reported":1728122858,"current_range_meters":21600,"station_id":"ce4bgkh2rcd13ifvqbl0","pricing_plan_id":"cebpf4jnsgd1na2vs0mg"},{"bike_id":"69200ffb-1b56-46c0-a501-4110c5eefde1","system_id":"levelo_inurba_marseille","lat":43.24808,"lon":5.37458,"is_reserved":false,"is_disabled":false,"rental_uris":{"android":"levelo://app?vid=69200ffb-1b56-46c0-a501-4110c5eefde1","ios":"levelo://app?vid=69200ffb-1b56-46c0-a501-4110c5eefde1"},"vehicle_type_id":"4","last_reported":1728122858,"current_range_meters":16400,"station_id":"ce4bhgh2rcd13ifvqfb0","pricing_plan_id":"cebpf4jnsgd1na2vs0mg"},{"bike_id":"57375dd7-f8b4-4069-8813-cc78bcfb731f","system_id":"levelo_inurba_marseille","lat":43.30148,"lon":5.38079,"is_reserved":false,"is_disabled":false,"rental_uris":{"android":"levelo://app?vid=57375dd7-f8b4-4069-8813-cc78bcfb731f","ios":"levelo://app?vid=57375dd7-f8b4-4069-8813-cc78bcfb731f"},"vehicle_type_id":"4","last_reported":1728122858,"current_range_meters":37600,"station_id":"ce4bgjp2rcd13ifvqbh0","pricing_plan_id":"cebpf4jnsgd1na2vs0mg"},{"bike_id":"737fed70-0157-42cd-b1d0-c99f6a548a82","system_id":"levelo_inurba_marseille","lat":43.27984,"lon":5.41661,"is_reserved":false,"is_disabled":false,"rental_uris":{"android":"levelo://app?vid=737fed70-0157-42cd-b1d0-c99f6a548a82","ios":"levelo://app?vid=737fed70-0157-42cd-b1d0-c99f6a548a82"},"vehicle_type_id":"4","last_reported":1728122858,"current_range_meters":24400,"station_id":"ce4bho12rcd13ifvqh1g","pricing_plan_id":"cebpf4jnsgd1na2vs0mg"},{"bike_id":"f0043234-0e52-4e57-b874-f56582004648","system_id":"levelo_inurba_marseille","lat":43.29952,"lon":5.41324,"is_reserved":false,"is_disabled":false,"rental_uris":{"android":"levelo://app?vid=f0043234-0e52-4e57-b874-f56582004648","ios":"levelo://app?vid=f0043234-0e52-4e57-b874-f56582004648"},"vehicle_type_id":"4","last_reported":1728122858,"current_range_meters":3600,"station_id":"ce4bhp12rcd13ifvqh9g","pricing_plan_id":"cebpf4jnsgd1na2vs0mg"},{"bike_id":"8dd41786-eeb5-42b5-aa24-0aadf7104709","system_id":"levelo_inurba_marseille","lat":43.29557,"lon":5.42295,"is_reserved":false,"is_disabled":false,"rental_uris":{"android":"levelo://app?vid=8dd41786-eeb5-42b5-aa24-0aadf7104709","ios":"levelo://app?vid=8dd41786-eeb5-42b5-aa24-0aadf7104709"},"vehicle_type_id":"4","last_reported":1728122858,"current_range_meters":19200,"station_id":"ce4bhph2rcd13ifvqhdg","pricing_plan_id":"cebpf4jnsgd1na2vs0mg"},{"bike_id":"d34ce1dd-3ca2-420a-91ff-5fd42a7b6421","system_id":"levelo_inurba_marseille","lat":43.30947,"lon":5.39047,"is_reserved":false,"is_disabled":false,"rental_uris":{"android":"levelo://app?vid=d34ce1dd-3ca2-420a-91ff-5fd42a7b6421","ios":"levelo://app?vid=d34ce1dd-3ca2-420a-91ff-5fd42a7b6421"},"vehicle_type_id":"4","last_reported":1728122858,"current_range_meters":37600,"station_id":"ce4bgup2rcd13ifvqco0","pricing_plan_id":"cebpf4jnsgd1na2vs0mg"},{"bike_id":"2dfa250e-fa81-43be-b763-8f49843284b7","system_id":"levelo_inurba_marseille","lat":43.23186,"lon":5.39985,"is_reserved":false,"is_disabled":false,"rental_uris":{"android":"levelo://app?vid=2dfa250e-fa81-43be-b763-8f49843284b7","ios":"levelo://app?vid=2dfa250e-fa81-43be-b763-8f49843284b7"},"vehicle_type_id":"4","last_reported":1728122858,"current_range_meters":38800,"station_id":"ce4bhn12rcd13ifvqgqg","pricing_plan_id":"cebpf4jnsgd1na2vs0mg"},{"bike_id":"f0042513-c442-4da2-bfa4-3ac6060695ee","system_id":"levelo_inurba_marseille","lat":43.30255,"lon":5.40078,"is_reserved":false,"is_disabled":false,"rental_uris":{"android":"levelo://app?vid=f0042513-c442-4da2-bfa4-3ac6060695ee","ios":"levelo://app?vid=f0042513-c442-4da2-bfa4-3ac6060695ee"},"vehicle_type_id":"4","last_reported":1728122858,"current_range_meters":33600,"station_id":"ce4bgvh2rcd13ifvqcs0","pricing_plan_id":"cebpf4jnsgd1na2vs0mg"},{"bike_id":"0fec0712-97cc-4a7f-9675-543861baf6c9","system_id":"levelo_inurba_marseille","lat":43.30467,"lon":5.37911,"is_reserved":false,"is_disabled":false,"rental_uris":{"android":"levelo://app?vid=0fec0712-97cc-4a7f-9675-543861baf6c9","ios":"levelo://app?vid=0fec0712-97cc-4a7f-9675-543861baf6c9"},"vehicle_type_id":"4","last_reported":1728122858,"current_range_meters":32400,"station_id":"ce4bgup2rcd13ifvqcn0","pricing_plan_id":"cebpf4jnsgd1na2vs0mg"},{"bike_id":"6331e1ec-cf9d-44e8-a534-547fad38181d","system_id":"levelo_inurba_marseille","lat":43.3266,"lon":5.40983,"is_reserved":false,"is_disabled":false,"rental_uris":{"android":"levelo://app?vid=6331e1ec-cf9d-44e8-a534-547fad38181d","ios":"levelo://app?vid=6331e1ec-cf9d-44e8-a534-547fad38181d"},"vehicle_type_id":"4","last_reported":1728122858,"current_range_meters":6000,"station_id":"ce4bhpp2rcd13ifvqhgg","pricing_plan_id":"cebpf4jnsgd1na2vs0mg"},{"bike_id":"43a510eb-a148-482b-bae3-2c2d141139eb","system_id":"levelo_inurba_marseille","lat":43.31114,"lon":5.37786,"is_reserved":false,"is_disabled":false,"rental_uris":{"android":"levelo://app?vid=43a510eb-a148-482b-bae3-2c2d141139eb","ios":"levelo://app?vid=43a510eb-a148-482b-bae3-2c2d141139eb"},"vehicle_type_id":"4","last_reported":1728122858,"current_range_meters":28800,"station_id":"ce4bgt92rcd13ifvqcg0","pricing_plan_id":"cebpf4jnsgd1na2vs0mg"},{"bike_id":"82fb1d9b-f78d-4572-93cd-c097376a885d","system_id":"levelo_inurba_marseille","lat":43.23152,"lon":5.43732,"is_reserved":false,"is_disabled":false,"rental_uris":{"android":"levelo://app?vid=82fb1d9b-f78d-4572-93cd-c097376a885d","ios":"levelo://app?vid=82fb1d9b-f78d-4572-93cd-c097376a885d"},"vehicle_type_id":"4","last_reported":1728122858,"current_range_meters":8400,"station_id":"ce4bhmp2rcd13ifvqgog","pricing_plan_id":"cebpf4jnsgd1na2vs0mg"},{"bike_id":"e04e5431-207d-4263-8b72-762e4c4878e5","system_id":"levelo_inurba_marseille","lat":43.23061,"lon":5.35487,"is_reserved":false,"is_disabled":false,"rental_uris":{"android":"levelo://app?vid=e04e5431-207d-4263-8b72-762e4c4878e5","ios":"levelo://app?vid=e04e5431-207d-4263-8b72-762e4c4878e5"},"vehicle_type_id":"4","last_reported":1728122858,"current_range_meters":16800,"station_id":"cpo3342slgdg3j2ifvpg","pricing_plan_id":"cebpf4jnsgd1na2vs0mg"},{"bike_id":"609d3b61-fafa-4095-8a1d-71b079d45cdb","system_id":"levelo_inurba_marseille","lat":43.29538,"lon":5.37502,"is_reserved":false,"is_disabled":false,"rental_uris":{"android":"levelo://app?vid=609d3b61-fafa-4095-8a1d-71b079d45cdb","ios":"levelo://app?vid=609d3b61-fafa-4095-8a1d-71b079d45cdb"},"vehicle_type_id":"4","last_reported":1728122858,"current_range_meters":30400,"station_id":"ce4bgkp2rcd13ifvqbmg","pricing_plan_id":"cebpf4jnsgd1na2vs0mg"},{"bike_id":"50e6aeb8-7e25-4c09-9781-24c9f5d23dff","system_id":"levelo_inurba_marseille","lat":43.33756,"lon":5.37448,"is_reserved":false,"is_disabled":false,"rental_uris":{"android":"levelo://app?vid=50e6aeb8-7e25-4c09-9781-24c9f5d23dff","ios":"levelo://app?vid=50e6aeb8-7e25-4c09-9781-24c9f5d23dff"},"vehicle_type_id":"4","last_reported":1728122858,"current_range_meters":27600,"station_id":"","pricing_plan_id":"cebpf4jnsgd1na2vs0mg"},{"bike_id":"7e5a4ffa-6310-4511-a1dc-2dedfd26f1bc","system_id":"levelo_inurba_marseille","lat":43.29562,"lon":5.42282,"is_reserved":false,"is_disabled":false,"rental_uris":{"android":"levelo://app?vid=7e5a4ffa-6310-4511-a1dc-2dedfd26f1bc","ios":"levelo://app?vid=7e5a4ffa-6310-4511-a1dc-2dedfd26f1bc"},"vehicle_type_id":"4","last_reported":1728122858,"current_range_meters":3200,"station_id":"ce4bhph2rcd13ifvqhdg","pricing_plan_id":"cebpf4jnsgd1na2vs0mg"},{"bike_id":"23916c89-585f-48bf-be27-3f0989556740","system_id":"levelo_inurba_marseille","lat":43.30156,"lon":5.38076,"is_reserved":false,"is_disabled":false,"rental_uris":{"android":"levelo://app?vid=23916c89-585f-48bf-be27-3f0989556740","ios":"levelo://app?vid=23916c89-585f-48bf-be27-3f0989556740"},"vehicle_type_id":"4","last_reported":1728122858,"current_range_meters":31200,"station_id":"ce4bgjp2rcd13ifvqbh0","pricing_plan_id":"cebpf4jnsgd1na2vs0mg"},{"bike_id":"42864862-63c7-4c7f-a618-090053ec4eb3","system_id":"levelo_inurba_marseille","lat":43.31537,"lon":5.38032,"is_reserved":false,"is_disabled":false,"rental_uris":{"android":"levelo://app?vid=42864862-63c7-4c7f-a618-090053ec4eb3","ios":"levelo://app?vid=42864862-63c7-4c7f-a618-090053ec4eb3"},"vehicle_type_id":"4","last_reported":1728122858,"current_range_meters":28000,"station_id":"ce4bhsp2rcd13ifvqi50","pricing_plan_id":"cebpf4jnsgd1na2vs0mg"},{"bike_id":"8afb9829-5b79-4b79-899f-8b231e8accfe","system_id":"levelo_inurba_marseille","lat":43.29303,"lon":5.37441,"is_reserved":false,"is_disabled":false,"rental_uris":{"android":"levelo://app?vid=8afb9829-5b79-4b79-899f-8b231e8accfe","ios":"levelo://app?vid=8afb9829-5b79-4b79-899f-8b231e8accfe"},"vehicle_type_id":"4","last_reported":1728122858,"current_range_meters":24400,"station_id":"ce4bgi12rcd13ifvqb70","pricing_plan_id":"cebpf4jnsgd1na2vs0mg"},{"bike_id":"be855d3f-aa37-4c69-9485-bcd30590fee9","system_id":"levelo_inurba_marseille","lat":43.31072,"lon":5.38359,"is_reserved":false,"is_disabled":false,"rental_uris":{"android":"levelo://app?vid=be855d3f-aa37-4c69-9485-bcd30590fee9","ios":"levelo://app?vid=be855d3f-aa37-4c69-9485-bcd30590fee9"},"vehicle_type_id":"4","last_reported":1728122858,"current_range_meters":37600,"station_id":"ce4bgv92rcd13ifvqcr0","pricing_plan_id":"cebpf4jnsgd1na2vs0mg"},{"bike_id":"fef9ebb5-857c-4f7a-b98b-f7157df2c589","system_id":"levelo_inurba_marseille","lat":43.297058,"lon":5.366052,"is_reserved":false,"is_disabled":false,"rental_uris":{"android":"levelo://app?vid=fef9ebb5-857c-4f7a-b98b-f7157df2c589","ios":"levelo://app?vid=fef9ebb5-857c-4f7a-b98b-f7157df2c589"},"vehicle_type_id":"4","last_reported":1728122858,"current_range_meters":16400,"station_id":"ce4bgn12rcd13ifvqbt0","pricing_plan_id":"cebpf4jnsgd1na2vs0mg"},{"bike_id":"4e5c49fe-f120-4033-88ac-d3d47aaa734c","system_id":"levelo_inurba_marseille","lat":43.26786,"lon":5.3942,"is_reserved":false,"is_disabled":false,"rental_uris":{"android":"levelo://app?vid=4e5c49fe-f120-4033-88ac-d3d47aaa734c","ios":"levelo://app?vid=4e5c49fe-f120-4033-88ac-d3d47aaa734c"},"vehicle_type_id":"4","last_reported":1728122858,"current_range_meters":36000,"station_id":"ce4bhh12rcd13ifvqfg0","pricing_plan_id":"cebpf4jnsgd1na2vs0mg"},{"bike_id":"416a767f-be3b-4320-ad5a-cd826bfef081","system_id":"levelo_inurba_marseille","lat":43.31488,"lon":5.37303,"is_reserved":false,"is_disabled":false,"rental_uris":{"android":"levelo://app?vid=416a767f-be3b-4320-ad5a-cd826bfef081","ios":"levelo://app?vid=416a767f-be3b-4320-ad5a-cd826bfef081"},"vehicle_type_id":"4","last_reported":1728122858,"current_range_meters":19200,"station_id":"ce4bgt12rcd13ifvqcd0","pricing_plan_id":"cebpf4jnsgd1na2vs0mg"},{"bike_id":"3cde7a93-a095-4ec5-85c4-cb48cde11f81","system_id":"levelo_inurba_marseille","lat":43.33774,"lon":5.37459,"is_reserved":false,"is_disabled":false,"rental_uris":{"android":"levelo://app?vid=3cde7a93-a095-4ec5-85c4-cb48cde11f81","ios":"levelo://app?vid=3cde7a93-a095-4ec5-85c4-cb48cde11f81"},"vehicle_type_id":"4","last_reported":1728122858,"current_range_meters":38000,"station_id":"","pricing_plan_id":"cebpf4jnsgd1na2vs0mg"},{"bike_id":"e2455afb-c7f2-4814-be90-e1617bd9805f","system_id":"levelo_inurba_marseille","lat":43.25,"lon":5.38928,"is_reserved":false,"is_disabled":false,"rental_uris":{"android":"levelo://app?vid=e2455afb-c7f2-4814-be90-e1617bd9805f","ios":"levelo://app?vid=e2455afb-c7f2-4814-be90-e1617bd9805f"},"vehicle_type_id":"4","last_reported":1728122858,"current_range_meters":8400,"station_id":"ce4bhgp2rcd13ifvqfd0","pricing_plan_id":"cebpf4jnsgd1na2vs0mg"},{"bike_id":"96eb4682-19b8-4675-bab3-3275719e76a8","system_id":"levelo_inurba_marseille","lat":43.34144,"lon":5.40897,"is_reserved":false,"is_disabled":false,"rental_uris":{"android":"levelo://app?vid=96eb4682-19b8-4675-bab3-3275719e76a8","ios":"levelo://app?vid=96eb4682-19b8-4675-bab3-3275719e76a8"},"vehicle_type_id":"4","last_reported":1728122858,"current_range_meters":28000,"station_id":"ce4bhqh2rcd13ifvqhlg","pricing_plan_id":"cebpf4jnsgd1na2vs0mg"},{"bike_id":"f804678f-f648-4841-9a62-5e8ad493f990","system_id":"levelo_inurba_marseille","lat":43.30944,"lon":5.39032,"is_reserved":false,"is_disabled":false,"rental_uris":{"android":"levelo://app?vid=f804678f-f648-4841-9a62-5e8ad493f990","ios":"levelo://app?vid=f804678f-f648-4841-9a62-5e8ad493f990"},"vehicle_type_id":"4","last_reported":1728122858,"current_range_meters":39200,"station_id":"ce4bgup2rcd13ifvqco0","pricing_plan_id":"cebpf4jnsgd1na2vs0mg"},{"bike_id":"b539cef5-a0ee-4eb9-af10-1c3a300ff81c","system_id":"levelo_inurba_marseille","lat":43.32102,"lon":5.36771,"is_reserved":false,"is_disabled":false,"rental_uris":{"android":"levelo://app?vid=b539cef5-a0ee-4eb9-af10-1c3a300ff81c","ios":"levelo://app?vid=b539cef5-a0ee-4eb9-af10-1c3a300ff81c"},"vehicle_type_id":"4","last_reported":1728122858,"current_range_meters":33600,"station_id":"ce4bhrh2rcd13ifvqhug","pricing_plan_id":"cebpf4jnsgd1na2vs0mg"},{"bike_id":"fd712ad3-a94e-4a78-a4f3-7bf5d23869e7","system_id":"levelo_inurba_marseille","lat":43.30953,"lon":5.39038,"is_reserved":false,"is_disabled":false,"rental_uris":{"android":"levelo://app?vid=fd712ad3-a94e-4a78-a4f3-7bf5d23869e7","ios":"levelo://app?vid=fd712ad3-a94e-4a78-a4f3-7bf5d23869e7"},"vehicle_type_id":"4","last_reported":1728122858,"current_range_meters":28000,"station_id":"ce4bgup2rcd13ifvqco0","pricing_plan_id":"cebpf4jnsgd1na2vs0mg"},{"bike_id":"620d20f5-f7a1-4e40-847a-8cd1c99a57ec","system_id":"levelo_inurba_marseille","lat":43.25581,"lon":5.38229,"is_reserved":false,"is_disabled":false,"rental_uris":{"android":"levelo://app?vid=620d20f5-f7a1-4e40-847a-8cd1c99a57ec","ios":"levelo://app?vid=620d20f5-f7a1-4e40-847a-8cd1c99a57ec"},"vehicle_type_id":"4","last_reported":1728122858,"current_range_meters":22000,"station_id":"ce4bhih2rcd13ifvqfs0","pricing_plan_id":"cebpf4jnsgd1na2vs0mg"},{"bike_id":"206bf6bf-09ad-4763-85da-6f36c3ad29a0","system_id":"levelo_inurba_marseille","lat":43.27985,"lon":5.41659,"is_reserved":false,"is_disabled":false,"rental_uris":{"android":"levelo://app?vid=206bf6bf-09ad-4763-85da-6f36c3ad29a0","ios":"levelo://app?vid=206bf6bf-09ad-4763-85da-6f36c3ad29a0"},"vehicle_type_id":"4","last_reported":1728122858,"current_range_meters":22000,"station_id":"ce4bho12rcd13ifvqh1g","pricing_plan_id":"cebpf4jnsgd1na2vs0mg"},{"bike_id":"f7cd071d-336f-4e84-89b9-50f24f71023a","system_id":"levelo_inurba_marseille","lat":43.30473,"lon":5.37896,"is_reserved":false,"is_disabled":false,"rental_uris":{"android":"levelo://app?vid=f7cd071d-336f-4e84-89b9-50f24f71023a","ios":"levelo://app?vid=f7cd071d-336f-4e84-89b9-50f24f71023a"},"vehicle_type_id":"4","last_reported":1728122858,"current_range_meters":38800,"station_id":"ce4bgup2rcd13ifvqcn0","pricing_plan_id":"cebpf4jnsgd1na2vs0mg"},{"bike_id":"452521f9-d7f4-4ee2-9229-abc5a67d7b6c","system_id":"levelo_inurba_marseille","lat":43.3015,"lon":5.380775,"is_reserved":false,"is_disabled":false,"rental_uris":{"android":"levelo://app?vid=452521f9-d7f4-4ee2-9229-abc5a67d7b6c","ios":"levelo://app?vid=452521f9-d7f4-4ee2-9229-abc5a67d7b6c"},"vehicle_type_id":"4","last_reported":1728122858,"current_range_meters":35200,"station_id":"ce4bgjp2rcd13ifvqbh0","pricing_plan_id":"cebpf4jnsgd1na2vs0mg"},{"bike_id":"bb5f5452-4b9b-417d-b148-b396a874f3d9","system_id":"levelo_inurba_marseille","lat":43.33763,"lon":5.37431,"is_reserved":false,"is_disabled":false,"rental_uris":{"android":"levelo://app?vid=bb5f5452-4b9b-417d-b148-b396a874f3d9","ios":"levelo://app?vid=bb5f5452-4b9b-417d-b148-b396a874f3d9"},"vehicle_type_id":"4","last_reported":1728122858,"current_range_meters":32400,"station_id":"","pricing_plan_id":"cebpf4jnsgd1na2vs0mg"},{"bike_id":"94057be6-35af-4d19-8307-114c1070fab0","system_id":"levelo_inurba_marseille","lat":43.29309,"lon":5.37456,"is_reserved":false,"is_disabled":false,"rental_uris":{"android":"levelo://app?vid=94057be6-35af-4d19-8307-114c1070fab0","ios":"levelo://app?vid=94057be6-35af-4d19-8307-114c1070fab0"},"vehicle_type_id":"4","last_reported":1728122858,"current_range_meters":30400,"station_id":"ce4bgi12rcd13ifvqb70","pricing_plan_id":"cebpf4jnsgd1na2vs0mg"},{"bike_id":"e77c2588-a800-4750-b8d5-960ef4652c51","system_id":"levelo_inurba_marseille","lat":43.30805,"lon":5.3816,"is_reserved":false,"is_disabled":false,"rental_uris":{"android":"levelo://app?vid=e77c2588-a800-4750-b8d5-960ef4652c51","ios":"levelo://app?vid=e77c2588-a800-4750-b8d5-960ef4652c51"},"vehicle_type_id":"4","last_reported":1728122858,"current_range_meters":37600,"station_id":"ce4bgt12rcd13ifvqce0","pricing_plan_id":"cebpf4jnsgd1na2vs0mg"},{"bike_id":"c0742f8f-f38b-4e75-bdc4-82c0fa74fff6","system_id":"levelo_inurba_marseille","lat":43.27496,"lon":5.42449,"is_reserved":false,"is_disabled":false,"rental_uris":{"android":"levelo://app?vid=c0742f8f-f38b-4e75-bdc4-82c0fa74fff6","ios":"levelo://app?vid=c0742f8f-f38b-4e75-bdc4-82c0fa74fff6"},"vehicle_type_id":"4","last_reported":1728122858,"current_range_meters":6800,"station_id":"ce4bhn92rcd13ifvqgrg","pricing_plan_id":"cebpf4jnsgd1na2vs0mg"},{"bike_id":"d7a0298f-5c2b-438d-ab05-5d6a7ac83160","system_id":"levelo_inurba_marseille","lat":43.30797,"lon":5.43522,"is_reserved":false,"is_disabled":false,"rental_uris":{"android":"levelo://app?vid=d7a0298f-5c2b-438d-ab05-5d6a7ac83160","ios":"levelo://app?vid=d7a0298f-5c2b-438d-ab05-5d6a7ac83160"},"vehicle_type_id":"4","last_reported":1728122858,"current_range_meters":36800,"station_id":"ce4bhph2rcd13ifvqheg","pricing_plan_id":"cebpf4jnsgd1na2vs0mg"},{"bike_id":"4200a602-b752-433d-b039-860f3efe0e28","system_id":"levelo_inurba_marseille","lat":43.31702,"lon":5.37739,"is_reserved":false,"is_disabled":false,"rental_uris":{"android":"levelo://app?vid=4200a602-b752-433d-b039-860f3efe0e28","ios":"levelo://app?vid=4200a602-b752-433d-b039-860f3efe0e28"},"vehicle_type_id":"4","last_reported":1728122858,"current_range_meters":38800,"station_id":"ce4bgth2rcd13ifvqch0","pricing_plan_id":"cebpf4jnsgd1na2vs0mg"},{"bike_id":"724569f4-313c-4d8b-bfb1-fd43591d2d62","system_id":"levelo_inurba_marseille","lat":43.31225,"lon":5.36844,"is_reserved":false,"is_disabled":false,"rental_uris":{"android":"levelo://app?vid=724569f4-313c-4d8b-bfb1-fd43591d2d62","ios":"levelo://app?vid=724569f4-313c-4d8b-bfb1-fd43591d2d62"},"vehicle_type_id":"4","last_reported":1728122858,"current_range_meters":38000,"station_id":"ce4bgl92rcd13ifvqbq0","pricing_plan_id":"cebpf4jnsgd1na2vs0mg"},{"bike_id":"9e2a1712-6ebb-4574-a998-ed9aed224f4b","system_id":"levelo_inurba_marseille","lat":43.2849,"lon":5.3855,"is_reserved":false,"is_disabled":false,"rental_uris":{"android":"levelo://app?vid=9e2a1712-6ebb-4574-a998-ed9aed224f4b","ios":"levelo://app?vid=9e2a1712-6ebb-4574-a998-ed9aed224f4b"},"vehicle_type_id":"4","last_reported":1728122858,"current_range_meters":37600,"station_id":"ce4bh8p2rcd13ifvqeb0","pricing_plan_id":"cebpf4jnsgd1na2vs0mg"},{"bike_id":"a33c05d8-1097-47e4-9760-66b666788866","system_id":"levelo_inurba_marseille","lat":43.25582,"lon":5.38241,"is_reserved":false,"is_disabled":false,"rental_uris":{"android":"levelo://app?vid=a33c05d8-1097-47e4-9760-66b666788866","ios":"levelo://app?vid=a33c05d8-1097-47e4-9760-66b666788866"},"vehicle_type_id":"4","last_reported":1728122858,"current_range_meters":21600,"station_id":"ce4bhih2rcd13ifvqfs0","pricing_plan_id":"cebpf4jnsgd1na2vs0mg"},{"bike_id":"27442616-e1a0-4140-a813-7a49a0d6abd0","system_id":"levelo_inurba_marseille","lat":43.23181,"lon":5.39986,"is_reserved":false,"is_disabled":false,"rental_uris":{"android":"levelo://app?vid=27442616-e1a0-4140-a813-7a49a0d6abd0","ios":"levelo://app?vid=27442616-e1a0-4140-a813-7a49a0d6abd0"},"vehicle_type_id":"4","last_reported":1728122858,"current_range_meters":38000,"station_id":"ce4bhn12rcd13ifvqgqg","pricing_plan_id":"cebpf4jnsgd1na2vs0mg"},{"bike_id":"b0dc2897-cb6b-44e2-947a-9e1de3e6a940","system_id":"levelo_inurba_marseille","lat":43.28153,"lon":5.42642,"is_reserved":false,"is_disabled":false,"rental_uris":{"android":"levelo://app?vid=b0dc2897-cb6b-44e2-947a-9e1de3e6a940","ios":"levelo://app?vid=b0dc2897-cb6b-44e2-947a-9e1de3e6a940"},"vehicle_type_id":"4","last_reported":1728122858,"current_range_meters":4800,"station_id":"ce4bhnh2rcd13ifvqgug","pricing_plan_id":"cebpf4jnsgd1na2vs0mg"},{"bike_id":"4285547c-3114-4b0d-9188-c3356374994b","system_id":"levelo_inurba_marseille","lat":43.32665,"lon":5.40985,"is_reserved":false,"is_disabled":false,"rental_uris":{"android":"levelo://app?vid=4285547c-3114-4b0d-9188-c3356374994b","ios":"levelo://app?vid=4285547c-3114-4b0d-9188-c3356374994b"},"vehicle_type_id":"4","last_reported":1728122858,"current_range_meters":37600,"station_id":"ce4bhpp2rcd13ifvqhgg","pricing_plan_id":"cebpf4jnsgd1na2vs0mg"},{"bike_id":"994534f9-8af0-4aa9-9cd0-93d66ad89c2c","system_id":"levelo_inurba_marseille","lat":43.25105,"lon":5.40333,"is_reserved":false,"is_disabled":false,"rental_uris":{"android":"levelo://app?vid=994534f9-8af0-4aa9-9cd0-93d66ad89c2c","ios":"levelo://app?vid=994534f9-8af0-4aa9-9cd0-93d66ad89c2c"},"vehicle_type_id":"4","last_reported":1728122858,"current_range_meters":5600,"station_id":"ce4bhlh2rcd13ifvqgig","pricing_plan_id":"cebpf4jnsgd1na2vs0mg"},{"bike_id":"a3747f27-c3d8-4022-9d81-96f6946c70a8","system_id":"levelo_inurba_marseille","lat":43.28462,"lon":5.35889,"is_reserved":false,"is_disabled":false,"rental_uris":{"android":"levelo://app?vid=a3747f27-c3d8-4022-9d81-96f6946c70a8","ios":"levelo://app?vid=a3747f27-c3d8-4022-9d81-96f6946c70a8"},"vehicle_type_id":"4","last_reported":1728122858,"current_range_meters":27600,"station_id":"ce4bhah2rcd13ifvqei0","pricing_plan_id":"cebpf4jnsgd1na2vs0mg"},{"bike_id":"f4ec33a2-4192-4012-be80-e19ee49a6126","system_id":"levelo_inurba_marseille","lat":43.27609,"lon":5.36122,"is_reserved":false,"is_disabled":false,"rental_uris":{"android":"levelo://app?vid=f4ec33a2-4192-4012-be80-e19ee49a6126","ios":"levelo://app?vid=f4ec33a2-4192-4012-be80-e19ee49a6126"},"vehicle_type_id":"4","last_reported":1728122858,"current_range_meters":19200,"station_id":"ce4bgj92rcd13ifvqbe0","pricing_plan_id":"cebpf4jnsgd1na2vs0mg"},{"bike_id":"844217c7-23a1-4434-9f8f-a2e9e2523a0e","system_id":"levelo_inurba_marseille","lat":43.30189,"lon":5.36616,"is_reserved":false,"is_disabled":false,"rental_uris":{"android":"levelo://app?vid=844217c7-23a1-4434-9f8f-a2e9e2523a0e","ios":"levelo://app?vid=844217c7-23a1-4434-9f8f-a2e9e2523a0e"},"vehicle_type_id":"4","last_reported":1728122858,"current_range_meters":10800,"station_id":"ce4bgrh2rcd13ifvqc8g","pricing_plan_id":"cebpf4jnsgd1na2vs0mg"},{"bike_id":"682f707c-3733-4cab-9903-f5a3447e0ac0","system_id":"levelo_inurba_marseille","lat":43.25,"lon":5.38921,"is_reserved":false,"is_disabled":false,"rental_uris":{"android":"levelo://app?vid=682f707c-3733-4cab-9903-f5a3447e0ac0","ios":"levelo://app?vid=682f707c-3733-4cab-9903-f5a3447e0ac0"},"vehicle_type_id":"4","last_reported":1728122858,"current_range_meters":36800,"station_id":"ce4bhgp2rcd13ifvqfd0","pricing_plan_id":"cebpf4jnsgd1na2vs0mg"},{"bike_id":"c7adfbd6-ee8e-40fe-8c1d-2fcb94ecf0eb","system_id":"levelo_inurba_marseille","lat":43.2867,"lon":5.36356,"is_reserved":false,"is_disabled":false,"rental_uris":{"android":"levelo://app?vid=c7adfbd6-ee8e-40fe-8c1d-2fcb94ecf0eb","ios":"levelo://app?vid=c7adfbd6-ee8e-40fe-8c1d-2fcb94ecf0eb"},"vehicle_type_id":"4","last_reported":1728122858,"current_range_meters":24400,"station_id":"ce4bhah2rcd13ifvqej0","pricing_plan_id":"cebpf4jnsgd1na2vs0mg"},{"bike_id":"a45c5852-f993-434b-9e0e-aaf2278af56a","system_id":"levelo_inurba_marseille","lat":43.23195,"lon":5.35552,"is_reserved":false,"is_disabled":false,"rental_uris":{"android":"levelo://app?vid=a45c5852-f993-434b-9e0e-aaf2278af56a","ios":"levelo://app?vid=a45c5852-f993-434b-9e0e-aaf2278af56a"},"vehicle_type_id":"4","last_reported":1728122858,"current_range_meters":8000,"station_id":"ce4bhu92rcd13ifvqi70","pricing_plan_id":"cebpf4jnsgd1na2vs0mg"},{"bike_id":"57d7b7bf-9a1e-4c35-8388-96cc980f8410","system_id":"levelo_inurba_marseille","lat":43.22924,"lon":5.35376,"is_reserved":false,"is_disabled":false,"rental_uris":{"android":"levelo://app?vid=57d7b7bf-9a1e-4c35-8388-96cc980f8410","ios":"levelo://app?vid=57d7b7bf-9a1e-4c35-8388-96cc980f8410"},"vehicle_type_id":"4","last_reported":1728122858,"current_range_meters":16000,"station_id":"cpo3532slgdg3j2ikp40","pricing_plan_id":"cebpf4jnsgd1na2vs0mg"},{"bike_id":"82f49e4e-fcac-4087-aece-6f5af1299050","system_id":"levelo_inurba_marseille","lat":43.28409,"lon":5.34991,"is_reserved":false,"is_disabled":false,"rental_uris":{"android":"levelo://app?vid=82f49e4e-fcac-4087-aece-6f5af1299050","ios":"levelo://app?vid=82f49e4e-fcac-4087-aece-6f5af1299050"},"vehicle_type_id":"4","last_reported":1728122858,"current_range_meters":34000,"station_id":"ce4bhbh2rcd13ifvqepg","pricing_plan_id":"cebpf4jnsgd1na2vs0mg"},{"bike_id":"e7882848-be4a-4aa3-93d8-7e62988a1674","system_id":"levelo_inurba_marseille","lat":43.30547,"lon":5.36522,"is_reserved":false,"is_disabled":false,"rental_uris":{"android":"levelo://app?vid=e7882848-be4a-4aa3-93d8-7e62988a1674","ios":"levelo://app?vid=e7882848-be4a-4aa3-93d8-7e62988a1674"},"vehicle_type_id":"4","last_reported":1728122858,"current_range_meters":37600,"station_id":"ce4bgs12rcd13ifvqcag","pricing_plan_id":"cebpf4jnsgd1na2vs0mg"},{"bike_id":"e4cf2d84-7e35-4010-ba17-26bbdd699a52","system_id":"levelo_inurba_marseille","lat":43.28891,"lon":5.384143,"is_reserved":false,"is_disabled":false,"rental_uris":{"android":"levelo://app?vid=e4cf2d84-7e35-4010-ba17-26bbdd699a52","ios":"levelo://app?vid=e4cf2d84-7e35-4010-ba17-26bbdd699a52"},"vehicle_type_id":"4","last_reported":1728122858,"current_range_meters":11200,"station_id":"ce4bh612rcd13ifvqe6g","pricing_plan_id":"cebpf4jnsgd1na2vs0mg"},{"bike_id":"ea0f2492-2138-468f-bd77-ebaca7a464f3","system_id":"levelo_inurba_marseille","lat":43.28419,"lon":5.34992,"is_reserved":false,"is_disabled":false,"rental_uris":{"android":"levelo://app?vid=ea0f2492-2138-468f-bd77-ebaca7a464f3","ios":"levelo://app?vid=ea0f2492-2138-468f-bd77-ebaca7a464f3"},"vehicle_type_id":"4","last_reported":1728122858,"current_range_meters":38400,"station_id":"ce4bhbh2rcd13ifvqepg","pricing_plan_id":"cebpf4jnsgd1na2vs0mg"},{"bike_id":"77c59eab-5250-44c4-be86-099c0defe9c4","system_id":"levelo_inurba_marseille","lat":43.33759,"lon":5.37453,"is_reserved":false,"is_disabled":false,"rental_uris":{"android":"levelo://app?vid=77c59eab-5250-44c4-be86-099c0defe9c4","ios":"levelo://app?vid=77c59eab-5250-44c4-be86-099c0defe9c4"},"vehicle_type_id":"4","last_reported":1728122858,"current_range_meters":25600,"station_id":"","pricing_plan_id":"cebpf4jnsgd1na2vs0mg"},{"bike_id":"f81d12ed-c40a-4f41-955a-78346c410ef8","system_id":"levelo_inurba_marseille","lat":43.29714,"lon":5.37696,"is_reserved":false,"is_disabled":false,"rental_uris":{"android":"levelo://app?vid=f81d12ed-c40a-4f41-955a-78346c410ef8","ios":"levelo://app?vid=f81d12ed-c40a-4f41-955a-78346c410ef8"},"vehicle_type_id":"4","last_reported":1728122858,"current_range_meters":24400,"station_id":"ce4bgkh2rcd13ifvqbl0","pricing_plan_id":"cebpf4jnsgd1na2vs0mg"},{"bike_id":"e5257e55-06b1-4d6b-a59a-ffa8a62b85c5","system_id":"levelo_inurba_marseille","lat":43.28859,"lon":5.35838,"is_reserved":false,"is_disabled":false,"rental_uris":{"android":"levelo://app?vid=e5257e55-06b1-4d6b-a59a-ffa8a62b85c5","ios":"levelo://app?vid=e5257e55-06b1-4d6b-a59a-ffa8a62b85c5"},"vehicle_type_id":"4","last_reported":1728122858,"current_range_meters":38000,"station_id":"ce4bhb12rcd13ifvqem0","pricing_plan_id":"cebpf4jnsgd1na2vs0mg"},{"bike_id":"c62d5bcb-8d3c-423a-a7ea-f5ba7937890a","system_id":"levelo_inurba_marseille","lat":43.31365,"lon":5.38492,"is_reserved":false,"is_disabled":false,"rental_uris":{"android":"levelo://app?vid=c62d5bcb-8d3c-423a-a7ea-f5ba7937890a","ios":"levelo://app?vid=c62d5bcb-8d3c-423a-a7ea-f5ba7937890a"},"vehicle_type_id":"4","last_reported":1728122858,"current_range_meters":18000,"station_id":"ce4bgt92rcd13ifvqcf0","pricing_plan_id":"cebpf4jnsgd1na2vs0mg"},{"bike_id":"fd64ecee-ac04-4942-97bf-8c869e63d1e2","system_id":"levelo_inurba_marseille","lat":43.30805,"lon":5.38165,"is_reserved":false,"is_disabled":false,"rental_uris":{"android":"levelo://app?vid=fd64ecee-ac04-4942-97bf-8c869e63d1e2","ios":"levelo://app?vid=fd64ecee-ac04-4942-97bf-8c869e63d1e2"},"vehicle_type_id":"4","last_reported":1728122858,"current_range_meters":38800,"station_id":"ce4bgt12rcd13ifvqce0","pricing_plan_id":"cebpf4jnsgd1na2vs0mg"},{"bike_id":"32ceac28-dacd-4d4c-9c55-d75f7e6d1aa1","system_id":"levelo_inurba_marseille","lat":43.308,"lon":5.4353,"is_reserved":false,"is_disabled":false,"rental_uris":{"android":"levelo://app?vid=32ceac28-dacd-4d4c-9c55-d75f7e6d1aa1","ios":"levelo://app?vid=32ceac28-dacd-4d4c-9c55-d75f7e6d1aa1"},"vehicle_type_id":"4","last_reported":1728122858,"current_range_meters":10000,"station_id":"ce4bhph2rcd13ifvqheg","pricing_plan_id":"cebpf4jnsgd1na2vs0mg"},{"bike_id":"ca47570b-2efc-4631-b07a-832edc9b204f","system_id":"levelo_inurba_marseille","lat":43.23183,"lon":5.39975,"is_reserved":false,"is_disabled":false,"rental_uris":{"android":"levelo://app?vid=ca47570b-2efc-4631-b07a-832edc9b204f","ios":"levelo://app?vid=ca47570b-2efc-4631-b07a-832edc9b204f"},"vehicle_type_id":"4","last_reported":1728122858,"current_range_meters":30000,"station_id":"ce4bhn12rcd13ifvqgqg","pricing_plan_id":"cebpf4jnsgd1na2vs0mg"},{"bike_id":"0965a543-53b5-4e53-9bbf-e83a3a5eabb1","system_id":"levelo_inurba_marseille","lat":43.30949,"lon":5.39034,"is_reserved":false,"is_disabled":false,"rental_uris":{"android":"levelo://app?vid=0965a543-53b5-4e53-9bbf-e83a3a5eabb1","ios":"levelo://app?vid=0965a543-53b5-4e53-9bbf-e83a3a5eabb1"},"vehicle_type_id":"4","last_reported":1728122858,"current_range_meters":25600,"station_id":"ce4bgup2rcd13ifvqco0","pricing_plan_id":"cebpf4jnsgd1na2vs0mg"},{"bike_id":"b991346f-0293-43a8-b03a-03c798cf4872","system_id":"levelo_inurba_marseille","lat":43.25822,"lon":5.39436,"is_reserved":false,"is_disabled":false,"rental_uris":{"android":"levelo://app?vid=b991346f-0293-43a8-b03a-03c798cf4872","ios":"levelo://app?vid=b991346f-0293-43a8-b03a-03c798cf4872"},"vehicle_type_id":"4","last_reported":1728122858,"current_range_meters":20400,"station_id":"ce4bhip2rcd13ifvqft0","pricing_plan_id":"cebpf4jnsgd1na2vs0mg"},{"bike_id":"b417a8d0-1fac-4a2b-9294-35cea48e57c1","system_id":"levelo_inurba_marseille","lat":43.33024,"lon":5.39044,"is_reserved":false,"is_disabled":false,"rental_uris":{"android":"levelo://app?vid=b417a8d0-1fac-4a2b-9294-35cea48e57c1","ios":"levelo://app?vid=b417a8d0-1fac-4a2b-9294-35cea48e57c1"},"vehicle_type_id":"4","last_reported":1728122858,"current_range_meters":27600,"station_id":"ce4bhr92rcd13ifvqhrg","pricing_plan_id":"cebpf4jnsgd1na2vs0mg"},{"bike_id":"d54b1158-ec6f-4dc3-a7e1-2d0b5958261d","system_id":"levelo_inurba_marseille","lat":43.29555,"lon":5.42283,"is_reserved":false,"is_disabled":false,"rental_uris":{"android":"levelo://app?vid=d54b1158-ec6f-4dc3-a7e1-2d0b5958261d","ios":"levelo://app?vid=d54b1158-ec6f-4dc3-a7e1-2d0b5958261d"},"vehicle_type_id":"4","last_reported":1728122858,"current_range_meters":38800,"station_id":"ce4bhph2rcd13ifvqhdg","pricing_plan_id":"cebpf4jnsgd1na2vs0mg"},{"bike_id":"d5c43e4f-ec76-4579-b5d4-6acbbae67566","system_id":"levelo_inurba_marseille","lat":43.22928,"lon":5.3537,"is_reserved":false,"is_disabled":false,"rental_uris":{"android":"levelo://app?vid=d5c43e4f-ec76-4579-b5d4-6acbbae67566","ios":"levelo://app?vid=d5c43e4f-ec76-4579-b5d4-6acbbae67566"},"vehicle_type_id":"4","last_reported":1728122858,"current_range_meters":21600,"station_id":"cpo3532slgdg3j2ikp40","pricing_plan_id":"cebpf4jnsgd1na2vs0mg"},{"bike_id":"75ce31e2-5f0d-4f06-9d38-6324d9daeecc","system_id":"levelo_inurba_marseille","lat":43.34144,"lon":5.4091,"is_reserved":false,"is_disabled":false,"rental_uris":{"android":"levelo://app?vid=75ce31e2-5f0d-4f06-9d38-6324d9daeecc","ios":"levelo://app?vid=75ce31e2-5f0d-4f06-9d38-6324d9daeecc"},"vehicle_type_id":"4","last_reported":1728122858,"current_range_meters":21600,"station_id":"ce4bhqh2rcd13ifvqhlg","pricing_plan_id":"cebpf4jnsgd1na2vs0mg"},{"bike_id":"4b678b6a-4f8a-4377-b05f-685138e35c3f","system_id":"levelo_inurba_marseille","lat":43.2861,"lon":5.37065,"is_reserved":false,"is_disabled":false,"rental_uris":{"android":"levelo://app?vid=4b678b6a-4f8a-4377-b05f-685138e35c3f","ios":"levelo://app?vid=4b678b6a-4f8a-4377-b05f-685138e35c3f"},"vehicle_type_id":"4","last_reported":1728122858,"current_range_meters":25600,"station_id":"ce4bht12rcd13ifvqi60","pricing_plan_id":"cebpf4jnsgd1na2vs0mg"},{"bike_id":"a8597e2b-11a4-41b1-af04-3d091354a1e4","system_id":"levelo_inurba_marseille","lat":43.320386,"lon":5.41567,"is_reserved":false,"is_disabled":false,"rental_uris":{"android":"levelo://app?vid=a8597e2b-11a4-41b1-af04-3d091354a1e4","ios":"levelo://app?vid=a8597e2b-11a4-41b1-af04-3d091354a1e4"},"vehicle_type_id":"4","last_reported":1728122858,"current_range_meters":28000,"station_id":"ce4bhq92rcd13ifvqhkg","pricing_plan_id":"cebpf4jnsgd1na2vs0mg"},{"bike_id":"2652d87d-e51f-4777-97ca-7914dd0fe606","system_id":"levelo_inurba_marseille","lat":43.30468,"lon":5.37899,"is_reserved":false,"is_disabled":false,"rental_uris":{"android":"levelo://app?vid=2652d87d-e51f-4777-97ca-7914dd0fe606","ios":"levelo://app?vid=2652d87d-e51f-4777-97ca-7914dd0fe606"},"vehicle_type_id":"4","last_reported":1728122858,"current_range_meters":38800,"station_id":"ce4bgup2rcd13ifvqcn0","pricing_plan_id":"cebpf4jnsgd1na2vs0mg"},{"bike_id":"34b55f85-4aac-4649-bf9d-e369ec7f717c","system_id":"levelo_inurba_marseille","lat":43.26944,"lon":5.40243,"is_reserved":false,"is_disabled":false,"rental_uris":{"android":"levelo://app?vid=34b55f85-4aac-4649-bf9d-e369ec7f717c","ios":"levelo://app?vid=34b55f85-4aac-4649-bf9d-e369ec7f717c"},"vehicle_type_id":"4","last_reported":1728122858,"current_range_meters":36000,"station_id":"cjm6bp8fraef2m0cb0m0","pricing_plan_id":"cebpf4jnsgd1na2vs0mg"},{"bike_id":"410a702f-9dff-4188-bef6-ad436f99f29a","system_id":"levelo_inurba_marseille","lat":43.32367,"lon":5.38877,"is_reserved":false,"is_disabled":false,"rental_uris":{"android":"levelo://app?vid=410a702f-9dff-4188-bef6-ad436f99f29a","ios":"levelo://app?vid=410a702f-9dff-4188-bef6-ad436f99f29a"},"vehicle_type_id":"4","last_reported":1728122858,"current_range_meters":25200,"station_id":"ce4bhqp2rcd13ifvqhog","pricing_plan_id":"cebpf4jnsgd1na2vs0mg"},{"bike_id":"97c3ddce-4e7d-43dc-9cb9-dad625978cd8","system_id":"levelo_inurba_marseille","lat":43.3176,"lon":5.39006,"is_reserved":false,"is_disabled":false,"rental_uris":{"android":"levelo://app?vid=97c3ddce-4e7d-43dc-9cb9-dad625978cd8","ios":"levelo://app?vid=97c3ddce-4e7d-43dc-9cb9-dad625978cd8"},"vehicle_type_id":"4","last_reported":1728122858,"current_range_meters":38000,"station_id":"ce4bhqp2rcd13ifvqhng","pricing_plan_id":"cebpf4jnsgd1na2vs0mg"},{"bike_id":"bf89d10d-344c-4d25-b9a9-777920347943","system_id":"levelo_inurba_marseille","lat":43.30595,"lon":5.37224,"is_reserved":false,"is_disabled":false,"rental_uris":{"android":"levelo://app?vid=bf89d10d-344c-4d25-b9a9-777920347943","ios":"levelo://app?vid=bf89d10d-344c-4d25-b9a9-777920347943"},"vehicle_type_id":"4","last_reported":1728122858,"current_range_meters":29600,"station_id":"ce4bgqh2rcd13ifvqc4g","pricing_plan_id":"cebpf4jnsgd1na2vs0mg"},{"bike_id":"5fad1419-2ea4-4fe1-a7dd-0f43951c79aa","system_id":"levelo_inurba_marseille","lat":43.28422,"lon":5.34993,"is_reserved":false,"is_disabled":false,"rental_uris":{"android":"levelo://app?vid=5fad1419-2ea4-4fe1-a7dd-0f43951c79aa","ios":"levelo://app?vid=5fad1419-2ea4-4fe1-a7dd-0f43951c79aa"},"vehicle_type_id":"4","last_reported":1728122858,"current_range_meters":20400,"station_id":"ce4bhbh2rcd13ifvqepg","pricing_plan_id":"cebpf4jnsgd1na2vs0mg"},{"bike_id":"c62192f2-713a-4f5d-8a24-ae0d48a66049","system_id":"levelo_inurba_marseille","lat":43.30101,"lon":5.39067,"is_reserved":false,"is_disabled":false,"rental_uris":{"android":"levelo://app?vid=c62192f2-713a-4f5d-8a24-ae0d48a66049","ios":"levelo://app?vid=c62192f2-713a-4f5d-8a24-ae0d48a66049"},"vehicle_type_id":"4","last_reported":1728122858,"current_range_meters":27200,"station_id":"ce4bh192rcd13ifvqdb0","pricing_plan_id":"cebpf4jnsgd1na2vs0mg"},{"bike_id":"d2801287-9a07-410c-8860-548ca5010bd3","system_id":"levelo_inurba_marseille","lat":43.29221,"lon":5.36047,"is_reserved":false,"is_disabled":false,"rental_uris":{"android":"levelo://app?vid=d2801287-9a07-410c-8860-548ca5010bd3","ios":"levelo://app?vid=d2801287-9a07-410c-8860-548ca5010bd3"},"vehicle_type_id":"4","last_reported":1728122858,"current_range_meters":37600,"station_id":"ce4bhbh2rcd13ifvqeqg","pricing_plan_id":"cebpf4jnsgd1na2vs0mg"},{"bike_id":"d9513a24-3235-43a7-b9a5-1c5cfe37603f","system_id":"levelo_inurba_marseille","lat":43.23052,"lon":5.35486,"is_reserved":false,"is_disabled":false,"rental_uris":{"android":"levelo://app?vid=d9513a24-3235-43a7-b9a5-1c5cfe37603f","ios":"levelo://app?vid=d9513a24-3235-43a7-b9a5-1c5cfe37603f"},"vehicle_type_id":"4","last_reported":1728122858,"current_range_meters":20000,"station_id":"cpo3342slgdg3j2ifvpg","pricing_plan_id":"cebpf4jnsgd1na2vs0mg"},{"bike_id":"61b8e147-1e03-48bd-b16d-2fe479ee3990","system_id":"levelo_inurba_marseille","lat":43.32052,"lon":5.41544,"is_reserved":false,"is_disabled":false,"rental_uris":{"android":"levelo://app?vid=61b8e147-1e03-48bd-b16d-2fe479ee3990","ios":"levelo://app?vid=61b8e147-1e03-48bd-b16d-2fe479ee3990"},"vehicle_type_id":"4","last_reported":1728122858,"current_range_meters":7200,"station_id":"ce4bhq92rcd13ifvqhkg","pricing_plan_id":"cebpf4jnsgd1na2vs0mg"},{"bike_id":"009d6d0e-c1a8-4ddc-b330-ebf04e9c45b9","system_id":"levelo_inurba_marseille","lat":43.299027,"lon":5.436783,"is_reserved":false,"is_disabled":false,"rental_uris":{"android":"levelo://app?vid=009d6d0e-c1a8-4ddc-b330-ebf04e9c45b9","ios":"levelo://app?vid=009d6d0e-c1a8-4ddc-b330-ebf04e9c45b9"},"vehicle_type_id":"4","last_reported":1728122858,"current_range_meters":21600,"station_id":"ce4bhpp2rcd13ifvqhfg","pricing_plan_id":"cebpf4jnsgd1na2vs0mg"},{"bike_id":"aad86208-43f3-40ab-b075-40209bf213ab","system_id":"levelo_inurba_marseille","lat":43.29849,"lon":5.36274,"is_reserved":false,"is_disabled":false,"rental_uris":{"android":"levelo://app?vid=aad86208-43f3-40ab-b075-40209bf213ab","ios":"levelo://app?vid=aad86208-43f3-40ab-b075-40209bf213ab"},"vehicle_type_id":"4","last_reported":1728122858,"current_range_meters":18800,"station_id":"ce4bgpp2rcd13ifvqc3g","pricing_plan_id":"cebpf4jnsgd1na2vs0mg"},{"bike_id":"30216b71-3863-4d4a-83df-8c95508de8de","system_id":"levelo_inurba_marseille","lat":43.304535,"lon":5.378813,"is_reserved":false,"is_disabled":false,"rental_uris":{"android":"levelo://app?vid=30216b71-3863-4d4a-83df-8c95508de8de","ios":"levelo://app?vid=30216b71-3863-4d4a-83df-8c95508de8de"},"vehicle_type_id":"4","last_reported":1728122858,"current_range_meters":22800,"station_id":"ce4bgup2rcd13ifvqcn0","pricing_plan_id":"cebpf4jnsgd1na2vs0mg"},{"bike_id":"e801b355-6ede-41f3-aa7c-a02edf287c12","system_id":"levelo_inurba_marseille","lat":43.23205,"lon":5.35548,"is_reserved":false,"is_disabled":false,"rental_uris":{"android":"levelo://app?vid=e801b355-6ede-41f3-aa7c-a02edf287c12","ios":"levelo://app?vid=e801b355-6ede-41f3-aa7c-a02edf287c12"},"vehicle_type_id":"4","last_reported":1728122858,"current_range_meters":18800,"station_id":"ce4bhu92rcd13ifvqi70","pricing_plan_id":"cebpf4jnsgd1na2vs0mg"},{"bike_id":"c5f5039e-52f2-4c02-8f26-9e0cdae271dd","system_id":"levelo_inurba_marseille","lat":43.30879,"lon":5.37203,"is_reserved":false,"is_disabled":false,"rental_uris":{"android":"levelo://app?vid=c5f5039e-52f2-4c02-8f26-9e0cdae271dd","ios":"levelo://app?vid=c5f5039e-52f2-4c02-8f26-9e0cdae271dd"},"vehicle_type_id":"4","last_reported":1728122858,"current_range_meters":17200,"station_id":"ce4bguh2rcd13ifvqckg","pricing_plan_id":"cebpf4jnsgd1na2vs0mg"},{"bike_id":"d0898481-3578-40b2-9add-8b714658de6d","system_id":"levelo_inurba_marseille","lat":43.28152,"lon":5.42639,"is_reserved":false,"is_disabled":false,"rental_uris":{"android":"levelo://app?vid=d0898481-3578-40b2-9add-8b714658de6d","ios":"levelo://app?vid=d0898481-3578-40b2-9add-8b714658de6d"},"vehicle_type_id":"4","last_reported":1728122858,"current_range_meters":25200,"station_id":"ce4bhnh2rcd13ifvqgug","pricing_plan_id":"cebpf4jnsgd1na2vs0mg"},{"bike_id":"4e0c83a2-b0c3-4894-8559-e509681998d3","system_id":"levelo_inurba_marseille","lat":43.31128,"lon":5.38326,"is_reserved":false,"is_disabled":false,"rental_uris":{"android":"levelo://app?vid=4e0c83a2-b0c3-4894-8559-e509681998d3","ios":"levelo://app?vid=4e0c83a2-b0c3-4894-8559-e509681998d3"},"vehicle_type_id":"4","last_reported":1728122858,"current_range_meters":17200,"station_id":"","pricing_plan_id":"cebpf4jnsgd1na2vs0mg"},{"bike_id":"c2f21302-0bda-4485-a5df-98d1ef9f2991","system_id":"levelo_inurba_marseille","lat":43.23947,"lon":5.38284,"is_reserved":false,"is_disabled":false,"rental_uris":{"android":"levelo://app?vid=c2f21302-0bda-4485-a5df-98d1ef9f2991","ios":"levelo://app?vid=c2f21302-0bda-4485-a5df-98d1ef9f2991"},"vehicle_type_id":"4","last_reported":1728122858,"current_range_meters":8400,"station_id":"","pricing_plan_id":"cebpf4jnsgd1na2vs0mg"},{"bike_id":"3c797729-0364-42b3-8e58-4709c41c4a3c","system_id":"levelo_inurba_marseille","lat":43.30814,"lon":5.43521,"is_reserved":false,"is_disabled":false,"rental_uris":{"android":"levelo://app?vid=3c797729-0364-42b3-8e58-4709c41c4a3c","ios":"levelo://app?vid=3c797729-0364-42b3-8e58-4709c41c4a3c"},"vehicle_type_id":"4","last_reported":1728122858,"current_range_meters":25600,"station_id":"ce4bhph2rcd13ifvqheg","pricing_plan_id":"cebpf4jnsgd1na2vs0mg"},{"bike_id":"c76830d2-2ed6-425d-83ad-7117befa5dc1","system_id":"levelo_inurba_marseille","lat":43.31119,"lon":5.37763,"is_reserved":false,"is_disabled":false,"rental_uris":{"android":"levelo://app?vid=c76830d2-2ed6-425d-83ad-7117befa5dc1","ios":"levelo://app?vid=c76830d2-2ed6-425d-83ad-7117befa5dc1"},"vehicle_type_id":"4","last_reported":1728122858,"current_range_meters":37600,"station_id":"ce4bgt92rcd13ifvqcg0","pricing_plan_id":"cebpf4jnsgd1na2vs0mg"},{"bike_id":"dcfa5e76-fc24-4843-a557-005994836fd9","system_id":"levelo_inurba_marseille","lat":43.26198,"lon":5.37932,"is_reserved":false,"is_disabled":false,"rental_uris":{"android":"levelo://app?vid=dcfa5e76-fc24-4843-a557-005994836fd9","ios":"levelo://app?vid=dcfa5e76-fc24-4843-a557-005994836fd9"},"vehicle_type_id":"4","last_reported":1728122858,"current_range_meters":6400,"station_id":"ce4bhjp2rcd13ifvqg90","pricing_plan_id":"cebpf4jnsgd1na2vs0mg"},{"bike_id":"1a17e343-3641-4a92-a9cd-00180e9fe20c","system_id":"levelo_inurba_marseille","lat":43.295703,"lon":5.374013,"is_reserved":false,"is_disabled":false,"rental_uris":{"android":"levelo://app?vid=1a17e343-3641-4a92-a9cd-00180e9fe20c","ios":"levelo://app?vid=1a17e343-3641-4a92-a9cd-00180e9fe20c"},"vehicle_type_id":"4","last_reported":1728122858,"current_range_meters":28000,"station_id":"ce4bgkp2rcd13ifvqbmg","pricing_plan_id":"cebpf4jnsgd1na2vs0mg"},{"bike_id":"9ba91369-7a20-4b8c-969f-ff69552126c8","system_id":"levelo_inurba_marseille","lat":43.30312,"lon":5.36895,"is_reserved":false,"is_disabled":false,"rental_uris":{"android":"levelo://app?vid=9ba91369-7a20-4b8c-969f-ff69552126c8","ios":"levelo://app?vid=9ba91369-7a20-4b8c-969f-ff69552126c8"},"vehicle_type_id":"4","last_reported":1728122858,"current_range_meters":16800,"station_id":"ce4bgqh2rcd13ifvqc5g","pricing_plan_id":"cebpf4jnsgd1na2vs0mg"},{"bike_id":"f443927e-992e-4d86-bbf6-2a2ac0a6bf23","system_id":"levelo_inurba_marseille","lat":43.3017,"lon":5.38078,"is_reserved":false,"is_disabled":false,"rental_uris":{"android":"levelo://app?vid=f443927e-992e-4d86-bbf6-2a2ac0a6bf23","ios":"levelo://app?vid=f443927e-992e-4d86-bbf6-2a2ac0a6bf23"},"vehicle_type_id":"4","last_reported":1728122858,"current_range_meters":36400,"station_id":"ce4bgjp2rcd13ifvqbh0","pricing_plan_id":"cebpf4jnsgd1na2vs0mg"},{"bike_id":"2b656128-745d-4ab3-a53b-f9b69c649d8b","system_id":"levelo_inurba_marseille","lat":43.24551,"lon":5.39524,"is_reserved":false,"is_disabled":false,"rental_uris":{"android":"levelo://app?vid=2b656128-745d-4ab3-a53b-f9b69c649d8b","ios":"levelo://app?vid=2b656128-745d-4ab3-a53b-f9b69c649d8b"},"vehicle_type_id":"4","last_reported":1728122858,"current_range_meters":37600,"station_id":"ce4bhlp2rcd13ifvqgjg","pricing_plan_id":"cebpf4jnsgd1na2vs0mg"},{"bike_id":"b0336fdb-5034-4455-a5f3-316dff3a59e1","system_id":"levelo_inurba_marseille","lat":43.31324,"lon":5.397,"is_reserved":false,"is_disabled":false,"rental_uris":{"android":"levelo://app?vid=b0336fdb-5034-4455-a5f3-316dff3a59e1","ios":"levelo://app?vid=b0336fdb-5034-4455-a5f3-316dff3a59e1"},"vehicle_type_id":"4","last_reported":1728122858,"current_range_meters":32400,"station_id":"ce4bgvp2rcd13ifvqcu0","pricing_plan_id":"cebpf4jnsgd1na2vs0mg"},{"bike_id":"7a8a084f-1d5d-4578-9899-fc300a54d980","system_id":"levelo_inurba_marseille","lat":43.26623,"lon":5.39033,"is_reserved":false,"is_disabled":false,"rental_uris":{"android":"levelo://app?vid=7a8a084f-1d5d-4578-9899-fc300a54d980","ios":"levelo://app?vid=7a8a084f-1d5d-4578-9899-fc300a54d980"},"vehicle_type_id":"4","last_reported":1728122858,"current_range_meters":6800,"station_id":"ce4bhip2rcd13ifvqft0","pricing_plan_id":"cebpf4jnsgd1na2vs0mg"},{"bike_id":"4e41f6ac-a75d-4a50-9a8b-0c0e8ed78108","system_id":"levelo_inurba_marseille","lat":43.22935,"lon":5.35379,"is_reserved":false,"is_disabled":false,"rental_uris":{"android":"levelo://app?vid=4e41f6ac-a75d-4a50-9a8b-0c0e8ed78108","ios":"levelo://app?vid=4e41f6ac-a75d-4a50-9a8b-0c0e8ed78108"},"vehicle_type_id":"4","last_reported":1728122858,"current_range_meters":34800,"station_id":"cpo3532slgdg3j2ikp40","pricing_plan_id":"cebpf4jnsgd1na2vs0mg"},{"bike_id":"d2df891e-46f3-40dc-9e09-2779385397ea","system_id":"levelo_inurba_marseille","lat":43.31535,"lon":5.38038,"is_reserved":false,"is_disabled":false,"rental_uris":{"android":"levelo://app?vid=d2df891e-46f3-40dc-9e09-2779385397ea","ios":"levelo://app?vid=d2df891e-46f3-40dc-9e09-2779385397ea"},"vehicle_type_id":"4","last_reported":1728122858,"current_range_meters":38000,"station_id":"ce4bhsp2rcd13ifvqi50","pricing_plan_id":"cebpf4jnsgd1na2vs0mg"},{"bike_id":"8df5e434-358e-47ce-82bd-9291d9bbb368","system_id":"levelo_inurba_marseille","lat":43.32052,"lon":5.41562,"is_reserved":false,"is_disabled":false,"rental_uris":{"android":"levelo://app?vid=8df5e434-358e-47ce-82bd-9291d9bbb368","ios":"levelo://app?vid=8df5e434-358e-47ce-82bd-9291d9bbb368"},"vehicle_type_id":"4","last_reported":1728122858,"current_range_meters":38800,"station_id":"ce4bhq92rcd13ifvqhkg","pricing_plan_id":"cebpf4jnsgd1na2vs0mg"},{"bike_id":"0870ea19-afa1-48c7-a143-ac82851bbd09","system_id":"levelo_inurba_marseille","lat":43.33767,"lon":5.37451,"is_reserved":false,"is_disabled":false,"rental_uris":{"android":"levelo://app?vid=0870ea19-afa1-48c7-a143-ac82851bbd09","ios":"levelo://app?vid=0870ea19-afa1-48c7-a143-ac82851bbd09"},"vehicle_type_id":"4","last_reported":1728122858,"current_range_meters":38000,"station_id":"","pricing_plan_id":"cebpf4jnsgd1na2vs0mg"},{"bike_id":"b0cc1d89-0026-4600-a22c-06954b5032b0","system_id":"levelo_inurba_marseille","lat":43.25009,"lon":5.38928,"is_reserved":false,"is_disabled":false,"rental_uris":{"android":"levelo://app?vid=b0cc1d89-0026-4600-a22c-06954b5032b0","ios":"levelo://app?vid=b0cc1d89-0026-4600-a22c-06954b5032b0"},"vehicle_type_id":"4","last_reported":1728122858,"current_range_meters":33200,"station_id":"ce4bhgp2rcd13ifvqfd0","pricing_plan_id":"cebpf4jnsgd1na2vs0mg"},{"bike_id":"8573e229-9d39-4cc7-a450-029e1afa4549","system_id":"levelo_inurba_marseille","lat":43.27991,"lon":5.41657,"is_reserved":false,"is_disabled":false,"rental_uris":{"android":"levelo://app?vid=8573e229-9d39-4cc7-a450-029e1afa4549","ios":"levelo://app?vid=8573e229-9d39-4cc7-a450-029e1afa4549"},"vehicle_type_id":"4","last_reported":1728122858,"current_range_meters":20400,"station_id":"ce4bho12rcd13ifvqh1g","pricing_plan_id":"cebpf4jnsgd1na2vs0mg"},{"bike_id":"6c629267-8b49-451e-bbf7-e066aba5cc25","system_id":"levelo_inurba_marseille","lat":43.33759,"lon":5.37425,"is_reserved":false,"is_disabled":false,"rental_uris":{"android":"levelo://app?vid=6c629267-8b49-451e-bbf7-e066aba5cc25","ios":"levelo://app?vid=6c629267-8b49-451e-bbf7-e066aba5cc25"},"vehicle_type_id":"4","last_reported":1728122858,"current_range_meters":38800,"station_id":"","pricing_plan_id":"cebpf4jnsgd1na2vs0mg"},{"bike_id":"dd056484-cdb1-4b55-95f0-4d863a4a51ad","system_id":"levelo_inurba_marseille","lat":43.295715,"lon":5.399808,"is_reserved":false,"is_disabled":false,"rental_uris":{"android":"levelo://app?vid=dd056484-cdb1-4b55-95f0-4d863a4a51ad","ios":"levelo://app?vid=dd056484-cdb1-4b55-95f0-4d863a4a51ad"},"vehicle_type_id":"4","last_reported":1728122858,"current_range_meters":25200,"station_id":"ce4bh312rcd13ifvqdj0","pricing_plan_id":"cebpf4jnsgd1na2vs0mg"},{"bike_id":"b32bd199-a047-425c-807f-2d87c1441f21","system_id":"levelo_inurba_marseille","lat":43.29598,"lon":5.38102,"is_reserved":false,"is_disabled":false,"rental_uris":{"android":"levelo://app?vid=b32bd199-a047-425c-807f-2d87c1441f21","ios":"levelo://app?vid=b32bd199-a047-425c-807f-2d87c1441f21"},"vehicle_type_id":"4","last_reported":1728122858,"current_range_meters":37600,"station_id":"ce4bgl12rcd13ifvqbo0","pricing_plan_id":"cebpf4jnsgd1na2vs0mg"},{"bike_id":"7cdc3389-3cf6-420e-bbfb-8580e0227a78","system_id":"levelo_inurba_marseille","lat":43.28467,"lon":5.35887,"is_reserved":false,"is_disabled":false,"rental_uris":{"android":"levelo://app?vid=7cdc3389-3cf6-420e-bbfb-8580e0227a78","ios":"levelo://app?vid=7cdc3389-3cf6-420e-bbfb-8580e0227a78"},"vehicle_type_id":"4","last_reported":1728122858,"current_range_meters":36400,"station_id":"ce4bhah2rcd13ifvqei0","pricing_plan_id":"cebpf4jnsgd1na2vs0mg"},{"bike_id":"bdefae95-7cc5-4880-bfcb-b1af39586be0","system_id":"levelo_inurba_marseille","lat":43.3266,"lon":5.4099,"is_reserved":false,"is_disabled":false,"rental_uris":{"android":"levelo://app?vid=bdefae95-7cc5-4880-bfcb-b1af39586be0","ios":"levelo://app?vid=bdefae95-7cc5-4880-bfcb-b1af39586be0"},"vehicle_type_id":"4","last_reported":1728122858,"current_range_meters":38800,"station_id":"ce4bhpp2rcd13ifvqhgg","pricing_plan_id":"cebpf4jnsgd1na2vs0mg"},{"bike_id":"4f0867c6-5b64-43f1-b18f-12a0e8432fd2","system_id":"levelo_inurba_marseille","lat":43.28407,"lon":5.37513,"is_reserved":false,"is_disabled":false,"rental_uris":{"android":"levelo://app?vid=4f0867c6-5b64-43f1-b18f-12a0e8432fd2","ios":"levelo://app?vid=4f0867c6-5b64-43f1-b18f-12a0e8432fd2"},"vehicle_type_id":"4","last_reported":1728122858,"current_range_meters":36800,"station_id":"ce4bh412rcd13ifvqds0","pricing_plan_id":"cebpf4jnsgd1na2vs0mg"},{"bike_id":"4d8f1c05-08af-4ddd-a6dd-d265b2fc668d","system_id":"levelo_inurba_marseille","lat":43.3041,"lon":5.41278,"is_reserved":false,"is_disabled":false,"rental_uris":{"android":"levelo://app?vid=4d8f1c05-08af-4ddd-a6dd-d265b2fc668d","ios":"levelo://app?vid=4d8f1c05-08af-4ddd-a6dd-d265b2fc668d"},"vehicle_type_id":"4","last_reported":1728122858,"current_range_meters":38800,"station_id":"ce4bhop2rcd13ifvqh8g","pricing_plan_id":"cebpf4jnsgd1na2vs0mg"},{"bike_id":"7a90b2f2-d00e-4c33-b981-befe4f1139d2","system_id":"levelo_inurba_marseille","lat":43.23183,"lon":5.39976,"is_reserved":false,"is_disabled":false,"rental_uris":{"android":"levelo://app?vid=7a90b2f2-d00e-4c33-b981-befe4f1139d2","ios":"levelo://app?vid=7a90b2f2-d00e-4c33-b981-befe4f1139d2"},"vehicle_type_id":"4","last_reported":1728122858,"current_range_meters":30800,"station_id":"ce4bhn12rcd13ifvqgqg","pricing_plan_id":"cebpf4jnsgd1na2vs0mg"},{"bike_id":"ff430cfe-9827-44a2-84d5-dcaad54a8d18","system_id":"levelo_inurba_marseille","lat":43.281,"lon":5.37846,"is_reserved":false,"is_disabled":false,"rental_uris":{"android":"levelo://app?vid=ff430cfe-9827-44a2-84d5-dcaad54a8d18","ios":"levelo://app?vid=ff430cfe-9827-44a2-84d5-dcaad54a8d18"},"vehicle_type_id":"4","last_reported":1728122858,"current_range_meters":39200,"station_id":"ce4bha12rcd13ifvqee0","pricing_plan_id":"cebpf4jnsgd1na2vs0mg"},{"bike_id":"6b88663d-e5ef-43e4-9d36-f02683ae8a8e","system_id":"levelo_inurba_marseille","lat":43.29221,"lon":5.38026,"is_reserved":false,"is_disabled":false,"rental_uris":{"android":"levelo://app?vid=6b88663d-e5ef-43e4-9d36-f02683ae8a8e","ios":"levelo://app?vid=6b88663d-e5ef-43e4-9d36-f02683ae8a8e"},"vehicle_type_id":"4","last_reported":1728122858,"current_range_meters":14000,"station_id":"ce4bhnh2rcd13ifvqgtg","pricing_plan_id":"cebpf4jnsgd1na2vs0mg"},{"bike_id":"1e9e701f-fb8e-430e-be7f-54907f1b9076","system_id":"levelo_inurba_marseille","lat":43.33026,"lon":5.39037,"is_reserved":false,"is_disabled":false,"rental_uris":{"android":"levelo://app?vid=1e9e701f-fb8e-430e-be7f-54907f1b9076","ios":"levelo://app?vid=1e9e701f-fb8e-430e-be7f-54907f1b9076"},"vehicle_type_id":"4","last_reported":1728122858,"current_range_meters":18800,"station_id":"ce4bhr92rcd13ifvqhrg","pricing_plan_id":"cebpf4jnsgd1na2vs0mg"},{"bike_id":"26f290bb-1447-4f43-ab6d-1590e2a06a4b","system_id":"levelo_inurba_marseille","lat":43.31456,"lon":5.37371,"is_reserved":false,"is_disabled":false,"rental_uris":{"android":"levelo://app?vid=26f290bb-1447-4f43-ab6d-1590e2a06a4b","ios":"levelo://app?vid=26f290bb-1447-4f43-ab6d-1590e2a06a4b"},"vehicle_type_id":"4","last_reported":1728122858,"current_range_meters":34000,"station_id":"ce4bgt12rcd13ifvqcd0","pricing_plan_id":"cebpf4jnsgd1na2vs0mg"},{"bike_id":"763fb507-9371-4322-86df-97283fcffce0","system_id":"levelo_inurba_marseille","lat":43.32033,"lon":5.41575,"is_reserved":false,"is_disabled":false,"rental_uris":{"android":"levelo://app?vid=763fb507-9371-4322-86df-97283fcffce0","ios":"levelo://app?vid=763fb507-9371-4322-86df-97283fcffce0"},"vehicle_type_id":"4","last_reported":1728122858,"current_range_meters":32800,"station_id":"ce4bhq92rcd13ifvqhkg","pricing_plan_id":"cebpf4jnsgd1na2vs0mg"},{"bike_id":"404a3331-bceb-49f7-a3e9-a35be2afd0b5","system_id":"levelo_inurba_marseille","lat":43.28704,"lon":5.37397,"is_reserved":false,"is_disabled":false,"rental_uris":{"android":"levelo://app?vid=404a3331-bceb-49f7-a3e9-a35be2afd0b5","ios":"levelo://app?vid=404a3331-bceb-49f7-a3e9-a35be2afd0b5"},"vehicle_type_id":"4","last_reported":1728122858,"current_range_meters":38800,"station_id":"ce4bh3p2rcd13ifvqdq0","pricing_plan_id":"cebpf4jnsgd1na2vs0mg"},{"bike_id":"e0a07a08-8ace-4a01-b000-9c812c1d132e","system_id":"levelo_inurba_marseille","lat":43.31542,"lon":5.38039,"is_reserved":false,"is_disabled":false,"rental_uris":{"android":"levelo://app?vid=e0a07a08-8ace-4a01-b000-9c812c1d132e","ios":"levelo://app?vid=e0a07a08-8ace-4a01-b000-9c812c1d132e"},"vehicle_type_id":"4","last_reported":1728122858,"current_range_meters":4400,"station_id":"ce4bhsp2rcd13ifvqi50","pricing_plan_id":"cebpf4jnsgd1na2vs0mg"},{"bike_id":"408e694e-5410-4d1a-b09f-ea034d909554","system_id":"levelo_inurba_marseille","lat":43.28614,"lon":5.35097,"is_reserved":false,"is_disabled":false,"rental_uris":{"android":"levelo://app?vid=408e694e-5410-4d1a-b09f-ea034d909554","ios":"levelo://app?vid=408e694e-5410-4d1a-b09f-ea034d909554"},"vehicle_type_id":"4","last_reported":1728122858,"current_range_meters":28000,"station_id":"ce4bhch2rcd13ifvqeug","pricing_plan_id":"cebpf4jnsgd1na2vs0mg"},{"bike_id":"8c46832e-d5ed-4427-bc29-a4bf6d56b118","system_id":"levelo_inurba_marseille","lat":43.30965,"lon":5.39052,"is_reserved":false,"is_disabled":false,"rental_uris":{"android":"levelo://app?vid=8c46832e-d5ed-4427-bc29-a4bf6d56b118","ios":"levelo://app?vid=8c46832e-d5ed-4427-bc29-a4bf6d56b118"},"vehicle_type_id":"4","last_reported":1728122858,"current_range_meters":36000,"station_id":"ce4bgup2rcd13ifvqco0","pricing_plan_id":"cebpf4jnsgd1na2vs0mg"},{"bike_id":"a0a48911-ae34-4a3f-883c-27ac2f740d77","system_id":"levelo_inurba_marseille","lat":43.29546,"lon":5.42279,"is_reserved":false,"is_disabled":false,"rental_uris":{"android":"levelo://app?vid=a0a48911-ae34-4a3f-883c-27ac2f740d77","ios":"levelo://app?vid=a0a48911-ae34-4a3f-883c-27ac2f740d77"},"vehicle_type_id":"4","last_reported":1728122858,"current_range_meters":9600,"station_id":"ce4bhph2rcd13ifvqhdg","pricing_plan_id":"cebpf4jnsgd1na2vs0mg"},{"bike_id":"fe894fa8-2950-42c3-b21f-a384c41b699b","system_id":"levelo_inurba_marseille","lat":43.31713,"lon":5.4371,"is_reserved":false,"is_disabled":false,"rental_uris":{"android":"levelo://app?vid=fe894fa8-2950-42c3-b21f-a384c41b699b","ios":"levelo://app?vid=fe894fa8-2950-42c3-b21f-a384c41b699b"},"vehicle_type_id":"4","last_reported":1728122858,"current_range_meters":25200,"station_id":"ce4bhp92rcd13ifvqhcg","pricing_plan_id":"cebpf4jnsgd1na2vs0mg"},{"bike_id":"5cbc9e7e-36a4-4ee2-9b2e-b9b518fe7f8a","system_id":"levelo_inurba_marseille","lat":43.31709,"lon":5.43725,"is_reserved":false,"is_disabled":false,"rental_uris":{"android":"levelo://app?vid=5cbc9e7e-36a4-4ee2-9b2e-b9b518fe7f8a","ios":"levelo://app?vid=5cbc9e7e-36a4-4ee2-9b2e-b9b518fe7f8a"},"vehicle_type_id":"4","last_reported":1728122858,"current_range_meters":36400,"station_id":"ce4bhp92rcd13ifvqhcg","pricing_plan_id":"cebpf4jnsgd1na2vs0mg"},{"bike_id":"d4808aa6-c567-4fd2-a45d-721d9f01ea01","system_id":"levelo_inurba_marseille","lat":43.26063,"lon":5.393989,"is_reserved":false,"is_disabled":false,"rental_uris":{"android":"levelo://app?vid=d4808aa6-c567-4fd2-a45d-721d9f01ea01","ios":"levelo://app?vid=d4808aa6-c567-4fd2-a45d-721d9f01ea01"},"vehicle_type_id":"4","last_reported":1728122858,"current_range_meters":4400,"station_id":"ce4bhh92rcd13ifvqfj0","pricing_plan_id":"cebpf4jnsgd1na2vs0mg"},{"bike_id":"3fb161cb-bb75-4d65-a585-6102d7e8530b","system_id":"levelo_inurba_marseille","lat":43.320017,"lon":5.38151,"is_reserved":false,"is_disabled":false,"rental_uris":{"android":"levelo://app?vid=3fb161cb-bb75-4d65-a585-6102d7e8530b","ios":"levelo://app?vid=3fb161cb-bb75-4d65-a585-6102d7e8530b"},"vehicle_type_id":"4","last_reported":1728122858,"current_range_meters":30400,"station_id":"ce4bhr12rcd13ifvqhpg","pricing_plan_id":"cebpf4jnsgd1na2vs0mg"},{"bike_id":"3c76bc3c-ba6b-497c-b639-532eac44bc71","system_id":"levelo_inurba_marseille","lat":43.32364,"lon":5.38891,"is_reserved":false,"is_disabled":false,"rental_uris":{"android":"levelo://app?vid=3c76bc3c-ba6b-497c-b639-532eac44bc71","ios":"levelo://app?vid=3c76bc3c-ba6b-497c-b639-532eac44bc71"},"vehicle_type_id":"4","last_reported":1728122858,"current_range_meters":8000,"station_id":"ce4bhqp2rcd13ifvqhog","pricing_plan_id":"cebpf4jnsgd1na2vs0mg"},{"bike_id":"11ac7088-7bf6-44ee-b63a-03a874cb2e95","system_id":"levelo_inurba_marseille","lat":43.28153,"lon":5.42641,"is_reserved":false,"is_disabled":false,"rental_uris":{"android":"levelo://app?vid=11ac7088-7bf6-44ee-b63a-03a874cb2e95","ios":"levelo://app?vid=11ac7088-7bf6-44ee-b63a-03a874cb2e95"},"vehicle_type_id":"4","last_reported":1728122858,"current_range_meters":38800,"station_id":"ce4bhnh2rcd13ifvqgug","pricing_plan_id":"cebpf4jnsgd1na2vs0mg"},{"bike_id":"b6a817d8-5787-46a3-898e-0b46c75fc481","system_id":"levelo_inurba_marseille","lat":43.32965,"lon":5.40344,"is_reserved":false,"is_disabled":false,"rental_uris":{"android":"levelo://app?vid=b6a817d8-5787-46a3-898e-0b46c75fc481","ios":"levelo://app?vid=b6a817d8-5787-46a3-898e-0b46c75fc481"},"vehicle_type_id":"4","last_reported":1728122858,"current_range_meters":6800,"station_id":"","pricing_plan_id":"cebpf4jnsgd1na2vs0mg"},{"bike_id":"524e4691-54b9-421d-808d-78c4d20f022f","system_id":"levelo_inurba_marseille","lat":43.23196,"lon":5.35552,"is_reserved":false,"is_disabled":false,"rental_uris":{"android":"levelo://app?vid=524e4691-54b9-421d-808d-78c4d20f022f","ios":"levelo://app?vid=524e4691-54b9-421d-808d-78c4d20f022f"},"vehicle_type_id":"4","last_reported":1728122858,"current_range_meters":33200,"station_id":"ce4bhu92rcd13ifvqi70","pricing_plan_id":"cebpf4jnsgd1na2vs0mg"},{"bike_id":"fcee5d9d-c512-4424-a5e2-0c0b879f5951","system_id":"levelo_inurba_marseille","lat":43.24168,"lon":5.36391,"is_reserved":false,"is_disabled":false,"rental_uris":{"android":"levelo://app?vid=fcee5d9d-c512-4424-a5e2-0c0b879f5951","ios":"levelo://app?vid=fcee5d9d-c512-4424-a5e2-0c0b879f5951"},"vehicle_type_id":"4","last_reported":1728122858,"current_range_meters":14000,"station_id":"cpo36qri1sfpv3e86is0","pricing_plan_id":"cebpf4jnsgd1na2vs0mg"},{"bike_id":"6856d22e-440d-40d9-809f-3167dacdbdc3","system_id":"levelo_inurba_marseille","lat":43.337444,"lon":5.374475,"is_reserved":false,"is_disabled":false,"rental_uris":{"android":"levelo://app?vid=6856d22e-440d-40d9-809f-3167dacdbdc3","ios":"levelo://app?vid=6856d22e-440d-40d9-809f-3167dacdbdc3"},"vehicle_type_id":"4","last_reported":1728122858,"current_range_meters":19600,"station_id":"","pricing_plan_id":"cebpf4jnsgd1na2vs0mg"},{"bike_id":"a0619bfe-ecf4-46d7-88ea-4393c4e5316b","system_id":"levelo_inurba_marseille","lat":43.294915,"lon":5.376192,"is_reserved":false,"is_disabled":false,"rental_uris":{"android":"levelo://app?vid=a0619bfe-ecf4-46d7-88ea-4393c4e5316b","ios":"levelo://app?vid=a0619bfe-ecf4-46d7-88ea-4393c4e5316b"},"vehicle_type_id":"4","last_reported":1728122858,"current_range_meters":14800,"station_id":"ce4bgph2rcd13ifvqc2g","pricing_plan_id":"cebpf4jnsgd1na2vs0mg"},{"bike_id":"64bd957e-b978-44cb-a85c-928d627d24ec","system_id":"levelo_inurba_marseille","lat":43.35424,"lon":5.35869,"is_reserved":false,"is_disabled":false,"rental_uris":{"android":"levelo://app?vid=64bd957e-b978-44cb-a85c-928d627d24ec","ios":"levelo://app?vid=64bd957e-b978-44cb-a85c-928d627d24ec"},"vehicle_type_id":"4","last_reported":1728122858,"current_range_meters":8400,"station_id":"","pricing_plan_id":"cebpf4jnsgd1na2vs0mg"},