{"last_updated":1747490900,"ttl":60,"version":"2.2","data":{"bikes":[{"bike_id":"c0b9fd4f-e181-46ce-b0bf-f5119973334f","system_id":"levelo_inurba_marseille","lat":43.33771,"lon":5.37424,"is_reserved":false,"is_disabled":false,"rental_uris":{"android":"levelo://app?vid=c0b9fd4f-e181-46ce-b0bf-f5119973334f","ios":"levelo://app?vid=c0b9fd4f-e181-46ce-b0bf-f5119973334f"},"vehicle_type_id":"4","last_reported":1747490901,"current_range_meters":5600,"station_id":"","pricing_plan_id":"cebpf4jnsgd1na2vs0mg"},{"bike_id":"fc2577e7-1497-425b-9d4f-ab8d7dc843c6","system_id":"levelo_inurba_marseille","lat":43.33771,"lon":5.37485,"is_reserved":false,"is_disabled":true,"rental_uris":{"android":"levelo://app?vid=fc2577e7-1497-425b-9d4f-ab8d7dc843c6","ios":"levelo://app?vid=fc2577e7-1497-425b-9d4f-ab8d7dc843c6"},"vehicle_type_id":"4","last_reported":1747490901,"current_range_meters":0,"station_id":"","pricing_plan_id":"cebpf4jnsgd1na2vs0mg"},{"bike_id":"80d0d83f-909d-4568-b4e7-8a3ef4eed2de","system_id":"levelo_inurba_marseille","lat":43.25348,"lon":5.41986,"is_reserved":false,"is_disabled":true,"rental_uris":{"android":"levelo://app?vid=80d0d83f-909d-4568-b4e7-8a3ef4eed2de","ios":"levelo://app?vid=80d0d83f-909d-4568-b4e7-8a3ef4eed2de"},"vehicle_type_id":"4","last_reported":1747490901,"current_range_meters":0,"station_id":"","pricing_plan_id":"cebpf4jnsgd1na2vs0mg"},{"bike_id":"0b7b8d9e-a565-4a78-b09b-a8c868649f48","system_id":"levelo_inurba_marseille","lat":43.337444,"lon":5.374475,"is_reserved":false,"is_disabled":true,"rental_uris":{"android":"levelo://app?vid=0b7b8d9e-a565-4a78-b09b-a8c868649f48","ios":"levelo://app?vid=0b7b8d9e-a565-4a78-b09b-a8c868649f48"},"vehicle_type_id":"4","last_reported":1747490901,"current_range_meters":0,"station_id":"","pricing_plan_id":"cebpf4jnsgd1na2vs0mg"},{"bike_id":"ce4325af-2448-4172-bdec-81d552ee0b62","system_id":"levelo_inurba_marseille","lat":43.26166,"lon":5.42012,"is_reserved":false,"is_disabled":true,"rental_uris":{"android":"levelo://app?vid=ce4325af-2448-4172-bdec-81d552ee0b62","ios":"levelo://app?vid=ce4325af-2448-4172-bdec-81d552ee0b62"},"vehicle_type_id":"4","last_reported":1747490901,"current_range_meters":0,"station_id":"","pricing_plan_id":"cebpf4jnsgd1na2vs0mg"},{"bike_id":"23939faf-d206-4b93-ade4-199417584041","system_id":"levelo_inurba_marseille","lat":43.249446,"lon":5.375385,"is_reserved":false,"is_disabled":true,"rental_uris":{"android":"levelo://app?vid=23939faf-d206-4b93-ade4-199417584041","ios":"levelo://app?vid=23939faf-d206-4b93-ade4-199417584041"},"vehicle_type_id":"4","last_reported":1747490901,"current_range_meters":0,"station_id":"","pricing_plan_id":"cebpf4jnsgd1na2vs0mg"},{"bike_id":"6104f253-4496-4619-8d2b-60a2530278cf","system_id":"levelo_inurba_marseille","lat":43.28238,"lon":5.39145,"is_reserved":false,"is_disabled":true,"rental_uris":{"android":"levelo://app?vid=6104f253-4496-4619-8d2b-60a2530278cf","ios":"levelo://app?vid=6104f253-4496-4619-8d2b-60a2530278cf"},"vehicle_type_id":"4","last_reported":1747490901,"current_range_meters":0,"station_id":"","pricing_plan_id":"cebpf4jnsgd1na2vs0mg"},{"bike_id":"792567c6-0442-4011-aff0-9c05e25deb48","system_id":"levelo_inurba_marseille","lat":43.337444,"lon":5.374475,"is_reserved":false,"is_disabled":true,"rental_uris":{"android":"levelo://app?vid=792567c6-0442-4011-aff0-9c05e25deb48","ios":"levelo://app?vid=792567c6-0442-4011-aff0-9c05e25deb48"},"vehicle_type_id":"4","last_reported":1747490901,"current_range_meters":0,"station_id":"","pricing_plan_id":"cebpf4jnsgd1na2vs0mg"},{"bike_id":"bb0baa39-1e01-43e0-a77c-5ba8d631e8a2","system_id":"levelo_inurba_marseille","lat":43.27245,"lon":5.38592,"is_reserved":false,"is_disabled":true,"rental_uris":{"android":"levelo://app?vid=bb0baa39-1e01-43e0-a77c-5ba8d631e8a2","ios":"levelo://app?vid=bb0baa39-1e01-43e0-a77c-5ba8d631e8a2"},"vehicle_type_id":"4","last_reported":1747490901,"current_range_meters":0,"station_id":"","pricing_plan_id":"cebpf4jnsgd1na2vs0mg"},{"bike_id":"c157d540-1028-4042-bb5a-76095f4fea99","system_id":"levelo_inurba_marseille","lat":43.3059,"lon":5.39358,"is_reserved":false,"is_disabled":true,"rental_uris":{"android":"levelo://app?vid=c157d540-1028-4042-bb5a-76095f4fea99","ios":"levelo://app?vid=c157d540-1028-4042-bb5a-76095f4fea99"},"vehicle_type_id":"4","last_reported":1747490901,"current_range_meters":0,"station_id":"ce4bh0p2rcd13ifvqd80","pricing_plan_id":"cebpf4jnsgd1na2vs0mg"},{"bike_id":"452f98e1-9947-4c95-a951-aa08e8dc92ca","system_id":"levelo_inurba_marseille","lat":43.29095,"lon":5.38156,"is_reserved":false,"is_disabled":true,"rental_uris":{"android":"levelo://app?vid=452f98e1-9947-4c95-a951-aa08e8dc92ca","ios":"levelo://app?vid=452f98e1-9947-4c95-a951-aa08e8dc92ca"},"vehicle_type_id":"4","last_reported":1747490901,"current_range_meters":0,"station_id":"ce4bh512rcd13ifvqe2g","pricing_plan_id":"cebpf4jnsgd1na2vs0mg"},{"bike_id":"7a1c0a7d-9809-4d30-be72-907810e64f9d","system_id":"levelo_inurba_marseille","lat":43.28488,"lon":5.38414,"is_reserved":false,"is_disabled":true,"rental_uris":{"android":"levelo://app?vid=7a1c0a7d-9809-4d30-be72-907810e64f9d","ios":"levelo://app?vid=7a1c0a7d-9809-4d30-be72-907810e64f9d"},"vehicle_type_id":"4","last_reported":1747490901,"current_range_meters":0,"station_id":"ce4bh512rcd13ifvqe3g","pricing_plan_id":"cebpf4jnsgd1na2vs0mg"},{"bike_id":"0f578841-93bb-4ba4-9182-7b64c81267c2","system_id":"levelo_inurba_marseille","lat":43.28484,"lon":5.38422,"is_reserved":false,"is_disabled":true,"rental_uris":{"android":"levelo://app?vid=0f578841-93bb-4ba4-9182-7b64c81267c2","ios":"levelo://app?vid=0f578841-93bb-4ba4-9182-7b64c81267c2"},"vehicle_type_id":"4","last_reported":1747490901,"current_range_meters":0,"station_id":"ce4bh512rcd13ifvqe3g","pricing_plan_id":"cebpf4jnsgd1na2vs0mg"},{"bike_id":"313fd0e9-ae8d-4156-9b81-806e941a2253","system_id":"levelo_inurba_marseille","lat":43.28845,"lon":5.35838,"is_reserved":false,"is_disabled":true,"rental_uris":{"android":"levelo://app?vid=313fd0e9-ae8d-4156-9b81-806e941a2253","ios":"levelo://app?vid=313fd0e9-ae8d-4156-9b81-806e941a2253"},"vehicle_type_id":"4","last_reported":1747490901,"current_range_meters":0,"station_id":"ce4bhb12rcd13ifvqem0","pricing_plan_id":"cebpf4jnsgd1na2vs0mg"},{"bike_id":"62b821dd-ac91-423b-a2c7-aa6b33b3c4ab","system_id":"levelo_inurba_marseille","lat":43.27378,"lon":5.36254,"is_reserved":false,"is_disabled":true,"rental_uris":{"android":"levelo://app?vid=62b821dd-ac91-423b-a2c7-aa6b33b3c4ab","ios":"levelo://app?vid=62b821dd-ac91-423b-a2c7-aa6b33b3c4ab"},"vehicle_type_id":"4","last_reported":1747490901,"current_range_meters":0,"station_id":"ce4bhbh2rcd13ifvqeo0","pricing_plan_id":"cebpf4jnsgd1na2vs0mg"},{"bike_id":"c6962f96-df15-4f7e-96f2-ba442643c977","system_id":"levelo_inurba_marseille","lat":43.28416,"lon":5.34982,"is_reserved":false,"is_disabled":true,"rental_uris":{"android":"levelo://app?vid=c6962f96-df15-4f7e-96f2-ba442643c977","ios":"levelo://app?vid=c6962f96-df15-4f7e-96f2-ba442643c977"},"vehicle_type_id":"4","last_reported":1747490901,"current_range_meters":0,"station_id":"ce4bhbh2rcd13ifvqepg","pricing_plan_id":"cebpf4jnsgd1na2vs0mg"},{"bike_id":"ae9edc4f-e086-49d1-96c0-abd12bf122ab","system_id":"levelo_inurba_marseille","lat":43.2842,"lon":5.35003,"is_reserved":false,"is_disabled":true,"rental_uris":{"android":"levelo://app?vid=ae9edc4f-e086-49d1-96c0-abd12bf122ab","ios":"levelo://app?vid=ae9edc4f-e086-49d1-96c0-abd12bf122ab"},"vehicle_type_id":"4","last_reported":1747490901,"current_range_meters":0,"station_id":"ce4bhbh2rcd13ifvqepg","pricing_plan_id":"cebpf4jnsgd1na2vs0mg"},{"bike_id":"febb9578-2871-4692-8641-c53d8ef9714a","system_id":"levelo_inurba_marseille","lat":43.28264,"lon":5.35069,"is_reserved":false,"is_disabled":true,"rental_uris":{"android":"levelo://app?vid=febb9578-2871-4692-8641-c53d8ef9714a","ios":"levelo://app?vid=febb9578-2871-4692-8641-c53d8ef9714a"},"vehicle_type_id":"4","last_reported":1747490901,"current_range_meters":0,"station_id":"ce4bhbp2rcd13ifvqerg","pricing_plan_id":"cebpf4jnsgd1na2vs0mg"},{"bike_id":"db24197a-7293-4429-97e3-b4979ff225b0","system_id":"levelo_inurba_marseille","lat":43.26024,"lon":5.37555,"is_reserved":false,"is_disabled":true,"rental_uris":{"android":"levelo://app?vid=db24197a-7293-4429-97e3-b4979ff225b0","ios":"levelo://app?vid=db24197a-7293-4429-97e3-b4979ff225b0"},"vehicle_type_id":"4","last_reported":1747490901,"current_range_meters":0,"station_id":"ce4bhgh2rcd13ifvqfa0","pricing_plan_id":"cebpf4jnsgd1na2vs0mg"},{"bike_id":"498b2829-5b38-4f23-b450-4c74d81fba12","system_id":"levelo_inurba_marseille","lat":43.25517,"lon":5.37635,"is_reserved":false,"is_disabled":true,"rental_uris":{"android":"levelo://app?vid=498b2829-5b38-4f23-b450-4c74d81fba12","ios":"levelo://app?vid=498b2829-5b38-4f23-b450-4c74d81fba12"},"vehicle_type_id":"4","last_reported":1747490901,"current_range_meters":0,"station_id":"ce4bhh12rcd13ifvqff0","pricing_plan_id":"cebpf4jnsgd1na2vs0mg"},{"bike_id":"17263047-5b03-49f7-b9b9-abec0f5b5e6a","system_id":"levelo_inurba_marseille","lat":43.24392,"lon":5.3707,"is_reserved":false,"is_disabled":true,"rental_uris":{"android":"levelo://app?vid=17263047-5b03-49f7-b9b9-abec0f5b5e6a","ios":"levelo://app?vid=17263047-5b03-49f7-b9b9-abec0f5b5e6a"},"vehicle_type_id":"4","last_reported":1747490901,"current_range_meters":0,"station_id":"ce4bhhh2rcd13ifvqfk0","pricing_plan_id":"cebpf4jnsgd1na2vs0mg"},{"bike_id":"7fef9f5d-7807-47b4-993e-20c7a0522b0b","system_id":"levelo_inurba_marseille","lat":43.27209,"lon":5.39184,"is_reserved":false,"is_disabled":true,"rental_uris":{"android":"levelo://app?vid=7fef9f5d-7807-47b4-993e-20c7a0522b0b","ios":"levelo://app?vid=7fef9f5d-7807-47b4-993e-20c7a0522b0b"},"vehicle_type_id":"4","last_reported":1747490901,"current_range_meters":0,"station_id":"ce4bhhp2rcd13ifvqfm0","pricing_plan_id":"cebpf4jnsgd1na2vs0mg"},{"bike_id":"b14d2f01-aff8-4b99-beac-7088ace7a8b4","system_id":"levelo_inurba_marseille","lat":43.23969,"lon":5.36632,"is_reserved":false,"is_disabled":true,"rental_uris":{"android":"levelo://app?vid=b14d2f01-aff8-4b99-beac-7088ace7a8b4","ios":"levelo://app?vid=b14d2f01-aff8-4b99-beac-7088ace7a8b4"},"vehicle_type_id":"4","last_reported":1747490901,"current_range_meters":0,"station_id":"ce4bhi12rcd13ifvqfp0","pricing_plan_id":"cebpf4jnsgd1na2vs0mg"},{"bike_id":"ed3cadbd-72eb-4f9f-ad8d-7a606c03fba3","system_id":"levelo_inurba_marseille","lat":43.23962,"lon":5.36629,"is_reserved":false,"is_disabled":true,"rental_uris":{"android":"levelo://app?vid=ed3cadbd-72eb-4f9f-ad8d-7a606c03fba3","ios":"levelo://app?vid=ed3cadbd-72eb-4f9f-ad8d-7a606c03fba3"},"vehicle_type_id":"4","last_reported":1747490901,"current_range_meters":0,"station_id":"ce4bhi12rcd13ifvqfp0","pricing_plan_id":"cebpf4jnsgd1na2vs0mg"},{"bike_id":"553bba6c-1eee-4fd0-a922-5eeaaaf2b0dc","system_id":"levelo_inurba_marseille","lat":43.23964,"lon":5.36639,"is_reserved":false,"is_disabled":true,"rental_uris":{"android":"levelo://app?vid=553bba6c-1eee-4fd0-a922-5eeaaaf2b0dc","ios":"levelo://app?vid=553bba6c-1eee-4fd0-a922-5eeaaaf2b0dc"},"vehicle_type_id":"4","last_reported":1747490901,"current_range_meters":0,"station_id":"ce4bhi12rcd13ifvqfp0","pricing_plan_id":"cebpf4jnsgd1na2vs0mg"},{"bike_id":"63e8a27d-0548-4865-90e6-6308fe5b1e1f","system_id":"levelo_inurba_marseille","lat":43.23966,"lon":5.3664,"is_reserved":false,"is_disabled":true,"rental_uris":{"android":"levelo://app?vid=63e8a27d-0548-4865-90e6-6308fe5b1e1f","ios":"levelo://app?vid=63e8a27d-0548-4865-90e6-6308fe5b1e1f"},"vehicle_type_id":"4","last_reported":1747490901,"current_range_meters":0,"station_id":"ce4bhi12rcd13ifvqfp0","pricing_plan_id":"cebpf4jnsgd1na2vs0mg"},{"bike_id":"3bcfd179-a60e-483b-b473-b58f9b8f0dc5","system_id":"levelo_inurba_marseille","lat":43.26231,"lon":5.4045,"is_reserved":false,"is_disabled":true,"rental_uris":{"android":"levelo://app?vid=3bcfd179-a60e-483b-b473-b58f9b8f0dc5","ios":"levelo://app?vid=3bcfd179-a60e-483b-b473-b58f9b8f0dc5"},"vehicle_type_id":"4","last_reported":1747490901,"current_range_meters":0,"station_id":"ce4bhmh2rcd13ifvqgmg","pricing_plan_id":"cebpf4jnsgd1na2vs0mg"},{"bike_id":"98b8c9da-77e0-4213-bef2-e59272dfbed2","system_id":"levelo_inurba_marseille","lat":43.23152,"lon":5.43721,"is_reserved":false,"is_disabled":true,"rental_uris":{"android":"levelo://app?vid=98b8c9da-77e0-4213-bef2-e59272dfbed2","ios":"levelo://app?vid=98b8c9da-77e0-4213-bef2-e59272dfbed2"},"vehicle_type_id":"4","last_reported":1747490901,"current_range_meters":0,"station_id":"ce4bhmp2rcd13ifvqgog","pricing_plan_id":"cebpf4jnsgd1na2vs0mg"},{"bike_id":"0d5ec5dc-1184-4e2f-b2c9-ab60a3457c0f","system_id":"levelo_inurba_marseille","lat":43.2315,"lon":5.43709,"is_reserved":false,"is_disabled":true,"rental_uris":{"android":"levelo://app?vid=0d5ec5dc-1184-4e2f-b2c9-ab60a3457c0f","ios":"levelo://app?vid=0d5ec5dc-1184-4e2f-b2c9-ab60a3457c0f"},"vehicle_type_id":"4","last_reported":1747490901,"current_range_meters":0,"station_id":"ce4bhmp2rcd13ifvqgog","pricing_plan_id":"cebpf4jnsgd1na2vs0mg"},{"bike_id":"a1c9066c-592b-4af5-9d41-868c49186776","system_id":"levelo_inurba_marseille","lat":43.27814,"lon":5.40698,"is_reserved":false,"is_disabled":true,"rental_uris":{"android":"levelo://app?vid=a1c9066c-592b-4af5-9d41-868c49186776","ios":"levelo://app?vid=a1c9066c-592b-4af5-9d41-868c49186776"},"vehicle_type_id":"4","last_reported":1747490901,"current_range_meters":0,"station_id":"ce4bhnh2rcd13ifvqgtg","pricing_plan_id":"cebpf4jnsgd1na2vs0mg"},{"bike_id":"1c2c1f79-5518-408a-85aa-5b97582c295d","system_id":"levelo_inurba_marseille","lat":43.24086,"lon":5.37775,"is_reserved":false,"is_disabled":true,"rental_uris":{"android":"levelo://app?vid=1c2c1f79-5518-408a-85aa-5b97582c295d","ios":"levelo://app?vid=1c2c1f79-5518-408a-85aa-5b97582c295d"},"vehicle_type_id":"4","last_reported":1747490901,"current_range_meters":0,"station_id":"ce4bhnp2rcd13ifvqgvg","pricing_plan_id":"cebpf4jnsgd1na2vs0mg"},{"bike_id":"2157e5f1-d7c6-4bc3-9f22-02a74b6daaaf","system_id":"levelo_inurba_marseille","lat":43.27957,"lon":5.41007,"is_reserved":false,"is_disabled":true,"rental_uris":{"android":"levelo://app?vid=2157e5f1-d7c6-4bc3-9f22-02a74b6daaaf","ios":"levelo://app?vid=2157e5f1-d7c6-4bc3-9f22-02a74b6daaaf"},"vehicle_type_id":"4","last_reported":1747490901,"current_range_meters":0,"station_id":"ce4bhnp2rcd13ifvqh0g","pricing_plan_id":"cebpf4jnsgd1na2vs0mg"},{"bike_id":"f3643df7-ea3d-41eb-8e92-b31dc64a90e6","system_id":"levelo_inurba_marseille","lat":43.27948,"lon":5.41062,"is_reserved":false,"is_disabled":true,"rental_uris":{"android":"levelo://app?vid=f3643df7-ea3d-41eb-8e92-b31dc64a90e6","ios":"levelo://app?vid=f3643df7-ea3d-41eb-8e92-b31dc64a90e6"},"vehicle_type_id":"4","last_reported":1747490901,"current_range_meters":0,"station_id":"ce4bhnp2rcd13ifvqh0g","pricing_plan_id":"cebpf4jnsgd1na2vs0mg"},{"bike_id":"41c6b5f9-51fa-48d6-a56c-bf62974abb6b","system_id":"levelo_inurba_marseille","lat":43.231942,"lon":5.355748,"is_reserved":false,"is_disabled":true,"rental_uris":{"android":"levelo://app?vid=41c6b5f9-51fa-48d6-a56c-bf62974abb6b","ios":"levelo://app?vid=41c6b5f9-51fa-48d6-a56c-bf62974abb6b"},"vehicle_type_id":"4","last_reported":1747490901,"current_range_meters":0,"station_id":"ce4bhu92rcd13ifvqi70","pricing_plan_id":"cebpf4jnsgd1na2vs0mg"},{"bike_id":"5b33535d-1cda-476c-8cd5-04380b418b48","system_id":"levelo_inurba_marseille","lat":43.22928,"lon":5.3538,"is_reserved":false,"is_disabled":true,"rental_uris":{"android":"levelo://app?vid=5b33535d-1cda-476c-8cd5-04380b418b48","ios":"levelo://app?vid=5b33535d-1cda-476c-8cd5-04380b418b48"},"vehicle_type_id":"4","last_reported":1747490901,"current_range_meters":0,"station_id":"cpo3532slgdg3j2ikp40","pricing_plan_id":"cebpf4jnsgd1na2vs0mg"},{"bike_id":"85162543-93bd-4df0-8608-ce6a577dc4ca","system_id":"levelo_inurba_marseille","lat":43.24171,"lon":5.36399,"is_reserved":false,"is_disabled":true,"rental_uris":{"android":"levelo://app?vid=85162543-93bd-4df0-8608-ce6a577dc4ca","ios":"levelo://app?vid=85162543-93bd-4df0-8608-ce6a577dc4ca"},"vehicle_type_id":"4","last_reported":1747490901,"current_range_meters":0,"station_id":"cpo36qri1sfpv3e86is0","pricing_plan_id":"cebpf4jnsgd1na2vs0mg"},{"bike_id":"761f97ef-3d44-49e1-a980-dbcf9a00e013","system_id":"levelo_inurba_marseille","lat":43.22488,"lon":5.34782,"is_reserved":false,"is_disabled":true,"rental_uris":{"android":"levelo://app?vid=761f97ef-3d44-49e1-a980-dbcf9a00e013","ios":"levelo://app?vid=761f97ef-3d44-49e1-a980-dbcf9a00e013"},"vehicle_type_id":"4","last_reported":1747490901,"current_range_meters":0,"station_id":"st_cvj5dfep6f1abm77gieg","pricing_plan_id":"cebpf4jnsgd1na2vs0mg"},{"bike_id":"ada673ac-e710-4c36-a2e6-36fb5796b078","system_id":"levelo_inurba_marseille","lat":43.21193,"lon":5.3509,"is_reserved":false,"is_disabled":true,"rental_uris":{"android":"levelo://app?vid=ada673ac-e710-4c36-a2e6-36fb5796b078","ios":"levelo://app?vid=ada673ac-e710-4c36-a2e6-36fb5796b078"},"vehicle_type_id":"4","last_reported":1747490901,"current_range_meters":0,"station_id":"st_cvj6sg6p6f1abm77japg","pricing_plan_id":"cebpf4jnsgd1na2vs0mg"},{"bike_id":"eefc8350-f642-420e-abe1-08d8f799bef6","system_id":"levelo_inurba_marseille","lat":43.21211,"lon":5.35057,"is_reserved":false,"is_disabled":true,"rental_uris":{"android":"levelo://app?vid=eefc8350-f642-420e-abe1-08d8f799bef6","ios":"levelo://app?vid=eefc8350-f642-420e-abe1-08d8f799bef6"},"vehicle_type_id":"4","last_reported":1747490901,"current_range_meters":0,"station_id":"st_cvj6sg6p6f1abm77japg","pricing_plan_id":"cebpf4jnsgd1na2vs0mg"},{"bike_id":"fbd7fb1d-0d01-432a-96f8-82633a2e0d99","system_id":"levelo_inurba_marseille","lat":43.211934,"lon":5.35071,"is_reserved":false,"is_disabled":true,"rental_uris":{"android":"levelo://app?vid=fbd7fb1d-0d01-432a-96f8-82633a2e0d99","ios":"levelo://app?vid=fbd7fb1d-0d01-432a-96f8-82633a2e0d99"},"vehicle_type_id":"4","last_reported":1747490901,"current_range_meters":0,"station_id":"st_cvj6sg6p6f1abm77japg","pricing_plan_id":"cebpf4jnsgd1na2vs0mg"},{"bike_id":"a5febfaa-deeb-411d-b3d7-d305cc368ce2","system_id":"levelo_inurba_marseille","lat":43.30581,"lon":5.38412,"is_reserved":false,"is_disabled":true,"rental_uris":{"android":"levelo://app?vid=a5febfaa-deeb-411d-b3d7-d305cc368ce2","ios":"levelo://app?vid=a5febfaa-deeb-411d-b3d7-d305cc368ce2"},"vehicle_type_id":"4","last_reported":1747490901,"current_range_meters":400,"station_id":"ce4bgg92rcd13ifvqb30","pricing_plan_id":"cebpf4jnsgd1na2vs0mg"},{"bike_id":"5a564118-e3b2-4ab7-b853-56c20fae506e","system_id":"levelo_inurba_marseille","lat":43.29695,"lon":5.37703,"is_reserved":false,"is_disabled":true,"rental_uris":{"android":"levelo://app?vid=5a564118-e3b2-4ab7-b853-56c20fae506e","ios":"levelo://app?vid=5a564118-e3b2-4ab7-b853-56c20fae506e"},"vehicle_type_id":"4","last_reported":1747490901,"current_range_meters":400,"station_id":"ce4bgkh2rcd13ifvqbl0","pricing_plan_id":"cebpf4jnsgd1na2vs0mg"},{"bike_id":"263d7344-4410-4741-a0d6-6e4dacb6325e","system_id":"levelo_inurba_marseille","lat":43.30893,"lon":5.371886,"is_reserved":false,"is_disabled":true,"rental_uris":{"android":"levelo://app?vid=263d7344-4410-4741-a0d6-6e4dacb6325e","ios":"levelo://app?vid=263d7344-4410-4741-a0d6-6e4dacb6325e"},"vehicle_type_id":"4","last_reported":1747490901,"current_range_meters":400,"station_id":"ce4bguh2rcd13ifvqckg","pricing_plan_id":"cebpf4jnsgd1na2vs0mg"},{"bike_id":"53f5d917-773d-4d7c-af7a-f38b189c2b9f","system_id":"levelo_inurba_marseille","lat":43.30425,"lon":5.39744,"is_reserved":false,"is_disabled":true,"rental_uris":{"android":"levelo://app?vid=53f5d917-773d-4d7c-af7a-f38b189c2b9f","ios":"levelo://app?vid=53f5d917-773d-4d7c-af7a-f38b189c2b9f"},"vehicle_type_id":"4","last_reported":1747490901,"current_range_meters":400,"station_id":"ce4bh092rcd13ifvqd20","pricing_plan_id":"cebpf4jnsgd1na2vs0mg"},{"bike_id":"4ab9c7ef-4f53-445e-92f7-2eee02a3a0a3","system_id":"levelo_inurba_marseille","lat":43.26563,"lon":5.39025,"is_reserved":false,"is_disabled":true,"rental_uris":{"android":"levelo://app?vid=4ab9c7ef-4f53-445e-92f7-2eee02a3a0a3","ios":"levelo://app?vid=4ab9c7ef-4f53-445e-92f7-2eee02a3a0a3"},"vehicle_type_id":"4","last_reported":1747490901,"current_range_meters":400,"station_id":"ce4bhe12rcd13ifvqf30","pricing_plan_id":"cebpf4jnsgd1na2vs0mg"},{"bike_id":"21f31caa-0079-4826-b4f4-55c86959e6d1","system_id":"levelo_inurba_marseille","lat":43.32103,"lon":5.36804,"is_reserved":false,"is_disabled":true,"rental_uris":{"android":"levelo://app?vid=21f31caa-0079-4826-b4f4-55c86959e6d1","ios":"levelo://app?vid=21f31caa-0079-4826-b4f4-55c86959e6d1"},"vehicle_type_id":"4","last_reported":1747490901,"current_range_meters":400,"station_id":"ce4bhrh2rcd13ifvqhug","pricing_plan_id":"cebpf4jnsgd1na2vs0mg"},{"bike_id":"59e33bab-443b-4b82-946a-94b602858b07","system_id":"levelo_inurba_marseille","lat":43.2818,"lon":5.38468,"is_reserved":false,"is_disabled":true,"rental_uris":{"android":"levelo://app?vid=59e33bab-443b-4b82-946a-94b602858b07","ios":"levelo://app?vid=59e33bab-443b-4b82-946a-94b602858b07"},"vehicle_type_id":"4","last_reported":1747490901,"current_range_meters":800,"station_id":"","pricing_plan_id":"cebpf4jnsgd1na2vs0mg"},{"bike_id":"f007bab9-14b0-46ae-84c4-bd9bb99d58e7","system_id":"levelo_inurba_marseille","lat":43.29615,"lon":5.37734,"is_reserved":false,"is_disabled":true,"rental_uris":{"android":"levelo://app?vid=f007bab9-14b0-46ae-84c4-bd9bb99d58e7","ios":"levelo://app?vid=f007bab9-14b0-46ae-84c4-bd9bb99d58e7"},"vehicle_type_id":"4","last_reported":1747490901,"current_range_meters":800,"station_id":"ce4bgi92rcd13ifvqb90","pricing_plan_id":"cebpf4jnsgd1na2vs0mg"},{"bike_id":"39e9d9e8-bcf2-4d50-9566-d1664ba9441d","system_id":"levelo_inurba_marseille","lat":43.28229,"lon":5.39139,"is_reserved":false,"is_disabled":true,"rental_uris":{"android":"levelo://app?vid=39e9d9e8-bcf2-4d50-9566-d1664ba9441d","ios":"levelo://app?vid=39e9d9e8-bcf2-4d50-9566-d1664ba9441d"},"vehicle_type_id":"4","last_reported":1747490901,"current_range_meters":1200,"station_id":"","pricing_plan_id":"cebpf4jnsgd1na2vs0mg"},{"bike_id":"443864f2-d2ad-4902-b77b-0382f119554b","system_id":"levelo_inurba_marseille","lat":43.30459,"lon":5.37911,"is_reserved":false,"is_disabled":true,"rental_uris":{"android":"levelo://app?vid=443864f2-d2ad-4902-b77b-0382f119554b","ios":"levelo://app?vid=443864f2-d2ad-4902-b77b-0382f119554b"},"vehicle_type_id":"4","last_reported":1747490901,"current_range_meters":1200,"station_id":"ce4bgup2rcd13ifvqcn0","pricing_plan_id":"cebpf4jnsgd1na2vs0mg"},{"bike_id":"bc49382f-7850-4542-b7cb-11fa06ae8ede","system_id":"levelo_inurba_marseille","lat":43.28662,"lon":5.36347,"is_reserved":false,"is_disabled":true,"rental_uris":{"android":"levelo://app?vid=bc49382f-7850-4542-b7cb-11fa06ae8ede","ios":"levelo://app?vid=bc49382f-7850-4542-b7cb-11fa06ae8ede"},"vehicle_type_id":"4","last_reported":1747490901,"current_range_meters":1200,"station_id":"ce4bhah2rcd13ifvqej0","pricing_plan_id":"cebpf4jnsgd1na2vs0mg"},{"bike_id":"fab2441a-5c44-4976-9311-fe1f9b7a0af1","system_id":"levelo_inurba_marseille","lat":43.28436,"lon":5.34995,"is_reserved":false,"is_disabled":true,"rental_uris":{"android":"levelo://app?vid=fab2441a-5c44-4976-9311-fe1f9b7a0af1","ios":"levelo://app?vid=fab2441a-5c44-4976-9311-fe1f9b7a0af1"},"vehicle_type_id":"4","last_reported":1747490901,"current_range_meters":1200,"station_id":"ce4bhbh2rcd13ifvqepg","pricing_plan_id":"cebpf4jnsgd1na2vs0mg"},{"bike_id":"0959847c-aae1-45cf-bcb3-1400d25674b1","system_id":"levelo_inurba_marseille","lat":43.28616,"lon":5.35112,"is_reserved":false,"is_disabled":true,"rental_uris":{"android":"levelo://app?vid=0959847c-aae1-45cf-bcb3-1400d25674b1","ios":"levelo://app?vid=0959847c-aae1-45cf-bcb3-1400d25674b1"},"vehicle_type_id":"4","last_reported":1747490901,"current_range_meters":1200,"station_id":"ce4bhch2rcd13ifvqeug","pricing_plan_id":"cebpf4jnsgd1na2vs0mg"},{"bike_id":"a872d121-5556-42ba-8ebf-07b98e1c6caf","system_id":"levelo_inurba_marseille","lat":43.25508,"lon":5.37646,"is_reserved":false,"is_disabled":true,"rental_uris":{"android":"levelo://app?vid=a872d121-5556-42ba-8ebf-07b98e1c6caf","ios":"levelo://app?vid=a872d121-5556-42ba-8ebf-07b98e1c6caf"},"vehicle_type_id":"4","last_reported":1747490901,"current_range_meters":1200,"station_id":"ce4bhh12rcd13ifvqff0","pricing_plan_id":"cebpf4jnsgd1na2vs0mg"},{"bike_id":"cb94a883-018f-45a6-b1eb-c97cc865e23c","system_id":"levelo_inurba_marseille","lat":43.24386,"lon":5.3707,"is_reserved":false,"is_disabled":true,"rental_uris":{"android":"levelo://app?vid=cb94a883-018f-45a6-b1eb-c97cc865e23c","ios":"levelo://app?vid=cb94a883-018f-45a6-b1eb-c97cc865e23c"},"vehicle_type_id":"4","last_reported":1747490901,"current_range_meters":1200,"station_id":"ce4bhhh2rcd13ifvqfk0","pricing_plan_id":"cebpf4jnsgd1na2vs0mg"},{"bike_id":"286afc86-edeb-4df2-925a-f34e433925f3","system_id":"levelo_inurba_marseille","lat":43.22941,"lon":5.35376,"is_reserved":false,"is_disabled":true,"rental_uris":{"android":"levelo://app?vid=286afc86-edeb-4df2-925a-f34e433925f3","ios":"levelo://app?vid=286afc86-edeb-4df2-925a-f34e433925f3"},"vehicle_type_id":"4","last_reported":1747490901,"current_range_meters":1200,"station_id":"cpo3532slgdg3j2ikp40","pricing_plan_id":"cebpf4jnsgd1na2vs0mg"},{"bike_id":"07693a3a-898c-4a55-a59b-ec5cd20539ef","system_id":"levelo_inurba_marseille","lat":43.30411,"lon":5.39771,"is_reserved":false,"is_disabled":true,"rental_uris":{"android":"levelo://app?vid=07693a3a-898c-4a55-a59b-ec5cd20539ef","ios":"levelo://app?vid=07693a3a-898c-4a55-a59b-ec5cd20539ef"},"vehicle_type_id":"4","last_reported":1747490901,"current_range_meters":1600,"station_id":"ce4bh092rcd13ifvqd20","pricing_plan_id":"cebpf4jnsgd1na2vs0mg"},{"bike_id":"bf2d450c-5320-4ac3-8119-721fcd464c83","system_id":"levelo_inurba_marseille","lat":43.2945,"lon":5.39728,"is_reserved":false,"is_disabled":true,"rental_uris":{"android":"levelo://app?vid=bf2d450c-5320-4ac3-8119-721fcd464c83","ios":"levelo://app?vid=bf2d450c-5320-4ac3-8119-721fcd464c83"},"vehicle_type_id":"4","last_reported":1747490901,"current_range_meters":1600,"station_id":"ce4bh3h2rcd13ifvqdo0","pricing_plan_id":"cebpf4jnsgd1na2vs0mg"},{"bike_id":"9993a324-6244-4d12-94f5-86d81dc8bac4","system_id":"levelo_inurba_marseille","lat":43.295685,"lon":5.375051,"is_reserved":false,"is_disabled":true,"rental_uris":{"android":"levelo://app?vid=9993a324-6244-4d12-94f5-86d81dc8bac4","ios":"levelo://app?vid=9993a324-6244-4d12-94f5-86d81dc8bac4"},"vehicle_type_id":"4","last_reported":1747490901,"current_range_meters":1600,"station_id":"ce4bhbh2rcd13ifvqeqg","pricing_plan_id":"cebpf4jnsgd1na2vs0mg"},{"bike_id":"385cd79e-61c2-4751-b514-1303a64441e3","system_id":"levelo_inurba_marseille","lat":43.26572,"lon":5.39005,"is_reserved":false,"is_disabled":true,"rental_uris":{"android":"levelo://app?vid=385cd79e-61c2-4751-b514-1303a64441e3","ios":"levelo://app?vid=385cd79e-61c2-4751-b514-1303a64441e3"},"vehicle_type_id":"4","last_reported":1747490901,"current_range_meters":1600,"station_id":"ce4bhe12rcd13ifvqf30","pricing_plan_id":"cebpf4jnsgd1na2vs0mg"},{"bike_id":"05b0e787-7925-40db-96b2-8e1505effa95","system_id":"levelo_inurba_marseille","lat":43.24806,"lon":5.37454,"is_reserved":false,"is_disabled":true,"rental_uris":{"android":"levelo://app?vid=05b0e787-7925-40db-96b2-8e1505effa95","ios":"levelo://app?vid=05b0e787-7925-40db-96b2-8e1505effa95"},"vehicle_type_id":"4","last_reported":1747490901,"current_range_meters":1600,"station_id":"ce4bhgh2rcd13ifvqfb0","pricing_plan_id":"cebpf4jnsgd1na2vs0mg"},{"bike_id":"98ad4239-6375-4350-8eaf-ecc91b7ee6ee","system_id":"levelo_inurba_marseille","lat":43.249697,"lon":5.389401,"is_reserved":false,"is_disabled":true,"rental_uris":{"android":"levelo://app?vid=98ad4239-6375-4350-8eaf-ecc91b7ee6ee","ios":"levelo://app?vid=98ad4239-6375-4350-8eaf-ecc91b7ee6ee"},"vehicle_type_id":"4","last_reported":1747490901,"current_range_meters":2000,"station_id":"","pricing_plan_id":"cebpf4jnsgd1na2vs0mg"},{"bike_id":"5beb4d57-3708-40be-9ede-443a4dff22a9","system_id":"levelo_inurba_marseille","lat":43.30804,"lon":5.38147,"is_reserved":false,"is_disabled":true,"rental_uris":{"android":"levelo://app?vid=5beb4d57-3708-40be-9ede-443a4dff22a9","ios":"levelo://app?vid=5beb4d57-3708-40be-9ede-443a4dff22a9"},"vehicle_type_id":"4","last_reported":1747490901,"current_range_meters":2000,"station_id":"ce4bgt12rcd13ifvqce0","pricing_plan_id":"cebpf4jnsgd1na2vs0mg"},{"bike_id":"fd167e54-a393-456d-a4f9-63cac2d445bb","system_id":"levelo_inurba_marseille","lat":43.30948,"lon":5.39047,"is_reserved":false,"is_disabled":false,"rental_uris":{"android":"levelo://app?vid=fd167e54-a393-456d-a4f9-63cac2d445bb","ios":"levelo://app?vid=fd167e54-a393-456d-a4f9-63cac2d445bb"},"vehicle_type_id":"4","last_reported":1747490901,"current_range_meters":2000,"station_id":"ce4bgup2rcd13ifvqco0","pricing_plan_id":"cebpf4jnsgd1na2vs0mg"},{"bike_id":"af3ee291-cf76-4dc0-abd3-1d6c95fd28d5","system_id":"levelo_inurba_marseille","lat":43.28421,"lon":5.35008,"is_reserved":false,"is_disabled":true,"rental_uris":{"android":"levelo://app?vid=af3ee291-cf76-4dc0-abd3-1d6c95fd28d5","ios":"levelo://app?vid=af3ee291-cf76-4dc0-abd3-1d6c95fd28d5"},"vehicle_type_id":"4","last_reported":1747490901,"current_range_meters":2000,"station_id":"ce4bhbh2rcd13ifvqepg","pricing_plan_id":"cebpf4jnsgd1na2vs0mg"},{"bike_id":"c9e95046-8c29-4161-991e-723074915197","system_id":"levelo_inurba_marseille","lat":43.25491,"lon":5.37635,"is_reserved":false,"is_disabled":true,"rental_uris":{"android":"levelo://app?vid=c9e95046-8c29-4161-991e-723074915197","ios":"levelo://app?vid=c9e95046-8c29-4161-991e-723074915197"},"vehicle_type_id":"4","last_reported":1747490901,"current_range_meters":2000,"station_id":"ce4bhh12rcd13ifvqff0","pricing_plan_id":"cebpf4jnsgd1na2vs0mg"},{"bike_id":"e1e6f58a-da04-4ede-80bc-2c8e46a27eef","system_id":"levelo_inurba_marseille","lat":43.24546,"lon":5.39535,"is_reserved":false,"is_disabled":true,"rental_uris":{"android":"levelo://app?vid=e1e6f58a-da04-4ede-80bc-2c8e46a27eef","ios":"levelo://app?vid=e1e6f58a-da04-4ede-80bc-2c8e46a27eef"},"vehicle_type_id":"4","last_reported":1747490901,"current_range_meters":2000,"station_id":"ce4bhlp2rcd13ifvqgjg","pricing_plan_id":"cebpf4jnsgd1na2vs0mg"},{"bike_id":"2a59e8ef-8845-49df-b43c-9a430069a7fc","system_id":"levelo_inurba_marseille","lat":43.24549,"lon":5.39526,"is_reserved":false,"is_disabled":true,"rental_uris":{"android":"levelo://app?vid=2a59e8ef-8845-49df-b43c-9a430069a7fc","ios":"levelo://app?vid=2a59e8ef-8845-49df-b43c-9a430069a7fc"},"vehicle_type_id":"4","last_reported":1747490901,"current_range_meters":2000,"station_id":"ce4bhlp2rcd13ifvqgjg","pricing_plan_id":"cebpf4jnsgd1na2vs0mg"},{"bike_id":"f03cbb86-1380-4293-8567-f7212ddf3dc6","system_id":"levelo_inurba_marseille","lat":43.23143,"lon":5.43696,"is_reserved":false,"is_disabled":true,"rental_uris":{"android":"levelo://app?vid=f03cbb86-1380-4293-8567-f7212ddf3dc6","ios":"levelo://app?vid=f03cbb86-1380-4293-8567-f7212ddf3dc6"},"vehicle_type_id":"4","last_reported":1747490901,"current_range_meters":2000,"station_id":"ce4bhmp2rcd13ifvqgog","pricing_plan_id":"cebpf4jnsgd1na2vs0mg"},{"bike_id":"a4254f33-dfdc-4beb-9ee4-21271a8a3aac","system_id":"levelo_inurba_marseille","lat":43.30405,"lon":5.41315,"is_reserved":false,"is_disabled":true,"rental_uris":{"android":"levelo://app?vid=a4254f33-dfdc-4beb-9ee4-21271a8a3aac","ios":"levelo://app?vid=a4254f33-dfdc-4beb-9ee4-21271a8a3aac"},"vehicle_type_id":"4","last_reported":1747490901,"current_range_meters":2000,"station_id":"ce4bhop2rcd13ifvqh8g","pricing_plan_id":"cebpf4jnsgd1na2vs0mg"},{"bike_id":"cc52398b-1780-43d7-9587-f5a9e73f7552","system_id":"levelo_inurba_marseille","lat":43.22932,"lon":5.35371,"is_reserved":false,"is_disabled":true,"rental_uris":{"android":"levelo://app?vid=cc52398b-1780-43d7-9587-f5a9e73f7552","ios":"levelo://app?vid=cc52398b-1780-43d7-9587-f5a9e73f7552"},"vehicle_type_id":"4","last_reported":1747490901,"current_range_meters":2000,"station_id":"cpo3532slgdg3j2ikp40","pricing_plan_id":"cebpf4jnsgd1na2vs0mg"},{"bike_id":"6ba37885-742c-4c5b-897b-a7ffadb0bff3","system_id":"levelo_inurba_marseille","lat":43.337444,"lon":5.374475,"is_reserved":false,"is_disabled":false,"rental_uris":{"android":"levelo://app?vid=6ba37885-742c-4c5b-897b-a7ffadb0bff3","ios":"levelo://app?vid=6ba37885-742c-4c5b-897b-a7ffadb0bff3"},"vehicle_type_id":"4","last_reported":1747490901,"current_range_meters":2800,"station_id":"","pricing_plan_id":"cebpf4jnsgd1na2vs0mg"},{"bike_id":"85d3444f-293f-46bd-82c4-cf1e041c1814","system_id":"levelo_inurba_marseille","lat":43.26022,"lon":5.37558,"is_reserved":false,"is_disabled":false,"rental_uris":{"android":"levelo://app?vid=85d3444f-293f-46bd-82c4-cf1e041c1814","ios":"levelo://app?vid=85d3444f-293f-46bd-82c4-cf1e041c1814"},"vehicle_type_id":"4","last_reported":1747490901,"current_range_meters":2800,"station_id":"ce4bhgh2rcd13ifvqfa0","pricing_plan_id":"cebpf4jnsgd1na2vs0mg"},{"bike_id":"bbd82c95-01a7-4785-92ed-ebfbcf1fab88","system_id":"levelo_inurba_marseille","lat":43.23197,"lon":5.35555,"is_reserved":false,"is_disabled":false,"rental_uris":{"android":"levelo://app?vid=bbd82c95-01a7-4785-92ed-ebfbcf1fab88","ios":"levelo://app?vid=bbd82c95-01a7-4785-92ed-ebfbcf1fab88"},"vehicle_type_id":"4","last_reported":1747490901,"current_range_meters":2800,"station_id":"ce4bhu92rcd13ifvqi70","pricing_plan_id":"cebpf4jnsgd1na2vs0mg"},{"bike_id":"f7007909-8dd5-4421-b51e-aed1dfeb06b1","system_id":"levelo_inurba_marseille","lat":43.30536,"lon":5.36551,"is_reserved":false,"is_disabled":false,"rental_uris":{"android":"levelo://app?vid=f7007909-8dd5-4421-b51e-aed1dfeb06b1","ios":"levelo://app?vid=f7007909-8dd5-4421-b51e-aed1dfeb06b1"},"vehicle_type_id":"4","last_reported":1747490901,"current_range_meters":3200,"station_id":"ce4bgs12rcd13ifvqcag","pricing_plan_id":"cebpf4jnsgd1na2vs0mg"},{"bike_id":"ce7d12ae-b6e4-4815-9c40-fec52c39df0c","system_id":"levelo_inurba_marseille","lat":43.28922,"lon":5.36638,"is_reserved":false,"is_disabled":false,"rental_uris":{"android":"levelo://app?vid=ce7d12ae-b6e4-4815-9c40-fec52c39df0c","ios":"levelo://app?vid=ce7d12ae-b6e4-4815-9c40-fec52c39df0c"},"vehicle_type_id":"4","last_reported":1747490901,"current_range_meters":3200,"station_id":"ce4bhap2rcd13ifvqek0","pricing_plan_id":"cebpf4jnsgd1na2vs0mg"},{"bike_id":"2e04826b-b4aa-4f76-80e7-13bb2b4d2792","system_id":"levelo_inurba_marseille","lat":43.21749,"lon":5.34592,"is_reserved":false,"is_disabled":false,"rental_uris":{"android":"levelo://app?vid=2e04826b-b4aa-4f76-80e7-13bb2b4d2792","ios":"levelo://app?vid=2e04826b-b4aa-4f76-80e7-13bb2b4d2792"},"vehicle_type_id":"4","last_reported":1747490901,"current_range_meters":3200,"station_id":"st_cvj6r9ubvosntc0bgbag","pricing_plan_id":"cebpf4jnsgd1na2vs0mg"},{"bike_id":"d38aed0a-9ea1-4c8c-bbff-aba38608fc15","system_id":"levelo_inurba_marseille","lat":43.31224,"lon":5.36855,"is_reserved":false,"is_disabled":false,"rental_uris":{"android":"levelo://app?vid=d38aed0a-9ea1-4c8c-bbff-aba38608fc15","ios":"levelo://app?vid=d38aed0a-9ea1-4c8c-bbff-aba38608fc15"},"vehicle_type_id":"4","last_reported":1747490901,"current_range_meters":3600,"station_id":"ce4bgl92rcd13ifvqbq0","pricing_plan_id":"cebpf4jnsgd1na2vs0mg"},{"bike_id":"849f3b8a-1779-4f5f-a348-efb2185e6ee1","system_id":"levelo_inurba_marseille","lat":43.2844,"lon":5.39211,"is_reserved":false,"is_disabled":false,"rental_uris":{"android":"levelo://app?vid=849f3b8a-1779-4f5f-a348-efb2185e6ee1","ios":"levelo://app?vid=849f3b8a-1779-4f5f-a348-efb2185e6ee1"},"vehicle_type_id":"4","last_reported":1747490901,"current_range_meters":3600,"station_id":"ce4bhoh2rcd13ifvqh5g","pricing_plan_id":"cebpf4jnsgd1na2vs0mg"},{"bike_id":"06e20113-a5f1-4fe5-b188-f647ff408cc7","system_id":"levelo_inurba_marseille","lat":43.27691,"lon":5.41964,"is_reserved":false,"is_disabled":false,"rental_uris":{"android":"levelo://app?vid=06e20113-a5f1-4fe5-b188-f647ff408cc7","ios":"levelo://app?vid=06e20113-a5f1-4fe5-b188-f647ff408cc7"},"vehicle_type_id":"4","last_reported":1747490901,"current_range_meters":4000,"station_id":"","pricing_plan_id":"cebpf4jnsgd1na2vs0mg"},{"bike_id":"d06a81f7-6bbe-4687-bfbe-932949dc466c","system_id":"levelo_inurba_marseille","lat":43.26111,"lon":5.387483,"is_reserved":false,"is_disabled":false,"rental_uris":{"android":"levelo://app?vid=d06a81f7-6bbe-4687-bfbe-932949dc466c","ios":"levelo://app?vid=d06a81f7-6bbe-4687-bfbe-932949dc466c"},"vehicle_type_id":"4","last_reported":1747490901,"current_range_meters":4000,"station_id":"","pricing_plan_id":"cebpf4jnsgd1na2vs0mg"},{"bike_id":"e50a6c60-ddeb-4354-931d-3f528ce16ff2","system_id":"levelo_inurba_marseille","lat":43.28432,"lon":5.34988,"is_reserved":false,"is_disabled":false,"rental_uris":{"android":"levelo://app?vid=e50a6c60-ddeb-4354-931d-3f528ce16ff2","ios":"levelo://app?vid=e50a6c60-ddeb-4354-931d-3f528ce16ff2"},"vehicle_type_id":"4","last_reported":1747490901,"current_range_meters":4000,"station_id":"ce4bhbh2rcd13ifvqepg","pricing_plan_id":"cebpf4jnsgd1na2vs0mg"},{"bike_id":"a127a582-66e6-45e5-bd8b-78b6acbb3ef4","system_id":"levelo_inurba_marseille","lat":43.24813,"lon":5.37452,"is_reserved":false,"is_disabled":false,"rental_uris":{"android":"levelo://app?vid=a127a582-66e6-45e5-bd8b-78b6acbb3ef4","ios":"levelo://app?vid=a127a582-66e6-45e5-bd8b-78b6acbb3ef4"},"vehicle_type_id":"4","last_reported":1747490901,"current_range_meters":4000,"station_id":"ce4bhgh2rcd13ifvqfb0","pricing_plan_id":"cebpf4jnsgd1na2vs0mg"},{"bike_id":"0c6b19a1-647d-4c73-b5dc-71da61949916","system_id":"levelo_inurba_marseille","lat":43.254974,"lon":5.376556,"is_reserved":false,"is_disabled":false,"rental_uris":{"android":"levelo://app?vid=0c6b19a1-647d-4c73-b5dc-71da61949916","ios":"levelo://app?vid=0c6b19a1-647d-4c73-b5dc-71da61949916"},"vehicle_type_id":"4","last_reported":1747490901,"current_range_meters":4000,"station_id":"ce4bhh12rcd13ifvqff0","pricing_plan_id":"cebpf4jnsgd1na2vs0mg"},{"bike_id":"1e1542a0-99e5-4c2a-9a1e-b99e4beace38","system_id":"levelo_inurba_marseille","lat":43.24664,"lon":5.38162,"is_reserved":false,"is_disabled":false,"rental_uris":{"android":"levelo://app?vid=1e1542a0-99e5-4c2a-9a1e-b99e4beace38","ios":"levelo://app?vid=1e1542a0-99e5-4c2a-9a1e-b99e4beace38"},"vehicle_type_id":"4","last_reported":1747490901,"current_range_meters":4000,"station_id":"ce4bhih2rcd13ifvqfr0","pricing_plan_id":"cebpf4jnsgd1na2vs0mg"},{"bike_id":"2e3ccd10-2cb6-4dbc-86d9-2288eaeba9d5","system_id":"levelo_inurba_marseille","lat":43.24542,"lon":5.39531,"is_reserved":false,"is_disabled":false,"rental_uris":{"android":"levelo://app?vid=2e3ccd10-2cb6-4dbc-86d9-2288eaeba9d5","ios":"levelo://app?vid=2e3ccd10-2cb6-4dbc-86d9-2288eaeba9d5"},"vehicle_type_id":"4","last_reported":1747490901,"current_range_meters":4000,"station_id":"ce4bhlp2rcd13ifvqgjg","pricing_plan_id":"cebpf4jnsgd1na2vs0mg"},{"bike_id":"bf543640-a1be-4bc7-a9a6-1dd51245f165","system_id":"levelo_inurba_marseille","lat":43.23196,"lon":5.35551,"is_reserved":false,"is_disabled":false,"rental_uris":{"android":"levelo://app?vid=bf543640-a1be-4bc7-a9a6-1dd51245f165","ios":"levelo://app?vid=bf543640-a1be-4bc7-a9a6-1dd51245f165"},"vehicle_type_id":"4","last_reported":1747490901,"current_range_meters":4000,"station_id":"ce4bhu92rcd13ifvqi70","pricing_plan_id":"cebpf4jnsgd1na2vs0mg"},{"bike_id":"58b550ed-66c8-4e1a-9684-95e2d75a0ae2","system_id":"levelo_inurba_marseille","lat":43.26208,"lon":5.37444,"is_reserved":false,"is_disabled":false,"rental_uris":{"android":"levelo://app?vid=58b550ed-66c8-4e1a-9684-95e2d75a0ae2","ios":"levelo://app?vid=58b550ed-66c8-4e1a-9684-95e2d75a0ae2"},"vehicle_type_id":"4","last_reported":1747490901,"current_range_meters":4400,"station_id":"","pricing_plan_id":"cebpf4jnsgd1na2vs0mg"},{"bike_id":"61159754-233e-4c9f-9a88-ae2a620745c1","system_id":"levelo_inurba_marseille","lat":43.2925,"lon":5.40142,"is_reserved":false,"is_disabled":false,"rental_uris":{"android":"levelo://app?vid=61159754-233e-4c9f-9a88-ae2a620745c1","ios":"levelo://app?vid=61159754-233e-4c9f-9a88-ae2a620745c1"},"vehicle_type_id":"4","last_reported":1747490901,"current_range_meters":4400,"station_id":"ce4bh312rcd13ifvqdk0","pricing_plan_id":"cebpf4jnsgd1na2vs0mg"},{"bike_id":"69068cf6-edba-4f9e-93c9-c06aba4a9cab","system_id":"levelo_inurba_marseille","lat":43.2842,"lon":5.34992,"is_reserved":false,"is_disabled":false,"rental_uris":{"android":"levelo://app?vid=69068cf6-edba-4f9e-93c9-c06aba4a9cab","ios":"levelo://app?vid=69068cf6-edba-4f9e-93c9-c06aba4a9cab"},"vehicle_type_id":"4","last_reported":1747490901,"current_range_meters":4400,"station_id":"ce4bhbh2rcd13ifvqepg","pricing_plan_id":"cebpf4jnsgd1na2vs0mg"},{"bike_id":"9978a605-f18f-4dd7-835a-77a8a7f4f3dc","system_id":"levelo_inurba_marseille","lat":43.28621,"lon":5.35097,"is_reserved":false,"is_disabled":false,"rental_uris":{"android":"levelo://app?vid=9978a605-f18f-4dd7-835a-77a8a7f4f3dc","ios":"levelo://app?vid=9978a605-f18f-4dd7-835a-77a8a7f4f3dc"},"vehicle_type_id":"4","last_reported":1747490901,"current_range_meters":4400,"station_id":"ce4bhch2rcd13ifvqeug","pricing_plan_id":"cebpf4jnsgd1na2vs0mg"},{"bike_id":"bc63f2c9-c890-445f-9d10-29cfa536525f","system_id":"levelo_inurba_marseille","lat":43.26028,"lon":5.37558,"is_reserved":false,"is_disabled":false,"rental_uris":{"android":"levelo://app?vid=bc63f2c9-c890-445f-9d10-29cfa536525f","ios":"levelo://app?vid=bc63f2c9-c890-445f-9d10-29cfa536525f"},"vehicle_type_id":"4","last_reported":1747490901,"current_range_meters":4400,"station_id":"ce4bhgh2rcd13ifvqfa0","pricing_plan_id":"cebpf4jnsgd1na2vs0mg"},{"bike_id":"ac26d7de-7038-4467-a0f0-2b882483ecc7","system_id":"levelo_inurba_marseille","lat":43.25498,"lon":5.3766,"is_reserved":false,"is_disabled":false,"rental_uris":{"android":"levelo://app?vid=ac26d7de-7038-4467-a0f0-2b882483ecc7","ios":"levelo://app?vid=ac26d7de-7038-4467-a0f0-2b882483ecc7"},"vehicle_type_id":"4","last_reported":1747490901,"current_range_meters":4400,"station_id":"ce4bhh12rcd13ifvqff0","pricing_plan_id":"cebpf4jnsgd1na2vs0mg"},{"bike_id":"f60743d0-8cbf-4386-87d9-1cc250dcb7e9","system_id":"levelo_inurba_marseille","lat":43.31999,"lon":5.38165,"is_reserved":false,"is_disabled":false,"rental_uris":{"android":"levelo://app?vid=f60743d0-8cbf-4386-87d9-1cc250dcb7e9","ios":"levelo://app?vid=f60743d0-8cbf-4386-87d9-1cc250dcb7e9"},"vehicle_type_id":"4","last_reported":1747490901,"current_range_meters":4400,"station_id":"ce4bhr12rcd13ifvqhpg","pricing_plan_id":"cebpf4jnsgd1na2vs0mg"},{"bike_id":"53ae4f8b-68fd-44fb-b4a8-162027bff52f","system_id":"levelo_inurba_marseille","lat":43.21179,"lon":5.35079,"is_reserved":false,"is_disabled":false,"rental_uris":{"android":"levelo://app?vid=53ae4f8b-68fd-44fb-b4a8-162027bff52f","ios":"levelo://app?vid=53ae4f8b-68fd-44fb-b4a8-162027bff52f"},"vehicle_type_id":"4","last_reported":1747490901,"current_range_meters":4400,"station_id":"st_cvj6sg6p6f1abm77japg","pricing_plan_id":"cebpf4jnsgd1na2vs0mg"},{"bike_id":"851dfc32-e798-47a2-bd2e-2fef9ffeb756","system_id":"levelo_inurba_marseille","lat":43.27613,"lon":5.36132,"is_reserved":false,"is_disabled":false,"rental_uris":{"android":"levelo://app?vid=851dfc32-e798-47a2-bd2e-2fef9ffeb756","ios":"levelo://app?vid=851dfc32-e798-47a2-bd2e-2fef9ffeb756"},"vehicle_type_id":"4","last_reported":1747490901,"current_range_meters":4800,"station_id":"ce4bgj92rcd13ifvqbe0","pricing_plan_id":"cebpf4jnsgd1na2vs0mg"},{"bike_id":"7b894f9e-7156-466b-9659-381450810893","system_id":"levelo_inurba_marseille","lat":43.31321,"lon":5.397,"is_reserved":false,"is_disabled":false,"rental_uris":{"android":"levelo://app?vid=7b894f9e-7156-466b-9659-381450810893","ios":"levelo://app?vid=7b894f9e-7156-466b-9659-381450810893"},"vehicle_type_id":"4","last_reported":1747490901,"current_range_meters":4800,"station_id":"ce4bgvp2rcd13ifvqcu0","pricing_plan_id":"cebpf4jnsgd1na2vs0mg"},{"bike_id":"e815561a-8b72-4353-bf52-3031d0db76f0","system_id":"levelo_inurba_marseille","lat":43.30327,"lon":5.40434,"is_reserved":false,"is_disabled":false,"rental_uris":{"android":"levelo://app?vid=e815561a-8b72-4353-bf52-3031d0db76f0","ios":"levelo://app?vid=e815561a-8b72-4353-bf52-3031d0db76f0"},"vehicle_type_id":"4","last_reported":1747490901,"current_range_meters":4800,"station_id":"ce4bh012rcd13ifvqd10","pricing_plan_id":"cebpf4jnsgd1na2vs0mg"},{"bike_id":"6ebbe2d8-b481-4369-92f6-0200c716cba5","system_id":"levelo_inurba_marseille","lat":43.24161,"lon":5.36395,"is_reserved":false,"is_disabled":false,"rental_uris":{"android":"levelo://app?vid=6ebbe2d8-b481-4369-92f6-0200c716cba5","ios":"levelo://app?vid=6ebbe2d8-b481-4369-92f6-0200c716cba5"},"vehicle_type_id":"4","last_reported":1747490901,"current_range_meters":4800,"station_id":"cpo36qri1sfpv3e86is0","pricing_plan_id":"cebpf4jnsgd1na2vs0mg"},{"bike_id":"4ebbe9a8-0612-41de-941d-6467917bd716","system_id":"levelo_inurba_marseille","lat":43.29257,"lon":5.38445,"is_reserved":false,"is_disabled":false,"rental_uris":{"android":"levelo://app?vid=4ebbe9a8-0612-41de-941d-6467917bd716","ios":"levelo://app?vid=4ebbe9a8-0612-41de-941d-6467917bd716"},"vehicle_type_id":"4","last_reported":1747490901,"current_range_meters":5600,"station_id":"ce4bh692rcd13ifvqea0","pricing_plan_id":"cebpf4jnsgd1na2vs0mg"},{"bike_id":"ca2a38b2-81ea-4dc7-a744-1668df49b794","system_id":"levelo_inurba_marseille","lat":43.28423,"lon":5.34986,"is_reserved":false,"is_disabled":false,"rental_uris":{"android":"levelo://app?vid=ca2a38b2-81ea-4dc7-a744-1668df49b794","ios":"levelo://app?vid=ca2a38b2-81ea-4dc7-a744-1668df49b794"},"vehicle_type_id":"4","last_reported":1747490901,"current_range_meters":5600,"station_id":"ce4bhbh2rcd13ifvqepg","pricing_plan_id":"cebpf4jnsgd1na2vs0mg"},{"bike_id":"1e51600d-5b0b-4a10-970b-8d68d7f27dd7","system_id":"levelo_inurba_marseille","lat":43.23049,"lon":5.35499,"is_reserved":false,"is_disabled":false,"rental_uris":{"android":"levelo://app?vid=1e51600d-5b0b-4a10-970b-8d68d7f27dd7","ios":"levelo://app?vid=1e51600d-5b0b-4a10-970b-8d68d7f27dd7"},"vehicle_type_id":"4","last_reported":1747490901,"current_range_meters":5600,"station_id":"cpo3342slgdg3j2ifvpg","pricing_plan_id":"cebpf4jnsgd1na2vs0mg"},{"bike_id":"a498752c-725f-4ca5-994c-02f1fa27696e","system_id":"levelo_inurba_marseille","lat":43.29847,"lon":5.36283,"is_reserved":false,"is_disabled":false,"rental_uris":{"android":"levelo://app?vid=a498752c-725f-4ca5-994c-02f1fa27696e","ios":"levelo://app?vid=a498752c-725f-4ca5-994c-02f1fa27696e"},"vehicle_type_id":"4","last_reported":1747490901,"current_range_meters":6000,"station_id":"ce4bgpp2rcd13ifvqc3g","pricing_plan_id":"cebpf4jnsgd1na2vs0mg"},{"bike_id":"4c6f8c06-0228-4593-ae46-1d29c413b29d","system_id":"levelo_inurba_marseille","lat":43.28047,"lon":5.36941,"is_reserved":false,"is_disabled":false,"rental_uris":{"android":"levelo://app?vid=4c6f8c06-0228-4593-ae46-1d29c413b29d","ios":"levelo://app?vid=4c6f8c06-0228-4593-ae46-1d29c413b29d"},"vehicle_type_id":"4","last_reported":1747490901,"current_range_meters":6000,"station_id":"ce4bha12rcd13ifvqef0","pricing_plan_id":"cebpf4jnsgd1na2vs0mg"},{"bike_id":"3ed8d51b-989e-4c22-a0bb-dbb971c76a08","system_id":"levelo_inurba_marseille","lat":43.27374,"lon":5.36257,"is_reserved":false,"is_disabled":false,"rental_uris":{"android":"levelo://app?vid=3ed8d51b-989e-4c22-a0bb-dbb971c76a08","ios":"levelo://app?vid=3ed8d51b-989e-4c22-a0bb-dbb971c76a08"},"vehicle_type_id":"4","last_reported":1747490901,"current_range_meters":6000,"station_id":"ce4bhbh2rcd13ifvqeo0","pricing_plan_id":"cebpf4jnsgd1na2vs0mg"},{"bike_id":"38f4c798-7f6d-4d49-9766-3f3fd11503e6","system_id":"levelo_inurba_marseille","lat":43.2862,"lon":5.35106,"is_reserved":false,"is_disabled":false,"rental_uris":{"android":"levelo://app?vid=38f4c798-7f6d-4d49-9766-3f3fd11503e6","ios":"levelo://app?vid=38f4c798-7f6d-4d49-9766-3f3fd11503e6"},"vehicle_type_id":"4","last_reported":1747490901,"current_range_meters":6000,"station_id":"ce4bhch2rcd13ifvqeug","pricing_plan_id":"cebpf4jnsgd1na2vs0mg"},{"bike_id":"754484a1-7ccb-4961-b445-ac486eea35c8","system_id":"levelo_inurba_marseille","lat":43.23191,"lon":5.35557,"is_reserved":false,"is_disabled":false,"rental_uris":{"android":"levelo://app?vid=754484a1-7ccb-4961-b445-ac486eea35c8","ios":"levelo://app?vid=754484a1-7ccb-4961-b445-ac486eea35c8"},"vehicle_type_id":"4","last_reported":1747490901,"current_range_meters":6000,"station_id":"ce4bhu92rcd13ifvqi70","pricing_plan_id":"cebpf4jnsgd1na2vs0mg"},{"bike_id":"6776e170-2f1a-4312-b49e-3fbfcc2f0538","system_id":"levelo_inurba_marseille","lat":43.21745,"lon":5.34604,"is_reserved":false,"is_disabled":false,"rental_uris":{"android":"levelo://app?vid=6776e170-2f1a-4312-b49e-3fbfcc2f0538","ios":"levelo://app?vid=6776e170-2f1a-4312-b49e-3fbfcc2f0538"},"vehicle_type_id":"4","last_reported":1747490901,"current_range_meters":6000,"station_id":"st_cvj6r9ubvosntc0bgbag","pricing_plan_id":"cebpf4jnsgd1na2vs0mg"},{"bike_id":"76b5604e-45c5-4fc6-ad03-667eaf3a0cbb","system_id":"levelo_inurba_marseille","lat":43.27604,"lon":5.36155,"is_reserved":false,"is_disabled":false,"rental_uris":{"android":"levelo://app?vid=76b5604e-45c5-4fc6-ad03-667eaf3a0cbb","ios":"levelo://app?vid=76b5604e-45c5-4fc6-ad03-667eaf3a0cbb"},"vehicle_type_id":"4","last_reported":1747490901,"current_range_meters":6400,"station_id":"ce4bgj92rcd13ifvqbe0","pricing_plan_id":"cebpf4jnsgd1na2vs0mg"},{"bike_id":"382f115d-52ea-4f1e-bec2-57b00b7124c0","system_id":"levelo_inurba_marseille","lat":43.28416,"lon":5.34985,"is_reserved":false,"is_disabled":false,"rental_uris":{"android":"levelo://app?vid=382f115d-52ea-4f1e-bec2-57b00b7124c0","ios":"levelo://app?vid=382f115d-52ea-4f1e-bec2-57b00b7124c0"},"vehicle_type_id":"4","last_reported":1747490901,"current_range_meters":6400,"station_id":"ce4bhbh2rcd13ifvqepg","pricing_plan_id":"cebpf4jnsgd1na2vs0mg"},{"bike_id":"e8a0d79f-996b-404d-919e-d2da0671f29b","system_id":"levelo_inurba_marseille","lat":43.26803,"lon":5.39422,"is_reserved":false,"is_disabled":false,"rental_uris":{"android":"levelo://app?vid=e8a0d79f-996b-404d-919e-d2da0671f29b","ios":"levelo://app?vid=e8a0d79f-996b-404d-919e-d2da0671f29b"},"vehicle_type_id":"4","last_reported":1747490901,"current_range_meters":6400,"station_id":"ce4bhh12rcd13ifvqfg0","pricing_plan_id":"cebpf4jnsgd1na2vs0mg"},{"bike_id":"cd24f0e2-ef3f-434f-bee0-e22ee2f157e8","system_id":"levelo_inurba_marseille","lat":43.27214,"lon":5.39173,"is_reserved":false,"is_disabled":false,"rental_uris":{"android":"levelo://app?vid=cd24f0e2-ef3f-434f-bee0-e22ee2f157e8","ios":"levelo://app?vid=cd24f0e2-ef3f-434f-bee0-e22ee2f157e8"},"vehicle_type_id":"4","last_reported":1747490901,"current_range_meters":6400,"station_id":"ce4bhhp2rcd13ifvqfm0","pricing_plan_id":"cebpf4jnsgd1na2vs0mg"},{"bike_id":"6f0eb859-c354-4ec9-9ed0-fc59fdc99960","system_id":"levelo_inurba_marseille","lat":43.3172,"lon":5.42397,"is_reserved":false,"is_disabled":false,"rental_uris":{"android":"levelo://app?vid=6f0eb859-c354-4ec9-9ed0-fc59fdc99960","ios":"levelo://app?vid=6f0eb859-c354-4ec9-9ed0-fc59fdc99960"},"vehicle_type_id":"4","last_reported":1747490901,"current_range_meters":6400,"station_id":"ce4bhp92rcd13ifvqhbg","pricing_plan_id":"cebpf4jnsgd1na2vs0mg"},{"bike_id":"7438a3dc-7e35-453e-ba33-c11c46a43ab5","system_id":"levelo_inurba_marseille","lat":43.33732,"lon":5.39224,"is_reserved":false,"is_disabled":false,"rental_uris":{"android":"levelo://app?vid=7438a3dc-7e35-453e-ba33-c11c46a43ab5","ios":"levelo://app?vid=7438a3dc-7e35-453e-ba33-c11c46a43ab5"},"vehicle_type_id":"4","last_reported":1747490901,"current_range_meters":6400,"station_id":"ce4bhr92rcd13ifvqhsg","pricing_plan_id":"cebpf4jnsgd1na2vs0mg"},{"bike_id":"11b8fe1c-835c-457a-9eb0-4fca20b1c915","system_id":"levelo_inurba_marseille","lat":43.23191,"lon":5.3556,"is_reserved":false,"is_disabled":false,"rental_uris":{"android":"levelo://app?vid=11b8fe1c-835c-457a-9eb0-4fca20b1c915","ios":"levelo://app?vid=11b8fe1c-835c-457a-9eb0-4fca20b1c915"},"vehicle_type_id":"4","last_reported":1747490901,"current_range_meters":6400,"station_id":"ce4bhu92rcd13ifvqi70","pricing_plan_id":"cebpf4jnsgd1na2vs0mg"},{"bike_id":"27372271-ef96-4e49-a4e0-ad228605e572","system_id":"levelo_inurba_marseille","lat":43.30933,"lon":5.37286,"is_reserved":false,"is_disabled":false,"rental_uris":{"android":"levelo://app?vid=27372271-ef96-4e49-a4e0-ad228605e572","ios":"levelo://app?vid=27372271-ef96-4e49-a4e0-ad228605e572"},"vehicle_type_id":"4","last_reported":1747490901,"current_range_meters":6800,"station_id":"","pricing_plan_id":"cebpf4jnsgd1na2vs0mg"},{"bike_id":"79d9f6a1-ecb8-4d81-b6f2-8dade2e07ac2","system_id":"levelo_inurba_marseille","lat":43.30765,"lon":5.37658,"is_reserved":false,"is_disabled":false,"rental_uris":{"android":"levelo://app?vid=79d9f6a1-ecb8-4d81-b6f2-8dade2e07ac2","ios":"levelo://app?vid=79d9f6a1-ecb8-4d81-b6f2-8dade2e07ac2"},"vehicle_type_id":"4","last_reported":1747490901,"current_range_meters":6800,"station_id":"ce4bgv92rcd13ifvqcq0","pricing_plan_id":"cebpf4jnsgd1na2vs0mg"},{"bike_id":"b93db5fd-6037-4538-ab17-099364f7f9d5","system_id":"levelo_inurba_marseille","lat":43.25824,"lon":5.39437,"is_reserved":false,"is_disabled":false,"rental_uris":{"android":"levelo://app?vid=b93db5fd-6037-4538-ab17-099364f7f9d5","ios":"levelo://app?vid=b93db5fd-6037-4538-ab17-099364f7f9d5"},"vehicle_type_id":"4","last_reported":1747490901,"current_range_meters":6800,"station_id":"ce4bhip2rcd13ifvqft0","pricing_plan_id":"cebpf4jnsgd1na2vs0mg"},{"bike_id":"5cf74a5b-3237-4306-8708-835ce896cf40","system_id":"levelo_inurba_marseille","lat":43.319978,"lon":5.381564,"is_reserved":false,"is_disabled":false,"rental_uris":{"android":"levelo://app?vid=5cf74a5b-3237-4306-8708-835ce896cf40","ios":"levelo://app?vid=5cf74a5b-3237-4306-8708-835ce896cf40"},"vehicle_type_id":"4","last_reported":1747490901,"current_range_meters":6800,"station_id":"ce4bhr12rcd13ifvqhpg","pricing_plan_id":"cebpf4jnsgd1na2vs0mg"},{"bike_id":"1dd8b717-6c51-4c45-a030-6dada04cb490","system_id":"levelo_inurba_marseille","lat":43.21192,"lon":5.35078,"is_reserved":false,"is_disabled":false,"rental_uris":{"android":"levelo://app?vid=1dd8b717-6c51-4c45-a030-6dada04cb490","ios":"levelo://app?vid=1dd8b717-6c51-4c45-a030-6dada04cb490"},"vehicle_type_id":"4","last_reported":1747490901,"current_range_meters":6800,"station_id":"st_cvj6sg6p6f1abm77japg","pricing_plan_id":"cebpf4jnsgd1na2vs0mg"},{"bike_id":"6e612e7b-28be-478c-9618-97651a5de57b","system_id":"levelo_inurba_marseille","lat":43.24643,"lon":5.39579,"is_reserved":false,"is_disabled":false,"rental_uris":{"android":"levelo://app?vid=6e612e7b-28be-478c-9618-97651a5de57b","ios":"levelo://app?vid=6e612e7b-28be-478c-9618-97651a5de57b"},"vehicle_type_id":"4","last_reported":1747490901,"current_range_meters":7200,"station_id":"","pricing_plan_id":"cebpf4jnsgd1na2vs0mg"},{"bike_id":"98cb935d-f095-44ca-9e47-f1886ebc938a","system_id":"levelo_inurba_marseille","lat":43.32405,"lon":5.38932,"is_reserved":false,"is_disabled":false,"rental_uris":{"android":"levelo://app?vid=98cb935d-f095-44ca-9e47-f1886ebc938a","ios":"levelo://app?vid=98cb935d-f095-44ca-9e47-f1886ebc938a"},"vehicle_type_id":"4","last_reported":1747490901,"current_range_meters":7200,"station_id":"","pricing_plan_id":"cebpf4jnsgd1na2vs0mg"},{"bike_id":"b9b2a1e8-dc7d-4b82-80b7-5d071bfa1c86","system_id":"levelo_inurba_marseille","lat":43.27379,"lon":5.36274,"is_reserved":false,"is_disabled":false,"rental_uris":{"android":"levelo://app?vid=b9b2a1e8-dc7d-4b82-80b7-5d071bfa1c86","ios":"levelo://app?vid=b9b2a1e8-dc7d-4b82-80b7-5d071bfa1c86"},"vehicle_type_id":"4","last_reported":1747490901,"current_range_meters":7200,"station_id":"ce4bhbh2rcd13ifvqeo0","pricing_plan_id":"cebpf4jnsgd1na2vs0mg"},{"bike_id":"54c9ba14-c9ef-4900-a54d-1c54805edec7","system_id":"levelo_inurba_marseille","lat":43.23196,"lon":5.35552,"is_reserved":false,"is_disabled":false,"rental_uris":{"android":"levelo://app?vid=54c9ba14-c9ef-4900-a54d-1c54805edec7","ios":"levelo://app?vid=54c9ba14-c9ef-4900-a54d-1c54805edec7"},"vehicle_type_id":"4","last_reported":1747490901,"current_range_meters":7200,"station_id":"ce4bhu92rcd13ifvqi70","pricing_plan_id":"cebpf4jnsgd1na2vs0mg"},{"bike_id":"95364902-2c96-4f26-8b8d-5c3c46ff46d1","system_id":"levelo_inurba_marseille","lat":43.21195,"lon":5.35061,"is_reserved":false,"is_disabled":false,"rental_uris":{"android":"levelo://app?vid=95364902-2c96-4f26-8b8d-5c3c46ff46d1","ios":"levelo://app?vid=95364902-2c96-4f26-8b8d-5c3c46ff46d1"},"vehicle_type_id":"4","last_reported":1747490901,"current_range_meters":7200,"station_id":"st_cvj6sg6p6f1abm77japg","pricing_plan_id":"cebpf4jnsgd1na2vs0mg"},{"bike_id":"6cd5c425-f8ac-4068-b8ea-a8bfbef29ee5","system_id":"levelo_inurba_marseille","lat":43.24999,"lon":5.37935,"is_reserved":false,"is_disabled":false,"rental_uris":{"android":"levelo://app?vid=6cd5c425-f8ac-4068-b8ea-a8bfbef29ee5","ios":"levelo://app?vid=6cd5c425-f8ac-4068-b8ea-a8bfbef29ee5"},"vehicle_type_id":"4","last_reported":1747490901,"current_range_meters":8000,"station_id":"","pricing_plan_id":"cebpf4jnsgd1na2vs0mg"},{"bike_id":"c54429f5-4bc2-48c5-ae14-7ebf2d6518cc","system_id":"levelo_inurba_marseille","lat":43.29008,"lon":5.35608,"is_reserved":false,"is_disabled":false,"rental_uris":{"android":"levelo://app?vid=c54429f5-4bc2-48c5-ae14-7ebf2d6518cc","ios":"levelo://app?vid=c54429f5-4bc2-48c5-ae14-7ebf2d6518cc"},"vehicle_type_id":"4","last_reported":1747490901,"current_range_meters":8000,"station_id":"ce4bhb92rcd13ifvqen0","pricing_plan_id":"cebpf4jnsgd1na2vs0mg"},{"bike_id":"da9ab010-9f13-4bc4-bb92-d367d5200ecd","system_id":"levelo_inurba_marseille","lat":43.273777,"lon":5.36253,"is_reserved":false,"is_disabled":false,"rental_uris":{"android":"levelo://app?vid=da9ab010-9f13-4bc4-bb92-d367d5200ecd","ios":"levelo://app?vid=da9ab010-9f13-4bc4-bb92-d367d5200ecd"},"vehicle_type_id":"4","last_reported":1747490901,"current_range_meters":8000,"station_id":"ce4bhbh2rcd13ifvqeo0","pricing_plan_id":"cebpf4jnsgd1na2vs0mg"},{"bike_id":"dc30b0b4-8866-4e0e-b577-a69c9b6a2a04","system_id":"levelo_inurba_marseille","lat":43.28422,"lon":5.34993,"is_reserved":false,"is_disabled":false,"rental_uris":{"android":"levelo://app?vid=dc30b0b4-8866-4e0e-b577-a69c9b6a2a04","ios":"levelo://app?vid=dc30b0b4-8866-4e0e-b577-a69c9b6a2a04"},"vehicle_type_id":"4","last_reported":1747490901,"current_range_meters":8000,"station_id":"ce4bhbh2rcd13ifvqepg","pricing_plan_id":"cebpf4jnsgd1na2vs0mg"},{"bike_id":"e88119c4-ac30-4ace-83be-14b8e3698d34","system_id":"levelo_inurba_marseille","lat":43.28428,"lon":5.34993,"is_reserved":false,"is_disabled":false,"rental_uris":{"android":"levelo://app?vid=e88119c4-ac30-4ace-83be-14b8e3698d34","ios":"levelo://app?vid=e88119c4-ac30-4ace-83be-14b8e3698d34"},"vehicle_type_id":"4","last_reported":1747490901,"current_range_meters":8000,"station_id":"ce4bhbh2rcd13ifvqepg","pricing_plan_id":"cebpf4jnsgd1na2vs0mg"},{"bike_id":"72e04af6-2c3c-4c5d-9d93-14f2341a80e7","system_id":"levelo_inurba_marseille","lat":43.26568,"lon":5.3902,"is_reserved":false,"is_disabled":false,"rental_uris":{"android":"levelo://app?vid=72e04af6-2c3c-4c5d-9d93-14f2341a80e7","ios":"levelo://app?vid=72e04af6-2c3c-4c5d-9d93-14f2341a80e7"},"vehicle_type_id":"4","last_reported":1747490901,"current_range_meters":8000,"station_id":"ce4bhe12rcd13ifvqf30","pricing_plan_id":"cebpf4jnsgd1na2vs0mg"},{"bike_id":"5098123d-b36f-482a-a74d-7b81fd65e534","system_id":"levelo_inurba_marseille","lat":43.239619,"lon":5.366285,"is_reserved":false,"is_disabled":false,"rental_uris":{"android":"levelo://app?vid=5098123d-b36f-482a-a74d-7b81fd65e534","ios":"levelo://app?vid=5098123d-b36f-482a-a74d-7b81fd65e534"},"vehicle_type_id":"4","last_reported":1747490901,"current_range_meters":8000,"station_id":"ce4bhi12rcd13ifvqfp0","pricing_plan_id":"cebpf4jnsgd1na2vs0mg"},{"bike_id":"05cfed21-0c71-4180-b280-607cd28c9c9a","system_id":"levelo_inurba_marseille","lat":43.23064,"lon":5.35509,"is_reserved":false,"is_disabled":false,"rental_uris":{"android":"levelo://app?vid=05cfed21-0c71-4180-b280-607cd28c9c9a","ios":"levelo://app?vid=05cfed21-0c71-4180-b280-607cd28c9c9a"},"vehicle_type_id":"4","last_reported":1747490901,"current_range_meters":8000,"station_id":"cpo3342slgdg3j2ifvpg","pricing_plan_id":"cebpf4jnsgd1na2vs0mg"},{"bike_id":"3d6b5b36-a314-45fa-8bc0-68e5f98a5dde","system_id":"levelo_inurba_marseille","lat":43.22943,"lon":5.35365,"is_reserved":false,"is_disabled":false,"rental_uris":{"android":"levelo://app?vid=3d6b5b36-a314-45fa-8bc0-68e5f98a5dde","ios":"levelo://app?vid=3d6b5b36-a314-45fa-8bc0-68e5f98a5dde"},"vehicle_type_id":"4","last_reported":1747490901,"current_range_meters":8000,"station_id":"cpo3532slgdg3j2ikp40","pricing_plan_id":"cebpf4jnsgd1na2vs0mg"},{"bike_id":"6456269f-5eee-4518-84e7-3cca60c17c1b","system_id":"levelo_inurba_marseille","lat":43.29905,"lon":5.38151,"is_reserved":false,"is_disabled":false,"rental_uris":{"android":"levelo://app?vid=6456269f-5eee-4518-84e7-3cca60c17c1b","ios":"levelo://app?vid=6456269f-5eee-4518-84e7-3cca60c17c1b"},"vehicle_type_id":"4","last_reported":1747490901,"current_range_meters":8400,"station_id":"ce4bgj12rcd13ifvqbc0","pricing_plan_id":"cebpf4jnsgd1na2vs0mg"},{"bike_id":"23a38206-d2e8-4f7a-8f36-d8e5c53ad407","system_id":"levelo_inurba_marseille","lat":43.27917,"lon":5.39581,"is_reserved":false,"is_disabled":false,"rental_uris":{"android":"levelo://app?vid=23a38206-d2e8-4f7a-8f36-d8e5c53ad407","ios":"levelo://app?vid=23a38206-d2e8-4f7a-8f36-d8e5c53ad407"},"vehicle_type_id":"4","last_reported":1747490901,"current_range_meters":8400,"station_id":"ce4bhf92rcd13ifvqf40","pricing_plan_id":"cebpf4jnsgd1na2vs0mg"},{"bike_id":"5f97eaa2-0768-4c6b-ad33-1de6214ff7ee","system_id":"levelo_inurba_marseille","lat":43.27205,"lon":5.39184,"is_reserved":false,"is_disabled":false,"rental_uris":{"android":"levelo://app?vid=5f97eaa2-0768-4c6b-ad33-1de6214ff7ee","ios":"levelo://app?vid=5f97eaa2-0768-4c6b-ad33-1de6214ff7ee"},"vehicle_type_id":"4","last_reported":1747490901,"current_range_meters":8400,"station_id":"ce4bhhp2rcd13ifvqfm0","pricing_plan_id":"cebpf4jnsgd1na2vs0mg"},{"bike_id":"58ce90ea-4e2d-4f36-a4ed-878ef4c33127","system_id":"levelo_inurba_marseille","lat":43.23964,"lon":5.36641,"is_reserved":false,"is_disabled":false,"rental_uris":{"android":"levelo://app?vid=58ce90ea-4e2d-4f36-a4ed-878ef4c33127","ios":"levelo://app?vid=58ce90ea-4e2d-4f36-a4ed-878ef4c33127"},"vehicle_type_id":"4","last_reported":1747490901,"current_range_meters":8400,"station_id":"ce4bhi12rcd13ifvqfp0","pricing_plan_id":"cebpf4jnsgd1na2vs0mg"},{"bike_id":"cc0dd266-2c7f-48b1-be6c-1f08e0dda62a","system_id":"levelo_inurba_marseille","lat":43.2467,"lon":5.38161,"is_reserved":false,"is_disabled":false,"rental_uris":{"android":"levelo://app?vid=cc0dd266-2c7f-48b1-be6c-1f08e0dda62a","ios":"levelo://app?vid=cc0dd266-2c7f-48b1-be6c-1f08e0dda62a"},"vehicle_type_id":"4","last_reported":1747490901,"current_range_meters":8400,"station_id":"ce4bhih2rcd13ifvqfr0","pricing_plan_id":"cebpf4jnsgd1na2vs0mg"},{"bike_id":"6dc41c7d-d886-4d51-bd29-ec1aa88f4fac","system_id":"levelo_inurba_marseille","lat":43.241687,"lon":5.363939,"is_reserved":false,"is_disabled":false,"rental_uris":{"android":"levelo://app?vid=6dc41c7d-d886-4d51-bd29-ec1aa88f4fac","ios":"levelo://app?vid=6dc41c7d-d886-4d51-bd29-ec1aa88f4fac"},"vehicle_type_id":"4","last_reported":1747490901,"current_range_meters":8400,"station_id":"cpo36qri1sfpv3e86is0","pricing_plan_id":"cebpf4jnsgd1na2vs0mg"},{"bike_id":"3d50d707-bb8a-4329-a7cb-48dae4e42631","system_id":"levelo_inurba_marseille","lat":43.21188,"lon":5.3511,"is_reserved":false,"is_disabled":false,"rental_uris":{"android":"levelo://app?vid=3d50d707-bb8a-4329-a7cb-48dae4e42631","ios":"levelo://app?vid=3d50d707-bb8a-4329-a7cb-48dae4e42631"},"vehicle_type_id":"4","last_reported":1747490901,"current_range_meters":8400,"station_id":"st_cvj6sg6p6f1abm77japg","pricing_plan_id":"cebpf4jnsgd1na2vs0mg"},{"bike_id":"bd416234-518a-4845-b84b-bec651f019dd","system_id":"levelo_inurba_marseille","lat":43.2119,"lon":5.35072,"is_reserved":false,"is_disabled":false,"rental_uris":{"android":"levelo://app?vid=bd416234-518a-4845-b84b-bec651f019dd","ios":"levelo://app?vid=bd416234-518a-4845-b84b-bec651f019dd"},"vehicle_type_id":"4","last_reported":1747490901,"current_range_meters":8400,"station_id":"st_cvj6sg6p6f1abm77japg","pricing_plan_id":"cebpf4jnsgd1na2vs0mg"},{"bike_id":"a9bd69ae-7264-44b1-bd34-7a720b46c2ba","system_id":"levelo_inurba_marseille","lat":43.30806,"lon":5.38148,"is_reserved":false,"is_disabled":false,"rental_uris":{"android":"levelo://app?vid=a9bd69ae-7264-44b1-bd34-7a720b46c2ba","ios":"levelo://app?vid=a9bd69ae-7264-44b1-bd34-7a720b46c2ba"},"vehicle_type_id":"4","last_reported":1747490901,"current_range_meters":8800,"station_id":"","pricing_plan_id":"cebpf4jnsgd1na2vs0mg"},{"bike_id":"9b5dc053-1a0b-408a-8853-36209b473687","system_id":"levelo_inurba_marseille","lat":43.27381,"lon":5.36257,"is_reserved":false,"is_disabled":false,"rental_uris":{"android":"levelo://app?vid=9b5dc053-1a0b-408a-8853-36209b473687","ios":"levelo://app?vid=9b5dc053-1a0b-408a-8853-36209b473687"},"vehicle_type_id":"4","last_reported":1747490901,"current_range_meters":8800,"station_id":"ce4bhbh2rcd13ifvqeo0","pricing_plan_id":"cebpf4jnsgd1na2vs0mg"},{"bike_id":"4faa877d-2aed-4ac7-b249-f53d870f481d","system_id":"levelo_inurba_marseille","lat":43.28279,"lon":5.35066,"is_reserved":false,"is_disabled":false,"rental_uris":{"android":"levelo://app?vid=4faa877d-2aed-4ac7-b249-f53d870f481d","ios":"levelo://app?vid=4faa877d-2aed-4ac7-b249-f53d870f481d"},"vehicle_type_id":"4","last_reported":1747490901,"current_range_meters":8800,"station_id":"ce4bhbp2rcd13ifvqerg","pricing_plan_id":"cebpf4jnsgd1na2vs0mg"},{"bike_id":"fd36f2b2-ab3f-4773-a649-0c532c529c78","system_id":"levelo_inurba_marseille","lat":43.2658,"lon":5.37282,"is_reserved":false,"is_disabled":false,"rental_uris":{"android":"levelo://app?vid=fd36f2b2-ab3f-4773-a649-0c532c529c78","ios":"levelo://app?vid=fd36f2b2-ab3f-4773-a649-0c532c529c78"},"vehicle_type_id":"4","last_reported":1747490901,"current_range_meters":8800,"station_id":"ce4bhg12rcd13ifvqf70","pricing_plan_id":"cebpf4jnsgd1na2vs0mg"},{"bike_id":"194a8af0-e763-4736-813e-48fcf1182a7f","system_id":"levelo_inurba_marseille","lat":43.23963,"lon":5.36628,"is_reserved":false,"is_disabled":false,"rental_uris":{"android":"levelo://app?vid=194a8af0-e763-4736-813e-48fcf1182a7f","ios":"levelo://app?vid=194a8af0-e763-4736-813e-48fcf1182a7f"},"vehicle_type_id":"4","last_reported":1747490901,"current_range_meters":8800,"station_id":"ce4bhi12rcd13ifvqfp0","pricing_plan_id":"cebpf4jnsgd1na2vs0mg"},{"bike_id":"4627f3d1-17fd-49b2-9a60-3f90cc9b16e5","system_id":"levelo_inurba_marseille","lat":43.31718,"lon":5.43699,"is_reserved":false,"is_disabled":false,"rental_uris":{"android":"levelo://app?vid=4627f3d1-17fd-49b2-9a60-3f90cc9b16e5","ios":"levelo://app?vid=4627f3d1-17fd-49b2-9a60-3f90cc9b16e5"},"vehicle_type_id":"4","last_reported":1747490901,"current_range_meters":8800,"station_id":"ce4bhp92rcd13ifvqhcg","pricing_plan_id":"cebpf4jnsgd1na2vs0mg"},{"bike_id":"cd5716cc-f478-4f43-a0b1-0cfc996a74ec","system_id":"levelo_inurba_marseille","lat":43.21192,"lon":5.35082,"is_reserved":false,"is_disabled":false,"rental_uris":{"android":"levelo://app?vid=cd5716cc-f478-4f43-a0b1-0cfc996a74ec","ios":"levelo://app?vid=cd5716cc-f478-4f43-a0b1-0cfc996a74ec"},"vehicle_type_id":"4","last_reported":1747490901,"current_range_meters":8800,"station_id":"st_cvj6sg6p6f1abm77japg","pricing_plan_id":"cebpf4jnsgd1na2vs0mg"},{"bike_id":"02da4659-a964-4188-b8f7-65c02f96006d","system_id":"levelo_inurba_marseille","lat":43.2866,"lon":5.36376,"is_reserved":false,"is_disabled":false,"rental_uris":{"android":"levelo://app?vid=02da4659-a964-4188-b8f7-65c02f96006d","ios":"levelo://app?vid=02da4659-a964-4188-b8f7-65c02f96006d"},"vehicle_type_id":"4","last_reported":1747490901,"current_range_meters":9200,"station_id":"ce4bhah2rcd13ifvqej0","pricing_plan_id":"cebpf4jnsgd1na2vs0mg"},{"bike_id":"17caf6cf-c044-4d73-85dc-ec083daf980e","system_id":"levelo_inurba_marseille","lat":43.27368,"lon":5.36249,"is_reserved":false,"is_disabled":false,"rental_uris":{"android":"levelo://app?vid=17caf6cf-c044-4d73-85dc-ec083daf980e","ios":"levelo://app?vid=17caf6cf-c044-4d73-85dc-ec083daf980e"},"vehicle_type_id":"4","last_reported":1747490901,"current_range_meters":9200,"station_id":"ce4bhbh2rcd13ifvqeo0","pricing_plan_id":"cebpf4jnsgd1na2vs0mg"},{"bike_id":"df684a38-3322-457e-a69d-10f1c3b9f64a","system_id":"levelo_inurba_marseille","lat":43.24159,"lon":5.364,"is_reserved":false,"is_disabled":false,"rental_uris":{"android":"levelo://app?vid=df684a38-3322-457e-a69d-10f1c3b9f64a","ios":"levelo://app?vid=df684a38-3322-457e-a69d-10f1c3b9f64a"},"vehicle_type_id":"4","last_reported":1747490901,"current_range_meters":9200,"station_id":"cpo36qri1sfpv3e86is0","pricing_plan_id":"cebpf4jnsgd1na2vs0mg"},{"bike_id":"a1ebb40c-08ca-44aa-8190-f0bfa9cf2bb4","system_id":"levelo_inurba_marseille","lat":43.22504,"lon":5.34786,"is_reserved":false,"is_disabled":false,"rental_uris":{"android":"levelo://app?vid=a1ebb40c-08ca-44aa-8190-f0bfa9cf2bb4","ios":"levelo://app?vid=a1ebb40c-08ca-44aa-8190-f0bfa9cf2bb4"},"vehicle_type_id":"4","last_reported":1747490901,"current_range_meters":9200,"station_id":"st_cvj5dfep6f1abm77gieg","pricing_plan_id":"cebpf4jnsgd1na2vs0mg"},{"bike_id":"e1fada1f-ee8d-461a-94ee-b12ae7beae21","system_id":"levelo_inurba_marseille","lat":43.22512,"lon":5.34777,"is_reserved":false,"is_disabled":false,"rental_uris":{"android":"levelo://app?vid=e1fada1f-ee8d-461a-94ee-b12ae7beae21","ios":"levelo://app?vid=e1fada1f-ee8d-461a-94ee-b12ae7beae21"},"vehicle_type_id":"4","last_reported":1747490901,"current_range_meters":9200,"station_id":"st_cvj5dfep6f1abm77gieg","pricing_plan_id":"cebpf4jnsgd1na2vs0mg"},{"bike_id":"7e2c4a5a-ef46-449c-bd9c-a8e0c259f9f3","system_id":"levelo_inurba_marseille","lat":43.21751,"lon":5.34602,"is_reserved":false,"is_disabled":false,"rental_uris":{"android":"levelo://app?vid=7e2c4a5a-ef46-449c-bd9c-a8e0c259f9f3","ios":"levelo://app?vid=7e2c4a5a-ef46-449c-bd9c-a8e0c259f9f3"},"vehicle_type_id":"4","last_reported":1747490901,"current_range_meters":9200,"station_id":"st_cvj6r9ubvosntc0bgbag","pricing_plan_id":"cebpf4jnsgd1na2vs0mg"},{"bike_id":"7bcca395-2c9e-4446-aa83-07d71c90829d","system_id":"levelo_inurba_marseille","lat":43.2842,"lon":5.34989,"is_reserved":false,"is_disabled":false,"rental_uris":{"android":"levelo://app?vid=7bcca395-2c9e-4446-aa83-07d71c90829d","ios":"levelo://app?vid=7bcca395-2c9e-4446-aa83-07d71c90829d"},"vehicle_type_id":"4","last_reported":1747490901,"current_range_meters":9600,"station_id":"ce4bhbh2rcd13ifvqepg","pricing_plan_id":"cebpf4jnsgd1na2vs0mg"},{"bike_id":"ea1ee46d-0d0c-4cc5-8d32-da3c098828cd","system_id":"levelo_inurba_marseille","lat":43.28612,"lon":5.35114,"is_reserved":false,"is_disabled":false,"rental_uris":{"android":"levelo://app?vid=ea1ee46d-0d0c-4cc5-8d32-da3c098828cd","ios":"levelo://app?vid=ea1ee46d-0d0c-4cc5-8d32-da3c098828cd"},"vehicle_type_id":"4","last_reported":1747490901,"current_range_meters":9600,"station_id":"ce4bhch2rcd13ifvqeug","pricing_plan_id":"cebpf4jnsgd1na2vs0mg"},{"bike_id":"b02600ed-49cb-4125-9686-a62d00648868","system_id":"levelo_inurba_marseille","lat":43.26558,"lon":5.3728,"is_reserved":false,"is_disabled":false,"rental_uris":{"android":"levelo://app?vid=b02600ed-49cb-4125-9686-a62d00648868","ios":"levelo://app?vid=b02600ed-49cb-4125-9686-a62d00648868"},"vehicle_type_id":"4","last_reported":1747490901,"current_range_meters":9600,"station_id":"ce4bhg12rcd13ifvqf70","pricing_plan_id":"cebpf4jnsgd1na2vs0mg"},{"bike_id":"0fe40f1c-b730-4c54-b873-778f9d2c42d6","system_id":"levelo_inurba_marseille","lat":43.25982,"lon":5.37531,"is_reserved":false,"is_disabled":false,"rental_uris":{"android":"levelo://app?vid=0fe40f1c-b730-4c54-b873-778f9d2c42d6","ios":"levelo://app?vid=0fe40f1c-b730-4c54-b873-778f9d2c42d6"},"vehicle_type_id":"4","last_reported":1747490901,"current_range_meters":9600,"station_id":"ce4bhgh2rcd13ifvqfa0","pricing_plan_id":"cebpf4jnsgd1na2vs0mg"},{"bike_id":"e330a8f9-7c3c-41ec-91da-b7bbfb372c5b","system_id":"levelo_inurba_marseille","lat":43.231812,"lon":5.399914,"is_reserved":false,"is_disabled":false,"rental_uris":{"android":"levelo://app?vid=e330a8f9-7c3c-41ec-91da-b7bbfb372c5b","ios":"levelo://app?vid=e330a8f9-7c3c-41ec-91da-b7bbfb372c5b"},"vehicle_type_id":"4","last_reported":1747490901,"current_range_meters":9600,"station_id":"ce4bhn12rcd13ifvqgqg","pricing_plan_id":"cebpf4jnsgd1na2vs0mg"},{"bike_id":"a68f9539-d7f7-431a-8b13-de39585015ad","system_id":"levelo_inurba_marseille","lat":43.23194,"lon":5.35552,"is_reserved":false,"is_disabled":false,"rental_uris":{"android":"levelo://app?vid=a68f9539-d7f7-431a-8b13-de39585015ad","ios":"levelo://app?vid=a68f9539-d7f7-431a-8b13-de39585015ad"},"vehicle_type_id":"4","last_reported":1747490901,"current_range_meters":9600,"station_id":"ce4bhu92rcd13ifvqi70","pricing_plan_id":"cebpf4jnsgd1na2vs0mg"},{"bike_id":"6f7da022-e381-4617-9c99-86adc761a953","system_id":"levelo_inurba_marseille","lat":43.2315,"lon":5.43797,"is_reserved":false,"is_disabled":false,"rental_uris":{"android":"levelo://app?vid=6f7da022-e381-4617-9c99-86adc761a953","ios":"levelo://app?vid=6f7da022-e381-4617-9c99-86adc761a953"},"vehicle_type_id":"4","last_reported":1747490901,"current_range_meters":10000,"station_id":"","pricing_plan_id":"cebpf4jnsgd1na2vs0mg"},{"bike_id":"2dec80d9-a68d-4dd3-a087-3f3bcd3db7cb","system_id":"levelo_inurba_marseille","lat":43.27622,"lon":5.36122,"is_reserved":false,"is_disabled":false,"rental_uris":{"android":"levelo://app?vid=2dec80d9-a68d-4dd3-a087-3f3bcd3db7cb","ios":"levelo://app?vid=2dec80d9-a68d-4dd3-a087-3f3bcd3db7cb"},"vehicle_type_id":"4","last_reported":1747490901,"current_range_meters":10000,"station_id":"ce4bgj92rcd13ifvqbe0","pricing_plan_id":"cebpf4jnsgd1na2vs0mg"},{"bike_id":"d1462cad-85e7-4eb1-b449-3406fe04f1f6","system_id":"levelo_inurba_marseille","lat":43.30608,"lon":5.37227,"is_reserved":false,"is_disabled":false,"rental_uris":{"android":"levelo://app?vid=d1462cad-85e7-4eb1-b449-3406fe04f1f6","ios":"levelo://app?vid=d1462cad-85e7-4eb1-b449-3406fe04f1f6"},"vehicle_type_id":"4","last_reported":1747490901,"current_range_meters":10000,"station_id":"ce4bgqh2rcd13ifvqc4g","pricing_plan_id":"cebpf4jnsgd1na2vs0mg"},{"bike_id":"c903d11c-2fcb-4273-8c5f-35dc6d18ed45","system_id":"levelo_inurba_marseille","lat":43.30177,"lon":5.36627,"is_reserved":false,"is_disabled":false,"rental_uris":{"android":"levelo://app?vid=c903d11c-2fcb-4273-8c5f-35dc6d18ed45","ios":"levelo://app?vid=c903d11c-2fcb-4273-8c5f-35dc6d18ed45"},"vehicle_type_id":"4","last_reported":1747490901,"current_range_meters":10000,"station_id":"ce4bgrh2rcd13ifvqc8g","pricing_plan_id":"cebpf4jnsgd1na2vs0mg"},{"bike_id":"af110b5c-31e2-44eb-b567-9f8fb8040d41","system_id":"levelo_inurba_marseille","lat":43.30518,"lon":5.36521,"is_reserved":false,"is_disabled":false,"rental_uris":{"android":"levelo://app?vid=af110b5c-31e2-44eb-b567-9f8fb8040d41","ios":"levelo://app?vid=af110b5c-31e2-44eb-b567-9f8fb8040d41"},"vehicle_type_id":"4","last_reported":1747490901,"current_range_meters":10000,"station_id":"ce4bgs12rcd13ifvqcag","pricing_plan_id":"cebpf4jnsgd1na2vs0mg"},{"bike_id":"19532578-e993-415f-a4c2-4728c31b9dc8","system_id":"levelo_inurba_marseille","lat":43.30604,"lon":5.39355,"is_reserved":false,"is_disabled":false,"rental_uris":{"android":"levelo://app?vid=19532578-e993-415f-a4c2-4728c31b9dc8","ios":"levelo://app?vid=19532578-e993-415f-a4c2-4728c31b9dc8"},"vehicle_type_id":"4","last_reported":1747490901,"current_range_meters":10000,"station_id":"ce4bh0p2rcd13ifvqd80","pricing_plan_id":"cebpf4jnsgd1na2vs0mg"},{"bike_id":"9ddf0be1-4ef5-4c66-80ba-7e67f36cf38b","system_id":"levelo_inurba_marseille","lat":43.28665,"lon":5.36348,"is_reserved":false,"is_disabled":false,"rental_uris":{"android":"levelo://app?vid=9ddf0be1-4ef5-4c66-80ba-7e67f36cf38b","ios":"levelo://app?vid=9ddf0be1-4ef5-4c66-80ba-7e67f36cf38b"},"vehicle_type_id":"4","last_reported":1747490901,"current_range_meters":10000,"station_id":"ce4bhah2rcd13ifvqej0","pricing_plan_id":"cebpf4jnsgd1na2vs0mg"},{"bike_id":"96f5aafc-fa62-4676-9e30-13b1409b1c1f","system_id":"levelo_inurba_marseille","lat":43.26779,"lon":5.39428,"is_reserved":false,"is_disabled":false,"rental_uris":{"android":"levelo://app?vid=96f5aafc-fa62-4676-9e30-13b1409b1c1f","ios":"levelo://app?vid=96f5aafc-fa62-4676-9e30-13b1409b1c1f"},"vehicle_type_id":"4","last_reported":1747490901,"current_range_meters":10000,"station_id":"ce4bhh12rcd13ifvqfg0","pricing_plan_id":"cebpf4jnsgd1na2vs0mg"},{"bike_id":"56a10ad3-c52a-4ee6-9c8f-09e859550d56","system_id":"levelo_inurba_marseille","lat":43.23964,"lon":5.3664,"is_reserved":false,"is_disabled":false,"rental_uris":{"android":"levelo://app?vid=56a10ad3-c52a-4ee6-9c8f-09e859550d56","ios":"levelo://app?vid=56a10ad3-c52a-4ee6-9c8f-09e859550d56"},"vehicle_type_id":"4","last_reported":1747490901,"current_range_meters":10000,"station_id":"ce4bhi12rcd13ifvqfp0","pricing_plan_id":"cebpf4jnsgd1na2vs0mg"},{"bike_id":"21658823-ea3c-428a-91b4-01a250e7b14c","system_id":"levelo_inurba_marseille","lat":43.2417,"lon":5.36403,"is_reserved":false,"is_disabled":false,"rental_uris":{"android":"levelo://app?vid=21658823-ea3c-428a-91b4-01a250e7b14c","ios":"levelo://app?vid=21658823-ea3c-428a-91b4-01a250e7b14c"},"vehicle_type_id":"4","last_reported":1747490901,"current_range_meters":10000,"station_id":"cpo36qri1sfpv3e86is0","pricing_plan_id":"cebpf4jnsgd1na2vs0mg"},{"bike_id":"df21fa0f-b89d-4c7d-91ca-06a4db163261","system_id":"levelo_inurba_marseille","lat":43.211837,"lon":5.35055,"is_reserved":false,"is_disabled":false,"rental_uris":{"android":"levelo://app?vid=df21fa0f-b89d-4c7d-91ca-06a4db163261","ios":"levelo://app?vid=df21fa0f-b89d-4c7d-91ca-06a4db163261"},"vehicle_type_id":"4","last_reported":1747490901,"current_range_meters":10000,"station_id":"st_cvj6sg6p6f1abm77japg","pricing_plan_id":"cebpf4jnsgd1na2vs0mg"},{"bike_id":"6da655b8-0421-4e8a-ae32-6637af746f6a","system_id":"levelo_inurba_marseille","lat":43.268239,"lon":5.411105,"is_reserved":false,"is_disabled":false,"rental_uris":{"android":"levelo://app?vid=6da655b8-0421-4e8a-ae32-6637af746f6a","ios":"levelo://app?vid=6da655b8-0421-4e8a-ae32-6637af746f6a"},"vehicle_type_id":"4","last_reported":1747490901,"current_range_meters":10800,"station_id":"","pricing_plan_id":"cebpf4jnsgd1na2vs0mg"},{"bike_id":"c4eeca0e-2ef3-417c-bc15-e73ae678c05e","system_id":"levelo_inurba_marseille","lat":43.29621,"lon":5.3774,"is_reserved":false,"is_disabled":false,"rental_uris":{"android":"levelo://app?vid=c4eeca0e-2ef3-417c-bc15-e73ae678c05e","ios":"levelo://app?vid=c4eeca0e-2ef3-417c-bc15-e73ae678c05e"},"vehicle_type_id":"4","last_reported":1747490901,"current_range_meters":10800,"station_id":"ce4bgi92rcd13ifvqb90","pricing_plan_id":"cebpf4jnsgd1na2vs0mg"},{"bike_id":"628fbe8a-b457-4a05-805f-ffdcf0d72703","system_id":"levelo_inurba_marseille","lat":43.28662,"lon":5.36359,"is_reserved":false,"is_disabled":false,"rental_uris":{"android":"levelo://app?vid=628fbe8a-b457-4a05-805f-ffdcf0d72703","ios":"levelo://app?vid=628fbe8a-b457-4a05-805f-ffdcf0d72703"},"vehicle_type_id":"4","last_reported":1747490901,"current_range_meters":10800,"station_id":"ce4bhah2rcd13ifvqej0","pricing_plan_id":"cebpf4jnsgd1na2vs0mg"},{"bike_id":"13d5a06f-0e0c-454c-8014-811570a62462","system_id":"levelo_inurba_marseille","lat":43.282733,"lon":5.350588,"is_reserved":false,"is_disabled":false,"rental_uris":{"android":"levelo://app?vid=13d5a06f-0e0c-454c-8014-811570a62462","ios":"levelo://app?vid=13d5a06f-0e0c-454c-8014-811570a62462"},"vehicle_type_id":"4","last_reported":1747490901,"current_range_meters":10800,"station_id":"ce4bhbp2rcd13ifvqerg","pricing_plan_id":"cebpf4jnsgd1na2vs0mg"},{"bike_id":"f5c3d704-6dd9-430b-be6d-d13ed0323d6f","system_id":"levelo_inurba_marseille","lat":43.25,"lon":5.3893,"is_reserved":false,"is_disabled":false,"rental_uris":{"android":"levelo://app?vid=f5c3d704-6dd9-430b-be6d-d13ed0323d6f","ios":"levelo://app?vid=f5c3d704-6dd9-430b-be6d-d13ed0323d6f"},"vehicle_type_id":"4","last_reported":1747490901,"current_range_meters":10800,"station_id":"ce4bhgp2rcd13ifvqfd0","pricing_plan_id":"cebpf4jnsgd1na2vs0mg"},{"bike_id":"9311a62b-4ccf-4ad2-83dc-2c2cfc931553","system_id":"levelo_inurba_marseille","lat":43.2119,"lon":5.35072,"is_reserved":false,"is_disabled":false,"rental_uris":{"android":"levelo://app?vid=9311a62b-4ccf-4ad2-83dc-2c2cfc931553","ios":"levelo://app?vid=9311a62b-4ccf-4ad2-83dc-2c2cfc931553"},"vehicle_type_id":"4","last_reported":1747490901,"current_range_meters":10800,"station_id":"st_cvj6sg6p6f1abm77japg","pricing_plan_id":"cebpf4jnsgd1na2vs0mg"},{"bike_id":"b8e6468b-87db-4ff6-8122-ef13bf5b7c8c","system_id":"levelo_inurba_marseille","lat":43.31379,"lon":5.37916,"is_reserved":false,"is_disabled":false,"rental_uris":{"android":"levelo://app?vid=b8e6468b-87db-4ff6-8122-ef13bf5b7c8c","ios":"levelo://app?vid=b8e6468b-87db-4ff6-8122-ef13bf5b7c8c"},"vehicle_type_id":"4","last_reported":1747490901,"current_range_meters":11200,"station_id":"","pricing_plan_id":"cebpf4jnsgd1na2vs0mg"},{"bike_id":"77164f56-314a-4b19-a363-78d972dd3a20","system_id":"levelo_inurba_marseille","lat":43.29025,"lon":5.37569,"is_reserved":false,"is_disabled":false,"rental_uris":{"android":"levelo://app?vid=77164f56-314a-4b19-a363-78d972dd3a20","ios":"levelo://app?vid=77164f56-314a-4b19-a363-78d972dd3a20"},"vehicle_type_id":"4","last_reported":1747490901,"current_range_meters":11200,"station_id":"ce4bh692rcd13ifvqe90","pricing_plan_id":"cebpf4jnsgd1na2vs0mg"},{"bike_id":"33acbd93-531b-4bae-92c2-573399f188a4","system_id":"levelo_inurba_marseille","lat":43.27368,"lon":5.36265,"is_reserved":false,"is_disabled":false,"rental_uris":{"android":"levelo://app?vid=33acbd93-531b-4bae-92c2-573399f188a4","ios":"levelo://app?vid=33acbd93-531b-4bae-92c2-573399f188a4"},"vehicle_type_id":"4","last_reported":1747490901,"current_range_meters":11200,"station_id":"ce4bhbh2rcd13ifvqeo0","pricing_plan_id":"cebpf4jnsgd1na2vs0mg"},{"bike_id":"3e630e9a-3c06-4dcc-97d5-ae78a4ea1500","system_id":"levelo_inurba_marseille","lat":43.29899,"lon":5.4367,"is_reserved":false,"is_disabled":false,"rental_uris":{"android":"levelo://app?vid=3e630e9a-3c06-4dcc-97d5-ae78a4ea1500","ios":"levelo://app?vid=3e630e9a-3c06-4dcc-97d5-ae78a4ea1500"},"vehicle_type_id":"4","last_reported":1747490901,"current_range_meters":11200,"station_id":"ce4bhpp2rcd13ifvqhfg","pricing_plan_id":"cebpf4jnsgd1na2vs0mg"},{"bike_id":"2c538885-4b57-4faa-9177-06fd24158ac1","system_id":"levelo_inurba_marseille","lat":43.30959,"lon":5.39061,"is_reserved":false,"is_disabled":false,"rental_uris":{"android":"levelo://app?vid=2c538885-4b57-4faa-9177-06fd24158ac1","ios":"levelo://app?vid=2c538885-4b57-4faa-9177-06fd24158ac1"},"vehicle_type_id":"4","last_reported":1747490901,"current_range_meters":11600,"station_id":"ce4bgup2rcd13ifvqco0","pricing_plan_id":"cebpf4jnsgd1na2vs0mg"},{"bike_id":"0639139f-ff95-4f18-85bf-83e790f0d5fd","system_id":"levelo_inurba_marseille","lat":43.27381,"lon":5.3626,"is_reserved":false,"is_disabled":false,"rental_uris":{"android":"levelo://app?vid=0639139f-ff95-4f18-85bf-83e790f0d5fd","ios":"levelo://app?vid=0639139f-ff95-4f18-85bf-83e790f0d5fd"},"vehicle_type_id":"4","last_reported":1747490901,"current_range_meters":11600,"station_id":"ce4bhbh2rcd13ifvqeo0","pricing_plan_id":"cebpf4jnsgd1na2vs0mg"},{"bike_id":"9608e2a0-c4ba-48d6-8507-18cf47403fdf","system_id":"levelo_inurba_marseille","lat":43.28945,"lon":5.36403,"is_reserved":false,"is_disabled":false,"rental_uris":{"android":"levelo://app?vid=9608e2a0-c4ba-48d6-8507-18cf47403fdf","ios":"levelo://app?vid=9608e2a0-c4ba-48d6-8507-18cf47403fdf"},"vehicle_type_id":"4","last_reported":1747490901,"current_range_meters":11600,"station_id":"ce4bhc92rcd13ifvqetg","pricing_plan_id":"cebpf4jnsgd1na2vs0mg"},{"bike_id":"4b704ec9-5c61-4206-bdd2-ad09f982787a","system_id":"levelo_inurba_marseille","lat":43.28939,"lon":5.36405,"is_reserved":false,"is_disabled":false,"rental_uris":{"android":"levelo://app?vid=4b704ec9-5c61-4206-bdd2-ad09f982787a","ios":"levelo://app?vid=4b704ec9-5c61-4206-bdd2-ad09f982787a"},"vehicle_type_id":"4","last_reported":1747490901,"current_range_meters":11600,"station_id":"ce4bhc92rcd13ifvqetg","pricing_plan_id":"cebpf4jnsgd1na2vs0mg"},{"bike_id":"a19548fd-8cd5-4b9c-959c-17f2b8104d88","system_id":"levelo_inurba_marseille","lat":43.26558,"lon":5.37283,"is_reserved":false,"is_disabled":false,"rental_uris":{"android":"levelo://app?vid=a19548fd-8cd5-4b9c-959c-17f2b8104d88","ios":"levelo://app?vid=a19548fd-8cd5-4b9c-959c-17f2b8104d88"},"vehicle_type_id":"4","last_reported":1747490901,"current_range_meters":11600,"station_id":"ce4bhg12rcd13ifvqf70","pricing_plan_id":"cebpf4jnsgd1na2vs0mg"},{"bike_id":"497cc2cf-fcc5-463f-8221-b4f7c50802f4","system_id":"levelo_inurba_marseille","lat":43.26194,"lon":5.37459,"is_reserved":false,"is_disabled":false,"rental_uris":{"android":"levelo://app?vid=497cc2cf-fcc5-463f-8221-b4f7c50802f4","ios":"levelo://app?vid=497cc2cf-fcc5-463f-8221-b4f7c50802f4"},"vehicle_type_id":"4","last_reported":1747490901,"current_range_meters":11600,"station_id":"ce4bhgp2rcd13ifvqfc0","pricing_plan_id":"cebpf4jnsgd1na2vs0mg"},{"bike_id":"9187c104-9b06-48af-9f58-758fc1dd1410","system_id":"levelo_inurba_marseille","lat":43.23197,"lon":5.3555,"is_reserved":false,"is_disabled":false,"rental_uris":{"android":"levelo://app?vid=9187c104-9b06-48af-9f58-758fc1dd1410","ios":"levelo://app?vid=9187c104-9b06-48af-9f58-758fc1dd1410"},"vehicle_type_id":"4","last_reported":1747490901,"current_range_meters":11600,"station_id":"ce4bhu92rcd13ifvqi70","pricing_plan_id":"cebpf4jnsgd1na2vs0mg"},{"bike_id":"83be837d-42e9-4d17-9ca1-8064b89c1538","system_id":"levelo_inurba_marseille","lat":43.211931,"lon":5.35074,"is_reserved":false,"is_disabled":false,"rental_uris":{"android":"levelo://app?vid=83be837d-42e9-4d17-9ca1-8064b89c1538","ios":"levelo://app?vid=83be837d-42e9-4d17-9ca1-8064b89c1538"},"vehicle_type_id":"4","last_reported":1747490901,"current_range_meters":11600,"station_id":"st_cvj6sg6p6f1abm77japg","pricing_plan_id":"cebpf4jnsgd1na2vs0mg"},{"bike_id":"4be95cc9-ae5f-48ba-b2b5-cca375b07da5","system_id":"levelo_inurba_marseille","lat":43.25105,"lon":5.40326,"is_reserved":false,"is_disabled":false,"rental_uris":{"android":"levelo://app?vid=4be95cc9-ae5f-48ba-b2b5-cca375b07da5","ios":"levelo://app?vid=4be95cc9-ae5f-48ba-b2b5-cca375b07da5"},"vehicle_type_id":"4","last_reported":1747490901,"current_range_meters":12000,"station_id":"","pricing_plan_id":"cebpf4jnsgd1na2vs0mg"},{"bike_id":"bfee2e7b-fcd6-4e7a-8177-7bd041434065","system_id":"levelo_inurba_marseille","lat":43.25018,"lon":5.38923,"is_reserved":false,"is_disabled":false,"rental_uris":{"android":"levelo://app?vid=bfee2e7b-fcd6-4e7a-8177-7bd041434065","ios":"levelo://app?vid=bfee2e7b-fcd6-4e7a-8177-7bd041434065"},"vehicle_type_id":"4","last_reported":1747490901,"current_range_meters":12000,"station_id":"ce4bhgp2rcd13ifvqfd0","pricing_plan_id":"cebpf4jnsgd1na2vs0mg"},{"bike_id":"d59933f8-89ff-47b5-925a-c85d2faacd78","system_id":"levelo_inurba_marseille","lat":43.25484,"lon":5.3767,"is_reserved":false,"is_disabled":false,"rental_uris":{"android":"levelo://app?vid=d59933f8-89ff-47b5-925a-c85d2faacd78","ios":"levelo://app?vid=d59933f8-89ff-47b5-925a-c85d2faacd78"},"vehicle_type_id":"4","last_reported":1747490901,"current_range_meters":12000,"station_id":"ce4bhh12rcd13ifvqff0","pricing_plan_id":"cebpf4jnsgd1na2vs0mg"},{"bike_id":"9b4c8ef0-5357-4e02-95b7-1f013185b7b6","system_id":"levelo_inurba_marseille","lat":43.267753,"lon":5.39415,"is_reserved":false,"is_disabled":false,"rental_uris":{"android":"levelo://app?vid=9b4c8ef0-5357-4e02-95b7-1f013185b7b6","ios":"levelo://app?vid=9b4c8ef0-5357-4e02-95b7-1f013185b7b6"},"vehicle_type_id":"4","last_reported":1747490901,"current_range_meters":12000,"station_id":"ce4bhh12rcd13ifvqfg0","pricing_plan_id":"cebpf4jnsgd1na2vs0mg"},{"bike_id":"81a9455a-3e2a-4c4a-be15-7a450dcad848","system_id":"levelo_inurba_marseille","lat":43.23961,"lon":5.36651,"is_reserved":false,"is_disabled":false,"rental_uris":{"android":"levelo://app?vid=81a9455a-3e2a-4c4a-be15-7a450dcad848","ios":"levelo://app?vid=81a9455a-3e2a-4c4a-be15-7a450dcad848"},"vehicle_type_id":"4","last_reported":1747490901,"current_range_meters":12000,"station_id":"ce4bhi12rcd13ifvqfp0","pricing_plan_id":"cebpf4jnsgd1na2vs0mg"},{"bike_id":"a4d7457e-a382-4ab7-9876-e9ba20692ec9","system_id":"levelo_inurba_marseille","lat":43.31993,"lon":5.38162,"is_reserved":false,"is_disabled":false,"rental_uris":{"android":"levelo://app?vid=a4d7457e-a382-4ab7-9876-e9ba20692ec9","ios":"levelo://app?vid=a4d7457e-a382-4ab7-9876-e9ba20692ec9"},"vehicle_type_id":"4","last_reported":1747490901,"current_range_meters":12000,"station_id":"ce4bhr12rcd13ifvqhpg","pricing_plan_id":"cebpf4jnsgd1na2vs0mg"},{"bike_id":"6e1bd625-3ec1-43df-9657-36d71ae09f8d","system_id":"levelo_inurba_marseille","lat":43.33771,"lon":5.37471,"is_reserved":false,"is_disabled":false,"rental_uris":{"android":"levelo://app?vid=6e1bd625-3ec1-43df-9657-36d71ae09f8d","ios":"levelo://app?vid=6e1bd625-3ec1-43df-9657-36d71ae09f8d"},"vehicle_type_id":"4","last_reported":1747490901,"current_range_meters":12400,"station_id":"","pricing_plan_id":"cebpf4jnsgd1na2vs0mg"},{"bike_id":"06638319-f0c2-41b0-8c39-d837f248effd","system_id":"levelo_inurba_marseille","lat":43.27619,"lon":5.36124,"is_reserved":false,"is_disabled":false,"rental_uris":{"android":"levelo://app?vid=06638319-f0c2-41b0-8c39-d837f248effd","ios":"levelo://app?vid=06638319-f0c2-41b0-8c39-d837f248effd"},"vehicle_type_id":"4","last_reported":1747490901,"current_range_meters":12400,"station_id":"ce4bgj92rcd13ifvqbe0","pricing_plan_id":"cebpf4jnsgd1na2vs0mg"},{"bike_id":"e5c67981-80c7-46d7-b8fa-f9012950408a","system_id":"levelo_inurba_marseille","lat":43.3118,"lon":5.38724,"is_reserved":false,"is_disabled":false,"rental_uris":{"android":"levelo://app?vid=e5c67981-80c7-46d7-b8fa-f9012950408a","ios":"levelo://app?vid=e5c67981-80c7-46d7-b8fa-f9012950408a"},"vehicle_type_id":"4","last_reported":1747490901,"current_range_meters":12400,"station_id":"ce4bgv12rcd13ifvqcp0","pricing_plan_id":"cebpf4jnsgd1na2vs0mg"},{"bike_id":"d1fbce3e-9375-4047-aa90-46f710c4520e","system_id":"levelo_inurba_marseille","lat":43.28938,"lon":5.39643,"is_reserved":false,"is_disabled":false,"rental_uris":{"android":"levelo://app?vid=d1fbce3e-9375-4047-aa90-46f710c4520e","ios":"levelo://app?vid=d1fbce3e-9375-4047-aa90-46f710c4520e"},"vehicle_type_id":"4","last_reported":1747490901,"current_range_meters":12400,"station_id":"ce4bh3h2rcd13ifvqdn0","pricing_plan_id":"cebpf4jnsgd1na2vs0mg"},{"bike_id":"eab4de2e-2604-496a-90e8-f0f9dbd0eea4","system_id":"levelo_inurba_marseille","lat":43.27376,"lon":5.36268,"is_reserved":false,"is_disabled":false,"rental_uris":{"android":"levelo://app?vid=eab4de2e-2604-496a-90e8-f0f9dbd0eea4","ios":"levelo://app?vid=eab4de2e-2604-496a-90e8-f0f9dbd0eea4"},"vehicle_type_id":"4","last_reported":1747490901,"current_range_meters":12400,"station_id":"ce4bhbh2rcd13ifvqeo0","pricing_plan_id":"cebpf4jnsgd1na2vs0mg"},{"bike_id":"b6ac1d3d-c642-4ed2-8f51-a4e83705ecf1","system_id":"levelo_inurba_marseille","lat":43.27375,"lon":5.36262,"is_reserved":false,"is_disabled":false,"rental_uris":{"android":"levelo://app?vid=b6ac1d3d-c642-4ed2-8f51-a4e83705ecf1","ios":"levelo://app?vid=b6ac1d3d-c642-4ed2-8f51-a4e83705ecf1"},"vehicle_type_id":"4","last_reported":1747490901,"current_range_meters":12400,"station_id":"ce4bhbh2rcd13ifvqeo0","pricing_plan_id":"cebpf4jnsgd1na2vs0mg"},{"bike_id":"08461517-c731-4536-b80b-c62ece1a8db0","system_id":"levelo_inurba_marseille","lat":43.260277,"lon":5.37539,"is_reserved":false,"is_disabled":false,"rental_uris":{"android":"levelo://app?vid=08461517-c731-4536-b80b-c62ece1a8db0","ios":"levelo://app?vid=08461517-c731-4536-b80b-c62ece1a8db0"},"vehicle_type_id":"4","last_reported":1747490901,"current_range_meters":12400,"station_id":"ce4bhgh2rcd13ifvqfa0","pricing_plan_id":"cebpf4jnsgd1na2vs0mg"},{"bike_id":"c950741a-3039-43da-8b90-e8b5103ffdad","system_id":"levelo_inurba_marseille","lat":43.25489,"lon":5.37656,"is_reserved":false,"is_disabled":false,"rental_uris":{"android":"levelo://app?vid=c950741a-3039-43da-8b90-e8b5103ffdad","ios":"levelo://app?vid=c950741a-3039-43da-8b90-e8b5103ffdad"},"vehicle_type_id":"4","last_reported":1747490901,"current_range_meters":12400,"station_id":"ce4bhh12rcd13ifvqff0","pricing_plan_id":"cebpf4jnsgd1na2vs0mg"},{"bike_id":"78e1f020-304c-41a6-b2d4-0db968399b60","system_id":"levelo_inurba_marseille","lat":43.23969,"lon":5.36632,"is_reserved":false,"is_disabled":false,"rental_uris":{"android":"levelo://app?vid=78e1f020-304c-41a6-b2d4-0db968399b60","ios":"levelo://app?vid=78e1f020-304c-41a6-b2d4-0db968399b60"},"vehicle_type_id":"4","last_reported":1747490901,"current_range_meters":12400,"station_id":"ce4bhi12rcd13ifvqfp0","pricing_plan_id":"cebpf4jnsgd1na2vs0mg"},{"bike_id":"ec04c931-cae2-4860-90a9-8cbe762d7716","system_id":"levelo_inurba_marseille","lat":43.23177,"lon":5.39989,"is_reserved":false,"is_disabled":false,"rental_uris":{"android":"levelo://app?vid=ec04c931-cae2-4860-90a9-8cbe762d7716","ios":"levelo://app?vid=ec04c931-cae2-4860-90a9-8cbe762d7716"},"vehicle_type_id":"4","last_reported":1747490901,"current_range_meters":12400,"station_id":"ce4bhn12rcd13ifvqgqg","pricing_plan_id":"cebpf4jnsgd1na2vs0mg"},{"bike_id":"46c4ba03-4382-41c0-9bae-f8b360ae58bf","system_id":"levelo_inurba_marseille","lat":43.32018,"lon":5.38132,"is_reserved":false,"is_disabled":false,"rental_uris":{"android":"levelo://app?vid=46c4ba03-4382-41c0-9bae-f8b360ae58bf","ios":"levelo://app?vid=46c4ba03-4382-41c0-9bae-f8b360ae58bf"},"vehicle_type_id":"4","last_reported":1747490901,"current_range_meters":12400,"station_id":"ce4bhr12rcd13ifvqhpg","pricing_plan_id":"cebpf4jnsgd1na2vs0mg"},{"bike_id":"85a7ebac-92fe-483d-908a-7562ece62996","system_id":"levelo_inurba_marseille","lat":43.3248,"lon":5.36563,"is_reserved":false,"is_disabled":false,"rental_uris":{"android":"levelo://app?vid=85a7ebac-92fe-483d-908a-7562ece62996","ios":"levelo://app?vid=85a7ebac-92fe-483d-908a-7562ece62996"},"vehicle_type_id":"4","last_reported":1747490901,"current_range_meters":12400,"station_id":"ce4bhs12rcd13ifvqhvg","pricing_plan_id":"cebpf4jnsgd1na2vs0mg"},{"bike_id":"7f198fbd-e0e0-425b-9796-9a2feab13d1b","system_id":"levelo_inurba_marseille","lat":43.21175,"lon":5.351,"is_reserved":false,"is_disabled":false,"rental_uris":{"android":"levelo://app?vid=7f198fbd-e0e0-425b-9796-9a2feab13d1b","ios":"levelo://app?vid=7f198fbd-e0e0-425b-9796-9a2feab13d1b"},"vehicle_type_id":"4","last_reported":1747490901,"current_range_meters":12400,"station_id":"st_cvj6sg6p6f1abm77japg","pricing_plan_id":"cebpf4jnsgd1na2vs0mg"},{"bike_id":"c17a8c01-49c6-4b17-abac-0c73461989a0","system_id":"levelo_inurba_marseille","lat":43.29967,"lon":5.38501,"is_reserved":false,"is_disabled":false,"rental_uris":{"android":"levelo://app?vid=c17a8c01-49c6-4b17-abac-0c73461989a0","ios":"levelo://app?vid=c17a8c01-49c6-4b17-abac-0c73461989a0"},"vehicle_type_id":"4","last_reported":1747490901,"current_range_meters":12800,"station_id":"ce4bgj92rcd13ifvqbd0","pricing_plan_id":"cebpf4jnsgd1na2vs0mg"},{"bike_id":"b5ab1b0c-2927-4f0b-891e-85c56c5b2523","system_id":"levelo_inurba_marseille","lat":43.28424,"lon":5.34985,"is_reserved":false,"is_disabled":false,"rental_uris":{"android":"levelo://app?vid=b5ab1b0c-2927-4f0b-891e-85c56c5b2523","ios":"levelo://app?vid=b5ab1b0c-2927-4f0b-891e-85c56c5b2523"},"vehicle_type_id":"4","last_reported":1747490901,"current_range_meters":12800,"station_id":"ce4bhbh2rcd13ifvqepg","pricing_plan_id":"cebpf4jnsgd1na2vs0mg"},{"bike_id":"f63203cc-3db4-4da9-b727-3ca3702bb76a","system_id":"levelo_inurba_marseille","lat":43.2603,"lon":5.37549,"is_reserved":false,"is_disabled":false,"rental_uris":{"android":"levelo://app?vid=f63203cc-3db4-4da9-b727-3ca3702bb76a","ios":"levelo://app?vid=f63203cc-3db4-4da9-b727-3ca3702bb76a"},"vehicle_type_id":"4","last_reported":1747490901,"current_range_meters":12800,"station_id":"ce4bhgh2rcd13ifvqfa0","pricing_plan_id":"cebpf4jnsgd1na2vs0mg"},{"bike_id":"f49247d0-4179-47c4-99eb-c08b5ba22d78","system_id":"levelo_inurba_marseille","lat":43.231923,"lon":5.355503,"is_reserved":false,"is_disabled":false,"rental_uris":{"android":"levelo://app?vid=f49247d0-4179-47c4-99eb-c08b5ba22d78","ios":"levelo://app?vid=f49247d0-4179-47c4-99eb-c08b5ba22d78"},"vehicle_type_id":"4","last_reported":1747490901,"current_range_meters":12800,"station_id":"ce4bhu92rcd13ifvqi70","pricing_plan_id":"cebpf4jnsgd1na2vs0mg"},{"bike_id":"353fc0e4-539f-4488-be2f-4554d7b26470","system_id":"levelo_inurba_marseille","lat":43.24169,"lon":5.36406,"is_reserved":false,"is_disabled":false,"rental_uris":{"android":"levelo://app?vid=353fc0e4-539f-4488-be2f-4554d7b26470","ios":"levelo://app?vid=353fc0e4-539f-4488-be2f-4554d7b26470"},"vehicle_type_id":"4","last_reported":1747490901,"current_range_meters":12800,"station_id":"cpo36qri1sfpv3e86is0","pricing_plan_id":"cebpf4jnsgd1na2vs0mg"},{"bike_id":"0a0fa568-f7d9-4be3-98a5-36c64d6ae6e0","system_id":"levelo_inurba_marseille","lat":43.21194,"lon":5.35067,"is_reserved":false,"is_disabled":false,"rental_uris":{"android":"levelo://app?vid=0a0fa568-f7d9-4be3-98a5-36c64d6ae6e0","ios":"levelo://app?vid=0a0fa568-f7d9-4be3-98a5-36c64d6ae6e0"},"vehicle_type_id":"4","last_reported":1747490901,"current_range_meters":12800,"station_id":"st_cvj6sg6p6f1abm77japg","pricing_plan_id":"cebpf4jnsgd1na2vs0mg"},{"bike_id":"14603e41-b2dd-4757-a53c-2e366aa4f983","system_id":"levelo_inurba_marseille","lat":43.26997,"lon":5.42819,"is_reserved":false,"is_disabled":false,"rental_uris":{"android":"levelo://app?vid=14603e41-b2dd-4757-a53c-2e366aa4f983","ios":"levelo://app?vid=14603e41-b2dd-4757-a53c-2e366aa4f983"},"vehicle_type_id":"4","last_reported":1747490901,"current_range_meters":13600,"station_id":"","pricing_plan_id":"cebpf4jnsgd1na2vs0mg"},{"bike_id":"489edee8-4cda-48e4-b99a-51c31ccac25e","system_id":"levelo_inurba_marseille","lat":43.27622,"lon":5.36123,"is_reserved":false,"is_disabled":false,"rental_uris":{"android":"levelo://app?vid=489edee8-4cda-48e4-b99a-51c31ccac25e","ios":"levelo://app?vid=489edee8-4cda-48e4-b99a-51c31ccac25e"},"vehicle_type_id":"4","last_reported":1747490901,"current_range_meters":13600,"station_id":"ce4bgj92rcd13ifvqbe0","pricing_plan_id":"cebpf4jnsgd1na2vs0mg"},{"bike_id":"a4e393aa-bd2c-4b76-ab71-125453ac0062","system_id":"levelo_inurba_marseille","lat":43.28239,"lon":5.35031,"is_reserved":false,"is_disabled":false,"rental_uris":{"android":"levelo://app?vid=a4e393aa-bd2c-4b76-ab71-125453ac0062","ios":"levelo://app?vid=a4e393aa-bd2c-4b76-ab71-125453ac0062"},"vehicle_type_id":"4","last_reported":1747490901,"current_range_meters":13600,"station_id":"ce4bhbp2rcd13ifvqerg","pricing_plan_id":"cebpf4jnsgd1na2vs0mg"},{"bike_id":"11242a49-094c-4921-8d1a-f7d9b7aafe4f","system_id":"levelo_inurba_marseille","lat":43.26195,"lon":5.37449,"is_reserved":false,"is_disabled":false,"rental_uris":{"android":"levelo://app?vid=11242a49-094c-4921-8d1a-f7d9b7aafe4f","ios":"levelo://app?vid=11242a49-094c-4921-8d1a-f7d9b7aafe4f"},"vehicle_type_id":"4","last_reported":1747490901,"current_range_meters":13600,"station_id":"ce4bhgp2rcd13ifvqfc0","pricing_plan_id":"cebpf4jnsgd1na2vs0mg"},{"bike_id":"7138af59-1380-475f-9add-da10355761e2","system_id":"levelo_inurba_marseille","lat":43.26952,"lon":5.40291,"is_reserved":false,"is_disabled":false,"rental_uris":{"android":"levelo://app?vid=7138af59-1380-475f-9add-da10355761e2","ios":"levelo://app?vid=7138af59-1380-475f-9add-da10355761e2"},"vehicle_type_id":"4","last_reported":1747490901,"current_range_meters":13600,"station_id":"cjm6bp8fraef2m0cb0m0","pricing_plan_id":"cebpf4jnsgd1na2vs0mg"},