{"last_updated":1773250831,"ttl":60,"version":"2.2","data":{"bikes":[{"bike_id":"08c06ba4-3c46-4749-a4fd-be6c2bcdb1d3","system_id":"levelo_inurba_marseille","lat":43.29741,"lon":5.37686,"is_reserved":false,"is_disabled":false,"rental_uris":{"android":"levelo://app?vid=08c06ba4-3c46-4749-a4fd-be6c2bcdb1d3","ios":"levelo://app?vid=08c06ba4-3c46-4749-a4fd-be6c2bcdb1d3"},"vehicle_type_id":"4","last_reported":1773250832,"current_range_meters":28800,"station_id":"ce4bgkh2rcd13ifvqbl0","pricing_plan_id":"cebpf4jnsgd1na2vs0mg"},{"bike_id":"6ef0846f-0583-4a8b-9c43-d04b06fbb87c","system_id":"levelo_inurba_marseille","lat":43.27185,"lon":5.40977,"is_reserved":false,"is_disabled":false,"rental_uris":{"android":"levelo://app?vid=6ef0846f-0583-4a8b-9c43-d04b06fbb87c","ios":"levelo://app?vid=6ef0846f-0583-4a8b-9c43-d04b06fbb87c"},"vehicle_type_id":"4","last_reported":1773250832,"current_range_meters":33600,"station_id":"ce4bhl12rcd13ifvqgf0","pricing_plan_id":"cebpf4jnsgd1na2vs0mg"},{"bike_id":"ead3593f-fa2e-4a2b-924f-b78da0a491ce","system_id":"levelo_inurba_marseille","lat":43.30153,"lon":5.37425,"is_reserved":false,"is_disabled":false,"rental_uris":{"android":"levelo://app?vid=ead3593f-fa2e-4a2b-924f-b78da0a491ce","ios":"levelo://app?vid=ead3593f-fa2e-4a2b-924f-b78da0a491ce"},"vehicle_type_id":"4","last_reported":1773250832,"current_range_meters":39200,"station_id":"ce4bgs92rcd13ifvqcc0","pricing_plan_id":"cebpf4jnsgd1na2vs0mg"},{"bike_id":"1e26b16f-b291-489b-9ccd-a0089685a899","system_id":"levelo_inurba_marseille","lat":43.30529,"lon":5.367,"is_reserved":false,"is_disabled":false,"rental_uris":{"android":"levelo://app?vid=1e26b16f-b291-489b-9ccd-a0089685a899","ios":"levelo://app?vid=1e26b16f-b291-489b-9ccd-a0089685a899"},"vehicle_type_id":"4","last_reported":1773250832,"current_range_meters":39200,"station_id":"ce4bgrp2rcd13ifvqc9g","pricing_plan_id":"cebpf4jnsgd1na2vs0mg"},{"bike_id":"30c4f22b-f532-425d-9f66-ac38104cea9d","system_id":"levelo_inurba_marseille","lat":43.28531,"lon":5.44113,"is_reserved":false,"is_disabled":false,"rental_uris":{"android":"levelo://app?vid=30c4f22b-f532-425d-9f66-ac38104cea9d","ios":"levelo://app?vid=30c4f22b-f532-425d-9f66-ac38104cea9d"},"vehicle_type_id":"4","last_reported":1773250832,"current_range_meters":16400,"station_id":"st_d3j3df2ikq2c7380ej80","pricing_plan_id":"cebpf4jnsgd1na2vs0mg"},{"bike_id":"3d3fa552-438c-43d1-ba2f-621213653149","system_id":"levelo_inurba_marseille","lat":43.28106,"lon":5.37833,"is_reserved":false,"is_disabled":true,"rental_uris":{"android":"levelo://app?vid=3d3fa552-438c-43d1-ba2f-621213653149","ios":"levelo://app?vid=3d3fa552-438c-43d1-ba2f-621213653149"},"vehicle_type_id":"4","last_reported":1773250832,"current_range_meters":2000,"station_id":"ce4bha12rcd13ifvqee0","pricing_plan_id":"cebpf4jnsgd1na2vs0mg"},{"bike_id":"4d2ed247-c300-416c-8c6f-d2ecc9f55d1f","system_id":"levelo_inurba_marseille","lat":43.2927,"lon":5.40114,"is_reserved":false,"is_disabled":false,"rental_uris":{"android":"levelo://app?vid=4d2ed247-c300-416c-8c6f-d2ecc9f55d1f","ios":"levelo://app?vid=4d2ed247-c300-416c-8c6f-d2ecc9f55d1f"},"vehicle_type_id":"4","last_reported":1773250832,"current_range_meters":11600,"station_id":"ce4bh312rcd13ifvqdk0","pricing_plan_id":"cebpf4jnsgd1na2vs0mg"},{"bike_id":"2dde38a6-7040-4591-b258-f00f6d384fc3","system_id":"levelo_inurba_marseille","lat":43.33019,"lon":5.39031,"is_reserved":false,"is_disabled":false,"rental_uris":{"android":"levelo://app?vid=2dde38a6-7040-4591-b258-f00f6d384fc3","ios":"levelo://app?vid=2dde38a6-7040-4591-b258-f00f6d384fc3"},"vehicle_type_id":"4","last_reported":1773250832,"current_range_meters":38400,"station_id":"ce4bhr92rcd13ifvqhrg","pricing_plan_id":"cebpf4jnsgd1na2vs0mg"},{"bike_id":"5061e64b-7a6f-416d-95f6-434ea56b6a99","system_id":"levelo_inurba_marseille","lat":43.3464,"lon":5.36722,"is_reserved":false,"is_disabled":false,"rental_uris":{"android":"levelo://app?vid=5061e64b-7a6f-416d-95f6-434ea56b6a99","ios":"levelo://app?vid=5061e64b-7a6f-416d-95f6-434ea56b6a99"},"vehicle_type_id":"4","last_reported":1773250832,"current_range_meters":28400,"station_id":"","pricing_plan_id":"cebpf4jnsgd1na2vs0mg"},{"bike_id":"07e66474-47e3-4e90-8266-52e167621e9d","system_id":"levelo_inurba_marseille","lat":43.2959,"lon":5.37497,"is_reserved":false,"is_disabled":false,"rental_uris":{"android":"levelo://app?vid=07e66474-47e3-4e90-8266-52e167621e9d","ios":"levelo://app?vid=07e66474-47e3-4e90-8266-52e167621e9d"},"vehicle_type_id":"4","last_reported":1773250832,"current_range_meters":26000,"station_id":"ce4bgh92rcd13ifvqb50","pricing_plan_id":"cebpf4jnsgd1na2vs0mg"},{"bike_id":"9faea34b-1c48-4a1b-8f51-2bafe5184a50","system_id":"levelo_inurba_marseille","lat":43.2848,"lon":5.48392,"is_reserved":false,"is_disabled":false,"rental_uris":{"android":"levelo://app?vid=9faea34b-1c48-4a1b-8f51-2bafe5184a50","ios":"levelo://app?vid=9faea34b-1c48-4a1b-8f51-2bafe5184a50"},"vehicle_type_id":"4","last_reported":1773250832,"current_range_meters":34000,"station_id":"st_d3svhcjqgbts73a3dn0g","pricing_plan_id":"cebpf4jnsgd1na2vs0mg"},{"bike_id":"f6aab1a6-bca6-41c1-89e6-0a624aa47df5","system_id":"levelo_inurba_marseille","lat":43.2946,"lon":5.37551,"is_reserved":false,"is_disabled":false,"rental_uris":{"android":"levelo://app?vid=f6aab1a6-bca6-41c1-89e6-0a624aa47df5","ios":"levelo://app?vid=f6aab1a6-bca6-41c1-89e6-0a624aa47df5"},"vehicle_type_id":"4","last_reported":1773250832,"current_range_meters":27600,"station_id":"","pricing_plan_id":"cebpf4jnsgd1na2vs0mg"},{"bike_id":"d427d34d-e739-4c0f-a843-74b85111544b","system_id":"levelo_inurba_marseille","lat":43.33112,"lon":5.37747,"is_reserved":false,"is_disabled":false,"rental_uris":{"android":"levelo://app?vid=d427d34d-e739-4c0f-a843-74b85111544b","ios":"levelo://app?vid=d427d34d-e739-4c0f-a843-74b85111544b"},"vehicle_type_id":"4","last_reported":1773250832,"current_range_meters":26800,"station_id":"","pricing_plan_id":"cebpf4jnsgd1na2vs0mg"},{"bike_id":"9315b6b2-babf-4aeb-b7cd-e35eb9bf53cd","system_id":"levelo_inurba_marseille","lat":43.28777,"lon":5.38285,"is_reserved":false,"is_disabled":true,"rental_uris":{"android":"levelo://app?vid=9315b6b2-babf-4aeb-b7cd-e35eb9bf53cd","ios":"levelo://app?vid=9315b6b2-babf-4aeb-b7cd-e35eb9bf53cd"},"vehicle_type_id":"4","last_reported":1773250832,"current_range_meters":38000,"station_id":"","pricing_plan_id":"cebpf4jnsgd1na2vs0mg"},{"bike_id":"6d331a83-28a7-4754-bf56-1eec6384f11e","system_id":"levelo_inurba_marseille","lat":43.31488,"lon":5.37286,"is_reserved":false,"is_disabled":true,"rental_uris":{"android":"levelo://app?vid=6d331a83-28a7-4754-bf56-1eec6384f11e","ios":"levelo://app?vid=6d331a83-28a7-4754-bf56-1eec6384f11e"},"vehicle_type_id":"4","last_reported":1773250832,"current_range_meters":8800,"station_id":"ce4bgt12rcd13ifvqcd0","pricing_plan_id":"cebpf4jnsgd1na2vs0mg"},{"bike_id":"c943c8f2-fd97-497f-b02c-47e60712859d","system_id":"levelo_inurba_marseille","lat":43.25833,"lon":5.39426,"is_reserved":false,"is_disabled":false,"rental_uris":{"android":"levelo://app?vid=c943c8f2-fd97-497f-b02c-47e60712859d","ios":"levelo://app?vid=c943c8f2-fd97-497f-b02c-47e60712859d"},"vehicle_type_id":"4","last_reported":1773250832,"current_range_meters":27200,"station_id":"ce4bhip2rcd13ifvqft0","pricing_plan_id":"cebpf4jnsgd1na2vs0mg"},{"bike_id":"56c68e25-4665-4a2d-a0c8-6e5c0e7586df","system_id":"levelo_inurba_marseille","lat":43.28458,"lon":5.35893,"is_reserved":false,"is_disabled":false,"rental_uris":{"android":"levelo://app?vid=56c68e25-4665-4a2d-a0c8-6e5c0e7586df","ios":"levelo://app?vid=56c68e25-4665-4a2d-a0c8-6e5c0e7586df"},"vehicle_type_id":"4","last_reported":1773250832,"current_range_meters":6000,"station_id":"ce4bhah2rcd13ifvqei0","pricing_plan_id":"cebpf4jnsgd1na2vs0mg"},{"bike_id":"5733ff54-5f03-4753-b15b-017df93b4cb5","system_id":"levelo_inurba_marseille","lat":43.29511,"lon":5.37519,"is_reserved":false,"is_disabled":false,"rental_uris":{"android":"levelo://app?vid=5733ff54-5f03-4753-b15b-017df93b4cb5","ios":"levelo://app?vid=5733ff54-5f03-4753-b15b-017df93b4cb5"},"vehicle_type_id":"4","last_reported":1773250832,"current_range_meters":22400,"station_id":"ce4bgkp2rcd13ifvqbmg","pricing_plan_id":"cebpf4jnsgd1na2vs0mg"},{"bike_id":"63aca6ef-d155-4097-bdd2-67385409e872","system_id":"levelo_inurba_marseille","lat":43.30081,"lon":5.3865,"is_reserved":false,"is_disabled":false,"rental_uris":{"android":"levelo://app?vid=63aca6ef-d155-4097-bdd2-67385409e872","ios":"levelo://app?vid=63aca6ef-d155-4097-bdd2-67385409e872"},"vehicle_type_id":"4","last_reported":1773250832,"current_range_meters":6800,"station_id":"","pricing_plan_id":"cebpf4jnsgd1na2vs0mg"},{"bike_id":"f826064c-304f-4095-bc93-f67872d16f03","system_id":"levelo_inurba_marseille","lat":43.30161,"lon":5.37408,"is_reserved":false,"is_disabled":false,"rental_uris":{"android":"levelo://app?vid=f826064c-304f-4095-bc93-f67872d16f03","ios":"levelo://app?vid=f826064c-304f-4095-bc93-f67872d16f03"},"vehicle_type_id":"4","last_reported":1773250832,"current_range_meters":20800,"station_id":"ce4bgs92rcd13ifvqcc0","pricing_plan_id":"cebpf4jnsgd1na2vs0mg"},{"bike_id":"fa2bfc5b-d0a9-491d-b131-7f7c24a2d253","system_id":"levelo_inurba_marseille","lat":43.30312,"lon":5.36914,"is_reserved":false,"is_disabled":false,"rental_uris":{"android":"levelo://app?vid=fa2bfc5b-d0a9-491d-b131-7f7c24a2d253","ios":"levelo://app?vid=fa2bfc5b-d0a9-491d-b131-7f7c24a2d253"},"vehicle_type_id":"4","last_reported":1773250832,"current_range_meters":36000,"station_id":"ce4bgqh2rcd13ifvqc5g","pricing_plan_id":"cebpf4jnsgd1na2vs0mg"},{"bike_id":"1ab6204b-9407-46ca-b709-90a1a75f2464","system_id":"levelo_inurba_marseille","lat":43.32551,"lon":5.41464,"is_reserved":false,"is_disabled":false,"rental_uris":{"android":"levelo://app?vid=1ab6204b-9407-46ca-b709-90a1a75f2464","ios":"levelo://app?vid=1ab6204b-9407-46ca-b709-90a1a75f2464"},"vehicle_type_id":"4","last_reported":1773250832,"current_range_meters":38800,"station_id":"ce4bhq12rcd13ifvqhhg","pricing_plan_id":"cebpf4jnsgd1na2vs0mg"},{"bike_id":"0e7b8461-2a54-484b-aa81-cbb0e83abf78","system_id":"levelo_inurba_marseille","lat":43.2959,"lon":5.38088,"is_reserved":false,"is_disabled":false,"rental_uris":{"android":"levelo://app?vid=0e7b8461-2a54-484b-aa81-cbb0e83abf78","ios":"levelo://app?vid=0e7b8461-2a54-484b-aa81-cbb0e83abf78"},"vehicle_type_id":"4","last_reported":1773250832,"current_range_meters":20000,"station_id":"ce4bgl12rcd13ifvqbo0","pricing_plan_id":"cebpf4jnsgd1na2vs0mg"},{"bike_id":"4fcad8f7-5602-43c6-a379-def3e1a2790e","system_id":"levelo_inurba_marseille","lat":43.27497,"lon":5.42407,"is_reserved":false,"is_disabled":false,"rental_uris":{"android":"levelo://app?vid=4fcad8f7-5602-43c6-a379-def3e1a2790e","ios":"levelo://app?vid=4fcad8f7-5602-43c6-a379-def3e1a2790e"},"vehicle_type_id":"4","last_reported":1773250832,"current_range_meters":22800,"station_id":"ce4bhn92rcd13ifvqgrg","pricing_plan_id":"cebpf4jnsgd1na2vs0mg"},{"bike_id":"0fac1ee2-7b00-493e-80ea-8b4c3c2d6dd6","system_id":"levelo_inurba_marseille","lat":43.27928,"lon":5.3958,"is_reserved":false,"is_disabled":false,"rental_uris":{"android":"levelo://app?vid=0fac1ee2-7b00-493e-80ea-8b4c3c2d6dd6","ios":"levelo://app?vid=0fac1ee2-7b00-493e-80ea-8b4c3c2d6dd6"},"vehicle_type_id":"4","last_reported":1773250832,"current_range_meters":36000,"station_id":"ce4bhf92rcd13ifvqf40","pricing_plan_id":"cebpf4jnsgd1na2vs0mg"},{"bike_id":"7da4f10e-fbdd-43bd-bf02-4f219ac9760b","system_id":"levelo_inurba_marseille","lat":43.3035,"lon":5.41872,"is_reserved":false,"is_disabled":false,"rental_uris":{"android":"levelo://app?vid=7da4f10e-fbdd-43bd-bf02-4f219ac9760b","ios":"levelo://app?vid=7da4f10e-fbdd-43bd-bf02-4f219ac9760b"},"vehicle_type_id":"4","last_reported":1773250832,"current_range_meters":16400,"station_id":"ce4bhop2rcd13ifvqh7g","pricing_plan_id":"cebpf4jnsgd1na2vs0mg"},{"bike_id":"f18a97ed-e43a-4a4a-9a1c-f27f3fa368f5","system_id":"levelo_inurba_marseille","lat":43.27977,"lon":5.41057,"is_reserved":false,"is_disabled":false,"rental_uris":{"android":"levelo://app?vid=f18a97ed-e43a-4a4a-9a1c-f27f3fa368f5","ios":"levelo://app?vid=f18a97ed-e43a-4a4a-9a1c-f27f3fa368f5"},"vehicle_type_id":"4","last_reported":1773250832,"current_range_meters":20000,"station_id":"ce4bhnp2rcd13ifvqh0g","pricing_plan_id":"cebpf4jnsgd1na2vs0mg"},{"bike_id":"dff113db-6a7a-461e-b72f-90f51c696866","system_id":"levelo_inurba_marseille","lat":43.31084,"lon":5.42428,"is_reserved":false,"is_disabled":false,"rental_uris":{"android":"levelo://app?vid=dff113db-6a7a-461e-b72f-90f51c696866","ios":"levelo://app?vid=dff113db-6a7a-461e-b72f-90f51c696866"},"vehicle_type_id":"4","last_reported":1773250832,"current_range_meters":20800,"station_id":"ce4bhp92rcd13ifvqhag","pricing_plan_id":"cebpf4jnsgd1na2vs0mg"},{"bike_id":"2910c25c-8e17-4198-83e3-9b82182f5216","system_id":"levelo_inurba_marseille","lat":43.24166,"lon":5.36381,"is_reserved":false,"is_disabled":false,"rental_uris":{"android":"levelo://app?vid=2910c25c-8e17-4198-83e3-9b82182f5216","ios":"levelo://app?vid=2910c25c-8e17-4198-83e3-9b82182f5216"},"vehicle_type_id":"4","last_reported":1773250832,"current_range_meters":32400,"station_id":"cpo36qri1sfpv3e86is0","pricing_plan_id":"cebpf4jnsgd1na2vs0mg"},{"bike_id":"ac746e8a-92a9-430e-b38c-333443c992c3","system_id":"levelo_inurba_marseille","lat":43.24167,"lon":5.36392,"is_reserved":false,"is_disabled":false,"rental_uris":{"android":"levelo://app?vid=ac746e8a-92a9-430e-b38c-333443c992c3","ios":"levelo://app?vid=ac746e8a-92a9-430e-b38c-333443c992c3"},"vehicle_type_id":"4","last_reported":1773250832,"current_range_meters":8800,"station_id":"cpo36qri1sfpv3e86is0","pricing_plan_id":"cebpf4jnsgd1na2vs0mg"},{"bike_id":"22048dba-791d-40fe-8f4b-149144b0d986","system_id":"levelo_inurba_marseille","lat":43.29325,"lon":5.37144,"is_reserved":false,"is_disabled":false,"rental_uris":{"android":"levelo://app?vid=22048dba-791d-40fe-8f4b-149144b0d986","ios":"levelo://app?vid=22048dba-791d-40fe-8f4b-149144b0d986"},"vehicle_type_id":"4","last_reported":1773250832,"current_range_meters":22000,"station_id":"ce4bgh92rcd13ifvqb40","pricing_plan_id":"cebpf4jnsgd1na2vs0mg"},{"bike_id":"78bd55a2-5ccb-407a-9deb-226ba518ca56","system_id":"levelo_inurba_marseille","lat":43.30538,"lon":5.36692,"is_reserved":false,"is_disabled":false,"rental_uris":{"android":"levelo://app?vid=78bd55a2-5ccb-407a-9deb-226ba518ca56","ios":"levelo://app?vid=78bd55a2-5ccb-407a-9deb-226ba518ca56"},"vehicle_type_id":"4","last_reported":1773250832,"current_range_meters":39200,"station_id":"ce4bgrp2rcd13ifvqc9g","pricing_plan_id":"cebpf4jnsgd1na2vs0mg"},{"bike_id":"1e3a9e2f-d6c4-4a0f-a289-0879100ac223","system_id":"levelo_inurba_marseille","lat":43.26511,"lon":5.3956,"is_reserved":false,"is_disabled":false,"rental_uris":{"android":"levelo://app?vid=1e3a9e2f-d6c4-4a0f-a289-0879100ac223","ios":"levelo://app?vid=1e3a9e2f-d6c4-4a0f-a289-0879100ac223"},"vehicle_type_id":"4","last_reported":1773250832,"current_range_meters":40000,"station_id":"ce4bhi12rcd13ifvqfq0","pricing_plan_id":"cebpf4jnsgd1na2vs0mg"},{"bike_id":"c2441c59-7373-49a0-a4bd-68048c9164f3","system_id":"levelo_inurba_marseille","lat":43.25337,"lon":5.42184,"is_reserved":false,"is_disabled":false,"rental_uris":{"android":"levelo://app?vid=c2441c59-7373-49a0-a4bd-68048c9164f3","ios":"levelo://app?vid=c2441c59-7373-49a0-a4bd-68048c9164f3"},"vehicle_type_id":"4","last_reported":1773250832,"current_range_meters":30800,"station_id":"st_d2m65c5bi1j21697t3ng","pricing_plan_id":"cebpf4jnsgd1na2vs0mg"},{"bike_id":"0f49ad46-e107-4af2-843b-e95ce495966d","system_id":"levelo_inurba_marseille","lat":43.26207,"lon":5.37441,"is_reserved":false,"is_disabled":false,"rental_uris":{"android":"levelo://app?vid=0f49ad46-e107-4af2-843b-e95ce495966d","ios":"levelo://app?vid=0f49ad46-e107-4af2-843b-e95ce495966d"},"vehicle_type_id":"4","last_reported":1773250832,"current_range_meters":39200,"station_id":"ce4bhgp2rcd13ifvqfc0","pricing_plan_id":"cebpf4jnsgd1na2vs0mg"},{"bike_id":"549f4b61-5c5e-41ca-8542-d71441c3bf87","system_id":"levelo_inurba_marseille","lat":43.2705,"lon":5.40261,"is_reserved":false,"is_disabled":false,"rental_uris":{"android":"levelo://app?vid=549f4b61-5c5e-41ca-8542-d71441c3bf87","ios":"levelo://app?vid=549f4b61-5c5e-41ca-8542-d71441c3bf87"},"vehicle_type_id":"4","last_reported":1773250832,"current_range_meters":3600,"station_id":"ce4bhk92rcd13ifvqgc0","pricing_plan_id":"cebpf4jnsgd1na2vs0mg"},{"bike_id":"9885b561-3c5d-4024-b1a5-0a291b22cfd8","system_id":"levelo_inurba_marseille","lat":43.29412,"lon":5.37437,"is_reserved":false,"is_disabled":false,"rental_uris":{"android":"levelo://app?vid=9885b561-3c5d-4024-b1a5-0a291b22cfd8","ios":"levelo://app?vid=9885b561-3c5d-4024-b1a5-0a291b22cfd8"},"vehicle_type_id":"4","last_reported":1773250832,"current_range_meters":8400,"station_id":"","pricing_plan_id":"cebpf4jnsgd1na2vs0mg"},{"bike_id":"613640ce-8802-4696-849c-440428fe01db","system_id":"levelo_inurba_marseille","lat":43.29572,"lon":5.39992,"is_reserved":false,"is_disabled":false,"rental_uris":{"android":"levelo://app?vid=613640ce-8802-4696-849c-440428fe01db","ios":"levelo://app?vid=613640ce-8802-4696-849c-440428fe01db"},"vehicle_type_id":"4","last_reported":1773250832,"current_range_meters":30800,"station_id":"ce4bh312rcd13ifvqdj0","pricing_plan_id":"cebpf4jnsgd1na2vs0mg"},{"bike_id":"17ce7070-d813-4eaf-a544-6259968aa271","system_id":"levelo_inurba_marseille","lat":43.31126,"lon":5.36947,"is_reserved":false,"is_disabled":false,"rental_uris":{"android":"levelo://app?vid=17ce7070-d813-4eaf-a544-6259968aa271","ios":"levelo://app?vid=17ce7070-d813-4eaf-a544-6259968aa271"},"vehicle_type_id":"4","last_reported":1773250832,"current_range_meters":8400,"station_id":"","pricing_plan_id":"cebpf4jnsgd1na2vs0mg"},{"bike_id":"149775d8-c772-45f9-afbd-6e4a652723d7","system_id":"levelo_inurba_marseille","lat":43.337444,"lon":5.374475,"is_reserved":false,"is_disabled":true,"rental_uris":{"android":"levelo://app?vid=149775d8-c772-45f9-afbd-6e4a652723d7","ios":"levelo://app?vid=149775d8-c772-45f9-afbd-6e4a652723d7"},"vehicle_type_id":"4","last_reported":1773250832,"current_range_meters":4800,"station_id":"","pricing_plan_id":"cebpf4jnsgd1na2vs0mg"},{"bike_id":"84edac93-97f0-4f16-980c-7e1b057bc44a","system_id":"levelo_inurba_marseille","lat":43.25822,"lon":5.39441,"is_reserved":false,"is_disabled":false,"rental_uris":{"android":"levelo://app?vid=84edac93-97f0-4f16-980c-7e1b057bc44a","ios":"levelo://app?vid=84edac93-97f0-4f16-980c-7e1b057bc44a"},"vehicle_type_id":"4","last_reported":1773250832,"current_range_meters":25600,"station_id":"ce4bhip2rcd13ifvqft0","pricing_plan_id":"cebpf4jnsgd1na2vs0mg"},{"bike_id":"16ced00d-b75b-480f-bfe3-587817c52078","system_id":"levelo_inurba_marseille","lat":43.24648,"lon":5.38915,"is_reserved":false,"is_disabled":false,"rental_uris":{"android":"levelo://app?vid=16ced00d-b75b-480f-bfe3-587817c52078","ios":"levelo://app?vid=16ced00d-b75b-480f-bfe3-587817c52078"},"vehicle_type_id":"4","last_reported":1773250832,"current_range_meters":38000,"station_id":"ce4bhg12rcd13ifvqf60","pricing_plan_id":"cebpf4jnsgd1na2vs0mg"},{"bike_id":"095740f3-4e12-4adb-8a1a-03aa33c9cd08","system_id":"levelo_inurba_marseille","lat":43.26573,"lon":5.37275,"is_reserved":false,"is_disabled":false,"rental_uris":{"android":"levelo://app?vid=095740f3-4e12-4adb-8a1a-03aa33c9cd08","ios":"levelo://app?vid=095740f3-4e12-4adb-8a1a-03aa33c9cd08"},"vehicle_type_id":"4","last_reported":1773250832,"current_range_meters":12400,"station_id":"ce4bhg12rcd13ifvqf70","pricing_plan_id":"cebpf4jnsgd1na2vs0mg"},{"bike_id":"566d1d1a-0852-4e0d-907b-e1334e0d6bf9","system_id":"levelo_inurba_marseille","lat":43.23779,"lon":5.36619,"is_reserved":false,"is_disabled":false,"rental_uris":{"android":"levelo://app?vid=566d1d1a-0852-4e0d-907b-e1334e0d6bf9","ios":"levelo://app?vid=566d1d1a-0852-4e0d-907b-e1334e0d6bf9"},"vehicle_type_id":"4","last_reported":1773250832,"current_range_meters":39200,"station_id":"st_d3nk18o9ro0c73en2l3g","pricing_plan_id":"cebpf4jnsgd1na2vs0mg"},{"bike_id":"ba4d6291-f191-48b7-a6a8-ceee01b66f96","system_id":"levelo_inurba_marseille","lat":43.28119,"lon":5.38227,"is_reserved":false,"is_disabled":false,"rental_uris":{"android":"levelo://app?vid=ba4d6291-f191-48b7-a6a8-ceee01b66f96","ios":"levelo://app?vid=ba4d6291-f191-48b7-a6a8-ceee01b66f96"},"vehicle_type_id":"4","last_reported":1773250832,"current_range_meters":20400,"station_id":"","pricing_plan_id":"cebpf4jnsgd1na2vs0mg"},{"bike_id":"61d0a2e2-4f7c-4687-aaa4-fbea6d746fa1","system_id":"levelo_inurba_marseille","lat":43.26075,"lon":5.39384,"is_reserved":false,"is_disabled":false,"rental_uris":{"android":"levelo://app?vid=61d0a2e2-4f7c-4687-aaa4-fbea6d746fa1","ios":"levelo://app?vid=61d0a2e2-4f7c-4687-aaa4-fbea6d746fa1"},"vehicle_type_id":"4","last_reported":1773250832,"current_range_meters":38400,"station_id":"ce4bhh92rcd13ifvqfj0","pricing_plan_id":"cebpf4jnsgd1na2vs0mg"},{"bike_id":"957ac0aa-86d5-416a-a824-a0cef53797bf","system_id":"levelo_inurba_marseille","lat":43.29693,"lon":5.37717,"is_reserved":false,"is_disabled":false,"rental_uris":{"android":"levelo://app?vid=957ac0aa-86d5-416a-a824-a0cef53797bf","ios":"levelo://app?vid=957ac0aa-86d5-416a-a824-a0cef53797bf"},"vehicle_type_id":"4","last_reported":1773250832,"current_range_meters":12000,"station_id":"ce4bgkh2rcd13ifvqbl0","pricing_plan_id":"cebpf4jnsgd1na2vs0mg"},{"bike_id":"02ffd4f8-78d0-4f83-92f5-2d0d7babe79f","system_id":"levelo_inurba_marseille","lat":43.30649,"lon":5.40095,"is_reserved":false,"is_disabled":false,"rental_uris":{"android":"levelo://app?vid=02ffd4f8-78d0-4f83-92f5-2d0d7babe79f","ios":"levelo://app?vid=02ffd4f8-78d0-4f83-92f5-2d0d7babe79f"},"vehicle_type_id":"4","last_reported":1773250832,"current_range_meters":5600,"station_id":"ce4bh112rcd13ifvqda0","pricing_plan_id":"cebpf4jnsgd1na2vs0mg"},{"bike_id":"1c573354-cf53-44d3-9111-eb37080df88e","system_id":"levelo_inurba_marseille","lat":43.31569,"lon":5.37392,"is_reserved":false,"is_disabled":false,"rental_uris":{"android":"levelo://app?vid=1c573354-cf53-44d3-9111-eb37080df88e","ios":"levelo://app?vid=1c573354-cf53-44d3-9111-eb37080df88e"},"vehicle_type_id":"4","last_reported":1773250832,"current_range_meters":16800,"station_id":"","pricing_plan_id":"cebpf4jnsgd1na2vs0mg"},{"bike_id":"dc45b86e-506c-47c5-a1d4-fc78178547a2","system_id":"levelo_inurba_marseille","lat":43.2734,"lon":5.39068,"is_reserved":false,"is_disabled":false,"rental_uris":{"android":"levelo://app?vid=dc45b86e-506c-47c5-a1d4-fc78178547a2","ios":"levelo://app?vid=dc45b86e-506c-47c5-a1d4-fc78178547a2"},"vehicle_type_id":"4","last_reported":1773250832,"current_range_meters":38400,"station_id":"ce4bhgp2rcd13ifvqfe0","pricing_plan_id":"cebpf4jnsgd1na2vs0mg"},{"bike_id":"a005bf93-ddd8-4c1f-8ed3-709190667caf","system_id":"levelo_inurba_marseille","lat":43.27568,"lon":5.38401,"is_reserved":false,"is_disabled":false,"rental_uris":{"android":"levelo://app?vid=a005bf93-ddd8-4c1f-8ed3-709190667caf","ios":"levelo://app?vid=a005bf93-ddd8-4c1f-8ed3-709190667caf"},"vehicle_type_id":"4","last_reported":1773250832,"current_range_meters":16000,"station_id":"ce4bhh92rcd13ifvqfi0","pricing_plan_id":"cebpf4jnsgd1na2vs0mg"},{"bike_id":"969b32d1-6601-49f4-ad5b-5870b4d098ed","system_id":"levelo_inurba_marseille","lat":43.25573,"lon":5.38249,"is_reserved":false,"is_disabled":false,"rental_uris":{"android":"levelo://app?vid=969b32d1-6601-49f4-ad5b-5870b4d098ed","ios":"levelo://app?vid=969b32d1-6601-49f4-ad5b-5870b4d098ed"},"vehicle_type_id":"4","last_reported":1773250832,"current_range_meters":25200,"station_id":"ce4bhih2rcd13ifvqfs0","pricing_plan_id":"cebpf4jnsgd1na2vs0mg"},{"bike_id":"c33732c3-34b3-43cf-9550-258c10091c04","system_id":"levelo_inurba_marseille","lat":43.31016,"lon":5.38036,"is_reserved":false,"is_disabled":false,"rental_uris":{"android":"levelo://app?vid=c33732c3-34b3-43cf-9550-258c10091c04","ios":"levelo://app?vid=c33732c3-34b3-43cf-9550-258c10091c04"},"vehicle_type_id":"4","last_reported":1773250832,"current_range_meters":38000,"station_id":"","pricing_plan_id":"cebpf4jnsgd1na2vs0mg"},{"bike_id":"a7c83a60-ebd4-41a2-9a2f-67597f43b4da","system_id":"levelo_inurba_marseille","lat":43.29977,"lon":5.38489,"is_reserved":false,"is_disabled":false,"rental_uris":{"android":"levelo://app?vid=a7c83a60-ebd4-41a2-9a2f-67597f43b4da","ios":"levelo://app?vid=a7c83a60-ebd4-41a2-9a2f-67597f43b4da"},"vehicle_type_id":"4","last_reported":1773250832,"current_range_meters":17200,"station_id":"ce4bgj92rcd13ifvqbd0","pricing_plan_id":"cebpf4jnsgd1na2vs0mg"},{"bike_id":"df10ebba-30e6-4d3c-b7e0-ba8c3bbe070f","system_id":"levelo_inurba_marseille","lat":43.29572,"lon":5.37506,"is_reserved":false,"is_disabled":false,"rental_uris":{"android":"levelo://app?vid=df10ebba-30e6-4d3c-b7e0-ba8c3bbe070f","ios":"levelo://app?vid=df10ebba-30e6-4d3c-b7e0-ba8c3bbe070f"},"vehicle_type_id":"4","last_reported":1773250832,"current_range_meters":28400,"station_id":"ce4bgh92rcd13ifvqb50","pricing_plan_id":"cebpf4jnsgd1na2vs0mg"},{"bike_id":"c0f5bd4a-cbc2-427a-92f0-0be45de4abfd","system_id":"levelo_inurba_marseille","lat":43.28532,"lon":5.44124,"is_reserved":false,"is_disabled":false,"rental_uris":{"android":"levelo://app?vid=c0f5bd4a-cbc2-427a-92f0-0be45de4abfd","ios":"levelo://app?vid=c0f5bd4a-cbc2-427a-92f0-0be45de4abfd"},"vehicle_type_id":"4","last_reported":1773250832,"current_range_meters":4800,"station_id":"st_d3j3df2ikq2c7380ej80","pricing_plan_id":"cebpf4jnsgd1na2vs0mg"},{"bike_id":"98a69b82-3426-4662-b314-8ddb62a05de5","system_id":"levelo_inurba_marseille","lat":43.30067,"lon":5.43727,"is_reserved":false,"is_disabled":false,"rental_uris":{"android":"levelo://app?vid=98a69b82-3426-4662-b314-8ddb62a05de5","ios":"levelo://app?vid=98a69b82-3426-4662-b314-8ddb62a05de5"},"vehicle_type_id":"4","last_reported":1773250832,"current_range_meters":27600,"station_id":"","pricing_plan_id":"cebpf4jnsgd1na2vs0mg"},{"bike_id":"c6c0ebab-0295-4a0b-844e-e34d619beca3","system_id":"levelo_inurba_marseille","lat":43.23184,"lon":5.39989,"is_reserved":false,"is_disabled":false,"rental_uris":{"android":"levelo://app?vid=c6c0ebab-0295-4a0b-844e-e34d619beca3","ios":"levelo://app?vid=c6c0ebab-0295-4a0b-844e-e34d619beca3"},"vehicle_type_id":"4","last_reported":1773250832,"current_range_meters":36800,"station_id":"ce4bhn12rcd13ifvqgqg","pricing_plan_id":"cebpf4jnsgd1na2vs0mg"},{"bike_id":"86316f23-48af-47c9-9efb-f042c127ce18","system_id":"levelo_inurba_marseille","lat":43.30199,"lon":5.39466,"is_reserved":false,"is_disabled":false,"rental_uris":{"android":"levelo://app?vid=86316f23-48af-47c9-9efb-f042c127ce18","ios":"levelo://app?vid=86316f23-48af-47c9-9efb-f042c127ce18"},"vehicle_type_id":"4","last_reported":1773250832,"current_range_meters":4800,"station_id":"ce4bh0p2rcd13ifvqd70","pricing_plan_id":"cebpf4jnsgd1na2vs0mg"},{"bike_id":"a5eb7e2e-f45f-42c7-8ba3-bf76c2472338","system_id":"levelo_inurba_marseille","lat":43.30207,"lon":5.39438,"is_reserved":false,"is_disabled":false,"rental_uris":{"android":"levelo://app?vid=a5eb7e2e-f45f-42c7-8ba3-bf76c2472338","ios":"levelo://app?vid=a5eb7e2e-f45f-42c7-8ba3-bf76c2472338"},"vehicle_type_id":"4","last_reported":1773250832,"current_range_meters":23200,"station_id":"ce4bh0p2rcd13ifvqd70","pricing_plan_id":"cebpf4jnsgd1na2vs0mg"},{"bike_id":"67708bcf-f7f4-4c34-8ed2-51500c6e9c55","system_id":"levelo_inurba_marseille","lat":43.30554,"lon":5.36614,"is_reserved":false,"is_disabled":false,"rental_uris":{"android":"levelo://app?vid=67708bcf-f7f4-4c34-8ed2-51500c6e9c55","ios":"levelo://app?vid=67708bcf-f7f4-4c34-8ed2-51500c6e9c55"},"vehicle_type_id":"4","last_reported":1773250832,"current_range_meters":38000,"station_id":"ce4bgs12rcd13ifvqcag","pricing_plan_id":"cebpf4jnsgd1na2vs0mg"},{"bike_id":"7e1abbe1-756e-46e7-ba29-550f152b4425","system_id":"levelo_inurba_marseille","lat":43.29323,"lon":5.37203,"is_reserved":false,"is_disabled":true,"rental_uris":{"android":"levelo://app?vid=7e1abbe1-756e-46e7-ba29-550f152b4425","ios":"levelo://app?vid=7e1abbe1-756e-46e7-ba29-550f152b4425"},"vehicle_type_id":"4","last_reported":1773250832,"current_range_meters":39200,"station_id":"ce4bgh92rcd13ifvqb40","pricing_plan_id":"cebpf4jnsgd1na2vs0mg"},{"bike_id":"0343bfd6-1a51-414d-8d46-212bf15463cf","system_id":"levelo_inurba_marseille","lat":43.29626,"lon":5.37734,"is_reserved":false,"is_disabled":false,"rental_uris":{"android":"levelo://app?vid=0343bfd6-1a51-414d-8d46-212bf15463cf","ios":"levelo://app?vid=0343bfd6-1a51-414d-8d46-212bf15463cf"},"vehicle_type_id":"4","last_reported":1773250832,"current_range_meters":30000,"station_id":"ce4bgi92rcd13ifvqb90","pricing_plan_id":"cebpf4jnsgd1na2vs0mg"},{"bike_id":"b863c803-3ee8-4ce1-9a4d-334b053d3333","system_id":"levelo_inurba_marseille","lat":43.30809,"lon":5.3814,"is_reserved":false,"is_disabled":false,"rental_uris":{"android":"levelo://app?vid=b863c803-3ee8-4ce1-9a4d-334b053d3333","ios":"levelo://app?vid=b863c803-3ee8-4ce1-9a4d-334b053d3333"},"vehicle_type_id":"4","last_reported":1773250832,"current_range_meters":40000,"station_id":"ce4bgt12rcd13ifvqce0","pricing_plan_id":"cebpf4jnsgd1na2vs0mg"},{"bike_id":"9742faba-d8f0-4e78-84a4-7b1f0d90d2b9","system_id":"levelo_inurba_marseille","lat":43.28419,"lon":5.34984,"is_reserved":false,"is_disabled":true,"rental_uris":{"android":"levelo://app?vid=9742faba-d8f0-4e78-84a4-7b1f0d90d2b9","ios":"levelo://app?vid=9742faba-d8f0-4e78-84a4-7b1f0d90d2b9"},"vehicle_type_id":"4","last_reported":1773250832,"current_range_meters":23200,"station_id":"ce4bhbh2rcd13ifvqepg","pricing_plan_id":"cebpf4jnsgd1na2vs0mg"},{"bike_id":"3d7b1bec-2a06-47da-a7d0-796cda99d14f","system_id":"levelo_inurba_marseille","lat":43.27069,"lon":5.38314,"is_reserved":false,"is_disabled":false,"rental_uris":{"android":"levelo://app?vid=3d7b1bec-2a06-47da-a7d0-796cda99d14f","ios":"levelo://app?vid=3d7b1bec-2a06-47da-a7d0-796cda99d14f"},"vehicle_type_id":"4","last_reported":1773250832,"current_range_meters":19200,"station_id":"st_d3n2fo6cfp8s73cte1j0","pricing_plan_id":"cebpf4jnsgd1na2vs0mg"},{"bike_id":"e6b20c19-514f-40dc-9b48-4675190607e5","system_id":"levelo_inurba_marseille","lat":43.29265,"lon":5.36841,"is_reserved":false,"is_disabled":false,"rental_uris":{"android":"levelo://app?vid=e6b20c19-514f-40dc-9b48-4675190607e5","ios":"levelo://app?vid=e6b20c19-514f-40dc-9b48-4675190607e5"},"vehicle_type_id":"4","last_reported":1773250832,"current_range_meters":32400,"station_id":"ce4bhbp2rcd13ifvqesg","pricing_plan_id":"cebpf4jnsgd1na2vs0mg"},{"bike_id":"c570e558-cc0f-4e56-99a3-7b52b05122d9","system_id":"levelo_inurba_marseille","lat":43.29614,"lon":5.37721,"is_reserved":false,"is_disabled":false,"rental_uris":{"android":"levelo://app?vid=c570e558-cc0f-4e56-99a3-7b52b05122d9","ios":"levelo://app?vid=c570e558-cc0f-4e56-99a3-7b52b05122d9"},"vehicle_type_id":"4","last_reported":1773250832,"current_range_meters":17600,"station_id":"ce4bgi92rcd13ifvqb90","pricing_plan_id":"cebpf4jnsgd1na2vs0mg"},{"bike_id":"988db3b8-861f-418c-a7ec-7ae78131696e","system_id":"levelo_inurba_marseille","lat":43.24676,"lon":5.43352,"is_reserved":false,"is_disabled":false,"rental_uris":{"android":"levelo://app?vid=988db3b8-861f-418c-a7ec-7ae78131696e","ios":"levelo://app?vid=988db3b8-861f-418c-a7ec-7ae78131696e"},"vehicle_type_id":"4","last_reported":1773250832,"current_range_meters":28800,"station_id":"","pricing_plan_id":"cebpf4jnsgd1na2vs0mg"},{"bike_id":"c3843561-2c67-41fb-a1f7-6df5ffc75638","system_id":"levelo_inurba_marseille","lat":43.29033,"lon":5.38631,"is_reserved":false,"is_disabled":false,"rental_uris":{"android":"levelo://app?vid=c3843561-2c67-41fb-a1f7-6df5ffc75638","ios":"levelo://app?vid=c3843561-2c67-41fb-a1f7-6df5ffc75638"},"vehicle_type_id":"4","last_reported":1773250832,"current_range_meters":39200,"station_id":"ce4bh4p2rcd13ifvqe0g","pricing_plan_id":"cebpf4jnsgd1na2vs0mg"},{"bike_id":"dd854777-f378-4132-94e6-63027cc18b82","system_id":"levelo_inurba_marseille","lat":43.29727,"lon":5.41059,"is_reserved":false,"is_disabled":false,"rental_uris":{"android":"levelo://app?vid=dd854777-f378-4132-94e6-63027cc18b82","ios":"levelo://app?vid=dd854777-f378-4132-94e6-63027cc18b82"},"vehicle_type_id":"4","last_reported":1773250832,"current_range_meters":28000,"station_id":"","pricing_plan_id":"cebpf4jnsgd1na2vs0mg"},{"bike_id":"f1cad9aa-705a-437f-9b01-fe99d50698e0","system_id":"levelo_inurba_marseille","lat":43.30417,"lon":5.41301,"is_reserved":false,"is_disabled":false,"rental_uris":{"android":"levelo://app?vid=f1cad9aa-705a-437f-9b01-fe99d50698e0","ios":"levelo://app?vid=f1cad9aa-705a-437f-9b01-fe99d50698e0"},"vehicle_type_id":"4","last_reported":1773250832,"current_range_meters":8800,"station_id":"ce4bhop2rcd13ifvqh8g","pricing_plan_id":"cebpf4jnsgd1na2vs0mg"},{"bike_id":"fca48394-ecb7-48fe-a623-7858b59241b1","system_id":"levelo_inurba_marseille","lat":43.27208,"lon":5.39104,"is_reserved":false,"is_disabled":false,"rental_uris":{"android":"levelo://app?vid=fca48394-ecb7-48fe-a623-7858b59241b1","ios":"levelo://app?vid=fca48394-ecb7-48fe-a623-7858b59241b1"},"vehicle_type_id":"4","last_reported":1773250832,"current_range_meters":29600,"station_id":"","pricing_plan_id":"cebpf4jnsgd1na2vs0mg"},{"bike_id":"61923e1f-87aa-45fd-a287-484a4f729e2f","system_id":"levelo_inurba_marseille","lat":43.292537,"lon":5.372216,"is_reserved":false,"is_disabled":false,"rental_uris":{"android":"levelo://app?vid=61923e1f-87aa-45fd-a287-484a4f729e2f","ios":"levelo://app?vid=61923e1f-87aa-45fd-a287-484a4f729e2f"},"vehicle_type_id":"4","last_reported":1773250832,"current_range_meters":10800,"station_id":"ce4bgh92rcd13ifvqb40","pricing_plan_id":"cebpf4jnsgd1na2vs0mg"},{"bike_id":"9e406f7e-9961-4980-a25d-50f6334178a8","system_id":"levelo_inurba_marseille","lat":43.29486,"lon":5.43329,"is_reserved":false,"is_disabled":false,"rental_uris":{"android":"levelo://app?vid=9e406f7e-9961-4980-a25d-50f6334178a8","ios":"levelo://app?vid=9e406f7e-9961-4980-a25d-50f6334178a8"},"vehicle_type_id":"4","last_reported":1773250832,"current_range_meters":24000,"station_id":"st_d3j5ugp08ojc73fj9d10","pricing_plan_id":"cebpf4jnsgd1na2vs0mg"},{"bike_id":"bc54ed14-e159-405f-908b-c5020f892e99","system_id":"levelo_inurba_marseille","lat":43.30963,"lon":5.4388,"is_reserved":false,"is_disabled":false,"rental_uris":{"android":"levelo://app?vid=bc54ed14-e159-405f-908b-c5020f892e99","ios":"levelo://app?vid=bc54ed14-e159-405f-908b-c5020f892e99"},"vehicle_type_id":"4","last_reported":1773250832,"current_range_meters":28400,"station_id":"","pricing_plan_id":"cebpf4jnsgd1na2vs0mg"},{"bike_id":"532f1fe9-6384-4056-88f3-ddfdd084688a","system_id":"levelo_inurba_marseille","lat":43.29811,"lon":5.4188,"is_reserved":false,"is_disabled":false,"rental_uris":{"android":"levelo://app?vid=532f1fe9-6384-4056-88f3-ddfdd084688a","ios":"levelo://app?vid=532f1fe9-6384-4056-88f3-ddfdd084688a"},"vehicle_type_id":"4","last_reported":1773250832,"current_range_meters":28400,"station_id":"","pricing_plan_id":"cebpf4jnsgd1na2vs0mg"},{"bike_id":"7b13b3db-41b1-4922-a06b-13fea874a109","system_id":"levelo_inurba_marseille","lat":43.31141,"lon":5.3685,"is_reserved":false,"is_disabled":false,"rental_uris":{"android":"levelo://app?vid=7b13b3db-41b1-4922-a06b-13fea874a109","ios":"levelo://app?vid=7b13b3db-41b1-4922-a06b-13fea874a109"},"vehicle_type_id":"4","last_reported":1773250832,"current_range_meters":24400,"station_id":"ce4bgl92rcd13ifvqbq0","pricing_plan_id":"cebpf4jnsgd1na2vs0mg"},{"bike_id":"fc4795bd-7fd3-4c14-9a9b-bcc5f999d4b0","system_id":"levelo_inurba_marseille","lat":43.23963,"lon":5.36624,"is_reserved":false,"is_disabled":false,"rental_uris":{"android":"levelo://app?vid=fc4795bd-7fd3-4c14-9a9b-bcc5f999d4b0","ios":"levelo://app?vid=fc4795bd-7fd3-4c14-9a9b-bcc5f999d4b0"},"vehicle_type_id":"4","last_reported":1773250832,"current_range_meters":9600,"station_id":"ce4bhi12rcd13ifvqfp0","pricing_plan_id":"cebpf4jnsgd1na2vs0mg"},{"bike_id":"f3aa073f-48b3-4a32-af09-7955b12779b7","system_id":"levelo_inurba_marseille","lat":43.23181,"lon":5.39984,"is_reserved":false,"is_disabled":false,"rental_uris":{"android":"levelo://app?vid=f3aa073f-48b3-4a32-af09-7955b12779b7","ios":"levelo://app?vid=f3aa073f-48b3-4a32-af09-7955b12779b7"},"vehicle_type_id":"4","last_reported":1773250832,"current_range_meters":30800,"station_id":"ce4bhn12rcd13ifvqgqg","pricing_plan_id":"cebpf4jnsgd1na2vs0mg"},{"bike_id":"259eec3d-6cdc-46e8-b737-4663e1193986","system_id":"levelo_inurba_marseille","lat":43.30153,"lon":5.38084,"is_reserved":false,"is_disabled":false,"rental_uris":{"android":"levelo://app?vid=259eec3d-6cdc-46e8-b737-4663e1193986","ios":"levelo://app?vid=259eec3d-6cdc-46e8-b737-4663e1193986"},"vehicle_type_id":"4","last_reported":1773250832,"current_range_meters":24400,"station_id":"ce4bgjp2rcd13ifvqbh0","pricing_plan_id":"cebpf4jnsgd1na2vs0mg"},{"bike_id":"5ff4eed9-cc94-417e-b8b0-f370f495b41d","system_id":"levelo_inurba_marseille","lat":43.28149,"lon":5.42639,"is_reserved":false,"is_disabled":false,"rental_uris":{"android":"levelo://app?vid=5ff4eed9-cc94-417e-b8b0-f370f495b41d","ios":"levelo://app?vid=5ff4eed9-cc94-417e-b8b0-f370f495b41d"},"vehicle_type_id":"4","last_reported":1773250832,"current_range_meters":22400,"station_id":"ce4bhnh2rcd13ifvqgug","pricing_plan_id":"cebpf4jnsgd1na2vs0mg"},{"bike_id":"f105b2be-1018-4256-9c05-61f61c53dcf1","system_id":"levelo_inurba_marseille","lat":43.2954,"lon":5.38535,"is_reserved":false,"is_disabled":true,"rental_uris":{"android":"levelo://app?vid=f105b2be-1018-4256-9c05-61f61c53dcf1","ios":"levelo://app?vid=f105b2be-1018-4256-9c05-61f61c53dcf1"},"vehicle_type_id":"4","last_reported":1773250832,"current_range_meters":26000,"station_id":"ce4bgih2rcd13ifvqba0","pricing_plan_id":"cebpf4jnsgd1na2vs0mg"},{"bike_id":"87baf3d6-2eea-4019-9844-8485c5b7647e","system_id":"levelo_inurba_marseille","lat":43.3126,"lon":5.40176,"is_reserved":false,"is_disabled":false,"rental_uris":{"android":"levelo://app?vid=87baf3d6-2eea-4019-9844-8485c5b7647e","ios":"levelo://app?vid=87baf3d6-2eea-4019-9844-8485c5b7647e"},"vehicle_type_id":"4","last_reported":1773250832,"current_range_meters":34000,"station_id":"ce4bh092rcd13ifvqd30","pricing_plan_id":"cebpf4jnsgd1na2vs0mg"},{"bike_id":"b94c3b6d-7912-4bb7-bd16-b874ff101a3d","system_id":"levelo_inurba_marseille","lat":43.24799,"lon":5.37451,"is_reserved":false,"is_disabled":false,"rental_uris":{"android":"levelo://app?vid=b94c3b6d-7912-4bb7-bd16-b874ff101a3d","ios":"levelo://app?vid=b94c3b6d-7912-4bb7-bd16-b874ff101a3d"},"vehicle_type_id":"4","last_reported":1773250832,"current_range_meters":28000,"station_id":"ce4bhgh2rcd13ifvqfb0","pricing_plan_id":"cebpf4jnsgd1na2vs0mg"},{"bike_id":"3268841f-fecd-44bf-a7ce-948df12685f0","system_id":"levelo_inurba_marseille","lat":43.30518,"lon":5.36708,"is_reserved":false,"is_disabled":false,"rental_uris":{"android":"levelo://app?vid=3268841f-fecd-44bf-a7ce-948df12685f0","ios":"levelo://app?vid=3268841f-fecd-44bf-a7ce-948df12685f0"},"vehicle_type_id":"4","last_reported":1773250832,"current_range_meters":33200,"station_id":"ce4bgrp2rcd13ifvqc9g","pricing_plan_id":"cebpf4jnsgd1na2vs0mg"},{"bike_id":"ab6eabd8-cd45-4d44-9050-2a15f860b8ba","system_id":"levelo_inurba_marseille","lat":43.29276,"lon":5.36838,"is_reserved":false,"is_disabled":false,"rental_uris":{"android":"levelo://app?vid=ab6eabd8-cd45-4d44-9050-2a15f860b8ba","ios":"levelo://app?vid=ab6eabd8-cd45-4d44-9050-2a15f860b8ba"},"vehicle_type_id":"4","last_reported":1773250832,"current_range_meters":21600,"station_id":"ce4bhbp2rcd13ifvqesg","pricing_plan_id":"cebpf4jnsgd1na2vs0mg"},{"bike_id":"ee5a1afe-66c8-495b-a128-0f75625d3155","system_id":"levelo_inurba_marseille","lat":43.31224,"lon":5.36854,"is_reserved":false,"is_disabled":false,"rental_uris":{"android":"levelo://app?vid=ee5a1afe-66c8-495b-a128-0f75625d3155","ios":"levelo://app?vid=ee5a1afe-66c8-495b-a128-0f75625d3155"},"vehicle_type_id":"4","last_reported":1773250832,"current_range_meters":26000,"station_id":"ce4bgl92rcd13ifvqbq0","pricing_plan_id":"cebpf4jnsgd1na2vs0mg"},{"bike_id":"c52459fc-dfb2-4ddf-a65d-9bbba8809c07","system_id":"levelo_inurba_marseille","lat":43.22536,"lon":5.34828,"is_reserved":false,"is_disabled":true,"rental_uris":{"android":"levelo://app?vid=c52459fc-dfb2-4ddf-a65d-9bbba8809c07","ios":"levelo://app?vid=c52459fc-dfb2-4ddf-a65d-9bbba8809c07"},"vehicle_type_id":"4","last_reported":1773250832,"current_range_meters":0,"station_id":"st_cvj5dfep6f1abm77gieg","pricing_plan_id":"cebpf4jnsgd1na2vs0mg"},{"bike_id":"1571cd23-3e05-4a34-a3fd-964238daee25","system_id":"levelo_inurba_marseille","lat":43.31219,"lon":5.36859,"is_reserved":false,"is_disabled":false,"rental_uris":{"android":"levelo://app?vid=1571cd23-3e05-4a34-a3fd-964238daee25","ios":"levelo://app?vid=1571cd23-3e05-4a34-a3fd-964238daee25"},"vehicle_type_id":"4","last_reported":1773250832,"current_range_meters":39200,"station_id":"ce4bgl92rcd13ifvqbq0","pricing_plan_id":"cebpf4jnsgd1na2vs0mg"},{"bike_id":"9ea99411-66b2-46fc-9a18-172392c82554","system_id":"levelo_inurba_marseille","lat":43.2842,"lon":5.37516,"is_reserved":false,"is_disabled":false,"rental_uris":{"android":"levelo://app?vid=9ea99411-66b2-46fc-9a18-172392c82554","ios":"levelo://app?vid=9ea99411-66b2-46fc-9a18-172392c82554"},"vehicle_type_id":"4","last_reported":1773250832,"current_range_meters":8800,"station_id":"ce4bh412rcd13ifvqds0","pricing_plan_id":"cebpf4jnsgd1na2vs0mg"},{"bike_id":"1f9c2a44-bbf2-4be2-bc0d-05e85182f276","system_id":"levelo_inurba_marseille","lat":43.29794,"lon":5.38099,"is_reserved":false,"is_disabled":false,"rental_uris":{"android":"levelo://app?vid=1f9c2a44-bbf2-4be2-bc0d-05e85182f276","ios":"levelo://app?vid=1f9c2a44-bbf2-4be2-bc0d-05e85182f276"},"vehicle_type_id":"4","last_reported":1773250832,"current_range_meters":39200,"station_id":"ce4bgip2rcd13ifvqbb0","pricing_plan_id":"cebpf4jnsgd1na2vs0mg"},{"bike_id":"54b4edaa-4eb5-4701-b972-9c0f8b9dfbbf","system_id":"levelo_inurba_marseille","lat":43.29609,"lon":5.3774,"is_reserved":false,"is_disabled":false,"rental_uris":{"android":"levelo://app?vid=54b4edaa-4eb5-4701-b972-9c0f8b9dfbbf","ios":"levelo://app?vid=54b4edaa-4eb5-4701-b972-9c0f8b9dfbbf"},"vehicle_type_id":"4","last_reported":1773250832,"current_range_meters":25600,"station_id":"ce4bgi92rcd13ifvqb90","pricing_plan_id":"cebpf4jnsgd1na2vs0mg"},{"bike_id":"2301d092-fcd2-45f3-804a-bf87c6aa69a3","system_id":"levelo_inurba_marseille","lat":43.29581,"lon":5.37608,"is_reserved":false,"is_disabled":false,"rental_uris":{"android":"levelo://app?vid=2301d092-fcd2-45f3-804a-bf87c6aa69a3","ios":"levelo://app?vid=2301d092-fcd2-45f3-804a-bf87c6aa69a3"},"vehicle_type_id":"4","last_reported":1773250832,"current_range_meters":17200,"station_id":"","pricing_plan_id":"cebpf4jnsgd1na2vs0mg"},{"bike_id":"61a991f1-1c61-4cf7-8c66-0365b5426fe3","system_id":"levelo_inurba_marseille","lat":43.25588,"lon":5.38254,"is_reserved":false,"is_disabled":false,"rental_uris":{"android":"levelo://app?vid=61a991f1-1c61-4cf7-8c66-0365b5426fe3","ios":"levelo://app?vid=61a991f1-1c61-4cf7-8c66-0365b5426fe3"},"vehicle_type_id":"4","last_reported":1773250832,"current_range_meters":30000,"station_id":"ce4bhih2rcd13ifvqfs0","pricing_plan_id":"cebpf4jnsgd1na2vs0mg"},{"bike_id":"d2bcd2b3-b9c0-44b8-b65e-328220c5307e","system_id":"levelo_inurba_marseille","lat":43.29122,"lon":5.43291,"is_reserved":false,"is_disabled":false,"rental_uris":{"android":"levelo://app?vid=d2bcd2b3-b9c0-44b8-b65e-328220c5307e","ios":"levelo://app?vid=d2bcd2b3-b9c0-44b8-b65e-328220c5307e"},"vehicle_type_id":"4","last_reported":1773250832,"current_range_meters":38800,"station_id":"","pricing_plan_id":"cebpf4jnsgd1na2vs0mg"},{"bike_id":"a85e2ee5-9884-49f0-90a3-902be8fd9867","system_id":"levelo_inurba_marseille","lat":43.32473,"lon":5.36573,"is_reserved":false,"is_disabled":false,"rental_uris":{"android":"levelo://app?vid=a85e2ee5-9884-49f0-90a3-902be8fd9867","ios":"levelo://app?vid=a85e2ee5-9884-49f0-90a3-902be8fd9867"},"vehicle_type_id":"4","last_reported":1773250832,"current_range_meters":34800,"station_id":"ce4bhs12rcd13ifvqhvg","pricing_plan_id":"cebpf4jnsgd1na2vs0mg"},{"bike_id":"a73d5b8f-fa70-4709-9cb1-394ba61b13c7","system_id":"levelo_inurba_marseille","lat":43.29315,"lon":5.37149,"is_reserved":false,"is_disabled":false,"rental_uris":{"android":"levelo://app?vid=a73d5b8f-fa70-4709-9cb1-394ba61b13c7","ios":"levelo://app?vid=a73d5b8f-fa70-4709-9cb1-394ba61b13c7"},"vehicle_type_id":"4","last_reported":1773250832,"current_range_meters":19200,"station_id":"ce4bgh92rcd13ifvqb40","pricing_plan_id":"cebpf4jnsgd1na2vs0mg"},{"bike_id":"769cc8dd-ab10-4a5b-9af6-19adc5e890cb","system_id":"levelo_inurba_marseille","lat":43.26191,"lon":5.37918,"is_reserved":false,"is_disabled":false,"rental_uris":{"android":"levelo://app?vid=769cc8dd-ab10-4a5b-9af6-19adc5e890cb","ios":"levelo://app?vid=769cc8dd-ab10-4a5b-9af6-19adc5e890cb"},"vehicle_type_id":"4","last_reported":1773250832,"current_range_meters":17200,"station_id":"ce4bhjp2rcd13ifvqg90","pricing_plan_id":"cebpf4jnsgd1na2vs0mg"},{"bike_id":"896440e6-cef8-4268-bb86-ac2c6e2de747","system_id":"levelo_inurba_marseille","lat":43.28476,"lon":5.484,"is_reserved":false,"is_disabled":false,"rental_uris":{"android":"levelo://app?vid=896440e6-cef8-4268-bb86-ac2c6e2de747","ios":"levelo://app?vid=896440e6-cef8-4268-bb86-ac2c6e2de747"},"vehicle_type_id":"4","last_reported":1773250832,"current_range_meters":29600,"station_id":"","pricing_plan_id":"cebpf4jnsgd1na2vs0mg"},{"bike_id":"144d0f12-8c50-4356-9304-ba9c305ea568","system_id":"levelo_inurba_marseille","lat":43.31122,"lon":5.36886,"is_reserved":false,"is_disabled":false,"rental_uris":{"android":"levelo://app?vid=144d0f12-8c50-4356-9304-ba9c305ea568","ios":"levelo://app?vid=144d0f12-8c50-4356-9304-ba9c305ea568"},"vehicle_type_id":"4","last_reported":1773250832,"current_range_meters":26000,"station_id":"","pricing_plan_id":"cebpf4jnsgd1na2vs0mg"},{"bike_id":"2c1215f2-9624-4e50-bbbb-a53264cdd31e","system_id":"levelo_inurba_marseille","lat":43.28451,"lon":5.48427,"is_reserved":false,"is_disabled":false,"rental_uris":{"android":"levelo://app?vid=2c1215f2-9624-4e50-bbbb-a53264cdd31e","ios":"levelo://app?vid=2c1215f2-9624-4e50-bbbb-a53264cdd31e"},"vehicle_type_id":"4","last_reported":1773250832,"current_range_meters":26000,"station_id":"","pricing_plan_id":"cebpf4jnsgd1na2vs0mg"},{"bike_id":"3b950439-ce2b-43b7-96e0-5e3328bee72e","system_id":"levelo_inurba_marseille","lat":43.31767,"lon":5.39016,"is_reserved":false,"is_disabled":false,"rental_uris":{"android":"levelo://app?vid=3b950439-ce2b-43b7-96e0-5e3328bee72e","ios":"levelo://app?vid=3b950439-ce2b-43b7-96e0-5e3328bee72e"},"vehicle_type_id":"4","last_reported":1773250832,"current_range_meters":36000,"station_id":"ce4bhqp2rcd13ifvqhng","pricing_plan_id":"cebpf4jnsgd1na2vs0mg"},{"bike_id":"c1db54c2-038e-4f3d-a503-c0e3fc6c96ed","system_id":"levelo_inurba_marseille","lat":43.33538,"lon":5.375,"is_reserved":false,"is_disabled":false,"rental_uris":{"android":"levelo://app?vid=c1db54c2-038e-4f3d-a503-c0e3fc6c96ed","ios":"levelo://app?vid=c1db54c2-038e-4f3d-a503-c0e3fc6c96ed"},"vehicle_type_id":"4","last_reported":1773250832,"current_range_meters":14400,"station_id":"st_d46tts09ee8s73dlu43g","pricing_plan_id":"cebpf4jnsgd1na2vs0mg"},{"bike_id":"a0ab89fd-d4e3-4039-8377-577b0acf001d","system_id":"levelo_inurba_marseille","lat":43.24388,"lon":5.4409,"is_reserved":false,"is_disabled":true,"rental_uris":{"android":"levelo://app?vid=a0ab89fd-d4e3-4039-8377-577b0acf001d","ios":"levelo://app?vid=a0ab89fd-d4e3-4039-8377-577b0acf001d"},"vehicle_type_id":"4","last_reported":1773250832,"current_range_meters":9600,"station_id":"","pricing_plan_id":"cebpf4jnsgd1na2vs0mg"},{"bike_id":"11ad880e-0013-4104-a566-84fc28b4303a","system_id":"levelo_inurba_marseille","lat":43.29536,"lon":5.37487,"is_reserved":false,"is_disabled":false,"rental_uris":{"android":"levelo://app?vid=11ad880e-0013-4104-a566-84fc28b4303a","ios":"levelo://app?vid=11ad880e-0013-4104-a566-84fc28b4303a"},"vehicle_type_id":"4","last_reported":1773250832,"current_range_meters":36800,"station_id":"ce4bgkp2rcd13ifvqbmg","pricing_plan_id":"cebpf4jnsgd1na2vs0mg"},{"bike_id":"413d553e-125f-4a95-97d0-4c5cf5434104","system_id":"levelo_inurba_marseille","lat":43.29627,"lon":5.37149,"is_reserved":false,"is_disabled":false,"rental_uris":{"android":"levelo://app?vid=413d553e-125f-4a95-97d0-4c5cf5434104","ios":"levelo://app?vid=413d553e-125f-4a95-97d0-4c5cf5434104"},"vehicle_type_id":"4","last_reported":1773250832,"current_range_meters":38800,"station_id":"ce4bgnh2rcd13ifvqc0g","pricing_plan_id":"cebpf4jnsgd1na2vs0mg"},{"bike_id":"a397a0ef-fd4c-40ad-812a-441a7407e82d","system_id":"levelo_inurba_marseille","lat":43.28467,"lon":5.38441,"is_reserved":false,"is_disabled":true,"rental_uris":{"android":"levelo://app?vid=a397a0ef-fd4c-40ad-812a-441a7407e82d","ios":"levelo://app?vid=a397a0ef-fd4c-40ad-812a-441a7407e82d"},"vehicle_type_id":"4","last_reported":1773250832,"current_range_meters":39200,"station_id":"ce4bh512rcd13ifvqe3g","pricing_plan_id":"cebpf4jnsgd1na2vs0mg"},{"bike_id":"c9fdec63-7232-4c40-8487-75579466936b","system_id":"levelo_inurba_marseille","lat":43.26707,"lon":5.38243,"is_reserved":false,"is_disabled":false,"rental_uris":{"android":"levelo://app?vid=c9fdec63-7232-4c40-8487-75579466936b","ios":"levelo://app?vid=c9fdec63-7232-4c40-8487-75579466936b"},"vehicle_type_id":"4","last_reported":1773250832,"current_range_meters":28400,"station_id":"ce4bhg92rcd13ifvqf90","pricing_plan_id":"cebpf4jnsgd1na2vs0mg"},{"bike_id":"f00a2730-aadb-4a0a-b5af-1ca120a6b332","system_id":"levelo_inurba_marseille","lat":43.29532,"lon":5.38527,"is_reserved":false,"is_disabled":false,"rental_uris":{"android":"levelo://app?vid=f00a2730-aadb-4a0a-b5af-1ca120a6b332","ios":"levelo://app?vid=f00a2730-aadb-4a0a-b5af-1ca120a6b332"},"vehicle_type_id":"4","last_reported":1773250832,"current_range_meters":31200,"station_id":"ce4bghh2rcd13ifvqb60","pricing_plan_id":"cebpf4jnsgd1na2vs0mg"},{"bike_id":"e8b7d766-9ece-4870-a1b8-5b316a1b8e67","system_id":"levelo_inurba_marseille","lat":43.22574,"lon":5.41648,"is_reserved":false,"is_disabled":false,"rental_uris":{"android":"levelo://app?vid=e8b7d766-9ece-4870-a1b8-5b316a1b8e67","ios":"levelo://app?vid=e8b7d766-9ece-4870-a1b8-5b316a1b8e67"},"vehicle_type_id":"4","last_reported":1773250832,"current_range_meters":18800,"station_id":"st_d2o4gvlbi1j2169b742g","pricing_plan_id":"cebpf4jnsgd1na2vs0mg"},{"bike_id":"7216e323-24f6-462b-b06f-bb5d84e9a086","system_id":"levelo_inurba_marseille","lat":43.27827,"lon":5.39226,"is_reserved":false,"is_disabled":false,"rental_uris":{"android":"levelo://app?vid=7216e323-24f6-462b-b06f-bb5d84e9a086","ios":"levelo://app?vid=7216e323-24f6-462b-b06f-bb5d84e9a086"},"vehicle_type_id":"4","last_reported":1773250832,"current_range_meters":40000,"station_id":"ce4bhjp2rcd13ifvqga0","pricing_plan_id":"cebpf4jnsgd1na2vs0mg"},{"bike_id":"7fec08d5-ee68-460a-ac18-925555054430","system_id":"levelo_inurba_marseille","lat":43.24175,"lon":5.36396,"is_reserved":false,"is_disabled":false,"rental_uris":{"android":"levelo://app?vid=7fec08d5-ee68-460a-ac18-925555054430","ios":"levelo://app?vid=7fec08d5-ee68-460a-ac18-925555054430"},"vehicle_type_id":"4","last_reported":1773250832,"current_range_meters":16400,"station_id":"cpo36qri1sfpv3e86is0","pricing_plan_id":"cebpf4jnsgd1na2vs0mg"},{"bike_id":"0ac46bdc-dba5-49e8-840c-078e0f1eca72","system_id":"levelo_inurba_marseille","lat":43.29027,"lon":5.38658,"is_reserved":false,"is_disabled":false,"rental_uris":{"android":"levelo://app?vid=0ac46bdc-dba5-49e8-840c-078e0f1eca72","ios":"levelo://app?vid=0ac46bdc-dba5-49e8-840c-078e0f1eca72"},"vehicle_type_id":"4","last_reported":1773250832,"current_range_meters":38400,"station_id":"ce4bh4p2rcd13ifvqe0g","pricing_plan_id":"cebpf4jnsgd1na2vs0mg"},{"bike_id":"fbacc4e2-20d2-440b-8334-f840b8c13084","system_id":"levelo_inurba_marseille","lat":43.23157,"lon":5.43703,"is_reserved":false,"is_disabled":false,"rental_uris":{"android":"levelo://app?vid=fbacc4e2-20d2-440b-8334-f840b8c13084","ios":"levelo://app?vid=fbacc4e2-20d2-440b-8334-f840b8c13084"},"vehicle_type_id":"4","last_reported":1773250832,"current_range_meters":22400,"station_id":"ce4bhmp2rcd13ifvqgog","pricing_plan_id":"cebpf4jnsgd1na2vs0mg"},{"bike_id":"e50c6797-fb66-441b-97d0-c7fbbc3eb9c6","system_id":"levelo_inurba_marseille","lat":43.31715,"lon":5.43726,"is_reserved":false,"is_disabled":false,"rental_uris":{"android":"levelo://app?vid=e50c6797-fb66-441b-97d0-c7fbbc3eb9c6","ios":"levelo://app?vid=e50c6797-fb66-441b-97d0-c7fbbc3eb9c6"},"vehicle_type_id":"4","last_reported":1773250832,"current_range_meters":29600,"station_id":"ce4bhp92rcd13ifvqhcg","pricing_plan_id":"cebpf4jnsgd1na2vs0mg"},{"bike_id":"486154fe-3489-4a13-9146-054eb1e1ad06","system_id":"levelo_inurba_marseille","lat":43.29569,"lon":5.39981,"is_reserved":false,"is_disabled":false,"rental_uris":{"android":"levelo://app?vid=486154fe-3489-4a13-9146-054eb1e1ad06","ios":"levelo://app?vid=486154fe-3489-4a13-9146-054eb1e1ad06"},"vehicle_type_id":"4","last_reported":1773250832,"current_range_meters":38800,"station_id":"ce4bh312rcd13ifvqdj0","pricing_plan_id":"cebpf4jnsgd1na2vs0mg"},{"bike_id":"d936ee88-e6c5-41eb-94c9-c0f089a32b91","system_id":"levelo_inurba_marseille","lat":43.31193,"lon":5.37694,"is_reserved":false,"is_disabled":false,"rental_uris":{"android":"levelo://app?vid=d936ee88-e6c5-41eb-94c9-c0f089a32b91","ios":"levelo://app?vid=d936ee88-e6c5-41eb-94c9-c0f089a32b91"},"vehicle_type_id":"4","last_reported":1773250832,"current_range_meters":32400,"station_id":"","pricing_plan_id":"cebpf4jnsgd1na2vs0mg"},{"bike_id":"64db144a-07de-49ea-9432-4bcd2298dea1","system_id":"levelo_inurba_marseille","lat":43.26678,"lon":5.38303,"is_reserved":false,"is_disabled":false,"rental_uris":{"android":"levelo://app?vid=64db144a-07de-49ea-9432-4bcd2298dea1","ios":"levelo://app?vid=64db144a-07de-49ea-9432-4bcd2298dea1"},"vehicle_type_id":"4","last_reported":1773250832,"current_range_meters":17200,"station_id":"ce4bhg92rcd13ifvqf90","pricing_plan_id":"cebpf4jnsgd1na2vs0mg"},{"bike_id":"98470c00-e93b-4853-b565-f4b279fce124","system_id":"levelo_inurba_marseille","lat":43.25116,"lon":5.40322,"is_reserved":false,"is_disabled":false,"rental_uris":{"android":"levelo://app?vid=98470c00-e93b-4853-b565-f4b279fce124","ios":"levelo://app?vid=98470c00-e93b-4853-b565-f4b279fce124"},"vehicle_type_id":"4","last_reported":1773250832,"current_range_meters":15200,"station_id":"ce4bhlh2rcd13ifvqgig","pricing_plan_id":"cebpf4jnsgd1na2vs0mg"},{"bike_id":"527cd3ff-d70c-47e1-ab19-036f4aa6c5ec","system_id":"levelo_inurba_marseille","lat":43.29552,"lon":5.37493,"is_reserved":false,"is_disabled":false,"rental_uris":{"android":"levelo://app?vid=527cd3ff-d70c-47e1-ab19-036f4aa6c5ec","ios":"levelo://app?vid=527cd3ff-d70c-47e1-ab19-036f4aa6c5ec"},"vehicle_type_id":"4","last_reported":1773250832,"current_range_meters":39200,"station_id":"ce4bgkp2rcd13ifvqbmg","pricing_plan_id":"cebpf4jnsgd1na2vs0mg"},{"bike_id":"7c5d90d1-8ba7-4d11-a859-9263fa5d367b","system_id":"levelo_inurba_marseille","lat":43.337444,"lon":5.374475,"is_reserved":false,"is_disabled":true,"rental_uris":{"android":"levelo://app?vid=7c5d90d1-8ba7-4d11-a859-9263fa5d367b","ios":"levelo://app?vid=7c5d90d1-8ba7-4d11-a859-9263fa5d367b"},"vehicle_type_id":"4","last_reported":1773250832,"current_range_meters":11200,"station_id":"","pricing_plan_id":"cebpf4jnsgd1na2vs0mg"},{"bike_id":"7330f85c-bb71-48f7-afdf-538077885aef","system_id":"levelo_inurba_marseille","lat":43.27965,"lon":5.38722,"is_reserved":false,"is_disabled":false,"rental_uris":{"android":"levelo://app?vid=7330f85c-bb71-48f7-afdf-538077885aef","ios":"levelo://app?vid=7330f85c-bb71-48f7-afdf-538077885aef"},"vehicle_type_id":"4","last_reported":1773250832,"current_range_meters":20800,"station_id":"ce4bhg12rcd13ifvqf80","pricing_plan_id":"cebpf4jnsgd1na2vs0mg"},{"bike_id":"3107859d-1495-4aad-80eb-703d2e7dc114","system_id":"levelo_inurba_marseille","lat":43.28612,"lon":5.37054,"is_reserved":false,"is_disabled":false,"rental_uris":{"android":"levelo://app?vid=3107859d-1495-4aad-80eb-703d2e7dc114","ios":"levelo://app?vid=3107859d-1495-4aad-80eb-703d2e7dc114"},"vehicle_type_id":"4","last_reported":1773250832,"current_range_meters":20400,"station_id":"ce4bht12rcd13ifvqi60","pricing_plan_id":"cebpf4jnsgd1na2vs0mg"},{"bike_id":"f62cbee2-12e5-4cdd-bfbc-04088f9f32fa","system_id":"levelo_inurba_marseille","lat":43.28469,"lon":5.48376,"is_reserved":false,"is_disabled":false,"rental_uris":{"android":"levelo://app?vid=f62cbee2-12e5-4cdd-bfbc-04088f9f32fa","ios":"levelo://app?vid=f62cbee2-12e5-4cdd-bfbc-04088f9f32fa"},"vehicle_type_id":"4","last_reported":1773250832,"current_range_meters":19600,"station_id":"","pricing_plan_id":"cebpf4jnsgd1na2vs0mg"},{"bike_id":"bee33239-5c3c-4b65-9c48-8fa3b957f997","system_id":"levelo_inurba_marseille","lat":43.27989,"lon":5.40016,"is_reserved":false,"is_disabled":false,"rental_uris":{"android":"levelo://app?vid=bee33239-5c3c-4b65-9c48-8fa3b957f997","ios":"levelo://app?vid=bee33239-5c3c-4b65-9c48-8fa3b957f997"},"vehicle_type_id":"4","last_reported":1773250832,"current_range_meters":39200,"station_id":"ce4bho92rcd13ifvqh4g","pricing_plan_id":"cebpf4jnsgd1na2vs0mg"},{"bike_id":"19789858-1ce6-4714-be96-8a45f06c1294","system_id":"levelo_inurba_marseille","lat":43.29576,"lon":5.4227,"is_reserved":false,"is_disabled":false,"rental_uris":{"android":"levelo://app?vid=19789858-1ce6-4714-be96-8a45f06c1294","ios":"levelo://app?vid=19789858-1ce6-4714-be96-8a45f06c1294"},"vehicle_type_id":"4","last_reported":1773250832,"current_range_meters":39200,"station_id":"ce4bhph2rcd13ifvqhdg","pricing_plan_id":"cebpf4jnsgd1na2vs0mg"},{"bike_id":"681fca49-d7d0-4d64-ba5f-a1615360789c","system_id":"levelo_inurba_marseille","lat":43.25817,"lon":5.39456,"is_reserved":false,"is_disabled":false,"rental_uris":{"android":"levelo://app?vid=681fca49-d7d0-4d64-ba5f-a1615360789c","ios":"levelo://app?vid=681fca49-d7d0-4d64-ba5f-a1615360789c"},"vehicle_type_id":"4","last_reported":1773250832,"current_range_meters":36400,"station_id":"ce4bhip2rcd13ifvqft0","pricing_plan_id":"cebpf4jnsgd1na2vs0mg"},{"bike_id":"52863894-88d9-4077-90db-c08d8207c3c6","system_id":"levelo_inurba_marseille","lat":43.29639,"lon":5.37129,"is_reserved":false,"is_disabled":false,"rental_uris":{"android":"levelo://app?vid=52863894-88d9-4077-90db-c08d8207c3c6","ios":"levelo://app?vid=52863894-88d9-4077-90db-c08d8207c3c6"},"vehicle_type_id":"4","last_reported":1773250832,"current_range_meters":36400,"station_id":"ce4bgnh2rcd13ifvqc0g","pricing_plan_id":"cebpf4jnsgd1na2vs0mg"},{"bike_id":"1918b481-90ac-4db8-ab90-5b674b0129ea","system_id":"levelo_inurba_marseille","lat":43.29523,"lon":5.38525,"is_reserved":false,"is_disabled":true,"rental_uris":{"android":"levelo://app?vid=1918b481-90ac-4db8-ab90-5b674b0129ea","ios":"levelo://app?vid=1918b481-90ac-4db8-ab90-5b674b0129ea"},"vehicle_type_id":"4","last_reported":1773250832,"current_range_meters":39200,"station_id":"ce4bgih2rcd13ifvqba0","pricing_plan_id":"cebpf4jnsgd1na2vs0mg"},{"bike_id":"ba3a231f-10a0-4302-b0e7-08f11861cd04","system_id":"levelo_inurba_marseille","lat":43.28468,"lon":5.48393,"is_reserved":false,"is_disabled":false,"rental_uris":{"android":"levelo://app?vid=ba3a231f-10a0-4302-b0e7-08f11861cd04","ios":"levelo://app?vid=ba3a231f-10a0-4302-b0e7-08f11861cd04"},"vehicle_type_id":"4","last_reported":1773250832,"current_range_meters":38400,"station_id":"","pricing_plan_id":"cebpf4jnsgd1na2vs0mg"},{"bike_id":"cb4e4d34-660b-4af5-a992-ee347df37078","system_id":"levelo_inurba_marseille","lat":43.29175,"lon":5.37154,"is_reserved":false,"is_disabled":false,"rental_uris":{"android":"levelo://app?vid=cb4e4d34-660b-4af5-a992-ee347df37078","ios":"levelo://app?vid=cb4e4d34-660b-4af5-a992-ee347df37078"},"vehicle_type_id":"4","last_reported":1773250832,"current_range_meters":36800,"station_id":"ce4bha92rcd13ifvqeh0","pricing_plan_id":"cebpf4jnsgd1na2vs0mg"},{"bike_id":"352c9f7d-89b4-42e5-9e2e-76d972a274bd","system_id":"levelo_inurba_marseille","lat":43.28918,"lon":5.43228,"is_reserved":false,"is_disabled":false,"rental_uris":{"android":"levelo://app?vid=352c9f7d-89b4-42e5-9e2e-76d972a274bd","ios":"levelo://app?vid=352c9f7d-89b4-42e5-9e2e-76d972a274bd"},"vehicle_type_id":"4","last_reported":1773250832,"current_range_meters":10000,"station_id":"","pricing_plan_id":"cebpf4jnsgd1na2vs0mg"},{"bike_id":"3cd99140-c38f-4d8c-9bd2-05e6780a326b","system_id":"levelo_inurba_marseille","lat":43.29031,"lon":5.39957,"is_reserved":false,"is_disabled":false,"rental_uris":{"android":"levelo://app?vid=3cd99140-c38f-4d8c-9bd2-05e6780a326b","ios":"levelo://app?vid=3cd99140-c38f-4d8c-9bd2-05e6780a326b"},"vehicle_type_id":"4","last_reported":1773250832,"current_range_meters":6800,"station_id":"ce4bh392rcd13ifvqdm0","pricing_plan_id":"cebpf4jnsgd1na2vs0mg"},{"bike_id":"c59a5209-1b70-42df-8250-859beecf23e1","system_id":"levelo_inurba_marseille","lat":43.23189,"lon":5.3554,"is_reserved":false,"is_disabled":false,"rental_uris":{"android":"levelo://app?vid=c59a5209-1b70-42df-8250-859beecf23e1","ios":"levelo://app?vid=c59a5209-1b70-42df-8250-859beecf23e1"},"vehicle_type_id":"4","last_reported":1773250832,"current_range_meters":36000,"station_id":"ce4bhu92rcd13ifvqi70","pricing_plan_id":"cebpf4jnsgd1na2vs0mg"},{"bike_id":"f336589f-866f-46c6-b212-a692ab2ba293","system_id":"levelo_inurba_marseille","lat":43.29664,"lon":5.37131,"is_reserved":false,"is_disabled":false,"rental_uris":{"android":"levelo://app?vid=f336589f-866f-46c6-b212-a692ab2ba293","ios":"levelo://app?vid=f336589f-866f-46c6-b212-a692ab2ba293"},"vehicle_type_id":"4","last_reported":1773250832,"current_range_meters":11600,"station_id":"","pricing_plan_id":"cebpf4jnsgd1na2vs0mg"},{"bike_id":"fed428a6-a508-4132-94d7-783075e10fe3","system_id":"levelo_inurba_marseille","lat":43.32331,"lon":5.36662,"is_reserved":false,"is_disabled":false,"rental_uris":{"android":"levelo://app?vid=fed428a6-a508-4132-94d7-783075e10fe3","ios":"levelo://app?vid=fed428a6-a508-4132-94d7-783075e10fe3"},"vehicle_type_id":"4","last_reported":1773250832,"current_range_meters":34800,"station_id":"","pricing_plan_id":"cebpf4jnsgd1na2vs0mg"},{"bike_id":"d9344ef3-84e2-4482-9420-9a6c0759852b","system_id":"levelo_inurba_marseille","lat":43.29611,"lon":5.37729,"is_reserved":false,"is_disabled":false,"rental_uris":{"android":"levelo://app?vid=d9344ef3-84e2-4482-9420-9a6c0759852b","ios":"levelo://app?vid=d9344ef3-84e2-4482-9420-9a6c0759852b"},"vehicle_type_id":"4","last_reported":1773250832,"current_range_meters":16000,"station_id":"ce4bgi92rcd13ifvqb90","pricing_plan_id":"cebpf4jnsgd1na2vs0mg"},{"bike_id":"b77fb604-0801-47d9-99a2-3844aa44df9a","system_id":"levelo_inurba_marseille","lat":43.25325,"lon":5.42164,"is_reserved":false,"is_disabled":false,"rental_uris":{"android":"levelo://app?vid=b77fb604-0801-47d9-99a2-3844aa44df9a","ios":"levelo://app?vid=b77fb604-0801-47d9-99a2-3844aa44df9a"},"vehicle_type_id":"4","last_reported":1773250832,"current_range_meters":28000,"station_id":"st_d2m65c5bi1j21697t3ng","pricing_plan_id":"cebpf4jnsgd1na2vs0mg"},{"bike_id":"dcad9259-a4d3-4cc7-94fc-0c8a7321317d","system_id":"levelo_inurba_marseille","lat":43.27076,"lon":5.3831,"is_reserved":false,"is_disabled":false,"rental_uris":{"android":"levelo://app?vid=dcad9259-a4d3-4cc7-94fc-0c8a7321317d","ios":"levelo://app?vid=dcad9259-a4d3-4cc7-94fc-0c8a7321317d"},"vehicle_type_id":"4","last_reported":1773250832,"current_range_meters":29600,"station_id":"st_d3n2fo6cfp8s73cte1j0","pricing_plan_id":"cebpf4jnsgd1na2vs0mg"},{"bike_id":"012f4c0b-4135-4d9f-a18f-1257efecd62d","system_id":"levelo_inurba_marseille","lat":43.29056,"lon":5.37167,"is_reserved":false,"is_disabled":false,"rental_uris":{"android":"levelo://app?vid=012f4c0b-4135-4d9f-a18f-1257efecd62d","ios":"levelo://app?vid=012f4c0b-4135-4d9f-a18f-1257efecd62d"},"vehicle_type_id":"4","last_reported":1773250832,"current_range_meters":6400,"station_id":"ce4bh5p2rcd13ifvqe4g","pricing_plan_id":"cebpf4jnsgd1na2vs0mg"},{"bike_id":"a6308c57-1a36-41de-bb48-5ab4640b043f","system_id":"levelo_inurba_marseille","lat":43.2953,"lon":5.38544,"is_reserved":false,"is_disabled":false,"rental_uris":{"android":"levelo://app?vid=a6308c57-1a36-41de-bb48-5ab4640b043f","ios":"levelo://app?vid=a6308c57-1a36-41de-bb48-5ab4640b043f"},"vehicle_type_id":"4","last_reported":1773250832,"current_range_meters":25200,"station_id":"ce4bgih2rcd13ifvqba0","pricing_plan_id":"cebpf4jnsgd1na2vs0mg"},{"bike_id":"0bd65bd6-432d-4f03-9bc1-a502b4962690","system_id":"levelo_inurba_marseille","lat":43.30229,"lon":5.36831,"is_reserved":false,"is_disabled":false,"rental_uris":{"android":"levelo://app?vid=0bd65bd6-432d-4f03-9bc1-a502b4962690","ios":"levelo://app?vid=0bd65bd6-432d-4f03-9bc1-a502b4962690"},"vehicle_type_id":"4","last_reported":1773250832,"current_range_meters":26800,"station_id":"","pricing_plan_id":"cebpf4jnsgd1na2vs0mg"},{"bike_id":"e8e891cf-164b-4375-8667-e5eaa1ef09df","system_id":"levelo_inurba_marseille","lat":43.3176,"lon":5.39013,"is_reserved":false,"is_disabled":false,"rental_uris":{"android":"levelo://app?vid=e8e891cf-164b-4375-8667-e5eaa1ef09df","ios":"levelo://app?vid=e8e891cf-164b-4375-8667-e5eaa1ef09df"},"vehicle_type_id":"4","last_reported":1773250832,"current_range_meters":38000,"station_id":"ce4bhqp2rcd13ifvqhng","pricing_plan_id":"cebpf4jnsgd1na2vs0mg"},{"bike_id":"5df991b1-a442-4a12-9724-7079a5f17147","system_id":"levelo_inurba_marseille","lat":43.3132,"lon":5.39709,"is_reserved":false,"is_disabled":false,"rental_uris":{"android":"levelo://app?vid=5df991b1-a442-4a12-9724-7079a5f17147","ios":"levelo://app?vid=5df991b1-a442-4a12-9724-7079a5f17147"},"vehicle_type_id":"4","last_reported":1773250832,"current_range_meters":39200,"station_id":"ce4bgvp2rcd13ifvqcu0","pricing_plan_id":"cebpf4jnsgd1na2vs0mg"},{"bike_id":"a540b441-3928-4042-84dc-78cbd8de6fd0","system_id":"levelo_inurba_marseille","lat":43.24394,"lon":5.3708,"is_reserved":false,"is_disabled":false,"rental_uris":{"android":"levelo://app?vid=a540b441-3928-4042-84dc-78cbd8de6fd0","ios":"levelo://app?vid=a540b441-3928-4042-84dc-78cbd8de6fd0"},"vehicle_type_id":"4","last_reported":1773250832,"current_range_meters":33200,"station_id":"ce4bhhh2rcd13ifvqfk0","pricing_plan_id":"cebpf4jnsgd1na2vs0mg"},{"bike_id":"6a12642d-7ad1-416e-8c15-a02b28dfcd43","system_id":"levelo_inurba_marseille","lat":43.30162,"lon":5.39891,"is_reserved":false,"is_disabled":false,"rental_uris":{"android":"levelo://app?vid=6a12642d-7ad1-416e-8c15-a02b28dfcd43","ios":"levelo://app?vid=6a12642d-7ad1-416e-8c15-a02b28dfcd43"},"vehicle_type_id":"4","last_reported":1773250832,"current_range_meters":30000,"station_id":"ce4bh0h2rcd13ifvqd40","pricing_plan_id":"cebpf4jnsgd1na2vs0mg"},{"bike_id":"809b7623-0e13-4184-a3c5-f483d3816773","system_id":"levelo_inurba_marseille","lat":43.29575,"lon":5.37519,"is_reserved":false,"is_disabled":true,"rental_uris":{"android":"levelo://app?vid=809b7623-0e13-4184-a3c5-f483d3816773","ios":"levelo://app?vid=809b7623-0e13-4184-a3c5-f483d3816773"},"vehicle_type_id":"4","last_reported":1773250832,"current_range_meters":3200,"station_id":"ce4bgh92rcd13ifvqb50","pricing_plan_id":"cebpf4jnsgd1na2vs0mg"},{"bike_id":"7b292c08-e8df-4fc4-9a62-e9d6956b99e1","system_id":"levelo_inurba_marseille","lat":43.29524,"lon":5.37508,"is_reserved":false,"is_disabled":false,"rental_uris":{"android":"levelo://app?vid=7b292c08-e8df-4fc4-9a62-e9d6956b99e1","ios":"levelo://app?vid=7b292c08-e8df-4fc4-9a62-e9d6956b99e1"},"vehicle_type_id":"4","last_reported":1773250832,"current_range_meters":30000,"station_id":"ce4bgkp2rcd13ifvqbmg","pricing_plan_id":"cebpf4jnsgd1na2vs0mg"},{"bike_id":"a9d3a396-4320-4aa2-8b28-7de67ef5885e","system_id":"levelo_inurba_marseille","lat":43.28156,"lon":5.42641,"is_reserved":false,"is_disabled":false,"rental_uris":{"android":"levelo://app?vid=a9d3a396-4320-4aa2-8b28-7de67ef5885e","ios":"levelo://app?vid=a9d3a396-4320-4aa2-8b28-7de67ef5885e"},"vehicle_type_id":"4","last_reported":1773250832,"current_range_meters":6800,"station_id":"ce4bhnh2rcd13ifvqgug","pricing_plan_id":"cebpf4jnsgd1na2vs0mg"},{"bike_id":"09b51f1e-4608-4273-bc57-8753e2939ff2","system_id":"levelo_inurba_marseille","lat":43.29945,"lon":5.36544,"is_reserved":false,"is_disabled":false,"rental_uris":{"android":"levelo://app?vid=09b51f1e-4608-4273-bc57-8753e2939ff2","ios":"levelo://app?vid=09b51f1e-4608-4273-bc57-8753e2939ff2"},"vehicle_type_id":"4","last_reported":1773250832,"current_range_meters":32800,"station_id":"ce4bgm92rcd13ifvqbr0","pricing_plan_id":"cebpf4jnsgd1na2vs0mg"},{"bike_id":"bf087080-fbd0-45e9-b421-f3cbdc582b45","system_id":"levelo_inurba_marseille","lat":43.2989,"lon":5.3765,"is_reserved":false,"is_disabled":false,"rental_uris":{"android":"levelo://app?vid=bf087080-fbd0-45e9-b421-f3cbdc582b45","ios":"levelo://app?vid=bf087080-fbd0-45e9-b421-f3cbdc582b45"},"vehicle_type_id":"4","last_reported":1773250832,"current_range_meters":26800,"station_id":"","pricing_plan_id":"cebpf4jnsgd1na2vs0mg"},{"bike_id":"412ebc32-5589-4f6e-8ac6-13ac9134d8c4","system_id":"levelo_inurba_marseille","lat":43.279694,"lon":5.387333,"is_reserved":false,"is_disabled":false,"rental_uris":{"android":"levelo://app?vid=412ebc32-5589-4f6e-8ac6-13ac9134d8c4","ios":"levelo://app?vid=412ebc32-5589-4f6e-8ac6-13ac9134d8c4"},"vehicle_type_id":"4","last_reported":1773250832,"current_range_meters":12800,"station_id":"ce4bhg12rcd13ifvqf80","pricing_plan_id":"cebpf4jnsgd1na2vs0mg"},{"bike_id":"9c37c959-e40e-4036-bb6d-05b7579986fd","system_id":"levelo_inurba_marseille","lat":43.23189,"lon":5.35561,"is_reserved":false,"is_disabled":false,"rental_uris":{"android":"levelo://app?vid=9c37c959-e40e-4036-bb6d-05b7579986fd","ios":"levelo://app?vid=9c37c959-e40e-4036-bb6d-05b7579986fd"},"vehicle_type_id":"4","last_reported":1773250832,"current_range_meters":32000,"station_id":"ce4bhu92rcd13ifvqi70","pricing_plan_id":"cebpf4jnsgd1na2vs0mg"},{"bike_id":"d551195e-f5b0-490f-bac9-9dae68d902a4","system_id":"levelo_inurba_marseille","lat":43.21744,"lon":5.34648,"is_reserved":false,"is_disabled":false,"rental_uris":{"android":"levelo://app?vid=d551195e-f5b0-490f-bac9-9dae68d902a4","ios":"levelo://app?vid=d551195e-f5b0-490f-bac9-9dae68d902a4"},"vehicle_type_id":"4","last_reported":1773250832,"current_range_meters":36800,"station_id":"st_cvj6r9ubvosntc0bgbag","pricing_plan_id":"cebpf4jnsgd1na2vs0mg"},{"bike_id":"f1bd63c5-a502-46f8-ba07-32edd3c6a892","system_id":"levelo_inurba_marseille","lat":43.29373,"lon":5.37854,"is_reserved":false,"is_disabled":false,"rental_uris":{"android":"levelo://app?vid=f1bd63c5-a502-46f8-ba07-32edd3c6a892","ios":"levelo://app?vid=f1bd63c5-a502-46f8-ba07-32edd3c6a892"},"vehicle_type_id":"4","last_reported":1773250832,"current_range_meters":39200,"station_id":"ce4bgjh2rcd13ifvqbf0","pricing_plan_id":"cebpf4jnsgd1na2vs0mg"},{"bike_id":"0a2f9b28-6219-4106-b011-3026133a767c","system_id":"levelo_inurba_marseille","lat":43.29629,"lon":5.38101,"is_reserved":false,"is_disabled":true,"rental_uris":{"android":"levelo://app?vid=0a2f9b28-6219-4106-b011-3026133a767c","ios":"levelo://app?vid=0a2f9b28-6219-4106-b011-3026133a767c"},"vehicle_type_id":"4","last_reported":1773250832,"current_range_meters":21600,"station_id":"ce4bgl12rcd13ifvqbo0","pricing_plan_id":"cebpf4jnsgd1na2vs0mg"},{"bike_id":"a1a689bc-1698-4040-82a6-c37bf84ee2c8","system_id":"levelo_inurba_marseille","lat":43.29531,"lon":5.38547,"is_reserved":false,"is_disabled":false,"rental_uris":{"android":"levelo://app?vid=a1a689bc-1698-4040-82a6-c37bf84ee2c8","ios":"levelo://app?vid=a1a689bc-1698-4040-82a6-c37bf84ee2c8"},"vehicle_type_id":"4","last_reported":1773250832,"current_range_meters":9200,"station_id":"ce4bgih2rcd13ifvqba0","pricing_plan_id":"cebpf4jnsgd1na2vs0mg"},{"bike_id":"84d99f2b-d59b-4f86-a8c4-f6a4f84f141e","system_id":"levelo_inurba_marseille","lat":43.30376,"lon":5.42484,"is_reserved":false,"is_disabled":false,"rental_uris":{"android":"levelo://app?vid=84d99f2b-d59b-4f86-a8c4-f6a4f84f141e","ios":"levelo://app?vid=84d99f2b-d59b-4f86-a8c4-f6a4f84f141e"},"vehicle_type_id":"4","last_reported":1773250832,"current_range_meters":32000,"station_id":"ce4bhoh2rcd13ifvqh6g","pricing_plan_id":"cebpf4jnsgd1na2vs0mg"},{"bike_id":"698d9a52-efc3-47db-9af6-f5c36a11a425","system_id":"levelo_inurba_marseille","lat":43.29866,"lon":5.39716,"is_reserved":false,"is_disabled":false,"rental_uris":{"android":"levelo://app?vid=698d9a52-efc3-47db-9af6-f5c36a11a425","ios":"levelo://app?vid=698d9a52-efc3-47db-9af6-f5c36a11a425"},"vehicle_type_id":"4","last_reported":1773250832,"current_range_meters":22400,"station_id":"ce4bh0h2rcd13ifvqd50","pricing_plan_id":"cebpf4jnsgd1na2vs0mg"},{"bike_id":"db654206-fa09-42f3-a19e-a6f3aaaa010c","system_id":"levelo_inurba_marseille","lat":43.2997,"lon":5.38507,"is_reserved":false,"is_disabled":false,"rental_uris":{"android":"levelo://app?vid=db654206-fa09-42f3-a19e-a6f3aaaa010c","ios":"levelo://app?vid=db654206-fa09-42f3-a19e-a6f3aaaa010c"},"vehicle_type_id":"4","last_reported":1773250832,"current_range_meters":26000,"station_id":"ce4bgj92rcd13ifvqbd0","pricing_plan_id":"cebpf4jnsgd1na2vs0mg"},{"bike_id":"c73dc152-9938-46ce-972e-77003c30697b","system_id":"levelo_inurba_marseille","lat":43.25808,"lon":5.39453,"is_reserved":false,"is_disabled":false,"rental_uris":{"android":"levelo://app?vid=c73dc152-9938-46ce-972e-77003c30697b","ios":"levelo://app?vid=c73dc152-9938-46ce-972e-77003c30697b"},"vehicle_type_id":"4","last_reported":1773250832,"current_range_meters":38800,"station_id":"ce4bhip2rcd13ifvqft0","pricing_plan_id":"cebpf4jnsgd1na2vs0mg"},{"bike_id":"1ca4f37a-c665-4f5a-bf5a-4bcd8eeadb2f","system_id":"levelo_inurba_marseille","lat":43.24072,"lon":5.37761,"is_reserved":false,"is_disabled":false,"rental_uris":{"android":"levelo://app?vid=1ca4f37a-c665-4f5a-bf5a-4bcd8eeadb2f","ios":"levelo://app?vid=1ca4f37a-c665-4f5a-bf5a-4bcd8eeadb2f"},"vehicle_type_id":"4","last_reported":1773250832,"current_range_meters":4000,"station_id":"ce4bhnp2rcd13ifvqgvg","pricing_plan_id":"cebpf4jnsgd1na2vs0mg"},{"bike_id":"7dbbbe3e-a0d6-422e-981c-b72a822d3e7c","system_id":"levelo_inurba_marseille","lat":43.28383,"lon":5.38664,"is_reserved":false,"is_disabled":false,"rental_uris":{"android":"levelo://app?vid=7dbbbe3e-a0d6-422e-981c-b72a822d3e7c","ios":"levelo://app?vid=7dbbbe3e-a0d6-422e-981c-b72a822d3e7c"},"vehicle_type_id":"4","last_reported":1773250832,"current_range_meters":39200,"station_id":"ce4bh492rcd13ifvqdvg","pricing_plan_id":"cebpf4jnsgd1na2vs0mg"},{"bike_id":"49488a0e-9d83-4431-9f58-b727b140d509","system_id":"levelo_inurba_marseille","lat":43.290397,"lon":5.399613,"is_reserved":false,"is_disabled":false,"rental_uris":{"android":"levelo://app?vid=49488a0e-9d83-4431-9f58-b727b140d509","ios":"levelo://app?vid=49488a0e-9d83-4431-9f58-b727b140d509"},"vehicle_type_id":"4","last_reported":1773250832,"current_range_meters":10000,"station_id":"ce4bh392rcd13ifvqdm0","pricing_plan_id":"cebpf4jnsgd1na2vs0mg"},{"bike_id":"4853c7ee-6865-4fcf-86c2-8ab14b67acd2","system_id":"levelo_inurba_marseille","lat":43.24952,"lon":5.40481,"is_reserved":false,"is_disabled":false,"rental_uris":{"android":"levelo://app?vid=4853c7ee-6865-4fcf-86c2-8ab14b67acd2","ios":"levelo://app?vid=4853c7ee-6865-4fcf-86c2-8ab14b67acd2"},"vehicle_type_id":"4","last_reported":1773250832,"current_range_meters":26000,"station_id":"st_d2ngiaodas8pm72gd1h0","pricing_plan_id":"cebpf4jnsgd1na2vs0mg"},{"bike_id":"190aeb3d-9b19-4215-a0b5-4ec8ba77c7d4","system_id":"levelo_inurba_marseille","lat":43.29244,"lon":5.38489,"is_reserved":false,"is_disabled":false,"rental_uris":{"android":"levelo://app?vid=190aeb3d-9b19-4215-a0b5-4ec8ba77c7d4","ios":"levelo://app?vid=190aeb3d-9b19-4215-a0b5-4ec8ba77c7d4"},"vehicle_type_id":"4","last_reported":1773250832,"current_range_meters":19200,"station_id":"ce4bh692rcd13ifvqea0","pricing_plan_id":"cebpf4jnsgd1na2vs0mg"},{"bike_id":"5cb204b1-b456-46e7-9842-b4bd74784df6","system_id":"levelo_inurba_marseille","lat":43.26062,"lon":5.39406,"is_reserved":false,"is_disabled":false,"rental_uris":{"android":"levelo://app?vid=5cb204b1-b456-46e7-9842-b4bd74784df6","ios":"levelo://app?vid=5cb204b1-b456-46e7-9842-b4bd74784df6"},"vehicle_type_id":"4","last_reported":1773250832,"current_range_meters":38000,"station_id":"ce4bhh92rcd13ifvqfj0","pricing_plan_id":"cebpf4jnsgd1na2vs0mg"},{"bike_id":"1c2a3f07-3b75-4560-b1fc-dc83e6ae2d97","system_id":"levelo_inurba_marseille","lat":43.30884,"lon":5.39652,"is_reserved":false,"is_disabled":false,"rental_uris":{"android":"levelo://app?vid=1c2a3f07-3b75-4560-b1fc-dc83e6ae2d97","ios":"levelo://app?vid=1c2a3f07-3b75-4560-b1fc-dc83e6ae2d97"},"vehicle_type_id":"4","last_reported":1773250832,"current_range_meters":40000,"station_id":"ce4bh012rcd13ifvqcv0","pricing_plan_id":"cebpf4jnsgd1na2vs0mg"},{"bike_id":"6740e127-a7ea-46ab-b4a8-baf78e2d1b1e","system_id":"levelo_inurba_marseille","lat":43.28572,"lon":5.39495,"is_reserved":false,"is_disabled":false,"rental_uris":{"android":"levelo://app?vid=6740e127-a7ea-46ab-b4a8-baf78e2d1b1e","ios":"levelo://app?vid=6740e127-a7ea-46ab-b4a8-baf78e2d1b1e"},"vehicle_type_id":"4","last_reported":1773250832,"current_range_meters":20000,"station_id":"ce4bh292rcd13ifvqdg0","pricing_plan_id":"cebpf4jnsgd1na2vs0mg"},{"bike_id":"24e4b61e-e43b-4391-843f-ad1ff3d2b8df","system_id":"levelo_inurba_marseille","lat":43.2885,"lon":5.39321,"is_reserved":false,"is_disabled":false,"rental_uris":{"android":"levelo://app?vid=24e4b61e-e43b-4391-843f-ad1ff3d2b8df","ios":"levelo://app?vid=24e4b61e-e43b-4391-843f-ad1ff3d2b8df"},"vehicle_type_id":"4","last_reported":1773250832,"current_range_meters":32800,"station_id":"ce4bh2p2rcd13ifvqdi0","pricing_plan_id":"cebpf4jnsgd1na2vs0mg"},{"bike_id":"6fb5ab57-ef29-41f3-8acd-c554076c0bbe","system_id":"levelo_inurba_marseille","lat":43.29277,"lon":5.36843,"is_reserved":false,"is_disabled":true,"rental_uris":{"android":"levelo://app?vid=6fb5ab57-ef29-41f3-8acd-c554076c0bbe","ios":"levelo://app?vid=6fb5ab57-ef29-41f3-8acd-c554076c0bbe"},"vehicle_type_id":"4","last_reported":1773250832,"current_range_meters":38000,"station_id":"ce4bhbp2rcd13ifvqesg","pricing_plan_id":"cebpf4jnsgd1na2vs0mg"},{"bike_id":"4eb01288-23f5-4e80-9a9a-837bb161c164","system_id":"levelo_inurba_marseille","lat":43.27073,"lon":5.38312,"is_reserved":false,"is_disabled":false,"rental_uris":{"android":"levelo://app?vid=4eb01288-23f5-4e80-9a9a-837bb161c164","ios":"levelo://app?vid=4eb01288-23f5-4e80-9a9a-837bb161c164"},"vehicle_type_id":"4","last_reported":1773250832,"current_range_meters":36800,"station_id":"st_d3n2fo6cfp8s73cte1j0","pricing_plan_id":"cebpf4jnsgd1na2vs0mg"},{"bike_id":"116cd297-5b26-407f-b364-2e807e60b150","system_id":"levelo_inurba_marseille","lat":43.29486,"lon":5.433,"is_reserved":false,"is_disabled":false,"rental_uris":{"android":"levelo://app?vid=116cd297-5b26-407f-b364-2e807e60b150","ios":"levelo://app?vid=116cd297-5b26-407f-b364-2e807e60b150"},"vehicle_type_id":"4","last_reported":1773250832,"current_range_meters":34000,"station_id":"st_d3j5ugp08ojc73fj9d10","pricing_plan_id":"cebpf4jnsgd1na2vs0mg"},{"bike_id":"c779c9fc-78bf-4a84-b538-fe749608e655","system_id":"levelo_inurba_marseille","lat":43.24077,"lon":5.37759,"is_reserved":false,"is_disabled":false,"rental_uris":{"android":"levelo://app?vid=c779c9fc-78bf-4a84-b538-fe749608e655","ios":"levelo://app?vid=c779c9fc-78bf-4a84-b538-fe749608e655"},"vehicle_type_id":"4","last_reported":1773250832,"current_range_meters":28400,"station_id":"ce4bhnp2rcd13ifvqgvg","pricing_plan_id":"cebpf4jnsgd1na2vs0mg"},{"bike_id":"8ca3bc24-525f-427f-82ef-18e9228352e9","system_id":"levelo_inurba_marseille","lat":43.28618,"lon":5.35106,"is_reserved":false,"is_disabled":false,"rental_uris":{"android":"levelo://app?vid=8ca3bc24-525f-427f-82ef-18e9228352e9","ios":"levelo://app?vid=8ca3bc24-525f-427f-82ef-18e9228352e9"},"vehicle_type_id":"4","last_reported":1773250832,"current_range_meters":16000,"station_id":"ce4bhch2rcd13ifvqeug","pricing_plan_id":"cebpf4jnsgd1na2vs0mg"},{"bike_id":"a63d22a1-9803-47da-97c5-9eb5069b8019","system_id":"levelo_inurba_marseille","lat":43.25845,"lon":5.3946,"is_reserved":false,"is_disabled":false,"rental_uris":{"android":"levelo://app?vid=a63d22a1-9803-47da-97c5-9eb5069b8019","ios":"levelo://app?vid=a63d22a1-9803-47da-97c5-9eb5069b8019"},"vehicle_type_id":"4","last_reported":1773250832,"current_range_meters":38400,"station_id":"ce4bhip2rcd13ifvqft0","pricing_plan_id":"cebpf4jnsgd1na2vs0mg"},{"bike_id":"8d0b3e7c-b3f2-46d2-a28a-5fbde14f99e6","system_id":"levelo_inurba_marseille","lat":43.29925,"lon":5.37495,"is_reserved":false,"is_disabled":false,"rental_uris":{"android":"levelo://app?vid=8d0b3e7c-b3f2-46d2-a28a-5fbde14f99e6","ios":"levelo://app?vid=8d0b3e7c-b3f2-46d2-a28a-5fbde14f99e6"},"vehicle_type_id":"4","last_reported":1773250832,"current_range_meters":19600,"station_id":"ce4bgjh2rcd13ifvqbg0","pricing_plan_id":"cebpf4jnsgd1na2vs0mg"},{"bike_id":"0e3bd91b-704f-47e7-bc24-0ac4f9bb0eb4","system_id":"levelo_inurba_marseille","lat":43.24393,"lon":5.3707,"is_reserved":false,"is_disabled":false,"rental_uris":{"android":"levelo://app?vid=0e3bd91b-704f-47e7-bc24-0ac4f9bb0eb4","ios":"levelo://app?vid=0e3bd91b-704f-47e7-bc24-0ac4f9bb0eb4"},"vehicle_type_id":"4","last_reported":1773250832,"current_range_meters":34800,"station_id":"ce4bhhh2rcd13ifvqfk0","pricing_plan_id":"cebpf4jnsgd1na2vs0mg"},{"bike_id":"8b2e521b-1101-44fe-9d4a-0344f080c81c","system_id":"levelo_inurba_marseille","lat":43.28471,"lon":5.48402,"is_reserved":false,"is_disabled":false,"rental_uris":{"android":"levelo://app?vid=8b2e521b-1101-44fe-9d4a-0344f080c81c","ios":"levelo://app?vid=8b2e521b-1101-44fe-9d4a-0344f080c81c"},"vehicle_type_id":"4","last_reported":1773250832,"current_range_meters":36400,"station_id":"","pricing_plan_id":"cebpf4jnsgd1na2vs0mg"},{"bike_id":"f223e6ed-83d6-4cf7-9531-ded83cf81cf3","system_id":"levelo_inurba_marseille","lat":43.29372,"lon":5.37855,"is_reserved":false,"is_disabled":false,"rental_uris":{"android":"levelo://app?vid=f223e6ed-83d6-4cf7-9531-ded83cf81cf3","ios":"levelo://app?vid=f223e6ed-83d6-4cf7-9531-ded83cf81cf3"},"vehicle_type_id":"4","last_reported":1773250832,"current_range_meters":32400,"station_id":"ce4bgjh2rcd13ifvqbf0","pricing_plan_id":"cebpf4jnsgd1na2vs0mg"},{"bike_id":"1697678c-c8a4-4c47-ade7-901915c540a8","system_id":"levelo_inurba_marseille","lat":43.29599,"lon":5.38101,"is_reserved":false,"is_disabled":true,"rental_uris":{"android":"levelo://app?vid=1697678c-c8a4-4c47-ade7-901915c540a8","ios":"levelo://app?vid=1697678c-c8a4-4c47-ade7-901915c540a8"},"vehicle_type_id":"4","last_reported":1773250832,"current_range_meters":6000,"station_id":"ce4bgl12rcd13ifvqbo0","pricing_plan_id":"cebpf4jnsgd1na2vs0mg"},{"bike_id":"66528f80-fb68-498d-bd2d-ca4ea15bdef0","system_id":"levelo_inurba_marseille","lat":43.26515,"lon":5.39594,"is_reserved":false,"is_disabled":false,"rental_uris":{"android":"levelo://app?vid=66528f80-fb68-498d-bd2d-ca4ea15bdef0","ios":"levelo://app?vid=66528f80-fb68-498d-bd2d-ca4ea15bdef0"},"vehicle_type_id":"4","last_reported":1773250832,"current_range_meters":36800,"station_id":"ce4bhi12rcd13ifvqfq0","pricing_plan_id":"cebpf4jnsgd1na2vs0mg"},{"bike_id":"4ce569eb-e43d-41ec-b666-411392434e4c","system_id":"levelo_inurba_marseille","lat":43.29263,"lon":5.38483,"is_reserved":false,"is_disabled":false,"rental_uris":{"android":"levelo://app?vid=4ce569eb-e43d-41ec-b666-411392434e4c","ios":"levelo://app?vid=4ce569eb-e43d-41ec-b666-411392434e4c"},"vehicle_type_id":"4","last_reported":1773250832,"current_range_meters":30400,"station_id":"ce4bh692rcd13ifvqea0","pricing_plan_id":"cebpf4jnsgd1na2vs0mg"},{"bike_id":"bc8846b0-d567-493b-8d14-5a421dbe54aa","system_id":"levelo_inurba_marseille","lat":43.29576,"lon":5.3751,"is_reserved":false,"is_disabled":false,"rental_uris":{"android":"levelo://app?vid=bc8846b0-d567-493b-8d14-5a421dbe54aa","ios":"levelo://app?vid=bc8846b0-d567-493b-8d14-5a421dbe54aa"},"vehicle_type_id":"4","last_reported":1773250832,"current_range_meters":23200,"station_id":"ce4bgh92rcd13ifvqb50","pricing_plan_id":"cebpf4jnsgd1na2vs0mg"},{"bike_id":"c67ea42e-7de9-481c-81f7-f0ae210e353e","system_id":"levelo_inurba_marseille","lat":43.31995,"lon":5.38166,"is_reserved":false,"is_disabled":false,"rental_uris":{"android":"levelo://app?vid=c67ea42e-7de9-481c-81f7-f0ae210e353e","ios":"levelo://app?vid=c67ea42e-7de9-481c-81f7-f0ae210e353e"},"vehicle_type_id":"4","last_reported":1773250832,"current_range_meters":36800,"station_id":"ce4bhr12rcd13ifvqhpg","pricing_plan_id":"cebpf4jnsgd1na2vs0mg"},{"bike_id":"9747c245-a6c2-4c6a-9e3e-7116d5ac6cf8","system_id":"levelo_inurba_marseille","lat":43.29292,"lon":5.37458,"is_reserved":false,"is_disabled":false,"rental_uris":{"android":"levelo://app?vid=9747c245-a6c2-4c6a-9e3e-7116d5ac6cf8","ios":"levelo://app?vid=9747c245-a6c2-4c6a-9e3e-7116d5ac6cf8"},"vehicle_type_id":"4","last_reported":1773250832,"current_range_meters":14800,"station_id":"ce4bgi12rcd13ifvqb70","pricing_plan_id":"cebpf4jnsgd1na2vs0mg"},{"bike_id":"629a5b04-9225-42cf-b2f9-d31afe3f11aa","system_id":"levelo_inurba_marseille","lat":43.26548,"lon":5.37298,"is_reserved":false,"is_disabled":false,"rental_uris":{"android":"levelo://app?vid=629a5b04-9225-42cf-b2f9-d31afe3f11aa","ios":"levelo://app?vid=629a5b04-9225-42cf-b2f9-d31afe3f11aa"},"vehicle_type_id":"4","last_reported":1773250832,"current_range_meters":39200,"station_id":"ce4bhg12rcd13ifvqf70","pricing_plan_id":"cebpf4jnsgd1na2vs0mg"},{"bike_id":"514f14d9-6531-45be-8948-2aa76ec4d3d4","system_id":"levelo_inurba_marseille","lat":43.26557,"lon":5.37282,"is_reserved":false,"is_disabled":false,"rental_uris":{"android":"levelo://app?vid=514f14d9-6531-45be-8948-2aa76ec4d3d4","ios":"levelo://app?vid=514f14d9-6531-45be-8948-2aa76ec4d3d4"},"vehicle_type_id":"4","last_reported":1773250832,"current_range_meters":30400,"station_id":"ce4bhg12rcd13ifvqf70","pricing_plan_id":"cebpf4jnsgd1na2vs0mg"},{"bike_id":"26a6b2e2-002a-4072-a1a2-b594f4e8b66c","system_id":"levelo_inurba_marseille","lat":43.30879,"lon":5.37342,"is_reserved":false,"is_disabled":false,"rental_uris":{"android":"levelo://app?vid=26a6b2e2-002a-4072-a1a2-b594f4e8b66c","ios":"levelo://app?vid=26a6b2e2-002a-4072-a1a2-b594f4e8b66c"},"vehicle_type_id":"4","last_reported":1773250832,"current_range_meters":30000,"station_id":"","pricing_plan_id":"cebpf4jnsgd1na2vs0mg"},{"bike_id":"c0f412de-40e6-4a94-a5dd-7c358ceb2433","system_id":"levelo_inurba_marseille","lat":43.23194,"lon":5.40006,"is_reserved":false,"is_disabled":false,"rental_uris":{"android":"levelo://app?vid=c0f412de-40e6-4a94-a5dd-7c358ceb2433","ios":"levelo://app?vid=c0f412de-40e6-4a94-a5dd-7c358ceb2433"},"vehicle_type_id":"4","last_reported":1773250832,"current_range_meters":39200,"station_id":"ce4bhn12rcd13ifvqgqg","pricing_plan_id":"cebpf4jnsgd1na2vs0mg"},{"bike_id":"af2b8f8a-6b1d-4add-99d8-19814eacc4af","system_id":"levelo_inurba_marseille","lat":43.24073,"lon":5.3776,"is_reserved":false,"is_disabled":false,"rental_uris":{"android":"levelo://app?vid=af2b8f8a-6b1d-4add-99d8-19814eacc4af","ios":"levelo://app?vid=af2b8f8a-6b1d-4add-99d8-19814eacc4af"},"vehicle_type_id":"4","last_reported":1773250832,"current_range_meters":17600,"station_id":"ce4bhnp2rcd13ifvqgvg","pricing_plan_id":"cebpf4jnsgd1na2vs0mg"},{"bike_id":"fd7d5543-5a5d-41d6-9fce-f29d16997315","system_id":"levelo_inurba_marseille","lat":43.24953,"lon":5.40504,"is_reserved":false,"is_disabled":false,"rental_uris":{"android":"levelo://app?vid=fd7d5543-5a5d-41d6-9fce-f29d16997315","ios":"levelo://app?vid=fd7d5543-5a5d-41d6-9fce-f29d16997315"},"vehicle_type_id":"4","last_reported":1773250832,"current_range_meters":30400,"station_id":"st_d2ngiaodas8pm72gd1h0","pricing_plan_id":"cebpf4jnsgd1na2vs0mg"},{"bike_id":"43dec2c9-0ed1-464f-872a-fff85f3760db","system_id":"levelo_inurba_marseille","lat":43.29592,"lon":5.36734,"is_reserved":false,"is_disabled":false,"rental_uris":{"android":"levelo://app?vid=43dec2c9-0ed1-464f-872a-fff85f3760db","ios":"levelo://app?vid=43dec2c9-0ed1-464f-872a-fff85f3760db"},"vehicle_type_id":"4","last_reported":1773250832,"current_range_meters":30800,"station_id":"ce4bgph2rcd13ifvqc2g","pricing_plan_id":"cebpf4jnsgd1na2vs0mg"},{"bike_id":"1d6ad8cd-805b-43dc-8d24-64080569264e","system_id":"levelo_inurba_marseille","lat":43.25497,"lon":5.37649,"is_reserved":false,"is_disabled":false,"rental_uris":{"android":"levelo://app?vid=1d6ad8cd-805b-43dc-8d24-64080569264e","ios":"levelo://app?vid=1d6ad8cd-805b-43dc-8d24-64080569264e"},"vehicle_type_id":"4","last_reported":1773250832,"current_range_meters":39200,"station_id":"ce4bhh12rcd13ifvqff0","pricing_plan_id":"cebpf4jnsgd1na2vs0mg"},{"bike_id":"f46b5aee-9b48-4ec0-8861-80cf0777d963","system_id":"levelo_inurba_marseille","lat":43.29625,"lon":5.37711,"is_reserved":false,"is_disabled":false,"rental_uris":{"android":"levelo://app?vid=f46b5aee-9b48-4ec0-8861-80cf0777d963","ios":"levelo://app?vid=f46b5aee-9b48-4ec0-8861-80cf0777d963"},"vehicle_type_id":"4","last_reported":1773250832,"current_range_meters":14800,"station_id":"ce4bgi92rcd13ifvqb90","pricing_plan_id":"cebpf4jnsgd1na2vs0mg"},{"bike_id":"65633d4a-0725-46b4-a261-49fd9deff099","system_id":"levelo_inurba_marseille","lat":43.2876,"lon":5.37919,"is_reserved":false,"is_disabled":false,"rental_uris":{"android":"levelo://app?vid=65633d4a-0725-46b4-a261-49fd9deff099","ios":"levelo://app?vid=65633d4a-0725-46b4-a261-49fd9deff099"},"vehicle_type_id":"4","last_reported":1773250832,"current_range_meters":13600,"station_id":"ce4bh9p2rcd13ifvqec0","pricing_plan_id":"cebpf4jnsgd1na2vs0mg"},{"bike_id":"33b5d25c-41b3-47ff-b669-a792344a0955","system_id":"levelo_inurba_marseille","lat":43.286102,"lon":5.370607,"is_reserved":false,"is_disabled":false,"rental_uris":{"android":"levelo://app?vid=33b5d25c-41b3-47ff-b669-a792344a0955","ios":"levelo://app?vid=33b5d25c-41b3-47ff-b669-a792344a0955"},"vehicle_type_id":"4","last_reported":1773250832,"current_range_meters":8400,"station_id":"ce4bht12rcd13ifvqi60","pricing_plan_id":"cebpf4jnsgd1na2vs0mg"},{"bike_id":"354b5bda-3949-4498-85b6-eb76538c91b8","system_id":"levelo_inurba_marseille","lat":43.26055,"lon":5.39408,"is_reserved":false,"is_disabled":false,"rental_uris":{"android":"levelo://app?vid=354b5bda-3949-4498-85b6-eb76538c91b8","ios":"levelo://app?vid=354b5bda-3949-4498-85b6-eb76538c91b8"},"vehicle_type_id":"4","last_reported":1773250832,"current_range_meters":19600,"station_id":"ce4bhh92rcd13ifvqfj0","pricing_plan_id":"cebpf4jnsgd1na2vs0mg"},{"bike_id":"31eab7aa-d2ff-4d19-8af0-c2c63f0c6b5f","system_id":"levelo_inurba_marseille","lat":43.23194,"lon":5.3556,"is_reserved":false,"is_disabled":false,"rental_uris":{"android":"levelo://app?vid=31eab7aa-d2ff-4d19-8af0-c2c63f0c6b5f","ios":"levelo://app?vid=31eab7aa-d2ff-4d19-8af0-c2c63f0c6b5f"},"vehicle_type_id":"4","last_reported":1773250832,"current_range_meters":24800,"station_id":"ce4bhu92rcd13ifvqi70","pricing_plan_id":"cebpf4jnsgd1na2vs0mg"},{"bike_id":"855d290c-6de7-4546-b5ce-b3fcac5adfd4","system_id":"levelo_inurba_marseille","lat":43.24804,"lon":5.37453,"is_reserved":false,"is_disabled":false,"rental_uris":{"android":"levelo://app?vid=855d290c-6de7-4546-b5ce-b3fcac5adfd4","ios":"levelo://app?vid=855d290c-6de7-4546-b5ce-b3fcac5adfd4"},"vehicle_type_id":"4","last_reported":1773250832,"current_range_meters":37600,"station_id":"ce4bhgh2rcd13ifvqfb0","pricing_plan_id":"cebpf4jnsgd1na2vs0mg"},{"bike_id":"099c98f1-3c97-4f83-88ef-7c3cc743f3f7","system_id":"levelo_inurba_marseille","lat":43.26212,"lon":5.37438,"is_reserved":false,"is_disabled":true,"rental_uris":{"android":"levelo://app?vid=099c98f1-3c97-4f83-88ef-7c3cc743f3f7","ios":"levelo://app?vid=099c98f1-3c97-4f83-88ef-7c3cc743f3f7"},"vehicle_type_id":"4","last_reported":1773250832,"current_range_meters":0,"station_id":"ce4bhgp2rcd13ifvqfc0","pricing_plan_id":"cebpf4jnsgd1na2vs0mg"},{"bike_id":"ddf130b2-500a-4fba-8154-9cd325a6e372","system_id":"levelo_inurba_marseille","lat":43.28567,"lon":5.39505,"is_reserved":false,"is_disabled":false,"rental_uris":{"android":"levelo://app?vid=ddf130b2-500a-4fba-8154-9cd325a6e372","ios":"levelo://app?vid=ddf130b2-500a-4fba-8154-9cd325a6e372"},"vehicle_type_id":"4","last_reported":1773250832,"current_range_meters":32800,"station_id":"ce4bh292rcd13ifvqdg0","pricing_plan_id":"cebpf4jnsgd1na2vs0mg"},{"bike_id":"a0aa8461-cd6a-4db7-9d35-4a39cc18dc6b","system_id":"levelo_inurba_marseille","lat":43.30513,"lon":5.36647,"is_reserved":false,"is_disabled":true,"rental_uris":{"android":"levelo://app?vid=a0aa8461-cd6a-4db7-9d35-4a39cc18dc6b","ios":"levelo://app?vid=a0aa8461-cd6a-4db7-9d35-4a39cc18dc6b"},"vehicle_type_id":"4","last_reported":1773250832,"current_range_meters":25200,"station_id":"","pricing_plan_id":"cebpf4jnsgd1na2vs0mg"},{"bike_id":"f70448b9-0f7f-40d6-a56a-6c79dc9ccaaf","system_id":"levelo_inurba_marseille","lat":43.28624,"lon":5.35109,"is_reserved":false,"is_disabled":false,"rental_uris":{"android":"levelo://app?vid=f70448b9-0f7f-40d6-a56a-6c79dc9ccaaf","ios":"levelo://app?vid=f70448b9-0f7f-40d6-a56a-6c79dc9ccaaf"},"vehicle_type_id":"4","last_reported":1773250832,"current_range_meters":39200,"station_id":"ce4bhch2rcd13ifvqeug","pricing_plan_id":"cebpf4jnsgd1na2vs0mg"},{"bike_id":"229ffee0-5f42-4769-891d-25241baabe25","system_id":"levelo_inurba_marseille","lat":43.28044,"lon":5.36938,"is_reserved":false,"is_disabled":false,"rental_uris":{"android":"levelo://app?vid=229ffee0-5f42-4769-891d-25241baabe25","ios":"levelo://app?vid=229ffee0-5f42-4769-891d-25241baabe25"},"vehicle_type_id":"4","last_reported":1773250832,"current_range_meters":8800,"station_id":"ce4bha12rcd13ifvqef0","pricing_plan_id":"cebpf4jnsgd1na2vs0mg"},{"bike_id":"f867b88c-51b1-4ee5-b323-730e045c4c1e","system_id":"levelo_inurba_marseille","lat":43.28151,"lon":5.42671,"is_reserved":false,"is_disabled":false,"rental_uris":{"android":"levelo://app?vid=f867b88c-51b1-4ee5-b323-730e045c4c1e","ios":"levelo://app?vid=f867b88c-51b1-4ee5-b323-730e045c4c1e"},"vehicle_type_id":"4","last_reported":1773250832,"current_range_meters":20000,"station_id":"ce4bhnh2rcd13ifvqgug","pricing_plan_id":"cebpf4jnsgd1na2vs0mg"},{"bike_id":"3c5f9fc9-6c03-4527-85fa-ee20ae245c46","system_id":"levelo_inurba_marseille","lat":43.31053,"lon":5.37207,"is_reserved":false,"is_disabled":false,"rental_uris":{"android":"levelo://app?vid=3c5f9fc9-6c03-4527-85fa-ee20ae245c46","ios":"levelo://app?vid=3c5f9fc9-6c03-4527-85fa-ee20ae245c46"},"vehicle_type_id":"4","last_reported":1773250832,"current_range_meters":39200,"station_id":"st_d4kl2rp97mjs73e7tdfg","pricing_plan_id":"cebpf4jnsgd1na2vs0mg"},{"bike_id":"4164d970-9387-4571-a484-190ff6193b27","system_id":"levelo_inurba_marseille","lat":43.25584,"lon":5.38248,"is_reserved":false,"is_disabled":false,"rental_uris":{"android":"levelo://app?vid=4164d970-9387-4571-a484-190ff6193b27","ios":"levelo://app?vid=4164d970-9387-4571-a484-190ff6193b27"},"vehicle_type_id":"4","last_reported":1773250832,"current_range_meters":39200,"station_id":"ce4bhih2rcd13ifvqfs0","pricing_plan_id":"cebpf4jnsgd1na2vs0mg"},{"bike_id":"46d05d5d-7545-46ab-84f0-23f51bc6d0e3","system_id":"levelo_inurba_marseille","lat":43.29285,"lon":5.38507,"is_reserved":false,"is_disabled":false,"rental_uris":{"android":"levelo://app?vid=46d05d5d-7545-46ab-84f0-23f51bc6d0e3","ios":"levelo://app?vid=46d05d5d-7545-46ab-84f0-23f51bc6d0e3"},"vehicle_type_id":"4","last_reported":1773250832,"current_range_meters":39200,"station_id":"","pricing_plan_id":"cebpf4jnsgd1na2vs0mg"},{"bike_id":"c34e831b-51ff-40fa-88a2-7fcc6eb13166","system_id":"levelo_inurba_marseille","lat":43.299,"lon":5.39752,"is_reserved":false,"is_disabled":false,"rental_uris":{"android":"levelo://app?vid=c34e831b-51ff-40fa-88a2-7fcc6eb13166","ios":"levelo://app?vid=c34e831b-51ff-40fa-88a2-7fcc6eb13166"},"vehicle_type_id":"4","last_reported":1773250832,"current_range_meters":9600,"station_id":"ce4bh0h2rcd13ifvqd50","pricing_plan_id":"cebpf4jnsgd1na2vs0mg"},{"bike_id":"c21b8a82-9bab-4050-8a61-558a7b4674eb","system_id":"levelo_inurba_marseille","lat":43.28101,"lon":5.37839,"is_reserved":false,"is_disabled":false,"rental_uris":{"android":"levelo://app?vid=c21b8a82-9bab-4050-8a61-558a7b4674eb","ios":"levelo://app?vid=c21b8a82-9bab-4050-8a61-558a7b4674eb"},"vehicle_type_id":"4","last_reported":1773250832,"current_range_meters":14400,"station_id":"ce4bha12rcd13ifvqee0","pricing_plan_id":"cebpf4jnsgd1na2vs0mg"},{"bike_id":"eee030f9-7359-435a-8db7-cd8193b34512","system_id":"levelo_inurba_marseille","lat":43.26068,"lon":5.39387,"is_reserved":false,"is_disabled":false,"rental_uris":{"android":"levelo://app?vid=eee030f9-7359-435a-8db7-cd8193b34512","ios":"levelo://app?vid=eee030f9-7359-435a-8db7-cd8193b34512"},"vehicle_type_id":"4","last_reported":1773250832,"current_range_meters":30400,"station_id":"ce4bhh92rcd13ifvqfj0","pricing_plan_id":"cebpf4jnsgd1na2vs0mg"},{"bike_id":"e1953514-6bba-4fb4-94e4-40c57b362e06","system_id":"levelo_inurba_marseille","lat":43.27997,"lon":5.40014,"is_reserved":false,"is_disabled":false,"rental_uris":{"android":"levelo://app?vid=e1953514-6bba-4fb4-94e4-40c57b362e06","ios":"levelo://app?vid=e1953514-6bba-4fb4-94e4-40c57b362e06"},"vehicle_type_id":"4","last_reported":1773250832,"current_range_meters":18800,"station_id":"ce4bho92rcd13ifvqh4g","pricing_plan_id":"cebpf4jnsgd1na2vs0mg"},{"bike_id":"862f1a3e-115c-41ff-964e-638a1ba46535","system_id":"levelo_inurba_marseille","lat":43.27949,"lon":5.41051,"is_reserved":false,"is_disabled":true,"rental_uris":{"android":"levelo://app?vid=862f1a3e-115c-41ff-964e-638a1ba46535","ios":"levelo://app?vid=862f1a3e-115c-41ff-964e-638a1ba46535"},"vehicle_type_id":"4","last_reported":1773250832,"current_range_meters":39200,"station_id":"ce4bhnp2rcd13ifvqh0g","pricing_plan_id":"cebpf4jnsgd1na2vs0mg"},{"bike_id":"c3ea7ab3-3405-418e-89cc-3bf40bbb5781","system_id":"levelo_inurba_marseille","lat":43.30887,"lon":5.39632,"is_reserved":false,"is_disabled":false,"rental_uris":{"android":"levelo://app?vid=c3ea7ab3-3405-418e-89cc-3bf40bbb5781","ios":"levelo://app?vid=c3ea7ab3-3405-418e-89cc-3bf40bbb5781"},"vehicle_type_id":"4","last_reported":1773250832,"current_range_meters":39200,"station_id":"ce4bh012rcd13ifvqcv0","pricing_plan_id":"cebpf4jnsgd1na2vs0mg"},{"bike_id":"e21bfcee-ea2c-4019-b807-3b043cc5d947","system_id":"levelo_inurba_marseille","lat":43.27526,"lon":5.40887,"is_reserved":false,"is_disabled":false,"rental_uris":{"android":"levelo://app?vid=e21bfcee-ea2c-4019-b807-3b043cc5d947","ios":"levelo://app?vid=e21bfcee-ea2c-4019-b807-3b043cc5d947"},"vehicle_type_id":"4","last_reported":1773250832,"current_range_meters":28400,"station_id":"","pricing_plan_id":"cebpf4jnsgd1na2vs0mg"},{"bike_id":"69b0e357-e7e5-4ce6-af5c-c544a779e2b2","system_id":"levelo_inurba_marseille","lat":43.32485,"lon":5.36577,"is_reserved":false,"is_disabled":false,"rental_uris":{"android":"levelo://app?vid=69b0e357-e7e5-4ce6-af5c-c544a779e2b2","ios":"levelo://app?vid=69b0e357-e7e5-4ce6-af5c-c544a779e2b2"},"vehicle_type_id":"4","last_reported":1773250832,"current_range_meters":39200,"station_id":"ce4bhs12rcd13ifvqhvg","pricing_plan_id":"cebpf4jnsgd1na2vs0mg"},{"bike_id":"7c69e2e9-a128-4bf6-8332-51b3c9e95d91","system_id":"levelo_inurba_marseille","lat":43.30786,"lon":5.37668,"is_reserved":false,"is_disabled":false,"rental_uris":{"android":"levelo://app?vid=7c69e2e9-a128-4bf6-8332-51b3c9e95d91","ios":"levelo://app?vid=7c69e2e9-a128-4bf6-8332-51b3c9e95d91"},"vehicle_type_id":"4","last_reported":1773250832,"current_range_meters":12000,"station_id":"ce4bgv92rcd13ifvqcq0","pricing_plan_id":"cebpf4jnsgd1na2vs0mg"},{"bike_id":"5d94b8b3-fd10-4175-b603-2ebb7b582f86","system_id":"levelo_inurba_marseille","lat":43.2953,"lon":5.3854,"is_reserved":false,"is_disabled":false,"rental_uris":{"android":"levelo://app?vid=5d94b8b3-fd10-4175-b603-2ebb7b582f86","ios":"levelo://app?vid=5d94b8b3-fd10-4175-b603-2ebb7b582f86"},"vehicle_type_id":"4","last_reported":1773250832,"current_range_meters":12400,"station_id":"ce4bgih2rcd13ifvqba0","pricing_plan_id":"cebpf4jnsgd1na2vs0mg"},