{"last_updated":1692551071,"ttl":30,"version":"2.2","data":{"bikes":[{"bike_id":"f22ca441-4e4e-4660-b824-b2f46943e54d","system_id":"levelo_inurba_marseille","lat":43.312239,"lon":5.368562,"is_reserved":false,"is_disabled":false,"rental_uris":{"android":"levelo://app?vid=f22ca441-4e4e-4660-b824-b2f46943e54d","ios":"levelo://app?vid=f22ca441-4e4e-4660-b824-b2f46943e54d"},"vehicle_type_id":"4","last_reported":1692551071,"current_range_meters":31600,"station_id":"ce4bgl92rcd13ifvqbq0","pricing_plan_id":"free"},{"bike_id":"97489ccc-5d48-41e4-aac1-63881fbc6fa1","system_id":"levelo_inurba_marseille","lat":43.312239,"lon":5.368562,"is_reserved":false,"is_disabled":false,"rental_uris":{"android":"levelo://app?vid=97489ccc-5d48-41e4-aac1-63881fbc6fa1","ios":"levelo://app?vid=97489ccc-5d48-41e4-aac1-63881fbc6fa1"},"vehicle_type_id":"4","last_reported":1692551071,"current_range_meters":9600,"station_id":"ce4bgl92rcd13ifvqbq0","pricing_plan_id":"free"},{"bike_id":"386ed8e3-b71e-4f68-86af-202c5b76503e","system_id":"levelo_inurba_marseille","lat":43.305368,"lon":5.367343,"is_reserved":false,"is_disabled":false,"rental_uris":{"android":"levelo://app?vid=386ed8e3-b71e-4f68-86af-202c5b76503e","ios":"levelo://app?vid=386ed8e3-b71e-4f68-86af-202c5b76503e"},"vehicle_type_id":"4","last_reported":1692551071,"current_range_meters":19600,"station_id":"ce4bgrp2rcd13ifvqc9g","pricing_plan_id":"free"},{"bike_id":"44b8de21-e1d7-4b52-b8ec-bc761da8426d","system_id":"levelo_inurba_marseille","lat":43.30541,"lon":5.36708,"is_reserved":false,"is_disabled":false,"rental_uris":{"android":"levelo://app?vid=44b8de21-e1d7-4b52-b8ec-bc761da8426d","ios":"levelo://app?vid=44b8de21-e1d7-4b52-b8ec-bc761da8426d"},"vehicle_type_id":"4","last_reported":1692551071,"current_range_meters":10800,"station_id":"ce4bgrp2rcd13ifvqc9g","pricing_plan_id":"free"},{"bike_id":"9fbe6e18-d192-44c2-98b5-cafb68b41aa4","system_id":"levelo_inurba_marseille","lat":43.30544,"lon":5.36527,"is_reserved":false,"is_disabled":false,"rental_uris":{"android":"levelo://app?vid=9fbe6e18-d192-44c2-98b5-cafb68b41aa4","ios":"levelo://app?vid=9fbe6e18-d192-44c2-98b5-cafb68b41aa4"},"vehicle_type_id":"4","last_reported":1692551071,"current_range_meters":5600,"station_id":"ce4bgs12rcd13ifvqcag","pricing_plan_id":"free"},{"bike_id":"c5a22aee-d6a3-432d-a961-eb510ed6a277","system_id":"levelo_inurba_marseille","lat":43.305706,"lon":5.365654,"is_reserved":false,"is_disabled":false,"rental_uris":{"android":"levelo://app?vid=c5a22aee-d6a3-432d-a961-eb510ed6a277","ios":"levelo://app?vid=c5a22aee-d6a3-432d-a961-eb510ed6a277"},"vehicle_type_id":"4","last_reported":1692551071,"current_range_meters":0,"station_id":"ce4bgs12rcd13ifvqcag","pricing_plan_id":"free"},{"bike_id":"c23192cc-03ce-4e01-b97f-cc0653e863e2","system_id":"levelo_inurba_marseille","lat":43.315201,"lon":5.380291,"is_reserved":false,"is_disabled":false,"rental_uris":{"android":"levelo://app?vid=c23192cc-03ce-4e01-b97f-cc0653e863e2","ios":"levelo://app?vid=c23192cc-03ce-4e01-b97f-cc0653e863e2"},"vehicle_type_id":"4","last_reported":1692551071,"current_range_meters":0,"station_id":"ce4bhsp2rcd13ifvqi50","pricing_plan_id":"free"},{"bike_id":"327fe0dc-08c0-428e-baf6-82942cb2943b","system_id":"levelo_inurba_marseille","lat":43.31524,"lon":5.38037,"is_reserved":false,"is_disabled":false,"rental_uris":{"android":"levelo://app?vid=327fe0dc-08c0-428e-baf6-82942cb2943b","ios":"levelo://app?vid=327fe0dc-08c0-428e-baf6-82942cb2943b"},"vehicle_type_id":"4","last_reported":1692551071,"current_range_meters":4400,"station_id":"ce4bhsp2rcd13ifvqi50","pricing_plan_id":"free"},{"bike_id":"40fb773e-58b8-4f99-a28f-b2a7cdc8625d","system_id":"levelo_inurba_marseille","lat":43.304578,"lon":5.379059,"is_reserved":false,"is_disabled":false,"rental_uris":{"android":"levelo://app?vid=40fb773e-58b8-4f99-a28f-b2a7cdc8625d","ios":"levelo://app?vid=40fb773e-58b8-4f99-a28f-b2a7cdc8625d"},"vehicle_type_id":"4","last_reported":1692551071,"current_range_meters":16000,"station_id":"ce4bgup2rcd13ifvqcn0","pricing_plan_id":"free"},{"bike_id":"27472196-3106-4280-9f90-9044b9097636","system_id":"levelo_inurba_marseille","lat":43.30141,"lon":5.37414,"is_reserved":false,"is_disabled":false,"rental_uris":{"android":"levelo://app?vid=27472196-3106-4280-9f90-9044b9097636","ios":"levelo://app?vid=27472196-3106-4280-9f90-9044b9097636"},"vehicle_type_id":"4","last_reported":1692551071,"current_range_meters":19200,"station_id":"ce4bgs92rcd13ifvqcc0","pricing_plan_id":"free"},{"bike_id":"f0a23a7c-4225-421a-a6e7-91ed3e5cde33","system_id":"levelo_inurba_marseille","lat":43.313571,"lon":5.384829,"is_reserved":false,"is_disabled":false,"rental_uris":{"android":"levelo://app?vid=f0a23a7c-4225-421a-a6e7-91ed3e5cde33","ios":"levelo://app?vid=f0a23a7c-4225-421a-a6e7-91ed3e5cde33"},"vehicle_type_id":"4","last_reported":1692551071,"current_range_meters":1200,"station_id":"ce4bgt92rcd13ifvqcf0","pricing_plan_id":"free"},{"bike_id":"ed285a8a-e323-42ee-9c66-8972b57f5f36","system_id":"levelo_inurba_marseille","lat":43.299869,"lon":5.371757,"is_reserved":false,"is_disabled":false,"rental_uris":{"android":"levelo://app?vid=ed285a8a-e323-42ee-9c66-8972b57f5f36","ios":"levelo://app?vid=ed285a8a-e323-42ee-9c66-8972b57f5f36"},"vehicle_type_id":"4","last_reported":1692551071,"current_range_meters":4800,"station_id":"ce4bgr92rcd13ifvqc7g","pricing_plan_id":"free"},{"bike_id":"95dc9ecf-047e-4c3a-bb12-a5676cb36ad4","system_id":"levelo_inurba_marseille","lat":43.3216,"lon":5.38166,"is_reserved":false,"is_disabled":false,"rental_uris":{"android":"levelo://app?vid=95dc9ecf-047e-4c3a-bb12-a5676cb36ad4","ios":"levelo://app?vid=95dc9ecf-047e-4c3a-bb12-a5676cb36ad4"},"vehicle_type_id":"4","last_reported":1692551071,"current_range_meters":14400,"station_id":"","pricing_plan_id":"free"},{"bike_id":"3854a98d-461e-4a7f-85d8-f72dce323788","system_id":"levelo_inurba_marseille","lat":43.311722,"lon":5.387247,"is_reserved":false,"is_disabled":false,"rental_uris":{"android":"levelo://app?vid=3854a98d-461e-4a7f-85d8-f72dce323788","ios":"levelo://app?vid=3854a98d-461e-4a7f-85d8-f72dce323788"},"vehicle_type_id":"4","last_reported":1692551071,"current_range_meters":15200,"station_id":"ce4bgv12rcd13ifvqcp0","pricing_plan_id":"free"},{"bike_id":"06ed24f0-b96f-48bb-9d39-141a12c02ff6","system_id":"levelo_inurba_marseille","lat":43.311722,"lon":5.387247,"is_reserved":false,"is_disabled":false,"rental_uris":{"android":"levelo://app?vid=06ed24f0-b96f-48bb-9d39-141a12c02ff6","ios":"levelo://app?vid=06ed24f0-b96f-48bb-9d39-141a12c02ff6"},"vehicle_type_id":"4","last_reported":1692551071,"current_range_meters":12400,"station_id":"ce4bgv12rcd13ifvqcp0","pricing_plan_id":"free"},{"bike_id":"2e154614-843c-409d-ac4b-b43b8c895ad0","system_id":"levelo_inurba_marseille","lat":43.311722,"lon":5.387247,"is_reserved":false,"is_disabled":false,"rental_uris":{"android":"levelo://app?vid=2e154614-843c-409d-ac4b-b43b8c895ad0","ios":"levelo://app?vid=2e154614-843c-409d-ac4b-b43b8c895ad0"},"vehicle_type_id":"4","last_reported":1692551071,"current_range_meters":7200,"station_id":"ce4bgv12rcd13ifvqcp0","pricing_plan_id":"free"},{"bike_id":"b885f463-e8c5-42cc-902f-7152167ce1c7","system_id":"levelo_inurba_marseille","lat":43.29905,"lon":5.37469,"is_reserved":false,"is_disabled":false,"rental_uris":{"android":"levelo://app?vid=b885f463-e8c5-42cc-902f-7152167ce1c7","ios":"levelo://app?vid=b885f463-e8c5-42cc-902f-7152167ce1c7"},"vehicle_type_id":"4","last_reported":1692551071,"current_range_meters":31200,"station_id":"ce4bgjh2rcd13ifvqbg0","pricing_plan_id":"free"},{"bike_id":"a1f7b084-f437-4e0c-8b20-334f54c48d59","system_id":"levelo_inurba_marseille","lat":43.32289,"lon":5.38267,"is_reserved":false,"is_disabled":false,"rental_uris":{"android":"levelo://app?vid=a1f7b084-f437-4e0c-8b20-334f54c48d59","ios":"levelo://app?vid=a1f7b084-f437-4e0c-8b20-334f54c48d59"},"vehicle_type_id":"4","last_reported":1692551071,"current_range_meters":13600,"station_id":"ce4bhr12rcd13ifvqhqg","pricing_plan_id":"free"},{"bike_id":"5b5c8cae-b425-4976-9ba8-5ae205664d6b","system_id":"levelo_inurba_marseille","lat":43.32292,"lon":5.38266,"is_reserved":false,"is_disabled":false,"rental_uris":{"android":"levelo://app?vid=5b5c8cae-b425-4976-9ba8-5ae205664d6b","ios":"levelo://app?vid=5b5c8cae-b425-4976-9ba8-5ae205664d6b"},"vehicle_type_id":"4","last_reported":1692551071,"current_range_meters":13200,"station_id":"ce4bhr12rcd13ifvqhqg","pricing_plan_id":"free"},{"bike_id":"110bd150-ae2d-4085-890c-a8f4481980e0","system_id":"levelo_inurba_marseille","lat":43.32291,"lon":5.38275,"is_reserved":false,"is_disabled":false,"rental_uris":{"android":"levelo://app?vid=110bd150-ae2d-4085-890c-a8f4481980e0","ios":"levelo://app?vid=110bd150-ae2d-4085-890c-a8f4481980e0"},"vehicle_type_id":"4","last_reported":1692551071,"current_range_meters":25200,"station_id":"ce4bhr12rcd13ifvqhqg","pricing_plan_id":"free"},{"bike_id":"b9784bc4-a1f4-4e7b-a996-3746dcc4c656","system_id":"levelo_inurba_marseille","lat":43.32287,"lon":5.3828,"is_reserved":false,"is_disabled":false,"rental_uris":{"android":"levelo://app?vid=b9784bc4-a1f4-4e7b-a996-3746dcc4c656","ios":"levelo://app?vid=b9784bc4-a1f4-4e7b-a996-3746dcc4c656"},"vehicle_type_id":"4","last_reported":1692551071,"current_range_meters":5200,"station_id":"ce4bhr12rcd13ifvqhqg","pricing_plan_id":"free"},{"bike_id":"dd789220-e7b5-42c1-b9dc-dc4243148021","system_id":"levelo_inurba_marseille","lat":43.297163,"lon":5.365866,"is_reserved":false,"is_disabled":false,"rental_uris":{"android":"levelo://app?vid=dd789220-e7b5-42c1-b9dc-dc4243148021","ios":"levelo://app?vid=dd789220-e7b5-42c1-b9dc-dc4243148021"},"vehicle_type_id":"4","last_reported":1692551071,"current_range_meters":31600,"station_id":"ce4bgn12rcd13ifvqbt0","pricing_plan_id":"free"},{"bike_id":"f2ca9bd5-4df8-44a6-81a7-196be9a62527","system_id":"levelo_inurba_marseille","lat":43.297163,"lon":5.365866,"is_reserved":false,"is_disabled":false,"rental_uris":{"android":"levelo://app?vid=f2ca9bd5-4df8-44a6-81a7-196be9a62527","ios":"levelo://app?vid=f2ca9bd5-4df8-44a6-81a7-196be9a62527"},"vehicle_type_id":"4","last_reported":1692551071,"current_range_meters":10800,"station_id":"ce4bgn12rcd13ifvqbt0","pricing_plan_id":"free"},{"bike_id":"561d078d-dab5-4376-a742-f9176e3df5e5","system_id":"levelo_inurba_marseille","lat":43.2968,"lon":5.37291,"is_reserved":false,"is_disabled":false,"rental_uris":{"android":"levelo://app?vid=561d078d-dab5-4376-a742-f9176e3df5e5","ios":"levelo://app?vid=561d078d-dab5-4376-a742-f9176e3df5e5"},"vehicle_type_id":"4","last_reported":1692551071,"current_range_meters":3200,"station_id":"ce4bgk12rcd13ifvqbj0","pricing_plan_id":"free"},{"bike_id":"bb155e93-116e-494a-9911-2df351c7dae8","system_id":"levelo_inurba_marseille","lat":43.296131,"lon":5.370773,"is_reserved":false,"is_disabled":false,"rental_uris":{"android":"levelo://app?vid=bb155e93-116e-494a-9911-2df351c7dae8","ios":"levelo://app?vid=bb155e93-116e-494a-9911-2df351c7dae8"},"vehicle_type_id":"4","last_reported":1692551071,"current_range_meters":30000,"station_id":"ce4bgnh2rcd13ifvqc0g","pricing_plan_id":"free"},{"bike_id":"4b3a994f-5a91-48fb-8ac2-90889edf9524","system_id":"levelo_inurba_marseille","lat":43.296131,"lon":5.370791,"is_reserved":false,"is_disabled":false,"rental_uris":{"android":"levelo://app?vid=4b3a994f-5a91-48fb-8ac2-90889edf9524","ios":"levelo://app?vid=4b3a994f-5a91-48fb-8ac2-90889edf9524"},"vehicle_type_id":"4","last_reported":1692551071,"current_range_meters":4000,"station_id":"ce4bgnh2rcd13ifvqc0g","pricing_plan_id":"free"},{"bike_id":"4acddfd3-d66b-4e6b-999b-d4c27d90056f","system_id":"levelo_inurba_marseille","lat":43.296129,"lon":5.370777,"is_reserved":false,"is_disabled":false,"rental_uris":{"android":"levelo://app?vid=4acddfd3-d66b-4e6b-999b-d4c27d90056f","ios":"levelo://app?vid=4acddfd3-d66b-4e6b-999b-d4c27d90056f"},"vehicle_type_id":"4","last_reported":1692551071,"current_range_meters":2400,"station_id":"ce4bgnh2rcd13ifvqc0g","pricing_plan_id":"free"},{"bike_id":"f22b644d-006e-4f5a-adca-f60451905d67","system_id":"levelo_inurba_marseille","lat":43.2962,"lon":5.37172,"is_reserved":false,"is_disabled":false,"rental_uris":{"android":"levelo://app?vid=f22b644d-006e-4f5a-adca-f60451905d67","ios":"levelo://app?vid=f22b644d-006e-4f5a-adca-f60451905d67"},"vehicle_type_id":"4","last_reported":1692551071,"current_range_meters":26000,"station_id":"","pricing_plan_id":"free"},{"bike_id":"d3139180-8ba9-4c91-b6e4-8baae3c22113","system_id":"levelo_inurba_marseille","lat":43.29613,"lon":5.37198,"is_reserved":false,"is_disabled":false,"rental_uris":{"android":"levelo://app?vid=d3139180-8ba9-4c91-b6e4-8baae3c22113","ios":"levelo://app?vid=d3139180-8ba9-4c91-b6e4-8baae3c22113"},"vehicle_type_id":"4","last_reported":1692551071,"current_range_meters":29600,"station_id":"","pricing_plan_id":"free"},{"bike_id":"9e4d5bb7-a40d-42af-82fe-3d5b421cf5d4","system_id":"levelo_inurba_marseille","lat":43.299028,"lon":5.381509,"is_reserved":false,"is_disabled":false,"rental_uris":{"android":"levelo://app?vid=9e4d5bb7-a40d-42af-82fe-3d5b421cf5d4","ios":"levelo://app?vid=9e4d5bb7-a40d-42af-82fe-3d5b421cf5d4"},"vehicle_type_id":"4","last_reported":1692551071,"current_range_meters":31600,"station_id":"ce4bgj12rcd13ifvqbc0","pricing_plan_id":"free"},{"bike_id":"c3e0d2c0-a6a7-4d2f-944c-073d5e70356a","system_id":"levelo_inurba_marseille","lat":43.309506,"lon":5.390325,"is_reserved":false,"is_disabled":false,"rental_uris":{"android":"levelo://app?vid=c3e0d2c0-a6a7-4d2f-944c-073d5e70356a","ios":"levelo://app?vid=c3e0d2c0-a6a7-4d2f-944c-073d5e70356a"},"vehicle_type_id":"4","last_reported":1692551071,"current_range_meters":12400,"station_id":"ce4bgup2rcd13ifvqco0","pricing_plan_id":"free"},{"bike_id":"bff964b2-6b51-4a0e-a49a-70826d597142","system_id":"levelo_inurba_marseille","lat":43.317557,"lon":5.390173,"is_reserved":false,"is_disabled":false,"rental_uris":{"android":"levelo://app?vid=bff964b2-6b51-4a0e-a49a-70826d597142","ios":"levelo://app?vid=bff964b2-6b51-4a0e-a49a-70826d597142"},"vehicle_type_id":"4","last_reported":1692551071,"current_range_meters":23600,"station_id":"ce4bhqp2rcd13ifvqhng","pricing_plan_id":"free"},{"bike_id":"6095b628-7fdf-4156-8f43-c85fc7557526","system_id":"levelo_inurba_marseille","lat":43.298037,"lon":5.381066,"is_reserved":false,"is_disabled":false,"rental_uris":{"android":"levelo://app?vid=6095b628-7fdf-4156-8f43-c85fc7557526","ios":"levelo://app?vid=6095b628-7fdf-4156-8f43-c85fc7557526"},"vehicle_type_id":"4","last_reported":1692551071,"current_range_meters":5600,"station_id":"ce4bgip2rcd13ifvqbb0","pricing_plan_id":"free"},{"bike_id":"a4df99ce-0488-49dd-a888-94686f562e88","system_id":"levelo_inurba_marseille","lat":43.295748,"lon":5.37522,"is_reserved":false,"is_disabled":false,"rental_uris":{"android":"levelo://app?vid=a4df99ce-0488-49dd-a888-94686f562e88","ios":"levelo://app?vid=a4df99ce-0488-49dd-a888-94686f562e88"},"vehicle_type_id":"4","last_reported":1692551071,"current_range_meters":28800,"station_id":"ce4bgh92rcd13ifvqb50","pricing_plan_id":"free"},{"bike_id":"2a3e1242-f1e9-4bc3-a0e2-94e7da2c2439","system_id":"levelo_inurba_marseille","lat":43.29564,"lon":5.37519,"is_reserved":false,"is_disabled":false,"rental_uris":{"android":"levelo://app?vid=2a3e1242-f1e9-4bc3-a0e2-94e7da2c2439","ios":"levelo://app?vid=2a3e1242-f1e9-4bc3-a0e2-94e7da2c2439"},"vehicle_type_id":"4","last_reported":1692551071,"current_range_meters":21200,"station_id":"ce4bgh92rcd13ifvqb50","pricing_plan_id":"free"},{"bike_id":"a50a0a52-f29a-48a6-b90d-c94bd62bd51d","system_id":"levelo_inurba_marseille","lat":43.295279,"lon":5.375048,"is_reserved":false,"is_disabled":false,"rental_uris":{"android":"levelo://app?vid=a50a0a52-f29a-48a6-b90d-c94bd62bd51d","ios":"levelo://app?vid=a50a0a52-f29a-48a6-b90d-c94bd62bd51d"},"vehicle_type_id":"4","last_reported":1692551071,"current_range_meters":24000,"station_id":"ce4bgkp2rcd13ifvqbmg","pricing_plan_id":"free"},{"bike_id":"0f9900e1-945b-4db8-98cf-d43ed82e4aa7","system_id":"levelo_inurba_marseille","lat":43.295279,"lon":5.375048,"is_reserved":false,"is_disabled":false,"rental_uris":{"android":"levelo://app?vid=0f9900e1-945b-4db8-98cf-d43ed82e4aa7","ios":"levelo://app?vid=0f9900e1-945b-4db8-98cf-d43ed82e4aa7"},"vehicle_type_id":"4","last_reported":1692551071,"current_range_meters":2400,"station_id":"ce4bgkp2rcd13ifvqbmg","pricing_plan_id":"free"},{"bike_id":"12650b31-860b-4826-a546-01bd714ae527","system_id":"levelo_inurba_marseille","lat":43.29523,"lon":5.37491,"is_reserved":false,"is_disabled":false,"rental_uris":{"android":"levelo://app?vid=12650b31-860b-4826-a546-01bd714ae527","ios":"levelo://app?vid=12650b31-860b-4826-a546-01bd714ae527"},"vehicle_type_id":"4","last_reported":1692551071,"current_range_meters":10400,"station_id":"","pricing_plan_id":"free"},{"bike_id":"9427e3b6-7961-4f5d-b598-0fc92b2f75a1","system_id":"levelo_inurba_marseille","lat":43.231562,"lon":5.436933,"is_reserved":false,"is_disabled":false,"rental_uris":{"android":"levelo://app?vid=9427e3b6-7961-4f5d-b598-0fc92b2f75a1","ios":"levelo://app?vid=9427e3b6-7961-4f5d-b598-0fc92b2f75a1"},"vehicle_type_id":"4","last_reported":1692551071,"current_range_meters":30000,"station_id":"ce4bhmp2rcd13ifvqgog","pricing_plan_id":"free"},{"bike_id":"edae59ca-2a20-427c-a6e1-958f0f6d95e3","system_id":"levelo_inurba_marseille","lat":43.299707,"lon":5.384859,"is_reserved":false,"is_disabled":false,"rental_uris":{"android":"levelo://app?vid=edae59ca-2a20-427c-a6e1-958f0f6d95e3","ios":"levelo://app?vid=edae59ca-2a20-427c-a6e1-958f0f6d95e3"},"vehicle_type_id":"4","last_reported":1692551071,"current_range_meters":8400,"station_id":"ce4bgj92rcd13ifvqbd0","pricing_plan_id":"free"},{"bike_id":"00883cd9-a56a-4720-bb55-237d0136a4a1","system_id":"levelo_inurba_marseille","lat":43.32366,"lon":5.38878,"is_reserved":false,"is_disabled":false,"rental_uris":{"android":"levelo://app?vid=00883cd9-a56a-4720-bb55-237d0136a4a1","ios":"levelo://app?vid=00883cd9-a56a-4720-bb55-237d0136a4a1"},"vehicle_type_id":"4","last_reported":1692551071,"current_range_meters":22000,"station_id":"ce4bhqp2rcd13ifvqhog","pricing_plan_id":"free"},{"bike_id":"e15ef0a5-8186-4707-84b8-fc141a9cf97b","system_id":"levelo_inurba_marseille","lat":43.32366,"lon":5.38879,"is_reserved":false,"is_disabled":false,"rental_uris":{"android":"levelo://app?vid=e15ef0a5-8186-4707-84b8-fc141a9cf97b","ios":"levelo://app?vid=e15ef0a5-8186-4707-84b8-fc141a9cf97b"},"vehicle_type_id":"4","last_reported":1692551071,"current_range_meters":21200,"station_id":"ce4bhqp2rcd13ifvqhog","pricing_plan_id":"free"},{"bike_id":"6b6cba89-d2b8-44bb-8454-5df08cf65f67","system_id":"levelo_inurba_marseille","lat":43.32366,"lon":5.38886,"is_reserved":false,"is_disabled":false,"rental_uris":{"android":"levelo://app?vid=6b6cba89-d2b8-44bb-8454-5df08cf65f67","ios":"levelo://app?vid=6b6cba89-d2b8-44bb-8454-5df08cf65f67"},"vehicle_type_id":"4","last_reported":1692551071,"current_range_meters":7600,"station_id":"ce4bhqp2rcd13ifvqhog","pricing_plan_id":"free"},{"bike_id":"744819ad-df85-4158-9143-35c2277b6d9a","system_id":"levelo_inurba_marseille","lat":43.29313,"lon":5.3718,"is_reserved":false,"is_disabled":false,"rental_uris":{"android":"levelo://app?vid=744819ad-df85-4158-9143-35c2277b6d9a","ios":"levelo://app?vid=744819ad-df85-4158-9143-35c2277b6d9a"},"vehicle_type_id":"4","last_reported":1692551071,"current_range_meters":0,"station_id":"ce4bgh92rcd13ifvqb40","pricing_plan_id":"free"},{"bike_id":"a69e0a64-2d85-4760-82c5-06cad0cef019","system_id":"levelo_inurba_marseille","lat":43.29303,"lon":5.37177,"is_reserved":false,"is_disabled":false,"rental_uris":{"android":"levelo://app?vid=a69e0a64-2d85-4760-82c5-06cad0cef019","ios":"levelo://app?vid=a69e0a64-2d85-4760-82c5-06cad0cef019"},"vehicle_type_id":"4","last_reported":1692551071,"current_range_meters":4400,"station_id":"ce4bgh92rcd13ifvqb40","pricing_plan_id":"free"},{"bike_id":"38fef587-7cc5-4800-b069-87b8f296a10a","system_id":"levelo_inurba_marseille","lat":43.293009,"lon":5.374584,"is_reserved":false,"is_disabled":false,"rental_uris":{"android":"levelo://app?vid=38fef587-7cc5-4800-b069-87b8f296a10a","ios":"levelo://app?vid=38fef587-7cc5-4800-b069-87b8f296a10a"},"vehicle_type_id":"4","last_reported":1692551071,"current_range_meters":31200,"station_id":"ce4bgi12rcd13ifvqb70","pricing_plan_id":"free"},{"bike_id":"4c07f647-ddd8-495d-97ee-e7d59dc6d3dc","system_id":"levelo_inurba_marseille","lat":43.293009,"lon":5.374584,"is_reserved":false,"is_disabled":false,"rental_uris":{"android":"levelo://app?vid=4c07f647-ddd8-495d-97ee-e7d59dc6d3dc","ios":"levelo://app?vid=4c07f647-ddd8-495d-97ee-e7d59dc6d3dc"},"vehicle_type_id":"4","last_reported":1692551071,"current_range_meters":3600,"station_id":"ce4bgi12rcd13ifvqb70","pricing_plan_id":"free"},{"bike_id":"5ce9d2aa-c17c-47e1-93b5-26ac6b0fcada","system_id":"levelo_inurba_marseille","lat":43.30302,"lon":5.39207,"is_reserved":false,"is_disabled":false,"rental_uris":{"android":"levelo://app?vid=5ce9d2aa-c17c-47e1-93b5-26ac6b0fcada","ios":"levelo://app?vid=5ce9d2aa-c17c-47e1-93b5-26ac6b0fcada"},"vehicle_type_id":"4","last_reported":1692551071,"current_range_meters":24400,"station_id":"ce4bgkh2rcd13ifvqbk0","pricing_plan_id":"free"},{"bike_id":"6f57379a-9231-42c3-8393-17b4b1bd6ff4","system_id":"levelo_inurba_marseille","lat":43.30299,"lon":5.3921,"is_reserved":false,"is_disabled":false,"rental_uris":{"android":"levelo://app?vid=6f57379a-9231-42c3-8393-17b4b1bd6ff4","ios":"levelo://app?vid=6f57379a-9231-42c3-8393-17b4b1bd6ff4"},"vehicle_type_id":"4","last_reported":1692551071,"current_range_meters":29200,"station_id":"ce4bgkh2rcd13ifvqbk0","pricing_plan_id":"free"},{"bike_id":"0724f352-a262-45b7-9b71-9a09ff17d945","system_id":"levelo_inurba_marseille","lat":43.303,"lon":5.39212,"is_reserved":false,"is_disabled":false,"rental_uris":{"android":"levelo://app?vid=0724f352-a262-45b7-9b71-9a09ff17d945","ios":"levelo://app?vid=0724f352-a262-45b7-9b71-9a09ff17d945"},"vehicle_type_id":"4","last_reported":1692551071,"current_range_meters":19200,"station_id":"ce4bgkh2rcd13ifvqbk0","pricing_plan_id":"free"},{"bike_id":"a024a18f-946e-44f3-a11b-eedec5237e71","system_id":"levelo_inurba_marseille","lat":43.300852,"lon":5.390859,"is_reserved":false,"is_disabled":false,"rental_uris":{"android":"levelo://app?vid=a024a18f-946e-44f3-a11b-eedec5237e71","ios":"levelo://app?vid=a024a18f-946e-44f3-a11b-eedec5237e71"},"vehicle_type_id":"4","last_reported":1692551071,"current_range_meters":2800,"station_id":"ce4bh192rcd13ifvqdb0","pricing_plan_id":"free"},{"bike_id":"9b92ab8f-fc46-4046-9cd6-d38dbc100b51","system_id":"levelo_inurba_marseille","lat":43.292311,"lon":5.360731,"is_reserved":false,"is_disabled":false,"rental_uris":{"android":"levelo://app?vid=9b92ab8f-fc46-4046-9cd6-d38dbc100b51","ios":"levelo://app?vid=9b92ab8f-fc46-4046-9cd6-d38dbc100b51"},"vehicle_type_id":"4","last_reported":1692551071,"current_range_meters":20400,"station_id":"ce4bhbh2rcd13ifvqeqg","pricing_plan_id":"free"},{"bike_id":"131f0587-5f12-4384-92af-a7b0da766d98","system_id":"levelo_inurba_marseille","lat":43.29177,"lon":5.37156,"is_reserved":false,"is_disabled":false,"rental_uris":{"android":"levelo://app?vid=131f0587-5f12-4384-92af-a7b0da766d98","ios":"levelo://app?vid=131f0587-5f12-4384-92af-a7b0da766d98"},"vehicle_type_id":"4","last_reported":1692551071,"current_range_meters":8400,"station_id":"ce4bha92rcd13ifvqeh0","pricing_plan_id":"free"},{"bike_id":"1bcf126c-db74-40d9-aacf-aed8b10961e2","system_id":"levelo_inurba_marseille","lat":43.30878,"lon":5.39649,"is_reserved":false,"is_disabled":false,"rental_uris":{"android":"levelo://app?vid=1bcf126c-db74-40d9-aacf-aed8b10961e2","ios":"levelo://app?vid=1bcf126c-db74-40d9-aacf-aed8b10961e2"},"vehicle_type_id":"4","last_reported":1692551071,"current_range_meters":1600,"station_id":"ce4bh012rcd13ifvqcv0","pricing_plan_id":"free"},{"bike_id":"7b351217-9ea4-4750-bbfd-bff5e72f7b14","system_id":"levelo_inurba_marseille","lat":43.29529,"lon":5.385581,"is_reserved":false,"is_disabled":false,"rental_uris":{"android":"levelo://app?vid=7b351217-9ea4-4750-bbfd-bff5e72f7b14","ios":"levelo://app?vid=7b351217-9ea4-4750-bbfd-bff5e72f7b14"},"vehicle_type_id":"4","last_reported":1692551071,"current_range_meters":1200,"station_id":"ce4bgih2rcd13ifvqba0","pricing_plan_id":"free"},{"bike_id":"9b6fc149-1174-4e0b-96d2-d7e2c51a848f","system_id":"levelo_inurba_marseille","lat":43.290779,"lon":5.371482,"is_reserved":false,"is_disabled":false,"rental_uris":{"android":"levelo://app?vid=9b6fc149-1174-4e0b-96d2-d7e2c51a848f","ios":"levelo://app?vid=9b6fc149-1174-4e0b-96d2-d7e2c51a848f"},"vehicle_type_id":"4","last_reported":1692551071,"current_range_meters":13600,"station_id":"ce4bh5p2rcd13ifvqe4g","pricing_plan_id":"free"},{"bike_id":"7f6b5e03-8490-4359-8313-b0514027e888","system_id":"levelo_inurba_marseille","lat":43.302008,"lon":5.394694,"is_reserved":false,"is_disabled":false,"rental_uris":{"android":"levelo://app?vid=7f6b5e03-8490-4359-8313-b0514027e888","ios":"levelo://app?vid=7f6b5e03-8490-4359-8313-b0514027e888"},"vehicle_type_id":"4","last_reported":1692551071,"current_range_meters":11600,"station_id":"ce4bh0p2rcd13ifvqd70","pricing_plan_id":"free"},{"bike_id":"189a3179-a8c5-4b43-a54c-2d4054d26d13","system_id":"levelo_inurba_marseille","lat":43.289184,"lon":5.366408,"is_reserved":false,"is_disabled":false,"rental_uris":{"android":"levelo://app?vid=189a3179-a8c5-4b43-a54c-2d4054d26d13","ios":"levelo://app?vid=189a3179-a8c5-4b43-a54c-2d4054d26d13"},"vehicle_type_id":"4","last_reported":1692551071,"current_range_meters":19200,"station_id":"ce4bhap2rcd13ifvqek0","pricing_plan_id":"free"},{"bike_id":"cb41c907-7676-4ed2-bf8f-bd3fad4baf18","system_id":"levelo_inurba_marseille","lat":43.290327,"lon":5.375711,"is_reserved":false,"is_disabled":false,"rental_uris":{"android":"levelo://app?vid=cb41c907-7676-4ed2-bf8f-bd3fad4baf18","ios":"levelo://app?vid=cb41c907-7676-4ed2-bf8f-bd3fad4baf18"},"vehicle_type_id":"4","last_reported":1692551071,"current_range_meters":0,"station_id":"ce4bh692rcd13ifvqe90","pricing_plan_id":"free"},{"bike_id":"5d4a66bb-d50f-4eee-878f-36fdbaa8652b","system_id":"levelo_inurba_marseille","lat":43.289184,"lon":5.366408,"is_reserved":false,"is_disabled":false,"rental_uris":{"android":"levelo://app?vid=5d4a66bb-d50f-4eee-878f-36fdbaa8652b","ios":"levelo://app?vid=5d4a66bb-d50f-4eee-878f-36fdbaa8652b"},"vehicle_type_id":"4","last_reported":1692551071,"current_range_meters":19600,"station_id":"ce4bhap2rcd13ifvqek0","pricing_plan_id":"free"},{"bike_id":"f4370512-7e29-4a88-927f-b9a3de029c1f","system_id":"levelo_inurba_marseille","lat":43.289184,"lon":5.366408,"is_reserved":false,"is_disabled":false,"rental_uris":{"android":"levelo://app?vid=f4370512-7e29-4a88-927f-b9a3de029c1f","ios":"levelo://app?vid=f4370512-7e29-4a88-927f-b9a3de029c1f"},"vehicle_type_id":"4","last_reported":1692551071,"current_range_meters":20000,"station_id":"ce4bhap2rcd13ifvqek0","pricing_plan_id":"free"},{"bike_id":"fd7e3a9e-786d-42e1-867c-a1b56392cc56","system_id":"levelo_inurba_marseille","lat":43.289184,"lon":5.366408,"is_reserved":false,"is_disabled":false,"rental_uris":{"android":"levelo://app?vid=fd7e3a9e-786d-42e1-867c-a1b56392cc56","ios":"levelo://app?vid=fd7e3a9e-786d-42e1-867c-a1b56392cc56"},"vehicle_type_id":"4","last_reported":1692551071,"current_range_meters":24800,"station_id":"ce4bhap2rcd13ifvqek0","pricing_plan_id":"free"},{"bike_id":"8fd55d1e-21b5-4fa0-ad00-212a022a1f5c","system_id":"levelo_inurba_marseille","lat":43.289184,"lon":5.366408,"is_reserved":false,"is_disabled":false,"rental_uris":{"android":"levelo://app?vid=8fd55d1e-21b5-4fa0-ad00-212a022a1f5c","ios":"levelo://app?vid=8fd55d1e-21b5-4fa0-ad00-212a022a1f5c"},"vehicle_type_id":"4","last_reported":1692551071,"current_range_meters":13200,"station_id":"ce4bhap2rcd13ifvqek0","pricing_plan_id":"free"},{"bike_id":"c15c4739-0be6-4dd6-88aa-d5188b978843","system_id":"levelo_inurba_marseille","lat":43.28938,"lon":5.36639,"is_reserved":false,"is_disabled":false,"rental_uris":{"android":"levelo://app?vid=c15c4739-0be6-4dd6-88aa-d5188b978843","ios":"levelo://app?vid=c15c4739-0be6-4dd6-88aa-d5188b978843"},"vehicle_type_id":"4","last_reported":1692551071,"current_range_meters":5200,"station_id":"ce4bhap2rcd13ifvqek0","pricing_plan_id":"free"},{"bike_id":"b0699600-c8c7-41d6-afb2-006432cdb7fd","system_id":"levelo_inurba_marseille","lat":43.289184,"lon":5.366408,"is_reserved":false,"is_disabled":false,"rental_uris":{"android":"levelo://app?vid=b0699600-c8c7-41d6-afb2-006432cdb7fd","ios":"levelo://app?vid=b0699600-c8c7-41d6-afb2-006432cdb7fd"},"vehicle_type_id":"4","last_reported":1692551071,"current_range_meters":28400,"station_id":"ce4bhap2rcd13ifvqek0","pricing_plan_id":"free"},{"bike_id":"079fa456-7c58-4c2e-a3c4-86014b1e4451","system_id":"levelo_inurba_marseille","lat":43.289184,"lon":5.366408,"is_reserved":false,"is_disabled":false,"rental_uris":{"android":"levelo://app?vid=079fa456-7c58-4c2e-a3c4-86014b1e4451","ios":"levelo://app?vid=079fa456-7c58-4c2e-a3c4-86014b1e4451"},"vehicle_type_id":"4","last_reported":1692551071,"current_range_meters":26800,"station_id":"ce4bhap2rcd13ifvqek0","pricing_plan_id":"free"},{"bike_id":"3c99606a-cfd1-4b08-a5da-392aa4b30abe","system_id":"levelo_inurba_marseille","lat":43.32829,"lon":5.39127,"is_reserved":false,"is_disabled":false,"rental_uris":{"android":"levelo://app?vid=3c99606a-cfd1-4b08-a5da-392aa4b30abe","ios":"levelo://app?vid=3c99606a-cfd1-4b08-a5da-392aa4b30abe"},"vehicle_type_id":"4","last_reported":1692551071,"current_range_meters":15600,"station_id":"","pricing_plan_id":"free"},{"bike_id":"f13c6a38-e94b-44b9-98d2-5216f22f1d50","system_id":"levelo_inurba_marseille","lat":43.304296,"lon":5.397513,"is_reserved":false,"is_disabled":false,"rental_uris":{"android":"levelo://app?vid=f13c6a38-e94b-44b9-98d2-5216f22f1d50","ios":"levelo://app?vid=f13c6a38-e94b-44b9-98d2-5216f22f1d50"},"vehicle_type_id":"4","last_reported":1692551071,"current_range_meters":5200,"station_id":"ce4bh092rcd13ifvqd20","pricing_plan_id":"free"},{"bike_id":"f7005a11-f4b8-40eb-a1e9-6d3833ad8114","system_id":"levelo_inurba_marseille","lat":43.33038,"lon":5.38919,"is_reserved":false,"is_disabled":false,"rental_uris":{"android":"levelo://app?vid=f7005a11-f4b8-40eb-a1e9-6d3833ad8114","ios":"levelo://app?vid=f7005a11-f4b8-40eb-a1e9-6d3833ad8114"},"vehicle_type_id":"4","last_reported":1692551071,"current_range_meters":26400,"station_id":"ce4bhr92rcd13ifvqhrg","pricing_plan_id":"free"},{"bike_id":"5036c72a-6252-47f4-a9fb-50fd514d506a","system_id":"levelo_inurba_marseille","lat":43.33039,"lon":5.38918,"is_reserved":false,"is_disabled":false,"rental_uris":{"android":"levelo://app?vid=5036c72a-6252-47f4-a9fb-50fd514d506a","ios":"levelo://app?vid=5036c72a-6252-47f4-a9fb-50fd514d506a"},"vehicle_type_id":"4","last_reported":1692551071,"current_range_meters":19200,"station_id":"ce4bhr92rcd13ifvqhrg","pricing_plan_id":"free"},{"bike_id":"331b6e0a-8cfc-4305-9eef-0266cde03da7","system_id":"levelo_inurba_marseille","lat":43.3304,"lon":5.38921,"is_reserved":false,"is_disabled":false,"rental_uris":{"android":"levelo://app?vid=331b6e0a-8cfc-4305-9eef-0266cde03da7","ios":"levelo://app?vid=331b6e0a-8cfc-4305-9eef-0266cde03da7"},"vehicle_type_id":"4","last_reported":1692551071,"current_range_meters":12400,"station_id":"ce4bhr92rcd13ifvqhrg","pricing_plan_id":"free"},{"bike_id":"de450cac-4370-4660-9455-3e94463307a2","system_id":"levelo_inurba_marseille","lat":43.3304,"lon":5.38922,"is_reserved":false,"is_disabled":false,"rental_uris":{"android":"levelo://app?vid=de450cac-4370-4660-9455-3e94463307a2","ios":"levelo://app?vid=de450cac-4370-4660-9455-3e94463307a2"},"vehicle_type_id":"4","last_reported":1692551071,"current_range_meters":14400,"station_id":"ce4bhr92rcd13ifvqhrg","pricing_plan_id":"free"},{"bike_id":"e5640da7-a166-4dc5-a021-766c201eec26","system_id":"levelo_inurba_marseille","lat":43.33043,"lon":5.38918,"is_reserved":false,"is_disabled":false,"rental_uris":{"android":"levelo://app?vid=e5640da7-a166-4dc5-a021-766c201eec26","ios":"levelo://app?vid=e5640da7-a166-4dc5-a021-766c201eec26"},"vehicle_type_id":"4","last_reported":1692551071,"current_range_meters":5600,"station_id":"ce4bhr92rcd13ifvqhrg","pricing_plan_id":"free"},{"bike_id":"a5d7998c-4c76-4390-bbcf-8c2a2abd7eba","system_id":"levelo_inurba_marseille","lat":43.3304,"lon":5.38923,"is_reserved":false,"is_disabled":false,"rental_uris":{"android":"levelo://app?vid=a5d7998c-4c76-4390-bbcf-8c2a2abd7eba","ios":"levelo://app?vid=a5d7998c-4c76-4390-bbcf-8c2a2abd7eba"},"vehicle_type_id":"4","last_reported":1692551071,"current_range_meters":28400,"station_id":"ce4bhr92rcd13ifvqhrg","pricing_plan_id":"free"},{"bike_id":"311cb0a1-d2bd-42c8-aa64-be9b063c2c5e","system_id":"levelo_inurba_marseille","lat":43.33043,"lon":5.38919,"is_reserved":false,"is_disabled":false,"rental_uris":{"android":"levelo://app?vid=311cb0a1-d2bd-42c8-aa64-be9b063c2c5e","ios":"levelo://app?vid=311cb0a1-d2bd-42c8-aa64-be9b063c2c5e"},"vehicle_type_id":"4","last_reported":1692551071,"current_range_meters":22400,"station_id":"ce4bhr92rcd13ifvqhrg","pricing_plan_id":"free"},{"bike_id":"d2b15eb2-4474-4e56-aace-fe335ab0092e","system_id":"levelo_inurba_marseille","lat":43.33045,"lon":5.38917,"is_reserved":false,"is_disabled":false,"rental_uris":{"android":"levelo://app?vid=d2b15eb2-4474-4e56-aace-fe335ab0092e","ios":"levelo://app?vid=d2b15eb2-4474-4e56-aace-fe335ab0092e"},"vehicle_type_id":"4","last_reported":1692551071,"current_range_meters":11600,"station_id":"ce4bhr92rcd13ifvqhrg","pricing_plan_id":"free"},{"bike_id":"c8619c93-5f6a-45f4-8e07-c81fcc1e21be","system_id":"levelo_inurba_marseille","lat":43.33044,"lon":5.38919,"is_reserved":false,"is_disabled":false,"rental_uris":{"android":"levelo://app?vid=c8619c93-5f6a-45f4-8e07-c81fcc1e21be","ios":"levelo://app?vid=c8619c93-5f6a-45f4-8e07-c81fcc1e21be"},"vehicle_type_id":"4","last_reported":1692551071,"current_range_meters":23600,"station_id":"ce4bhr92rcd13ifvqhrg","pricing_plan_id":"free"},{"bike_id":"86eac789-1e56-496d-abfa-705e29d378c7","system_id":"levelo_inurba_marseille","lat":43.33043,"lon":5.38921,"is_reserved":false,"is_disabled":false,"rental_uris":{"android":"levelo://app?vid=86eac789-1e56-496d-abfa-705e29d378c7","ios":"levelo://app?vid=86eac789-1e56-496d-abfa-705e29d378c7"},"vehicle_type_id":"4","last_reported":1692551071,"current_range_meters":26800,"station_id":"ce4bhr92rcd13ifvqhrg","pricing_plan_id":"free"},{"bike_id":"7d19a255-9f7a-4d0e-beba-2bfebb3c7b5e","system_id":"levelo_inurba_marseille","lat":43.33045,"lon":5.38918,"is_reserved":false,"is_disabled":false,"rental_uris":{"android":"levelo://app?vid=7d19a255-9f7a-4d0e-beba-2bfebb3c7b5e","ios":"levelo://app?vid=7d19a255-9f7a-4d0e-beba-2bfebb3c7b5e"},"vehicle_type_id":"4","last_reported":1692551071,"current_range_meters":19200,"station_id":"ce4bhr92rcd13ifvqhrg","pricing_plan_id":"free"},{"bike_id":"9e24a65c-fe1e-45dc-88b9-dd0cad85064c","system_id":"levelo_inurba_marseille","lat":43.33046,"lon":5.38917,"is_reserved":false,"is_disabled":false,"rental_uris":{"android":"levelo://app?vid=9e24a65c-fe1e-45dc-88b9-dd0cad85064c","ios":"levelo://app?vid=9e24a65c-fe1e-45dc-88b9-dd0cad85064c"},"vehicle_type_id":"4","last_reported":1692551071,"current_range_meters":26400,"station_id":"ce4bhr92rcd13ifvqhrg","pricing_plan_id":"free"},{"bike_id":"3b3e7c42-cded-4bde-b175-99650afa4f17","system_id":"levelo_inurba_marseille","lat":43.33046,"lon":5.38918,"is_reserved":false,"is_disabled":false,"rental_uris":{"android":"levelo://app?vid=3b3e7c42-cded-4bde-b175-99650afa4f17","ios":"levelo://app?vid=3b3e7c42-cded-4bde-b175-99650afa4f17"},"vehicle_type_id":"4","last_reported":1692551071,"current_range_meters":20800,"station_id":"ce4bhr92rcd13ifvqhrg","pricing_plan_id":"free"},{"bike_id":"708f7f21-b221-4c14-94b6-b5d8e3289350","system_id":"levelo_inurba_marseille","lat":43.33045,"lon":5.3892,"is_reserved":false,"is_disabled":false,"rental_uris":{"android":"levelo://app?vid=708f7f21-b221-4c14-94b6-b5d8e3289350","ios":"levelo://app?vid=708f7f21-b221-4c14-94b6-b5d8e3289350"},"vehicle_type_id":"4","last_reported":1692551071,"current_range_meters":17600,"station_id":"ce4bhr92rcd13ifvqhrg","pricing_plan_id":"free"},{"bike_id":"c65152a1-dca7-4ee4-9864-308587d5ed74","system_id":"levelo_inurba_marseille","lat":43.3304,"lon":5.38928,"is_reserved":false,"is_disabled":false,"rental_uris":{"android":"levelo://app?vid=c65152a1-dca7-4ee4-9864-308587d5ed74","ios":"levelo://app?vid=c65152a1-dca7-4ee4-9864-308587d5ed74"},"vehicle_type_id":"4","last_reported":1692551071,"current_range_meters":19200,"station_id":"ce4bhr92rcd13ifvqhrg","pricing_plan_id":"free"},{"bike_id":"b9068b85-0115-45d3-9ffb-cf4742b1454b","system_id":"levelo_inurba_marseille","lat":43.290104,"lon":5.356111,"is_reserved":false,"is_disabled":false,"rental_uris":{"android":"levelo://app?vid=b9068b85-0115-45d3-9ffb-cf4742b1454b","ios":"levelo://app?vid=b9068b85-0115-45d3-9ffb-cf4742b1454b"},"vehicle_type_id":"4","last_reported":1692551071,"current_range_meters":18000,"station_id":"ce4bhb92rcd13ifvqen0","pricing_plan_id":"free"},{"bike_id":"eb950724-6c95-4fb2-915f-35b08a8cfd23","system_id":"levelo_inurba_marseille","lat":43.33048,"lon":5.38919,"is_reserved":false,"is_disabled":false,"rental_uris":{"android":"levelo://app?vid=eb950724-6c95-4fb2-915f-35b08a8cfd23","ios":"levelo://app?vid=eb950724-6c95-4fb2-915f-35b08a8cfd23"},"vehicle_type_id":"4","last_reported":1692551071,"current_range_meters":16400,"station_id":"ce4bhr92rcd13ifvqhrg","pricing_plan_id":"free"},{"bike_id":"52662068-d06a-40c1-bfee-ce6664dc3a83","system_id":"levelo_inurba_marseille","lat":43.33048,"lon":5.3892,"is_reserved":false,"is_disabled":false,"rental_uris":{"android":"levelo://app?vid=52662068-d06a-40c1-bfee-ce6664dc3a83","ios":"levelo://app?vid=52662068-d06a-40c1-bfee-ce6664dc3a83"},"vehicle_type_id":"4","last_reported":1692551071,"current_range_meters":0,"station_id":"ce4bhr92rcd13ifvqhrg","pricing_plan_id":"free"},{"bike_id":"3a6670c4-af64-4358-8082-60f99efe5803","system_id":"levelo_inurba_marseille","lat":43.289741,"lon":5.378306,"is_reserved":false,"is_disabled":false,"rental_uris":{"android":"levelo://app?vid=3a6670c4-af64-4358-8082-60f99efe5803","ios":"levelo://app?vid=3a6670c4-af64-4358-8082-60f99efe5803"},"vehicle_type_id":"4","last_reported":1692551071,"current_range_meters":23600,"station_id":"ce4bh9p2rcd13ifvqed0","pricing_plan_id":"free"},{"bike_id":"2241bce1-ebf9-4d91-b7e5-fe08a6544f42","system_id":"levelo_inurba_marseille","lat":43.33749,"lon":5.37487,"is_reserved":false,"is_disabled":false,"rental_uris":{"android":"levelo://app?vid=2241bce1-ebf9-4d91-b7e5-fe08a6544f42","ios":"levelo://app?vid=2241bce1-ebf9-4d91-b7e5-fe08a6544f42"},"vehicle_type_id":"4","last_reported":1692551071,"current_range_meters":20000,"station_id":"","pricing_plan_id":"free"},{"bike_id":"4a93237d-f4ca-412c-8fe3-c313dc0732e9","system_id":"levelo_inurba_marseille","lat":43.301117,"lon":5.398795,"is_reserved":false,"is_disabled":false,"rental_uris":{"android":"levelo://app?vid=4a93237d-f4ca-412c-8fe3-c313dc0732e9","ios":"levelo://app?vid=4a93237d-f4ca-412c-8fe3-c313dc0732e9"},"vehicle_type_id":"4","last_reported":1692551071,"current_range_meters":11200,"station_id":"ce4bh0h2rcd13ifvqd40","pricing_plan_id":"free"},{"bike_id":"75199276-b705-4ad7-b6a9-49aeaa84628a","system_id":"levelo_inurba_marseille","lat":43.286591,"lon":5.363346,"is_reserved":false,"is_disabled":false,"rental_uris":{"android":"levelo://app?vid=75199276-b705-4ad7-b6a9-49aeaa84628a","ios":"levelo://app?vid=75199276-b705-4ad7-b6a9-49aeaa84628a"},"vehicle_type_id":"4","last_reported":1692551071,"current_range_meters":31600,"station_id":"ce4bhah2rcd13ifvqej0","pricing_plan_id":"free"},{"bike_id":"38de358a-d8ca-4072-bce3-f6b09633aca8","system_id":"levelo_inurba_marseille","lat":43.286591,"lon":5.363346,"is_reserved":false,"is_disabled":false,"rental_uris":{"android":"levelo://app?vid=38de358a-d8ca-4072-bce3-f6b09633aca8","ios":"levelo://app?vid=38de358a-d8ca-4072-bce3-f6b09633aca8"},"vehicle_type_id":"4","last_reported":1692551071,"current_range_meters":10000,"station_id":"ce4bhah2rcd13ifvqej0","pricing_plan_id":"free"},{"bike_id":"22b6de7b-aace-48a0-97ba-06618c67cdf3","system_id":"levelo_inurba_marseille","lat":43.289468,"lon":5.363719,"is_reserved":false,"is_disabled":false,"rental_uris":{"android":"levelo://app?vid=22b6de7b-aace-48a0-97ba-06618c67cdf3","ios":"levelo://app?vid=22b6de7b-aace-48a0-97ba-06618c67cdf3"},"vehicle_type_id":"4","last_reported":1692551071,"current_range_meters":30400,"station_id":"ce4bhc92rcd13ifvqetg","pricing_plan_id":"free"},{"bike_id":"3893d321-87e2-4467-aa7a-eafab6c5b479","system_id":"levelo_inurba_marseille","lat":43.295196,"lon":5.39397,"is_reserved":false,"is_disabled":false,"rental_uris":{"android":"levelo://app?vid=3893d321-87e2-4467-aa7a-eafab6c5b479","ios":"levelo://app?vid=3893d321-87e2-4467-aa7a-eafab6c5b479"},"vehicle_type_id":"4","last_reported":1692551071,"current_range_meters":0,"station_id":"ce4bh292rcd13ifvqdf0","pricing_plan_id":"free"},{"bike_id":"7fa6b09d-ad64-46b8-b55c-0165aa023be5","system_id":"levelo_inurba_marseille","lat":43.28607,"lon":5.37064,"is_reserved":false,"is_disabled":false,"rental_uris":{"android":"levelo://app?vid=7fa6b09d-ad64-46b8-b55c-0165aa023be5","ios":"levelo://app?vid=7fa6b09d-ad64-46b8-b55c-0165aa023be5"},"vehicle_type_id":"4","last_reported":1692551071,"current_range_meters":2800,"station_id":"ce4bht12rcd13ifvqi60","pricing_plan_id":"free"},{"bike_id":"7da9e437-1e79-4b5f-9ab0-65254ac17dd7","system_id":"levelo_inurba_marseille","lat":43.31649,"lon":5.40442,"is_reserved":false,"is_disabled":false,"rental_uris":{"android":"levelo://app?vid=7da9e437-1e79-4b5f-9ab0-65254ac17dd7","ios":"levelo://app?vid=7da9e437-1e79-4b5f-9ab0-65254ac17dd7"},"vehicle_type_id":"4","last_reported":1692551071,"current_range_meters":20800,"station_id":"ce4bh012rcd13ifvqd00","pricing_plan_id":"free"},{"bike_id":"dc7b40a1-3dc6-4a3a-978b-db6963597412","system_id":"levelo_inurba_marseille","lat":43.291994,"lon":5.392907,"is_reserved":false,"is_disabled":false,"rental_uris":{"android":"levelo://app?vid=dc7b40a1-3dc6-4a3a-978b-db6963597412","ios":"levelo://app?vid=dc7b40a1-3dc6-4a3a-978b-db6963597412"},"vehicle_type_id":"4","last_reported":1692551071,"current_range_meters":6000,"station_id":"ce4bh192rcd13ifvqdd0","pricing_plan_id":"free"},{"bike_id":"908fbda8-710c-4d77-bd64-9c7cc5a35b7d","system_id":"levelo_inurba_marseille","lat":43.284538,"lon":5.358657,"is_reserved":false,"is_disabled":false,"rental_uris":{"android":"levelo://app?vid=908fbda8-710c-4d77-bd64-9c7cc5a35b7d","ios":"levelo://app?vid=908fbda8-710c-4d77-bd64-9c7cc5a35b7d"},"vehicle_type_id":"4","last_reported":1692551071,"current_range_meters":20000,"station_id":"ce4bhah2rcd13ifvqei0","pricing_plan_id":"free"},{"bike_id":"03c7b553-c4c0-48e3-9cf9-748197f6f88b","system_id":"levelo_inurba_marseille","lat":43.284538,"lon":5.358657,"is_reserved":false,"is_disabled":false,"rental_uris":{"android":"levelo://app?vid=03c7b553-c4c0-48e3-9cf9-748197f6f88b","ios":"levelo://app?vid=03c7b553-c4c0-48e3-9cf9-748197f6f88b"},"vehicle_type_id":"4","last_reported":1692551071,"current_range_meters":0,"station_id":"ce4bhah2rcd13ifvqei0","pricing_plan_id":"free"},{"bike_id":"6ac4bafc-7790-4a51-84b3-dbec5f5fb547","system_id":"levelo_inurba_marseille","lat":43.284538,"lon":5.358657,"is_reserved":false,"is_disabled":false,"rental_uris":{"android":"levelo://app?vid=6ac4bafc-7790-4a51-84b3-dbec5f5fb547","ios":"levelo://app?vid=6ac4bafc-7790-4a51-84b3-dbec5f5fb547"},"vehicle_type_id":"4","last_reported":1692551071,"current_range_meters":27200,"station_id":"ce4bhah2rcd13ifvqei0","pricing_plan_id":"free"},{"bike_id":"95b681b8-f415-46e9-a82f-6d76adb42a5c","system_id":"levelo_inurba_marseille","lat":43.284534,"lon":5.358662,"is_reserved":false,"is_disabled":false,"rental_uris":{"android":"levelo://app?vid=95b681b8-f415-46e9-a82f-6d76adb42a5c","ios":"levelo://app?vid=95b681b8-f415-46e9-a82f-6d76adb42a5c"},"vehicle_type_id":"4","last_reported":1692551071,"current_range_meters":9200,"station_id":"ce4bhah2rcd13ifvqei0","pricing_plan_id":"free"},{"bike_id":"f7332ca4-25b2-46ed-9494-60f9e93f20ff","system_id":"levelo_inurba_marseille","lat":43.284538,"lon":5.358657,"is_reserved":false,"is_disabled":false,"rental_uris":{"android":"levelo://app?vid=f7332ca4-25b2-46ed-9494-60f9e93f20ff","ios":"levelo://app?vid=f7332ca4-25b2-46ed-9494-60f9e93f20ff"},"vehicle_type_id":"4","last_reported":1692551071,"current_range_meters":18000,"station_id":"ce4bhah2rcd13ifvqei0","pricing_plan_id":"free"},{"bike_id":"43596f5d-232a-4dbe-ac1b-19e54e49203c","system_id":"levelo_inurba_marseille","lat":43.29446,"lon":5.39747,"is_reserved":false,"is_disabled":false,"rental_uris":{"android":"levelo://app?vid=43596f5d-232a-4dbe-ac1b-19e54e49203c","ios":"levelo://app?vid=43596f5d-232a-4dbe-ac1b-19e54e49203c"},"vehicle_type_id":"4","last_reported":1692551071,"current_range_meters":0,"station_id":"ce4bh3h2rcd13ifvqdo0","pricing_plan_id":"free"},{"bike_id":"a5fa90b8-8cd0-4e74-a243-a2d75dc8344b","system_id":"levelo_inurba_marseille","lat":43.284538,"lon":5.358657,"is_reserved":false,"is_disabled":false,"rental_uris":{"android":"levelo://app?vid=a5fa90b8-8cd0-4e74-a243-a2d75dc8344b","ios":"levelo://app?vid=a5fa90b8-8cd0-4e74-a243-a2d75dc8344b"},"vehicle_type_id":"4","last_reported":1692551071,"current_range_meters":22400,"station_id":"ce4bhah2rcd13ifvqei0","pricing_plan_id":"free"},{"bike_id":"b4722a33-7405-477a-a413-e7ba6480f167","system_id":"levelo_inurba_marseille","lat":43.28615,"lon":5.35108,"is_reserved":false,"is_disabled":false,"rental_uris":{"android":"levelo://app?vid=b4722a33-7405-477a-a413-e7ba6480f167","ios":"levelo://app?vid=b4722a33-7405-477a-a413-e7ba6480f167"},"vehicle_type_id":"4","last_reported":1692551071,"current_range_meters":11600,"station_id":"ce4bhch2rcd13ifvqeug","pricing_plan_id":"free"},{"bike_id":"35eec3a1-aa54-4990-8eb4-78e6c0dd24d0","system_id":"levelo_inurba_marseille","lat":43.285856,"lon":5.350771,"is_reserved":false,"is_disabled":false,"rental_uris":{"android":"levelo://app?vid=35eec3a1-aa54-4990-8eb4-78e6c0dd24d0","ios":"levelo://app?vid=35eec3a1-aa54-4990-8eb4-78e6c0dd24d0"},"vehicle_type_id":"4","last_reported":1692551071,"current_range_meters":28400,"station_id":"ce4bhch2rcd13ifvqeug","pricing_plan_id":"free"},{"bike_id":"2363d3b5-6c15-401a-a59c-ee80bd4af927","system_id":"levelo_inurba_marseille","lat":43.28415,"lon":5.37522,"is_reserved":false,"is_disabled":false,"rental_uris":{"android":"levelo://app?vid=2363d3b5-6c15-401a-a59c-ee80bd4af927","ios":"levelo://app?vid=2363d3b5-6c15-401a-a59c-ee80bd4af927"},"vehicle_type_id":"4","last_reported":1692551071,"current_range_meters":16400,"station_id":"ce4bh412rcd13ifvqds0","pricing_plan_id":"free"},{"bike_id":"15d132f2-a9d1-439d-a28c-77af4d0b5bb0","system_id":"levelo_inurba_marseille","lat":43.295713,"lon":5.399639,"is_reserved":false,"is_disabled":false,"rental_uris":{"android":"levelo://app?vid=15d132f2-a9d1-439d-a28c-77af4d0b5bb0","ios":"levelo://app?vid=15d132f2-a9d1-439d-a28c-77af4d0b5bb0"},"vehicle_type_id":"4","last_reported":1692551071,"current_range_meters":23200,"station_id":"ce4bh312rcd13ifvqdj0","pricing_plan_id":"free"},{"bike_id":"d826625f-f5a5-487b-9c63-81bbb93d08f3","system_id":"levelo_inurba_marseille","lat":43.295713,"lon":5.399639,"is_reserved":false,"is_disabled":false,"rental_uris":{"android":"levelo://app?vid=d826625f-f5a5-487b-9c63-81bbb93d08f3","ios":"levelo://app?vid=d826625f-f5a5-487b-9c63-81bbb93d08f3"},"vehicle_type_id":"4","last_reported":1692551071,"current_range_meters":29200,"station_id":"ce4bh312rcd13ifvqdj0","pricing_plan_id":"free"},{"bike_id":"2a604c5a-57f1-49c8-af0c-2f3e7dce9298","system_id":"levelo_inurba_marseille","lat":43.295713,"lon":5.399639,"is_reserved":false,"is_disabled":false,"rental_uris":{"android":"levelo://app?vid=2a604c5a-57f1-49c8-af0c-2f3e7dce9298","ios":"levelo://app?vid=2a604c5a-57f1-49c8-af0c-2f3e7dce9298"},"vehicle_type_id":"4","last_reported":1692551071,"current_range_meters":24400,"station_id":"ce4bh312rcd13ifvqdj0","pricing_plan_id":"free"},{"bike_id":"e3044dbd-6ad3-4b13-8f20-9f7c7843a697","system_id":"levelo_inurba_marseille","lat":43.28674,"lon":5.38658,"is_reserved":false,"is_disabled":false,"rental_uris":{"android":"levelo://app?vid=e3044dbd-6ad3-4b13-8f20-9f7c7843a697","ios":"levelo://app?vid=e3044dbd-6ad3-4b13-8f20-9f7c7843a697"},"vehicle_type_id":"4","last_reported":1692551071,"current_range_meters":0,"station_id":"","pricing_plan_id":"free"},{"bike_id":"f3398379-c461-48c9-8fb5-86e4c00afbc0","system_id":"levelo_inurba_marseille","lat":43.284793,"lon":5.384119,"is_reserved":false,"is_disabled":false,"rental_uris":{"android":"levelo://app?vid=f3398379-c461-48c9-8fb5-86e4c00afbc0","ios":"levelo://app?vid=f3398379-c461-48c9-8fb5-86e4c00afbc0"},"vehicle_type_id":"4","last_reported":1692551071,"current_range_meters":12800,"station_id":"ce4bh512rcd13ifvqe3g","pricing_plan_id":"free"},{"bike_id":"17105054-6fd8-493b-b0be-1ed88688055c","system_id":"levelo_inurba_marseille","lat":43.3372,"lon":5.39174,"is_reserved":false,"is_disabled":false,"rental_uris":{"android":"levelo://app?vid=17105054-6fd8-493b-b0be-1ed88688055c","ios":"levelo://app?vid=17105054-6fd8-493b-b0be-1ed88688055c"},"vehicle_type_id":"4","last_reported":1692551071,"current_range_meters":25600,"station_id":"ce4bhr92rcd13ifvqhsg","pricing_plan_id":"free"},{"bike_id":"4458971a-1e42-4d51-8e96-a944048bc368","system_id":"levelo_inurba_marseille","lat":43.337168,"lon":5.391825,"is_reserved":false,"is_disabled":false,"rental_uris":{"android":"levelo://app?vid=4458971a-1e42-4d51-8e96-a944048bc368","ios":"levelo://app?vid=4458971a-1e42-4d51-8e96-a944048bc368"},"vehicle_type_id":"4","last_reported":1692551071,"current_range_meters":27600,"station_id":"ce4bhr92rcd13ifvqhsg","pricing_plan_id":"free"},{"bike_id":"3d3979f0-a28e-4760-847b-c6d9bae4866b","system_id":"levelo_inurba_marseille","lat":43.3372,"lon":5.3918,"is_reserved":false,"is_disabled":false,"rental_uris":{"android":"levelo://app?vid=3d3979f0-a28e-4760-847b-c6d9bae4866b","ios":"levelo://app?vid=3d3979f0-a28e-4760-847b-c6d9bae4866b"},"vehicle_type_id":"4","last_reported":1692551071,"current_range_meters":30800,"station_id":"ce4bhr92rcd13ifvqhsg","pricing_plan_id":"free"},{"bike_id":"2b3f06e0-8f2d-4133-9563-f19f57fe46e5","system_id":"levelo_inurba_marseille","lat":43.33724,"lon":5.39178,"is_reserved":false,"is_disabled":false,"rental_uris":{"android":"levelo://app?vid=2b3f06e0-8f2d-4133-9563-f19f57fe46e5","ios":"levelo://app?vid=2b3f06e0-8f2d-4133-9563-f19f57fe46e5"},"vehicle_type_id":"4","last_reported":1692551071,"current_range_meters":6000,"station_id":"ce4bhr92rcd13ifvqhsg","pricing_plan_id":"free"},{"bike_id":"efe8b264-ad35-4139-b98d-40041f267f16","system_id":"levelo_inurba_marseille","lat":43.33722,"lon":5.39184,"is_reserved":false,"is_disabled":false,"rental_uris":{"android":"levelo://app?vid=efe8b264-ad35-4139-b98d-40041f267f16","ios":"levelo://app?vid=efe8b264-ad35-4139-b98d-40041f267f16"},"vehicle_type_id":"4","last_reported":1692551071,"current_range_meters":22800,"station_id":"ce4bhr92rcd13ifvqhsg","pricing_plan_id":"free"},{"bike_id":"7d2969ab-a065-4a23-b19e-667095d799c9","system_id":"levelo_inurba_marseille","lat":43.33722,"lon":5.39185,"is_reserved":false,"is_disabled":false,"rental_uris":{"android":"levelo://app?vid=7d2969ab-a065-4a23-b19e-667095d799c9","ios":"levelo://app?vid=7d2969ab-a065-4a23-b19e-667095d799c9"},"vehicle_type_id":"4","last_reported":1692551071,"current_range_meters":6000,"station_id":"ce4bhr92rcd13ifvqhsg","pricing_plan_id":"free"},{"bike_id":"72fc020d-a1d4-460a-a3d1-6187a1ea65d2","system_id":"levelo_inurba_marseille","lat":43.33724,"lon":5.39182,"is_reserved":false,"is_disabled":false,"rental_uris":{"android":"levelo://app?vid=72fc020d-a1d4-460a-a3d1-6187a1ea65d2","ios":"levelo://app?vid=72fc020d-a1d4-460a-a3d1-6187a1ea65d2"},"vehicle_type_id":"4","last_reported":1692551071,"current_range_meters":22400,"station_id":"ce4bhr92rcd13ifvqhsg","pricing_plan_id":"free"},{"bike_id":"97d0f90d-ac9d-480b-8250-a663b55e35e8","system_id":"levelo_inurba_marseille","lat":43.337168,"lon":5.391825,"is_reserved":false,"is_disabled":false,"rental_uris":{"android":"levelo://app?vid=97d0f90d-ac9d-480b-8250-a663b55e35e8","ios":"levelo://app?vid=97d0f90d-ac9d-480b-8250-a663b55e35e8"},"vehicle_type_id":"4","last_reported":1692551071,"current_range_meters":24800,"station_id":"ce4bhr92rcd13ifvqhsg","pricing_plan_id":"free"},{"bike_id":"c24cecf2-0503-470c-b3d3-fc37f377f710","system_id":"levelo_inurba_marseille","lat":43.33729,"lon":5.39183,"is_reserved":false,"is_disabled":false,"rental_uris":{"android":"levelo://app?vid=c24cecf2-0503-470c-b3d3-fc37f377f710","ios":"levelo://app?vid=c24cecf2-0503-470c-b3d3-fc37f377f710"},"vehicle_type_id":"4","last_reported":1692551071,"current_range_meters":24400,"station_id":"ce4bhr92rcd13ifvqhsg","pricing_plan_id":"free"},{"bike_id":"8bd09c71-02ae-4371-8b55-ce1e7e2bf2df","system_id":"levelo_inurba_marseille","lat":43.33727,"lon":5.39188,"is_reserved":false,"is_disabled":false,"rental_uris":{"android":"levelo://app?vid=8bd09c71-02ae-4371-8b55-ce1e7e2bf2df","ios":"levelo://app?vid=8bd09c71-02ae-4371-8b55-ce1e7e2bf2df"},"vehicle_type_id":"4","last_reported":1692551071,"current_range_meters":25200,"station_id":"ce4bhr92rcd13ifvqhsg","pricing_plan_id":"free"},{"bike_id":"12c0f407-4ac2-49d3-b1e8-783bd26a8644","system_id":"levelo_inurba_marseille","lat":43.33729,"lon":5.39185,"is_reserved":false,"is_disabled":false,"rental_uris":{"android":"levelo://app?vid=12c0f407-4ac2-49d3-b1e8-783bd26a8644","ios":"levelo://app?vid=12c0f407-4ac2-49d3-b1e8-783bd26a8644"},"vehicle_type_id":"4","last_reported":1692551071,"current_range_meters":24800,"station_id":"ce4bhr92rcd13ifvqhsg","pricing_plan_id":"free"},{"bike_id":"02f29c2d-847e-4148-9200-bdb4c19acc46","system_id":"levelo_inurba_marseille","lat":43.33728,"lon":5.39187,"is_reserved":false,"is_disabled":false,"rental_uris":{"android":"levelo://app?vid=02f29c2d-847e-4148-9200-bdb4c19acc46","ios":"levelo://app?vid=02f29c2d-847e-4148-9200-bdb4c19acc46"},"vehicle_type_id":"4","last_reported":1692551071,"current_range_meters":25200,"station_id":"ce4bhr92rcd13ifvqhsg","pricing_plan_id":"free"},{"bike_id":"01f563c5-7ac0-4d44-b1b3-0549f3b949f3","system_id":"levelo_inurba_marseille","lat":43.3373,"lon":5.39184,"is_reserved":false,"is_disabled":false,"rental_uris":{"android":"levelo://app?vid=01f563c5-7ac0-4d44-b1b3-0549f3b949f3","ios":"levelo://app?vid=01f563c5-7ac0-4d44-b1b3-0549f3b949f3"},"vehicle_type_id":"4","last_reported":1692551071,"current_range_meters":25200,"station_id":"ce4bhr92rcd13ifvqhsg","pricing_plan_id":"free"},{"bike_id":"0dda2562-498f-4f90-abfb-f3c666db2d2e","system_id":"levelo_inurba_marseille","lat":43.33731,"lon":5.39184,"is_reserved":false,"is_disabled":false,"rental_uris":{"android":"levelo://app?vid=0dda2562-498f-4f90-abfb-f3c666db2d2e","ios":"levelo://app?vid=0dda2562-498f-4f90-abfb-f3c666db2d2e"},"vehicle_type_id":"4","last_reported":1692551071,"current_range_meters":19200,"station_id":"ce4bhr92rcd13ifvqhsg","pricing_plan_id":"free"},{"bike_id":"e45012d8-673a-4bd6-93d3-a427f767a00d","system_id":"levelo_inurba_marseille","lat":43.33731,"lon":5.39185,"is_reserved":false,"is_disabled":false,"rental_uris":{"android":"levelo://app?vid=e45012d8-673a-4bd6-93d3-a427f767a00d","ios":"levelo://app?vid=e45012d8-673a-4bd6-93d3-a427f767a00d"},"vehicle_type_id":"4","last_reported":1692551071,"current_range_meters":23200,"station_id":"ce4bhr92rcd13ifvqhsg","pricing_plan_id":"free"},{"bike_id":"f24d321f-ba10-47bf-b834-145a0b92ec46","system_id":"levelo_inurba_marseille","lat":43.33732,"lon":5.39187,"is_reserved":false,"is_disabled":false,"rental_uris":{"android":"levelo://app?vid=f24d321f-ba10-47bf-b834-145a0b92ec46","ios":"levelo://app?vid=f24d321f-ba10-47bf-b834-145a0b92ec46"},"vehicle_type_id":"4","last_reported":1692551071,"current_range_meters":17600,"station_id":"ce4bhr92rcd13ifvqhsg","pricing_plan_id":"free"},{"bike_id":"186ddf38-a5ca-44a9-9dd3-9bfe2a53544b","system_id":"levelo_inurba_marseille","lat":43.33736,"lon":5.39183,"is_reserved":false,"is_disabled":false,"rental_uris":{"android":"levelo://app?vid=186ddf38-a5ca-44a9-9dd3-9bfe2a53544b","ios":"levelo://app?vid=186ddf38-a5ca-44a9-9dd3-9bfe2a53544b"},"vehicle_type_id":"4","last_reported":1692551071,"current_range_meters":24000,"station_id":"ce4bhr92rcd13ifvqhsg","pricing_plan_id":"free"},{"bike_id":"35e51cdd-0691-44df-be95-a6dd6fc17edd","system_id":"levelo_inurba_marseille","lat":43.33734,"lon":5.3919,"is_reserved":false,"is_disabled":false,"rental_uris":{"android":"levelo://app?vid=35e51cdd-0691-44df-be95-a6dd6fc17edd","ios":"levelo://app?vid=35e51cdd-0691-44df-be95-a6dd6fc17edd"},"vehicle_type_id":"4","last_reported":1692551071,"current_range_meters":14400,"station_id":"ce4bhr92rcd13ifvqhsg","pricing_plan_id":"free"},{"bike_id":"2414a407-a7c5-4b7b-a0f7-3deb1b2acf8e","system_id":"levelo_inurba_marseille","lat":43.284793,"lon":5.384119,"is_reserved":false,"is_disabled":false,"rental_uris":{"android":"levelo://app?vid=2414a407-a7c5-4b7b-a0f7-3deb1b2acf8e","ios":"levelo://app?vid=2414a407-a7c5-4b7b-a0f7-3deb1b2acf8e"},"vehicle_type_id":"4","last_reported":1692551071,"current_range_meters":29200,"station_id":"ce4bh512rcd13ifvqe3g","pricing_plan_id":"free"},{"bike_id":"5af3bf10-2dd4-4008-9199-76b4a18a9bce","system_id":"levelo_inurba_marseille","lat":43.283494,"lon":5.380945,"is_reserved":false,"is_disabled":false,"rental_uris":{"android":"levelo://app?vid=5af3bf10-2dd4-4008-9199-76b4a18a9bce","ios":"levelo://app?vid=5af3bf10-2dd4-4008-9199-76b4a18a9bce"},"vehicle_type_id":"4","last_reported":1692551071,"current_range_meters":0,"station_id":"ce4bh412rcd13ifvqdr0","pricing_plan_id":"free"},{"bike_id":"ccb3b643-9c1e-4b4a-8667-b252ba51794e","system_id":"levelo_inurba_marseille","lat":43.288497,"lon":5.393089,"is_reserved":false,"is_disabled":false,"rental_uris":{"android":"levelo://app?vid=ccb3b643-9c1e-4b4a-8667-b252ba51794e","ios":"levelo://app?vid=ccb3b643-9c1e-4b4a-8667-b252ba51794e"},"vehicle_type_id":"4","last_reported":1692551071,"current_range_meters":4800,"station_id":"ce4bh2p2rcd13ifvqdi0","pricing_plan_id":"free"},{"bike_id":"25edf566-2fea-4324-b228-d9ac20a400a6","system_id":"levelo_inurba_marseille","lat":43.283494,"lon":5.380945,"is_reserved":false,"is_disabled":false,"rental_uris":{"android":"levelo://app?vid=25edf566-2fea-4324-b228-d9ac20a400a6","ios":"levelo://app?vid=25edf566-2fea-4324-b228-d9ac20a400a6"},"vehicle_type_id":"4","last_reported":1692551071,"current_range_meters":29600,"station_id":"ce4bh412rcd13ifvqdr0","pricing_plan_id":"free"},{"bike_id":"0466f3a1-1f88-4c9c-a850-0165ede93c15","system_id":"levelo_inurba_marseille","lat":43.283494,"lon":5.380945,"is_reserved":false,"is_disabled":false,"rental_uris":{"android":"levelo://app?vid=0466f3a1-1f88-4c9c-a850-0165ede93c15","ios":"levelo://app?vid=0466f3a1-1f88-4c9c-a850-0165ede93c15"},"vehicle_type_id":"4","last_reported":1692551071,"current_range_meters":11200,"station_id":"ce4bh412rcd13ifvqdr0","pricing_plan_id":"free"},{"bike_id":"41af440f-a7d2-4210-92d2-be86f580e45c","system_id":"levelo_inurba_marseille","lat":43.28425,"lon":5.34983,"is_reserved":false,"is_disabled":false,"rental_uris":{"android":"levelo://app?vid=41af440f-a7d2-4210-92d2-be86f580e45c","ios":"levelo://app?vid=41af440f-a7d2-4210-92d2-be86f580e45c"},"vehicle_type_id":"4","last_reported":1692551071,"current_range_meters":22800,"station_id":"ce4bhbh2rcd13ifvqepg","pricing_plan_id":"free"},{"bike_id":"e2c731d8-6922-464e-a2c5-52109999220e","system_id":"levelo_inurba_marseille","lat":43.284217,"lon":5.349697,"is_reserved":false,"is_disabled":false,"rental_uris":{"android":"levelo://app?vid=e2c731d8-6922-464e-a2c5-52109999220e","ios":"levelo://app?vid=e2c731d8-6922-464e-a2c5-52109999220e"},"vehicle_type_id":"4","last_reported":1692551071,"current_range_meters":2800,"station_id":"ce4bhbh2rcd13ifvqepg","pricing_plan_id":"free"},{"bike_id":"ad32e7e6-9d0d-45ba-bc77-91b4125e2cfe","system_id":"levelo_inurba_marseille","lat":43.2842,"lon":5.34972,"is_reserved":false,"is_disabled":false,"rental_uris":{"android":"levelo://app?vid=ad32e7e6-9d0d-45ba-bc77-91b4125e2cfe","ios":"levelo://app?vid=ad32e7e6-9d0d-45ba-bc77-91b4125e2cfe"},"vehicle_type_id":"4","last_reported":1692551071,"current_range_meters":20800,"station_id":"ce4bhbh2rcd13ifvqepg","pricing_plan_id":"free"},{"bike_id":"f50aca5f-cf5b-4020-925f-826a2e34874f","system_id":"levelo_inurba_marseille","lat":43.289363,"lon":5.396322,"is_reserved":false,"is_disabled":false,"rental_uris":{"android":"levelo://app?vid=f50aca5f-cf5b-4020-925f-826a2e34874f","ios":"levelo://app?vid=f50aca5f-cf5b-4020-925f-826a2e34874f"},"vehicle_type_id":"4","last_reported":1692551071,"current_range_meters":29200,"station_id":"ce4bh3h2rcd13ifvqdn0","pricing_plan_id":"free"},{"bike_id":"5cec26ac-344f-432b-af34-450b75305b9b","system_id":"levelo_inurba_marseille","lat":43.2928,"lon":5.40115,"is_reserved":false,"is_disabled":false,"rental_uris":{"android":"levelo://app?vid=5cec26ac-344f-432b-af34-450b75305b9b","ios":"levelo://app?vid=5cec26ac-344f-432b-af34-450b75305b9b"},"vehicle_type_id":"4","last_reported":1692551071,"current_range_meters":31200,"station_id":"ce4bh312rcd13ifvqdk0","pricing_plan_id":"free"},{"bike_id":"5e6d6ac6-fa0d-4a92-9136-40adba1a2fa3","system_id":"levelo_inurba_marseille","lat":43.28268,"lon":5.3506,"is_reserved":false,"is_disabled":false,"rental_uris":{"android":"levelo://app?vid=5e6d6ac6-fa0d-4a92-9136-40adba1a2fa3","ios":"levelo://app?vid=5e6d6ac6-fa0d-4a92-9136-40adba1a2fa3"},"vehicle_type_id":"4","last_reported":1692551071,"current_range_meters":0,"station_id":"ce4bhbp2rcd13ifvqerg","pricing_plan_id":"free"},{"bike_id":"6f550ac5-031b-44e4-a76b-ed504e8d676d","system_id":"levelo_inurba_marseille","lat":43.282754,"lon":5.350519,"is_reserved":false,"is_disabled":false,"rental_uris":{"android":"levelo://app?vid=6f550ac5-031b-44e4-a76b-ed504e8d676d","ios":"levelo://app?vid=6f550ac5-031b-44e4-a76b-ed504e8d676d"},"vehicle_type_id":"4","last_reported":1692551071,"current_range_meters":16000,"station_id":"ce4bhbp2rcd13ifvqerg","pricing_plan_id":"free"},{"bike_id":"b1300aa7-b017-4813-b579-bf37d1a48fc8","system_id":"levelo_inurba_marseille","lat":43.28039,"lon":5.36941,"is_reserved":false,"is_disabled":false,"rental_uris":{"android":"levelo://app?vid=b1300aa7-b017-4813-b579-bf37d1a48fc8","ios":"levelo://app?vid=b1300aa7-b017-4813-b579-bf37d1a48fc8"},"vehicle_type_id":"4","last_reported":1692551071,"current_range_meters":31200,"station_id":"ce4bha12rcd13ifvqef0","pricing_plan_id":"free"},{"bike_id":"88940920-727e-47f8-bee6-24feedff1167","system_id":"levelo_inurba_marseille","lat":43.282744,"lon":5.350533,"is_reserved":false,"is_disabled":false,"rental_uris":{"android":"levelo://app?vid=88940920-727e-47f8-bee6-24feedff1167","ios":"levelo://app?vid=88940920-727e-47f8-bee6-24feedff1167"},"vehicle_type_id":"4","last_reported":1692551071,"current_range_meters":30400,"station_id":"ce4bhbp2rcd13ifvqerg","pricing_plan_id":"free"},{"bike_id":"9f46cfde-4f76-4076-bade-5765c2d3d473","system_id":"levelo_inurba_marseille","lat":43.28039,"lon":5.369297,"is_reserved":false,"is_disabled":false,"rental_uris":{"android":"levelo://app?vid=9f46cfde-4f76-4076-bade-5765c2d3d473","ios":"levelo://app?vid=9f46cfde-4f76-4076-bade-5765c2d3d473"},"vehicle_type_id":"4","last_reported":1692551071,"current_range_meters":31200,"station_id":"ce4bha12rcd13ifvqef0","pricing_plan_id":"free"},{"bike_id":"618df455-37c8-40a2-9358-626a7068f7fd","system_id":"levelo_inurba_marseille","lat":43.28039,"lon":5.369297,"is_reserved":false,"is_disabled":false,"rental_uris":{"android":"levelo://app?vid=618df455-37c8-40a2-9358-626a7068f7fd","ios":"levelo://app?vid=618df455-37c8-40a2-9358-626a7068f7fd"},"vehicle_type_id":"4","last_reported":1692551071,"current_range_meters":0,"station_id":"ce4bha12rcd13ifvqef0","pricing_plan_id":"free"},{"bike_id":"ab98d120-823e-44ed-8a0a-c334b4328821","system_id":"levelo_inurba_marseille","lat":43.296263,"lon":5.40601,"is_reserved":false,"is_disabled":false,"rental_uris":{"android":"levelo://app?vid=ab98d120-823e-44ed-8a0a-c334b4328821","ios":"levelo://app?vid=ab98d120-823e-44ed-8a0a-c334b4328821"},"vehicle_type_id":"4","last_reported":1692551071,"current_range_meters":17600,"station_id":"ce4bh0h2rcd13ifvqd60","pricing_plan_id":"free"},{"bike_id":"facffd0e-350f-4c82-a3f7-3aa7ccb53200","system_id":"levelo_inurba_marseille","lat":43.28104,"lon":5.37838,"is_reserved":false,"is_disabled":false,"rental_uris":{"android":"levelo://app?vid=facffd0e-350f-4c82-a3f7-3aa7ccb53200","ios":"levelo://app?vid=facffd0e-350f-4c82-a3f7-3aa7ccb53200"},"vehicle_type_id":"4","last_reported":1692551071,"current_range_meters":16800,"station_id":"ce4bha12rcd13ifvqee0","pricing_plan_id":"free"},{"bike_id":"752bdae6-2c83-4898-ae79-9dc07c6e5e9f","system_id":"levelo_inurba_marseille","lat":43.281003,"lon":5.378342,"is_reserved":false,"is_disabled":false,"rental_uris":{"android":"levelo://app?vid=752bdae6-2c83-4898-ae79-9dc07c6e5e9f","ios":"levelo://app?vid=752bdae6-2c83-4898-ae79-9dc07c6e5e9f"},"vehicle_type_id":"4","last_reported":1692551071,"current_range_meters":2000,"station_id":"","pricing_plan_id":"free"},{"bike_id":"f8ef4f78-badc-40d1-a4a9-077301466e56","system_id":"levelo_inurba_marseille","lat":43.32662,"lon":5.40978,"is_reserved":false,"is_disabled":false,"rental_uris":{"android":"levelo://app?vid=f8ef4f78-badc-40d1-a4a9-077301466e56","ios":"levelo://app?vid=f8ef4f78-badc-40d1-a4a9-077301466e56"},"vehicle_type_id":"4","last_reported":1692551071,"current_range_meters":8400,"station_id":"ce4bhpp2rcd13ifvqhgg","pricing_plan_id":"free"},{"bike_id":"9c0a6914-b424-4b3f-9fe8-660cb06a5d14","system_id":"levelo_inurba_marseille","lat":43.32655,"lon":5.40992,"is_reserved":false,"is_disabled":false,"rental_uris":{"android":"levelo://app?vid=9c0a6914-b424-4b3f-9fe8-660cb06a5d14","ios":"levelo://app?vid=9c0a6914-b424-4b3f-9fe8-660cb06a5d14"},"vehicle_type_id":"4","last_reported":1692551071,"current_range_meters":2800,"station_id":"ce4bhpp2rcd13ifvqhgg","pricing_plan_id":"free"},{"bike_id":"d4819957-e807-49c7-91b5-c49c66a63605","system_id":"levelo_inurba_marseille","lat":43.3266,"lon":5.40989,"is_reserved":false,"is_disabled":false,"rental_uris":{"android":"levelo://app?vid=d4819957-e807-49c7-91b5-c49c66a63605","ios":"levelo://app?vid=d4819957-e807-49c7-91b5-c49c66a63605"},"vehicle_type_id":"4","last_reported":1692551071,"current_range_meters":23200,"station_id":"ce4bhpp2rcd13ifvqhgg","pricing_plan_id":"free"},{"bike_id":"c5394f31-c929-4384-99f8-b7281526a1d8","system_id":"levelo_inurba_marseille","lat":43.287154,"lon":5.399979,"is_reserved":false,"is_disabled":false,"rental_uris":{"android":"levelo://app?vid=c5394f31-c929-4384-99f8-b7281526a1d8","ios":"levelo://app?vid=c5394f31-c929-4384-99f8-b7281526a1d8"},"vehicle_type_id":"4","last_reported":1692551071,"current_range_meters":20800,"station_id":"ce4bho92rcd13ifvqh3g","pricing_plan_id":"free"},{"bike_id":"6d9b0844-98ee-4c3c-825a-bd52793e9c46","system_id":"levelo_inurba_marseille","lat":43.287154,"lon":5.399979,"is_reserved":false,"is_disabled":false,"rental_uris":{"android":"levelo://app?vid=6d9b0844-98ee-4c3c-825a-bd52793e9c46","ios":"levelo://app?vid=6d9b0844-98ee-4c3c-825a-bd52793e9c46"},"vehicle_type_id":"4","last_reported":1692551071,"current_range_meters":0,"station_id":"ce4bho92rcd13ifvqh3g","pricing_plan_id":"free"},{"bike_id":"699161d0-a3d5-4e78-ace6-7d54422f260e","system_id":"levelo_inurba_marseille","lat":43.287154,"lon":5.399979,"is_reserved":false,"is_disabled":false,"rental_uris":{"android":"levelo://app?vid=699161d0-a3d5-4e78-ace6-7d54422f260e","ios":"levelo://app?vid=699161d0-a3d5-4e78-ace6-7d54422f260e"},"vehicle_type_id":"4","last_reported":1692551071,"current_range_meters":4000,"station_id":"ce4bho92rcd13ifvqh3g","pricing_plan_id":"free"},{"bike_id":"f49db596-8464-40ab-aefe-9bce7498cfab","system_id":"levelo_inurba_marseille","lat":43.287154,"lon":5.399979,"is_reserved":false,"is_disabled":false,"rental_uris":{"android":"levelo://app?vid=f49db596-8464-40ab-aefe-9bce7498cfab","ios":"levelo://app?vid=f49db596-8464-40ab-aefe-9bce7498cfab"},"vehicle_type_id":"4","last_reported":1692551071,"current_range_meters":18800,"station_id":"ce4bho92rcd13ifvqh3g","pricing_plan_id":"free"},{"bike_id":"c2501cd0-5d9f-4b9e-83f0-32aca9b2ba4d","system_id":"levelo_inurba_marseille","lat":43.320045,"lon":5.415048,"is_reserved":false,"is_disabled":false,"rental_uris":{"android":"levelo://app?vid=c2501cd0-5d9f-4b9e-83f0-32aca9b2ba4d","ios":"levelo://app?vid=c2501cd0-5d9f-4b9e-83f0-32aca9b2ba4d"},"vehicle_type_id":"4","last_reported":1692551071,"current_range_meters":18000,"station_id":"ce4bhq92rcd13ifvqhkg","pricing_plan_id":"free"},{"bike_id":"c327718a-8fe6-4791-a349-aba0f8f94e82","system_id":"levelo_inurba_marseille","lat":43.279742,"lon":5.38744,"is_reserved":false,"is_disabled":false,"rental_uris":{"android":"levelo://app?vid=c327718a-8fe6-4791-a349-aba0f8f94e82","ios":"levelo://app?vid=c327718a-8fe6-4791-a349-aba0f8f94e82"},"vehicle_type_id":"4","last_reported":1692551071,"current_range_meters":26000,"station_id":"ce4bhg12rcd13ifvqf80","pricing_plan_id":"free"},{"bike_id":"f28321a2-afee-4891-95a5-47dca9a344cc","system_id":"levelo_inurba_marseille","lat":43.292569,"lon":5.409107,"is_reserved":false,"is_disabled":false,"rental_uris":{"android":"levelo://app?vid=f28321a2-afee-4891-95a5-47dca9a344cc","ios":"levelo://app?vid=f28321a2-afee-4891-95a5-47dca9a344cc"},"vehicle_type_id":"4","last_reported":1692551071,"current_range_meters":18000,"station_id":"ce4bh192rcd13ifvqdc0","pricing_plan_id":"free"},{"bike_id":"3b543ce2-1ffc-4d13-9ca2-a9b65dd4efb2","system_id":"levelo_inurba_marseille","lat":43.27618,"lon":5.361009,"is_reserved":false,"is_disabled":false,"rental_uris":{"android":"levelo://app?vid=3b543ce2-1ffc-4d13-9ca2-a9b65dd4efb2","ios":"levelo://app?vid=3b543ce2-1ffc-4d13-9ca2-a9b65dd4efb2"},"vehicle_type_id":"4","last_reported":1692551071,"current_range_meters":2000,"station_id":"ce4bgj92rcd13ifvqbe0","pricing_plan_id":"free"},{"bike_id":"d435e4f8-39a9-411d-8cd6-9d4fbb7ba521","system_id":"levelo_inurba_marseille","lat":43.276179,"lon":5.361009,"is_reserved":false,"is_disabled":false,"rental_uris":{"android":"levelo://app?vid=d435e4f8-39a9-411d-8cd6-9d4fbb7ba521","ios":"levelo://app?vid=d435e4f8-39a9-411d-8cd6-9d4fbb7ba521"},"vehicle_type_id":"4","last_reported":1692551071,"current_range_meters":400,"station_id":"ce4bgj92rcd13ifvqbe0","pricing_plan_id":"free"},{"bike_id":"9a171d6a-e5a7-4c3f-b725-b87a65934bad","system_id":"levelo_inurba_marseille","lat":43.2808,"lon":5.39663,"is_reserved":false,"is_disabled":false,"rental_uris":{"android":"levelo://app?vid=9a171d6a-e5a7-4c3f-b725-b87a65934bad","ios":"levelo://app?vid=9a171d6a-e5a7-4c3f-b725-b87a65934bad"},"vehicle_type_id":"4","last_reported":1692551071,"current_range_meters":18400,"station_id":"ce4bho12rcd13ifvqh2g","pricing_plan_id":"free"},{"bike_id":"9ccb2d8b-b8b7-4f0c-9940-b52d281b2704","system_id":"levelo_inurba_marseille","lat":43.33612,"lon":5.410321,"is_reserved":false,"is_disabled":false,"rental_uris":{"android":"levelo://app?vid=9ccb2d8b-b8b7-4f0c-9940-b52d281b2704","ios":"levelo://app?vid=9ccb2d8b-b8b7-4f0c-9940-b52d281b2704"},"vehicle_type_id":"4","last_reported":1692551071,"current_range_meters":25200,"station_id":"ce4bhqh2rcd13ifvqhmg","pricing_plan_id":"free"},{"bike_id":"9892a06b-19e7-4aaa-96bb-95c3d8ae1830","system_id":"levelo_inurba_marseille","lat":43.33616,"lon":5.41027,"is_reserved":false,"is_disabled":false,"rental_uris":{"android":"levelo://app?vid=9892a06b-19e7-4aaa-96bb-95c3d8ae1830","ios":"levelo://app?vid=9892a06b-19e7-4aaa-96bb-95c3d8ae1830"},"vehicle_type_id":"4","last_reported":1692551071,"current_range_meters":28000,"station_id":"ce4bhqh2rcd13ifvqhmg","pricing_plan_id":"free"},{"bike_id":"32bc635d-08e0-44ee-abf1-abf1b00336ce","system_id":"levelo_inurba_marseille","lat":43.33617,"lon":5.41029,"is_reserved":false,"is_disabled":false,"rental_uris":{"android":"levelo://app?vid=32bc635d-08e0-44ee-abf1-abf1b00336ce","ios":"levelo://app?vid=32bc635d-08e0-44ee-abf1-abf1b00336ce"},"vehicle_type_id":"4","last_reported":1692551071,"current_range_meters":30000,"station_id":"ce4bhqh2rcd13ifvqhmg","pricing_plan_id":"free"},{"bike_id":"2c002134-e4d2-41d1-b436-28e8e2ea24ca","system_id":"levelo_inurba_marseille","lat":43.276771,"lon":5.388799,"is_reserved":false,"is_disabled":false,"rental_uris":{"android":"levelo://app?vid=2c002134-e4d2-41d1-b436-28e8e2ea24ca","ios":"levelo://app?vid=2c002134-e4d2-41d1-b436-28e8e2ea24ca"},"vehicle_type_id":"4","last_reported":1692551071,"current_range_meters":30000,"station_id":"ce4bhi12rcd13ifvqfo0","pricing_plan_id":"free"},{"bike_id":"81ceca42-08e3-4146-96f8-fc3af898abae","system_id":"levelo_inurba_marseille","lat":43.27887,"lon":5.39497,"is_reserved":false,"is_disabled":false,"rental_uris":{"android":"levelo://app?vid=81ceca42-08e3-4146-96f8-fc3af898abae","ios":"levelo://app?vid=81ceca42-08e3-4146-96f8-fc3af898abae"},"vehicle_type_id":"4","last_reported":1692551071,"current_range_meters":20800,"station_id":"","pricing_plan_id":"free"},{"bike_id":"83d15515-e803-4385-8191-b0e90955240d","system_id":"levelo_inurba_marseille","lat":43.341443,"lon":5.409037,"is_reserved":false,"is_disabled":false,"rental_uris":{"android":"levelo://app?vid=83d15515-e803-4385-8191-b0e90955240d","ios":"levelo://app?vid=83d15515-e803-4385-8191-b0e90955240d"},"vehicle_type_id":"4","last_reported":1692551071,"current_range_meters":22800,"station_id":"ce4bhqh2rcd13ifvqhlg","pricing_plan_id":"free"},{"bike_id":"9efa1e9b-79c9-440a-b8b9-1506ca12e70d","system_id":"levelo_inurba_marseille","lat":43.34146,"lon":5.40917,"is_reserved":false,"is_disabled":false,"rental_uris":{"android":"levelo://app?vid=9efa1e9b-79c9-440a-b8b9-1506ca12e70d","ios":"levelo://app?vid=9efa1e9b-79c9-440a-b8b9-1506ca12e70d"},"vehicle_type_id":"4","last_reported":1692551071,"current_range_meters":6800,"station_id":"ce4bhqh2rcd13ifvqhlg","pricing_plan_id":"free"},{"bike_id":"f3022a72-bc07-4033-b884-bf97a77b9f6b","system_id":"levelo_inurba_marseille","lat":43.27313,"lon":5.3907,"is_reserved":false,"is_disabled":false,"rental_uris":{"android":"levelo://app?vid=f3022a72-bc07-4033-b884-bf97a77b9f6b","ios":"levelo://app?vid=f3022a72-bc07-4033-b884-bf97a77b9f6b"},"vehicle_type_id":"4","last_reported":1692551071,"current_range_meters":21200,"station_id":"","pricing_plan_id":"free"},{"bike_id":"2229015e-48e8-461b-b7db-08c9984d5650","system_id":"levelo_inurba_marseille","lat":43.29561,"lon":5.42271,"is_reserved":false,"is_disabled":false,"rental_uris":{"android":"levelo://app?vid=2229015e-48e8-461b-b7db-08c9984d5650","ios":"levelo://app?vid=2229015e-48e8-461b-b7db-08c9984d5650"},"vehicle_type_id":"4","last_reported":1692551071,"current_range_meters":0,"station_id":"ce4bhph2rcd13ifvqhdg","pricing_plan_id":"free"},{"bike_id":"294935ff-4d87-43a5-be03-959e8ec3bbc0","system_id":"levelo_inurba_marseille","lat":43.295511,"lon":5.422926,"is_reserved":false,"is_disabled":false,"rental_uris":{"android":"levelo://app?vid=294935ff-4d87-43a5-be03-959e8ec3bbc0","ios":"levelo://app?vid=294935ff-4d87-43a5-be03-959e8ec3bbc0"},"vehicle_type_id":"4","last_reported":1692551071,"current_range_meters":28000,"station_id":"ce4bhph2rcd13ifvqhdg","pricing_plan_id":"free"},{"bike_id":"f9276a94-be15-4d27-aab6-7962e7202bfd","system_id":"levelo_inurba_marseille","lat":43.272116,"lon":5.391747,"is_reserved":false,"is_disabled":false,"rental_uris":{"android":"levelo://app?vid=f9276a94-be15-4d27-aab6-7962e7202bfd","ios":"levelo://app?vid=f9276a94-be15-4d27-aab6-7962e7202bfd"},"vehicle_type_id":"4","last_reported":1692551071,"current_range_meters":14000,"station_id":"ce4bhhp2rcd13ifvqfm0","pricing_plan_id":"free"},{"bike_id":"22c10e3c-0553-4e34-9e88-23e956662d74","system_id":"levelo_inurba_marseille","lat":43.278128,"lon":5.407195,"is_reserved":false,"is_disabled":false,"rental_uris":{"android":"levelo://app?vid=22c10e3c-0553-4e34-9e88-23e956662d74","ios":"levelo://app?vid=22c10e3c-0553-4e34-9e88-23e956662d74"},"vehicle_type_id":"4","last_reported":1692551071,"current_range_meters":7600,"station_id":"ce4bhnh2rcd13ifvqgtg","pricing_plan_id":"free"},{"bike_id":"b7e5591d-1c34-4417-a274-a20e7c77a167","system_id":"levelo_inurba_marseille","lat":43.278128,"lon":5.407195,"is_reserved":false,"is_disabled":false,"rental_uris":{"android":"levelo://app?vid=b7e5591d-1c34-4417-a274-a20e7c77a167","ios":"levelo://app?vid=b7e5591d-1c34-4417-a274-a20e7c77a167"},"vehicle_type_id":"4","last_reported":1692551071,"current_range_meters":8800,"station_id":"ce4bhnh2rcd13ifvqgtg","pricing_plan_id":"free"},{"bike_id":"dd1b4b86-9f3c-4ec9-b96a-90d715344125","system_id":"levelo_inurba_marseille","lat":43.2781,"lon":5.4071,"is_reserved":false,"is_disabled":false,"rental_uris":{"android":"levelo://app?vid=dd1b4b86-9f3c-4ec9-b96a-90d715344125","ios":"levelo://app?vid=dd1b4b86-9f3c-4ec9-b96a-90d715344125"},"vehicle_type_id":"4","last_reported":1692551071,"current_range_meters":6800,"station_id":"","pricing_plan_id":"free"},{"bike_id":"fb062979-2f29-42ff-9bbf-6960697dc201","system_id":"levelo_inurba_marseille","lat":43.278083,"lon":5.40717,"is_reserved":false,"is_disabled":false,"rental_uris":{"android":"levelo://app?vid=fb062979-2f29-42ff-9bbf-6960697dc201","ios":"levelo://app?vid=fb062979-2f29-42ff-9bbf-6960697dc201"},"vehicle_type_id":"4","last_reported":1692551071,"current_range_meters":22800,"station_id":"","pricing_plan_id":"free"},{"bike_id":"6c719c22-5b92-4c95-8162-3dca5ac74fbe","system_id":"levelo_inurba_marseille","lat":43.269319,"lon":5.389397,"is_reserved":false,"is_disabled":false,"rental_uris":{"android":"levelo://app?vid=6c719c22-5b92-4c95-8162-3dca5ac74fbe","ios":"levelo://app?vid=6c719c22-5b92-4c95-8162-3dca5ac74fbe"},"vehicle_type_id":"4","last_reported":1692551071,"current_range_meters":14800,"station_id":"ce4bhhh2rcd13ifvqfl0","pricing_plan_id":"free"},{"bike_id":"a18378ba-d9f3-4b4a-bc72-1c5f17d8ea42","system_id":"levelo_inurba_marseille","lat":43.27994,"lon":5.41657,"is_reserved":false,"is_disabled":false,"rental_uris":{"android":"levelo://app?vid=a18378ba-d9f3-4b4a-bc72-1c5f17d8ea42","ios":"levelo://app?vid=a18378ba-d9f3-4b4a-bc72-1c5f17d8ea42"},"vehicle_type_id":"4","last_reported":1692551071,"current_range_meters":31600,"station_id":"ce4bho12rcd13ifvqh1g","pricing_plan_id":"free"},{"bike_id":"6a33d5cc-3a31-4994-b401-9541229188f3","system_id":"levelo_inurba_marseille","lat":43.27996,"lon":5.4166,"is_reserved":false,"is_disabled":false,"rental_uris":{"android":"levelo://app?vid=6a33d5cc-3a31-4994-b401-9541229188f3","ios":"levelo://app?vid=6a33d5cc-3a31-4994-b401-9541229188f3"},"vehicle_type_id":"4","last_reported":1692551071,"current_range_meters":30400,"station_id":"ce4bho12rcd13ifvqh1g","pricing_plan_id":"free"},{"bike_id":"ca9142ba-0698-4048-9e98-203284c4751c","system_id":"levelo_inurba_marseille","lat":43.27985,"lon":5.41659,"is_reserved":false,"is_disabled":false,"rental_uris":{"android":"levelo://app?vid=ca9142ba-0698-4048-9e98-203284c4751c","ios":"levelo://app?vid=ca9142ba-0698-4048-9e98-203284c4751c"},"vehicle_type_id":"4","last_reported":1692551071,"current_range_meters":30400,"station_id":"ce4bho12rcd13ifvqh1g","pricing_plan_id":"free"},{"bike_id":"2852c3c5-b623-4b82-aecd-c382d3565a19","system_id":"levelo_inurba_marseille","lat":43.26786,"lon":5.39409,"is_reserved":false,"is_disabled":false,"rental_uris":{"android":"levelo://app?vid=2852c3c5-b623-4b82-aecd-c382d3565a19","ios":"levelo://app?vid=2852c3c5-b623-4b82-aecd-c382d3565a19"},"vehicle_type_id":"4","last_reported":1692551071,"current_range_meters":8400,"station_id":"ce4bhh12rcd13ifvqfg0","pricing_plan_id":"free"},{"bike_id":"a36bf628-121a-4728-823b-e3a1418cc771","system_id":"levelo_inurba_marseille","lat":43.26785,"lon":5.39414,"is_reserved":false,"is_disabled":false,"rental_uris":{"android":"levelo://app?vid=a36bf628-121a-4728-823b-e3a1418cc771","ios":"levelo://app?vid=a36bf628-121a-4728-823b-e3a1418cc771"},"vehicle_type_id":"4","last_reported":1692551071,"current_range_meters":10400,"station_id":"","pricing_plan_id":"free"},{"bike_id":"180c9060-06e2-429d-999a-39a6ce9d0e22","system_id":"levelo_inurba_marseille","lat":43.30803,"lon":5.43534,"is_reserved":false,"is_disabled":false,"rental_uris":{"android":"levelo://app?vid=180c9060-06e2-429d-999a-39a6ce9d0e22","ios":"levelo://app?vid=180c9060-06e2-429d-999a-39a6ce9d0e22"},"vehicle_type_id":"4","last_reported":1692551071,"current_range_meters":28400,"station_id":"ce4bhph2rcd13ifvqheg","pricing_plan_id":"free"},{"bike_id":"a6fb1494-d1f4-4499-970a-e7cf6efc1ed4","system_id":"levelo_inurba_marseille","lat":43.26941,"lon":5.40249,"is_reserved":false,"is_disabled":false,"rental_uris":{"android":"levelo://app?vid=a6fb1494-d1f4-4499-970a-e7cf6efc1ed4","ios":"levelo://app?vid=a6fb1494-d1f4-4499-970a-e7cf6efc1ed4"},"vehicle_type_id":"4","last_reported":1692551071,"current_range_meters":27200,"station_id":"","pricing_plan_id":"free"},{"bike_id":"472ce779-feae-4e93-b38e-1b39ab514dfe","system_id":"levelo_inurba_marseille","lat":43.26938,"lon":5.40262,"is_reserved":false,"is_disabled":false,"rental_uris":{"android":"levelo://app?vid=472ce779-feae-4e93-b38e-1b39ab514dfe","ios":"levelo://app?vid=472ce779-feae-4e93-b38e-1b39ab514dfe"},"vehicle_type_id":"4","last_reported":1692551071,"current_range_meters":12400,"station_id":"","pricing_plan_id":"free"},{"bike_id":"8922674b-70b6-4c9b-a88c-f3e281ba6175","system_id":"levelo_inurba_marseille","lat":43.2619,"lon":5.37444,"is_reserved":false,"is_disabled":false,"rental_uris":{"android":"levelo://app?vid=8922674b-70b6-4c9b-a88c-f3e281ba6175","ios":"levelo://app?vid=8922674b-70b6-4c9b-a88c-f3e281ba6175"},"vehicle_type_id":"4","last_reported":1692551071,"current_range_meters":31200,"station_id":"ce4bhgp2rcd13ifvqfc0","pricing_plan_id":"free"},{"bike_id":"6d7bc55b-f965-4425-b1bf-95a94e846347","system_id":"levelo_inurba_marseille","lat":43.26189,"lon":5.37442,"is_reserved":false,"is_disabled":false,"rental_uris":{"android":"levelo://app?vid=6d7bc55b-f965-4425-b1bf-95a94e846347","ios":"levelo://app?vid=6d7bc55b-f965-4425-b1bf-95a94e846347"},"vehicle_type_id":"4","last_reported":1692551071,"current_range_meters":23200,"station_id":"ce4bhgp2rcd13ifvqfc0","pricing_plan_id":"free"},{"bike_id":"1db34f98-02d4-4b1b-b677-c5b95e32a81a","system_id":"levelo_inurba_marseille","lat":43.26189,"lon":5.37446,"is_reserved":false,"is_disabled":false,"rental_uris":{"android":"levelo://app?vid=1db34f98-02d4-4b1b-b677-c5b95e32a81a","ios":"levelo://app?vid=1db34f98-02d4-4b1b-b677-c5b95e32a81a"},"vehicle_type_id":"4","last_reported":1692551071,"current_range_meters":30800,"station_id":"ce4bhgp2rcd13ifvqfc0","pricing_plan_id":"free"},{"bike_id":"3982f9b5-03c9-400a-950a-487b3d16c5a0","system_id":"levelo_inurba_marseille","lat":43.26186,"lon":5.37433,"is_reserved":false,"is_disabled":false,"rental_uris":{"android":"levelo://app?vid=3982f9b5-03c9-400a-950a-487b3d16c5a0","ios":"levelo://app?vid=3982f9b5-03c9-400a-950a-487b3d16c5a0"},"vehicle_type_id":"4","last_reported":1692551071,"current_range_meters":21200,"station_id":"ce4bhgp2rcd13ifvqfc0","pricing_plan_id":"free"},{"bike_id":"49eda2d2-5e86-4999-9573-f7170935082e","system_id":"levelo_inurba_marseille","lat":43.26187,"lon":5.37446,"is_reserved":false,"is_disabled":false,"rental_uris":{"android":"levelo://app?vid=49eda2d2-5e86-4999-9573-f7170935082e","ios":"levelo://app?vid=49eda2d2-5e86-4999-9573-f7170935082e"},"vehicle_type_id":"4","last_reported":1692551071,"current_range_meters":20000,"station_id":"ce4bhgp2rcd13ifvqfc0","pricing_plan_id":"free"},{"bike_id":"6fc566f3-0907-4973-8be9-cf550c50bdb9","system_id":"levelo_inurba_marseille","lat":43.26187,"lon":5.37452,"is_reserved":false,"is_disabled":false,"rental_uris":{"android":"levelo://app?vid=6fc566f3-0907-4973-8be9-cf550c50bdb9","ios":"levelo://app?vid=6fc566f3-0907-4973-8be9-cf550c50bdb9"},"vehicle_type_id":"4","last_reported":1692551071,"current_range_meters":19200,"station_id":"ce4bhgp2rcd13ifvqfc0","pricing_plan_id":"free"},{"bike_id":"b0b6b56f-0784-48ae-b176-83a3da4fc041","system_id":"levelo_inurba_marseille","lat":43.261861,"lon":5.374431,"is_reserved":false,"is_disabled":false,"rental_uris":{"android":"levelo://app?vid=b0b6b56f-0784-48ae-b176-83a3da4fc041","ios":"levelo://app?vid=b0b6b56f-0784-48ae-b176-83a3da4fc041"},"vehicle_type_id":"4","last_reported":1692551071,"current_range_meters":26800,"station_id":"ce4bhgp2rcd13ifvqfc0","pricing_plan_id":"free"},{"bike_id":"d8df8e8f-3a6d-4c57-9025-c9bc0e814b75","system_id":"levelo_inurba_marseille","lat":43.26184,"lon":5.37437,"is_reserved":false,"is_disabled":false,"rental_uris":{"android":"levelo://app?vid=d8df8e8f-3a6d-4c57-9025-c9bc0e814b75","ios":"levelo://app?vid=d8df8e8f-3a6d-4c57-9025-c9bc0e814b75"},"vehicle_type_id":"4","last_reported":1692551071,"current_range_meters":16800,"station_id":"ce4bhgp2rcd13ifvqfc0","pricing_plan_id":"free"},{"bike_id":"3604e35d-17ee-4291-9246-9f0965bcee64","system_id":"levelo_inurba_marseille","lat":43.26184,"lon":5.37445,"is_reserved":false,"is_disabled":false,"rental_uris":{"android":"levelo://app?vid=3604e35d-17ee-4291-9246-9f0965bcee64","ios":"levelo://app?vid=3604e35d-17ee-4291-9246-9f0965bcee64"},"vehicle_type_id":"4","last_reported":1692551071,"current_range_meters":400,"station_id":"ce4bhgp2rcd13ifvqfc0","pricing_plan_id":"free"},{"bike_id":"3bd5c171-4b04-43bb-8789-8a95cd1af2c0","system_id":"levelo_inurba_marseille","lat":43.271388,"lon":5.409269,"is_reserved":false,"is_disabled":false,"rental_uris":{"android":"levelo://app?vid=3bd5c171-4b04-43bb-8789-8a95cd1af2c0","ios":"levelo://app?vid=3bd5c171-4b04-43bb-8789-8a95cd1af2c0"},"vehicle_type_id":"4","last_reported":1692551071,"current_range_meters":31200,"station_id":"ce4bhl12rcd13ifvqgf0","pricing_plan_id":"free"},{"bike_id":"260bb6fb-7701-4750-8697-a48b7687361f","system_id":"levelo_inurba_marseille","lat":43.271368,"lon":5.40928,"is_reserved":false,"is_disabled":false,"rental_uris":{"android":"levelo://app?vid=260bb6fb-7701-4750-8697-a48b7687361f","ios":"levelo://app?vid=260bb6fb-7701-4750-8697-a48b7687361f"},"vehicle_type_id":"4","last_reported":1692551071,"current_range_meters":30000,"station_id":"ce4bhl12rcd13ifvqgf0","pricing_plan_id":"free"},{"bike_id":"2662cb93-75a0-47d9-95e9-517c26cc0025","system_id":"levelo_inurba_marseille","lat":43.271368,"lon":5.40928,"is_reserved":false,"is_disabled":false,"rental_uris":{"android":"levelo://app?vid=2662cb93-75a0-47d9-95e9-517c26cc0025","ios":"levelo://app?vid=2662cb93-75a0-47d9-95e9-517c26cc0025"},"vehicle_type_id":"4","last_reported":1692551071,"current_range_meters":17200,"station_id":"ce4bhl12rcd13ifvqgf0","pricing_plan_id":"free"},{"bike_id":"35f5d378-9352-4f9e-9f7f-6cdaa8f9ea47","system_id":"levelo_inurba_marseille","lat":43.267959,"lon":5.402687,"is_reserved":false,"is_disabled":false,"rental_uris":{"android":"levelo://app?vid=35f5d378-9352-4f9e-9f7f-6cdaa8f9ea47","ios":"levelo://app?vid=35f5d378-9352-4f9e-9f7f-6cdaa8f9ea47"},"vehicle_type_id":"4","last_reported":1692551071,"current_range_meters":23600,"station_id":"ce501612rcd8frsf0b60","pricing_plan_id":"free"},{"bike_id":"469be236-111b-4e82-ae4b-211f9dfb0462","system_id":"levelo_inurba_marseille","lat":43.2607,"lon":5.393983,"is_reserved":false,"is_disabled":false,"rental_uris":{"android":"levelo://app?vid=469be236-111b-4e82-ae4b-211f9dfb0462","ios":"levelo://app?vid=469be236-111b-4e82-ae4b-211f9dfb0462"},"vehicle_type_id":"4","last_reported":1692551071,"current_range_meters":14800,"station_id":"ce4bhh92rcd13ifvqfj0","pricing_plan_id":"free"},{"bike_id":"55242c6c-dd9c-4617-b4b6-26077d5f0e1c","system_id":"levelo_inurba_marseille","lat":43.2607,"lon":5.393983,"is_reserved":false,"is_disabled":false,"rental_uris":{"android":"levelo://app?vid=55242c6c-dd9c-4617-b4b6-26077d5f0e1c","ios":"levelo://app?vid=55242c6c-dd9c-4617-b4b6-26077d5f0e1c"},"vehicle_type_id":"4","last_reported":1692551071,"current_range_meters":22400,"station_id":"ce4bhh92rcd13ifvqfj0","pricing_plan_id":"free"},{"bike_id":"3f8b2f5c-ebb2-4ca8-92e6-6007f520cc12","system_id":"levelo_inurba_marseille","lat":43.2607,"lon":5.393983,"is_reserved":false,"is_disabled":false,"rental_uris":{"android":"levelo://app?vid=3f8b2f5c-ebb2-4ca8-92e6-6007f520cc12","ios":"levelo://app?vid=3f8b2f5c-ebb2-4ca8-92e6-6007f520cc12"},"vehicle_type_id":"4","last_reported":1692551071,"current_range_meters":12400,"station_id":"ce4bhh92rcd13ifvqfj0","pricing_plan_id":"free"},{"bike_id":"92e349a5-712c-4502-a7d4-8475a5327150","system_id":"levelo_inurba_marseille","lat":43.2607,"lon":5.393983,"is_reserved":false,"is_disabled":false,"rental_uris":{"android":"levelo://app?vid=92e349a5-712c-4502-a7d4-8475a5327150","ios":"levelo://app?vid=92e349a5-712c-4502-a7d4-8475a5327150"},"vehicle_type_id":"4","last_reported":1692551071,"current_range_meters":4400,"station_id":"ce4bhh92rcd13ifvqfj0","pricing_plan_id":"free"},{"bike_id":"2e85c4f4-3d44-4ce2-bf72-cefcd361dfa8","system_id":"levelo_inurba_marseille","lat":43.26091,"lon":5.3976,"is_reserved":false,"is_disabled":false,"rental_uris":{"android":"levelo://app?vid=2e85c4f4-3d44-4ce2-bf72-cefcd361dfa8","ios":"levelo://app?vid=2e85c4f4-3d44-4ce2-bf72-cefcd361dfa8"},"vehicle_type_id":"4","last_reported":1692551071,"current_range_meters":20400,"station_id":"ce4bhi12rcd13ifvqfq0","pricing_plan_id":"free"},{"bike_id":"7df20c00-5988-49db-b363-ba63a84f7d1c","system_id":"levelo_inurba_marseille","lat":43.2609,"lon":5.39763,"is_reserved":false,"is_disabled":false,"rental_uris":{"android":"levelo://app?vid=7df20c00-5988-49db-b363-ba63a84f7d1c","ios":"levelo://app?vid=7df20c00-5988-49db-b363-ba63a84f7d1c"},"vehicle_type_id":"4","last_reported":1692551071,"current_range_meters":6400,"station_id":"ce4bhi12rcd13ifvqfq0","pricing_plan_id":"free"},{"bike_id":"833cf15a-9860-4c88-bc0c-df8744d811d7","system_id":"levelo_inurba_marseille","lat":43.25532,"lon":5.37657,"is_reserved":false,"is_disabled":false,"rental_uris":{"android":"levelo://app?vid=833cf15a-9860-4c88-bc0c-df8744d811d7","ios":"levelo://app?vid=833cf15a-9860-4c88-bc0c-df8744d811d7"},"vehicle_type_id":"4","last_reported":1692551071,"current_range_meters":9600,"station_id":"ce4bhh12rcd13ifvqff0","pricing_plan_id":"free"},{"bike_id":"ee88a9e9-4456-4025-9d28-ddd8df65981c","system_id":"levelo_inurba_marseille","lat":43.25971,"lon":5.39872,"is_reserved":false,"is_disabled":false,"rental_uris":{"android":"levelo://app?vid=ee88a9e9-4456-4025-9d28-ddd8df65981c","ios":"levelo://app?vid=ee88a9e9-4456-4025-9d28-ddd8df65981c"},"vehicle_type_id":"4","last_reported":1692551071,"current_range_meters":24000,"station_id":"","pricing_plan_id":"free"},{"bike_id":"5c4d5382-5b63-4898-b06a-846daf60dcce","system_id":"levelo_inurba_marseille","lat":43.25583,"lon":5.38239,"is_reserved":false,"is_disabled":false,"rental_uris":{"android":"levelo://app?vid=5c4d5382-5b63-4898-b06a-846daf60dcce","ios":"levelo://app?vid=5c4d5382-5b63-4898-b06a-846daf60dcce"},"vehicle_type_id":"4","last_reported":1692551071,"current_range_meters":18800,"station_id":"ce4bhih2rcd13ifvqfs0","pricing_plan_id":"free"},{"bike_id":"75846553-70fd-4b39-ac89-e0c89e2bfa11","system_id":"levelo_inurba_marseille","lat":43.2558,"lon":5.38222,"is_reserved":false,"is_disabled":false,"rental_uris":{"android":"levelo://app?vid=75846553-70fd-4b39-ac89-e0c89e2bfa11","ios":"levelo://app?vid=75846553-70fd-4b39-ac89-e0c89e2bfa11"},"vehicle_type_id":"4","last_reported":1692551071,"current_range_meters":8000,"station_id":"ce4bhih2rcd13ifvqfs0","pricing_plan_id":"free"},{"bike_id":"1bf00c9d-428c-4646-9000-38ce09be62f6","system_id":"levelo_inurba_marseille","lat":43.25581,"lon":5.38232,"is_reserved":false,"is_disabled":false,"rental_uris":{"android":"levelo://app?vid=1bf00c9d-428c-4646-9000-38ce09be62f6","ios":"levelo://app?vid=1bf00c9d-428c-4646-9000-38ce09be62f6"},"vehicle_type_id":"4","last_reported":1692551071,"current_range_meters":12400,"station_id":"ce4bhih2rcd13ifvqfs0","pricing_plan_id":"free"},{"bike_id":"7482c9dc-d40a-4658-a09f-de9d48adae3e","system_id":"levelo_inurba_marseille","lat":43.25579,"lon":5.38232,"is_reserved":false,"is_disabled":false,"rental_uris":{"android":"levelo://app?vid=7482c9dc-d40a-4658-a09f-de9d48adae3e","ios":"levelo://app?vid=7482c9dc-d40a-4658-a09f-de9d48adae3e"},"vehicle_type_id":"4","last_reported":1692551071,"current_range_meters":15600,"station_id":"ce4bhih2rcd13ifvqfs0","pricing_plan_id":"free"},{"bike_id":"0db081f7-4c49-45bd-998f-370bf97e4565","system_id":"levelo_inurba_marseille","lat":43.25504,"lon":5.3765,"is_reserved":false,"is_disabled":false,"rental_uris":{"android":"levelo://app?vid=0db081f7-4c49-45bd-998f-370bf97e4565","ios":"levelo://app?vid=0db081f7-4c49-45bd-998f-370bf97e4565"},"vehicle_type_id":"4","last_reported":1692551071,"current_range_meters":19600,"station_id":"ce4bhh12rcd13ifvqff0","pricing_plan_id":"free"},{"bike_id":"4894d095-4d2c-436e-a08e-65760f215806","system_id":"levelo_inurba_marseille","lat":43.25498,"lon":5.37645,"is_reserved":false,"is_disabled":false,"rental_uris":{"android":"levelo://app?vid=4894d095-4d2c-436e-a08e-65760f215806","ios":"levelo://app?vid=4894d095-4d2c-436e-a08e-65760f215806"},"vehicle_type_id":"4","last_reported":1692551071,"current_range_meters":31200,"station_id":"ce4bhh12rcd13ifvqff0","pricing_plan_id":"free"},{"bike_id":"e72878f2-5f08-4d1a-a982-74f8b61ed818","system_id":"levelo_inurba_marseille","lat":43.254947,"lon":5.376454,"is_reserved":false,"is_disabled":false,"rental_uris":{"android":"levelo://app?vid=e72878f2-5f08-4d1a-a982-74f8b61ed818","ios":"levelo://app?vid=e72878f2-5f08-4d1a-a982-74f8b61ed818"},"vehicle_type_id":"4","last_reported":1692551071,"current_range_meters":31600,"station_id":"ce4bhh12rcd13ifvqff0","pricing_plan_id":"free"},{"bike_id":"b331982b-5b0f-4583-9a5b-c12296c91260","system_id":"levelo_inurba_marseille","lat":43.25494,"lon":5.37648,"is_reserved":false,"is_disabled":false,"rental_uris":{"android":"levelo://app?vid=b331982b-5b0f-4583-9a5b-c12296c91260","ios":"levelo://app?vid=b331982b-5b0f-4583-9a5b-c12296c91260"},"vehicle_type_id":"4","last_reported":1692551071,"current_range_meters":30800,"station_id":"ce4bhh12rcd13ifvqff0","pricing_plan_id":"free"},{"bike_id":"b09bec50-1956-483e-b163-14704df0a626","system_id":"levelo_inurba_marseille","lat":43.25492,"lon":5.37645,"is_reserved":false,"is_disabled":false,"rental_uris":{"android":"levelo://app?vid=b09bec50-1956-483e-b163-14704df0a626","ios":"levelo://app?vid=b09bec50-1956-483e-b163-14704df0a626"},"vehicle_type_id":"4","last_reported":1692551071,"current_range_meters":12800,"station_id":"ce4bhh12rcd13ifvqff0","pricing_plan_id":"free"},{"bike_id":"2dc35bba-5bd8-4153-9925-a6f786a23a97","system_id":"levelo_inurba_marseille","lat":43.25492,"lon":5.37647,"is_reserved":false,"is_disabled":false,"rental_uris":{"android":"levelo://app?vid=2dc35bba-5bd8-4153-9925-a6f786a23a97","ios":"levelo://app?vid=2dc35bba-5bd8-4153-9925-a6f786a23a97"},"vehicle_type_id":"4","last_reported":1692551071,"current_range_meters":31200,"station_id":"ce4bhh12rcd13ifvqff0","pricing_plan_id":"free"},{"bike_id":"97d5265a-d739-4211-bc3a-608334633695","system_id":"levelo_inurba_marseille","lat":43.2549,"lon":5.37647,"is_reserved":false,"is_disabled":false,"rental_uris":{"android":"levelo://app?vid=97d5265a-d739-4211-bc3a-608334633695","ios":"levelo://app?vid=97d5265a-d739-4211-bc3a-608334633695"},"vehicle_type_id":"4","last_reported":1692551071,"current_range_meters":21200,"station_id":"ce4bhh12rcd13ifvqff0","pricing_plan_id":"free"},{"bike_id":"fe155ee5-9e23-4df0-92aa-aa1690778706","system_id":"levelo_inurba_marseille","lat":43.25484,"lon":5.37642,"is_reserved":false,"is_disabled":false,"rental_uris":{"android":"levelo://app?vid=fe155ee5-9e23-4df0-92aa-aa1690778706","ios":"levelo://app?vid=fe155ee5-9e23-4df0-92aa-aa1690778706"},"vehicle_type_id":"4","last_reported":1692551071,"current_range_meters":25600,"station_id":"ce4bhh12rcd13ifvqff0","pricing_plan_id":"free"},{"bike_id":"a95bef7a-3573-4665-974b-1a5a65799688","system_id":"levelo_inurba_marseille","lat":43.258658,"lon":5.398935,"is_reserved":false,"is_disabled":false,"rental_uris":{"android":"levelo://app?vid=a95bef7a-3573-4665-974b-1a5a65799688","ios":"levelo://app?vid=a95bef7a-3573-4665-974b-1a5a65799688"},"vehicle_type_id":"4","last_reported":1692551071,"current_range_meters":12000,"station_id":"ce4bhl92rcd13ifvqghg","pricing_plan_id":"free"},{"bike_id":"12ddcfc3-4ad3-4478-839f-6367c5cdfcd2","system_id":"levelo_inurba_marseille","lat":43.259009,"lon":5.40929,"is_reserved":false,"is_disabled":false,"rental_uris":{"android":"levelo://app?vid=12ddcfc3-4ad3-4478-839f-6367c5cdfcd2","ios":"levelo://app?vid=12ddcfc3-4ad3-4478-839f-6367c5cdfcd2"},"vehicle_type_id":"4","last_reported":1692551071,"current_range_meters":31200,"station_id":"ce4bhm92rcd13ifvqglg","pricing_plan_id":"free"},{"bike_id":"c0096181-1e3b-4bc8-abd3-6736b5a372f6","system_id":"levelo_inurba_marseille","lat":43.25939,"lon":5.40905,"is_reserved":false,"is_disabled":false,"rental_uris":{"android":"levelo://app?vid=c0096181-1e3b-4bc8-abd3-6736b5a372f6","ios":"levelo://app?vid=c0096181-1e3b-4bc8-abd3-6736b5a372f6"},"vehicle_type_id":"4","last_reported":1692551071,"current_range_meters":26400,"station_id":"ce4bhm92rcd13ifvqglg","pricing_plan_id":"free"},{"bike_id":"7eb04e86-07fb-4c2f-bc65-a4fdfa52c8aa","system_id":"levelo_inurba_marseille","lat":43.25937,"lon":5.40905,"is_reserved":false,"is_disabled":false,"rental_uris":{"android":"levelo://app?vid=7eb04e86-07fb-4c2f-bc65-a4fdfa52c8aa","ios":"levelo://app?vid=7eb04e86-07fb-4c2f-bc65-a4fdfa52c8aa"},"vehicle_type_id":"4","last_reported":1692551071,"current_range_meters":8800,"station_id":"ce4bhm92rcd13ifvqglg","pricing_plan_id":"free"},{"bike_id":"7b8d6560-8854-4384-b19f-1050e1853115","system_id":"levelo_inurba_marseille","lat":43.25934,"lon":5.40901,"is_reserved":false,"is_disabled":false,"rental_uris":{"android":"levelo://app?vid=7b8d6560-8854-4384-b19f-1050e1853115","ios":"levelo://app?vid=7b8d6560-8854-4384-b19f-1050e1853115"},"vehicle_type_id":"4","last_reported":1692551071,"current_range_meters":30000,"station_id":"ce4bhm92rcd13ifvqglg","pricing_plan_id":"free"},{"bike_id":"896d4a38-bfef-4e35-8950-182438e29ce4","system_id":"levelo_inurba_marseille","lat":43.25933,"lon":5.40914,"is_reserved":false,"is_disabled":false,"rental_uris":{"android":"levelo://app?vid=896d4a38-bfef-4e35-8950-182438e29ce4","ios":"levelo://app?vid=896d4a38-bfef-4e35-8950-182438e29ce4"},"vehicle_type_id":"4","last_reported":1692551071,"current_range_meters":30400,"station_id":"ce4bhm92rcd13ifvqglg","pricing_plan_id":"free"},{"bike_id":"3d71ba78-5d0d-4fb9-9420-48bab8bf9cb5","system_id":"levelo_inurba_marseille","lat":43.250023,"lon":5.38919,"is_reserved":false,"is_disabled":false,"rental_uris":{"android":"levelo://app?vid=3d71ba78-5d0d-4fb9-9420-48bab8bf9cb5","ios":"levelo://app?vid=3d71ba78-5d0d-4fb9-9420-48bab8bf9cb5"},"vehicle_type_id":"4","last_reported":1692551071,"current_range_meters":0,"station_id":"ce4bhgp2rcd13ifvqfd0","pricing_plan_id":"free"},{"bike_id":"1b74835c-1a15-417e-8cfd-ab4e9b132818","system_id":"levelo_inurba_marseille","lat":43.250023,"lon":5.38919,"is_reserved":false,"is_disabled":false,"rental_uris":{"android":"levelo://app?vid=1b74835c-1a15-417e-8cfd-ab4e9b132818","ios":"levelo://app?vid=1b74835c-1a15-417e-8cfd-ab4e9b132818"},"vehicle_type_id":"4","last_reported":1692551071,"current_range_meters":17600,"station_id":"ce4bhgp2rcd13ifvqfd0","pricing_plan_id":"free"},{"bike_id":"bf121a98-f962-48f4-aba4-4e0771182852","system_id":"levelo_inurba_marseille","lat":43.250023,"lon":5.38919,"is_reserved":false,"is_disabled":false,"rental_uris":{"android":"levelo://app?vid=bf121a98-f962-48f4-aba4-4e0771182852","ios":"levelo://app?vid=bf121a98-f962-48f4-aba4-4e0771182852"},"vehicle_type_id":"4","last_reported":1692551071,"current_range_meters":26400,"station_id":"ce4bhgp2rcd13ifvqfd0","pricing_plan_id":"free"},