{"last_updated":1691510880,"ttl":30,"version":"2.2","data":{"bikes":[{"bike_id":"851899c0-d86d-4517-9b01-44dcf138296c","system_id":"levelo_inurba_marseille","lat":43.313484,"lon":5.36713,"is_reserved":false,"is_disabled":false,"rental_uris":{"android":"levelo://app?vid=851899c0-d86d-4517-9b01-44dcf138296c","ios":"levelo://app?vid=851899c0-d86d-4517-9b01-44dcf138296c"},"vehicle_type_id":"4","last_reported":1691510880,"current_range_meters":3600,"station_id":"ce4bgr92rcd13ifvqc6g","pricing_plan_id":"free"},{"bike_id":"18eacd4e-7b4e-48df-bd19-3431244d774b","system_id":"levelo_inurba_marseille","lat":43.31484,"lon":5.37311,"is_reserved":false,"is_disabled":false,"rental_uris":{"android":"levelo://app?vid=18eacd4e-7b4e-48df-bd19-3431244d774b","ios":"levelo://app?vid=18eacd4e-7b4e-48df-bd19-3431244d774b"},"vehicle_type_id":"4","last_reported":1691510880,"current_range_meters":26000,"station_id":"ce4bgt12rcd13ifvqcd0","pricing_plan_id":"free"},{"bike_id":"72728096-f044-430f-abb9-5ce407b18492","system_id":"levelo_inurba_marseille","lat":43.305714,"lon":5.365633,"is_reserved":false,"is_disabled":false,"rental_uris":{"android":"levelo://app?vid=72728096-f044-430f-abb9-5ce407b18492","ios":"levelo://app?vid=72728096-f044-430f-abb9-5ce407b18492"},"vehicle_type_id":"4","last_reported":1691510880,"current_range_meters":17600,"station_id":"ce4bgs12rcd13ifvqcag","pricing_plan_id":"free"},{"bike_id":"b4ef00f6-27a3-4714-8402-7f28694be9be","system_id":"levelo_inurba_marseille","lat":43.305714,"lon":5.365633,"is_reserved":false,"is_disabled":false,"rental_uris":{"android":"levelo://app?vid=b4ef00f6-27a3-4714-8402-7f28694be9be","ios":"levelo://app?vid=b4ef00f6-27a3-4714-8402-7f28694be9be"},"vehicle_type_id":"4","last_reported":1691510880,"current_range_meters":0,"station_id":"ce4bgs12rcd13ifvqcag","pricing_plan_id":"free"},{"bike_id":"2487a62a-0011-45d8-9d8c-dc0c3aa20292","system_id":"levelo_inurba_marseille","lat":43.311125,"lon":5.377624,"is_reserved":false,"is_disabled":false,"rental_uris":{"android":"levelo://app?vid=2487a62a-0011-45d8-9d8c-dc0c3aa20292","ios":"levelo://app?vid=2487a62a-0011-45d8-9d8c-dc0c3aa20292"},"vehicle_type_id":"4","last_reported":1691510880,"current_range_meters":11200,"station_id":"ce4bgt92rcd13ifvqcg0","pricing_plan_id":"free"},{"bike_id":"3552d6eb-daa4-42f5-884a-b7c9c38351e9","system_id":"levelo_inurba_marseille","lat":43.3078,"lon":5.37654,"is_reserved":false,"is_disabled":false,"rental_uris":{"android":"levelo://app?vid=3552d6eb-daa4-42f5-884a-b7c9c38351e9","ios":"levelo://app?vid=3552d6eb-daa4-42f5-884a-b7c9c38351e9"},"vehicle_type_id":"4","last_reported":1691510880,"current_range_meters":6000,"station_id":"ce4bgv92rcd13ifvqcq0","pricing_plan_id":"free"},{"bike_id":"b7cf9b86-ece8-457c-bca9-9312bc34fedc","system_id":"levelo_inurba_marseille","lat":43.317075,"lon":5.377367,"is_reserved":false,"is_disabled":false,"rental_uris":{"android":"levelo://app?vid=b7cf9b86-ece8-457c-bca9-9312bc34fedc","ios":"levelo://app?vid=b7cf9b86-ece8-457c-bca9-9312bc34fedc"},"vehicle_type_id":"4","last_reported":1691510880,"current_range_meters":30400,"station_id":"ce4bgth2rcd13ifvqch0","pricing_plan_id":"free"},{"bike_id":"72a3c5e5-9aa0-47e7-8f3a-bc6cb35b76f5","system_id":"levelo_inurba_marseille","lat":43.313571,"lon":5.384829,"is_reserved":false,"is_disabled":false,"rental_uris":{"android":"levelo://app?vid=72a3c5e5-9aa0-47e7-8f3a-bc6cb35b76f5","ios":"levelo://app?vid=72a3c5e5-9aa0-47e7-8f3a-bc6cb35b76f5"},"vehicle_type_id":"4","last_reported":1691510880,"current_range_meters":22400,"station_id":"ce4bgt92rcd13ifvqcf0","pricing_plan_id":"free"},{"bike_id":"d10c5593-70d9-4742-a544-7812c2e7a79b","system_id":"levelo_inurba_marseille","lat":43.313571,"lon":5.384829,"is_reserved":false,"is_disabled":false,"rental_uris":{"android":"levelo://app?vid=d10c5593-70d9-4742-a544-7812c2e7a79b","ios":"levelo://app?vid=d10c5593-70d9-4742-a544-7812c2e7a79b"},"vehicle_type_id":"4","last_reported":1691510880,"current_range_meters":13600,"station_id":"ce4bgt92rcd13ifvqcf0","pricing_plan_id":"free"},{"bike_id":"357d8f01-50e6-4003-88ca-dd125d40ce67","system_id":"levelo_inurba_marseille","lat":43.313571,"lon":5.384829,"is_reserved":false,"is_disabled":false,"rental_uris":{"android":"levelo://app?vid=357d8f01-50e6-4003-88ca-dd125d40ce67","ios":"levelo://app?vid=357d8f01-50e6-4003-88ca-dd125d40ce67"},"vehicle_type_id":"4","last_reported":1691510880,"current_range_meters":12800,"station_id":"ce4bgt92rcd13ifvqcf0","pricing_plan_id":"free"},{"bike_id":"15b2f289-e8da-4c30-a721-2cf15799ace1","system_id":"levelo_inurba_marseille","lat":43.31983,"lon":5.38268,"is_reserved":false,"is_disabled":false,"rental_uris":{"android":"levelo://app?vid=15b2f289-e8da-4c30-a721-2cf15799ace1","ios":"levelo://app?vid=15b2f289-e8da-4c30-a721-2cf15799ace1"},"vehicle_type_id":"4","last_reported":1691510880,"current_range_meters":9200,"station_id":"","pricing_plan_id":"free"},{"bike_id":"b6a6db14-19b4-467d-8d7c-ffb78901ba12","system_id":"levelo_inurba_marseille","lat":43.305364,"lon":5.384119,"is_reserved":false,"is_disabled":false,"rental_uris":{"android":"levelo://app?vid=b6a6db14-19b4-467d-8d7c-ffb78901ba12","ios":"levelo://app?vid=b6a6db14-19b4-467d-8d7c-ffb78901ba12"},"vehicle_type_id":"4","last_reported":1691510880,"current_range_meters":0,"station_id":"ce4bgg92rcd13ifvqb30","pricing_plan_id":"free"},{"bike_id":"30537d43-af02-4a10-b928-7b9b8cf633d2","system_id":"levelo_inurba_marseille","lat":43.305265,"lon":5.384239,"is_reserved":false,"is_disabled":false,"rental_uris":{"android":"levelo://app?vid=30537d43-af02-4a10-b928-7b9b8cf633d2","ios":"levelo://app?vid=30537d43-af02-4a10-b928-7b9b8cf633d2"},"vehicle_type_id":"4","last_reported":1691510880,"current_range_meters":23200,"station_id":"ce4bgg92rcd13ifvqb30","pricing_plan_id":"free"},{"bike_id":"55fec392-b766-466e-8bac-313572a6daf1","system_id":"levelo_inurba_marseille","lat":43.311722,"lon":5.387247,"is_reserved":false,"is_disabled":false,"rental_uris":{"android":"levelo://app?vid=55fec392-b766-466e-8bac-313572a6daf1","ios":"levelo://app?vid=55fec392-b766-466e-8bac-313572a6daf1"},"vehicle_type_id":"4","last_reported":1691510880,"current_range_meters":0,"station_id":"ce4bgv12rcd13ifvqcp0","pricing_plan_id":"free"},{"bike_id":"d12648ec-f600-48f0-ae81-5b252eb50079","system_id":"levelo_inurba_marseille","lat":43.298433,"lon":5.362774,"is_reserved":false,"is_disabled":false,"rental_uris":{"android":"levelo://app?vid=d12648ec-f600-48f0-ae81-5b252eb50079","ios":"levelo://app?vid=d12648ec-f600-48f0-ae81-5b252eb50079"},"vehicle_type_id":"4","last_reported":1691510880,"current_range_meters":27600,"station_id":"ce4bgpp2rcd13ifvqc3g","pricing_plan_id":"free"},{"bike_id":"3a574de3-b31f-4b53-9fcf-1545808be757","system_id":"levelo_inurba_marseille","lat":43.32283,"lon":5.38263,"is_reserved":false,"is_disabled":false,"rental_uris":{"android":"levelo://app?vid=3a574de3-b31f-4b53-9fcf-1545808be757","ios":"levelo://app?vid=3a574de3-b31f-4b53-9fcf-1545808be757"},"vehicle_type_id":"4","last_reported":1691510880,"current_range_meters":30400,"station_id":"ce4bhr12rcd13ifvqhqg","pricing_plan_id":"free"},{"bike_id":"af5f0ba3-5944-49d9-8a5e-09dfd05d27f3","system_id":"levelo_inurba_marseille","lat":43.32286,"lon":5.38271,"is_reserved":false,"is_disabled":false,"rental_uris":{"android":"levelo://app?vid=af5f0ba3-5944-49d9-8a5e-09dfd05d27f3","ios":"levelo://app?vid=af5f0ba3-5944-49d9-8a5e-09dfd05d27f3"},"vehicle_type_id":"4","last_reported":1691510880,"current_range_meters":31200,"station_id":"ce4bhr12rcd13ifvqhqg","pricing_plan_id":"free"},{"bike_id":"31fbeef0-3ea6-4181-b554-9ffe87064c33","system_id":"levelo_inurba_marseille","lat":43.32292,"lon":5.38265,"is_reserved":false,"is_disabled":false,"rental_uris":{"android":"levelo://app?vid=31fbeef0-3ea6-4181-b554-9ffe87064c33","ios":"levelo://app?vid=31fbeef0-3ea6-4181-b554-9ffe87064c33"},"vehicle_type_id":"4","last_reported":1691510880,"current_range_meters":31600,"station_id":"ce4bhr12rcd13ifvqhqg","pricing_plan_id":"free"},{"bike_id":"6f6eeb13-8534-45e9-90bb-5ce321a043c4","system_id":"levelo_inurba_marseille","lat":43.328371,"lon":5.366909,"is_reserved":false,"is_disabled":false,"rental_uris":{"android":"levelo://app?vid=6f6eeb13-8534-45e9-90bb-5ce321a043c4","ios":"levelo://app?vid=6f6eeb13-8534-45e9-90bb-5ce321a043c4"},"vehicle_type_id":"4","last_reported":1691510880,"current_range_meters":31200,"station_id":"ce4bhs92rcd13ifvqi0g","pricing_plan_id":"free"},{"bike_id":"3b98f96d-b364-436e-b5b0-5c2a052297a8","system_id":"levelo_inurba_marseille","lat":43.32825,"lon":5.36679,"is_reserved":false,"is_disabled":false,"rental_uris":{"android":"levelo://app?vid=3b98f96d-b364-436e-b5b0-5c2a052297a8","ios":"levelo://app?vid=3b98f96d-b364-436e-b5b0-5c2a052297a8"},"vehicle_type_id":"4","last_reported":1691510880,"current_range_meters":28000,"station_id":"ce4bhs92rcd13ifvqi0g","pricing_plan_id":"free"},{"bike_id":"d0f4a6b1-501b-4fbd-9cf4-fa9799dc7772","system_id":"levelo_inurba_marseille","lat":43.32827,"lon":5.3668,"is_reserved":false,"is_disabled":false,"rental_uris":{"android":"levelo://app?vid=d0f4a6b1-501b-4fbd-9cf4-fa9799dc7772","ios":"levelo://app?vid=d0f4a6b1-501b-4fbd-9cf4-fa9799dc7772"},"vehicle_type_id":"4","last_reported":1691510880,"current_range_meters":29200,"station_id":"ce4bhs92rcd13ifvqi0g","pricing_plan_id":"free"},{"bike_id":"fb1f4388-8696-456a-869b-56761e505eee","system_id":"levelo_inurba_marseille","lat":43.32828,"lon":5.36687,"is_reserved":false,"is_disabled":false,"rental_uris":{"android":"levelo://app?vid=fb1f4388-8696-456a-869b-56761e505eee","ios":"levelo://app?vid=fb1f4388-8696-456a-869b-56761e505eee"},"vehicle_type_id":"4","last_reported":1691510880,"current_range_meters":31200,"station_id":"ce4bhs92rcd13ifvqi0g","pricing_plan_id":"free"},{"bike_id":"322c698e-b843-475d-9c37-0d786e0223ed","system_id":"levelo_inurba_marseille","lat":43.3283,"lon":5.36673,"is_reserved":false,"is_disabled":false,"rental_uris":{"android":"levelo://app?vid=322c698e-b843-475d-9c37-0d786e0223ed","ios":"levelo://app?vid=322c698e-b843-475d-9c37-0d786e0223ed"},"vehicle_type_id":"4","last_reported":1691510880,"current_range_meters":26400,"station_id":"ce4bhs92rcd13ifvqi0g","pricing_plan_id":"free"},{"bike_id":"afccaf72-7e42-438a-996b-62b8c3fb2f0d","system_id":"levelo_inurba_marseille","lat":43.32831,"lon":5.36687,"is_reserved":false,"is_disabled":false,"rental_uris":{"android":"levelo://app?vid=afccaf72-7e42-438a-996b-62b8c3fb2f0d","ios":"levelo://app?vid=afccaf72-7e42-438a-996b-62b8c3fb2f0d"},"vehicle_type_id":"4","last_reported":1691510880,"current_range_meters":16000,"station_id":"ce4bhs92rcd13ifvqi0g","pricing_plan_id":"free"},{"bike_id":"5836a1e4-4588-49af-9855-adde616cd7f7","system_id":"levelo_inurba_marseille","lat":43.32832,"lon":5.36679,"is_reserved":false,"is_disabled":false,"rental_uris":{"android":"levelo://app?vid=5836a1e4-4588-49af-9855-adde616cd7f7","ios":"levelo://app?vid=5836a1e4-4588-49af-9855-adde616cd7f7"},"vehicle_type_id":"4","last_reported":1691510880,"current_range_meters":30800,"station_id":"ce4bhs92rcd13ifvqi0g","pricing_plan_id":"free"},{"bike_id":"9fd7bfd1-6f30-484a-93d7-e323269d32c7","system_id":"levelo_inurba_marseille","lat":43.32832,"lon":5.36676,"is_reserved":false,"is_disabled":false,"rental_uris":{"android":"levelo://app?vid=9fd7bfd1-6f30-484a-93d7-e323269d32c7","ios":"levelo://app?vid=9fd7bfd1-6f30-484a-93d7-e323269d32c7"},"vehicle_type_id":"4","last_reported":1691510880,"current_range_meters":20000,"station_id":"ce4bhs92rcd13ifvqi0g","pricing_plan_id":"free"},{"bike_id":"3e656e63-2022-4071-99b5-39e562132b5f","system_id":"levelo_inurba_marseille","lat":43.328371,"lon":5.366909,"is_reserved":false,"is_disabled":false,"rental_uris":{"android":"levelo://app?vid=3e656e63-2022-4071-99b5-39e562132b5f","ios":"levelo://app?vid=3e656e63-2022-4071-99b5-39e562132b5f"},"vehicle_type_id":"4","last_reported":1691510880,"current_range_meters":30400,"station_id":"ce4bhs92rcd13ifvqi0g","pricing_plan_id":"free"},{"bike_id":"97afdb01-5eea-4486-8c30-3859e0392bf5","system_id":"levelo_inurba_marseille","lat":43.32834,"lon":5.36684,"is_reserved":false,"is_disabled":false,"rental_uris":{"android":"levelo://app?vid=97afdb01-5eea-4486-8c30-3859e0392bf5","ios":"levelo://app?vid=97afdb01-5eea-4486-8c30-3859e0392bf5"},"vehicle_type_id":"4","last_reported":1691510880,"current_range_meters":30800,"station_id":"ce4bhs92rcd13ifvqi0g","pricing_plan_id":"free"},{"bike_id":"58489d67-2dc5-4b0c-905d-a7387fee115b","system_id":"levelo_inurba_marseille","lat":43.32834,"lon":5.36675,"is_reserved":false,"is_disabled":false,"rental_uris":{"android":"levelo://app?vid=58489d67-2dc5-4b0c-905d-a7387fee115b","ios":"levelo://app?vid=58489d67-2dc5-4b0c-905d-a7387fee115b"},"vehicle_type_id":"4","last_reported":1691510880,"current_range_meters":31200,"station_id":"ce4bhs92rcd13ifvqi0g","pricing_plan_id":"free"},{"bike_id":"d09a06cb-e739-4cc2-b782-172e42b04f04","system_id":"levelo_inurba_marseille","lat":43.32836,"lon":5.36692,"is_reserved":false,"is_disabled":false,"rental_uris":{"android":"levelo://app?vid=d09a06cb-e739-4cc2-b782-172e42b04f04","ios":"levelo://app?vid=d09a06cb-e739-4cc2-b782-172e42b04f04"},"vehicle_type_id":"4","last_reported":1691510880,"current_range_meters":26000,"station_id":"ce4bhs92rcd13ifvqi0g","pricing_plan_id":"free"},{"bike_id":"5bd56e24-fbdd-4943-aca6-a3dce4991838","system_id":"levelo_inurba_marseille","lat":43.328371,"lon":5.366909,"is_reserved":false,"is_disabled":false,"rental_uris":{"android":"levelo://app?vid=5bd56e24-fbdd-4943-aca6-a3dce4991838","ios":"levelo://app?vid=5bd56e24-fbdd-4943-aca6-a3dce4991838"},"vehicle_type_id":"4","last_reported":1691510880,"current_range_meters":30400,"station_id":"ce4bhs92rcd13ifvqi0g","pricing_plan_id":"free"},{"bike_id":"dd789220-e7b5-42c1-b9dc-dc4243148021","system_id":"levelo_inurba_marseille","lat":43.2971,"lon":5.3661,"is_reserved":false,"is_disabled":false,"rental_uris":{"android":"levelo://app?vid=dd789220-e7b5-42c1-b9dc-dc4243148021","ios":"levelo://app?vid=dd789220-e7b5-42c1-b9dc-dc4243148021"},"vehicle_type_id":"4","last_reported":1691510880,"current_range_meters":29600,"station_id":"ce4bgn12rcd13ifvqbt0","pricing_plan_id":"free"},{"bike_id":"0fc4b65f-0633-4916-82c0-3482f1ba5094","system_id":"levelo_inurba_marseille","lat":43.29573,"lon":5.367355,"is_reserved":false,"is_disabled":false,"rental_uris":{"android":"levelo://app?vid=0fc4b65f-0633-4916-82c0-3482f1ba5094","ios":"levelo://app?vid=0fc4b65f-0633-4916-82c0-3482f1ba5094"},"vehicle_type_id":"4","last_reported":1691510880,"current_range_meters":6000,"station_id":"ce4bgph2rcd13ifvqc2g","pricing_plan_id":"free"},{"bike_id":"257bd036-1844-40cd-8151-00bfb3e1b2f2","system_id":"levelo_inurba_marseille","lat":43.29573,"lon":5.367355,"is_reserved":false,"is_disabled":false,"rental_uris":{"android":"levelo://app?vid=257bd036-1844-40cd-8151-00bfb3e1b2f2","ios":"levelo://app?vid=257bd036-1844-40cd-8151-00bfb3e1b2f2"},"vehicle_type_id":"4","last_reported":1691510880,"current_range_meters":0,"station_id":"ce4bgph2rcd13ifvqc2g","pricing_plan_id":"free"},{"bike_id":"e0e12f96-93fb-4f63-8a0a-2b10608b741a","system_id":"levelo_inurba_marseille","lat":43.317557,"lon":5.390173,"is_reserved":false,"is_disabled":false,"rental_uris":{"android":"levelo://app?vid=e0e12f96-93fb-4f63-8a0a-2b10608b741a","ios":"levelo://app?vid=e0e12f96-93fb-4f63-8a0a-2b10608b741a"},"vehicle_type_id":"4","last_reported":1691510880,"current_range_meters":26000,"station_id":"ce4bhqp2rcd13ifvqhng","pricing_plan_id":"free"},{"bike_id":"6d5c1006-be24-4dfd-ac12-e1b6e7d0b82c","system_id":"levelo_inurba_marseille","lat":43.317557,"lon":5.390173,"is_reserved":false,"is_disabled":false,"rental_uris":{"android":"levelo://app?vid=6d5c1006-be24-4dfd-ac12-e1b6e7d0b82c","ios":"levelo://app?vid=6d5c1006-be24-4dfd-ac12-e1b6e7d0b82c"},"vehicle_type_id":"4","last_reported":1691510880,"current_range_meters":29600,"station_id":"ce4bhqp2rcd13ifvqhng","pricing_plan_id":"free"},{"bike_id":"9f986759-5904-4293-80db-07b7eba35b30","system_id":"levelo_inurba_marseille","lat":43.317557,"lon":5.390173,"is_reserved":false,"is_disabled":false,"rental_uris":{"android":"levelo://app?vid=9f986759-5904-4293-80db-07b7eba35b30","ios":"levelo://app?vid=9f986759-5904-4293-80db-07b7eba35b30"},"vehicle_type_id":"4","last_reported":1691510880,"current_range_meters":16400,"station_id":"ce4bhqp2rcd13ifvqhng","pricing_plan_id":"free"},{"bike_id":"e89c3ea9-6b3c-4b72-a2ba-93153e46acf5","system_id":"levelo_inurba_marseille","lat":43.3233,"lon":5.38686,"is_reserved":false,"is_disabled":false,"rental_uris":{"android":"levelo://app?vid=e89c3ea9-6b3c-4b72-a2ba-93153e46acf5","ios":"levelo://app?vid=e89c3ea9-6b3c-4b72-a2ba-93153e46acf5"},"vehicle_type_id":"4","last_reported":1691510880,"current_range_meters":2800,"station_id":"","pricing_plan_id":"free"},{"bike_id":"5cd4ef01-5d86-44c5-8d4d-4351f208218f","system_id":"levelo_inurba_marseille","lat":43.295748,"lon":5.37522,"is_reserved":false,"is_disabled":false,"rental_uris":{"android":"levelo://app?vid=5cd4ef01-5d86-44c5-8d4d-4351f208218f","ios":"levelo://app?vid=5cd4ef01-5d86-44c5-8d4d-4351f208218f"},"vehicle_type_id":"4","last_reported":1691510880,"current_range_meters":14000,"station_id":"ce4bgh92rcd13ifvqb50","pricing_plan_id":"free"},{"bike_id":"a4df99ce-0488-49dd-a888-94686f562e88","system_id":"levelo_inurba_marseille","lat":43.2957,"lon":5.37515,"is_reserved":false,"is_disabled":false,"rental_uris":{"android":"levelo://app?vid=a4df99ce-0488-49dd-a888-94686f562e88","ios":"levelo://app?vid=a4df99ce-0488-49dd-a888-94686f562e88"},"vehicle_type_id":"4","last_reported":1691510880,"current_range_meters":30000,"station_id":"ce4bgh92rcd13ifvqb50","pricing_plan_id":"free"},{"bike_id":"74598c16-b5bc-40ca-a49f-10ed89e2d441","system_id":"levelo_inurba_marseille","lat":43.29537,"lon":5.37538,"is_reserved":false,"is_disabled":false,"rental_uris":{"android":"levelo://app?vid=74598c16-b5bc-40ca-a49f-10ed89e2d441","ios":"levelo://app?vid=74598c16-b5bc-40ca-a49f-10ed89e2d441"},"vehicle_type_id":"4","last_reported":1691510880,"current_range_meters":0,"station_id":"ce4bgkp2rcd13ifvqbmg","pricing_plan_id":"free"},{"bike_id":"28129921-3b46-47b6-a0d5-92a580cf69cc","system_id":"levelo_inurba_marseille","lat":43.299707,"lon":5.384859,"is_reserved":false,"is_disabled":false,"rental_uris":{"android":"levelo://app?vid=28129921-3b46-47b6-a0d5-92a580cf69cc","ios":"levelo://app?vid=28129921-3b46-47b6-a0d5-92a580cf69cc"},"vehicle_type_id":"4","last_reported":1691510880,"current_range_meters":12400,"station_id":"ce4bgj92rcd13ifvqbd0","pricing_plan_id":"free"},{"bike_id":"92c296e3-1a81-4773-abf6-db8301a54268","system_id":"levelo_inurba_marseille","lat":43.299707,"lon":5.384859,"is_reserved":false,"is_disabled":false,"rental_uris":{"android":"levelo://app?vid=92c296e3-1a81-4773-abf6-db8301a54268","ios":"levelo://app?vid=92c296e3-1a81-4773-abf6-db8301a54268"},"vehicle_type_id":"4","last_reported":1691510880,"current_range_meters":4400,"station_id":"ce4bgj92rcd13ifvqbd0","pricing_plan_id":"free"},{"bike_id":"64844657-a335-44f4-b45c-74df5bcd89fc","system_id":"levelo_inurba_marseille","lat":43.32369,"lon":5.38882,"is_reserved":false,"is_disabled":false,"rental_uris":{"android":"levelo://app?vid=64844657-a335-44f4-b45c-74df5bcd89fc","ios":"levelo://app?vid=64844657-a335-44f4-b45c-74df5bcd89fc"},"vehicle_type_id":"4","last_reported":1691510880,"current_range_meters":21200,"station_id":"ce4bhqp2rcd13ifvqhog","pricing_plan_id":"free"},{"bike_id":"ee91a565-d9d2-4d7a-93c8-9f9ce27a91e2","system_id":"levelo_inurba_marseille","lat":43.323685,"lon":5.388834,"is_reserved":false,"is_disabled":false,"rental_uris":{"android":"levelo://app?vid=ee91a565-d9d2-4d7a-93c8-9f9ce27a91e2","ios":"levelo://app?vid=ee91a565-d9d2-4d7a-93c8-9f9ce27a91e2"},"vehicle_type_id":"4","last_reported":1691510880,"current_range_meters":28400,"station_id":"ce4bhqp2rcd13ifvqhog","pricing_plan_id":"free"},{"bike_id":"76c391ee-2205-4639-a6be-a8561f89affc","system_id":"levelo_inurba_marseille","lat":43.323674,"lon":5.388846,"is_reserved":false,"is_disabled":false,"rental_uris":{"android":"levelo://app?vid=76c391ee-2205-4639-a6be-a8561f89affc","ios":"levelo://app?vid=76c391ee-2205-4639-a6be-a8561f89affc"},"vehicle_type_id":"4","last_reported":1691510880,"current_range_meters":22400,"station_id":"ce4bhqp2rcd13ifvqhog","pricing_plan_id":"free"},{"bike_id":"8d3622b1-651a-424b-9e35-0fca166f98c4","system_id":"levelo_inurba_marseille","lat":43.32367,"lon":5.388836,"is_reserved":false,"is_disabled":false,"rental_uris":{"android":"levelo://app?vid=8d3622b1-651a-424b-9e35-0fca166f98c4","ios":"levelo://app?vid=8d3622b1-651a-424b-9e35-0fca166f98c4"},"vehicle_type_id":"4","last_reported":1691510880,"current_range_meters":24400,"station_id":"ce4bhqp2rcd13ifvqhog","pricing_plan_id":"free"},{"bike_id":"6b7eff1a-606d-42da-bbd2-faf1d71b2833","system_id":"levelo_inurba_marseille","lat":43.323686,"lon":5.388841,"is_reserved":false,"is_disabled":false,"rental_uris":{"android":"levelo://app?vid=6b7eff1a-606d-42da-bbd2-faf1d71b2833","ios":"levelo://app?vid=6b7eff1a-606d-42da-bbd2-faf1d71b2833"},"vehicle_type_id":"4","last_reported":1691510880,"current_range_meters":30000,"station_id":"ce4bhqp2rcd13ifvqhog","pricing_plan_id":"free"},{"bike_id":"1ea5fdc5-3897-4ff2-9a70-bf6391fccfde","system_id":"levelo_inurba_marseille","lat":43.32367,"lon":5.388836,"is_reserved":false,"is_disabled":false,"rental_uris":{"android":"levelo://app?vid=1ea5fdc5-3897-4ff2-9a70-bf6391fccfde","ios":"levelo://app?vid=1ea5fdc5-3897-4ff2-9a70-bf6391fccfde"},"vehicle_type_id":"4","last_reported":1691510880,"current_range_meters":29200,"station_id":"ce4bhqp2rcd13ifvqhog","pricing_plan_id":"free"},{"bike_id":"74dadc79-5b09-46d4-b1f2-8afef6601364","system_id":"levelo_inurba_marseille","lat":43.32367,"lon":5.388836,"is_reserved":false,"is_disabled":false,"rental_uris":{"android":"levelo://app?vid=74dadc79-5b09-46d4-b1f2-8afef6601364","ios":"levelo://app?vid=74dadc79-5b09-46d4-b1f2-8afef6601364"},"vehicle_type_id":"4","last_reported":1691510880,"current_range_meters":30400,"station_id":"ce4bhqp2rcd13ifvqhog","pricing_plan_id":"free"},{"bike_id":"8622645b-3c96-4fdf-8cf6-da71833282c8","system_id":"levelo_inurba_marseille","lat":43.32367,"lon":5.388836,"is_reserved":false,"is_disabled":false,"rental_uris":{"android":"levelo://app?vid=8622645b-3c96-4fdf-8cf6-da71833282c8","ios":"levelo://app?vid=8622645b-3c96-4fdf-8cf6-da71833282c8"},"vehicle_type_id":"4","last_reported":1691510880,"current_range_meters":29200,"station_id":"ce4bhqp2rcd13ifvqhog","pricing_plan_id":"free"},{"bike_id":"04393ddb-228a-4341-98f6-4cd9a60e6083","system_id":"levelo_inurba_marseille","lat":43.32367,"lon":5.388836,"is_reserved":false,"is_disabled":false,"rental_uris":{"android":"levelo://app?vid=04393ddb-228a-4341-98f6-4cd9a60e6083","ios":"levelo://app?vid=04393ddb-228a-4341-98f6-4cd9a60e6083"},"vehicle_type_id":"4","last_reported":1691510880,"current_range_meters":26000,"station_id":"ce4bhqp2rcd13ifvqhog","pricing_plan_id":"free"},{"bike_id":"584b04f1-8601-436f-adc4-e4c58ef59be3","system_id":"levelo_inurba_marseille","lat":43.323703,"lon":5.388849,"is_reserved":false,"is_disabled":false,"rental_uris":{"android":"levelo://app?vid=584b04f1-8601-436f-adc4-e4c58ef59be3","ios":"levelo://app?vid=584b04f1-8601-436f-adc4-e4c58ef59be3"},"vehicle_type_id":"4","last_reported":1691510880,"current_range_meters":12400,"station_id":"ce4bhqp2rcd13ifvqhog","pricing_plan_id":"free"},{"bike_id":"6cf4054a-3703-4ca4-82ee-abaa655d8431","system_id":"levelo_inurba_marseille","lat":43.29602,"lon":5.381084,"is_reserved":false,"is_disabled":false,"rental_uris":{"android":"levelo://app?vid=6cf4054a-3703-4ca4-82ee-abaa655d8431","ios":"levelo://app?vid=6cf4054a-3703-4ca4-82ee-abaa655d8431"},"vehicle_type_id":"4","last_reported":1691510880,"current_range_meters":16800,"station_id":"ce4bgl12rcd13ifvqbo0","pricing_plan_id":"free"},{"bike_id":"8690cd1c-12bd-49eb-b33d-cc5f5fe66846","system_id":"levelo_inurba_marseille","lat":43.295891,"lon":5.380965,"is_reserved":false,"is_disabled":false,"rental_uris":{"android":"levelo://app?vid=8690cd1c-12bd-49eb-b33d-cc5f5fe66846","ios":"levelo://app?vid=8690cd1c-12bd-49eb-b33d-cc5f5fe66846"},"vehicle_type_id":"4","last_reported":1691510880,"current_range_meters":18400,"station_id":"ce4bhbp2rcd13ifvqesg","pricing_plan_id":"free"},{"bike_id":"dbe406a0-e31d-4174-932b-0d8d584d17c2","system_id":"levelo_inurba_marseille","lat":43.292749,"lon":5.368398,"is_reserved":false,"is_disabled":false,"rental_uris":{"android":"levelo://app?vid=dbe406a0-e31d-4174-932b-0d8d584d17c2","ios":"levelo://app?vid=dbe406a0-e31d-4174-932b-0d8d584d17c2"},"vehicle_type_id":"4","last_reported":1691510880,"current_range_meters":31200,"station_id":"ce4bhbp2rcd13ifvqesg","pricing_plan_id":"free"},{"bike_id":"f7ad510a-fffd-4c42-9947-7b2ec609cb7e","system_id":"levelo_inurba_marseille","lat":43.302992,"lon":5.392136,"is_reserved":false,"is_disabled":false,"rental_uris":{"android":"levelo://app?vid=f7ad510a-fffd-4c42-9947-7b2ec609cb7e","ios":"levelo://app?vid=f7ad510a-fffd-4c42-9947-7b2ec609cb7e"},"vehicle_type_id":"4","last_reported":1691510880,"current_range_meters":27200,"station_id":"ce4bgkh2rcd13ifvqbk0","pricing_plan_id":"free"},{"bike_id":"99a5c068-3072-49dc-82ce-0d5700146788","system_id":"levelo_inurba_marseille","lat":43.30304,"lon":5.39221,"is_reserved":false,"is_disabled":false,"rental_uris":{"android":"levelo://app?vid=99a5c068-3072-49dc-82ce-0d5700146788","ios":"levelo://app?vid=99a5c068-3072-49dc-82ce-0d5700146788"},"vehicle_type_id":"4","last_reported":1691510880,"current_range_meters":31200,"station_id":"ce4bgkh2rcd13ifvqbk0","pricing_plan_id":"free"},{"bike_id":"2282c425-6055-4414-b21f-9fa61eaba595","system_id":"levelo_inurba_marseille","lat":43.3088,"lon":5.39642,"is_reserved":false,"is_disabled":false,"rental_uris":{"android":"levelo://app?vid=2282c425-6055-4414-b21f-9fa61eaba595","ios":"levelo://app?vid=2282c425-6055-4414-b21f-9fa61eaba595"},"vehicle_type_id":"4","last_reported":1691510880,"current_range_meters":0,"station_id":"ce4bh012rcd13ifvqcv0","pricing_plan_id":"free"},{"bike_id":"3d6a6034-ae6a-4851-8c10-05ab928191b0","system_id":"levelo_inurba_marseille","lat":43.30882,"lon":5.39647,"is_reserved":false,"is_disabled":false,"rental_uris":{"android":"levelo://app?vid=3d6a6034-ae6a-4851-8c10-05ab928191b0","ios":"levelo://app?vid=3d6a6034-ae6a-4851-8c10-05ab928191b0"},"vehicle_type_id":"4","last_reported":1691510880,"current_range_meters":8800,"station_id":"ce4bh012rcd13ifvqcv0","pricing_plan_id":"free"},{"bike_id":"3b14cf3c-2544-4931-ad46-a076b8329761","system_id":"levelo_inurba_marseille","lat":43.289184,"lon":5.366408,"is_reserved":false,"is_disabled":false,"rental_uris":{"android":"levelo://app?vid=3b14cf3c-2544-4931-ad46-a076b8329761","ios":"levelo://app?vid=3b14cf3c-2544-4931-ad46-a076b8329761"},"vehicle_type_id":"4","last_reported":1691510880,"current_range_meters":2800,"station_id":"ce4bhap2rcd13ifvqek0","pricing_plan_id":"free"},{"bike_id":"d6d9c4db-4c27-4aaa-a466-ec37e79c3d80","system_id":"levelo_inurba_marseille","lat":43.29076,"lon":5.37163,"is_reserved":false,"is_disabled":false,"rental_uris":{"android":"levelo://app?vid=d6d9c4db-4c27-4aaa-a466-ec37e79c3d80","ios":"levelo://app?vid=d6d9c4db-4c27-4aaa-a466-ec37e79c3d80"},"vehicle_type_id":"4","last_reported":1691510880,"current_range_meters":0,"station_id":"ce4bh5p2rcd13ifvqe4g","pricing_plan_id":"free"},{"bike_id":"626e07c5-14a0-4d98-b212-0e2aa3c16f7a","system_id":"levelo_inurba_marseille","lat":43.290631,"lon":5.359244,"is_reserved":false,"is_disabled":false,"rental_uris":{"android":"levelo://app?vid=626e07c5-14a0-4d98-b212-0e2aa3c16f7a","ios":"levelo://app?vid=626e07c5-14a0-4d98-b212-0e2aa3c16f7a"},"vehicle_type_id":"4","last_reported":1691510880,"current_range_meters":31200,"station_id":"ce4bha92rcd13ifvqeg0","pricing_plan_id":"free"},{"bike_id":"34d7672c-73ce-4faf-92ea-e70d570d1b31","system_id":"levelo_inurba_marseille","lat":43.290624,"lon":5.359245,"is_reserved":false,"is_disabled":false,"rental_uris":{"android":"levelo://app?vid=34d7672c-73ce-4faf-92ea-e70d570d1b31","ios":"levelo://app?vid=34d7672c-73ce-4faf-92ea-e70d570d1b31"},"vehicle_type_id":"4","last_reported":1691510880,"current_range_meters":24800,"station_id":"ce4bha92rcd13ifvqeg0","pricing_plan_id":"free"},{"bike_id":"0e0f2cf5-4a09-4fff-950f-45fe10ff925a","system_id":"levelo_inurba_marseille","lat":43.294153,"lon":5.386305,"is_reserved":false,"is_disabled":false,"rental_uris":{"android":"levelo://app?vid=0e0f2cf5-4a09-4fff-950f-45fe10ff925a","ios":"levelo://app?vid=0e0f2cf5-4a09-4fff-950f-45fe10ff925a"},"vehicle_type_id":"4","last_reported":1691510880,"current_range_meters":5200,"station_id":"ce4bh2h2rcd13ifvqdh0","pricing_plan_id":"free"},{"bike_id":"79521bf2-e0e1-4e44-a4c3-b16572edbeec","system_id":"levelo_inurba_marseille","lat":43.294153,"lon":5.386305,"is_reserved":false,"is_disabled":false,"rental_uris":{"android":"levelo://app?vid=79521bf2-e0e1-4e44-a4c3-b16572edbeec","ios":"levelo://app?vid=79521bf2-e0e1-4e44-a4c3-b16572edbeec"},"vehicle_type_id":"4","last_reported":1691510880,"current_range_meters":15600,"station_id":"ce4bh2h2rcd13ifvqdh0","pricing_plan_id":"free"},{"bike_id":"5532ce14-4ec3-41e1-9f54-81c91cffb2da","system_id":"levelo_inurba_marseille","lat":43.294162,"lon":5.386292,"is_reserved":false,"is_disabled":false,"rental_uris":{"android":"levelo://app?vid=5532ce14-4ec3-41e1-9f54-81c91cffb2da","ios":"levelo://app?vid=5532ce14-4ec3-41e1-9f54-81c91cffb2da"},"vehicle_type_id":"4","last_reported":1691510880,"current_range_meters":10800,"station_id":"ce4bh2h2rcd13ifvqdh0","pricing_plan_id":"free"},{"bike_id":"a941089b-e923-4be7-a52c-319b49556648","system_id":"levelo_inurba_marseille","lat":43.294162,"lon":5.386292,"is_reserved":false,"is_disabled":false,"rental_uris":{"android":"levelo://app?vid=a941089b-e923-4be7-a52c-319b49556648","ios":"levelo://app?vid=a941089b-e923-4be7-a52c-319b49556648"},"vehicle_type_id":"4","last_reported":1691510880,"current_range_meters":11200,"station_id":"ce4bh2h2rcd13ifvqdh0","pricing_plan_id":"free"},{"bike_id":"51ab11c7-b51b-4895-8c39-ab72c6420246","system_id":"levelo_inurba_marseille","lat":43.289184,"lon":5.366408,"is_reserved":false,"is_disabled":false,"rental_uris":{"android":"levelo://app?vid=51ab11c7-b51b-4895-8c39-ab72c6420246","ios":"levelo://app?vid=51ab11c7-b51b-4895-8c39-ab72c6420246"},"vehicle_type_id":"4","last_reported":1691510880,"current_range_meters":0,"station_id":"ce4bhap2rcd13ifvqek0","pricing_plan_id":"free"},{"bike_id":"c30113e7-bf6e-49f8-b6c4-bdee9e990ca8","system_id":"levelo_inurba_marseille","lat":43.294162,"lon":5.386292,"is_reserved":false,"is_disabled":false,"rental_uris":{"android":"levelo://app?vid=c30113e7-bf6e-49f8-b6c4-bdee9e990ca8","ios":"levelo://app?vid=c30113e7-bf6e-49f8-b6c4-bdee9e990ca8"},"vehicle_type_id":"4","last_reported":1691510880,"current_range_meters":31200,"station_id":"ce4bh2h2rcd13ifvqdh0","pricing_plan_id":"free"},{"bike_id":"d1b2fe5e-925f-4893-b6fe-75b6bf220dc4","system_id":"levelo_inurba_marseille","lat":43.289468,"lon":5.363719,"is_reserved":false,"is_disabled":false,"rental_uris":{"android":"levelo://app?vid=d1b2fe5e-925f-4893-b6fe-75b6bf220dc4","ios":"levelo://app?vid=d1b2fe5e-925f-4893-b6fe-75b6bf220dc4"},"vehicle_type_id":"4","last_reported":1691510880,"current_range_meters":29600,"station_id":"ce4bhc92rcd13ifvqetg","pricing_plan_id":"free"},{"bike_id":"954c80fd-0404-42e2-92a4-b4f7bce405b0","system_id":"levelo_inurba_marseille","lat":43.29265,"lon":5.38425,"is_reserved":false,"is_disabled":false,"rental_uris":{"android":"levelo://app?vid=954c80fd-0404-42e2-92a4-b4f7bce405b0","ios":"levelo://app?vid=954c80fd-0404-42e2-92a4-b4f7bce405b0"},"vehicle_type_id":"4","last_reported":1691510880,"current_range_meters":4800,"station_id":"ce4bh692rcd13ifvqea0","pricing_plan_id":"free"},{"bike_id":"b554b2bf-0e89-465d-b941-6edc200e6283","system_id":"levelo_inurba_marseille","lat":43.292642,"lon":5.384254,"is_reserved":false,"is_disabled":false,"rental_uris":{"android":"levelo://app?vid=b554b2bf-0e89-465d-b941-6edc200e6283","ios":"levelo://app?vid=b554b2bf-0e89-465d-b941-6edc200e6283"},"vehicle_type_id":"4","last_reported":1691510880,"current_range_meters":12400,"station_id":"ce4bh692rcd13ifvqea0","pricing_plan_id":"free"},{"bike_id":"08ebd442-19c6-44d8-8a7d-0b38ff50dd87","system_id":"levelo_inurba_marseille","lat":43.304274,"lon":5.397513,"is_reserved":false,"is_disabled":false,"rental_uris":{"android":"levelo://app?vid=08ebd442-19c6-44d8-8a7d-0b38ff50dd87","ios":"levelo://app?vid=08ebd442-19c6-44d8-8a7d-0b38ff50dd87"},"vehicle_type_id":"4","last_reported":1691510880,"current_range_meters":4800,"station_id":"ce4bh092rcd13ifvqd20","pricing_plan_id":"free"},{"bike_id":"932ec96f-85f2-49ca-aceb-799b46f50e00","system_id":"levelo_inurba_marseille","lat":43.29264,"lon":5.38441,"is_reserved":false,"is_disabled":false,"rental_uris":{"android":"levelo://app?vid=932ec96f-85f2-49ca-aceb-799b46f50e00","ios":"levelo://app?vid=932ec96f-85f2-49ca-aceb-799b46f50e00"},"vehicle_type_id":"4","last_reported":1691510880,"current_range_meters":29600,"station_id":"ce4bh692rcd13ifvqea0","pricing_plan_id":"free"},{"bike_id":"e36888af-2461-428f-8715-c4ac7eee7cf1","system_id":"levelo_inurba_marseille","lat":43.2926,"lon":5.38444,"is_reserved":false,"is_disabled":false,"rental_uris":{"android":"levelo://app?vid=e36888af-2461-428f-8715-c4ac7eee7cf1","ios":"levelo://app?vid=e36888af-2461-428f-8715-c4ac7eee7cf1"},"vehicle_type_id":"4","last_reported":1691510880,"current_range_meters":0,"station_id":"ce4bh692rcd13ifvqea0","pricing_plan_id":"free"},{"bike_id":"03a0dbaa-afd9-43ea-94e7-cbba17003dae","system_id":"levelo_inurba_marseille","lat":43.29262,"lon":5.38458,"is_reserved":false,"is_disabled":false,"rental_uris":{"android":"levelo://app?vid=03a0dbaa-afd9-43ea-94e7-cbba17003dae","ios":"levelo://app?vid=03a0dbaa-afd9-43ea-94e7-cbba17003dae"},"vehicle_type_id":"4","last_reported":1691510880,"current_range_meters":20000,"station_id":"ce4bh692rcd13ifvqea0","pricing_plan_id":"free"},{"bike_id":"64c0e523-f931-4e7f-ab27-de0ee9b33292","system_id":"levelo_inurba_marseille","lat":43.290104,"lon":5.356111,"is_reserved":false,"is_disabled":false,"rental_uris":{"android":"levelo://app?vid=64c0e523-f931-4e7f-ab27-de0ee9b33292","ios":"levelo://app?vid=64c0e523-f931-4e7f-ab27-de0ee9b33292"},"vehicle_type_id":"4","last_reported":1691510880,"current_range_meters":31200,"station_id":"ce4bhb92rcd13ifvqen0","pricing_plan_id":"free"},{"bike_id":"37055ea7-2e9b-4ef4-aef8-95fcc3b21c41","system_id":"levelo_inurba_marseille","lat":43.33038,"lon":5.38917,"is_reserved":false,"is_disabled":false,"rental_uris":{"android":"levelo://app?vid=37055ea7-2e9b-4ef4-aef8-95fcc3b21c41","ios":"levelo://app?vid=37055ea7-2e9b-4ef4-aef8-95fcc3b21c41"},"vehicle_type_id":"4","last_reported":1691510880,"current_range_meters":18800,"station_id":"ce4bhr92rcd13ifvqhrg","pricing_plan_id":"free"},{"bike_id":"3585088c-1fad-4eca-b223-780202197d91","system_id":"levelo_inurba_marseille","lat":43.3304,"lon":5.3892,"is_reserved":false,"is_disabled":false,"rental_uris":{"android":"levelo://app?vid=3585088c-1fad-4eca-b223-780202197d91","ios":"levelo://app?vid=3585088c-1fad-4eca-b223-780202197d91"},"vehicle_type_id":"4","last_reported":1691510880,"current_range_meters":26800,"station_id":"","pricing_plan_id":"free"},{"bike_id":"7ccfd2f8-3c21-431a-adf8-948bbc576217","system_id":"levelo_inurba_marseille","lat":43.33044,"lon":5.38914,"is_reserved":false,"is_disabled":false,"rental_uris":{"android":"levelo://app?vid=7ccfd2f8-3c21-431a-adf8-948bbc576217","ios":"levelo://app?vid=7ccfd2f8-3c21-431a-adf8-948bbc576217"},"vehicle_type_id":"4","last_reported":1691510880,"current_range_meters":28000,"station_id":"ce4bhr92rcd13ifvqhrg","pricing_plan_id":"free"},{"bike_id":"2c267b63-5966-4e3c-a605-81ce2dde45aa","system_id":"levelo_inurba_marseille","lat":43.33042,"lon":5.38919,"is_reserved":false,"is_disabled":false,"rental_uris":{"android":"levelo://app?vid=2c267b63-5966-4e3c-a605-81ce2dde45aa","ios":"levelo://app?vid=2c267b63-5966-4e3c-a605-81ce2dde45aa"},"vehicle_type_id":"4","last_reported":1691510880,"current_range_meters":28000,"station_id":"ce4bhr92rcd13ifvqhrg","pricing_plan_id":"free"},{"bike_id":"edd0dfd6-5dcc-4a91-89c3-ccbfcddea634","system_id":"levelo_inurba_marseille","lat":43.290104,"lon":5.356111,"is_reserved":false,"is_disabled":false,"rental_uris":{"android":"levelo://app?vid=edd0dfd6-5dcc-4a91-89c3-ccbfcddea634","ios":"levelo://app?vid=edd0dfd6-5dcc-4a91-89c3-ccbfcddea634"},"vehicle_type_id":"4","last_reported":1691510880,"current_range_meters":19200,"station_id":"ce4bhb92rcd13ifvqen0","pricing_plan_id":"free"},{"bike_id":"6cfdba29-0bf9-42f3-8ca1-d202c1585abb","system_id":"levelo_inurba_marseille","lat":43.33045,"lon":5.38918,"is_reserved":false,"is_disabled":false,"rental_uris":{"android":"levelo://app?vid=6cfdba29-0bf9-42f3-8ca1-d202c1585abb","ios":"levelo://app?vid=6cfdba29-0bf9-42f3-8ca1-d202c1585abb"},"vehicle_type_id":"4","last_reported":1691510880,"current_range_meters":23200,"station_id":"ce4bhr92rcd13ifvqhrg","pricing_plan_id":"free"},{"bike_id":"d92191b5-3897-428d-989c-4b986c7a7e64","system_id":"levelo_inurba_marseille","lat":43.29006,"lon":5.35612,"is_reserved":false,"is_disabled":false,"rental_uris":{"android":"levelo://app?vid=d92191b5-3897-428d-989c-4b986c7a7e64","ios":"levelo://app?vid=d92191b5-3897-428d-989c-4b986c7a7e64"},"vehicle_type_id":"4","last_reported":1691510880,"current_range_meters":8800,"station_id":"ce4bhb92rcd13ifvqen0","pricing_plan_id":"free"},{"bike_id":"07d878fa-4a53-45ff-9114-5c2388007020","system_id":"levelo_inurba_marseille","lat":43.33047,"lon":5.38917,"is_reserved":false,"is_disabled":false,"rental_uris":{"android":"levelo://app?vid=07d878fa-4a53-45ff-9114-5c2388007020","ios":"levelo://app?vid=07d878fa-4a53-45ff-9114-5c2388007020"},"vehicle_type_id":"4","last_reported":1691510880,"current_range_meters":0,"station_id":"ce4bhr92rcd13ifvqhrg","pricing_plan_id":"free"},{"bike_id":"7b78d55e-e99c-4fa7-968a-c672d6912f00","system_id":"levelo_inurba_marseille","lat":43.290103,"lon":5.356114,"is_reserved":false,"is_disabled":false,"rental_uris":{"android":"levelo://app?vid=7b78d55e-e99c-4fa7-968a-c672d6912f00","ios":"levelo://app?vid=7b78d55e-e99c-4fa7-968a-c672d6912f00"},"vehicle_type_id":"4","last_reported":1691510880,"current_range_meters":31600,"station_id":"ce4bhb92rcd13ifvqen0","pricing_plan_id":"free"},{"bike_id":"c0afab88-2212-485a-8d42-5d29d529728e","system_id":"levelo_inurba_marseille","lat":43.297815,"lon":5.393548,"is_reserved":false,"is_disabled":false,"rental_uris":{"android":"levelo://app?vid=c0afab88-2212-485a-8d42-5d29d529728e","ios":"levelo://app?vid=c0afab88-2212-485a-8d42-5d29d529728e"},"vehicle_type_id":"4","last_reported":1691510880,"current_range_meters":18800,"station_id":"chh1huq6cuj3fo74tm60","pricing_plan_id":"free"},{"bike_id":"5a7d8dc3-80c2-43c2-9162-605f2e58720c","system_id":"levelo_inurba_marseille","lat":43.297815,"lon":5.393548,"is_reserved":false,"is_disabled":false,"rental_uris":{"android":"levelo://app?vid=5a7d8dc3-80c2-43c2-9162-605f2e58720c","ios":"levelo://app?vid=5a7d8dc3-80c2-43c2-9162-605f2e58720c"},"vehicle_type_id":"4","last_reported":1691510880,"current_range_meters":0,"station_id":"chh1huq6cuj3fo74tm60","pricing_plan_id":"free"},{"bike_id":"e6827f7c-e502-4202-a26d-24f981684491","system_id":"levelo_inurba_marseille","lat":43.2901,"lon":5.381269,"is_reserved":false,"is_disabled":false,"rental_uris":{"android":"levelo://app?vid=e6827f7c-e502-4202-a26d-24f981684491","ios":"levelo://app?vid=e6827f7c-e502-4202-a26d-24f981684491"},"vehicle_type_id":"4","last_reported":1691510880,"current_range_meters":20400,"station_id":"ce4bh4p2rcd13ifvqe1g","pricing_plan_id":"free"},{"bike_id":"a8828c90-bd2e-4266-a896-b01cf2289aaa","system_id":"levelo_inurba_marseille","lat":43.29027,"lon":5.38138,"is_reserved":false,"is_disabled":false,"rental_uris":{"android":"levelo://app?vid=a8828c90-bd2e-4266-a896-b01cf2289aaa","ios":"levelo://app?vid=a8828c90-bd2e-4266-a896-b01cf2289aaa"},"vehicle_type_id":"4","last_reported":1691510880,"current_range_meters":0,"station_id":"ce4bh4p2rcd13ifvqe1g","pricing_plan_id":"free"},{"bike_id":"5f786a3e-8d4e-4eae-b798-dda0b2335b7c","system_id":"levelo_inurba_marseille","lat":43.2901,"lon":5.381269,"is_reserved":false,"is_disabled":false,"rental_uris":{"android":"levelo://app?vid=5f786a3e-8d4e-4eae-b798-dda0b2335b7c","ios":"levelo://app?vid=5f786a3e-8d4e-4eae-b798-dda0b2335b7c"},"vehicle_type_id":"4","last_reported":1691510880,"current_range_meters":27200,"station_id":"ce4bh4p2rcd13ifvqe1g","pricing_plan_id":"free"},{"bike_id":"c7b55cf0-e7af-4594-8e33-6448d8a27fd0","system_id":"levelo_inurba_marseille","lat":43.3127,"lon":5.40159,"is_reserved":false,"is_disabled":false,"rental_uris":{"android":"levelo://app?vid=c7b55cf0-e7af-4594-8e33-6448d8a27fd0","ios":"levelo://app?vid=c7b55cf0-e7af-4594-8e33-6448d8a27fd0"},"vehicle_type_id":"4","last_reported":1691510880,"current_range_meters":9600,"station_id":"ce4bh092rcd13ifvqd30","pricing_plan_id":"free"},{"bike_id":"41de1954-98e6-4218-ac37-94d930b0c962","system_id":"levelo_inurba_marseille","lat":43.31267,"lon":5.40169,"is_reserved":false,"is_disabled":false,"rental_uris":{"android":"levelo://app?vid=41de1954-98e6-4218-ac37-94d930b0c962","ios":"levelo://app?vid=41de1954-98e6-4218-ac37-94d930b0c962"},"vehicle_type_id":"4","last_reported":1691510880,"current_range_meters":24400,"station_id":"ce4bh092rcd13ifvqd30","pricing_plan_id":"free"},{"bike_id":"ffb70ca8-1a45-4d8a-8cf7-b63f8097b852","system_id":"levelo_inurba_marseille","lat":43.337444,"lon":5.374475,"is_reserved":false,"is_disabled":false,"rental_uris":{"android":"levelo://app?vid=ffb70ca8-1a45-4d8a-8cf7-b63f8097b852","ios":"levelo://app?vid=ffb70ca8-1a45-4d8a-8cf7-b63f8097b852"},"vehicle_type_id":"4","last_reported":1691510880,"current_range_meters":30400,"station_id":"","pricing_plan_id":"free"},{"bike_id":"1e6a4349-91f9-468d-8618-a50a523320de","system_id":"levelo_inurba_marseille","lat":43.33744,"lon":5.37494,"is_reserved":false,"is_disabled":false,"rental_uris":{"android":"levelo://app?vid=1e6a4349-91f9-468d-8618-a50a523320de","ios":"levelo://app?vid=1e6a4349-91f9-468d-8618-a50a523320de"},"vehicle_type_id":"4","last_reported":1691510880,"current_range_meters":21600,"station_id":"","pricing_plan_id":"free"},{"bike_id":"bdf42952-d6a0-4845-b768-25423fdac941","system_id":"levelo_inurba_marseille","lat":43.33756,"lon":5.37455,"is_reserved":false,"is_disabled":false,"rental_uris":{"android":"levelo://app?vid=bdf42952-d6a0-4845-b768-25423fdac941","ios":"levelo://app?vid=bdf42952-d6a0-4845-b768-25423fdac941"},"vehicle_type_id":"4","last_reported":1691510880,"current_range_meters":12000,"station_id":"","pricing_plan_id":"free"},{"bike_id":"1d587673-114b-4879-ac22-244c9400d6c5","system_id":"levelo_inurba_marseille","lat":43.33758,"lon":5.37495,"is_reserved":false,"is_disabled":false,"rental_uris":{"android":"levelo://app?vid=1d587673-114b-4879-ac22-244c9400d6c5","ios":"levelo://app?vid=1d587673-114b-4879-ac22-244c9400d6c5"},"vehicle_type_id":"4","last_reported":1691510880,"current_range_meters":18400,"station_id":"","pricing_plan_id":"free"},{"bike_id":"2425e72f-04a5-455d-bc0d-4f66f63da2fa","system_id":"levelo_inurba_marseille","lat":43.30642,"lon":5.401031,"is_reserved":false,"is_disabled":false,"rental_uris":{"android":"levelo://app?vid=2425e72f-04a5-455d-bc0d-4f66f63da2fa","ios":"levelo://app?vid=2425e72f-04a5-455d-bc0d-4f66f63da2fa"},"vehicle_type_id":"4","last_reported":1691510880,"current_range_meters":29600,"station_id":"ce4bh112rcd13ifvqda0","pricing_plan_id":"free"},{"bike_id":"dbce0710-5e11-4077-9081-80fcfe6a0e12","system_id":"levelo_inurba_marseille","lat":43.30642,"lon":5.401031,"is_reserved":false,"is_disabled":false,"rental_uris":{"android":"levelo://app?vid=dbce0710-5e11-4077-9081-80fcfe6a0e12","ios":"levelo://app?vid=dbce0710-5e11-4077-9081-80fcfe6a0e12"},"vehicle_type_id":"4","last_reported":1691510880,"current_range_meters":11200,"station_id":"ce4bh112rcd13ifvqda0","pricing_plan_id":"free"},{"bike_id":"4122773a-78df-424d-b5c2-23b21e148f51","system_id":"levelo_inurba_marseille","lat":43.30641,"lon":5.40096,"is_reserved":false,"is_disabled":false,"rental_uris":{"android":"levelo://app?vid=4122773a-78df-424d-b5c2-23b21e148f51","ios":"levelo://app?vid=4122773a-78df-424d-b5c2-23b21e148f51"},"vehicle_type_id":"4","last_reported":1691510880,"current_range_meters":0,"station_id":"ce4bh112rcd13ifvqda0","pricing_plan_id":"free"},{"bike_id":"0694a1da-fafe-4186-8bff-f546c79e41ab","system_id":"levelo_inurba_marseille","lat":43.30643,"lon":5.401,"is_reserved":false,"is_disabled":false,"rental_uris":{"android":"levelo://app?vid=0694a1da-fafe-4186-8bff-f546c79e41ab","ios":"levelo://app?vid=0694a1da-fafe-4186-8bff-f546c79e41ab"},"vehicle_type_id":"4","last_reported":1691510880,"current_range_meters":2000,"station_id":"ce4bh112rcd13ifvqda0","pricing_plan_id":"free"},{"bike_id":"d2a77863-babd-4bb2-a417-e72a5957913f","system_id":"levelo_inurba_marseille","lat":43.3377,"lon":5.37489,"is_reserved":false,"is_disabled":false,"rental_uris":{"android":"levelo://app?vid=d2a77863-babd-4bb2-a417-e72a5957913f","ios":"levelo://app?vid=d2a77863-babd-4bb2-a417-e72a5957913f"},"vehicle_type_id":"4","last_reported":1691510880,"current_range_meters":29200,"station_id":"","pricing_plan_id":"free"},{"bike_id":"c0493d7a-0376-430d-9def-2a0d75394aa3","system_id":"levelo_inurba_marseille","lat":43.286591,"lon":5.363346,"is_reserved":false,"is_disabled":false,"rental_uris":{"android":"levelo://app?vid=c0493d7a-0376-430d-9def-2a0d75394aa3","ios":"levelo://app?vid=c0493d7a-0376-430d-9def-2a0d75394aa3"},"vehicle_type_id":"4","last_reported":1691510880,"current_range_meters":25200,"station_id":"ce4bhah2rcd13ifvqej0","pricing_plan_id":"free"},{"bike_id":"e223da62-e910-4e39-adf8-566f403e9b13","system_id":"levelo_inurba_marseille","lat":43.286593,"lon":5.363346,"is_reserved":false,"is_disabled":false,"rental_uris":{"android":"levelo://app?vid=e223da62-e910-4e39-adf8-566f403e9b13","ios":"levelo://app?vid=e223da62-e910-4e39-adf8-566f403e9b13"},"vehicle_type_id":"4","last_reported":1691510880,"current_range_meters":21600,"station_id":"ce4bhah2rcd13ifvqej0","pricing_plan_id":"free"},{"bike_id":"75199276-b705-4ad7-b6a9-49aeaa84628a","system_id":"levelo_inurba_marseille","lat":43.286591,"lon":5.363346,"is_reserved":false,"is_disabled":false,"rental_uris":{"android":"levelo://app?vid=75199276-b705-4ad7-b6a9-49aeaa84628a","ios":"levelo://app?vid=75199276-b705-4ad7-b6a9-49aeaa84628a"},"vehicle_type_id":"4","last_reported":1691510880,"current_range_meters":31600,"station_id":"ce4bhah2rcd13ifvqej0","pricing_plan_id":"free"},{"bike_id":"d8fe53e0-9c2c-4be7-8c64-71e3dc7a13d9","system_id":"levelo_inurba_marseille","lat":43.286593,"lon":5.363346,"is_reserved":false,"is_disabled":false,"rental_uris":{"android":"levelo://app?vid=d8fe53e0-9c2c-4be7-8c64-71e3dc7a13d9","ios":"levelo://app?vid=d8fe53e0-9c2c-4be7-8c64-71e3dc7a13d9"},"vehicle_type_id":"4","last_reported":1691510880,"current_range_meters":12000,"station_id":"ce4bhah2rcd13ifvqej0","pricing_plan_id":"free"},{"bike_id":"8a33d2bc-b897-4be3-b167-449f6ff5487d","system_id":"levelo_inurba_marseille","lat":43.286593,"lon":5.363346,"is_reserved":false,"is_disabled":false,"rental_uris":{"android":"levelo://app?vid=8a33d2bc-b897-4be3-b167-449f6ff5487d","ios":"levelo://app?vid=8a33d2bc-b897-4be3-b167-449f6ff5487d"},"vehicle_type_id":"4","last_reported":1691510880,"current_range_meters":25200,"station_id":"ce4bhah2rcd13ifvqej0","pricing_plan_id":"free"},{"bike_id":"ae3c6071-4eec-401e-b3b4-238510a56b39","system_id":"levelo_inurba_marseille","lat":43.286593,"lon":5.363346,"is_reserved":false,"is_disabled":false,"rental_uris":{"android":"levelo://app?vid=ae3c6071-4eec-401e-b3b4-238510a56b39","ios":"levelo://app?vid=ae3c6071-4eec-401e-b3b4-238510a56b39"},"vehicle_type_id":"4","last_reported":1691510880,"current_range_meters":11200,"station_id":"ce4bhah2rcd13ifvqej0","pricing_plan_id":"free"},{"bike_id":"84179f6b-7d8d-49a9-b45f-e2c2c7cfb73d","system_id":"levelo_inurba_marseille","lat":43.286593,"lon":5.363346,"is_reserved":false,"is_disabled":false,"rental_uris":{"android":"levelo://app?vid=84179f6b-7d8d-49a9-b45f-e2c2c7cfb73d","ios":"levelo://app?vid=84179f6b-7d8d-49a9-b45f-e2c2c7cfb73d"},"vehicle_type_id":"4","last_reported":1691510880,"current_range_meters":2400,"station_id":"ce4bhah2rcd13ifvqej0","pricing_plan_id":"free"},{"bike_id":"6207adcb-253f-4400-9233-c87fec5d858c","system_id":"levelo_inurba_marseille","lat":43.295194,"lon":5.39397,"is_reserved":false,"is_disabled":false,"rental_uris":{"android":"levelo://app?vid=6207adcb-253f-4400-9233-c87fec5d858c","ios":"levelo://app?vid=6207adcb-253f-4400-9233-c87fec5d858c"},"vehicle_type_id":"4","last_reported":1691510880,"current_range_meters":8400,"station_id":"ce4bh292rcd13ifvqdf0","pricing_plan_id":"free"},{"bike_id":"7b9e2d57-7c2f-4652-8ec0-ee4d147afe24","system_id":"levelo_inurba_marseille","lat":43.302548,"lon":5.400568,"is_reserved":false,"is_disabled":false,"rental_uris":{"android":"levelo://app?vid=7b9e2d57-7c2f-4652-8ec0-ee4d147afe24","ios":"levelo://app?vid=7b9e2d57-7c2f-4652-8ec0-ee4d147afe24"},"vehicle_type_id":"4","last_reported":1691510880,"current_range_meters":0,"station_id":"","pricing_plan_id":"free"},{"bike_id":"283e351c-6a04-4d05-8885-c39b0e7f01dc","system_id":"levelo_inurba_marseille","lat":43.286039,"lon":5.370679,"is_reserved":false,"is_disabled":false,"rental_uris":{"android":"levelo://app?vid=283e351c-6a04-4d05-8885-c39b0e7f01dc","ios":"levelo://app?vid=283e351c-6a04-4d05-8885-c39b0e7f01dc"},"vehicle_type_id":"4","last_reported":1691510880,"current_range_meters":24400,"station_id":"ce4bht12rcd13ifvqi60","pricing_plan_id":"free"},{"bike_id":"b0e05f43-6433-4ca7-b94f-0cb90e7956f4","system_id":"levelo_inurba_marseille","lat":43.286039,"lon":5.370679,"is_reserved":false,"is_disabled":false,"rental_uris":{"android":"levelo://app?vid=b0e05f43-6433-4ca7-b94f-0cb90e7956f4","ios":"levelo://app?vid=b0e05f43-6433-4ca7-b94f-0cb90e7956f4"},"vehicle_type_id":"4","last_reported":1691510880,"current_range_meters":23600,"station_id":"ce4bht12rcd13ifvqi60","pricing_plan_id":"free"},{"bike_id":"e2bc6384-5007-46f5-b06c-ffcc30d604bb","system_id":"levelo_inurba_marseille","lat":43.286039,"lon":5.370679,"is_reserved":false,"is_disabled":false,"rental_uris":{"android":"levelo://app?vid=e2bc6384-5007-46f5-b06c-ffcc30d604bb","ios":"levelo://app?vid=e2bc6384-5007-46f5-b06c-ffcc30d604bb"},"vehicle_type_id":"4","last_reported":1691510880,"current_range_meters":26400,"station_id":"ce4bht12rcd13ifvqi60","pricing_plan_id":"free"},{"bike_id":"f52b2a60-5f8e-4941-b2f9-ffd348bb06be","system_id":"levelo_inurba_marseille","lat":43.286039,"lon":5.370679,"is_reserved":false,"is_disabled":false,"rental_uris":{"android":"levelo://app?vid=f52b2a60-5f8e-4941-b2f9-ffd348bb06be","ios":"levelo://app?vid=f52b2a60-5f8e-4941-b2f9-ffd348bb06be"},"vehicle_type_id":"4","last_reported":1691510880,"current_range_meters":12400,"station_id":"ce4bht12rcd13ifvqi60","pricing_plan_id":"free"},{"bike_id":"f73b60c3-ea6d-421b-988f-134a64a3fbac","system_id":"levelo_inurba_marseille","lat":43.286039,"lon":5.370679,"is_reserved":false,"is_disabled":false,"rental_uris":{"android":"levelo://app?vid=f73b60c3-ea6d-421b-988f-134a64a3fbac","ios":"levelo://app?vid=f73b60c3-ea6d-421b-988f-134a64a3fbac"},"vehicle_type_id":"4","last_reported":1691510880,"current_range_meters":31600,"station_id":"ce4bht12rcd13ifvqi60","pricing_plan_id":"free"},{"bike_id":"5cc2c215-6ffa-4fe5-814e-a10d8b7c764a","system_id":"levelo_inurba_marseille","lat":43.286039,"lon":5.370681,"is_reserved":false,"is_disabled":false,"rental_uris":{"android":"levelo://app?vid=5cc2c215-6ffa-4fe5-814e-a10d8b7c764a","ios":"levelo://app?vid=5cc2c215-6ffa-4fe5-814e-a10d8b7c764a"},"vehicle_type_id":"4","last_reported":1691510880,"current_range_meters":12000,"station_id":"ce4bht12rcd13ifvqi60","pricing_plan_id":"free"},{"bike_id":"b2ef148d-f903-4f90-9e38-9419c4c9abbd","system_id":"levelo_inurba_marseille","lat":43.286039,"lon":5.370679,"is_reserved":false,"is_disabled":false,"rental_uris":{"android":"levelo://app?vid=b2ef148d-f903-4f90-9e38-9419c4c9abbd","ios":"levelo://app?vid=b2ef148d-f903-4f90-9e38-9419c4c9abbd"},"vehicle_type_id":"4","last_reported":1691510880,"current_range_meters":26000,"station_id":"ce4bht12rcd13ifvqi60","pricing_plan_id":"free"},{"bike_id":"f8f17a3a-3eca-4c72-99f5-8058852cc2a4","system_id":"levelo_inurba_marseille","lat":43.286039,"lon":5.370681,"is_reserved":false,"is_disabled":false,"rental_uris":{"android":"levelo://app?vid=f8f17a3a-3eca-4c72-99f5-8058852cc2a4","ios":"levelo://app?vid=f8f17a3a-3eca-4c72-99f5-8058852cc2a4"},"vehicle_type_id":"4","last_reported":1691510880,"current_range_meters":26000,"station_id":"ce4bht12rcd13ifvqi60","pricing_plan_id":"free"},{"bike_id":"6a23cf59-438d-478b-b06f-a2b72c9f5254","system_id":"levelo_inurba_marseille","lat":43.316517,"lon":5.404375,"is_reserved":false,"is_disabled":false,"rental_uris":{"android":"levelo://app?vid=6a23cf59-438d-478b-b06f-a2b72c9f5254","ios":"levelo://app?vid=6a23cf59-438d-478b-b06f-a2b72c9f5254"},"vehicle_type_id":"4","last_reported":1691510880,"current_range_meters":0,"station_id":"ce4bh012rcd13ifvqd00","pricing_plan_id":"free"},{"bike_id":"f55c3ae5-78a4-4d23-8ddf-466dcd359d0e","system_id":"levelo_inurba_marseille","lat":43.31646,"lon":5.40439,"is_reserved":false,"is_disabled":false,"rental_uris":{"android":"levelo://app?vid=f55c3ae5-78a4-4d23-8ddf-466dcd359d0e","ios":"levelo://app?vid=f55c3ae5-78a4-4d23-8ddf-466dcd359d0e"},"vehicle_type_id":"4","last_reported":1691510880,"current_range_meters":28400,"station_id":"ce4bh012rcd13ifvqd00","pricing_plan_id":"free"},{"bike_id":"34acf19f-8233-4457-9b00-73e9addf611e","system_id":"levelo_inurba_marseille","lat":43.31649,"lon":5.40439,"is_reserved":false,"is_disabled":false,"rental_uris":{"android":"levelo://app?vid=34acf19f-8233-4457-9b00-73e9addf611e","ios":"levelo://app?vid=34acf19f-8233-4457-9b00-73e9addf611e"},"vehicle_type_id":"4","last_reported":1691510880,"current_range_meters":31200,"station_id":"ce4bh012rcd13ifvqd00","pricing_plan_id":"free"},{"bike_id":"cf708580-f1b8-4c4f-b908-5ff0bf0a386c","system_id":"levelo_inurba_marseille","lat":43.316517,"lon":5.404375,"is_reserved":false,"is_disabled":false,"rental_uris":{"android":"levelo://app?vid=cf708580-f1b8-4c4f-b908-5ff0bf0a386c","ios":"levelo://app?vid=cf708580-f1b8-4c4f-b908-5ff0bf0a386c"},"vehicle_type_id":"4","last_reported":1691510880,"current_range_meters":14000,"station_id":"ce4bh012rcd13ifvqd00","pricing_plan_id":"free"},{"bike_id":"cc1e8417-6292-4c24-a7b3-741e3930da8c","system_id":"levelo_inurba_marseille","lat":43.291994,"lon":5.392907,"is_reserved":false,"is_disabled":false,"rental_uris":{"android":"levelo://app?vid=cc1e8417-6292-4c24-a7b3-741e3930da8c","ios":"levelo://app?vid=cc1e8417-6292-4c24-a7b3-741e3930da8c"},"vehicle_type_id":"4","last_reported":1691510880,"current_range_meters":16000,"station_id":"ce4bh192rcd13ifvqdd0","pricing_plan_id":"free"},{"bike_id":"23a254f8-7512-4c66-bfd5-6ab9c409ef75","system_id":"levelo_inurba_marseille","lat":43.273613,"lon":5.362705,"is_reserved":false,"is_disabled":false,"rental_uris":{"android":"levelo://app?vid=23a254f8-7512-4c66-bfd5-6ab9c409ef75","ios":"levelo://app?vid=23a254f8-7512-4c66-bfd5-6ab9c409ef75"},"vehicle_type_id":"4","last_reported":1691510880,"current_range_meters":3200,"station_id":"ce4bhbh2rcd13ifvqeo0","pricing_plan_id":"free"},{"bike_id":"441700a4-2000-4a36-b415-0a2f13263e2e","system_id":"levelo_inurba_marseille","lat":43.28619,"lon":5.35109,"is_reserved":false,"is_disabled":false,"rental_uris":{"android":"levelo://app?vid=441700a4-2000-4a36-b415-0a2f13263e2e","ios":"levelo://app?vid=441700a4-2000-4a36-b415-0a2f13263e2e"},"vehicle_type_id":"4","last_reported":1691510880,"current_range_meters":7200,"station_id":"ce4bhch2rcd13ifvqeug","pricing_plan_id":"free"},{"bike_id":"5915258c-7edb-454a-bd23-1de038861b50","system_id":"levelo_inurba_marseille","lat":43.285848,"lon":5.350787,"is_reserved":false,"is_disabled":false,"rental_uris":{"android":"levelo://app?vid=5915258c-7edb-454a-bd23-1de038861b50","ios":"levelo://app?vid=5915258c-7edb-454a-bd23-1de038861b50"},"vehicle_type_id":"4","last_reported":1691510880,"current_range_meters":17200,"station_id":"ce4bhch2rcd13ifvqeug","pricing_plan_id":"free"},{"bike_id":"833ee32a-478c-4508-98e6-f86cd13ae1db","system_id":"levelo_inurba_marseille","lat":43.2862,"lon":5.35102,"is_reserved":false,"is_disabled":false,"rental_uris":{"android":"levelo://app?vid=833ee32a-478c-4508-98e6-f86cd13ae1db","ios":"levelo://app?vid=833ee32a-478c-4508-98e6-f86cd13ae1db"},"vehicle_type_id":"4","last_reported":1691510880,"current_range_meters":400,"station_id":"ce4bhch2rcd13ifvqeug","pricing_plan_id":"free"},{"bike_id":"18956428-c292-4a32-9953-bf2017bcc782","system_id":"levelo_inurba_marseille","lat":43.28617,"lon":5.35108,"is_reserved":false,"is_disabled":false,"rental_uris":{"android":"levelo://app?vid=18956428-c292-4a32-9953-bf2017bcc782","ios":"levelo://app?vid=18956428-c292-4a32-9953-bf2017bcc782"},"vehicle_type_id":"4","last_reported":1691510880,"current_range_meters":0,"station_id":"ce4bhch2rcd13ifvqeug","pricing_plan_id":"free"},{"bike_id":"a20779c5-91d3-4ee3-aa08-c68787fa6dd4","system_id":"levelo_inurba_marseille","lat":43.28616,"lon":5.35108,"is_reserved":false,"is_disabled":false,"rental_uris":{"android":"levelo://app?vid=a20779c5-91d3-4ee3-aa08-c68787fa6dd4","ios":"levelo://app?vid=a20779c5-91d3-4ee3-aa08-c68787fa6dd4"},"vehicle_type_id":"4","last_reported":1691510880,"current_range_meters":4000,"station_id":"ce4bhch2rcd13ifvqeug","pricing_plan_id":"free"},{"bike_id":"9a095bbd-9d90-474c-941f-6e5ded0f6318","system_id":"levelo_inurba_marseille","lat":43.286171,"lon":5.351029,"is_reserved":false,"is_disabled":false,"rental_uris":{"android":"levelo://app?vid=9a095bbd-9d90-474c-941f-6e5ded0f6318","ios":"levelo://app?vid=9a095bbd-9d90-474c-941f-6e5ded0f6318"},"vehicle_type_id":"4","last_reported":1691510880,"current_range_meters":9600,"station_id":"ce4bhch2rcd13ifvqeug","pricing_plan_id":"free"},{"bike_id":"fc442530-1988-4bb7-a72c-4b11038e8dd3","system_id":"levelo_inurba_marseille","lat":43.28617,"lon":5.35102,"is_reserved":false,"is_disabled":false,"rental_uris":{"android":"levelo://app?vid=fc442530-1988-4bb7-a72c-4b11038e8dd3","ios":"levelo://app?vid=fc442530-1988-4bb7-a72c-4b11038e8dd3"},"vehicle_type_id":"4","last_reported":1691510880,"current_range_meters":800,"station_id":"ce4bhch2rcd13ifvqeug","pricing_plan_id":"free"},{"bike_id":"809bfedc-7b9b-4336-a720-335c2a9924df","system_id":"levelo_inurba_marseille","lat":43.28615,"lon":5.35107,"is_reserved":false,"is_disabled":false,"rental_uris":{"android":"levelo://app?vid=809bfedc-7b9b-4336-a720-335c2a9924df","ios":"levelo://app?vid=809bfedc-7b9b-4336-a720-335c2a9924df"},"vehicle_type_id":"4","last_reported":1691510880,"current_range_meters":25600,"station_id":"ce4bhch2rcd13ifvqeug","pricing_plan_id":"free"},{"bike_id":"8444f8a5-47d1-44e6-a6fd-5dd842ccb651","system_id":"levelo_inurba_marseille","lat":43.286188,"lon":5.350925,"is_reserved":false,"is_disabled":false,"rental_uris":{"android":"levelo://app?vid=8444f8a5-47d1-44e6-a6fd-5dd842ccb651","ios":"levelo://app?vid=8444f8a5-47d1-44e6-a6fd-5dd842ccb651"},"vehicle_type_id":"4","last_reported":1691510880,"current_range_meters":5200,"station_id":"ce4bhch2rcd13ifvqeug","pricing_plan_id":"free"},{"bike_id":"09b9b973-ef1f-4e13-830e-7c22c0720f1f","system_id":"levelo_inurba_marseille","lat":43.285856,"lon":5.350771,"is_reserved":false,"is_disabled":false,"rental_uris":{"android":"levelo://app?vid=09b9b973-ef1f-4e13-830e-7c22c0720f1f","ios":"levelo://app?vid=09b9b973-ef1f-4e13-830e-7c22c0720f1f"},"vehicle_type_id":"4","last_reported":1691510880,"current_range_meters":23600,"station_id":"ce4bhch2rcd13ifvqeug","pricing_plan_id":"free"},{"bike_id":"d30e1d26-297f-41ba-9bef-be660ce95ade","system_id":"levelo_inurba_marseille","lat":43.285856,"lon":5.350771,"is_reserved":false,"is_disabled":false,"rental_uris":{"android":"levelo://app?vid=d30e1d26-297f-41ba-9bef-be660ce95ade","ios":"levelo://app?vid=d30e1d26-297f-41ba-9bef-be660ce95ade"},"vehicle_type_id":"4","last_reported":1691510880,"current_range_meters":25600,"station_id":"ce4bhch2rcd13ifvqeug","pricing_plan_id":"free"},{"bike_id":"3d745fa1-6da8-4a7b-ae53-3808a0db4c88","system_id":"levelo_inurba_marseille","lat":43.295713,"lon":5.399639,"is_reserved":false,"is_disabled":false,"rental_uris":{"android":"levelo://app?vid=3d745fa1-6da8-4a7b-ae53-3808a0db4c88","ios":"levelo://app?vid=3d745fa1-6da8-4a7b-ae53-3808a0db4c88"},"vehicle_type_id":"4","last_reported":1691510880,"current_range_meters":10000,"station_id":"ce4bh312rcd13ifvqdj0","pricing_plan_id":"free"},{"bike_id":"79d7ef4c-98bf-415f-a155-3aede6cb11b8","system_id":"levelo_inurba_marseille","lat":43.28584,"lon":5.3508,"is_reserved":false,"is_disabled":false,"rental_uris":{"android":"levelo://app?vid=79d7ef4c-98bf-415f-a155-3aede6cb11b8","ios":"levelo://app?vid=79d7ef4c-98bf-415f-a155-3aede6cb11b8"},"vehicle_type_id":"4","last_reported":1691510880,"current_range_meters":22400,"station_id":"ce4bhch2rcd13ifvqeug","pricing_plan_id":"free"},{"bike_id":"23ad29f9-0834-4b51-981a-09ba96aece55","system_id":"levelo_inurba_marseille","lat":43.283998,"lon":5.375062,"is_reserved":false,"is_disabled":false,"rental_uris":{"android":"levelo://app?vid=23ad29f9-0834-4b51-981a-09ba96aece55","ios":"levelo://app?vid=23ad29f9-0834-4b51-981a-09ba96aece55"},"vehicle_type_id":"4","last_reported":1691510880,"current_range_meters":6800,"station_id":"ce4bh412rcd13ifvqds0","pricing_plan_id":"free"},{"bike_id":"a2d411ea-9e8b-4406-adcc-115f843627b4","system_id":"levelo_inurba_marseille","lat":43.28681,"lon":5.38668,"is_reserved":false,"is_disabled":false,"rental_uris":{"android":"levelo://app?vid=a2d411ea-9e8b-4406-adcc-115f843627b4","ios":"levelo://app?vid=a2d411ea-9e8b-4406-adcc-115f843627b4"},"vehicle_type_id":"4","last_reported":1691510880,"current_range_meters":1600,"station_id":"ce4bh492rcd13ifvqdug","pricing_plan_id":"free"},{"bike_id":"a53d0dc1-f8d8-4f25-a2ff-386b74aa560b","system_id":"levelo_inurba_marseille","lat":43.319179,"lon":5.407725,"is_reserved":false,"is_disabled":false,"rental_uris":{"android":"levelo://app?vid=a53d0dc1-f8d8-4f25-a2ff-386b74aa560b","ios":"levelo://app?vid=a53d0dc1-f8d8-4f25-a2ff-386b74aa560b"},"vehicle_type_id":"4","last_reported":1691510880,"current_range_meters":31200,"station_id":"ce4bhq12rcd13ifvqhig","pricing_plan_id":"free"},{"bike_id":"431a4639-6e70-49b0-8915-7f9a56597d1b","system_id":"levelo_inurba_marseille","lat":43.28488,"lon":5.35088,"is_reserved":false,"is_disabled":false,"rental_uris":{"android":"levelo://app?vid=431a4639-6e70-49b0-8915-7f9a56597d1b","ios":"levelo://app?vid=431a4639-6e70-49b0-8915-7f9a56597d1b"},"vehicle_type_id":"4","last_reported":1691510880,"current_range_meters":8400,"station_id":"","pricing_plan_id":"free"},{"bike_id":"8707f0fc-997d-4738-a0f3-27188f9c818e","system_id":"levelo_inurba_marseille","lat":43.33718,"lon":5.39179,"is_reserved":false,"is_disabled":false,"rental_uris":{"android":"levelo://app?vid=8707f0fc-997d-4738-a0f3-27188f9c818e","ios":"levelo://app?vid=8707f0fc-997d-4738-a0f3-27188f9c818e"},"vehicle_type_id":"4","last_reported":1691510880,"current_range_meters":23600,"station_id":"ce4bhr92rcd13ifvqhsg","pricing_plan_id":"free"},{"bike_id":"baaca672-c198-461c-ba32-114a8a294884","system_id":"levelo_inurba_marseille","lat":43.33721,"lon":5.39182,"is_reserved":false,"is_disabled":false,"rental_uris":{"android":"levelo://app?vid=baaca672-c198-461c-ba32-114a8a294884","ios":"levelo://app?vid=baaca672-c198-461c-ba32-114a8a294884"},"vehicle_type_id":"4","last_reported":1691510880,"current_range_meters":30000,"station_id":"ce4bhr92rcd13ifvqhsg","pricing_plan_id":"free"},{"bike_id":"f9553fab-da8a-40f6-ac75-eac9a93c1399","system_id":"levelo_inurba_marseille","lat":43.33717,"lon":5.391857,"is_reserved":false,"is_disabled":false,"rental_uris":{"android":"levelo://app?vid=f9553fab-da8a-40f6-ac75-eac9a93c1399","ios":"levelo://app?vid=f9553fab-da8a-40f6-ac75-eac9a93c1399"},"vehicle_type_id":"4","last_reported":1691510880,"current_range_meters":21200,"station_id":"ce4bhr92rcd13ifvqhsg","pricing_plan_id":"free"},{"bike_id":"15518f39-2b67-4c0f-aad2-6446e2eeaf3e","system_id":"levelo_inurba_marseille","lat":43.337168,"lon":5.391825,"is_reserved":false,"is_disabled":false,"rental_uris":{"android":"levelo://app?vid=15518f39-2b67-4c0f-aad2-6446e2eeaf3e","ios":"levelo://app?vid=15518f39-2b67-4c0f-aad2-6446e2eeaf3e"},"vehicle_type_id":"4","last_reported":1691510880,"current_range_meters":29200,"station_id":"ce4bhr92rcd13ifvqhsg","pricing_plan_id":"free"},{"bike_id":"8ffd9567-7128-4da5-a784-2961d58d75f5","system_id":"levelo_inurba_marseille","lat":43.337168,"lon":5.391825,"is_reserved":false,"is_disabled":false,"rental_uris":{"android":"levelo://app?vid=8ffd9567-7128-4da5-a784-2961d58d75f5","ios":"levelo://app?vid=8ffd9567-7128-4da5-a784-2961d58d75f5"},"vehicle_type_id":"4","last_reported":1691510880,"current_range_meters":31200,"station_id":"ce4bhr92rcd13ifvqhsg","pricing_plan_id":"free"},{"bike_id":"97a394ec-e660-4002-9d91-d48757edad25","system_id":"levelo_inurba_marseille","lat":43.337168,"lon":5.391825,"is_reserved":false,"is_disabled":false,"rental_uris":{"android":"levelo://app?vid=97a394ec-e660-4002-9d91-d48757edad25","ios":"levelo://app?vid=97a394ec-e660-4002-9d91-d48757edad25"},"vehicle_type_id":"4","last_reported":1691510880,"current_range_meters":28800,"station_id":"ce4bhr92rcd13ifvqhsg","pricing_plan_id":"free"},{"bike_id":"4e4c076c-5e9e-4892-8ee0-387ffc04227f","system_id":"levelo_inurba_marseille","lat":43.323464,"lon":5.406297,"is_reserved":false,"is_disabled":false,"rental_uris":{"android":"levelo://app?vid=4e4c076c-5e9e-4892-8ee0-387ffc04227f","ios":"levelo://app?vid=4e4c076c-5e9e-4892-8ee0-387ffc04227f"},"vehicle_type_id":"4","last_reported":1691510880,"current_range_meters":14000,"station_id":"ce4bhq92rcd13ifvqhjg","pricing_plan_id":"free"},{"bike_id":"93b3c431-4b8e-4a6c-aad9-d6499ab6407b","system_id":"levelo_inurba_marseille","lat":43.323464,"lon":5.406297,"is_reserved":false,"is_disabled":false,"rental_uris":{"android":"levelo://app?vid=93b3c431-4b8e-4a6c-aad9-d6499ab6407b","ios":"levelo://app?vid=93b3c431-4b8e-4a6c-aad9-d6499ab6407b"},"vehicle_type_id":"4","last_reported":1691510880,"current_range_meters":32000,"station_id":"ce4bhq92rcd13ifvqhjg","pricing_plan_id":"free"},{"bike_id":"c1c36742-594e-4942-8b1b-16f98a15fa5e","system_id":"levelo_inurba_marseille","lat":43.323464,"lon":5.406297,"is_reserved":false,"is_disabled":false,"rental_uris":{"android":"levelo://app?vid=c1c36742-594e-4942-8b1b-16f98a15fa5e","ios":"levelo://app?vid=c1c36742-594e-4942-8b1b-16f98a15fa5e"},"vehicle_type_id":"4","last_reported":1691510880,"current_range_meters":32000,"station_id":"ce4bhq92rcd13ifvqhjg","pricing_plan_id":"free"},{"bike_id":"60c31993-7763-4bbd-b480-d4fb2d2a8ca2","system_id":"levelo_inurba_marseille","lat":43.323464,"lon":5.406297,"is_reserved":false,"is_disabled":false,"rental_uris":{"android":"levelo://app?vid=60c31993-7763-4bbd-b480-d4fb2d2a8ca2","ios":"levelo://app?vid=60c31993-7763-4bbd-b480-d4fb2d2a8ca2"},"vehicle_type_id":"4","last_reported":1691510880,"current_range_meters":19600,"station_id":"ce4bhq92rcd13ifvqhjg","pricing_plan_id":"free"},{"bike_id":"9e8e53b5-93b7-49de-a9a5-ac7e6fb1156e","system_id":"levelo_inurba_marseille","lat":43.323464,"lon":5.406297,"is_reserved":false,"is_disabled":false,"rental_uris":{"android":"levelo://app?vid=9e8e53b5-93b7-49de-a9a5-ac7e6fb1156e","ios":"levelo://app?vid=9e8e53b5-93b7-49de-a9a5-ac7e6fb1156e"},"vehicle_type_id":"4","last_reported":1691510880,"current_range_meters":31600,"station_id":"ce4bhq92rcd13ifvqhjg","pricing_plan_id":"free"},{"bike_id":"8f35e9f7-f97b-43b9-85de-fbf6c27e17d7","system_id":"levelo_inurba_marseille","lat":43.284219,"lon":5.3497,"is_reserved":false,"is_disabled":false,"rental_uris":{"android":"levelo://app?vid=8f35e9f7-f97b-43b9-85de-fbf6c27e17d7","ios":"levelo://app?vid=8f35e9f7-f97b-43b9-85de-fbf6c27e17d7"},"vehicle_type_id":"4","last_reported":1691510880,"current_range_meters":25600,"station_id":"ce4bhbh2rcd13ifvqepg","pricing_plan_id":"free"},{"bike_id":"b90ac57c-d5db-4969-b1cc-331142cd5f94","system_id":"levelo_inurba_marseille","lat":43.284219,"lon":5.3497,"is_reserved":false,"is_disabled":false,"rental_uris":{"android":"levelo://app?vid=b90ac57c-d5db-4969-b1cc-331142cd5f94","ios":"levelo://app?vid=b90ac57c-d5db-4969-b1cc-331142cd5f94"},"vehicle_type_id":"4","last_reported":1691510880,"current_range_meters":31600,"station_id":"ce4bhbh2rcd13ifvqepg","pricing_plan_id":"free"},{"bike_id":"aa41b14c-3132-4a9a-8ea6-f26970858e4f","system_id":"levelo_inurba_marseille","lat":43.284219,"lon":5.3497,"is_reserved":false,"is_disabled":false,"rental_uris":{"android":"levelo://app?vid=aa41b14c-3132-4a9a-8ea6-f26970858e4f","ios":"levelo://app?vid=aa41b14c-3132-4a9a-8ea6-f26970858e4f"},"vehicle_type_id":"4","last_reported":1691510880,"current_range_meters":31600,"station_id":"ce4bhbh2rcd13ifvqepg","pricing_plan_id":"free"},{"bike_id":"58498f54-2cfa-480a-989d-436e22f3a8b4","system_id":"levelo_inurba_marseille","lat":43.284219,"lon":5.3497,"is_reserved":false,"is_disabled":false,"rental_uris":{"android":"levelo://app?vid=58498f54-2cfa-480a-989d-436e22f3a8b4","ios":"levelo://app?vid=58498f54-2cfa-480a-989d-436e22f3a8b4"},"vehicle_type_id":"4","last_reported":1691510880,"current_range_meters":8800,"station_id":"ce4bhbh2rcd13ifvqepg","pricing_plan_id":"free"},{"bike_id":"5353e138-8ba2-422f-b140-f62427a50ad5","system_id":"levelo_inurba_marseille","lat":43.284219,"lon":5.3497,"is_reserved":false,"is_disabled":false,"rental_uris":{"android":"levelo://app?vid=5353e138-8ba2-422f-b140-f62427a50ad5","ios":"levelo://app?vid=5353e138-8ba2-422f-b140-f62427a50ad5"},"vehicle_type_id":"4","last_reported":1691510880,"current_range_meters":15200,"station_id":"ce4bhbh2rcd13ifvqepg","pricing_plan_id":"free"},{"bike_id":"374a21d1-ab83-4f60-8472-5ad20d459de6","system_id":"levelo_inurba_marseille","lat":43.284219,"lon":5.3497,"is_reserved":false,"is_disabled":false,"rental_uris":{"android":"levelo://app?vid=374a21d1-ab83-4f60-8472-5ad20d459de6","ios":"levelo://app?vid=374a21d1-ab83-4f60-8472-5ad20d459de6"},"vehicle_type_id":"4","last_reported":1691510880,"current_range_meters":14400,"station_id":"ce4bhbh2rcd13ifvqepg","pricing_plan_id":"free"},{"bike_id":"d97ddfd2-316a-4854-9d0f-9e5eee0248a8","system_id":"levelo_inurba_marseille","lat":43.284219,"lon":5.3497,"is_reserved":false,"is_disabled":false,"rental_uris":{"android":"levelo://app?vid=d97ddfd2-316a-4854-9d0f-9e5eee0248a8","ios":"levelo://app?vid=d97ddfd2-316a-4854-9d0f-9e5eee0248a8"},"vehicle_type_id":"4","last_reported":1691510880,"current_range_meters":31600,"station_id":"ce4bhbh2rcd13ifvqepg","pricing_plan_id":"free"},{"bike_id":"83bb3743-33fc-47c3-83ad-1c7ea1cfc2df","system_id":"levelo_inurba_marseille","lat":43.28421,"lon":5.34991,"is_reserved":false,"is_disabled":false,"rental_uris":{"android":"levelo://app?vid=83bb3743-33fc-47c3-83ad-1c7ea1cfc2df","ios":"levelo://app?vid=83bb3743-33fc-47c3-83ad-1c7ea1cfc2df"},"vehicle_type_id":"4","last_reported":1691510880,"current_range_meters":31200,"station_id":"ce4bhbh2rcd13ifvqepg","pricing_plan_id":"free"},{"bike_id":"b4e8a73b-0b95-4f6e-b4b4-fcc78a0c26a8","system_id":"levelo_inurba_marseille","lat":43.284219,"lon":5.3497,"is_reserved":false,"is_disabled":false,"rental_uris":{"android":"levelo://app?vid=b4e8a73b-0b95-4f6e-b4b4-fcc78a0c26a8","ios":"levelo://app?vid=b4e8a73b-0b95-4f6e-b4b4-fcc78a0c26a8"},"vehicle_type_id":"4","last_reported":1691510880,"current_range_meters":31600,"station_id":"ce4bhbh2rcd13ifvqepg","pricing_plan_id":"free"},{"bike_id":"25e61974-e6de-4e8a-a3c8-afaa9b21cd37","system_id":"levelo_inurba_marseille","lat":43.284219,"lon":5.3497,"is_reserved":false,"is_disabled":false,"rental_uris":{"android":"levelo://app?vid=25e61974-e6de-4e8a-a3c8-afaa9b21cd37","ios":"levelo://app?vid=25e61974-e6de-4e8a-a3c8-afaa9b21cd37"},"vehicle_type_id":"4","last_reported":1691510880,"current_range_meters":31600,"station_id":"ce4bhbh2rcd13ifvqepg","pricing_plan_id":"free"},{"bike_id":"2e513311-9e18-4c34-bf90-784ee549f30c","system_id":"levelo_inurba_marseille","lat":43.284219,"lon":5.3497,"is_reserved":false,"is_disabled":false,"rental_uris":{"android":"levelo://app?vid=2e513311-9e18-4c34-bf90-784ee549f30c","ios":"levelo://app?vid=2e513311-9e18-4c34-bf90-784ee549f30c"},"vehicle_type_id":"4","last_reported":1691510880,"current_range_meters":23600,"station_id":"ce4bhbh2rcd13ifvqepg","pricing_plan_id":"free"},{"bike_id":"27e5460c-913c-40f4-9f1a-9cbd9c30dfe4","system_id":"levelo_inurba_marseille","lat":43.28417,"lon":5.34996,"is_reserved":false,"is_disabled":false,"rental_uris":{"android":"levelo://app?vid=27e5460c-913c-40f4-9f1a-9cbd9c30dfe4","ios":"levelo://app?vid=27e5460c-913c-40f4-9f1a-9cbd9c30dfe4"},"vehicle_type_id":"4","last_reported":1691510880,"current_range_meters":31200,"station_id":"ce4bhbh2rcd13ifvqepg","pricing_plan_id":"free"},{"bike_id":"f9ec3251-92ed-401c-b8ab-0a27e57b8677","system_id":"levelo_inurba_marseille","lat":43.28417,"lon":5.34995,"is_reserved":false,"is_disabled":false,"rental_uris":{"android":"levelo://app?vid=f9ec3251-92ed-401c-b8ab-0a27e57b8677","ios":"levelo://app?vid=f9ec3251-92ed-401c-b8ab-0a27e57b8677"},"vehicle_type_id":"4","last_reported":1691510880,"current_range_meters":30000,"station_id":"ce4bhbh2rcd13ifvqepg","pricing_plan_id":"free"},{"bike_id":"9fc02061-3c39-4412-8099-9cd347ad712b","system_id":"levelo_inurba_marseille","lat":43.284219,"lon":5.3497,"is_reserved":false,"is_disabled":false,"rental_uris":{"android":"levelo://app?vid=9fc02061-3c39-4412-8099-9cd347ad712b","ios":"levelo://app?vid=9fc02061-3c39-4412-8099-9cd347ad712b"},"vehicle_type_id":"4","last_reported":1691510880,"current_range_meters":25600,"station_id":"ce4bhbh2rcd13ifvqepg","pricing_plan_id":"free"},{"bike_id":"1cf2202a-5a9b-463d-9563-504f2fec6642","system_id":"levelo_inurba_marseille","lat":43.284219,"lon":5.3497,"is_reserved":false,"is_disabled":false,"rental_uris":{"android":"levelo://app?vid=1cf2202a-5a9b-463d-9563-504f2fec6642","ios":"levelo://app?vid=1cf2202a-5a9b-463d-9563-504f2fec6642"},"vehicle_type_id":"4","last_reported":1691510880,"current_range_meters":30000,"station_id":"ce4bhbh2rcd13ifvqepg","pricing_plan_id":"free"},{"bike_id":"68af4c20-2e2a-4fad-8f69-44e6b216adcb","system_id":"levelo_inurba_marseille","lat":43.284219,"lon":5.3497,"is_reserved":false,"is_disabled":false,"rental_uris":{"android":"levelo://app?vid=68af4c20-2e2a-4fad-8f69-44e6b216adcb","ios":"levelo://app?vid=68af4c20-2e2a-4fad-8f69-44e6b216adcb"},"vehicle_type_id":"4","last_reported":1691510880,"current_range_meters":5600,"station_id":"ce4bhbh2rcd13ifvqepg","pricing_plan_id":"free"},{"bike_id":"50b68251-fd9f-4f89-95b8-a2eee3548fb7","system_id":"levelo_inurba_marseille","lat":43.28413,"lon":5.34987,"is_reserved":false,"is_disabled":false,"rental_uris":{"android":"levelo://app?vid=50b68251-fd9f-4f89-95b8-a2eee3548fb7","ios":"levelo://app?vid=50b68251-fd9f-4f89-95b8-a2eee3548fb7"},"vehicle_type_id":"4","last_reported":1691510880,"current_range_meters":25600,"station_id":"ce4bhbh2rcd13ifvqepg","pricing_plan_id":"free"},{"bike_id":"647746bf-5985-40bc-b92b-3d30ef2881da","system_id":"levelo_inurba_marseille","lat":43.28411,"lon":5.3499,"is_reserved":false,"is_disabled":false,"rental_uris":{"android":"levelo://app?vid=647746bf-5985-40bc-b92b-3d30ef2881da","ios":"levelo://app?vid=647746bf-5985-40bc-b92b-3d30ef2881da"},"vehicle_type_id":"4","last_reported":1691510880,"current_range_meters":31200,"station_id":"ce4bhbh2rcd13ifvqepg","pricing_plan_id":"free"},{"bike_id":"f353bbfe-5758-4138-8896-9fa268e8bb0f","system_id":"levelo_inurba_marseille","lat":43.273613,"lon":5.362705,"is_reserved":false,"is_disabled":false,"rental_uris":{"android":"levelo://app?vid=f353bbfe-5758-4138-8896-9fa268e8bb0f","ios":"levelo://app?vid=f353bbfe-5758-4138-8896-9fa268e8bb0f"},"vehicle_type_id":"4","last_reported":1691510880,"current_range_meters":1600,"station_id":"ce4bhbh2rcd13ifvqeo0","pricing_plan_id":"free"},{"bike_id":"0f0d1eb6-de80-417e-9e16-a85be8e2285b","system_id":"levelo_inurba_marseille","lat":43.292724,"lon":5.401131,"is_reserved":false,"is_disabled":false,"rental_uris":{"android":"levelo://app?vid=0f0d1eb6-de80-417e-9e16-a85be8e2285b","ios":"levelo://app?vid=0f0d1eb6-de80-417e-9e16-a85be8e2285b"},"vehicle_type_id":"4","last_reported":1691510880,"current_range_meters":14000,"station_id":"ce4bh312rcd13ifvqdk0","pricing_plan_id":"free"},{"bike_id":"42029131-c263-4453-b4e8-312933a54f3e","system_id":"levelo_inurba_marseille","lat":43.292724,"lon":5.401131,"is_reserved":false,"is_disabled":false,"rental_uris":{"android":"levelo://app?vid=42029131-c263-4453-b4e8-312933a54f3e","ios":"levelo://app?vid=42029131-c263-4453-b4e8-312933a54f3e"},"vehicle_type_id":"4","last_reported":1691510880,"current_range_meters":13600,"station_id":"ce4bh312rcd13ifvqdk0","pricing_plan_id":"free"},{"bike_id":"5f7d108f-d74e-420a-a668-627f512bf00a","system_id":"levelo_inurba_marseille","lat":43.28277,"lon":5.35083,"is_reserved":false,"is_disabled":false,"rental_uris":{"android":"levelo://app?vid=5f7d108f-d74e-420a-a668-627f512bf00a","ios":"levelo://app?vid=5f7d108f-d74e-420a-a668-627f512bf00a"},"vehicle_type_id":"4","last_reported":1691510880,"current_range_meters":31200,"station_id":"ce4bhbp2rcd13ifvqerg","pricing_plan_id":"free"},{"bike_id":"f45c6fe5-9641-478a-91e1-dee558cc501e","system_id":"levelo_inurba_marseille","lat":43.28278,"lon":5.35073,"is_reserved":false,"is_disabled":false,"rental_uris":{"android":"levelo://app?vid=f45c6fe5-9641-478a-91e1-dee558cc501e","ios":"levelo://app?vid=f45c6fe5-9641-478a-91e1-dee558cc501e"},"vehicle_type_id":"4","last_reported":1691510880,"current_range_meters":31200,"station_id":"ce4bhbp2rcd13ifvqerg","pricing_plan_id":"free"},{"bike_id":"b0cd3f6d-ea0e-47b3-a13e-02f61b262837","system_id":"levelo_inurba_marseille","lat":43.282754,"lon":5.350519,"is_reserved":false,"is_disabled":false,"rental_uris":{"android":"levelo://app?vid=b0cd3f6d-ea0e-47b3-a13e-02f61b262837","ios":"levelo://app?vid=b0cd3f6d-ea0e-47b3-a13e-02f61b262837"},"vehicle_type_id":"4","last_reported":1691510880,"current_range_meters":31200,"station_id":"ce4bhbp2rcd13ifvqerg","pricing_plan_id":"free"},{"bike_id":"6d0d1594-03a0-4c7a-94b7-1538e37af7f7","system_id":"levelo_inurba_marseille","lat":43.282754,"lon":5.350519,"is_reserved":false,"is_disabled":false,"rental_uris":{"android":"levelo://app?vid=6d0d1594-03a0-4c7a-94b7-1538e37af7f7","ios":"levelo://app?vid=6d0d1594-03a0-4c7a-94b7-1538e37af7f7"},"vehicle_type_id":"4","last_reported":1691510880,"current_range_meters":24800,"station_id":"ce4bhbp2rcd13ifvqerg","pricing_plan_id":"free"},{"bike_id":"00cb8cf2-1603-4cdf-95a4-899533afdc43","system_id":"levelo_inurba_marseille","lat":43.28275,"lon":5.3507,"is_reserved":false,"is_disabled":false,"rental_uris":{"android":"levelo://app?vid=00cb8cf2-1603-4cdf-95a4-899533afdc43","ios":"levelo://app?vid=00cb8cf2-1603-4cdf-95a4-899533afdc43"},"vehicle_type_id":"4","last_reported":1691510880,"current_range_meters":31200,"station_id":"ce4bhbp2rcd13ifvqerg","pricing_plan_id":"free"},{"bike_id":"7395bb7f-2b56-4502-9f99-0018ff10831f","system_id":"levelo_inurba_marseille","lat":43.28276,"lon":5.35065,"is_reserved":false,"is_disabled":false,"rental_uris":{"android":"levelo://app?vid=7395bb7f-2b56-4502-9f99-0018ff10831f","ios":"levelo://app?vid=7395bb7f-2b56-4502-9f99-0018ff10831f"},"vehicle_type_id":"4","last_reported":1691510880,"current_range_meters":26400,"station_id":"ce4bhbp2rcd13ifvqerg","pricing_plan_id":"free"},{"bike_id":"0413081b-b0c0-4a1e-a3e4-860fef1c57ba","system_id":"levelo_inurba_marseille","lat":43.282754,"lon":5.350519,"is_reserved":false,"is_disabled":false,"rental_uris":{"android":"levelo://app?vid=0413081b-b0c0-4a1e-a3e4-860fef1c57ba","ios":"levelo://app?vid=0413081b-b0c0-4a1e-a3e4-860fef1c57ba"},"vehicle_type_id":"4","last_reported":1691510880,"current_range_meters":32000,"station_id":"ce4bhbp2rcd13ifvqerg","pricing_plan_id":"free"},{"bike_id":"bfc48b89-ec8a-45ec-8ae4-936b1286f126","system_id":"levelo_inurba_marseille","lat":43.28274,"lon":5.35069,"is_reserved":false,"is_disabled":false,"rental_uris":{"android":"levelo://app?vid=bfc48b89-ec8a-45ec-8ae4-936b1286f126","ios":"levelo://app?vid=bfc48b89-ec8a-45ec-8ae4-936b1286f126"},"vehicle_type_id":"4","last_reported":1691510880,"current_range_meters":20800,"station_id":"ce4bhbp2rcd13ifvqerg","pricing_plan_id":"free"},{"bike_id":"1c02972c-a491-4204-9527-41d3bc6bbf6f","system_id":"levelo_inurba_marseille","lat":43.28274,"lon":5.35069,"is_reserved":false,"is_disabled":false,"rental_uris":{"android":"levelo://app?vid=1c02972c-a491-4204-9527-41d3bc6bbf6f","ios":"levelo://app?vid=1c02972c-a491-4204-9527-41d3bc6bbf6f"},"vehicle_type_id":"4","last_reported":1691510880,"current_range_meters":23200,"station_id":"ce4bhbp2rcd13ifvqerg","pricing_plan_id":"free"},{"bike_id":"44d44c87-db99-4cd0-9ade-acddd2c970e6","system_id":"levelo_inurba_marseille","lat":43.28274,"lon":5.35068,"is_reserved":false,"is_disabled":false,"rental_uris":{"android":"levelo://app?vid=44d44c87-db99-4cd0-9ade-acddd2c970e6","ios":"levelo://app?vid=44d44c87-db99-4cd0-9ade-acddd2c970e6"},"vehicle_type_id":"4","last_reported":1691510880,"current_range_meters":31200,"station_id":"ce4bhbp2rcd13ifvqerg","pricing_plan_id":"free"},{"bike_id":"81865627-afc1-4f5e-9a4b-d6c4a9ea9355","system_id":"levelo_inurba_marseille","lat":43.282754,"lon":5.350519,"is_reserved":false,"is_disabled":false,"rental_uris":{"android":"levelo://app?vid=81865627-afc1-4f5e-9a4b-d6c4a9ea9355","ios":"levelo://app?vid=81865627-afc1-4f5e-9a4b-d6c4a9ea9355"},"vehicle_type_id":"4","last_reported":1691510880,"current_range_meters":32000,"station_id":"ce4bhbp2rcd13ifvqerg","pricing_plan_id":"free"},{"bike_id":"d622d8fd-809f-4b24-860d-014bcdb64038","system_id":"levelo_inurba_marseille","lat":43.283502,"lon":5.386471,"is_reserved":false,"is_disabled":false,"rental_uris":{"android":"levelo://app?vid=d622d8fd-809f-4b24-860d-014bcdb64038","ios":"levelo://app?vid=d622d8fd-809f-4b24-860d-014bcdb64038"},"vehicle_type_id":"4","last_reported":1691510880,"current_range_meters":30000,"station_id":"ce4bh492rcd13ifvqdvg","pricing_plan_id":"free"},{"bike_id":"3aca4e56-dcb5-4590-861d-d0f2d038f81a","system_id":"levelo_inurba_marseille","lat":43.28273,"lon":5.35064,"is_reserved":false,"is_disabled":false,"rental_uris":{"android":"levelo://app?vid=3aca4e56-dcb5-4590-861d-d0f2d038f81a","ios":"levelo://app?vid=3aca4e56-dcb5-4590-861d-d0f2d038f81a"},"vehicle_type_id":"4","last_reported":1691510880,"current_range_meters":31200,"station_id":"ce4bhbp2rcd13ifvqerg","pricing_plan_id":"free"},{"bike_id":"c8f11fcf-2538-4da3-98f9-de493bc02d91","system_id":"levelo_inurba_marseille","lat":43.28269,"lon":5.35076,"is_reserved":false,"is_disabled":false,"rental_uris":{"android":"levelo://app?vid=c8f11fcf-2538-4da3-98f9-de493bc02d91","ios":"levelo://app?vid=c8f11fcf-2538-4da3-98f9-de493bc02d91"},"vehicle_type_id":"4","last_reported":1691510880,"current_range_meters":27600,"station_id":"ce4bhbp2rcd13ifvqerg","pricing_plan_id":"free"},{"bike_id":"88940920-727e-47f8-bee6-24feedff1167","system_id":"levelo_inurba_marseille","lat":43.28269,"lon":5.35072,"is_reserved":false,"is_disabled":false,"rental_uris":{"android":"levelo://app?vid=88940920-727e-47f8-bee6-24feedff1167","ios":"levelo://app?vid=88940920-727e-47f8-bee6-24feedff1167"},"vehicle_type_id":"4","last_reported":1691510880,"current_range_meters":31200,"station_id":"ce4bhbp2rcd13ifvqerg","pricing_plan_id":"free"},{"bike_id":"64fbb987-e0b6-4fb4-b8ee-971c85493fa9","system_id":"levelo_inurba_marseille","lat":43.28271,"lon":5.35064,"is_reserved":false,"is_disabled":false,"rental_uris":{"android":"levelo://app?vid=64fbb987-e0b6-4fb4-b8ee-971c85493fa9","ios":"levelo://app?vid=64fbb987-e0b6-4fb4-b8ee-971c85493fa9"},"vehicle_type_id":"4","last_reported":1691510880,"current_range_meters":800,"station_id":"ce4bhbp2rcd13ifvqerg","pricing_plan_id":"free"},{"bike_id":"8ba43e3d-01d4-474c-968c-63974993bca3","system_id":"levelo_inurba_marseille","lat":43.28272,"lon":5.3506,"is_reserved":false,"is_disabled":false,"rental_uris":{"android":"levelo://app?vid=8ba43e3d-01d4-474c-968c-63974993bca3","ios":"levelo://app?vid=8ba43e3d-01d4-474c-968c-63974993bca3"},"vehicle_type_id":"4","last_reported":1691510880,"current_range_meters":10800,"station_id":"ce4bhbp2rcd13ifvqerg","pricing_plan_id":"free"},{"bike_id":"f84a0d7a-dfae-4000-9037-7ba65d29faf1","system_id":"levelo_inurba_marseille","lat":43.28271,"lon":5.35061,"is_reserved":false,"is_disabled":false,"rental_uris":{"android":"levelo://app?vid=f84a0d7a-dfae-4000-9037-7ba65d29faf1","ios":"levelo://app?vid=f84a0d7a-dfae-4000-9037-7ba65d29faf1"},"vehicle_type_id":"4","last_reported":1691510880,"current_range_meters":19600,"station_id":"ce4bhbp2rcd13ifvqerg","pricing_plan_id":"free"},{"bike_id":"18c2a1c9-916e-4e61-a44e-eb542b4ebd5e","system_id":"levelo_inurba_marseille","lat":43.282754,"lon":5.350519,"is_reserved":false,"is_disabled":false,"rental_uris":{"android":"levelo://app?vid=18c2a1c9-916e-4e61-a44e-eb542b4ebd5e","ios":"levelo://app?vid=18c2a1c9-916e-4e61-a44e-eb542b4ebd5e"},"vehicle_type_id":"4","last_reported":1691510880,"current_range_meters":26800,"station_id":"ce4bhbp2rcd13ifvqerg","pricing_plan_id":"free"},{"bike_id":"11e24875-2a64-4313-bd43-0a49db270726","system_id":"levelo_inurba_marseille","lat":43.28266,"lon":5.35075,"is_reserved":false,"is_disabled":false,"rental_uris":{"android":"levelo://app?vid=11e24875-2a64-4313-bd43-0a49db270726","ios":"levelo://app?vid=11e24875-2a64-4313-bd43-0a49db270726"},"vehicle_type_id":"4","last_reported":1691510880,"current_range_meters":26800,"station_id":"ce4bhbp2rcd13ifvqerg","pricing_plan_id":"free"},{"bike_id":"ee52a653-f713-4654-936a-30b1a2f523cc","system_id":"levelo_inurba_marseille","lat":43.28267,"lon":5.3507,"is_reserved":false,"is_disabled":false,"rental_uris":{"android":"levelo://app?vid=ee52a653-f713-4654-936a-30b1a2f523cc","ios":"levelo://app?vid=ee52a653-f713-4654-936a-30b1a2f523cc"},"vehicle_type_id":"4","last_reported":1691510880,"current_range_meters":11600,"station_id":"ce4bhbp2rcd13ifvqerg","pricing_plan_id":"free"},{"bike_id":"392fc3e5-277d-4f9a-b53b-11e339994ef9","system_id":"levelo_inurba_marseille","lat":43.28268,"lon":5.35059,"is_reserved":false,"is_disabled":false,"rental_uris":{"android":"levelo://app?vid=392fc3e5-277d-4f9a-b53b-11e339994ef9","ios":"levelo://app?vid=392fc3e5-277d-4f9a-b53b-11e339994ef9"},"vehicle_type_id":"4","last_reported":1691510880,"current_range_meters":7200,"station_id":"ce4bhbp2rcd13ifvqerg","pricing_plan_id":"free"},{"bike_id":"f9e8957e-e0be-44ef-98b2-f19733a05e66","system_id":"levelo_inurba_marseille","lat":43.28267,"lon":5.3506,"is_reserved":false,"is_disabled":false,"rental_uris":{"android":"levelo://app?vid=f9e8957e-e0be-44ef-98b2-f19733a05e66","ios":"levelo://app?vid=f9e8957e-e0be-44ef-98b2-f19733a05e66"},"vehicle_type_id":"4","last_reported":1691510880,"current_range_meters":20800,"station_id":"","pricing_plan_id":"free"},{"bike_id":"590530ad-1ba7-47cb-ab1b-b5db1c019f8d","system_id":"levelo_inurba_marseille","lat":43.282754,"lon":5.350519,"is_reserved":false,"is_disabled":false,"rental_uris":{"android":"levelo://app?vid=590530ad-1ba7-47cb-ab1b-b5db1c019f8d","ios":"levelo://app?vid=590530ad-1ba7-47cb-ab1b-b5db1c019f8d"},"vehicle_type_id":"4","last_reported":1691510880,"current_range_meters":23200,"station_id":"ce4bhbp2rcd13ifvqerg","pricing_plan_id":"free"},{"bike_id":"b9b29617-af0d-4a91-83f3-058cbbf73da2","system_id":"levelo_inurba_marseille","lat":43.29041,"lon":5.399634,"is_reserved":false,"is_disabled":false,"rental_uris":{"android":"levelo://app?vid=b9b29617-af0d-4a91-83f3-058cbbf73da2","ios":"levelo://app?vid=b9b29617-af0d-4a91-83f3-058cbbf73da2"},"vehicle_type_id":"4","last_reported":1691510880,"current_range_meters":16800,"station_id":"ce4bh392rcd13ifvqdm0","pricing_plan_id":"free"},{"bike_id":"6437a8f7-0298-459b-9489-816af7e5681b","system_id":"levelo_inurba_marseille","lat":43.290412,"lon":5.399633,"is_reserved":false,"is_disabled":false,"rental_uris":{"android":"levelo://app?vid=6437a8f7-0298-459b-9489-816af7e5681b","ios":"levelo://app?vid=6437a8f7-0298-459b-9489-816af7e5681b"},"vehicle_type_id":"4","last_reported":1691510880,"current_range_meters":0,"station_id":"ce4bh392rcd13ifvqdm0","pricing_plan_id":"free"},{"bike_id":"91808f32-1169-4943-9ae2-772537fbd68b","system_id":"levelo_inurba_marseille","lat":43.281045,"lon":5.3784,"is_reserved":false,"is_disabled":false,"rental_uris":{"android":"levelo://app?vid=91808f32-1169-4943-9ae2-772537fbd68b","ios":"levelo://app?vid=91808f32-1169-4943-9ae2-772537fbd68b"},"vehicle_type_id":"4","last_reported":1691510880,"current_range_meters":19600,"station_id":"ce4bha12rcd13ifvqee0","pricing_plan_id":"free"},{"bike_id":"45272d01-24ea-4aa9-b273-2b99566c4167","system_id":"levelo_inurba_marseille","lat":43.296263,"lon":5.40601,"is_reserved":false,"is_disabled":false,"rental_uris":{"android":"levelo://app?vid=45272d01-24ea-4aa9-b273-2b99566c4167","ios":"levelo://app?vid=45272d01-24ea-4aa9-b273-2b99566c4167"},"vehicle_type_id":"4","last_reported":1691510880,"current_range_meters":21200,"station_id":"ce4bh0h2rcd13ifvqd60","pricing_plan_id":"free"},{"bike_id":"cadea95e-35c7-46dc-86a5-076ec093bd5b","system_id":"levelo_inurba_marseille","lat":43.296263,"lon":5.40601,"is_reserved":false,"is_disabled":false,"rental_uris":{"android":"levelo://app?vid=cadea95e-35c7-46dc-86a5-076ec093bd5b","ios":"levelo://app?vid=cadea95e-35c7-46dc-86a5-076ec093bd5b"},"vehicle_type_id":"4","last_reported":1691510880,"current_range_meters":12800,"station_id":"ce4bh0h2rcd13ifvqd60","pricing_plan_id":"free"},{"bike_id":"b2d03303-d257-4e2b-b76b-9e58fccd9b4d","system_id":"levelo_inurba_marseille","lat":43.32632,"lon":5.40936,"is_reserved":false,"is_disabled":false,"rental_uris":{"android":"levelo://app?vid=b2d03303-d257-4e2b-b76b-9e58fccd9b4d","ios":"levelo://app?vid=b2d03303-d257-4e2b-b76b-9e58fccd9b4d"},"vehicle_type_id":"4","last_reported":1691510880,"current_range_meters":6000,"station_id":"","pricing_plan_id":"free"},{"bike_id":"02394896-47f6-4cbd-8279-8be9ad4cbaee","system_id":"levelo_inurba_marseille","lat":43.285742,"lon":5.395004,"is_reserved":false,"is_disabled":false,"rental_uris":{"android":"levelo://app?vid=02394896-47f6-4cbd-8279-8be9ad4cbaee","ios":"levelo://app?vid=02394896-47f6-4cbd-8279-8be9ad4cbaee"},"vehicle_type_id":"4","last_reported":1691510880,"current_range_meters":4000,"station_id":"ce4bh292rcd13ifvqdg0","pricing_plan_id":"free"},{"bike_id":"7d6bfb46-05b5-41ca-959c-fbab5ec95888","system_id":"levelo_inurba_marseille","lat":43.3266,"lon":5.40956,"is_reserved":false,"is_disabled":false,"rental_uris":{"android":"levelo://app?vid=7d6bfb46-05b5-41ca-959c-fbab5ec95888","ios":"levelo://app?vid=7d6bfb46-05b5-41ca-959c-fbab5ec95888"},"vehicle_type_id":"4","last_reported":1691510880,"current_range_meters":22000,"station_id":"ce4bhpp2rcd13ifvqhgg","pricing_plan_id":"free"},{"bike_id":"2a497c0d-1e7d-497a-8163-4fd2bb9c03bf","system_id":"levelo_inurba_marseille","lat":43.32655,"lon":5.40991,"is_reserved":false,"is_disabled":false,"rental_uris":{"android":"levelo://app?vid=2a497c0d-1e7d-497a-8163-4fd2bb9c03bf","ios":"levelo://app?vid=2a497c0d-1e7d-497a-8163-4fd2bb9c03bf"},"vehicle_type_id":"4","last_reported":1691510880,"current_range_meters":14800,"station_id":"ce4bhpp2rcd13ifvqhgg","pricing_plan_id":"free"},{"bike_id":"33ba718e-c89a-4fa0-8ac5-0f80e156f686","system_id":"levelo_inurba_marseille","lat":43.326605,"lon":5.409903,"is_reserved":false,"is_disabled":false,"rental_uris":{"android":"levelo://app?vid=33ba718e-c89a-4fa0-8ac5-0f80e156f686","ios":"levelo://app?vid=33ba718e-c89a-4fa0-8ac5-0f80e156f686"},"vehicle_type_id":"4","last_reported":1691510880,"current_range_meters":15600,"station_id":"ce4bhpp2rcd13ifvqhgg","pricing_plan_id":"free"},{"bike_id":"8f7d517d-5575-4aa7-af6f-8fc0bebeac25","system_id":"levelo_inurba_marseille","lat":43.304188,"lon":5.412904,"is_reserved":false,"is_disabled":false,"rental_uris":{"android":"levelo://app?vid=8f7d517d-5575-4aa7-af6f-8fc0bebeac25","ios":"levelo://app?vid=8f7d517d-5575-4aa7-af6f-8fc0bebeac25"},"vehicle_type_id":"4","last_reported":1691510880,"current_range_meters":25200,"station_id":"ce4bhop2rcd13ifvqh8g","pricing_plan_id":"free"},{"bike_id":"e3faf6c6-5cda-44c6-a542-999e9cfaf8a6","system_id":"levelo_inurba_marseille","lat":43.32875,"lon":5.4091,"is_reserved":false,"is_disabled":false,"rental_uris":{"android":"levelo://app?vid=e3faf6c6-5cda-44c6-a542-999e9cfaf8a6","ios":"levelo://app?vid=e3faf6c6-5cda-44c6-a542-999e9cfaf8a6"},"vehicle_type_id":"4","last_reported":1691510880,"current_range_meters":31200,"station_id":"","pricing_plan_id":"free"},{"bike_id":"e12b9c60-68e1-40ba-b0f1-0b69ef3a4de3","system_id":"levelo_inurba_marseille","lat":43.279087,"lon":5.380114,"is_reserved":false,"is_disabled":false,"rental_uris":{"android":"levelo://app?vid=e12b9c60-68e1-40ba-b0f1-0b69ef3a4de3","ios":"levelo://app?vid=e12b9c60-68e1-40ba-b0f1-0b69ef3a4de3"},"vehicle_type_id":"4","last_reported":1691510880,"current_range_meters":9200,"station_id":"ce4bhf92rcd13ifvqf50","pricing_plan_id":"free"},{"bike_id":"2b49ddc5-41f3-4d35-93c2-48aeee3521ac","system_id":"levelo_inurba_marseille","lat":43.27903,"lon":5.38017,"is_reserved":false,"is_disabled":false,"rental_uris":{"android":"levelo://app?vid=2b49ddc5-41f3-4d35-93c2-48aeee3521ac","ios":"levelo://app?vid=2b49ddc5-41f3-4d35-93c2-48aeee3521ac"},"vehicle_type_id":"4","last_reported":1691510880,"current_range_meters":25600,"station_id":"","pricing_plan_id":"free"},{"bike_id":"38fab3ce-6706-4156-9e0e-bd21806e73c7","system_id":"levelo_inurba_marseille","lat":43.279087,"lon":5.380114,"is_reserved":false,"is_disabled":false,"rental_uris":{"android":"levelo://app?vid=38fab3ce-6706-4156-9e0e-bd21806e73c7","ios":"levelo://app?vid=38fab3ce-6706-4156-9e0e-bd21806e73c7"},"vehicle_type_id":"4","last_reported":1691510880,"current_range_meters":6000,"station_id":"ce4bhf92rcd13ifvqf50","pricing_plan_id":"free"},{"bike_id":"b8962d16-c0d7-42cf-90d4-4f1083550d27","system_id":"levelo_inurba_marseille","lat":43.32899,"lon":5.41008,"is_reserved":false,"is_disabled":false,"rental_uris":{"android":"levelo://app?vid=b8962d16-c0d7-42cf-90d4-4f1083550d27","ios":"levelo://app?vid=b8962d16-c0d7-42cf-90d4-4f1083550d27"},"vehicle_type_id":"4","last_reported":1691510880,"current_range_meters":25600,"station_id":"","pricing_plan_id":"free"},{"bike_id":"0e57e671-897a-4275-be06-9242d0f94014","system_id":"levelo_inurba_marseille","lat":43.34724,"lon":5.35544,"is_reserved":false,"is_disabled":false,"rental_uris":{"android":"levelo://app?vid=0e57e671-897a-4275-be06-9242d0f94014","ios":"levelo://app?vid=0e57e671-897a-4275-be06-9242d0f94014"},"vehicle_type_id":"4","last_reported":1691510880,"current_range_meters":17200,"station_id":"","pricing_plan_id":"free"},{"bike_id":"cf7b6e60-8d92-49eb-ace8-1f1a3f7fc342","system_id":"levelo_inurba_marseille","lat":43.320045,"lon":5.415046,"is_reserved":false,"is_disabled":false,"rental_uris":{"android":"levelo://app?vid=cf7b6e60-8d92-49eb-ace8-1f1a3f7fc342","ios":"levelo://app?vid=cf7b6e60-8d92-49eb-ace8-1f1a3f7fc342"},"vehicle_type_id":"4","last_reported":1691510880,"current_range_meters":6000,"station_id":"ce4bhq92rcd13ifvqhkg","pricing_plan_id":"free"},{"bike_id":"0a83980b-4886-453e-ac53-cd8f1c5efebc","system_id":"levelo_inurba_marseille","lat":43.320045,"lon":5.415046,"is_reserved":false,"is_disabled":false,"rental_uris":{"android":"levelo://app?vid=0a83980b-4886-453e-ac53-cd8f1c5efebc","ios":"levelo://app?vid=0a83980b-4886-453e-ac53-cd8f1c5efebc"},"vehicle_type_id":"4","last_reported":1691510880,"current_range_meters":31600,"station_id":"ce4bhq92rcd13ifvqhkg","pricing_plan_id":"free"},{"bike_id":"fd77a91f-2f26-4759-8c13-10d9a0c5cb9e","system_id":"levelo_inurba_marseille","lat":43.32047,"lon":5.41551,"is_reserved":false,"is_disabled":false,"rental_uris":{"android":"levelo://app?vid=fd77a91f-2f26-4759-8c13-10d9a0c5cb9e","ios":"levelo://app?vid=fd77a91f-2f26-4759-8c13-10d9a0c5cb9e"},"vehicle_type_id":"4","last_reported":1691510880,"current_range_meters":30000,"station_id":"ce4bhq92rcd13ifvqhkg","pricing_plan_id":"free"},{"bike_id":"8b753154-2925-4a95-9fa6-301c2ff00845","system_id":"levelo_inurba_marseille","lat":43.32043,"lon":5.41553,"is_reserved":false,"is_disabled":false,"rental_uris":{"android":"levelo://app?vid=8b753154-2925-4a95-9fa6-301c2ff00845","ios":"levelo://app?vid=8b753154-2925-4a95-9fa6-301c2ff00845"},"vehicle_type_id":"4","last_reported":1691510880,"current_range_meters":21200,"station_id":"ce4bhq92rcd13ifvqhkg","pricing_plan_id":"free"},{"bike_id":"8de29e1a-72eb-4334-9bb5-edb68d79e464","system_id":"levelo_inurba_marseille","lat":43.3207,"lon":5.41548,"is_reserved":false,"is_disabled":false,"rental_uris":{"android":"levelo://app?vid=8de29e1a-72eb-4334-9bb5-edb68d79e464","ios":"levelo://app?vid=8de29e1a-72eb-4334-9bb5-edb68d79e464"},"vehicle_type_id":"4","last_reported":1691510880,"current_range_meters":31200,"station_id":"ce4bhq92rcd13ifvqhkg","pricing_plan_id":"free"},{"bike_id":"1afe7444-e391-498c-9510-de97b211f946","system_id":"levelo_inurba_marseille","lat":43.320045,"lon":5.415046,"is_reserved":false,"is_disabled":false,"rental_uris":{"android":"levelo://app?vid=1afe7444-e391-498c-9510-de97b211f946","ios":"levelo://app?vid=1afe7444-e391-498c-9510-de97b211f946"},"vehicle_type_id":"4","last_reported":1691510880,"current_range_meters":31600,"station_id":"ce4bhq92rcd13ifvqhkg","pricing_plan_id":"free"},{"bike_id":"9df8acaf-1a11-44b2-84ab-5108f5634a40","system_id":"levelo_inurba_marseille","lat":43.32053,"lon":5.4156,"is_reserved":false,"is_disabled":false,"rental_uris":{"android":"levelo://app?vid=9df8acaf-1a11-44b2-84ab-5108f5634a40","ios":"levelo://app?vid=9df8acaf-1a11-44b2-84ab-5108f5634a40"},"vehicle_type_id":"4","last_reported":1691510880,"current_range_meters":24400,"station_id":"ce4bhq92rcd13ifvqhkg","pricing_plan_id":"free"},{"bike_id":"c327718a-8fe6-4791-a349-aba0f8f94e82","system_id":"levelo_inurba_marseille","lat":43.279742,"lon":5.38744,"is_reserved":false,"is_disabled":false,"rental_uris":{"android":"levelo://app?vid=c327718a-8fe6-4791-a349-aba0f8f94e82","ios":"levelo://app?vid=c327718a-8fe6-4791-a349-aba0f8f94e82"},"vehicle_type_id":"4","last_reported":1691510880,"current_range_meters":30800,"station_id":"ce4bhg12rcd13ifvqf80","pricing_plan_id":"free"},{"bike_id":"bc9fb4be-4df3-42e3-a76d-1de67ab75084","system_id":"levelo_inurba_marseille","lat":43.320045,"lon":5.415046,"is_reserved":false,"is_disabled":false,"rental_uris":{"android":"levelo://app?vid=bc9fb4be-4df3-42e3-a76d-1de67ab75084","ios":"levelo://app?vid=bc9fb4be-4df3-42e3-a76d-1de67ab75084"},"vehicle_type_id":"4","last_reported":1691510880,"current_range_meters":30000,"station_id":"ce4bhq92rcd13ifvqhkg","pricing_plan_id":"free"},{"bike_id":"c1c83f51-9dd6-4d26-afdb-731b668730ff","system_id":"levelo_inurba_marseille","lat":43.292571,"lon":5.409107,"is_reserved":false,"is_disabled":false,"rental_uris":{"android":"levelo://app?vid=c1c83f51-9dd6-4d26-afdb-731b668730ff","ios":"levelo://app?vid=c1c83f51-9dd6-4d26-afdb-731b668730ff"},"vehicle_type_id":"4","last_reported":1691510880,"current_range_meters":18000,"station_id":"ce4bh192rcd13ifvqdc0","pricing_plan_id":"free"},{"bike_id":"e6c5d2eb-b6cf-4cab-b79a-c4e20597481b","system_id":"levelo_inurba_marseille","lat":43.325233,"lon":5.414318,"is_reserved":false,"is_disabled":false,"rental_uris":{"android":"levelo://app?vid=e6c5d2eb-b6cf-4cab-b79a-c4e20597481b","ios":"levelo://app?vid=e6c5d2eb-b6cf-4cab-b79a-c4e20597481b"},"vehicle_type_id":"4","last_reported":1691510880,"current_range_meters":31600,"station_id":"ce4bhq12rcd13ifvqhhg","pricing_plan_id":"free"},