{"last_updated":1702537588,"ttl":30,"version":"2.2","data":{"bikes":[{"bike_id":"5e870a68-e5e1-4f23-9b79-346d0b2e9ca3","system_id":"levelo_inurba_marseille","lat":43.313391,"lon":5.36706,"is_reserved":false,"is_disabled":false,"rental_uris":{"android":"levelo://app?vid=5e870a68-e5e1-4f23-9b79-346d0b2e9ca3","ios":"levelo://app?vid=5e870a68-e5e1-4f23-9b79-346d0b2e9ca3"},"vehicle_type_id":"4","last_reported":1702537588,"current_range_meters":11200,"station_id":"ce4bgr92rcd13ifvqc6g","pricing_plan_id":"free"},{"bike_id":"202dd53f-a55a-4740-9535-68aba4f11474","system_id":"levelo_inurba_marseille","lat":43.313391,"lon":5.36706,"is_reserved":false,"is_disabled":false,"rental_uris":{"android":"levelo://app?vid=202dd53f-a55a-4740-9535-68aba4f11474","ios":"levelo://app?vid=202dd53f-a55a-4740-9535-68aba4f11474"},"vehicle_type_id":"4","last_reported":1702537588,"current_range_meters":5600,"station_id":"ce4bgr92rcd13ifvqc6g","pricing_plan_id":"free"},{"bike_id":"4582da45-96bf-4ebe-9e31-ad0e506cdf31","system_id":"levelo_inurba_marseille","lat":43.309076,"lon":5.368465,"is_reserved":false,"is_disabled":false,"rental_uris":{"android":"levelo://app?vid=4582da45-96bf-4ebe-9e31-ad0e506cdf31","ios":"levelo://app?vid=4582da45-96bf-4ebe-9e31-ad0e506cdf31"},"vehicle_type_id":"4","last_reported":1702537588,"current_range_meters":18800,"station_id":"ce4bgn92rcd13ifvqbvg","pricing_plan_id":"free"},{"bike_id":"9aa19ce7-0b5d-40fd-9872-bc22122d3771","system_id":"levelo_inurba_marseille","lat":43.3091,"lon":5.36842,"is_reserved":false,"is_disabled":false,"rental_uris":{"android":"levelo://app?vid=9aa19ce7-0b5d-40fd-9872-bc22122d3771","ios":"levelo://app?vid=9aa19ce7-0b5d-40fd-9872-bc22122d3771"},"vehicle_type_id":"4","last_reported":1702537588,"current_range_meters":6800,"station_id":"ce4bgn92rcd13ifvqbvg","pricing_plan_id":"free"},{"bike_id":"556d34cd-1b95-4563-8298-2b71ac4f9ccb","system_id":"levelo_inurba_marseille","lat":43.309076,"lon":5.368465,"is_reserved":false,"is_disabled":false,"rental_uris":{"android":"levelo://app?vid=556d34cd-1b95-4563-8298-2b71ac4f9ccb","ios":"levelo://app?vid=556d34cd-1b95-4563-8298-2b71ac4f9ccb"},"vehicle_type_id":"4","last_reported":1702537588,"current_range_meters":28000,"station_id":"ce4bgn92rcd13ifvqbvg","pricing_plan_id":"free"},{"bike_id":"fafc7f9d-4be5-4cd6-bf59-a5e6d70ba626","system_id":"levelo_inurba_marseille","lat":43.314811,"lon":5.373103,"is_reserved":false,"is_disabled":false,"rental_uris":{"android":"levelo://app?vid=fafc7f9d-4be5-4cd6-bf59-a5e6d70ba626","ios":"levelo://app?vid=fafc7f9d-4be5-4cd6-bf59-a5e6d70ba626"},"vehicle_type_id":"4","last_reported":1702537588,"current_range_meters":27600,"station_id":"ce4bgt12rcd13ifvqcd0","pricing_plan_id":"free"},{"bike_id":"7b5198c0-eb89-43a9-8b32-bf4d754f8b47","system_id":"levelo_inurba_marseille","lat":43.309039,"lon":5.371797,"is_reserved":false,"is_disabled":false,"rental_uris":{"android":"levelo://app?vid=7b5198c0-eb89-43a9-8b32-bf4d754f8b47","ios":"levelo://app?vid=7b5198c0-eb89-43a9-8b32-bf4d754f8b47"},"vehicle_type_id":"4","last_reported":1702537588,"current_range_meters":27600,"station_id":"ce4bguh2rcd13ifvqckg","pricing_plan_id":"free"},{"bike_id":"3f8b821f-e430-4a35-bf14-f8b6e777ea11","system_id":"levelo_inurba_marseille","lat":43.313939,"lon":5.375306,"is_reserved":false,"is_disabled":false,"rental_uris":{"android":"levelo://app?vid=3f8b821f-e430-4a35-bf14-f8b6e777ea11","ios":"levelo://app?vid=3f8b821f-e430-4a35-bf14-f8b6e777ea11"},"vehicle_type_id":"4","last_reported":1702537588,"current_range_meters":4800,"station_id":"","pricing_plan_id":"free"},{"bike_id":"955e4ab2-16e5-44e8-a986-a2f50ff96c06","system_id":"levelo_inurba_marseille","lat":43.305382,"lon":5.365389,"is_reserved":false,"is_disabled":false,"rental_uris":{"android":"levelo://app?vid=955e4ab2-16e5-44e8-a986-a2f50ff96c06","ios":"levelo://app?vid=955e4ab2-16e5-44e8-a986-a2f50ff96c06"},"vehicle_type_id":"4","last_reported":1702537588,"current_range_meters":24000,"station_id":"","pricing_plan_id":"free"},{"bike_id":"bdf91ac7-1701-4ca4-89f9-d847e3ade90b","system_id":"levelo_inurba_marseille","lat":43.305706,"lon":5.365654,"is_reserved":false,"is_disabled":false,"rental_uris":{"android":"levelo://app?vid=bdf91ac7-1701-4ca4-89f9-d847e3ade90b","ios":"levelo://app?vid=bdf91ac7-1701-4ca4-89f9-d847e3ade90b"},"vehicle_type_id":"4","last_reported":1702537588,"current_range_meters":26000,"station_id":"ce4bgs12rcd13ifvqcag","pricing_plan_id":"free"},{"bike_id":"1704f7b5-613b-4dae-861b-84519730a16f","system_id":"levelo_inurba_marseille","lat":43.305706,"lon":5.365654,"is_reserved":false,"is_disabled":false,"rental_uris":{"android":"levelo://app?vid=1704f7b5-613b-4dae-861b-84519730a16f","ios":"levelo://app?vid=1704f7b5-613b-4dae-861b-84519730a16f"},"vehicle_type_id":"4","last_reported":1702537588,"current_range_meters":28000,"station_id":"ce4bgs12rcd13ifvqcag","pricing_plan_id":"free"},{"bike_id":"af8e83d9-d94a-4c15-b50d-675084ce1968","system_id":"levelo_inurba_marseille","lat":43.30523,"lon":5.3671,"is_reserved":false,"is_disabled":false,"rental_uris":{"android":"levelo://app?vid=af8e83d9-d94a-4c15-b50d-675084ce1968","ios":"levelo://app?vid=af8e83d9-d94a-4c15-b50d-675084ce1968"},"vehicle_type_id":"4","last_reported":1702537588,"current_range_meters":19600,"station_id":"ce4bgrp2rcd13ifvqc9g","pricing_plan_id":"free"},{"bike_id":"e5ebaa72-5783-4a1c-8b2d-b2e025928ab3","system_id":"levelo_inurba_marseille","lat":43.305368,"lon":5.367343,"is_reserved":false,"is_disabled":false,"rental_uris":{"android":"levelo://app?vid=e5ebaa72-5783-4a1c-8b2d-b2e025928ab3","ios":"levelo://app?vid=e5ebaa72-5783-4a1c-8b2d-b2e025928ab3"},"vehicle_type_id":"4","last_reported":1702537588,"current_range_meters":28400,"station_id":"ce4bgrp2rcd13ifvqc9g","pricing_plan_id":"free"},{"bike_id":"dc68debd-6203-4696-b9a5-55eea857c5a0","system_id":"levelo_inurba_marseille","lat":43.317075,"lon":5.377367,"is_reserved":false,"is_disabled":false,"rental_uris":{"android":"levelo://app?vid=dc68debd-6203-4696-b9a5-55eea857c5a0","ios":"levelo://app?vid=dc68debd-6203-4696-b9a5-55eea857c5a0"},"vehicle_type_id":"4","last_reported":1702537588,"current_range_meters":20400,"station_id":"ce4bgth2rcd13ifvqch0","pricing_plan_id":"free"},{"bike_id":"97735303-50cd-4dea-a1d9-e9ba7b7f916a","system_id":"levelo_inurba_marseille","lat":43.317075,"lon":5.377367,"is_reserved":false,"is_disabled":false,"rental_uris":{"android":"levelo://app?vid=97735303-50cd-4dea-a1d9-e9ba7b7f916a","ios":"levelo://app?vid=97735303-50cd-4dea-a1d9-e9ba7b7f916a"},"vehicle_type_id":"4","last_reported":1702537588,"current_range_meters":27600,"station_id":"ce4bgth2rcd13ifvqch0","pricing_plan_id":"free"},{"bike_id":"d4b293c6-e3f6-4e89-98e7-d5aa12d20506","system_id":"levelo_inurba_marseille","lat":43.303046,"lon":5.368981,"is_reserved":false,"is_disabled":false,"rental_uris":{"android":"levelo://app?vid=d4b293c6-e3f6-4e89-98e7-d5aa12d20506","ios":"levelo://app?vid=d4b293c6-e3f6-4e89-98e7-d5aa12d20506"},"vehicle_type_id":"4","last_reported":1702537588,"current_range_meters":26400,"station_id":"ce4bgqh2rcd13ifvqc5g","pricing_plan_id":"free"},{"bike_id":"ec6669de-1db4-486a-b491-586a9dd3c426","system_id":"levelo_inurba_marseille","lat":43.303046,"lon":5.368981,"is_reserved":false,"is_disabled":false,"rental_uris":{"android":"levelo://app?vid=ec6669de-1db4-486a-b491-586a9dd3c426","ios":"levelo://app?vid=ec6669de-1db4-486a-b491-586a9dd3c426"},"vehicle_type_id":"4","last_reported":1702537588,"current_range_meters":25600,"station_id":"ce4bgqh2rcd13ifvqc5g","pricing_plan_id":"free"},{"bike_id":"227b454f-cbfd-4a97-b4c2-968569f53a3b","system_id":"levelo_inurba_marseille","lat":43.315367,"lon":5.380328,"is_reserved":false,"is_disabled":false,"rental_uris":{"android":"levelo://app?vid=227b454f-cbfd-4a97-b4c2-968569f53a3b","ios":"levelo://app?vid=227b454f-cbfd-4a97-b4c2-968569f53a3b"},"vehicle_type_id":"4","last_reported":1702537588,"current_range_meters":26000,"station_id":"ce4bhsp2rcd13ifvqi50","pricing_plan_id":"free"},{"bike_id":"0ca3207c-ac56-41b3-bb10-8489ed70d98a","system_id":"levelo_inurba_marseille","lat":43.304606,"lon":5.379026,"is_reserved":false,"is_disabled":false,"rental_uris":{"android":"levelo://app?vid=0ca3207c-ac56-41b3-bb10-8489ed70d98a","ios":"levelo://app?vid=0ca3207c-ac56-41b3-bb10-8489ed70d98a"},"vehicle_type_id":"4","last_reported":1702537588,"current_range_meters":31200,"station_id":"ce4bgup2rcd13ifvqcn0","pricing_plan_id":"free"},{"bike_id":"7e3d2950-5224-432d-80ae-7ca4574d6377","system_id":"levelo_inurba_marseille","lat":43.304606,"lon":5.379026,"is_reserved":false,"is_disabled":false,"rental_uris":{"android":"levelo://app?vid=7e3d2950-5224-432d-80ae-7ca4574d6377","ios":"levelo://app?vid=7e3d2950-5224-432d-80ae-7ca4574d6377"},"vehicle_type_id":"4","last_reported":1702537588,"current_range_meters":27200,"station_id":"ce4bgup2rcd13ifvqcn0","pricing_plan_id":"free"},{"bike_id":"3cabcb3c-188c-41d3-87a0-6033bd4b3b1c","system_id":"levelo_inurba_marseille","lat":43.304606,"lon":5.379026,"is_reserved":false,"is_disabled":false,"rental_uris":{"android":"levelo://app?vid=3cabcb3c-188c-41d3-87a0-6033bd4b3b1c","ios":"levelo://app?vid=3cabcb3c-188c-41d3-87a0-6033bd4b3b1c"},"vehicle_type_id":"4","last_reported":1702537588,"current_range_meters":26000,"station_id":"ce4bgup2rcd13ifvqcn0","pricing_plan_id":"free"},{"bike_id":"acdd8f29-62b0-4b24-b14c-650070f71769","system_id":"levelo_inurba_marseille","lat":43.304606,"lon":5.379026,"is_reserved":false,"is_disabled":false,"rental_uris":{"android":"levelo://app?vid=acdd8f29-62b0-4b24-b14c-650070f71769","ios":"levelo://app?vid=acdd8f29-62b0-4b24-b14c-650070f71769"},"vehicle_type_id":"4","last_reported":1702537588,"current_range_meters":4000,"station_id":"ce4bgup2rcd13ifvqcn0","pricing_plan_id":"free"},{"bike_id":"c456afe1-eb7c-40ba-8fd3-208f3dcd6406","system_id":"levelo_inurba_marseille","lat":43.304606,"lon":5.379026,"is_reserved":false,"is_disabled":false,"rental_uris":{"android":"levelo://app?vid=c456afe1-eb7c-40ba-8fd3-208f3dcd6406","ios":"levelo://app?vid=c456afe1-eb7c-40ba-8fd3-208f3dcd6406"},"vehicle_type_id":"4","last_reported":1702537588,"current_range_meters":24800,"station_id":"ce4bgup2rcd13ifvqcn0","pricing_plan_id":"free"},{"bike_id":"d645372f-0629-4787-ac3a-bce7a4917656","system_id":"levelo_inurba_marseille","lat":43.304606,"lon":5.379026,"is_reserved":false,"is_disabled":false,"rental_uris":{"android":"levelo://app?vid=d645372f-0629-4787-ac3a-bce7a4917656","ios":"levelo://app?vid=d645372f-0629-4787-ac3a-bce7a4917656"},"vehicle_type_id":"4","last_reported":1702537588,"current_range_meters":31200,"station_id":"ce4bgup2rcd13ifvqcn0","pricing_plan_id":"free"},{"bike_id":"7f7d88a9-34ac-495a-bcfa-6b05b685353e","system_id":"levelo_inurba_marseille","lat":43.304606,"lon":5.379026,"is_reserved":false,"is_disabled":false,"rental_uris":{"android":"levelo://app?vid=7f7d88a9-34ac-495a-bcfa-6b05b685353e","ios":"levelo://app?vid=7f7d88a9-34ac-495a-bcfa-6b05b685353e"},"vehicle_type_id":"4","last_reported":1702537588,"current_range_meters":31200,"station_id":"ce4bgup2rcd13ifvqcn0","pricing_plan_id":"free"},{"bike_id":"b8d5c454-58cd-46f5-8526-58ff8b3a180a","system_id":"levelo_inurba_marseille","lat":43.304606,"lon":5.379026,"is_reserved":false,"is_disabled":false,"rental_uris":{"android":"levelo://app?vid=b8d5c454-58cd-46f5-8526-58ff8b3a180a","ios":"levelo://app?vid=b8d5c454-58cd-46f5-8526-58ff8b3a180a"},"vehicle_type_id":"4","last_reported":1702537588,"current_range_meters":25600,"station_id":"ce4bgup2rcd13ifvqcn0","pricing_plan_id":"free"},{"bike_id":"7d84712d-9eda-436e-a118-cd18ffcb4d86","system_id":"levelo_inurba_marseille","lat":43.304606,"lon":5.379026,"is_reserved":false,"is_disabled":false,"rental_uris":{"android":"levelo://app?vid=7d84712d-9eda-436e-a118-cd18ffcb4d86","ios":"levelo://app?vid=7d84712d-9eda-436e-a118-cd18ffcb4d86"},"vehicle_type_id":"4","last_reported":1702537588,"current_range_meters":24000,"station_id":"ce4bgup2rcd13ifvqcn0","pricing_plan_id":"free"},{"bike_id":"5925627e-adb7-44c8-87b7-a03071747e35","system_id":"levelo_inurba_marseille","lat":43.304606,"lon":5.379026,"is_reserved":false,"is_disabled":false,"rental_uris":{"android":"levelo://app?vid=5925627e-adb7-44c8-87b7-a03071747e35","ios":"levelo://app?vid=5925627e-adb7-44c8-87b7-a03071747e35"},"vehicle_type_id":"4","last_reported":1702537588,"current_range_meters":22000,"station_id":"ce4bgup2rcd13ifvqcn0","pricing_plan_id":"free"},{"bike_id":"32fb2329-545d-4491-99d7-17cf06456dc0","system_id":"levelo_inurba_marseille","lat":43.304606,"lon":5.379026,"is_reserved":false,"is_disabled":false,"rental_uris":{"android":"levelo://app?vid=32fb2329-545d-4491-99d7-17cf06456dc0","ios":"levelo://app?vid=32fb2329-545d-4491-99d7-17cf06456dc0"},"vehicle_type_id":"4","last_reported":1702537588,"current_range_meters":12000,"station_id":"ce4bgup2rcd13ifvqcn0","pricing_plan_id":"free"},{"bike_id":"e24cfc73-d832-43a0-be49-f5c782ee697f","system_id":"levelo_inurba_marseille","lat":43.304606,"lon":5.379026,"is_reserved":false,"is_disabled":false,"rental_uris":{"android":"levelo://app?vid=e24cfc73-d832-43a0-be49-f5c782ee697f","ios":"levelo://app?vid=e24cfc73-d832-43a0-be49-f5c782ee697f"},"vehicle_type_id":"4","last_reported":1702537588,"current_range_meters":30800,"station_id":"ce4bgup2rcd13ifvqcn0","pricing_plan_id":"free"},{"bike_id":"ecc10283-6f1d-4715-a361-1c5185657083","system_id":"levelo_inurba_marseille","lat":43.30268,"lon":5.377197,"is_reserved":false,"is_disabled":false,"rental_uris":{"android":"levelo://app?vid=ecc10283-6f1d-4715-a361-1c5185657083","ios":"levelo://app?vid=ecc10283-6f1d-4715-a361-1c5185657083"},"vehicle_type_id":"4","last_reported":1702537588,"current_range_meters":19600,"station_id":"ce4bguh2rcd13ifvqcj0","pricing_plan_id":"free"},{"bike_id":"62c4f95f-ec48-4f8f-96b5-1da2ba2b0a34","system_id":"levelo_inurba_marseille","lat":43.311596,"lon":5.386841,"is_reserved":false,"is_disabled":false,"rental_uris":{"android":"levelo://app?vid=62c4f95f-ec48-4f8f-96b5-1da2ba2b0a34","ios":"levelo://app?vid=62c4f95f-ec48-4f8f-96b5-1da2ba2b0a34"},"vehicle_type_id":"4","last_reported":1702537588,"current_range_meters":10800,"station_id":"ce4bgv12rcd13ifvqcp0","pricing_plan_id":"free"},{"bike_id":"027d3d16-1fde-4854-8cc5-886bf0428357","system_id":"levelo_inurba_marseille","lat":43.305364,"lon":5.384119,"is_reserved":false,"is_disabled":false,"rental_uris":{"android":"levelo://app?vid=027d3d16-1fde-4854-8cc5-886bf0428357","ios":"levelo://app?vid=027d3d16-1fde-4854-8cc5-886bf0428357"},"vehicle_type_id":"4","last_reported":1702537588,"current_range_meters":26400,"station_id":"ce4bgg92rcd13ifvqb30","pricing_plan_id":"free"},{"bike_id":"77a6c46d-d898-4e4f-8846-efa91689c7f0","system_id":"levelo_inurba_marseille","lat":43.302006,"lon":5.38065,"is_reserved":false,"is_disabled":false,"rental_uris":{"android":"levelo://app?vid=77a6c46d-d898-4e4f-8846-efa91689c7f0","ios":"levelo://app?vid=77a6c46d-d898-4e4f-8846-efa91689c7f0"},"vehicle_type_id":"4","last_reported":1702537588,"current_range_meters":0,"station_id":"","pricing_plan_id":"free"},{"bike_id":"d5b71ae6-1b2b-4aef-b632-a9eaf116f052","system_id":"levelo_inurba_marseille","lat":43.299243,"lon":5.374807,"is_reserved":false,"is_disabled":false,"rental_uris":{"android":"levelo://app?vid=d5b71ae6-1b2b-4aef-b632-a9eaf116f052","ios":"levelo://app?vid=d5b71ae6-1b2b-4aef-b632-a9eaf116f052"},"vehicle_type_id":"4","last_reported":1702537588,"current_range_meters":24000,"station_id":"ce4bgjh2rcd13ifvqbg0","pricing_plan_id":"free"},{"bike_id":"9fc64b56-688d-4019-ba60-ec289ab62fe0","system_id":"levelo_inurba_marseille","lat":43.311722,"lon":5.387247,"is_reserved":false,"is_disabled":false,"rental_uris":{"android":"levelo://app?vid=9fc64b56-688d-4019-ba60-ec289ab62fe0","ios":"levelo://app?vid=9fc64b56-688d-4019-ba60-ec289ab62fe0"},"vehicle_type_id":"4","last_reported":1702537588,"current_range_meters":25600,"station_id":"ce4bgv12rcd13ifvqcp0","pricing_plan_id":"free"},{"bike_id":"9affc28d-cd82-48dd-993c-ba3532ce39d9","system_id":"levelo_inurba_marseille","lat":43.297794,"lon":5.370888,"is_reserved":false,"is_disabled":false,"rental_uris":{"android":"levelo://app?vid=9affc28d-cd82-48dd-993c-ba3532ce39d9","ios":"levelo://app?vid=9affc28d-cd82-48dd-993c-ba3532ce39d9"},"vehicle_type_id":"4","last_reported":1702537588,"current_range_meters":22800,"station_id":"ce4bgop2rcd13ifvqc1g","pricing_plan_id":"free"},{"bike_id":"6a58231e-42ce-4bb1-bcdb-ff1dfcd6f9fb","system_id":"levelo_inurba_marseille","lat":43.322872,"lon":5.382756,"is_reserved":false,"is_disabled":false,"rental_uris":{"android":"levelo://app?vid=6a58231e-42ce-4bb1-bcdb-ff1dfcd6f9fb","ios":"levelo://app?vid=6a58231e-42ce-4bb1-bcdb-ff1dfcd6f9fb"},"vehicle_type_id":"4","last_reported":1702537588,"current_range_meters":23200,"station_id":"ce4bhr12rcd13ifvqhqg","pricing_plan_id":"free"},{"bike_id":"659a38c5-092d-469d-acdb-90f2143cb397","system_id":"levelo_inurba_marseille","lat":43.328261,"lon":5.366728,"is_reserved":false,"is_disabled":false,"rental_uris":{"android":"levelo://app?vid=659a38c5-092d-469d-acdb-90f2143cb397","ios":"levelo://app?vid=659a38c5-092d-469d-acdb-90f2143cb397"},"vehicle_type_id":"4","last_reported":1702537588,"current_range_meters":30000,"station_id":"ce4bhs92rcd13ifvqi0g","pricing_plan_id":"free"},{"bike_id":"cbc11d14-9f41-4b34-8edf-188c262dbf4e","system_id":"levelo_inurba_marseille","lat":43.328371,"lon":5.366909,"is_reserved":false,"is_disabled":false,"rental_uris":{"android":"levelo://app?vid=cbc11d14-9f41-4b34-8edf-188c262dbf4e","ios":"levelo://app?vid=cbc11d14-9f41-4b34-8edf-188c262dbf4e"},"vehicle_type_id":"4","last_reported":1702537588,"current_range_meters":30400,"station_id":"ce4bhs92rcd13ifvqi0g","pricing_plan_id":"free"},{"bike_id":"7146b216-5dbf-4f39-a872-ebb9140c77d1","system_id":"levelo_inurba_marseille","lat":43.328371,"lon":5.366909,"is_reserved":false,"is_disabled":false,"rental_uris":{"android":"levelo://app?vid=7146b216-5dbf-4f39-a872-ebb9140c77d1","ios":"levelo://app?vid=7146b216-5dbf-4f39-a872-ebb9140c77d1"},"vehicle_type_id":"4","last_reported":1702537588,"current_range_meters":19600,"station_id":"ce4bhs92rcd13ifvqi0g","pricing_plan_id":"free"},{"bike_id":"bc06b289-dab8-4815-820b-662dd218c477","system_id":"levelo_inurba_marseille","lat":43.32831,"lon":5.366705,"is_reserved":false,"is_disabled":false,"rental_uris":{"android":"levelo://app?vid=bc06b289-dab8-4815-820b-662dd218c477","ios":"levelo://app?vid=bc06b289-dab8-4815-820b-662dd218c477"},"vehicle_type_id":"4","last_reported":1702537588,"current_range_meters":30000,"station_id":"ce4bhs92rcd13ifvqi0g","pricing_plan_id":"free"},{"bike_id":"b9ddb95b-c378-4229-9781-fdf09ac03ead","system_id":"levelo_inurba_marseille","lat":43.328371,"lon":5.366909,"is_reserved":false,"is_disabled":false,"rental_uris":{"android":"levelo://app?vid=b9ddb95b-c378-4229-9781-fdf09ac03ead","ios":"levelo://app?vid=b9ddb95b-c378-4229-9781-fdf09ac03ead"},"vehicle_type_id":"4","last_reported":1702537588,"current_range_meters":24400,"station_id":"ce4bhs92rcd13ifvqi0g","pricing_plan_id":"free"},{"bike_id":"ce387e1a-46ea-462c-9976-4c391fd7fccb","system_id":"levelo_inurba_marseille","lat":43.2968,"lon":5.37291,"is_reserved":false,"is_disabled":false,"rental_uris":{"android":"levelo://app?vid=ce387e1a-46ea-462c-9976-4c391fd7fccb","ios":"levelo://app?vid=ce387e1a-46ea-462c-9976-4c391fd7fccb"},"vehicle_type_id":"4","last_reported":1702537588,"current_range_meters":23200,"station_id":"ce4bgk12rcd13ifvqbj0","pricing_plan_id":"free"},{"bike_id":"6a35690e-939f-46ff-b956-35afbee83247","system_id":"levelo_inurba_marseille","lat":43.29573,"lon":5.367355,"is_reserved":false,"is_disabled":false,"rental_uris":{"android":"levelo://app?vid=6a35690e-939f-46ff-b956-35afbee83247","ios":"levelo://app?vid=6a35690e-939f-46ff-b956-35afbee83247"},"vehicle_type_id":"4","last_reported":1702537588,"current_range_meters":29600,"station_id":"ce4bgph2rcd13ifvqc2g","pricing_plan_id":"free"},{"bike_id":"d1d89b93-3650-416d-a270-88e93201b30d","system_id":"levelo_inurba_marseille","lat":43.296935,"lon":5.376544,"is_reserved":false,"is_disabled":false,"rental_uris":{"android":"levelo://app?vid=d1d89b93-3650-416d-a270-88e93201b30d","ios":"levelo://app?vid=d1d89b93-3650-416d-a270-88e93201b30d"},"vehicle_type_id":"4","last_reported":1702537588,"current_range_meters":28800,"station_id":"ce4bgkh2rcd13ifvqbl0","pricing_plan_id":"free"},{"bike_id":"1f731f79-da92-4bc7-b21b-0abd1ee03930","system_id":"levelo_inurba_marseille","lat":43.317557,"lon":5.390173,"is_reserved":false,"is_disabled":false,"rental_uris":{"android":"levelo://app?vid=1f731f79-da92-4bc7-b21b-0abd1ee03930","ios":"levelo://app?vid=1f731f79-da92-4bc7-b21b-0abd1ee03930"},"vehicle_type_id":"4","last_reported":1702537588,"current_range_meters":29600,"station_id":"ce4bhqp2rcd13ifvqhng","pricing_plan_id":"free"},{"bike_id":"c840002a-d80a-40b4-a65f-1d4c04eabb61","system_id":"levelo_inurba_marseille","lat":43.317556,"lon":5.390174,"is_reserved":false,"is_disabled":false,"rental_uris":{"android":"levelo://app?vid=c840002a-d80a-40b4-a65f-1d4c04eabb61","ios":"levelo://app?vid=c840002a-d80a-40b4-a65f-1d4c04eabb61"},"vehicle_type_id":"4","last_reported":1702537588,"current_range_meters":7600,"station_id":"ce4bhqp2rcd13ifvqhng","pricing_plan_id":"free"},{"bike_id":"47c80422-3782-4ca2-8d32-cb56aeb5d8c9","system_id":"levelo_inurba_marseille","lat":43.295748,"lon":5.37522,"is_reserved":false,"is_disabled":false,"rental_uris":{"android":"levelo://app?vid=47c80422-3782-4ca2-8d32-cb56aeb5d8c9","ios":"levelo://app?vid=47c80422-3782-4ca2-8d32-cb56aeb5d8c9"},"vehicle_type_id":"4","last_reported":1702537588,"current_range_meters":30400,"station_id":"ce4bgh92rcd13ifvqb50","pricing_plan_id":"free"},{"bike_id":"3ea8cf60-e2cf-42d1-844f-02bdf8599488","system_id":"levelo_inurba_marseille","lat":43.29802,"lon":5.381,"is_reserved":false,"is_disabled":false,"rental_uris":{"android":"levelo://app?vid=3ea8cf60-e2cf-42d1-844f-02bdf8599488","ios":"levelo://app?vid=3ea8cf60-e2cf-42d1-844f-02bdf8599488"},"vehicle_type_id":"4","last_reported":1702537588,"current_range_meters":28800,"station_id":"ce4bgip2rcd13ifvqbb0","pricing_plan_id":"free"},{"bike_id":"8bd3b039-b42f-4c01-b55d-f1ec4a0568ca","system_id":"levelo_inurba_marseille","lat":43.29801,"lon":5.38108,"is_reserved":false,"is_disabled":false,"rental_uris":{"android":"levelo://app?vid=8bd3b039-b42f-4c01-b55d-f1ec4a0568ca","ios":"levelo://app?vid=8bd3b039-b42f-4c01-b55d-f1ec4a0568ca"},"vehicle_type_id":"4","last_reported":1702537588,"current_range_meters":24400,"station_id":"ce4bgip2rcd13ifvqbb0","pricing_plan_id":"free"},{"bike_id":"873cd833-6976-4e47-82bf-853a39163b09","system_id":"levelo_inurba_marseille","lat":43.304274,"lon":5.388873,"is_reserved":false,"is_disabled":false,"rental_uris":{"android":"levelo://app?vid=873cd833-6976-4e47-82bf-853a39163b09","ios":"levelo://app?vid=873cd833-6976-4e47-82bf-853a39163b09"},"vehicle_type_id":"4","last_reported":1702537588,"current_range_meters":28000,"station_id":"ce4bgk12rcd13ifvqbi0","pricing_plan_id":"free"},{"bike_id":"c720bb4c-9009-431b-bf1b-211f9bc13b18","system_id":"levelo_inurba_marseille","lat":43.304274,"lon":5.388873,"is_reserved":false,"is_disabled":false,"rental_uris":{"android":"levelo://app?vid=c720bb4c-9009-431b-bf1b-211f9bc13b18","ios":"levelo://app?vid=c720bb4c-9009-431b-bf1b-211f9bc13b18"},"vehicle_type_id":"4","last_reported":1702537588,"current_range_meters":16400,"station_id":"ce4bgk12rcd13ifvqbi0","pricing_plan_id":"free"},{"bike_id":"cf52855f-ca20-46ec-ba34-454c873d893b","system_id":"levelo_inurba_marseille","lat":43.29624,"lon":5.37715,"is_reserved":false,"is_disabled":false,"rental_uris":{"android":"levelo://app?vid=cf52855f-ca20-46ec-ba34-454c873d893b","ios":"levelo://app?vid=cf52855f-ca20-46ec-ba34-454c873d893b"},"vehicle_type_id":"4","last_reported":1702537588,"current_range_meters":19600,"station_id":"ce4bgi92rcd13ifvqb90","pricing_plan_id":"free"},{"bike_id":"eccdbd88-2164-46d6-a96d-897efe43e4ea","system_id":"levelo_inurba_marseille","lat":43.29608,"lon":5.37719,"is_reserved":false,"is_disabled":false,"rental_uris":{"android":"levelo://app?vid=eccdbd88-2164-46d6-a96d-897efe43e4ea","ios":"levelo://app?vid=eccdbd88-2164-46d6-a96d-897efe43e4ea"},"vehicle_type_id":"4","last_reported":1702537588,"current_range_meters":24000,"station_id":"ce4bgi92rcd13ifvqb90","pricing_plan_id":"free"},{"bike_id":"dc01d294-5e1b-433f-878e-eb8a914aadd8","system_id":"levelo_inurba_marseille","lat":43.32363,"lon":5.38879,"is_reserved":false,"is_disabled":false,"rental_uris":{"android":"levelo://app?vid=dc01d294-5e1b-433f-878e-eb8a914aadd8","ios":"levelo://app?vid=dc01d294-5e1b-433f-878e-eb8a914aadd8"},"vehicle_type_id":"4","last_reported":1702537588,"current_range_meters":28400,"station_id":"ce4bhqp2rcd13ifvqhog","pricing_plan_id":"free"},{"bike_id":"03f6119d-7ba1-4608-b75b-b20f3efbdaef","system_id":"levelo_inurba_marseille","lat":43.323647,"lon":5.388834,"is_reserved":false,"is_disabled":false,"rental_uris":{"android":"levelo://app?vid=03f6119d-7ba1-4608-b75b-b20f3efbdaef","ios":"levelo://app?vid=03f6119d-7ba1-4608-b75b-b20f3efbdaef"},"vehicle_type_id":"4","last_reported":1702537588,"current_range_meters":12400,"station_id":"ce4bhqp2rcd13ifvqhog","pricing_plan_id":"free"},{"bike_id":"18e8fec3-c034-486d-b65b-5c2605e3f3ab","system_id":"levelo_inurba_marseille","lat":43.32365,"lon":5.38884,"is_reserved":false,"is_disabled":false,"rental_uris":{"android":"levelo://app?vid=18e8fec3-c034-486d-b65b-5c2605e3f3ab","ios":"levelo://app?vid=18e8fec3-c034-486d-b65b-5c2605e3f3ab"},"vehicle_type_id":"4","last_reported":1702537588,"current_range_meters":12800,"station_id":"ce4bhqp2rcd13ifvqhog","pricing_plan_id":"free"},{"bike_id":"8ab9895a-c9b8-42e7-a73a-c3d8ad10cfa2","system_id":"levelo_inurba_marseille","lat":43.32369,"lon":5.38882,"is_reserved":false,"is_disabled":false,"rental_uris":{"android":"levelo://app?vid=8ab9895a-c9b8-42e7-a73a-c3d8ad10cfa2","ios":"levelo://app?vid=8ab9895a-c9b8-42e7-a73a-c3d8ad10cfa2"},"vehicle_type_id":"4","last_reported":1702537588,"current_range_meters":29200,"station_id":"ce4bhqp2rcd13ifvqhog","pricing_plan_id":"free"},{"bike_id":"a609b4c6-a51b-4b28-be20-0c60ab6552e0","system_id":"levelo_inurba_marseille","lat":43.29601,"lon":5.381084,"is_reserved":false,"is_disabled":false,"rental_uris":{"android":"levelo://app?vid=a609b4c6-a51b-4b28-be20-0c60ab6552e0","ios":"levelo://app?vid=a609b4c6-a51b-4b28-be20-0c60ab6552e0"},"vehicle_type_id":"4","last_reported":1702537588,"current_range_meters":31200,"station_id":"ce4bgl12rcd13ifvqbo0","pricing_plan_id":"free"},{"bike_id":"6dddfe16-db5b-4e81-ac40-b1a16a1481b5","system_id":"levelo_inurba_marseille","lat":43.29279,"lon":5.36846,"is_reserved":false,"is_disabled":false,"rental_uris":{"android":"levelo://app?vid=6dddfe16-db5b-4e81-ac40-b1a16a1481b5","ios":"levelo://app?vid=6dddfe16-db5b-4e81-ac40-b1a16a1481b5"},"vehicle_type_id":"4","last_reported":1702537588,"current_range_meters":19600,"station_id":"ce4bhbp2rcd13ifvqesg","pricing_plan_id":"free"},{"bike_id":"981285e2-98af-4fc8-b602-96d7e40c3b85","system_id":"levelo_inurba_marseille","lat":43.293009,"lon":5.374584,"is_reserved":false,"is_disabled":false,"rental_uris":{"android":"levelo://app?vid=981285e2-98af-4fc8-b602-96d7e40c3b85","ios":"levelo://app?vid=981285e2-98af-4fc8-b602-96d7e40c3b85"},"vehicle_type_id":"4","last_reported":1702537588,"current_range_meters":17600,"station_id":"ce4bgi12rcd13ifvqb70","pricing_plan_id":"free"},{"bike_id":"c29c12f4-4c7a-4bf1-b492-a5780ec6bf01","system_id":"levelo_inurba_marseille","lat":43.290624,"lon":5.359245,"is_reserved":false,"is_disabled":false,"rental_uris":{"android":"levelo://app?vid=c29c12f4-4c7a-4bf1-b492-a5780ec6bf01","ios":"levelo://app?vid=c29c12f4-4c7a-4bf1-b492-a5780ec6bf01"},"vehicle_type_id":"4","last_reported":1702537588,"current_range_meters":26800,"station_id":"ce4bha92rcd13ifvqeg0","pricing_plan_id":"free"},{"bike_id":"799b4e6e-8080-4d2a-9bb7-920250d1e203","system_id":"levelo_inurba_marseille","lat":43.28961,"lon":5.36424,"is_reserved":false,"is_disabled":false,"rental_uris":{"android":"levelo://app?vid=799b4e6e-8080-4d2a-9bb7-920250d1e203","ios":"levelo://app?vid=799b4e6e-8080-4d2a-9bb7-920250d1e203"},"vehicle_type_id":"4","last_reported":1702537588,"current_range_meters":23200,"station_id":"ce4bhc92rcd13ifvqetg","pricing_plan_id":"free"},{"bike_id":"167d02e9-aed7-4a27-b9f2-f49f6ffc9bff","system_id":"levelo_inurba_marseille","lat":43.289184,"lon":5.366408,"is_reserved":false,"is_disabled":false,"rental_uris":{"android":"levelo://app?vid=167d02e9-aed7-4a27-b9f2-f49f6ffc9bff","ios":"levelo://app?vid=167d02e9-aed7-4a27-b9f2-f49f6ffc9bff"},"vehicle_type_id":"4","last_reported":1702537588,"current_range_meters":18800,"station_id":"ce4bhap2rcd13ifvqek0","pricing_plan_id":"free"},{"bike_id":"97b0cde7-e33a-487e-98d4-cbe2abefdf13","system_id":"levelo_inurba_marseille","lat":43.289184,"lon":5.366408,"is_reserved":false,"is_disabled":false,"rental_uris":{"android":"levelo://app?vid=97b0cde7-e33a-487e-98d4-cbe2abefdf13","ios":"levelo://app?vid=97b0cde7-e33a-487e-98d4-cbe2abefdf13"},"vehicle_type_id":"4","last_reported":1702537588,"current_range_meters":24800,"station_id":"ce4bhap2rcd13ifvqek0","pricing_plan_id":"free"},{"bike_id":"5b251e63-3474-4472-9f8b-d4e37bfb2d9a","system_id":"levelo_inurba_marseille","lat":43.289184,"lon":5.366408,"is_reserved":false,"is_disabled":false,"rental_uris":{"android":"levelo://app?vid=5b251e63-3474-4472-9f8b-d4e37bfb2d9a","ios":"levelo://app?vid=5b251e63-3474-4472-9f8b-d4e37bfb2d9a"},"vehicle_type_id":"4","last_reported":1702537588,"current_range_meters":13600,"station_id":"ce4bhap2rcd13ifvqek0","pricing_plan_id":"free"},{"bike_id":"e2b5ec1d-4a50-45c5-bcc5-c25583febb4f","system_id":"levelo_inurba_marseille","lat":43.28854,"lon":5.35869,"is_reserved":false,"is_disabled":false,"rental_uris":{"android":"levelo://app?vid=e2b5ec1d-4a50-45c5-bcc5-c25583febb4f","ios":"levelo://app?vid=e2b5ec1d-4a50-45c5-bcc5-c25583febb4f"},"vehicle_type_id":"4","last_reported":1702537588,"current_range_meters":22400,"station_id":"ce4bhb12rcd13ifvqem0","pricing_plan_id":"free"},{"bike_id":"98d26069-5923-49ef-abe7-d98f82088b33","system_id":"levelo_inurba_marseille","lat":43.28849,"lon":5.35851,"is_reserved":false,"is_disabled":false,"rental_uris":{"android":"levelo://app?vid=98d26069-5923-49ef-abe7-d98f82088b33","ios":"levelo://app?vid=98d26069-5923-49ef-abe7-d98f82088b33"},"vehicle_type_id":"4","last_reported":1702537588,"current_range_meters":29200,"station_id":"ce4bhb12rcd13ifvqem0","pricing_plan_id":"free"},{"bike_id":"cdd263cb-a193-408d-ad13-ab4bcce67fcc","system_id":"levelo_inurba_marseille","lat":43.31272,"lon":5.40175,"is_reserved":false,"is_disabled":false,"rental_uris":{"android":"levelo://app?vid=cdd263cb-a193-408d-ad13-ab4bcce67fcc","ios":"levelo://app?vid=cdd263cb-a193-408d-ad13-ab4bcce67fcc"},"vehicle_type_id":"4","last_reported":1702537588,"current_range_meters":19200,"station_id":"ce4bh092rcd13ifvqd30","pricing_plan_id":"free"},{"bike_id":"63071938-a9c0-45b7-9e9e-7e084c140631","system_id":"levelo_inurba_marseille","lat":43.337496,"lon":5.374673,"is_reserved":false,"is_disabled":false,"rental_uris":{"android":"levelo://app?vid=63071938-a9c0-45b7-9e9e-7e084c140631","ios":"levelo://app?vid=63071938-a9c0-45b7-9e9e-7e084c140631"},"vehicle_type_id":"4","last_reported":1702537588,"current_range_meters":30000,"station_id":"","pricing_plan_id":"free"},{"bike_id":"1a99aa28-6b0a-4e12-a67c-d2e5d77ae6dc","system_id":"levelo_inurba_marseille","lat":43.286593,"lon":5.363346,"is_reserved":false,"is_disabled":false,"rental_uris":{"android":"levelo://app?vid=1a99aa28-6b0a-4e12-a67c-d2e5d77ae6dc","ios":"levelo://app?vid=1a99aa28-6b0a-4e12-a67c-d2e5d77ae6dc"},"vehicle_type_id":"4","last_reported":1702537588,"current_range_meters":30400,"station_id":"ce4bhah2rcd13ifvqej0","pricing_plan_id":"free"},{"bike_id":"41b17d89-1d07-4eb9-9fa2-6de70604cf1d","system_id":"levelo_inurba_marseille","lat":43.290345,"lon":5.38646,"is_reserved":false,"is_disabled":false,"rental_uris":{"android":"levelo://app?vid=41b17d89-1d07-4eb9-9fa2-6de70604cf1d","ios":"levelo://app?vid=41b17d89-1d07-4eb9-9fa2-6de70604cf1d"},"vehicle_type_id":"4","last_reported":1702537588,"current_range_meters":25200,"station_id":"ce4bh4p2rcd13ifvqe0g","pricing_plan_id":"free"},{"bike_id":"763abcb4-e465-4c45-979d-8e79ab527065","system_id":"levelo_inurba_marseille","lat":43.302759,"lon":5.400793,"is_reserved":false,"is_disabled":false,"rental_uris":{"android":"levelo://app?vid=763abcb4-e465-4c45-979d-8e79ab527065","ios":"levelo://app?vid=763abcb4-e465-4c45-979d-8e79ab527065"},"vehicle_type_id":"4","last_reported":1702537588,"current_range_meters":29600,"station_id":"ce4bgvh2rcd13ifvqcs0","pricing_plan_id":"free"},{"bike_id":"4fff6b9d-5a4e-4d8d-ae26-e87c6bd70e3c","system_id":"levelo_inurba_marseille","lat":43.287185,"lon":5.379373,"is_reserved":false,"is_disabled":false,"rental_uris":{"android":"levelo://app?vid=4fff6b9d-5a4e-4d8d-ae26-e87c6bd70e3c","ios":"levelo://app?vid=4fff6b9d-5a4e-4d8d-ae26-e87c6bd70e3c"},"vehicle_type_id":"4","last_reported":1702537588,"current_range_meters":22400,"station_id":"ce4bh9p2rcd13ifvqec0","pricing_plan_id":"free"},{"bike_id":"5ef04ffa-cef0-4695-9de2-7d962bfaf802","system_id":"levelo_inurba_marseille","lat":43.291994,"lon":5.392907,"is_reserved":false,"is_disabled":false,"rental_uris":{"android":"levelo://app?vid=5ef04ffa-cef0-4695-9de2-7d962bfaf802","ios":"levelo://app?vid=5ef04ffa-cef0-4695-9de2-7d962bfaf802"},"vehicle_type_id":"4","last_reported":1702537588,"current_range_meters":28800,"station_id":"ce4bh192rcd13ifvqdd0","pricing_plan_id":"free"},{"bike_id":"e48ef7b1-a491-49ba-89ae-9e260d5b4141","system_id":"levelo_inurba_marseille","lat":43.319179,"lon":5.407725,"is_reserved":false,"is_disabled":false,"rental_uris":{"android":"levelo://app?vid=e48ef7b1-a491-49ba-89ae-9e260d5b4141","ios":"levelo://app?vid=e48ef7b1-a491-49ba-89ae-9e260d5b4141"},"vehicle_type_id":"4","last_reported":1702537588,"current_range_meters":4800,"station_id":"ce4bhq12rcd13ifvqhig","pricing_plan_id":"free"},{"bike_id":"7e207f48-415b-4d59-ad0f-9ea29319ecd9","system_id":"levelo_inurba_marseille","lat":43.319179,"lon":5.407725,"is_reserved":false,"is_disabled":false,"rental_uris":{"android":"levelo://app?vid=7e207f48-415b-4d59-ad0f-9ea29319ecd9","ios":"levelo://app?vid=7e207f48-415b-4d59-ad0f-9ea29319ecd9"},"vehicle_type_id":"4","last_reported":1702537588,"current_range_meters":17600,"station_id":"ce4bhq12rcd13ifvqhig","pricing_plan_id":"free"},{"bike_id":"d42c0b02-cd55-44d9-8e86-820835e7be64","system_id":"levelo_inurba_marseille","lat":43.323464,"lon":5.406297,"is_reserved":false,"is_disabled":false,"rental_uris":{"android":"levelo://app?vid=d42c0b02-cd55-44d9-8e86-820835e7be64","ios":"levelo://app?vid=d42c0b02-cd55-44d9-8e86-820835e7be64"},"vehicle_type_id":"4","last_reported":1702537588,"current_range_meters":30400,"station_id":"ce4bhq92rcd13ifvqhjg","pricing_plan_id":"free"},{"bike_id":"839c4d97-a67b-4db1-a7b3-899729cbd560","system_id":"levelo_inurba_marseille","lat":43.283494,"lon":5.380945,"is_reserved":false,"is_disabled":false,"rental_uris":{"android":"levelo://app?vid=839c4d97-a67b-4db1-a7b3-899729cbd560","ios":"levelo://app?vid=839c4d97-a67b-4db1-a7b3-899729cbd560"},"vehicle_type_id":"4","last_reported":1702537588,"current_range_meters":22400,"station_id":"ce4bh412rcd13ifvqdr0","pricing_plan_id":"free"},{"bike_id":"01ff186d-ea01-412b-abc2-b245d8ad84c6","system_id":"levelo_inurba_marseille","lat":43.326605,"lon":5.409903,"is_reserved":false,"is_disabled":false,"rental_uris":{"android":"levelo://app?vid=01ff186d-ea01-412b-abc2-b245d8ad84c6","ios":"levelo://app?vid=01ff186d-ea01-412b-abc2-b245d8ad84c6"},"vehicle_type_id":"4","last_reported":1702537588,"current_range_meters":25600,"station_id":"ce4bhpp2rcd13ifvqhgg","pricing_plan_id":"free"},{"bike_id":"26b2f7bd-6798-440e-a012-5618e054c289","system_id":"levelo_inurba_marseille","lat":43.304188,"lon":5.412904,"is_reserved":false,"is_disabled":false,"rental_uris":{"android":"levelo://app?vid=26b2f7bd-6798-440e-a012-5618e054c289","ios":"levelo://app?vid=26b2f7bd-6798-440e-a012-5618e054c289"},"vehicle_type_id":"4","last_reported":1702537588,"current_range_meters":31200,"station_id":"ce4bhop2rcd13ifvqh8g","pricing_plan_id":"free"},{"bike_id":"80c5dfef-5bf6-4fd0-8e92-99403c5ce3d8","system_id":"levelo_inurba_marseille","lat":43.287154,"lon":5.399979,"is_reserved":false,"is_disabled":false,"rental_uris":{"android":"levelo://app?vid=80c5dfef-5bf6-4fd0-8e92-99403c5ce3d8","ios":"levelo://app?vid=80c5dfef-5bf6-4fd0-8e92-99403c5ce3d8"},"vehicle_type_id":"4","last_reported":1702537588,"current_range_meters":23200,"station_id":"ce4bho92rcd13ifvqh3g","pricing_plan_id":"free"},{"bike_id":"5e3cb2c8-b0e6-4cec-974f-fde58e103968","system_id":"levelo_inurba_marseille","lat":43.279742,"lon":5.38744,"is_reserved":false,"is_disabled":false,"rental_uris":{"android":"levelo://app?vid=5e3cb2c8-b0e6-4cec-974f-fde58e103968","ios":"levelo://app?vid=5e3cb2c8-b0e6-4cec-974f-fde58e103968"},"vehicle_type_id":"4","last_reported":1702537588,"current_range_meters":29200,"station_id":"ce4bhg12rcd13ifvqf80","pricing_plan_id":"free"},{"bike_id":"37b1113c-51b2-47f3-8f3d-92b406d0acf8","system_id":"levelo_inurba_marseille","lat":43.325233,"lon":5.414318,"is_reserved":false,"is_disabled":false,"rental_uris":{"android":"levelo://app?vid=37b1113c-51b2-47f3-8f3d-92b406d0acf8","ios":"levelo://app?vid=37b1113c-51b2-47f3-8f3d-92b406d0acf8"},"vehicle_type_id":"4","last_reported":1702537588,"current_range_meters":28800,"station_id":"ce4bhq12rcd13ifvqhhg","pricing_plan_id":"free"},{"bike_id":"c016e672-b4d7-49b9-b38f-69fd9e1cf7ed","system_id":"levelo_inurba_marseille","lat":43.325243,"lon":5.414326,"is_reserved":false,"is_disabled":false,"rental_uris":{"android":"levelo://app?vid=c016e672-b4d7-49b9-b38f-69fd9e1cf7ed","ios":"levelo://app?vid=c016e672-b4d7-49b9-b38f-69fd9e1cf7ed"},"vehicle_type_id":"4","last_reported":1702537588,"current_range_meters":20800,"station_id":"ce4bhq12rcd13ifvqhhg","pricing_plan_id":"free"},{"bike_id":"74973e57-6a7e-4011-8d5e-0912c55eb2aa","system_id":"levelo_inurba_marseille","lat":43.35096,"lon":5.36808,"is_reserved":false,"is_disabled":false,"rental_uris":{"android":"levelo://app?vid=74973e57-6a7e-4011-8d5e-0912c55eb2aa","ios":"levelo://app?vid=74973e57-6a7e-4011-8d5e-0912c55eb2aa"},"vehicle_type_id":"4","last_reported":1702537588,"current_range_meters":0,"station_id":"","pricing_plan_id":"free"},{"bike_id":"596f7daa-01af-4679-b8a8-91c32e7841f3","system_id":"levelo_inurba_marseille","lat":43.280784,"lon":5.396622,"is_reserved":false,"is_disabled":false,"rental_uris":{"android":"levelo://app?vid=596f7daa-01af-4679-b8a8-91c32e7841f3","ios":"levelo://app?vid=596f7daa-01af-4679-b8a8-91c32e7841f3"},"vehicle_type_id":"4","last_reported":1702537588,"current_range_meters":800,"station_id":"ce4bho12rcd13ifvqh2g","pricing_plan_id":"free"},{"bike_id":"90ee7b51-4dde-47c3-9bb0-fd9d3bf39dd3","system_id":"levelo_inurba_marseille","lat":43.280784,"lon":5.396622,"is_reserved":false,"is_disabled":false,"rental_uris":{"android":"levelo://app?vid=90ee7b51-4dde-47c3-9bb0-fd9d3bf39dd3","ios":"levelo://app?vid=90ee7b51-4dde-47c3-9bb0-fd9d3bf39dd3"},"vehicle_type_id":"4","last_reported":1702537588,"current_range_meters":15200,"station_id":"ce4bho12rcd13ifvqh2g","pricing_plan_id":"free"},{"bike_id":"95999ca3-6ed8-4d64-9c6d-96ed6ed03926","system_id":"levelo_inurba_marseille","lat":43.273613,"lon":5.362705,"is_reserved":false,"is_disabled":false,"rental_uris":{"android":"levelo://app?vid=95999ca3-6ed8-4d64-9c6d-96ed6ed03926","ios":"levelo://app?vid=95999ca3-6ed8-4d64-9c6d-96ed6ed03926"},"vehicle_type_id":"4","last_reported":1702537588,"current_range_meters":29200,"station_id":"ce4bhbh2rcd13ifvqeo0","pricing_plan_id":"free"},{"bike_id":"2b7c0b87-9916-4175-ac1e-161315ea313d","system_id":"levelo_inurba_marseille","lat":43.336148,"lon":5.410349,"is_reserved":false,"is_disabled":false,"rental_uris":{"android":"levelo://app?vid=2b7c0b87-9916-4175-ac1e-161315ea313d","ios":"levelo://app?vid=2b7c0b87-9916-4175-ac1e-161315ea313d"},"vehicle_type_id":"4","last_reported":1702537588,"current_range_meters":21600,"station_id":"ce4bhqh2rcd13ifvqhmg","pricing_plan_id":"free"},{"bike_id":"636200ae-9008-44c2-849c-825fdfd404cd","system_id":"levelo_inurba_marseille","lat":43.276769,"lon":5.388787,"is_reserved":false,"is_disabled":false,"rental_uris":{"android":"levelo://app?vid=636200ae-9008-44c2-849c-825fdfd404cd","ios":"levelo://app?vid=636200ae-9008-44c2-849c-825fdfd404cd"},"vehicle_type_id":"4","last_reported":1702537588,"current_range_meters":26800,"station_id":"ce4bhi12rcd13ifvqfo0","pricing_plan_id":"free"},{"bike_id":"b247ed0a-4850-4260-b834-860ac593a91b","system_id":"levelo_inurba_marseille","lat":43.279975,"lon":5.40009,"is_reserved":false,"is_disabled":false,"rental_uris":{"android":"levelo://app?vid=b247ed0a-4850-4260-b834-860ac593a91b","ios":"levelo://app?vid=b247ed0a-4850-4260-b834-860ac593a91b"},"vehicle_type_id":"4","last_reported":1702537588,"current_range_meters":29600,"station_id":"ce4bho92rcd13ifvqh4g","pricing_plan_id":"free"},{"bike_id":"7b1fa29e-caff-4f67-96a3-110a1ff97aa7","system_id":"levelo_inurba_marseille","lat":43.317259,"lon":5.423961,"is_reserved":false,"is_disabled":false,"rental_uris":{"android":"levelo://app?vid=7b1fa29e-caff-4f67-96a3-110a1ff97aa7","ios":"levelo://app?vid=7b1fa29e-caff-4f67-96a3-110a1ff97aa7"},"vehicle_type_id":"4","last_reported":1702537588,"current_range_meters":20000,"station_id":"ce4bhp92rcd13ifvqhbg","pricing_plan_id":"free"},{"bike_id":"55f8cf7b-a384-4860-b1f5-075034029351","system_id":"levelo_inurba_marseille","lat":43.31715,"lon":5.42399,"is_reserved":false,"is_disabled":false,"rental_uris":{"android":"levelo://app?vid=55f8cf7b-a384-4860-b1f5-075034029351","ios":"levelo://app?vid=55f8cf7b-a384-4860-b1f5-075034029351"},"vehicle_type_id":"4","last_reported":1702537588,"current_range_meters":22000,"station_id":"ce4bhp92rcd13ifvqhbg","pricing_plan_id":"free"},{"bike_id":"fdfea060-a937-4f92-8430-8f650d233de2","system_id":"levelo_inurba_marseille","lat":43.317121,"lon":5.423936,"is_reserved":false,"is_disabled":false,"rental_uris":{"android":"levelo://app?vid=fdfea060-a937-4f92-8430-8f650d233de2","ios":"levelo://app?vid=fdfea060-a937-4f92-8430-8f650d233de2"},"vehicle_type_id":"4","last_reported":1702537588,"current_range_meters":28400,"station_id":"ce4bhp92rcd13ifvqhbg","pricing_plan_id":"free"},{"bike_id":"6161d674-6206-475b-bc2f-d94e3f80d335","system_id":"levelo_inurba_marseille","lat":43.317121,"lon":5.423936,"is_reserved":false,"is_disabled":false,"rental_uris":{"android":"levelo://app?vid=6161d674-6206-475b-bc2f-d94e3f80d335","ios":"levelo://app?vid=6161d674-6206-475b-bc2f-d94e3f80d335"},"vehicle_type_id":"4","last_reported":1702537588,"current_range_meters":28800,"station_id":"ce4bhp92rcd13ifvqhbg","pricing_plan_id":"free"},{"bike_id":"800bce67-be39-4ae9-a103-d9ca33d8cd2f","system_id":"levelo_inurba_marseille","lat":43.310785,"lon":5.424305,"is_reserved":false,"is_disabled":false,"rental_uris":{"android":"levelo://app?vid=800bce67-be39-4ae9-a103-d9ca33d8cd2f","ios":"levelo://app?vid=800bce67-be39-4ae9-a103-d9ca33d8cd2f"},"vehicle_type_id":"4","last_reported":1702537588,"current_range_meters":28000,"station_id":"ce4bhp92rcd13ifvqhag","pricing_plan_id":"free"},{"bike_id":"5ec84b0d-80c0-49af-a281-cf9a8a8cec21","system_id":"levelo_inurba_marseille","lat":43.340804,"lon":5.410219,"is_reserved":false,"is_disabled":false,"rental_uris":{"android":"levelo://app?vid=5ec84b0d-80c0-49af-a281-cf9a8a8cec21","ios":"levelo://app?vid=5ec84b0d-80c0-49af-a281-cf9a8a8cec21"},"vehicle_type_id":"4","last_reported":1702537588,"current_range_meters":20000,"station_id":"ce4bhqh2rcd13ifvqhlg","pricing_plan_id":"free"},{"bike_id":"3ca2c2d2-99b0-4aa6-a05d-e30f02e6a7fb","system_id":"levelo_inurba_marseille","lat":43.27588,"lon":5.39495,"is_reserved":false,"is_disabled":false,"rental_uris":{"android":"levelo://app?vid=3ca2c2d2-99b0-4aa6-a05d-e30f02e6a7fb","ios":"levelo://app?vid=3ca2c2d2-99b0-4aa6-a05d-e30f02e6a7fb"},"vehicle_type_id":"4","last_reported":1702537588,"current_range_meters":12400,"station_id":"","pricing_plan_id":"free"},{"bike_id":"9180feec-a81e-4eb9-b5a4-215b3881fca0","system_id":"levelo_inurba_marseille","lat":43.26957,"lon":5.38634,"is_reserved":false,"is_disabled":false,"rental_uris":{"android":"levelo://app?vid=9180feec-a81e-4eb9-b5a4-215b3881fca0","ios":"levelo://app?vid=9180feec-a81e-4eb9-b5a4-215b3881fca0"},"vehicle_type_id":"4","last_reported":1702537588,"current_range_meters":28400,"station_id":"ce4bhh92rcd13ifvqfh0","pricing_plan_id":"free"},{"bike_id":"b7fad4de-e56a-4cd9-8070-d1ee912d510e","system_id":"levelo_inurba_marseille","lat":43.26956,"lon":5.38631,"is_reserved":false,"is_disabled":false,"rental_uris":{"android":"levelo://app?vid=b7fad4de-e56a-4cd9-8070-d1ee912d510e","ios":"levelo://app?vid=b7fad4de-e56a-4cd9-8070-d1ee912d510e"},"vehicle_type_id":"4","last_reported":1702537588,"current_range_meters":26400,"station_id":"ce4bhh92rcd13ifvqfh0","pricing_plan_id":"free"},{"bike_id":"29ad7a41-cfe3-447b-b95d-806ddc6b1c4b","system_id":"levelo_inurba_marseille","lat":43.26956,"lon":5.38632,"is_reserved":false,"is_disabled":false,"rental_uris":{"android":"levelo://app?vid=29ad7a41-cfe3-447b-b95d-806ddc6b1c4b","ios":"levelo://app?vid=29ad7a41-cfe3-447b-b95d-806ddc6b1c4b"},"vehicle_type_id":"4","last_reported":1702537588,"current_range_meters":29600,"station_id":"ce4bhh92rcd13ifvqfh0","pricing_plan_id":"free"},{"bike_id":"1e22f4ff-4d36-4f15-8b6e-bf14dd2bbe89","system_id":"levelo_inurba_marseille","lat":43.26957,"lon":5.38639,"is_reserved":false,"is_disabled":false,"rental_uris":{"android":"levelo://app?vid=1e22f4ff-4d36-4f15-8b6e-bf14dd2bbe89","ios":"levelo://app?vid=1e22f4ff-4d36-4f15-8b6e-bf14dd2bbe89"},"vehicle_type_id":"4","last_reported":1702537588,"current_range_meters":28400,"station_id":"ce4bhh92rcd13ifvqfh0","pricing_plan_id":"free"},{"bike_id":"3e37708d-d25f-41df-80d3-9a11a896bfee","system_id":"levelo_inurba_marseille","lat":43.26953,"lon":5.38631,"is_reserved":false,"is_disabled":false,"rental_uris":{"android":"levelo://app?vid=3e37708d-d25f-41df-80d3-9a11a896bfee","ios":"levelo://app?vid=3e37708d-d25f-41df-80d3-9a11a896bfee"},"vehicle_type_id":"4","last_reported":1702537588,"current_range_meters":27200,"station_id":"ce4bhh92rcd13ifvqfh0","pricing_plan_id":"free"},{"bike_id":"480011b9-f9d2-4fdf-9b1c-aeac6f9eef67","system_id":"levelo_inurba_marseille","lat":43.26949,"lon":5.38627,"is_reserved":false,"is_disabled":false,"rental_uris":{"android":"levelo://app?vid=480011b9-f9d2-4fdf-9b1c-aeac6f9eef67","ios":"levelo://app?vid=480011b9-f9d2-4fdf-9b1c-aeac6f9eef67"},"vehicle_type_id":"4","last_reported":1702537588,"current_range_meters":29600,"station_id":"ce4bhh92rcd13ifvqfh0","pricing_plan_id":"free"},{"bike_id":"5821cd01-7346-414d-b49a-d556c7d46491","system_id":"levelo_inurba_marseille","lat":43.269467,"lon":5.386439,"is_reserved":false,"is_disabled":false,"rental_uris":{"android":"levelo://app?vid=5821cd01-7346-414d-b49a-d556c7d46491","ios":"levelo://app?vid=5821cd01-7346-414d-b49a-d556c7d46491"},"vehicle_type_id":"4","last_reported":1702537588,"current_range_meters":31200,"station_id":"ce4bhh92rcd13ifvqfh0","pricing_plan_id":"free"},{"bike_id":"f76d2436-11e3-4400-a3b4-1ba69f328fc5","system_id":"levelo_inurba_marseille","lat":43.269319,"lon":5.389397,"is_reserved":false,"is_disabled":false,"rental_uris":{"android":"levelo://app?vid=f76d2436-11e3-4400-a3b4-1ba69f328fc5","ios":"levelo://app?vid=f76d2436-11e3-4400-a3b4-1ba69f328fc5"},"vehicle_type_id":"4","last_reported":1702537588,"current_range_meters":28800,"station_id":"ce4bhhh2rcd13ifvqfl0","pricing_plan_id":"free"},{"bike_id":"cb25c8bf-e4ee-4d5d-bae9-3b58e7e9abcd","system_id":"levelo_inurba_marseille","lat":43.265714,"lon":5.372891,"is_reserved":false,"is_disabled":false,"rental_uris":{"android":"levelo://app?vid=cb25c8bf-e4ee-4d5d-bae9-3b58e7e9abcd","ios":"levelo://app?vid=cb25c8bf-e4ee-4d5d-bae9-3b58e7e9abcd"},"vehicle_type_id":"4","last_reported":1702537588,"current_range_meters":29600,"station_id":"ce4bhg12rcd13ifvqf70","pricing_plan_id":"free"},{"bike_id":"8a9e58f3-56be-461e-a16a-2bf862e0cbae","system_id":"levelo_inurba_marseille","lat":43.267966,"lon":5.393976,"is_reserved":false,"is_disabled":false,"rental_uris":{"android":"levelo://app?vid=8a9e58f3-56be-461e-a16a-2bf862e0cbae","ios":"levelo://app?vid=8a9e58f3-56be-461e-a16a-2bf862e0cbae"},"vehicle_type_id":"4","last_reported":1702537588,"current_range_meters":26800,"station_id":"ce4bhh12rcd13ifvqfg0","pricing_plan_id":"free"},{"bike_id":"20c66faa-2e46-4a6d-b760-ee5418dbd903","system_id":"levelo_inurba_marseille","lat":43.26566,"lon":5.39017,"is_reserved":false,"is_disabled":false,"rental_uris":{"android":"levelo://app?vid=20c66faa-2e46-4a6d-b760-ee5418dbd903","ios":"levelo://app?vid=20c66faa-2e46-4a6d-b760-ee5418dbd903"},"vehicle_type_id":"4","last_reported":1702537588,"current_range_meters":1600,"station_id":"ce4bhe12rcd13ifvqf30","pricing_plan_id":"free"},{"bike_id":"f81c4507-8ea1-4520-a8b9-1d289e54fc0e","system_id":"levelo_inurba_marseille","lat":43.26565,"lon":5.39018,"is_reserved":false,"is_disabled":false,"rental_uris":{"android":"levelo://app?vid=f81c4507-8ea1-4520-a8b9-1d289e54fc0e","ios":"levelo://app?vid=f81c4507-8ea1-4520-a8b9-1d289e54fc0e"},"vehicle_type_id":"4","last_reported":1702537588,"current_range_meters":2000,"station_id":"ce4bhe12rcd13ifvqf30","pricing_plan_id":"free"},{"bike_id":"96dd960e-9e5f-4ba8-a693-12d87ec3b4a9","system_id":"levelo_inurba_marseille","lat":43.271388,"lon":5.409269,"is_reserved":false,"is_disabled":false,"rental_uris":{"android":"levelo://app?vid=96dd960e-9e5f-4ba8-a693-12d87ec3b4a9","ios":"levelo://app?vid=96dd960e-9e5f-4ba8-a693-12d87ec3b4a9"},"vehicle_type_id":"4","last_reported":1702537588,"current_range_meters":31200,"station_id":"ce4bhl12rcd13ifvqgf0","pricing_plan_id":"free"},{"bike_id":"293b0fd3-65b1-42bb-807b-a77a51ee2260","system_id":"levelo_inurba_marseille","lat":43.271388,"lon":5.409269,"is_reserved":false,"is_disabled":false,"rental_uris":{"android":"levelo://app?vid=293b0fd3-65b1-42bb-807b-a77a51ee2260","ios":"levelo://app?vid=293b0fd3-65b1-42bb-807b-a77a51ee2260"},"vehicle_type_id":"4","last_reported":1702537588,"current_range_meters":30800,"station_id":"ce4bhl12rcd13ifvqgf0","pricing_plan_id":"free"},{"bike_id":"d7c68083-de0d-4032-884a-e4511850567b","system_id":"levelo_inurba_marseille","lat":43.26202,"lon":5.379299,"is_reserved":false,"is_disabled":false,"rental_uris":{"android":"levelo://app?vid=d7c68083-de0d-4032-884a-e4511850567b","ios":"levelo://app?vid=d7c68083-de0d-4032-884a-e4511850567b"},"vehicle_type_id":"4","last_reported":1702537588,"current_range_meters":31200,"station_id":"ce4bhjp2rcd13ifvqg90","pricing_plan_id":"free"},{"bike_id":"237634d4-2d23-479f-935b-09427197b407","system_id":"levelo_inurba_marseille","lat":43.270888,"lon":5.409477,"is_reserved":false,"is_disabled":false,"rental_uris":{"android":"levelo://app?vid=237634d4-2d23-479f-935b-09427197b407","ios":"levelo://app?vid=237634d4-2d23-479f-935b-09427197b407"},"vehicle_type_id":"4","last_reported":1702537588,"current_range_meters":7200,"station_id":"","pricing_plan_id":"free"},{"bike_id":"f860f387-f2ce-4d8f-830e-bd8a0d08dbe2","system_id":"levelo_inurba_marseille","lat":43.298768,"lon":5.43643,"is_reserved":false,"is_disabled":false,"rental_uris":{"android":"levelo://app?vid=f860f387-f2ce-4d8f-830e-bd8a0d08dbe2","ios":"levelo://app?vid=f860f387-f2ce-4d8f-830e-bd8a0d08dbe2"},"vehicle_type_id":"4","last_reported":1702537588,"current_range_meters":26000,"station_id":"ce4bhpp2rcd13ifvqhfg","pricing_plan_id":"free"},{"bike_id":"38a4a3ac-b01c-43e0-abb4-5a012521fc8c","system_id":"levelo_inurba_marseille","lat":43.298768,"lon":5.43643,"is_reserved":false,"is_disabled":false,"rental_uris":{"android":"levelo://app?vid=38a4a3ac-b01c-43e0-abb4-5a012521fc8c","ios":"levelo://app?vid=38a4a3ac-b01c-43e0-abb4-5a012521fc8c"},"vehicle_type_id":"4","last_reported":1702537588,"current_range_meters":31200,"station_id":"ce4bhpp2rcd13ifvqhfg","pricing_plan_id":"free"},{"bike_id":"c7358ec1-3bc3-43e4-9855-d45b98dfb855","system_id":"levelo_inurba_marseille","lat":43.2607,"lon":5.393983,"is_reserved":false,"is_disabled":false,"rental_uris":{"android":"levelo://app?vid=c7358ec1-3bc3-43e4-9855-d45b98dfb855","ios":"levelo://app?vid=c7358ec1-3bc3-43e4-9855-d45b98dfb855"},"vehicle_type_id":"4","last_reported":1702537588,"current_range_meters":27200,"station_id":"ce4bhh92rcd13ifvqfj0","pricing_plan_id":"free"},{"bike_id":"04d2e7a8-d99a-4a76-a1d0-bb409b1c97df","system_id":"levelo_inurba_marseille","lat":43.2607,"lon":5.393983,"is_reserved":false,"is_disabled":false,"rental_uris":{"android":"levelo://app?vid=04d2e7a8-d99a-4a76-a1d0-bb409b1c97df","ios":"levelo://app?vid=04d2e7a8-d99a-4a76-a1d0-bb409b1c97df"},"vehicle_type_id":"4","last_reported":1702537588,"current_range_meters":29200,"station_id":"ce4bhh92rcd13ifvqfj0","pricing_plan_id":"free"},{"bike_id":"e9ebb918-c38e-461b-b1a2-1b26ed9053cb","system_id":"levelo_inurba_marseille","lat":43.275028,"lon":5.424534,"is_reserved":false,"is_disabled":false,"rental_uris":{"android":"levelo://app?vid=e9ebb918-c38e-461b-b1a2-1b26ed9053cb","ios":"levelo://app?vid=e9ebb918-c38e-461b-b1a2-1b26ed9053cb"},"vehicle_type_id":"4","last_reported":1702537588,"current_range_meters":9600,"station_id":"ce4bhn92rcd13ifvqgrg","pricing_plan_id":"free"},{"bike_id":"c95706b8-c06e-493a-987b-3f8972a4b709","system_id":"levelo_inurba_marseille","lat":43.275028,"lon":5.424534,"is_reserved":false,"is_disabled":false,"rental_uris":{"android":"levelo://app?vid=c95706b8-c06e-493a-987b-3f8972a4b709","ios":"levelo://app?vid=c95706b8-c06e-493a-987b-3f8972a4b709"},"vehicle_type_id":"4","last_reported":1702537588,"current_range_meters":26800,"station_id":"ce4bhn92rcd13ifvqgrg","pricing_plan_id":"free"},{"bike_id":"7209867f-c1fa-4eb5-8165-a2a822f861f1","system_id":"levelo_inurba_marseille","lat":43.275,"lon":5.42452,"is_reserved":false,"is_disabled":false,"rental_uris":{"android":"levelo://app?vid=7209867f-c1fa-4eb5-8165-a2a822f861f1","ios":"levelo://app?vid=7209867f-c1fa-4eb5-8165-a2a822f861f1"},"vehicle_type_id":"4","last_reported":1702537588,"current_range_meters":6800,"station_id":"ce4bhn92rcd13ifvqgrg","pricing_plan_id":"free"},{"bike_id":"cbfae3c9-d984-4d20-af84-a99394943bdd","system_id":"levelo_inurba_marseille","lat":43.27497,"lon":5.42449,"is_reserved":false,"is_disabled":false,"rental_uris":{"android":"levelo://app?vid=cbfae3c9-d984-4d20-af84-a99394943bdd","ios":"levelo://app?vid=cbfae3c9-d984-4d20-af84-a99394943bdd"},"vehicle_type_id":"4","last_reported":1702537588,"current_range_meters":22400,"station_id":"ce4bhn92rcd13ifvqgrg","pricing_plan_id":"free"},{"bike_id":"a60167d8-a349-4ef7-ac6e-3f3b0126a741","system_id":"levelo_inurba_marseille","lat":43.275028,"lon":5.424534,"is_reserved":false,"is_disabled":false,"rental_uris":{"android":"levelo://app?vid=a60167d8-a349-4ef7-ac6e-3f3b0126a741","ios":"levelo://app?vid=a60167d8-a349-4ef7-ac6e-3f3b0126a741"},"vehicle_type_id":"4","last_reported":1702537588,"current_range_meters":26400,"station_id":"ce4bhn92rcd13ifvqgrg","pricing_plan_id":"free"},{"bike_id":"5c9e7f96-8059-476e-b740-05c49dd46bfe","system_id":"levelo_inurba_marseille","lat":43.275028,"lon":5.424534,"is_reserved":false,"is_disabled":false,"rental_uris":{"android":"levelo://app?vid=5c9e7f96-8059-476e-b740-05c49dd46bfe","ios":"levelo://app?vid=5c9e7f96-8059-476e-b740-05c49dd46bfe"},"vehicle_type_id":"4","last_reported":1702537588,"current_range_meters":25200,"station_id":"ce4bhn92rcd13ifvqgrg","pricing_plan_id":"free"},{"bike_id":"48685aab-7b3a-4db2-9744-28d4e65317bd","system_id":"levelo_inurba_marseille","lat":43.275028,"lon":5.424534,"is_reserved":false,"is_disabled":false,"rental_uris":{"android":"levelo://app?vid=48685aab-7b3a-4db2-9744-28d4e65317bd","ios":"levelo://app?vid=48685aab-7b3a-4db2-9744-28d4e65317bd"},"vehicle_type_id":"4","last_reported":1702537588,"current_range_meters":26800,"station_id":"ce4bhn92rcd13ifvqgrg","pricing_plan_id":"free"},{"bike_id":"cd563140-6cc4-491c-90a0-6a28e6f2cda7","system_id":"levelo_inurba_marseille","lat":43.275028,"lon":5.424534,"is_reserved":false,"is_disabled":false,"rental_uris":{"android":"levelo://app?vid=cd563140-6cc4-491c-90a0-6a28e6f2cda7","ios":"levelo://app?vid=cd563140-6cc4-491c-90a0-6a28e6f2cda7"},"vehicle_type_id":"4","last_reported":1702537588,"current_range_meters":23600,"station_id":"ce4bhn92rcd13ifvqgrg","pricing_plan_id":"free"},{"bike_id":"62dab26c-e89c-4d3c-b191-00d5f81a4916","system_id":"levelo_inurba_marseille","lat":43.275028,"lon":5.424534,"is_reserved":false,"is_disabled":false,"rental_uris":{"android":"levelo://app?vid=62dab26c-e89c-4d3c-b191-00d5f81a4916","ios":"levelo://app?vid=62dab26c-e89c-4d3c-b191-00d5f81a4916"},"vehicle_type_id":"4","last_reported":1702537588,"current_range_meters":10400,"station_id":"ce4bhn92rcd13ifvqgrg","pricing_plan_id":"free"},{"bike_id":"a5441e3e-2bec-4934-9057-6a23a02e89e5","system_id":"levelo_inurba_marseille","lat":43.275028,"lon":5.424534,"is_reserved":false,"is_disabled":false,"rental_uris":{"android":"levelo://app?vid=a5441e3e-2bec-4934-9057-6a23a02e89e5","ios":"levelo://app?vid=a5441e3e-2bec-4934-9057-6a23a02e89e5"},"vehicle_type_id":"4","last_reported":1702537588,"current_range_meters":28400,"station_id":"ce4bhn92rcd13ifvqgrg","pricing_plan_id":"free"},{"bike_id":"8d81024a-82cc-477a-9092-9daf4c646a46","system_id":"levelo_inurba_marseille","lat":43.275028,"lon":5.424534,"is_reserved":false,"is_disabled":false,"rental_uris":{"android":"levelo://app?vid=8d81024a-82cc-477a-9092-9daf4c646a46","ios":"levelo://app?vid=8d81024a-82cc-477a-9092-9daf4c646a46"},"vehicle_type_id":"4","last_reported":1702537588,"current_range_meters":22800,"station_id":"ce4bhn92rcd13ifvqgrg","pricing_plan_id":"free"},{"bike_id":"c0b76d63-cc62-4157-82e7-39267fdb0980","system_id":"levelo_inurba_marseille","lat":43.275028,"lon":5.424534,"is_reserved":false,"is_disabled":false,"rental_uris":{"android":"levelo://app?vid=c0b76d63-cc62-4157-82e7-39267fdb0980","ios":"levelo://app?vid=c0b76d63-cc62-4157-82e7-39267fdb0980"},"vehicle_type_id":"4","last_reported":1702537588,"current_range_meters":25200,"station_id":"ce4bhn92rcd13ifvqgrg","pricing_plan_id":"free"},{"bike_id":"c6bb4aec-0e6a-449a-a6e9-d503ea37f43c","system_id":"levelo_inurba_marseille","lat":43.275028,"lon":5.424534,"is_reserved":false,"is_disabled":false,"rental_uris":{"android":"levelo://app?vid=c6bb4aec-0e6a-449a-a6e9-d503ea37f43c","ios":"levelo://app?vid=c6bb4aec-0e6a-449a-a6e9-d503ea37f43c"},"vehicle_type_id":"4","last_reported":1702537588,"current_range_meters":24800,"station_id":"ce4bhn92rcd13ifvqgrg","pricing_plan_id":"free"},{"bike_id":"69ff6680-51ba-4fb6-bcd3-e47fa46192a8","system_id":"levelo_inurba_marseille","lat":43.25863,"lon":5.39905,"is_reserved":false,"is_disabled":false,"rental_uris":{"android":"levelo://app?vid=69ff6680-51ba-4fb6-bcd3-e47fa46192a8","ios":"levelo://app?vid=69ff6680-51ba-4fb6-bcd3-e47fa46192a8"},"vehicle_type_id":"4","last_reported":1702537588,"current_range_meters":12000,"station_id":"ce4bhl92rcd13ifvqghg","pricing_plan_id":"free"},{"bike_id":"b3778f4b-17a5-414d-a355-5d6709a05873","system_id":"levelo_inurba_marseille","lat":43.25399,"lon":5.38275,"is_reserved":false,"is_disabled":false,"rental_uris":{"android":"levelo://app?vid=b3778f4b-17a5-414d-a355-5d6709a05873","ios":"levelo://app?vid=b3778f4b-17a5-414d-a355-5d6709a05873"},"vehicle_type_id":"4","last_reported":1702537588,"current_range_meters":21600,"station_id":"","pricing_plan_id":"free"},{"bike_id":"8bd0e4eb-14b4-473e-8bff-171af0b8a139","system_id":"levelo_inurba_marseille","lat":43.250251,"lon":5.389382,"is_reserved":false,"is_disabled":false,"rental_uris":{"android":"levelo://app?vid=8bd0e4eb-14b4-473e-8bff-171af0b8a139","ios":"levelo://app?vid=8bd0e4eb-14b4-473e-8bff-171af0b8a139"},"vehicle_type_id":"4","last_reported":1702537588,"current_range_meters":14400,"station_id":"","pricing_plan_id":"free"},{"bike_id":"4609f49a-f338-428d-89d6-a5d7ed19bdbf","system_id":"levelo_inurba_marseille","lat":43.250036,"lon":5.389248,"is_reserved":false,"is_disabled":false,"rental_uris":{"android":"levelo://app?vid=4609f49a-f338-428d-89d6-a5d7ed19bdbf","ios":"levelo://app?vid=4609f49a-f338-428d-89d6-a5d7ed19bdbf"},"vehicle_type_id":"4","last_reported":1702537588,"current_range_meters":31200,"station_id":"ce4bhgp2rcd13ifvqfd0","pricing_plan_id":"free"},{"bike_id":"e2a5d076-ee7a-438d-a54a-4a0c0ddcdb3e","system_id":"levelo_inurba_marseille","lat":43.25001,"lon":5.38923,"is_reserved":false,"is_disabled":false,"rental_uris":{"android":"levelo://app?vid=e2a5d076-ee7a-438d-a54a-4a0c0ddcdb3e","ios":"levelo://app?vid=e2a5d076-ee7a-438d-a54a-4a0c0ddcdb3e"},"vehicle_type_id":"4","last_reported":1702537588,"current_range_meters":25200,"station_id":"ce4bhgp2rcd13ifvqfd0","pricing_plan_id":"free"},{"bike_id":"68c279a6-128f-4cbe-a12e-c3a2e895f66b","system_id":"levelo_inurba_marseille","lat":43.25109,"lon":5.40321,"is_reserved":false,"is_disabled":false,"rental_uris":{"android":"levelo://app?vid=68c279a6-128f-4cbe-a12e-c3a2e895f66b","ios":"levelo://app?vid=68c279a6-128f-4cbe-a12e-c3a2e895f66b"},"vehicle_type_id":"4","last_reported":1702537588,"current_range_meters":15200,"station_id":"ce4bhlh2rcd13ifvqgig","pricing_plan_id":"free"},{"bike_id":"4c8cb241-92a3-4334-acd4-87e9bdcc621e","system_id":"levelo_inurba_marseille","lat":43.245581,"lon":5.395069,"is_reserved":false,"is_disabled":false,"rental_uris":{"android":"levelo://app?vid=4c8cb241-92a3-4334-acd4-87e9bdcc621e","ios":"levelo://app?vid=4c8cb241-92a3-4334-acd4-87e9bdcc621e"},"vehicle_type_id":"4","last_reported":1702537588,"current_range_meters":28800,"station_id":"ce4bhlp2rcd13ifvqgjg","pricing_plan_id":"free"},{"bike_id":"a5f55ee0-2479-4e72-9590-80015b564a08","system_id":"levelo_inurba_marseille","lat":43.24076,"lon":5.37757,"is_reserved":false,"is_disabled":false,"rental_uris":{"android":"levelo://app?vid=a5f55ee0-2479-4e72-9590-80015b564a08","ios":"levelo://app?vid=a5f55ee0-2479-4e72-9590-80015b564a08"},"vehicle_type_id":"4","last_reported":1702537588,"current_range_meters":28400,"station_id":"ce4bhnp2rcd13ifvqgvg","pricing_plan_id":"free"},{"bike_id":"d737be68-4571-4f1b-ba4e-d2c56d62bbf8","system_id":"levelo_inurba_marseille","lat":43.24075,"lon":5.37761,"is_reserved":false,"is_disabled":false,"rental_uris":{"android":"levelo://app?vid=d737be68-4571-4f1b-ba4e-d2c56d62bbf8","ios":"levelo://app?vid=d737be68-4571-4f1b-ba4e-d2c56d62bbf8"},"vehicle_type_id":"4","last_reported":1702537588,"current_range_meters":31200,"station_id":"ce4bhnp2rcd13ifvqgvg","pricing_plan_id":"free"},{"bike_id":"4641a1d1-3212-4838-b131-a9f3663836c8","system_id":"levelo_inurba_marseille","lat":43.240623,"lon":5.377642,"is_reserved":false,"is_disabled":false,"rental_uris":{"android":"levelo://app?vid=4641a1d1-3212-4838-b131-a9f3663836c8","ios":"levelo://app?vid=4641a1d1-3212-4838-b131-a9f3663836c8"},"vehicle_type_id":"4","last_reported":1702537588,"current_range_meters":19200,"station_id":"ce4bhnp2rcd13ifvqgvg","pricing_plan_id":"free"},{"bike_id":"713d2410-87f4-4383-93d0-b369d5c724e1","system_id":"levelo_inurba_marseille","lat":43.24074,"lon":5.3776,"is_reserved":false,"is_disabled":false,"rental_uris":{"android":"levelo://app?vid=713d2410-87f4-4383-93d0-b369d5c724e1","ios":"levelo://app?vid=713d2410-87f4-4383-93d0-b369d5c724e1"},"vehicle_type_id":"4","last_reported":1702537588,"current_range_meters":22800,"station_id":"ce4bhnp2rcd13ifvqgvg","pricing_plan_id":"free"},{"bike_id":"06c7ce42-76f6-466a-8883-c8bd8bb8b12d","system_id":"levelo_inurba_marseille","lat":43.24074,"lon":5.37761,"is_reserved":false,"is_disabled":false,"rental_uris":{"android":"levelo://app?vid=06c7ce42-76f6-466a-8883-c8bd8bb8b12d","ios":"levelo://app?vid=06c7ce42-76f6-466a-8883-c8bd8bb8b12d"},"vehicle_type_id":"4","last_reported":1702537588,"current_range_meters":22800,"station_id":"ce4bhnp2rcd13ifvqgvg","pricing_plan_id":"free"},{"bike_id":"df00ba5a-d2d8-4601-bb95-101dbc3ea46f","system_id":"levelo_inurba_marseille","lat":43.240623,"lon":5.377642,"is_reserved":false,"is_disabled":false,"rental_uris":{"android":"levelo://app?vid=df00ba5a-d2d8-4601-bb95-101dbc3ea46f","ios":"levelo://app?vid=df00ba5a-d2d8-4601-bb95-101dbc3ea46f"},"vehicle_type_id":"4","last_reported":1702537588,"current_range_meters":18800,"station_id":"ce4bhnp2rcd13ifvqgvg","pricing_plan_id":"free"},{"bike_id":"c2865502-55a8-4405-90b1-cd694b8c666c","system_id":"levelo_inurba_marseille","lat":43.240623,"lon":5.377642,"is_reserved":false,"is_disabled":false,"rental_uris":{"android":"levelo://app?vid=c2865502-55a8-4405-90b1-cd694b8c666c","ios":"levelo://app?vid=c2865502-55a8-4405-90b1-cd694b8c666c"},"vehicle_type_id":"4","last_reported":1702537588,"current_range_meters":29200,"station_id":"ce4bhnp2rcd13ifvqgvg","pricing_plan_id":"free"},{"bike_id":"b02754a7-5692-4f20-97c7-2a07efb82a26","system_id":"levelo_inurba_marseille","lat":43.24071,"lon":5.3776,"is_reserved":false,"is_disabled":false,"rental_uris":{"android":"levelo://app?vid=b02754a7-5692-4f20-97c7-2a07efb82a26","ios":"levelo://app?vid=b02754a7-5692-4f20-97c7-2a07efb82a26"},"vehicle_type_id":"4","last_reported":1702537588,"current_range_meters":26400,"station_id":"ce4bhnp2rcd13ifvqgvg","pricing_plan_id":"free"},{"bike_id":"3f8ecba7-2fba-4620-9059-fc09999b9c19","system_id":"levelo_inurba_marseille","lat":43.24071,"lon":5.37762,"is_reserved":false,"is_disabled":false,"rental_uris":{"android":"levelo://app?vid=3f8ecba7-2fba-4620-9059-fc09999b9c19","ios":"levelo://app?vid=3f8ecba7-2fba-4620-9059-fc09999b9c19"},"vehicle_type_id":"4","last_reported":1702537588,"current_range_meters":20800,"station_id":"ce4bhnp2rcd13ifvqgvg","pricing_plan_id":"free"},{"bike_id":"d1e4ffa3-0a0a-4153-b85c-71ae60bb1e49","system_id":"levelo_inurba_marseille","lat":43.24071,"lon":5.37762,"is_reserved":false,"is_disabled":false,"rental_uris":{"android":"levelo://app?vid=d1e4ffa3-0a0a-4153-b85c-71ae60bb1e49","ios":"levelo://app?vid=d1e4ffa3-0a0a-4153-b85c-71ae60bb1e49"},"vehicle_type_id":"4","last_reported":1702537588,"current_range_meters":23600,"station_id":"ce4bhnp2rcd13ifvqgvg","pricing_plan_id":"free"},{"bike_id":"18963ec8-894a-472d-a3ce-67ea969793b3","system_id":"levelo_inurba_marseille","lat":43.240623,"lon":5.377642,"is_reserved":false,"is_disabled":false,"rental_uris":{"android":"levelo://app?vid=18963ec8-894a-472d-a3ce-67ea969793b3","ios":"levelo://app?vid=18963ec8-894a-472d-a3ce-67ea969793b3"},"vehicle_type_id":"4","last_reported":1702537588,"current_range_meters":25200,"station_id":"ce4bhnp2rcd13ifvqgvg","pricing_plan_id":"free"},{"bike_id":"10ecc5bd-67bf-448f-9498-3b2682cf884c","system_id":"levelo_inurba_marseille","lat":43.240623,"lon":5.377642,"is_reserved":false,"is_disabled":false,"rental_uris":{"android":"levelo://app?vid=10ecc5bd-67bf-448f-9498-3b2682cf884c","ios":"levelo://app?vid=10ecc5bd-67bf-448f-9498-3b2682cf884c"},"vehicle_type_id":"4","last_reported":1702537588,"current_range_meters":14400,"station_id":"ce4bhnp2rcd13ifvqgvg","pricing_plan_id":"free"},{"bike_id":"d770c71c-a89b-4bc6-94b3-4daaad434757","system_id":"levelo_inurba_marseille","lat":43.240623,"lon":5.377642,"is_reserved":false,"is_disabled":false,"rental_uris":{"android":"levelo://app?vid=d770c71c-a89b-4bc6-94b3-4daaad434757","ios":"levelo://app?vid=d770c71c-a89b-4bc6-94b3-4daaad434757"},"vehicle_type_id":"4","last_reported":1702537588,"current_range_meters":23600,"station_id":"ce4bhnp2rcd13ifvqgvg","pricing_plan_id":"free"},{"bike_id":"cad9535f-cdf8-4e9b-bc8a-5be553fadb06","system_id":"levelo_inurba_marseille","lat":43.240623,"lon":5.377642,"is_reserved":false,"is_disabled":false,"rental_uris":{"android":"levelo://app?vid=cad9535f-cdf8-4e9b-bc8a-5be553fadb06","ios":"levelo://app?vid=cad9535f-cdf8-4e9b-bc8a-5be553fadb06"},"vehicle_type_id":"4","last_reported":1702537588,"current_range_meters":22800,"station_id":"ce4bhnp2rcd13ifvqgvg","pricing_plan_id":"free"},{"bike_id":"5f8bc3d7-06f0-48e4-888c-31c56afceb23","system_id":"levelo_inurba_marseille","lat":43.240685,"lon":5.377515,"is_reserved":false,"is_disabled":false,"rental_uris":{"android":"levelo://app?vid=5f8bc3d7-06f0-48e4-888c-31c56afceb23","ios":"levelo://app?vid=5f8bc3d7-06f0-48e4-888c-31c56afceb23"},"vehicle_type_id":"4","last_reported":1702537588,"current_range_meters":27200,"station_id":"ce4bhnp2rcd13ifvqgvg","pricing_plan_id":"free"},{"bike_id":"b19b6a37-df69-4ad6-97ca-bf76703ef0d1","system_id":"levelo_inurba_marseille","lat":43.240623,"lon":5.377642,"is_reserved":false,"is_disabled":false,"rental_uris":{"android":"levelo://app?vid=b19b6a37-df69-4ad6-97ca-bf76703ef0d1","ios":"levelo://app?vid=b19b6a37-df69-4ad6-97ca-bf76703ef0d1"},"vehicle_type_id":"4","last_reported":1702537588,"current_range_meters":20800,"station_id":"ce4bhnp2rcd13ifvqgvg","pricing_plan_id":"free"},{"bike_id":"484c3c46-f26e-4174-8edb-80d5fb1b6183","system_id":"levelo_inurba_marseille","lat":43.240623,"lon":5.377642,"is_reserved":false,"is_disabled":false,"rental_uris":{"android":"levelo://app?vid=484c3c46-f26e-4174-8edb-80d5fb1b6183","ios":"levelo://app?vid=484c3c46-f26e-4174-8edb-80d5fb1b6183"},"vehicle_type_id":"4","last_reported":1702537588,"current_range_meters":28400,"station_id":"ce4bhnp2rcd13ifvqgvg","pricing_plan_id":"free"},{"bike_id":"b101342a-e851-42da-ad23-c91936b38551","system_id":"levelo_inurba_marseille","lat":43.240623,"lon":5.377642,"is_reserved":false,"is_disabled":false,"rental_uris":{"android":"levelo://app?vid=b101342a-e851-42da-ad23-c91936b38551","ios":"levelo://app?vid=b101342a-e851-42da-ad23-c91936b38551"},"vehicle_type_id":"4","last_reported":1702537588,"current_range_meters":23600,"station_id":"ce4bhnp2rcd13ifvqgvg","pricing_plan_id":"free"},{"bike_id":"a59320c1-3306-4dfb-9e51-ef98cc400cf3","system_id":"levelo_inurba_marseille","lat":43.241782,"lon":5.397261,"is_reserved":false,"is_disabled":false,"rental_uris":{"android":"levelo://app?vid=a59320c1-3306-4dfb-9e51-ef98cc400cf3","ios":"levelo://app?vid=a59320c1-3306-4dfb-9e51-ef98cc400cf3"},"vehicle_type_id":"4","last_reported":1702537588,"current_range_meters":30000,"station_id":"ce4bhn12rcd13ifvqgpg","pricing_plan_id":"free"},{"bike_id":"2b605040-44f0-4665-aefa-dbb05f50f601","system_id":"levelo_inurba_marseille","lat":43.231793,"lon":5.400044,"is_reserved":false,"is_disabled":false,"rental_uris":{"android":"levelo://app?vid=2b605040-44f0-4665-aefa-dbb05f50f601","ios":"levelo://app?vid=2b605040-44f0-4665-aefa-dbb05f50f601"},"vehicle_type_id":"4","last_reported":1702537588,"current_range_meters":29600,"station_id":"ce4bhn12rcd13ifvqgqg","pricing_plan_id":"free"},{"bike_id":"089568fd-e936-4c31-a2a6-ab09f2b4391b","system_id":"levelo_inurba_marseille","lat":43.231794,"lon":5.400052,"is_reserved":false,"is_disabled":false,"rental_uris":{"android":"levelo://app?vid=089568fd-e936-4c31-a2a6-ab09f2b4391b","ios":"levelo://app?vid=089568fd-e936-4c31-a2a6-ab09f2b4391b"},"vehicle_type_id":"4","last_reported":1702537588,"current_range_meters":29600,"station_id":"ce4bhn12rcd13ifvqgqg","pricing_plan_id":"free"},{"bike_id":"e9e13da5-814b-4e04-963f-f688451db439","system_id":"levelo_inurba_marseille","lat":43.231793,"lon":5.400044,"is_reserved":false,"is_disabled":false,"rental_uris":{"android":"levelo://app?vid=e9e13da5-814b-4e04-963f-f688451db439","ios":"levelo://app?vid=e9e13da5-814b-4e04-963f-f688451db439"},"vehicle_type_id":"4","last_reported":1702537588,"current_range_meters":29600,"station_id":"ce4bhn12rcd13ifvqgqg","pricing_plan_id":"free"},{"bike_id":"46e85755-7f44-4770-9e69-88e3e5d2d0d4","system_id":"levelo_inurba_marseille","lat":43.231794,"lon":5.400052,"is_reserved":false,"is_disabled":false,"rental_uris":{"android":"levelo://app?vid=46e85755-7f44-4770-9e69-88e3e5d2d0d4","ios":"levelo://app?vid=46e85755-7f44-4770-9e69-88e3e5d2d0d4"},"vehicle_type_id":"4","last_reported":1702537588,"current_range_meters":18400,"station_id":"ce4bhn12rcd13ifvqgqg","pricing_plan_id":"free"},{"bike_id":"28cf0186-3129-4448-9e8f-8fa9860365e7","system_id":"levelo_inurba_marseille","lat":43.231794,"lon":5.400052,"is_reserved":false,"is_disabled":false,"rental_uris":{"android":"levelo://app?vid=28cf0186-3129-4448-9e8f-8fa9860365e7","ios":"levelo://app?vid=28cf0186-3129-4448-9e8f-8fa9860365e7"},"vehicle_type_id":"4","last_reported":1702537588,"current_range_meters":16400,"station_id":"ce4bhn12rcd13ifvqgqg","pricing_plan_id":"free"},{"bike_id":"976b51c7-50e5-4a1e-9623-472378627f57","system_id":"levelo_inurba_marseille","lat":43.231794,"lon":5.400052,"is_reserved":false,"is_disabled":false,"rental_uris":{"android":"levelo://app?vid=976b51c7-50e5-4a1e-9623-472378627f57","ios":"levelo://app?vid=976b51c7-50e5-4a1e-9623-472378627f57"},"vehicle_type_id":"4","last_reported":1702537588,"current_range_meters":30000,"station_id":"ce4bhn12rcd13ifvqgqg","pricing_plan_id":"free"},{"bike_id":"a70842cf-3cdd-4227-8996-9e4cdf55219b","system_id":"levelo_inurba_marseille","lat":43.231793,"lon":5.400044,"is_reserved":false,"is_disabled":false,"rental_uris":{"android":"levelo://app?vid=a70842cf-3cdd-4227-8996-9e4cdf55219b","ios":"levelo://app?vid=a70842cf-3cdd-4227-8996-9e4cdf55219b"},"vehicle_type_id":"4","last_reported":1702537588,"current_range_meters":28800,"station_id":"ce4bhn12rcd13ifvqgqg","pricing_plan_id":"free"},{"bike_id":"5d66a1e1-407e-43b7-8a1f-b43437a90341","system_id":"levelo_inurba_marseille","lat":43.231794,"lon":5.400052,"is_reserved":false,"is_disabled":false,"rental_uris":{"android":"levelo://app?vid=5d66a1e1-407e-43b7-8a1f-b43437a90341","ios":"levelo://app?vid=5d66a1e1-407e-43b7-8a1f-b43437a90341"},"vehicle_type_id":"4","last_reported":1702537588,"current_range_meters":31200,"station_id":"ce4bhn12rcd13ifvqgqg","pricing_plan_id":"free"},{"bike_id":"a97293c8-1822-49a9-98cb-a3a72aafb852","system_id":"levelo_inurba_marseille","lat":43.231793,"lon":5.400044,"is_reserved":false,"is_disabled":false,"rental_uris":{"android":"levelo://app?vid=a97293c8-1822-49a9-98cb-a3a72aafb852","ios":"levelo://app?vid=a97293c8-1822-49a9-98cb-a3a72aafb852"},"vehicle_type_id":"4","last_reported":1702537588,"current_range_meters":30400,"station_id":"ce4bhn12rcd13ifvqgqg","pricing_plan_id":"free"},{"bike_id":"990ccaad-9f0a-47ec-be4c-6b474a893de3","system_id":"levelo_inurba_marseille","lat":43.231793,"lon":5.400044,"is_reserved":false,"is_disabled":false,"rental_uris":{"android":"levelo://app?vid=990ccaad-9f0a-47ec-be4c-6b474a893de3","ios":"levelo://app?vid=990ccaad-9f0a-47ec-be4c-6b474a893de3"},"vehicle_type_id":"4","last_reported":1702537588,"current_range_meters":30400,"station_id":"ce4bhn12rcd13ifvqgqg","pricing_plan_id":"free"},{"bike_id":"6016208a-e6f9-4246-9258-6df793e310a7","system_id":"levelo_inurba_marseille","lat":43.23153,"lon":5.43712,"is_reserved":false,"is_disabled":false,"rental_uris":{"android":"levelo://app?vid=6016208a-e6f9-4246-9258-6df793e310a7","ios":"levelo://app?vid=6016208a-e6f9-4246-9258-6df793e310a7"},"vehicle_type_id":"4","last_reported":1702537588,"current_range_meters":17600,"station_id":"ce4bhmp2rcd13ifvqgog","pricing_plan_id":"free"},{"bike_id":"c7667cbb-4ebc-4ff0-8cc3-d90f64a1a989","system_id":"levelo_inurba_marseille","lat":43.231562,"lon":5.436933,"is_reserved":false,"is_disabled":false,"rental_uris":{"android":"levelo://app?vid=c7667cbb-4ebc-4ff0-8cc3-d90f64a1a989","ios":"levelo://app?vid=c7667cbb-4ebc-4ff0-8cc3-d90f64a1a989"},"vehicle_type_id":"4","last_reported":1702537588,"current_range_meters":27600,"station_id":"ce4bhmp2rcd13ifvqgog","pricing_plan_id":"free"}]}}