{"last_updated":1717527969,"ttl":30,"version":"2.2","data":{"bikes":[{"bike_id":"9640c298-46cd-4717-8b7d-34c92e5d05e0","system_id":"levelo_inurba_marseille","lat":43.312239,"lon":5.368562,"is_reserved":false,"is_disabled":false,"rental_uris":{"android":"levelo://app?vid=9640c298-46cd-4717-8b7d-34c92e5d05e0","ios":"levelo://app?vid=9640c298-46cd-4717-8b7d-34c92e5d05e0"},"vehicle_type_id":"4","last_reported":1717527969,"current_range_meters":800,"station_id":"ce4bgl92rcd13ifvqbq0","pricing_plan_id":"cebpf4jnsgd1na2vs0mg"},{"bike_id":"4849a2e9-2a76-4a22-a294-7058840cdefb","system_id":"levelo_inurba_marseille","lat":43.312239,"lon":5.368562,"is_reserved":false,"is_disabled":false,"rental_uris":{"android":"levelo://app?vid=4849a2e9-2a76-4a22-a294-7058840cdefb","ios":"levelo://app?vid=4849a2e9-2a76-4a22-a294-7058840cdefb"},"vehicle_type_id":"4","last_reported":1717527969,"current_range_meters":0,"station_id":"ce4bgl92rcd13ifvqbq0","pricing_plan_id":"cebpf4jnsgd1na2vs0mg"},{"bike_id":"3e55c0b6-c688-4a5e-a1b0-ce898640e40d","system_id":"levelo_inurba_marseille","lat":43.309039,"lon":5.371797,"is_reserved":false,"is_disabled":false,"rental_uris":{"android":"levelo://app?vid=3e55c0b6-c688-4a5e-a1b0-ce898640e40d","ios":"levelo://app?vid=3e55c0b6-c688-4a5e-a1b0-ce898640e40d"},"vehicle_type_id":"4","last_reported":1717527969,"current_range_meters":6400,"station_id":"ce4bguh2rcd13ifvqckg","pricing_plan_id":"cebpf4jnsgd1na2vs0mg"},{"bike_id":"2b585d67-f064-458c-a76e-a1df0ddeea6a","system_id":"levelo_inurba_marseille","lat":43.309039,"lon":5.371797,"is_reserved":false,"is_disabled":false,"rental_uris":{"android":"levelo://app?vid=2b585d67-f064-458c-a76e-a1df0ddeea6a","ios":"levelo://app?vid=2b585d67-f064-458c-a76e-a1df0ddeea6a"},"vehicle_type_id":"4","last_reported":1717527969,"current_range_meters":8400,"station_id":"ce4bguh2rcd13ifvqckg","pricing_plan_id":"cebpf4jnsgd1na2vs0mg"},{"bike_id":"618f5471-2803-41a6-b95f-08dbc13db155","system_id":"levelo_inurba_marseille","lat":43.30537,"lon":5.367345,"is_reserved":false,"is_disabled":false,"rental_uris":{"android":"levelo://app?vid=618f5471-2803-41a6-b95f-08dbc13db155","ios":"levelo://app?vid=618f5471-2803-41a6-b95f-08dbc13db155"},"vehicle_type_id":"4","last_reported":1717527969,"current_range_meters":0,"station_id":"ce4bgrp2rcd13ifvqc9g","pricing_plan_id":"cebpf4jnsgd1na2vs0mg"},{"bike_id":"9ad0086a-7f3d-4659-b45f-18430d2b8d11","system_id":"levelo_inurba_marseille","lat":43.30537,"lon":5.367345,"is_reserved":false,"is_disabled":false,"rental_uris":{"android":"levelo://app?vid=9ad0086a-7f3d-4659-b45f-18430d2b8d11","ios":"levelo://app?vid=9ad0086a-7f3d-4659-b45f-18430d2b8d11"},"vehicle_type_id":"4","last_reported":1717527969,"current_range_meters":12800,"station_id":"ce4bgrp2rcd13ifvqc9g","pricing_plan_id":"cebpf4jnsgd1na2vs0mg"},{"bike_id":"aaff691f-d350-47df-8ed0-3cf21e1b32e7","system_id":"levelo_inurba_marseille","lat":43.305714,"lon":5.365633,"is_reserved":false,"is_disabled":false,"rental_uris":{"android":"levelo://app?vid=aaff691f-d350-47df-8ed0-3cf21e1b32e7","ios":"levelo://app?vid=aaff691f-d350-47df-8ed0-3cf21e1b32e7"},"vehicle_type_id":"4","last_reported":1717527969,"current_range_meters":2800,"station_id":"ce4bgs12rcd13ifvqcag","pricing_plan_id":"cebpf4jnsgd1na2vs0mg"},{"bike_id":"e111bc74-67a4-47fb-a6f9-6b0ad5e29c8c","system_id":"levelo_inurba_marseille","lat":43.305989,"lon":5.37225,"is_reserved":false,"is_disabled":false,"rental_uris":{"android":"levelo://app?vid=e111bc74-67a4-47fb-a6f9-6b0ad5e29c8c","ios":"levelo://app?vid=e111bc74-67a4-47fb-a6f9-6b0ad5e29c8c"},"vehicle_type_id":"4","last_reported":1717527969,"current_range_meters":1600,"station_id":"ce4bgqh2rcd13ifvqc4g","pricing_plan_id":"cebpf4jnsgd1na2vs0mg"},{"bike_id":"24754ab1-fe00-4c01-8e6e-c510dcbf6f82","system_id":"levelo_inurba_marseille","lat":43.305989,"lon":5.37225,"is_reserved":false,"is_disabled":false,"rental_uris":{"android":"levelo://app?vid=24754ab1-fe00-4c01-8e6e-c510dcbf6f82","ios":"levelo://app?vid=24754ab1-fe00-4c01-8e6e-c510dcbf6f82"},"vehicle_type_id":"4","last_reported":1717527969,"current_range_meters":17200,"station_id":"ce4bgqh2rcd13ifvqc4g","pricing_plan_id":"cebpf4jnsgd1na2vs0mg"},{"bike_id":"d0eec622-a5c4-4aa7-b10f-6d97856316bc","system_id":"levelo_inurba_marseille","lat":43.311657,"lon":5.377453,"is_reserved":false,"is_disabled":false,"rental_uris":{"android":"levelo://app?vid=d0eec622-a5c4-4aa7-b10f-6d97856316bc","ios":"levelo://app?vid=d0eec622-a5c4-4aa7-b10f-6d97856316bc"},"vehicle_type_id":"4","last_reported":1717527969,"current_range_meters":0,"station_id":"","pricing_plan_id":"cebpf4jnsgd1na2vs0mg"},{"bike_id":"010c7539-c916-4f1d-8e70-4e09818dfe55","system_id":"levelo_inurba_marseille","lat":43.305989,"lon":5.37225,"is_reserved":false,"is_disabled":false,"rental_uris":{"android":"levelo://app?vid=010c7539-c916-4f1d-8e70-4e09818dfe55","ios":"levelo://app?vid=010c7539-c916-4f1d-8e70-4e09818dfe55"},"vehicle_type_id":"4","last_reported":1717527969,"current_range_meters":6800,"station_id":"ce4bgqh2rcd13ifvqc4g","pricing_plan_id":"cebpf4jnsgd1na2vs0mg"},{"bike_id":"00c23ba8-230b-4c30-afaa-49456e0f7189","system_id":"levelo_inurba_marseille","lat":43.305989,"lon":5.37225,"is_reserved":false,"is_disabled":false,"rental_uris":{"android":"levelo://app?vid=00c23ba8-230b-4c30-afaa-49456e0f7189","ios":"levelo://app?vid=00c23ba8-230b-4c30-afaa-49456e0f7189"},"vehicle_type_id":"4","last_reported":1717527969,"current_range_meters":14000,"station_id":"ce4bgqh2rcd13ifvqc4g","pricing_plan_id":"cebpf4jnsgd1na2vs0mg"},{"bike_id":"66b0ba04-60c1-4570-b298-8281fe339c24","system_id":"levelo_inurba_marseille","lat":43.30602,"lon":5.37225,"is_reserved":false,"is_disabled":false,"rental_uris":{"android":"levelo://app?vid=66b0ba04-60c1-4570-b298-8281fe339c24","ios":"levelo://app?vid=66b0ba04-60c1-4570-b298-8281fe339c24"},"vehicle_type_id":"4","last_reported":1717527969,"current_range_meters":18400,"station_id":"ce4bgqh2rcd13ifvqc4g","pricing_plan_id":"cebpf4jnsgd1na2vs0mg"},{"bike_id":"61a6110b-a9da-4cb0-b23c-9c05960f5ec7","system_id":"levelo_inurba_marseille","lat":43.305989,"lon":5.37225,"is_reserved":false,"is_disabled":false,"rental_uris":{"android":"levelo://app?vid=61a6110b-a9da-4cb0-b23c-9c05960f5ec7","ios":"levelo://app?vid=61a6110b-a9da-4cb0-b23c-9c05960f5ec7"},"vehicle_type_id":"4","last_reported":1717527969,"current_range_meters":7600,"station_id":"ce4bgqh2rcd13ifvqc4g","pricing_plan_id":"cebpf4jnsgd1na2vs0mg"},{"bike_id":"e57cd9e9-bd2f-4c9f-a32b-a14c86fb07ba","system_id":"levelo_inurba_marseille","lat":43.30783,"lon":5.3765,"is_reserved":false,"is_disabled":false,"rental_uris":{"android":"levelo://app?vid=e57cd9e9-bd2f-4c9f-a32b-a14c86fb07ba","ios":"levelo://app?vid=e57cd9e9-bd2f-4c9f-a32b-a14c86fb07ba"},"vehicle_type_id":"4","last_reported":1717527969,"current_range_meters":2800,"station_id":"ce4bgv92rcd13ifvqcq0","pricing_plan_id":"cebpf4jnsgd1na2vs0mg"},{"bike_id":"777a4882-2edc-49a7-a823-f52265e79ed3","system_id":"levelo_inurba_marseille","lat":43.305989,"lon":5.37225,"is_reserved":false,"is_disabled":false,"rental_uris":{"android":"levelo://app?vid=777a4882-2edc-49a7-a823-f52265e79ed3","ios":"levelo://app?vid=777a4882-2edc-49a7-a823-f52265e79ed3"},"vehicle_type_id":"4","last_reported":1717527969,"current_range_meters":13600,"station_id":"ce4bgqh2rcd13ifvqc4g","pricing_plan_id":"cebpf4jnsgd1na2vs0mg"},{"bike_id":"58278a81-8dd8-433c-a0a5-e31d13bfb2aa","system_id":"levelo_inurba_marseille","lat":43.317097,"lon":5.377497,"is_reserved":false,"is_disabled":false,"rental_uris":{"android":"levelo://app?vid=58278a81-8dd8-433c-a0a5-e31d13bfb2aa","ios":"levelo://app?vid=58278a81-8dd8-433c-a0a5-e31d13bfb2aa"},"vehicle_type_id":"4","last_reported":1717527969,"current_range_meters":0,"station_id":"ce4bgth2rcd13ifvqch0","pricing_plan_id":"cebpf4jnsgd1na2vs0mg"},{"bike_id":"b75cc08d-b8d5-411c-b72a-b22e7c1f4931","system_id":"levelo_inurba_marseille","lat":43.317075,"lon":5.377367,"is_reserved":false,"is_disabled":false,"rental_uris":{"android":"levelo://app?vid=b75cc08d-b8d5-411c-b72a-b22e7c1f4931","ios":"levelo://app?vid=b75cc08d-b8d5-411c-b72a-b22e7c1f4931"},"vehicle_type_id":"4","last_reported":1717527969,"current_range_meters":30800,"station_id":"ce4bgth2rcd13ifvqch0","pricing_plan_id":"cebpf4jnsgd1na2vs0mg"},{"bike_id":"26e732d7-4cff-4265-a08d-cbb5ede10cc0","system_id":"levelo_inurba_marseille","lat":43.303046,"lon":5.368981,"is_reserved":false,"is_disabled":false,"rental_uris":{"android":"levelo://app?vid=26e732d7-4cff-4265-a08d-cbb5ede10cc0","ios":"levelo://app?vid=26e732d7-4cff-4265-a08d-cbb5ede10cc0"},"vehicle_type_id":"4","last_reported":1717527969,"current_range_meters":0,"station_id":"ce4bgqh2rcd13ifvqc5g","pricing_plan_id":"cebpf4jnsgd1na2vs0mg"},{"bike_id":"698c9be5-6b1b-4375-b2cf-54174aff42cc","system_id":"levelo_inurba_marseille","lat":43.30304,"lon":5.368987,"is_reserved":false,"is_disabled":false,"rental_uris":{"android":"levelo://app?vid=698c9be5-6b1b-4375-b2cf-54174aff42cc","ios":"levelo://app?vid=698c9be5-6b1b-4375-b2cf-54174aff42cc"},"vehicle_type_id":"4","last_reported":1717527969,"current_range_meters":0,"station_id":"ce4bgqh2rcd13ifvqc5g","pricing_plan_id":"cebpf4jnsgd1na2vs0mg"},{"bike_id":"20a2f2f1-450f-4573-b993-e65a939e494d","system_id":"levelo_inurba_marseille","lat":43.30305,"lon":5.36902,"is_reserved":false,"is_disabled":false,"rental_uris":{"android":"levelo://app?vid=20a2f2f1-450f-4573-b993-e65a939e494d","ios":"levelo://app?vid=20a2f2f1-450f-4573-b993-e65a939e494d"},"vehicle_type_id":"4","last_reported":1717527969,"current_range_meters":26800,"station_id":"ce4bgqh2rcd13ifvqc5g","pricing_plan_id":"cebpf4jnsgd1na2vs0mg"},{"bike_id":"5401ff84-06c4-4c94-b76e-411da2f5ffe9","system_id":"levelo_inurba_marseille","lat":43.32221,"lon":5.371313,"is_reserved":false,"is_disabled":false,"rental_uris":{"android":"levelo://app?vid=5401ff84-06c4-4c94-b76e-411da2f5ffe9","ios":"levelo://app?vid=5401ff84-06c4-4c94-b76e-411da2f5ffe9"},"vehicle_type_id":"4","last_reported":1717527969,"current_range_meters":10400,"station_id":"","pricing_plan_id":"cebpf4jnsgd1na2vs0mg"},{"bike_id":"08809f29-0bf1-48d0-8036-de46975a6f22","system_id":"levelo_inurba_marseille","lat":43.31536,"lon":5.38031,"is_reserved":false,"is_disabled":false,"rental_uris":{"android":"levelo://app?vid=08809f29-0bf1-48d0-8036-de46975a6f22","ios":"levelo://app?vid=08809f29-0bf1-48d0-8036-de46975a6f22"},"vehicle_type_id":"4","last_reported":1717527969,"current_range_meters":0,"station_id":"ce4bhsp2rcd13ifvqi50","pricing_plan_id":"cebpf4jnsgd1na2vs0mg"},{"bike_id":"a76b9a6e-bd10-460a-89e5-ff097d76e031","system_id":"levelo_inurba_marseille","lat":43.301939,"lon":5.366286,"is_reserved":false,"is_disabled":false,"rental_uris":{"android":"levelo://app?vid=a76b9a6e-bd10-460a-89e5-ff097d76e031","ios":"levelo://app?vid=a76b9a6e-bd10-460a-89e5-ff097d76e031"},"vehicle_type_id":"4","last_reported":1717527969,"current_range_meters":2800,"station_id":"ce4bgrh2rcd13ifvqc8g","pricing_plan_id":"cebpf4jnsgd1na2vs0mg"},{"bike_id":"0646acc3-0b51-48b4-a7f3-20b951933b3b","system_id":"levelo_inurba_marseille","lat":43.301939,"lon":5.366286,"is_reserved":false,"is_disabled":false,"rental_uris":{"android":"levelo://app?vid=0646acc3-0b51-48b4-a7f3-20b951933b3b","ios":"levelo://app?vid=0646acc3-0b51-48b4-a7f3-20b951933b3b"},"vehicle_type_id":"4","last_reported":1717527969,"current_range_meters":16800,"station_id":"ce4bgrh2rcd13ifvqc8g","pricing_plan_id":"cebpf4jnsgd1na2vs0mg"},{"bike_id":"459ec869-773b-4de6-ae59-d405b7ae9091","system_id":"levelo_inurba_marseille","lat":43.301939,"lon":5.366286,"is_reserved":false,"is_disabled":false,"rental_uris":{"android":"levelo://app?vid=459ec869-773b-4de6-ae59-d405b7ae9091","ios":"levelo://app?vid=459ec869-773b-4de6-ae59-d405b7ae9091"},"vehicle_type_id":"4","last_reported":1717527969,"current_range_meters":13600,"station_id":"ce4bgrh2rcd13ifvqc8g","pricing_plan_id":"cebpf4jnsgd1na2vs0mg"},{"bike_id":"65ea489f-98e0-46d6-801f-b9f1d8d52ed6","system_id":"levelo_inurba_marseille","lat":43.308012,"lon":5.381511,"is_reserved":false,"is_disabled":false,"rental_uris":{"android":"levelo://app?vid=65ea489f-98e0-46d6-801f-b9f1d8d52ed6","ios":"levelo://app?vid=65ea489f-98e0-46d6-801f-b9f1d8d52ed6"},"vehicle_type_id":"4","last_reported":1717527969,"current_range_meters":0,"station_id":"ce4bgt12rcd13ifvqce0","pricing_plan_id":"cebpf4jnsgd1na2vs0mg"},{"bike_id":"1a48df33-b22c-4419-94b8-72d016575dc1","system_id":"levelo_inurba_marseille","lat":43.324863,"lon":5.365743,"is_reserved":false,"is_disabled":false,"rental_uris":{"android":"levelo://app?vid=1a48df33-b22c-4419-94b8-72d016575dc1","ios":"levelo://app?vid=1a48df33-b22c-4419-94b8-72d016575dc1"},"vehicle_type_id":"4","last_reported":1717527969,"current_range_meters":0,"station_id":"ce4bhs12rcd13ifvqhvg","pricing_plan_id":"cebpf4jnsgd1na2vs0mg"},{"bike_id":"92e1deed-3c96-44e2-844f-59bd781fffad","system_id":"levelo_inurba_marseille","lat":43.324771,"lon":5.36557,"is_reserved":false,"is_disabled":false,"rental_uris":{"android":"levelo://app?vid=92e1deed-3c96-44e2-844f-59bd781fffad","ios":"levelo://app?vid=92e1deed-3c96-44e2-844f-59bd781fffad"},"vehicle_type_id":"4","last_reported":1717527969,"current_range_meters":0,"station_id":"ce4bhs12rcd13ifvqhvg","pricing_plan_id":"cebpf4jnsgd1na2vs0mg"},{"bike_id":"86e93459-abdf-4430-812f-27b34ccd20cf","system_id":"levelo_inurba_marseille","lat":43.31081,"lon":5.38349,"is_reserved":false,"is_disabled":false,"rental_uris":{"android":"levelo://app?vid=86e93459-abdf-4430-812f-27b34ccd20cf","ios":"levelo://app?vid=86e93459-abdf-4430-812f-27b34ccd20cf"},"vehicle_type_id":"4","last_reported":1717527969,"current_range_meters":0,"station_id":"ce4bgv92rcd13ifvqcr0","pricing_plan_id":"cebpf4jnsgd1na2vs0mg"},{"bike_id":"c06e82ac-c6dc-4e34-bc1c-abcd2a19c14a","system_id":"levelo_inurba_marseille","lat":43.310728,"lon":5.383506,"is_reserved":false,"is_disabled":false,"rental_uris":{"android":"levelo://app?vid=c06e82ac-c6dc-4e34-bc1c-abcd2a19c14a","ios":"levelo://app?vid=c06e82ac-c6dc-4e34-bc1c-abcd2a19c14a"},"vehicle_type_id":"4","last_reported":1717527969,"current_range_meters":0,"station_id":"ce4bgv92rcd13ifvqcr0","pricing_plan_id":"cebpf4jnsgd1na2vs0mg"},{"bike_id":"7313b88a-1bb3-4158-83be-55051e81cdfc","system_id":"levelo_inurba_marseille","lat":43.31079,"lon":5.38359,"is_reserved":false,"is_disabled":false,"rental_uris":{"android":"levelo://app?vid=7313b88a-1bb3-4158-83be-55051e81cdfc","ios":"levelo://app?vid=7313b88a-1bb3-4158-83be-55051e81cdfc"},"vehicle_type_id":"4","last_reported":1717527969,"current_range_meters":0,"station_id":"ce4bgv92rcd13ifvqcr0","pricing_plan_id":"cebpf4jnsgd1na2vs0mg"},{"bike_id":"ef064d45-e9a3-440f-81e3-2b1bbb56d9e6","system_id":"levelo_inurba_marseille","lat":43.319935,"lon":5.381699,"is_reserved":false,"is_disabled":false,"rental_uris":{"android":"levelo://app?vid=ef064d45-e9a3-440f-81e3-2b1bbb56d9e6","ios":"levelo://app?vid=ef064d45-e9a3-440f-81e3-2b1bbb56d9e6"},"vehicle_type_id":"4","last_reported":1717527969,"current_range_meters":800,"station_id":"ce4bhr12rcd13ifvqhpg","pricing_plan_id":"cebpf4jnsgd1na2vs0mg"},{"bike_id":"816bf89a-24c7-4580-a48b-7cd2170fe034","system_id":"levelo_inurba_marseille","lat":43.319935,"lon":5.381699,"is_reserved":false,"is_disabled":false,"rental_uris":{"android":"levelo://app?vid=816bf89a-24c7-4580-a48b-7cd2170fe034","ios":"levelo://app?vid=816bf89a-24c7-4580-a48b-7cd2170fe034"},"vehicle_type_id":"4","last_reported":1717527969,"current_range_meters":3200,"station_id":"ce4bhr12rcd13ifvqhpg","pricing_plan_id":"cebpf4jnsgd1na2vs0mg"},{"bike_id":"2d17fa2e-55cb-40df-8eed-88ca99ae2dd3","system_id":"levelo_inurba_marseille","lat":43.319935,"lon":5.381699,"is_reserved":false,"is_disabled":false,"rental_uris":{"android":"levelo://app?vid=2d17fa2e-55cb-40df-8eed-88ca99ae2dd3","ios":"levelo://app?vid=2d17fa2e-55cb-40df-8eed-88ca99ae2dd3"},"vehicle_type_id":"4","last_reported":1717527969,"current_range_meters":0,"station_id":"ce4bhr12rcd13ifvqhpg","pricing_plan_id":"cebpf4jnsgd1na2vs0mg"},{"bike_id":"0de36e3d-89d6-428f-a00b-30b749a5bf5c","system_id":"levelo_inurba_marseille","lat":43.30044,"lon":5.37215,"is_reserved":false,"is_disabled":false,"rental_uris":{"android":"levelo://app?vid=0de36e3d-89d6-428f-a00b-30b749a5bf5c","ios":"levelo://app?vid=0de36e3d-89d6-428f-a00b-30b749a5bf5c"},"vehicle_type_id":"4","last_reported":1717527969,"current_range_meters":15200,"station_id":"","pricing_plan_id":"cebpf4jnsgd1na2vs0mg"},{"bike_id":"86983e4b-c117-4fa9-b8f6-2aa523203287","system_id":"levelo_inurba_marseille","lat":43.319935,"lon":5.381699,"is_reserved":false,"is_disabled":false,"rental_uris":{"android":"levelo://app?vid=86983e4b-c117-4fa9-b8f6-2aa523203287","ios":"levelo://app?vid=86983e4b-c117-4fa9-b8f6-2aa523203287"},"vehicle_type_id":"4","last_reported":1717527969,"current_range_meters":2400,"station_id":"ce4bhr12rcd13ifvqhpg","pricing_plan_id":"cebpf4jnsgd1na2vs0mg"},{"bike_id":"9f88959b-8f54-4a0b-b665-cdaaa6402727","system_id":"levelo_inurba_marseille","lat":43.319935,"lon":5.381699,"is_reserved":false,"is_disabled":false,"rental_uris":{"android":"levelo://app?vid=9f88959b-8f54-4a0b-b665-cdaaa6402727","ios":"levelo://app?vid=9f88959b-8f54-4a0b-b665-cdaaa6402727"},"vehicle_type_id":"4","last_reported":1717527969,"current_range_meters":15200,"station_id":"ce4bhr12rcd13ifvqhpg","pricing_plan_id":"cebpf4jnsgd1na2vs0mg"},{"bike_id":"a63f5b53-c148-46df-bf68-6108a424db56","system_id":"levelo_inurba_marseille","lat":43.313571,"lon":5.384829,"is_reserved":false,"is_disabled":false,"rental_uris":{"android":"levelo://app?vid=a63f5b53-c148-46df-bf68-6108a424db56","ios":"levelo://app?vid=a63f5b53-c148-46df-bf68-6108a424db56"},"vehicle_type_id":"4","last_reported":1717527969,"current_range_meters":12800,"station_id":"ce4bgt92rcd13ifvqcf0","pricing_plan_id":"cebpf4jnsgd1na2vs0mg"},{"bike_id":"81000290-7070-4115-ad84-23b9a7788d0c","system_id":"levelo_inurba_marseille","lat":43.313571,"lon":5.384829,"is_reserved":false,"is_disabled":false,"rental_uris":{"android":"levelo://app?vid=81000290-7070-4115-ad84-23b9a7788d0c","ios":"levelo://app?vid=81000290-7070-4115-ad84-23b9a7788d0c"},"vehicle_type_id":"4","last_reported":1717527969,"current_range_meters":6800,"station_id":"ce4bgt92rcd13ifvqcf0","pricing_plan_id":"cebpf4jnsgd1na2vs0mg"},{"bike_id":"a6f7340e-dfca-4efb-8da8-f440c459627c","system_id":"levelo_inurba_marseille","lat":43.29979,"lon":5.37181,"is_reserved":false,"is_disabled":false,"rental_uris":{"android":"levelo://app?vid=a6f7340e-dfca-4efb-8da8-f440c459627c","ios":"levelo://app?vid=a6f7340e-dfca-4efb-8da8-f440c459627c"},"vehicle_type_id":"4","last_reported":1717527969,"current_range_meters":0,"station_id":"ce4bgr92rcd13ifvqc7g","pricing_plan_id":"cebpf4jnsgd1na2vs0mg"},{"bike_id":"182c219b-1596-49d3-97b5-44be08f41984","system_id":"levelo_inurba_marseille","lat":43.299222,"lon":5.365554,"is_reserved":false,"is_disabled":false,"rental_uris":{"android":"levelo://app?vid=182c219b-1596-49d3-97b5-44be08f41984","ios":"levelo://app?vid=182c219b-1596-49d3-97b5-44be08f41984"},"vehicle_type_id":"4","last_reported":1717527969,"current_range_meters":800,"station_id":"ce4bgm92rcd13ifvqbr0","pricing_plan_id":"cebpf4jnsgd1na2vs0mg"},{"bike_id":"c7578c20-c07d-44df-9fbf-cf3a2fc4da70","system_id":"levelo_inurba_marseille","lat":43.29975,"lon":5.37187,"is_reserved":false,"is_disabled":false,"rental_uris":{"android":"levelo://app?vid=c7578c20-c07d-44df-9fbf-cf3a2fc4da70","ios":"levelo://app?vid=c7578c20-c07d-44df-9fbf-cf3a2fc4da70"},"vehicle_type_id":"4","last_reported":1717527969,"current_range_meters":16800,"station_id":"ce4bgr92rcd13ifvqc7g","pricing_plan_id":"cebpf4jnsgd1na2vs0mg"},{"bike_id":"4efa8792-0442-4cd5-b71b-27a317fc6e4c","system_id":"levelo_inurba_marseille","lat":43.291994,"lon":5.357886,"is_reserved":false,"is_disabled":false,"rental_uris":{"android":"levelo://app?vid=4efa8792-0442-4cd5-b71b-27a317fc6e4c","ios":"levelo://app?vid=4efa8792-0442-4cd5-b71b-27a317fc6e4c"},"vehicle_type_id":"4","last_reported":1717527969,"current_range_meters":6400,"station_id":"ce4bhb12rcd13ifvqel0","pricing_plan_id":"cebpf4jnsgd1na2vs0mg"},{"bike_id":"9cb938bb-f197-419f-a133-6d56c1676c38","system_id":"levelo_inurba_marseille","lat":43.29601,"lon":5.381084,"is_reserved":false,"is_disabled":false,"rental_uris":{"android":"levelo://app?vid=9cb938bb-f197-419f-a133-6d56c1676c38","ios":"levelo://app?vid=9cb938bb-f197-419f-a133-6d56c1676c38"},"vehicle_type_id":"4","last_reported":1717527969,"current_range_meters":0,"station_id":"ce4bgl12rcd13ifvqbo0","pricing_plan_id":"cebpf4jnsgd1na2vs0mg"},{"bike_id":"347ab136-3f5d-4b90-8f4e-b1de4f9458ce","system_id":"levelo_inurba_marseille","lat":43.298433,"lon":5.362774,"is_reserved":false,"is_disabled":false,"rental_uris":{"android":"levelo://app?vid=347ab136-3f5d-4b90-8f4e-b1de4f9458ce","ios":"levelo://app?vid=347ab136-3f5d-4b90-8f4e-b1de4f9458ce"},"vehicle_type_id":"4","last_reported":1717527969,"current_range_meters":5200,"station_id":"ce4bgpp2rcd13ifvqc3g","pricing_plan_id":"cebpf4jnsgd1na2vs0mg"},{"bike_id":"7c0279c4-785e-41cc-9875-11b1aa5697b0","system_id":"levelo_inurba_marseille","lat":43.2985,"lon":5.36275,"is_reserved":false,"is_disabled":false,"rental_uris":{"android":"levelo://app?vid=7c0279c4-785e-41cc-9875-11b1aa5697b0","ios":"levelo://app?vid=7c0279c4-785e-41cc-9875-11b1aa5697b0"},"vehicle_type_id":"4","last_reported":1717527969,"current_range_meters":28800,"station_id":"ce4bgpp2rcd13ifvqc3g","pricing_plan_id":"cebpf4jnsgd1na2vs0mg"},{"bike_id":"314d42de-bf5c-44b6-8732-d9ad41a063eb","system_id":"levelo_inurba_marseille","lat":43.299243,"lon":5.374807,"is_reserved":false,"is_disabled":false,"rental_uris":{"android":"levelo://app?vid=314d42de-bf5c-44b6-8732-d9ad41a063eb","ios":"levelo://app?vid=314d42de-bf5c-44b6-8732-d9ad41a063eb"},"vehicle_type_id":"4","last_reported":1717527969,"current_range_meters":0,"station_id":"ce4bgjh2rcd13ifvqbg0","pricing_plan_id":"cebpf4jnsgd1na2vs0mg"},{"bike_id":"8090356d-4117-445f-8bf7-7d7c732ae2b6","system_id":"levelo_inurba_marseille","lat":43.311722,"lon":5.387247,"is_reserved":false,"is_disabled":false,"rental_uris":{"android":"levelo://app?vid=8090356d-4117-445f-8bf7-7d7c732ae2b6","ios":"levelo://app?vid=8090356d-4117-445f-8bf7-7d7c732ae2b6"},"vehicle_type_id":"4","last_reported":1717527969,"current_range_meters":8800,"station_id":"ce4bgv12rcd13ifvqcp0","pricing_plan_id":"cebpf4jnsgd1na2vs0mg"},{"bike_id":"6cceb982-e226-4e04-b85d-b31dfbbd00b6","system_id":"levelo_inurba_marseille","lat":43.299243,"lon":5.37481,"is_reserved":false,"is_disabled":false,"rental_uris":{"android":"levelo://app?vid=6cceb982-e226-4e04-b85d-b31dfbbd00b6","ios":"levelo://app?vid=6cceb982-e226-4e04-b85d-b31dfbbd00b6"},"vehicle_type_id":"4","last_reported":1717527969,"current_range_meters":18000,"station_id":"ce4bgjh2rcd13ifvqbg0","pricing_plan_id":"cebpf4jnsgd1na2vs0mg"},{"bike_id":"75043260-2938-475b-a310-c21e1f5bfe42","system_id":"levelo_inurba_marseille","lat":43.311722,"lon":5.387247,"is_reserved":false,"is_disabled":false,"rental_uris":{"android":"levelo://app?vid=75043260-2938-475b-a310-c21e1f5bfe42","ios":"levelo://app?vid=75043260-2938-475b-a310-c21e1f5bfe42"},"vehicle_type_id":"4","last_reported":1717527969,"current_range_meters":5600,"station_id":"ce4bgv12rcd13ifvqcp0","pricing_plan_id":"cebpf4jnsgd1na2vs0mg"},{"bike_id":"deb057a2-e520-472f-aed3-0f2076545299","system_id":"levelo_inurba_marseille","lat":43.311722,"lon":5.387247,"is_reserved":false,"is_disabled":false,"rental_uris":{"android":"levelo://app?vid=deb057a2-e520-472f-aed3-0f2076545299","ios":"levelo://app?vid=deb057a2-e520-472f-aed3-0f2076545299"},"vehicle_type_id":"4","last_reported":1717527969,"current_range_meters":6000,"station_id":"ce4bgv12rcd13ifvqcp0","pricing_plan_id":"cebpf4jnsgd1na2vs0mg"},{"bike_id":"53a16560-5ee8-43e0-a753-9c53b7da2b6a","system_id":"levelo_inurba_marseille","lat":43.311722,"lon":5.387247,"is_reserved":false,"is_disabled":false,"rental_uris":{"android":"levelo://app?vid=53a16560-5ee8-43e0-a753-9c53b7da2b6a","ios":"levelo://app?vid=53a16560-5ee8-43e0-a753-9c53b7da2b6a"},"vehicle_type_id":"4","last_reported":1717527969,"current_range_meters":3200,"station_id":"ce4bgv12rcd13ifvqcp0","pricing_plan_id":"cebpf4jnsgd1na2vs0mg"},{"bike_id":"d0543665-a19d-4f29-bf56-1108bfffbf3b","system_id":"levelo_inurba_marseille","lat":43.311722,"lon":5.387247,"is_reserved":false,"is_disabled":false,"rental_uris":{"android":"levelo://app?vid=d0543665-a19d-4f29-bf56-1108bfffbf3b","ios":"levelo://app?vid=d0543665-a19d-4f29-bf56-1108bfffbf3b"},"vehicle_type_id":"4","last_reported":1717527969,"current_range_meters":15200,"station_id":"ce4bgv12rcd13ifvqcp0","pricing_plan_id":"cebpf4jnsgd1na2vs0mg"},{"bike_id":"f74b3f76-fa14-4f07-a0e3-9984224f2849","system_id":"levelo_inurba_marseille","lat":43.297794,"lon":5.370888,"is_reserved":false,"is_disabled":false,"rental_uris":{"android":"levelo://app?vid=f74b3f76-fa14-4f07-a0e3-9984224f2849","ios":"levelo://app?vid=f74b3f76-fa14-4f07-a0e3-9984224f2849"},"vehicle_type_id":"4","last_reported":1717527969,"current_range_meters":8000,"station_id":"ce4bgop2rcd13ifvqc1g","pricing_plan_id":"cebpf4jnsgd1na2vs0mg"},{"bike_id":"0bfa5ed5-be5b-40b2-bd6f-595057ec6469","system_id":"levelo_inurba_marseille","lat":43.322872,"lon":5.382756,"is_reserved":false,"is_disabled":false,"rental_uris":{"android":"levelo://app?vid=0bfa5ed5-be5b-40b2-bd6f-595057ec6469","ios":"levelo://app?vid=0bfa5ed5-be5b-40b2-bd6f-595057ec6469"},"vehicle_type_id":"4","last_reported":1717527969,"current_range_meters":9200,"station_id":"ce4bhr12rcd13ifvqhqg","pricing_plan_id":"cebpf4jnsgd1na2vs0mg"},{"bike_id":"3789c448-f5e2-4da5-97d3-b215c4922d3f","system_id":"levelo_inurba_marseille","lat":43.322872,"lon":5.382756,"is_reserved":false,"is_disabled":false,"rental_uris":{"android":"levelo://app?vid=3789c448-f5e2-4da5-97d3-b215c4922d3f","ios":"levelo://app?vid=3789c448-f5e2-4da5-97d3-b215c4922d3f"},"vehicle_type_id":"4","last_reported":1717527969,"current_range_meters":26000,"station_id":"ce4bhr12rcd13ifvqhqg","pricing_plan_id":"cebpf4jnsgd1na2vs0mg"},{"bike_id":"06e2d2f3-481f-405f-892b-a600e28871b6","system_id":"levelo_inurba_marseille","lat":43.322872,"lon":5.382756,"is_reserved":false,"is_disabled":false,"rental_uris":{"android":"levelo://app?vid=06e2d2f3-481f-405f-892b-a600e28871b6","ios":"levelo://app?vid=06e2d2f3-481f-405f-892b-a600e28871b6"},"vehicle_type_id":"4","last_reported":1717527969,"current_range_meters":12400,"station_id":"ce4bhr12rcd13ifvqhqg","pricing_plan_id":"cebpf4jnsgd1na2vs0mg"},{"bike_id":"e774199f-563d-4d4c-b62b-18576c3e2baf","system_id":"levelo_inurba_marseille","lat":43.297163,"lon":5.365866,"is_reserved":false,"is_disabled":false,"rental_uris":{"android":"levelo://app?vid=e774199f-563d-4d4c-b62b-18576c3e2baf","ios":"levelo://app?vid=e774199f-563d-4d4c-b62b-18576c3e2baf"},"vehicle_type_id":"4","last_reported":1717527969,"current_range_meters":3600,"station_id":"ce4bgn12rcd13ifvqbt0","pricing_plan_id":"cebpf4jnsgd1na2vs0mg"},{"bike_id":"c1f69bca-9c85-44fb-97e8-6680022d8d18","system_id":"levelo_inurba_marseille","lat":43.297135,"lon":5.36603,"is_reserved":false,"is_disabled":false,"rental_uris":{"android":"levelo://app?vid=c1f69bca-9c85-44fb-97e8-6680022d8d18","ios":"levelo://app?vid=c1f69bca-9c85-44fb-97e8-6680022d8d18"},"vehicle_type_id":"4","last_reported":1717527969,"current_range_meters":0,"station_id":"ce4bgn12rcd13ifvqbt0","pricing_plan_id":"cebpf4jnsgd1na2vs0mg"},{"bike_id":"937eda40-eda1-4911-a838-a495b3315f76","system_id":"levelo_inurba_marseille","lat":43.297163,"lon":5.365866,"is_reserved":false,"is_disabled":false,"rental_uris":{"android":"levelo://app?vid=937eda40-eda1-4911-a838-a495b3315f76","ios":"levelo://app?vid=937eda40-eda1-4911-a838-a495b3315f76"},"vehicle_type_id":"4","last_reported":1717527969,"current_range_meters":3200,"station_id":"ce4bgn12rcd13ifvqbt0","pricing_plan_id":"cebpf4jnsgd1na2vs0mg"},{"bike_id":"d75cbe1c-1a87-4a53-913c-896b980cb298","system_id":"levelo_inurba_marseille","lat":43.297163,"lon":5.365866,"is_reserved":false,"is_disabled":false,"rental_uris":{"android":"levelo://app?vid=d75cbe1c-1a87-4a53-913c-896b980cb298","ios":"levelo://app?vid=d75cbe1c-1a87-4a53-913c-896b980cb298"},"vehicle_type_id":"4","last_reported":1717527969,"current_range_meters":26400,"station_id":"ce4bgn12rcd13ifvqbt0","pricing_plan_id":"cebpf4jnsgd1na2vs0mg"},{"bike_id":"c2ec12af-5ba9-413a-84a8-b5c1ab4ea72f","system_id":"levelo_inurba_marseille","lat":43.29575,"lon":5.36742,"is_reserved":false,"is_disabled":false,"rental_uris":{"android":"levelo://app?vid=c2ec12af-5ba9-413a-84a8-b5c1ab4ea72f","ios":"levelo://app?vid=c2ec12af-5ba9-413a-84a8-b5c1ab4ea72f"},"vehicle_type_id":"4","last_reported":1717527969,"current_range_meters":0,"station_id":"ce4bgph2rcd13ifvqc2g","pricing_plan_id":"cebpf4jnsgd1na2vs0mg"},{"bike_id":"25e04817-28ae-4bfe-b4c4-f22bc0272fd3","system_id":"levelo_inurba_marseille","lat":43.29912,"lon":5.38139,"is_reserved":false,"is_disabled":false,"rental_uris":{"android":"levelo://app?vid=25e04817-28ae-4bfe-b4c4-f22bc0272fd3","ios":"levelo://app?vid=25e04817-28ae-4bfe-b4c4-f22bc0272fd3"},"vehicle_type_id":"4","last_reported":1717527969,"current_range_meters":13600,"station_id":"ce4bgj12rcd13ifvqbc0","pricing_plan_id":"cebpf4jnsgd1na2vs0mg"},{"bike_id":"317b7c48-f9e6-4dc7-bccc-83da2425f8d3","system_id":"levelo_inurba_marseille","lat":43.299063,"lon":5.381289,"is_reserved":false,"is_disabled":false,"rental_uris":{"android":"levelo://app?vid=317b7c48-f9e6-4dc7-bccc-83da2425f8d3","ios":"levelo://app?vid=317b7c48-f9e6-4dc7-bccc-83da2425f8d3"},"vehicle_type_id":"4","last_reported":1717527969,"current_range_meters":0,"station_id":"ce4bgj12rcd13ifvqbc0","pricing_plan_id":"cebpf4jnsgd1na2vs0mg"},{"bike_id":"6f6db171-8ce6-4c5f-afaf-465190b3533a","system_id":"levelo_inurba_marseille","lat":43.309552,"lon":5.390268,"is_reserved":false,"is_disabled":false,"rental_uris":{"android":"levelo://app?vid=6f6db171-8ce6-4c5f-afaf-465190b3533a","ios":"levelo://app?vid=6f6db171-8ce6-4c5f-afaf-465190b3533a"},"vehicle_type_id":"4","last_reported":1717527969,"current_range_meters":0,"station_id":"ce4bgup2rcd13ifvqco0","pricing_plan_id":"cebpf4jnsgd1na2vs0mg"},{"bike_id":"da5634ce-f25e-4cf7-95a5-4f66a95bb5ef","system_id":"levelo_inurba_marseille","lat":43.309589,"lon":5.390258,"is_reserved":false,"is_disabled":false,"rental_uris":{"android":"levelo://app?vid=da5634ce-f25e-4cf7-95a5-4f66a95bb5ef","ios":"levelo://app?vid=da5634ce-f25e-4cf7-95a5-4f66a95bb5ef"},"vehicle_type_id":"4","last_reported":1717527969,"current_range_meters":30800,"station_id":"ce4bgup2rcd13ifvqco0","pricing_plan_id":"cebpf4jnsgd1na2vs0mg"},{"bike_id":"29f7d790-2df7-48e4-832a-8e9be7b69ecc","system_id":"levelo_inurba_marseille","lat":43.317557,"lon":5.390173,"is_reserved":false,"is_disabled":false,"rental_uris":{"android":"levelo://app?vid=29f7d790-2df7-48e4-832a-8e9be7b69ecc","ios":"levelo://app?vid=29f7d790-2df7-48e4-832a-8e9be7b69ecc"},"vehicle_type_id":"4","last_reported":1717527969,"current_range_meters":9200,"station_id":"ce4bhqp2rcd13ifvqhng","pricing_plan_id":"cebpf4jnsgd1na2vs0mg"},{"bike_id":"f8f51f43-829a-4025-b930-bc684756852b","system_id":"levelo_inurba_marseille","lat":43.317557,"lon":5.390173,"is_reserved":false,"is_disabled":false,"rental_uris":{"android":"levelo://app?vid=f8f51f43-829a-4025-b930-bc684756852b","ios":"levelo://app?vid=f8f51f43-829a-4025-b930-bc684756852b"},"vehicle_type_id":"4","last_reported":1717527969,"current_range_meters":19600,"station_id":"ce4bhqp2rcd13ifvqhng","pricing_plan_id":"cebpf4jnsgd1na2vs0mg"},{"bike_id":"a5a69a63-0ea0-4401-a7ff-aada6ba307d5","system_id":"levelo_inurba_marseille","lat":43.29909,"lon":5.382338,"is_reserved":false,"is_disabled":false,"rental_uris":{"android":"levelo://app?vid=a5a69a63-0ea0-4401-a7ff-aada6ba307d5","ios":"levelo://app?vid=a5a69a63-0ea0-4401-a7ff-aada6ba307d5"},"vehicle_type_id":"4","last_reported":1717527969,"current_range_meters":0,"station_id":"ce4bgj12rcd13ifvqbc0","pricing_plan_id":"cebpf4jnsgd1na2vs0mg"},{"bike_id":"079e72f6-d54f-4528-99a3-384dbda35749","system_id":"levelo_inurba_marseille","lat":43.304274,"lon":5.388873,"is_reserved":false,"is_disabled":false,"rental_uris":{"android":"levelo://app?vid=079e72f6-d54f-4528-99a3-384dbda35749","ios":"levelo://app?vid=079e72f6-d54f-4528-99a3-384dbda35749"},"vehicle_type_id":"4","last_reported":1717527969,"current_range_meters":9200,"station_id":"ce4bgk12rcd13ifvqbi0","pricing_plan_id":"cebpf4jnsgd1na2vs0mg"},{"bike_id":"ea1ddfd9-677d-4a40-8920-57b8dc385daf","system_id":"levelo_inurba_marseille","lat":43.295748,"lon":5.37522,"is_reserved":false,"is_disabled":false,"rental_uris":{"android":"levelo://app?vid=ea1ddfd9-677d-4a40-8920-57b8dc385daf","ios":"levelo://app?vid=ea1ddfd9-677d-4a40-8920-57b8dc385daf"},"vehicle_type_id":"4","last_reported":1717527969,"current_range_meters":7600,"station_id":"ce4bgh92rcd13ifvqb50","pricing_plan_id":"cebpf4jnsgd1na2vs0mg"},{"bike_id":"9f699f7b-005f-4f36-8762-5cbeb486f0ca","system_id":"levelo_inurba_marseille","lat":43.298037,"lon":5.381066,"is_reserved":false,"is_disabled":false,"rental_uris":{"android":"levelo://app?vid=9f699f7b-005f-4f36-8762-5cbeb486f0ca","ios":"levelo://app?vid=9f699f7b-005f-4f36-8762-5cbeb486f0ca"},"vehicle_type_id":"4","last_reported":1717527969,"current_range_meters":22400,"station_id":"ce4bgip2rcd13ifvqbb0","pricing_plan_id":"cebpf4jnsgd1na2vs0mg"},{"bike_id":"df6a91d5-bd5b-4e4f-8017-3796f9e25502","system_id":"levelo_inurba_marseille","lat":43.295748,"lon":5.37522,"is_reserved":false,"is_disabled":false,"rental_uris":{"android":"levelo://app?vid=df6a91d5-bd5b-4e4f-8017-3796f9e25502","ios":"levelo://app?vid=df6a91d5-bd5b-4e4f-8017-3796f9e25502"},"vehicle_type_id":"4","last_reported":1717527969,"current_range_meters":2400,"station_id":"ce4bgh92rcd13ifvqb50","pricing_plan_id":"cebpf4jnsgd1na2vs0mg"},{"bike_id":"fee07c9c-e48b-4d17-ba1a-01217129bbee","system_id":"levelo_inurba_marseille","lat":43.304278,"lon":5.388868,"is_reserved":false,"is_disabled":false,"rental_uris":{"android":"levelo://app?vid=fee07c9c-e48b-4d17-ba1a-01217129bbee","ios":"levelo://app?vid=fee07c9c-e48b-4d17-ba1a-01217129bbee"},"vehicle_type_id":"4","last_reported":1717527969,"current_range_meters":24800,"station_id":"ce4bgk12rcd13ifvqbi0","pricing_plan_id":"cebpf4jnsgd1na2vs0mg"},{"bike_id":"44f9de44-b164-4d5b-bc90-7b154e6fa170","system_id":"levelo_inurba_marseille","lat":43.304274,"lon":5.388873,"is_reserved":false,"is_disabled":false,"rental_uris":{"android":"levelo://app?vid=44f9de44-b164-4d5b-bc90-7b154e6fa170","ios":"levelo://app?vid=44f9de44-b164-4d5b-bc90-7b154e6fa170"},"vehicle_type_id":"4","last_reported":1717527969,"current_range_meters":25600,"station_id":"ce4bgk12rcd13ifvqbi0","pricing_plan_id":"cebpf4jnsgd1na2vs0mg"},{"bike_id":"9ed45afc-7e4e-436d-b714-b033242a6a75","system_id":"levelo_inurba_marseille","lat":43.296263,"lon":5.377094,"is_reserved":false,"is_disabled":false,"rental_uris":{"android":"levelo://app?vid=9ed45afc-7e4e-436d-b714-b033242a6a75","ios":"levelo://app?vid=9ed45afc-7e4e-436d-b714-b033242a6a75"},"vehicle_type_id":"4","last_reported":1717527969,"current_range_meters":18000,"station_id":"ce4bgi92rcd13ifvqb90","pricing_plan_id":"cebpf4jnsgd1na2vs0mg"},{"bike_id":"5822f279-60aa-4285-b677-7736f16c8f2a","system_id":"levelo_inurba_marseille","lat":43.296263,"lon":5.377094,"is_reserved":false,"is_disabled":false,"rental_uris":{"android":"levelo://app?vid=5822f279-60aa-4285-b677-7736f16c8f2a","ios":"levelo://app?vid=5822f279-60aa-4285-b677-7736f16c8f2a"},"vehicle_type_id":"4","last_reported":1717527969,"current_range_meters":27600,"station_id":"ce4bgi92rcd13ifvqb90","pricing_plan_id":"cebpf4jnsgd1na2vs0mg"},{"bike_id":"09483d4a-9704-47b2-8e6c-67cffb78c9b2","system_id":"levelo_inurba_marseille","lat":43.296263,"lon":5.377094,"is_reserved":false,"is_disabled":false,"rental_uris":{"android":"levelo://app?vid=09483d4a-9704-47b2-8e6c-67cffb78c9b2","ios":"levelo://app?vid=09483d4a-9704-47b2-8e6c-67cffb78c9b2"},"vehicle_type_id":"4","last_reported":1717527969,"current_range_meters":24000,"station_id":"ce4bgi92rcd13ifvqb90","pricing_plan_id":"cebpf4jnsgd1na2vs0mg"},{"bike_id":"fc460773-6d7f-4694-82dc-482d25a02dc0","system_id":"levelo_inurba_marseille","lat":43.296277,"lon":5.377108,"is_reserved":false,"is_disabled":false,"rental_uris":{"android":"levelo://app?vid=fc460773-6d7f-4694-82dc-482d25a02dc0","ios":"levelo://app?vid=fc460773-6d7f-4694-82dc-482d25a02dc0"},"vehicle_type_id":"4","last_reported":1717527969,"current_range_meters":15200,"station_id":"ce4bgi92rcd13ifvqb90","pricing_plan_id":"cebpf4jnsgd1na2vs0mg"},{"bike_id":"58a07827-c0c0-4c3b-b690-edeab993f993","system_id":"levelo_inurba_marseille","lat":43.29612,"lon":5.37717,"is_reserved":false,"is_disabled":false,"rental_uris":{"android":"levelo://app?vid=58a07827-c0c0-4c3b-b690-edeab993f993","ios":"levelo://app?vid=58a07827-c0c0-4c3b-b690-edeab993f993"},"vehicle_type_id":"4","last_reported":1717527969,"current_range_meters":17600,"station_id":"ce4bgi92rcd13ifvqb90","pricing_plan_id":"cebpf4jnsgd1na2vs0mg"},{"bike_id":"c33daa5c-aa79-4933-8501-5338595a8f2a","system_id":"levelo_inurba_marseille","lat":43.295413,"lon":5.375023,"is_reserved":false,"is_disabled":false,"rental_uris":{"android":"levelo://app?vid=c33daa5c-aa79-4933-8501-5338595a8f2a","ios":"levelo://app?vid=c33daa5c-aa79-4933-8501-5338595a8f2a"},"vehicle_type_id":"4","last_reported":1717527969,"current_range_meters":0,"station_id":"ce4bgkp2rcd13ifvqbmg","pricing_plan_id":"cebpf4jnsgd1na2vs0mg"},{"bike_id":"a51bf20b-7d1d-45cf-b401-4237ddacc36f","system_id":"levelo_inurba_marseille","lat":43.295279,"lon":5.375048,"is_reserved":false,"is_disabled":false,"rental_uris":{"android":"levelo://app?vid=a51bf20b-7d1d-45cf-b401-4237ddacc36f","ios":"levelo://app?vid=a51bf20b-7d1d-45cf-b401-4237ddacc36f"},"vehicle_type_id":"4","last_reported":1717527969,"current_range_meters":6800,"station_id":"ce4bgkp2rcd13ifvqbmg","pricing_plan_id":"cebpf4jnsgd1na2vs0mg"},{"bike_id":"75c15bb2-9c7e-4b49-a1a0-7257dcfc9446","system_id":"levelo_inurba_marseille","lat":43.299707,"lon":5.384859,"is_reserved":false,"is_disabled":false,"rental_uris":{"android":"levelo://app?vid=75c15bb2-9c7e-4b49-a1a0-7257dcfc9446","ios":"levelo://app?vid=75c15bb2-9c7e-4b49-a1a0-7257dcfc9446"},"vehicle_type_id":"4","last_reported":1717527969,"current_range_meters":19600,"station_id":"ce4bgj92rcd13ifvqbd0","pricing_plan_id":"cebpf4jnsgd1na2vs0mg"},{"bike_id":"6082dba6-f544-4eab-a829-84cbc22e6bcf","system_id":"levelo_inurba_marseille","lat":43.297027,"lon":5.381263,"is_reserved":false,"is_disabled":false,"rental_uris":{"android":"levelo://app?vid=6082dba6-f544-4eab-a829-84cbc22e6bcf","ios":"levelo://app?vid=6082dba6-f544-4eab-a829-84cbc22e6bcf"},"vehicle_type_id":"4","last_reported":1717527969,"current_range_meters":12400,"station_id":"","pricing_plan_id":"cebpf4jnsgd1na2vs0mg"},{"bike_id":"fd5939b3-90a1-479f-bb78-1fae8fd04eee","system_id":"levelo_inurba_marseille","lat":43.307732,"lon":5.392276,"is_reserved":false,"is_disabled":false,"rental_uris":{"android":"levelo://app?vid=fd5939b3-90a1-479f-bb78-1fae8fd04eee","ios":"levelo://app?vid=fd5939b3-90a1-479f-bb78-1fae8fd04eee"},"vehicle_type_id":"4","last_reported":1717527969,"current_range_meters":14000,"station_id":"","pricing_plan_id":"cebpf4jnsgd1na2vs0mg"},{"bike_id":"b19d58dd-5fd2-413b-bc8b-fa505bbff639","system_id":"levelo_inurba_marseille","lat":43.32367,"lon":5.388836,"is_reserved":false,"is_disabled":false,"rental_uris":{"android":"levelo://app?vid=b19d58dd-5fd2-413b-bc8b-fa505bbff639","ios":"levelo://app?vid=b19d58dd-5fd2-413b-bc8b-fa505bbff639"},"vehicle_type_id":"4","last_reported":1717527969,"current_range_meters":0,"station_id":"ce4bhqp2rcd13ifvqhog","pricing_plan_id":"cebpf4jnsgd1na2vs0mg"},{"bike_id":"83ba5484-b65d-483d-b5c4-e052050462c5","system_id":"levelo_inurba_marseille","lat":43.32367,"lon":5.388836,"is_reserved":false,"is_disabled":false,"rental_uris":{"android":"levelo://app?vid=83ba5484-b65d-483d-b5c4-e052050462c5","ios":"levelo://app?vid=83ba5484-b65d-483d-b5c4-e052050462c5"},"vehicle_type_id":"4","last_reported":1717527969,"current_range_meters":13600,"station_id":"ce4bhqp2rcd13ifvqhog","pricing_plan_id":"cebpf4jnsgd1na2vs0mg"},{"bike_id":"befc21f9-71b4-425c-b76f-0d3590918e1e","system_id":"levelo_inurba_marseille","lat":43.32366,"lon":5.38883,"is_reserved":false,"is_disabled":false,"rental_uris":{"android":"levelo://app?vid=befc21f9-71b4-425c-b76f-0d3590918e1e","ios":"levelo://app?vid=befc21f9-71b4-425c-b76f-0d3590918e1e"},"vehicle_type_id":"4","last_reported":1717527969,"current_range_meters":0,"station_id":"ce4bhqp2rcd13ifvqhog","pricing_plan_id":"cebpf4jnsgd1na2vs0mg"},{"bike_id":"c863d26b-00cd-4de1-a8c2-9a9c065caf43","system_id":"levelo_inurba_marseille","lat":43.32371,"lon":5.38879,"is_reserved":false,"is_disabled":false,"rental_uris":{"android":"levelo://app?vid=c863d26b-00cd-4de1-a8c2-9a9c065caf43","ios":"levelo://app?vid=c863d26b-00cd-4de1-a8c2-9a9c065caf43"},"vehicle_type_id":"4","last_reported":1717527969,"current_range_meters":12800,"station_id":"ce4bhqp2rcd13ifvqhog","pricing_plan_id":"cebpf4jnsgd1na2vs0mg"},{"bike_id":"0068c202-ddf6-45ab-8449-66e0310e8cee","system_id":"levelo_inurba_marseille","lat":43.32367,"lon":5.388836,"is_reserved":false,"is_disabled":false,"rental_uris":{"android":"levelo://app?vid=0068c202-ddf6-45ab-8449-66e0310e8cee","ios":"levelo://app?vid=0068c202-ddf6-45ab-8449-66e0310e8cee"},"vehicle_type_id":"4","last_reported":1717527969,"current_range_meters":19200,"station_id":"ce4bhqp2rcd13ifvqhog","pricing_plan_id":"cebpf4jnsgd1na2vs0mg"},{"bike_id":"9f8368f4-920d-419c-9b88-6032ff7bb75f","system_id":"levelo_inurba_marseille","lat":43.296102,"lon":5.381024,"is_reserved":false,"is_disabled":false,"rental_uris":{"android":"levelo://app?vid=9f8368f4-920d-419c-9b88-6032ff7bb75f","ios":"levelo://app?vid=9f8368f4-920d-419c-9b88-6032ff7bb75f"},"vehicle_type_id":"4","last_reported":1717527969,"current_range_meters":0,"station_id":"ce4bgl12rcd13ifvqbo0","pricing_plan_id":"cebpf4jnsgd1na2vs0mg"},{"bike_id":"20e92398-7eef-47f8-91e9-6d2fab2930af","system_id":"levelo_inurba_marseille","lat":43.29601,"lon":5.381084,"is_reserved":false,"is_disabled":false,"rental_uris":{"android":"levelo://app?vid=20e92398-7eef-47f8-91e9-6d2fab2930af","ios":"levelo://app?vid=20e92398-7eef-47f8-91e9-6d2fab2930af"},"vehicle_type_id":"4","last_reported":1717527969,"current_range_meters":4800,"station_id":"ce4bgl12rcd13ifvqbo0","pricing_plan_id":"cebpf4jnsgd1na2vs0mg"},{"bike_id":"e50f17bc-fdda-4637-8f32-838d89b79c8d","system_id":"levelo_inurba_marseille","lat":43.29287,"lon":5.36818,"is_reserved":false,"is_disabled":false,"rental_uris":{"android":"levelo://app?vid=e50f17bc-fdda-4637-8f32-838d89b79c8d","ios":"levelo://app?vid=e50f17bc-fdda-4637-8f32-838d89b79c8d"},"vehicle_type_id":"4","last_reported":1717527969,"current_range_meters":28000,"station_id":"ce4bhbp2rcd13ifvqesg","pricing_plan_id":"cebpf4jnsgd1na2vs0mg"},{"bike_id":"d4e27ae2-d64f-4c35-b51f-3bf0de7deff1","system_id":"levelo_inurba_marseille","lat":43.293249,"lon":5.371578,"is_reserved":false,"is_disabled":false,"rental_uris":{"android":"levelo://app?vid=d4e27ae2-d64f-4c35-b51f-3bf0de7deff1","ios":"levelo://app?vid=d4e27ae2-d64f-4c35-b51f-3bf0de7deff1"},"vehicle_type_id":"4","last_reported":1717527969,"current_range_meters":0,"station_id":"ce4bgh92rcd13ifvqb40","pricing_plan_id":"cebpf4jnsgd1na2vs0mg"},{"bike_id":"a65561e0-1215-4e91-9be9-eb03ee139e75","system_id":"levelo_inurba_marseille","lat":43.29277,"lon":5.3684,"is_reserved":false,"is_disabled":false,"rental_uris":{"android":"levelo://app?vid=a65561e0-1215-4e91-9be9-eb03ee139e75","ios":"levelo://app?vid=a65561e0-1215-4e91-9be9-eb03ee139e75"},"vehicle_type_id":"4","last_reported":1717527969,"current_range_meters":29600,"station_id":"ce4bhbp2rcd13ifvqesg","pricing_plan_id":"cebpf4jnsgd1na2vs0mg"},{"bike_id":"bcae5586-eba5-470b-b082-ae6b6203e576","system_id":"levelo_inurba_marseille","lat":43.29276,"lon":5.36848,"is_reserved":false,"is_disabled":false,"rental_uris":{"android":"levelo://app?vid=bcae5586-eba5-470b-b082-ae6b6203e576","ios":"levelo://app?vid=bcae5586-eba5-470b-b082-ae6b6203e576"},"vehicle_type_id":"4","last_reported":1717527969,"current_range_meters":31200,"station_id":"ce4bhbp2rcd13ifvqesg","pricing_plan_id":"cebpf4jnsgd1na2vs0mg"},{"bike_id":"ba9df6fd-253d-4a93-b77a-2913e94337fa","system_id":"levelo_inurba_marseille","lat":43.29274,"lon":5.3684,"is_reserved":false,"is_disabled":false,"rental_uris":{"android":"levelo://app?vid=ba9df6fd-253d-4a93-b77a-2913e94337fa","ios":"levelo://app?vid=ba9df6fd-253d-4a93-b77a-2913e94337fa"},"vehicle_type_id":"4","last_reported":1717527969,"current_range_meters":12000,"station_id":"ce4bhbp2rcd13ifvqesg","pricing_plan_id":"cebpf4jnsgd1na2vs0mg"},{"bike_id":"8f68dfca-6c46-4ddc-be2c-eac8ba0f4b38","system_id":"levelo_inurba_marseille","lat":43.29272,"lon":5.36836,"is_reserved":false,"is_disabled":false,"rental_uris":{"android":"levelo://app?vid=8f68dfca-6c46-4ddc-be2c-eac8ba0f4b38","ios":"levelo://app?vid=8f68dfca-6c46-4ddc-be2c-eac8ba0f4b38"},"vehicle_type_id":"4","last_reported":1717527969,"current_range_meters":27200,"station_id":"ce4bhbp2rcd13ifvqesg","pricing_plan_id":"cebpf4jnsgd1na2vs0mg"},{"bike_id":"6f8f5d13-5841-4c8a-ad6b-6d854d7f4343","system_id":"levelo_inurba_marseille","lat":43.2927,"lon":5.36838,"is_reserved":false,"is_disabled":false,"rental_uris":{"android":"levelo://app?vid=6f8f5d13-5841-4c8a-ad6b-6d854d7f4343","ios":"levelo://app?vid=6f8f5d13-5841-4c8a-ad6b-6d854d7f4343"},"vehicle_type_id":"4","last_reported":1717527969,"current_range_meters":31200,"station_id":"ce4bhbp2rcd13ifvqesg","pricing_plan_id":"cebpf4jnsgd1na2vs0mg"},{"bike_id":"02419c7a-874d-4aa7-a477-437962a3cfdb","system_id":"levelo_inurba_marseille","lat":43.2927,"lon":5.3684,"is_reserved":false,"is_disabled":false,"rental_uris":{"android":"levelo://app?vid=02419c7a-874d-4aa7-a477-437962a3cfdb","ios":"levelo://app?vid=02419c7a-874d-4aa7-a477-437962a3cfdb"},"vehicle_type_id":"4","last_reported":1717527969,"current_range_meters":21200,"station_id":"ce4bhbp2rcd13ifvqesg","pricing_plan_id":"cebpf4jnsgd1na2vs0mg"},{"bike_id":"66131a23-7c1a-48be-b829-01ec23b8a404","system_id":"levelo_inurba_marseille","lat":43.29266,"lon":5.36844,"is_reserved":false,"is_disabled":false,"rental_uris":{"android":"levelo://app?vid=66131a23-7c1a-48be-b829-01ec23b8a404","ios":"levelo://app?vid=66131a23-7c1a-48be-b829-01ec23b8a404"},"vehicle_type_id":"4","last_reported":1717527969,"current_range_meters":15200,"station_id":"ce4bhbp2rcd13ifvqesg","pricing_plan_id":"cebpf4jnsgd1na2vs0mg"},{"bike_id":"f9f7a5df-6583-4e98-bcc5-8b601f7b929c","system_id":"levelo_inurba_marseille","lat":43.29306,"lon":5.37446,"is_reserved":false,"is_disabled":false,"rental_uris":{"android":"levelo://app?vid=f9f7a5df-6583-4e98-bcc5-8b601f7b929c","ios":"levelo://app?vid=f9f7a5df-6583-4e98-bcc5-8b601f7b929c"},"vehicle_type_id":"4","last_reported":1717527969,"current_range_meters":18800,"station_id":"ce4bgi12rcd13ifvqb70","pricing_plan_id":"cebpf4jnsgd1na2vs0mg"},{"bike_id":"09906352-e46e-4b24-b607-820e907a85f2","system_id":"levelo_inurba_marseille","lat":43.29306,"lon":5.37446,"is_reserved":false,"is_disabled":false,"rental_uris":{"android":"levelo://app?vid=09906352-e46e-4b24-b607-820e907a85f2","ios":"levelo://app?vid=09906352-e46e-4b24-b607-820e907a85f2"},"vehicle_type_id":"4","last_reported":1717527969,"current_range_meters":16400,"station_id":"ce4bgi12rcd13ifvqb70","pricing_plan_id":"cebpf4jnsgd1na2vs0mg"},{"bike_id":"9f0dded8-cb34-486e-9ad6-93844b4f8968","system_id":"levelo_inurba_marseille","lat":43.293035,"lon":5.37447,"is_reserved":false,"is_disabled":false,"rental_uris":{"android":"levelo://app?vid=9f0dded8-cb34-486e-9ad6-93844b4f8968","ios":"levelo://app?vid=9f0dded8-cb34-486e-9ad6-93844b4f8968"},"vehicle_type_id":"4","last_reported":1717527969,"current_range_meters":22800,"station_id":"ce4bgi12rcd13ifvqb70","pricing_plan_id":"cebpf4jnsgd1na2vs0mg"},{"bike_id":"c168d65c-cf51-47de-a079-8b8427ed478c","system_id":"levelo_inurba_marseille","lat":43.29301,"lon":5.37446,"is_reserved":false,"is_disabled":false,"rental_uris":{"android":"levelo://app?vid=c168d65c-cf51-47de-a079-8b8427ed478c","ios":"levelo://app?vid=c168d65c-cf51-47de-a079-8b8427ed478c"},"vehicle_type_id":"4","last_reported":1717527969,"current_range_meters":26800,"station_id":"ce4bgi12rcd13ifvqb70","pricing_plan_id":"cebpf4jnsgd1na2vs0mg"},{"bike_id":"ff2ee4b8-79d0-4dd0-9335-9a60aaaa925c","system_id":"levelo_inurba_marseille","lat":43.305994,"lon":5.393687,"is_reserved":false,"is_disabled":false,"rental_uris":{"android":"levelo://app?vid=ff2ee4b8-79d0-4dd0-9335-9a60aaaa925c","ios":"levelo://app?vid=ff2ee4b8-79d0-4dd0-9335-9a60aaaa925c"},"vehicle_type_id":"4","last_reported":1717527969,"current_range_meters":0,"station_id":"ce4bh0p2rcd13ifvqd80","pricing_plan_id":"cebpf4jnsgd1na2vs0mg"},{"bike_id":"6c38a4d1-b902-4b0f-804f-72130ae88beb","system_id":"levelo_inurba_marseille","lat":43.293009,"lon":5.374584,"is_reserved":false,"is_disabled":false,"rental_uris":{"android":"levelo://app?vid=6c38a4d1-b902-4b0f-804f-72130ae88beb","ios":"levelo://app?vid=6c38a4d1-b902-4b0f-804f-72130ae88beb"},"vehicle_type_id":"4","last_reported":1717527969,"current_range_meters":31200,"station_id":"ce4bgi12rcd13ifvqb70","pricing_plan_id":"cebpf4jnsgd1na2vs0mg"},{"bike_id":"a690b71a-5f18-48a2-bed1-40d33da16d2a","system_id":"levelo_inurba_marseille","lat":43.293009,"lon":5.374584,"is_reserved":false,"is_disabled":false,"rental_uris":{"android":"levelo://app?vid=a690b71a-5f18-48a2-bed1-40d33da16d2a","ios":"levelo://app?vid=a690b71a-5f18-48a2-bed1-40d33da16d2a"},"vehicle_type_id":"4","last_reported":1717527969,"current_range_meters":9600,"station_id":"ce4bgi12rcd13ifvqb70","pricing_plan_id":"cebpf4jnsgd1na2vs0mg"},{"bike_id":"5525b287-ada4-4b3c-a9aa-e237e792db6c","system_id":"levelo_inurba_marseille","lat":43.305994,"lon":5.393687,"is_reserved":false,"is_disabled":false,"rental_uris":{"android":"levelo://app?vid=5525b287-ada4-4b3c-a9aa-e237e792db6c","ios":"levelo://app?vid=5525b287-ada4-4b3c-a9aa-e237e792db6c"},"vehicle_type_id":"4","last_reported":1717527969,"current_range_meters":0,"station_id":"ce4bh0p2rcd13ifvqd80","pricing_plan_id":"cebpf4jnsgd1na2vs0mg"},{"bike_id":"57b7d9f6-edbb-4e55-bfcc-c88277ab3e7a","system_id":"levelo_inurba_marseille","lat":43.297163,"lon":5.365866,"is_reserved":false,"is_disabled":false,"rental_uris":{"android":"levelo://app?vid=57b7d9f6-edbb-4e55-bfcc-c88277ab3e7a","ios":"levelo://app?vid=57b7d9f6-edbb-4e55-bfcc-c88277ab3e7a"},"vehicle_type_id":"4","last_reported":1717527969,"current_range_meters":1200,"station_id":"ce4bgn12rcd13ifvqbt0","pricing_plan_id":"cebpf4jnsgd1na2vs0mg"},{"bike_id":"a7bd78e5-93c7-41e5-b0a8-3d2d55d63d36","system_id":"levelo_inurba_marseille","lat":43.303002,"lon":5.392142,"is_reserved":false,"is_disabled":false,"rental_uris":{"android":"levelo://app?vid=a7bd78e5-93c7-41e5-b0a8-3d2d55d63d36","ios":"levelo://app?vid=a7bd78e5-93c7-41e5-b0a8-3d2d55d63d36"},"vehicle_type_id":"4","last_reported":1717527969,"current_range_meters":26000,"station_id":"ce4bgkh2rcd13ifvqbk0","pricing_plan_id":"cebpf4jnsgd1na2vs0mg"},{"bike_id":"3342be3d-e101-4bfa-b7b7-c0b3b1d1506a","system_id":"levelo_inurba_marseille","lat":43.303002,"lon":5.392142,"is_reserved":false,"is_disabled":false,"rental_uris":{"android":"levelo://app?vid=3342be3d-e101-4bfa-b7b7-c0b3b1d1506a","ios":"levelo://app?vid=3342be3d-e101-4bfa-b7b7-c0b3b1d1506a"},"vehicle_type_id":"4","last_reported":1717527969,"current_range_meters":31200,"station_id":"ce4bgkh2rcd13ifvqbk0","pricing_plan_id":"cebpf4jnsgd1na2vs0mg"},{"bike_id":"cd4d8faf-aac7-4d88-9a47-65586dfbd17b","system_id":"levelo_inurba_marseille","lat":43.303002,"lon":5.392142,"is_reserved":false,"is_disabled":false,"rental_uris":{"android":"levelo://app?vid=cd4d8faf-aac7-4d88-9a47-65586dfbd17b","ios":"levelo://app?vid=cd4d8faf-aac7-4d88-9a47-65586dfbd17b"},"vehicle_type_id":"4","last_reported":1717527969,"current_range_meters":26800,"station_id":"ce4bgkh2rcd13ifvqbk0","pricing_plan_id":"cebpf4jnsgd1na2vs0mg"},{"bike_id":"0ac6cc01-d86d-4492-b706-deb0c30eae94","system_id":"levelo_inurba_marseille","lat":43.2936,"lon":5.37835,"is_reserved":false,"is_disabled":false,"rental_uris":{"android":"levelo://app?vid=0ac6cc01-d86d-4492-b706-deb0c30eae94","ios":"levelo://app?vid=0ac6cc01-d86d-4492-b706-deb0c30eae94"},"vehicle_type_id":"4","last_reported":1717527969,"current_range_meters":13600,"station_id":"ce4bgjh2rcd13ifvqbf0","pricing_plan_id":"cebpf4jnsgd1na2vs0mg"},{"bike_id":"33af64d7-f7e9-4774-ac6f-877fcdb604d3","system_id":"levelo_inurba_marseille","lat":43.302992,"lon":5.392136,"is_reserved":false,"is_disabled":false,"rental_uris":{"android":"levelo://app?vid=33af64d7-f7e9-4774-ac6f-877fcdb604d3","ios":"levelo://app?vid=33af64d7-f7e9-4774-ac6f-877fcdb604d3"},"vehicle_type_id":"4","last_reported":1717527969,"current_range_meters":31200,"station_id":"ce4bgkh2rcd13ifvqbk0","pricing_plan_id":"cebpf4jnsgd1na2vs0mg"},{"bike_id":"fd96fef2-3f3f-4aae-91e6-cb5e5c684ad4","system_id":"levelo_inurba_marseille","lat":43.30337,"lon":5.39252,"is_reserved":false,"is_disabled":false,"rental_uris":{"android":"levelo://app?vid=fd96fef2-3f3f-4aae-91e6-cb5e5c684ad4","ios":"levelo://app?vid=fd96fef2-3f3f-4aae-91e6-cb5e5c684ad4"},"vehicle_type_id":"4","last_reported":1717527969,"current_range_meters":4800,"station_id":"","pricing_plan_id":"cebpf4jnsgd1na2vs0mg"},{"bike_id":"75ca926d-98af-425e-987c-61386da6df38","system_id":"levelo_inurba_marseille","lat":43.304525,"lon":5.393355,"is_reserved":false,"is_disabled":false,"rental_uris":{"android":"levelo://app?vid=75ca926d-98af-425e-987c-61386da6df38","ios":"levelo://app?vid=75ca926d-98af-425e-987c-61386da6df38"},"vehicle_type_id":"4","last_reported":1717527969,"current_range_meters":18400,"station_id":"","pricing_plan_id":"cebpf4jnsgd1na2vs0mg"},{"bike_id":"c9bc73b9-8a01-4de6-98c4-0fa538403edf","system_id":"levelo_inurba_marseille","lat":43.292311,"lon":5.360731,"is_reserved":false,"is_disabled":false,"rental_uris":{"android":"levelo://app?vid=c9bc73b9-8a01-4de6-98c4-0fa538403edf","ios":"levelo://app?vid=c9bc73b9-8a01-4de6-98c4-0fa538403edf"},"vehicle_type_id":"4","last_reported":1717527969,"current_range_meters":31200,"station_id":"ce4bhbh2rcd13ifvqeqg","pricing_plan_id":"cebpf4jnsgd1na2vs0mg"},{"bike_id":"7f19011f-6709-437e-856c-84ad6f1bfd35","system_id":"levelo_inurba_marseille","lat":43.30085,"lon":5.390856,"is_reserved":false,"is_disabled":false,"rental_uris":{"android":"levelo://app?vid=7f19011f-6709-437e-856c-84ad6f1bfd35","ios":"levelo://app?vid=7f19011f-6709-437e-856c-84ad6f1bfd35"},"vehicle_type_id":"4","last_reported":1717527969,"current_range_meters":25600,"station_id":"ce4bh192rcd13ifvqdb0","pricing_plan_id":"cebpf4jnsgd1na2vs0mg"},{"bike_id":"73ed9c64-76b6-4dc7-835a-4869be5be421","system_id":"levelo_inurba_marseille","lat":43.292311,"lon":5.360731,"is_reserved":false,"is_disabled":false,"rental_uris":{"android":"levelo://app?vid=73ed9c64-76b6-4dc7-835a-4869be5be421","ios":"levelo://app?vid=73ed9c64-76b6-4dc7-835a-4869be5be421"},"vehicle_type_id":"4","last_reported":1717527969,"current_range_meters":22800,"station_id":"ce4bhbh2rcd13ifvqeqg","pricing_plan_id":"cebpf4jnsgd1na2vs0mg"},{"bike_id":"a142bd13-a5bb-47eb-b7ff-9bf7d083b3dd","system_id":"levelo_inurba_marseille","lat":43.30085,"lon":5.390856,"is_reserved":false,"is_disabled":false,"rental_uris":{"android":"levelo://app?vid=a142bd13-a5bb-47eb-b7ff-9bf7d083b3dd","ios":"levelo://app?vid=a142bd13-a5bb-47eb-b7ff-9bf7d083b3dd"},"vehicle_type_id":"4","last_reported":1717527969,"current_range_meters":4400,"station_id":"ce4bh192rcd13ifvqdb0","pricing_plan_id":"cebpf4jnsgd1na2vs0mg"},{"bike_id":"6ff42318-c673-4af9-ac5b-9177a785b271","system_id":"levelo_inurba_marseille","lat":43.292311,"lon":5.360731,"is_reserved":false,"is_disabled":false,"rental_uris":{"android":"levelo://app?vid=6ff42318-c673-4af9-ac5b-9177a785b271","ios":"levelo://app?vid=6ff42318-c673-4af9-ac5b-9177a785b271"},"vehicle_type_id":"4","last_reported":1717527969,"current_range_meters":30400,"station_id":"ce4bhbh2rcd13ifvqeqg","pricing_plan_id":"cebpf4jnsgd1na2vs0mg"},{"bike_id":"11dba637-5e3a-4f43-b4a0-bd42a046d06c","system_id":"levelo_inurba_marseille","lat":43.30084,"lon":5.39076,"is_reserved":false,"is_disabled":false,"rental_uris":{"android":"levelo://app?vid=11dba637-5e3a-4f43-b4a0-bd42a046d06c","ios":"levelo://app?vid=11dba637-5e3a-4f43-b4a0-bd42a046d06c"},"vehicle_type_id":"4","last_reported":1717527969,"current_range_meters":0,"station_id":"ce4bh192rcd13ifvqdb0","pricing_plan_id":"cebpf4jnsgd1na2vs0mg"},{"bike_id":"09c8c4a1-39c0-4de6-b3e9-8d63f22a78e2","system_id":"levelo_inurba_marseille","lat":43.292311,"lon":5.360731,"is_reserved":false,"is_disabled":false,"rental_uris":{"android":"levelo://app?vid=09c8c4a1-39c0-4de6-b3e9-8d63f22a78e2","ios":"levelo://app?vid=09c8c4a1-39c0-4de6-b3e9-8d63f22a78e2"},"vehicle_type_id":"4","last_reported":1717527969,"current_range_meters":29200,"station_id":"ce4bhbh2rcd13ifvqeqg","pricing_plan_id":"cebpf4jnsgd1na2vs0mg"},{"bike_id":"646fe518-1924-47be-ac13-2c4a05a22a2f","system_id":"levelo_inurba_marseille","lat":43.292311,"lon":5.360731,"is_reserved":false,"is_disabled":false,"rental_uris":{"android":"levelo://app?vid=646fe518-1924-47be-ac13-2c4a05a22a2f","ios":"levelo://app?vid=646fe518-1924-47be-ac13-2c4a05a22a2f"},"vehicle_type_id":"4","last_reported":1717527969,"current_range_meters":27200,"station_id":"ce4bhbh2rcd13ifvqeqg","pricing_plan_id":"cebpf4jnsgd1na2vs0mg"},{"bike_id":"78c85ecb-2aeb-40f1-9f50-1061073dd37b","system_id":"levelo_inurba_marseille","lat":43.298764,"lon":5.388973,"is_reserved":false,"is_disabled":false,"rental_uris":{"android":"levelo://app?vid=78c85ecb-2aeb-40f1-9f50-1061073dd37b","ios":"levelo://app?vid=78c85ecb-2aeb-40f1-9f50-1061073dd37b"},"vehicle_type_id":"4","last_reported":1717527969,"current_range_meters":0,"station_id":"ce4bh392rcd13ifvqdl0","pricing_plan_id":"cebpf4jnsgd1na2vs0mg"},{"bike_id":"1e2cdea4-a789-4810-a12e-7d25740c24fc","system_id":"levelo_inurba_marseille","lat":43.291675,"lon":5.371583,"is_reserved":false,"is_disabled":false,"rental_uris":{"android":"levelo://app?vid=1e2cdea4-a789-4810-a12e-7d25740c24fc","ios":"levelo://app?vid=1e2cdea4-a789-4810-a12e-7d25740c24fc"},"vehicle_type_id":"4","last_reported":1717527969,"current_range_meters":30400,"station_id":"ce4bha92rcd13ifvqeh0","pricing_plan_id":"cebpf4jnsgd1na2vs0mg"},{"bike_id":"5c21550b-eef0-4e34-bba5-a81094e143ec","system_id":"levelo_inurba_marseille","lat":43.298764,"lon":5.388973,"is_reserved":false,"is_disabled":false,"rental_uris":{"android":"levelo://app?vid=5c21550b-eef0-4e34-bba5-a81094e143ec","ios":"levelo://app?vid=5c21550b-eef0-4e34-bba5-a81094e143ec"},"vehicle_type_id":"4","last_reported":1717527969,"current_range_meters":1600,"station_id":"ce4bh392rcd13ifvqdl0","pricing_plan_id":"cebpf4jnsgd1na2vs0mg"},{"bike_id":"3f15a34d-8c62-451b-85f3-0cbcd77ced86","system_id":"levelo_inurba_marseille","lat":43.292311,"lon":5.360731,"is_reserved":false,"is_disabled":false,"rental_uris":{"android":"levelo://app?vid=3f15a34d-8c62-451b-85f3-0cbcd77ced86","ios":"levelo://app?vid=3f15a34d-8c62-451b-85f3-0cbcd77ced86"},"vehicle_type_id":"4","last_reported":1717527969,"current_range_meters":28800,"station_id":"ce4bhbh2rcd13ifvqeqg","pricing_plan_id":"cebpf4jnsgd1na2vs0mg"},{"bike_id":"a7832555-a0a0-4a19-bb22-3115c38a1a1c","system_id":"levelo_inurba_marseille","lat":43.29325,"lon":5.379946,"is_reserved":false,"is_disabled":false,"rental_uris":{"android":"levelo://app?vid=a7832555-a0a0-4a19-bb22-3115c38a1a1c","ios":"levelo://app?vid=a7832555-a0a0-4a19-bb22-3115c38a1a1c"},"vehicle_type_id":"4","last_reported":1717527969,"current_range_meters":1600,"station_id":"ce4bh692rcd13ifvqea0","pricing_plan_id":"cebpf4jnsgd1na2vs0mg"},{"bike_id":"66e811fd-399b-413d-84ae-5e5f6ace348c","system_id":"levelo_inurba_marseille","lat":43.292005,"lon":5.357875,"is_reserved":false,"is_disabled":false,"rental_uris":{"android":"levelo://app?vid=66e811fd-399b-413d-84ae-5e5f6ace348c","ios":"levelo://app?vid=66e811fd-399b-413d-84ae-5e5f6ace348c"},"vehicle_type_id":"4","last_reported":1717527969,"current_range_meters":27200,"station_id":"ce4bhb12rcd13ifvqel0","pricing_plan_id":"cebpf4jnsgd1na2vs0mg"},{"bike_id":"90150e45-4e93-42ce-bf2d-644b3bcfeaed","system_id":"levelo_inurba_marseille","lat":43.291958,"lon":5.3579,"is_reserved":false,"is_disabled":false,"rental_uris":{"android":"levelo://app?vid=90150e45-4e93-42ce-bf2d-644b3bcfeaed","ios":"levelo://app?vid=90150e45-4e93-42ce-bf2d-644b3bcfeaed"},"vehicle_type_id":"4","last_reported":1717527969,"current_range_meters":31600,"station_id":"ce4bhb12rcd13ifvqel0","pricing_plan_id":"cebpf4jnsgd1na2vs0mg"},{"bike_id":"c0f2183a-7c02-40b0-945b-bc7b7f57d3a6","system_id":"levelo_inurba_marseille","lat":43.29195,"lon":5.357907,"is_reserved":false,"is_disabled":false,"rental_uris":{"android":"levelo://app?vid=c0f2183a-7c02-40b0-945b-bc7b7f57d3a6","ios":"levelo://app?vid=c0f2183a-7c02-40b0-945b-bc7b7f57d3a6"},"vehicle_type_id":"4","last_reported":1717527969,"current_range_meters":31200,"station_id":"ce4bhb12rcd13ifvqel0","pricing_plan_id":"cebpf4jnsgd1na2vs0mg"},{"bike_id":"91733019-1ac7-42ad-b5d3-4c0346a85b59","system_id":"levelo_inurba_marseille","lat":43.29193,"lon":5.35787,"is_reserved":false,"is_disabled":false,"rental_uris":{"android":"levelo://app?vid=91733019-1ac7-42ad-b5d3-4c0346a85b59","ios":"levelo://app?vid=91733019-1ac7-42ad-b5d3-4c0346a85b59"},"vehicle_type_id":"4","last_reported":1717527969,"current_range_meters":3600,"station_id":"ce4bhb12rcd13ifvqel0","pricing_plan_id":"cebpf4jnsgd1na2vs0mg"},{"bike_id":"cd0183b1-1adc-464f-aabc-c899eaff70e5","system_id":"levelo_inurba_marseille","lat":43.313291,"lon":5.396838,"is_reserved":false,"is_disabled":false,"rental_uris":{"android":"levelo://app?vid=cd0183b1-1adc-464f-aabc-c899eaff70e5","ios":"levelo://app?vid=cd0183b1-1adc-464f-aabc-c899eaff70e5"},"vehicle_type_id":"4","last_reported":1717527969,"current_range_meters":9200,"station_id":"ce4bgvp2rcd13ifvqcu0","pricing_plan_id":"cebpf4jnsgd1na2vs0mg"},{"bike_id":"de9c26f9-034e-465e-8c07-666a3f2042ab","system_id":"levelo_inurba_marseille","lat":43.309047,"lon":5.396551,"is_reserved":false,"is_disabled":false,"rental_uris":{"android":"levelo://app?vid=de9c26f9-034e-465e-8c07-666a3f2042ab","ios":"levelo://app?vid=de9c26f9-034e-465e-8c07-666a3f2042ab"},"vehicle_type_id":"4","last_reported":1717527969,"current_range_meters":7200,"station_id":"ce4bh012rcd13ifvqcv0","pricing_plan_id":"cebpf4jnsgd1na2vs0mg"},{"bike_id":"91202ba7-e721-4b91-ae9c-1a277a54a7e4","system_id":"levelo_inurba_marseille","lat":43.313291,"lon":5.396838,"is_reserved":false,"is_disabled":false,"rental_uris":{"android":"levelo://app?vid=91202ba7-e721-4b91-ae9c-1a277a54a7e4","ios":"levelo://app?vid=91202ba7-e721-4b91-ae9c-1a277a54a7e4"},"vehicle_type_id":"4","last_reported":1717527969,"current_range_meters":0,"station_id":"ce4bgvp2rcd13ifvqcu0","pricing_plan_id":"cebpf4jnsgd1na2vs0mg"},{"bike_id":"07e696ca-4a83-463e-83f3-fffac8f2bd7c","system_id":"levelo_inurba_marseille","lat":43.313291,"lon":5.396838,"is_reserved":false,"is_disabled":false,"rental_uris":{"android":"levelo://app?vid=07e696ca-4a83-463e-83f3-fffac8f2bd7c","ios":"levelo://app?vid=07e696ca-4a83-463e-83f3-fffac8f2bd7c"},"vehicle_type_id":"4","last_reported":1717527969,"current_range_meters":0,"station_id":"ce4bgvp2rcd13ifvqcu0","pricing_plan_id":"cebpf4jnsgd1na2vs0mg"},{"bike_id":"4d3c82a3-c6c6-4d5c-a61a-301f82f9bcdc","system_id":"levelo_inurba_marseille","lat":43.313291,"lon":5.396838,"is_reserved":false,"is_disabled":false,"rental_uris":{"android":"levelo://app?vid=4d3c82a3-c6c6-4d5c-a61a-301f82f9bcdc","ios":"levelo://app?vid=4d3c82a3-c6c6-4d5c-a61a-301f82f9bcdc"},"vehicle_type_id":"4","last_reported":1717527969,"current_range_meters":28000,"station_id":"ce4bgvp2rcd13ifvqcu0","pricing_plan_id":"cebpf4jnsgd1na2vs0mg"},{"bike_id":"e7d1a1cf-be97-4eb9-a745-6e813b22b71a","system_id":"levelo_inurba_marseille","lat":43.313291,"lon":5.396838,"is_reserved":false,"is_disabled":false,"rental_uris":{"android":"levelo://app?vid=e7d1a1cf-be97-4eb9-a745-6e813b22b71a","ios":"levelo://app?vid=e7d1a1cf-be97-4eb9-a745-6e813b22b71a"},"vehicle_type_id":"4","last_reported":1717527969,"current_range_meters":23600,"station_id":"ce4bgvp2rcd13ifvqcu0","pricing_plan_id":"cebpf4jnsgd1na2vs0mg"},{"bike_id":"46013d53-cbe6-4c63-8b71-6023868109b4","system_id":"levelo_inurba_marseille","lat":43.313291,"lon":5.396838,"is_reserved":false,"is_disabled":false,"rental_uris":{"android":"levelo://app?vid=46013d53-cbe6-4c63-8b71-6023868109b4","ios":"levelo://app?vid=46013d53-cbe6-4c63-8b71-6023868109b4"},"vehicle_type_id":"4","last_reported":1717527969,"current_range_meters":2400,"station_id":"ce4bgvp2rcd13ifvqcu0","pricing_plan_id":"cebpf4jnsgd1na2vs0mg"},{"bike_id":"75b5f6d1-456d-409a-80fa-f6d5e9be64dc","system_id":"levelo_inurba_marseille","lat":43.291883,"lon":5.3579,"is_reserved":false,"is_disabled":false,"rental_uris":{"android":"levelo://app?vid=75b5f6d1-456d-409a-80fa-f6d5e9be64dc","ios":"levelo://app?vid=75b5f6d1-456d-409a-80fa-f6d5e9be64dc"},"vehicle_type_id":"4","last_reported":1717527969,"current_range_meters":20400,"station_id":"ce4bhb12rcd13ifvqel0","pricing_plan_id":"cebpf4jnsgd1na2vs0mg"},{"bike_id":"d90ae59f-2333-4913-9a8e-984ecba2e5e9","system_id":"levelo_inurba_marseille","lat":43.309038,"lon":5.396546,"is_reserved":false,"is_disabled":false,"rental_uris":{"android":"levelo://app?vid=d90ae59f-2333-4913-9a8e-984ecba2e5e9","ios":"levelo://app?vid=d90ae59f-2333-4913-9a8e-984ecba2e5e9"},"vehicle_type_id":"4","last_reported":1717527969,"current_range_meters":0,"station_id":"ce4bh012rcd13ifvqcv0","pricing_plan_id":"cebpf4jnsgd1na2vs0mg"},{"bike_id":"c38a4a62-f081-483b-b1a2-b06be68cfd79","system_id":"levelo_inurba_marseille","lat":43.313291,"lon":5.396838,"is_reserved":false,"is_disabled":false,"rental_uris":{"android":"levelo://app?vid=c38a4a62-f081-483b-b1a2-b06be68cfd79","ios":"levelo://app?vid=c38a4a62-f081-483b-b1a2-b06be68cfd79"},"vehicle_type_id":"4","last_reported":1717527969,"current_range_meters":4000,"station_id":"ce4bgvp2rcd13ifvqcu0","pricing_plan_id":"cebpf4jnsgd1na2vs0mg"},{"bike_id":"43632675-0625-4dae-9868-1a7be9c5427b","system_id":"levelo_inurba_marseille","lat":43.30863,"lon":5.39655,"is_reserved":false,"is_disabled":false,"rental_uris":{"android":"levelo://app?vid=43632675-0625-4dae-9868-1a7be9c5427b","ios":"levelo://app?vid=43632675-0625-4dae-9868-1a7be9c5427b"},"vehicle_type_id":"4","last_reported":1717527969,"current_range_meters":0,"station_id":"ce4bh012rcd13ifvqcv0","pricing_plan_id":"cebpf4jnsgd1na2vs0mg"},{"bike_id":"049f7bbe-8130-4d70-ba18-f2c83a3622f9","system_id":"levelo_inurba_marseille","lat":43.309038,"lon":5.396546,"is_reserved":false,"is_disabled":false,"rental_uris":{"android":"levelo://app?vid=049f7bbe-8130-4d70-ba18-f2c83a3622f9","ios":"levelo://app?vid=049f7bbe-8130-4d70-ba18-f2c83a3622f9"},"vehicle_type_id":"4","last_reported":1717527969,"current_range_meters":0,"station_id":"ce4bh012rcd13ifvqcv0","pricing_plan_id":"cebpf4jnsgd1na2vs0mg"},{"bike_id":"681480ca-1009-4abd-9674-4f371b2b76f6","system_id":"levelo_inurba_marseille","lat":43.29529,"lon":5.385581,"is_reserved":false,"is_disabled":false,"rental_uris":{"android":"levelo://app?vid=681480ca-1009-4abd-9674-4f371b2b76f6","ios":"levelo://app?vid=681480ca-1009-4abd-9674-4f371b2b76f6"},"vehicle_type_id":"4","last_reported":1717527969,"current_range_meters":5600,"station_id":"ce4bgih2rcd13ifvqba0","pricing_plan_id":"cebpf4jnsgd1na2vs0mg"},{"bike_id":"17457a01-8d70-4b2d-abf4-1b31f99fe7ef","system_id":"levelo_inurba_marseille","lat":43.290779,"lon":5.371482,"is_reserved":false,"is_disabled":false,"rental_uris":{"android":"levelo://app?vid=17457a01-8d70-4b2d-abf4-1b31f99fe7ef","ios":"levelo://app?vid=17457a01-8d70-4b2d-abf4-1b31f99fe7ef"},"vehicle_type_id":"4","last_reported":1717527969,"current_range_meters":12000,"station_id":"ce4bh5p2rcd13ifvqe4g","pricing_plan_id":"cebpf4jnsgd1na2vs0mg"},{"bike_id":"558187b3-e3b1-43a1-90b0-4b687785ce9d","system_id":"levelo_inurba_marseille","lat":43.294947,"lon":5.386017,"is_reserved":false,"is_disabled":false,"rental_uris":{"android":"levelo://app?vid=558187b3-e3b1-43a1-90b0-4b687785ce9d","ios":"levelo://app?vid=558187b3-e3b1-43a1-90b0-4b687785ce9d"},"vehicle_type_id":"4","last_reported":1717527969,"current_range_meters":0,"station_id":"","pricing_plan_id":"cebpf4jnsgd1na2vs0mg"},{"bike_id":"9f2ca63d-16ab-44d4-8197-38537bdad2f2","system_id":"levelo_inurba_marseille","lat":43.290624,"lon":5.359245,"is_reserved":false,"is_disabled":false,"rental_uris":{"android":"levelo://app?vid=9f2ca63d-16ab-44d4-8197-38537bdad2f2","ios":"levelo://app?vid=9f2ca63d-16ab-44d4-8197-38537bdad2f2"},"vehicle_type_id":"4","last_reported":1717527969,"current_range_meters":23200,"station_id":"ce4bha92rcd13ifvqeg0","pricing_plan_id":"cebpf4jnsgd1na2vs0mg"},{"bike_id":"9b77163e-0f94-455b-93ec-f8a925c6e098","system_id":"levelo_inurba_marseille","lat":43.2895,"lon":5.36633,"is_reserved":false,"is_disabled":false,"rental_uris":{"android":"levelo://app?vid=9b77163e-0f94-455b-93ec-f8a925c6e098","ios":"levelo://app?vid=9b77163e-0f94-455b-93ec-f8a925c6e098"},"vehicle_type_id":"4","last_reported":1717527969,"current_range_meters":0,"station_id":"ce4bhap2rcd13ifvqek0","pricing_plan_id":"cebpf4jnsgd1na2vs0mg"},{"bike_id":"e9007bc0-b629-49cc-b449-f7ca816e95c2","system_id":"levelo_inurba_marseille","lat":43.29033,"lon":5.375493,"is_reserved":false,"is_disabled":false,"rental_uris":{"android":"levelo://app?vid=e9007bc0-b629-49cc-b449-f7ca816e95c2","ios":"levelo://app?vid=e9007bc0-b629-49cc-b449-f7ca816e95c2"},"vehicle_type_id":"4","last_reported":1717527969,"current_range_meters":31200,"station_id":"ce4bh692rcd13ifvqe90","pricing_plan_id":"cebpf4jnsgd1na2vs0mg"},{"bike_id":"501d7343-6a7e-4334-b891-ebb34a7cee83","system_id":"levelo_inurba_marseille","lat":43.289184,"lon":5.366408,"is_reserved":false,"is_disabled":false,"rental_uris":{"android":"levelo://app?vid=501d7343-6a7e-4334-b891-ebb34a7cee83","ios":"levelo://app?vid=501d7343-6a7e-4334-b891-ebb34a7cee83"},"vehicle_type_id":"4","last_reported":1717527969,"current_range_meters":400,"station_id":"ce4bhap2rcd13ifvqek0","pricing_plan_id":"cebpf4jnsgd1na2vs0mg"},{"bike_id":"ebd347e5-4cee-418c-9d0f-bb14a1fdb0e2","system_id":"levelo_inurba_marseille","lat":43.28948,"lon":5.36631,"is_reserved":false,"is_disabled":false,"rental_uris":{"android":"levelo://app?vid=ebd347e5-4cee-418c-9d0f-bb14a1fdb0e2","ios":"levelo://app?vid=ebd347e5-4cee-418c-9d0f-bb14a1fdb0e2"},"vehicle_type_id":"4","last_reported":1717527969,"current_range_meters":4400,"station_id":"ce4bhap2rcd13ifvqek0","pricing_plan_id":"cebpf4jnsgd1na2vs0mg"},{"bike_id":"19cfcfd7-b9a4-41df-8826-42b5d28b1f47","system_id":"levelo_inurba_marseille","lat":43.2942,"lon":5.38626,"is_reserved":false,"is_disabled":false,"rental_uris":{"android":"levelo://app?vid=19cfcfd7-b9a4-41df-8826-42b5d28b1f47","ios":"levelo://app?vid=19cfcfd7-b9a4-41df-8826-42b5d28b1f47"},"vehicle_type_id":"4","last_reported":1717527969,"current_range_meters":0,"station_id":"ce4bh2h2rcd13ifvqdh0","pricing_plan_id":"cebpf4jnsgd1na2vs0mg"},{"bike_id":"a604b50d-577d-418f-8753-be31df4225f4","system_id":"levelo_inurba_marseille","lat":43.29434,"lon":5.386521,"is_reserved":false,"is_disabled":false,"rental_uris":{"android":"levelo://app?vid=a604b50d-577d-418f-8753-be31df4225f4","ios":"levelo://app?vid=a604b50d-577d-418f-8753-be31df4225f4"},"vehicle_type_id":"4","last_reported":1717527969,"current_range_meters":800,"station_id":"ce4bh2h2rcd13ifvqdh0","pricing_plan_id":"cebpf4jnsgd1na2vs0mg"},{"bike_id":"1f3c03f5-aa31-4075-a3b5-e3fd8c7c20ab","system_id":"levelo_inurba_marseille","lat":43.29419,"lon":5.38629,"is_reserved":false,"is_disabled":false,"rental_uris":{"android":"levelo://app?vid=1f3c03f5-aa31-4075-a3b5-e3fd8c7c20ab","ios":"levelo://app?vid=1f3c03f5-aa31-4075-a3b5-e3fd8c7c20ab"},"vehicle_type_id":"4","last_reported":1717527969,"current_range_meters":0,"station_id":"ce4bh2h2rcd13ifvqdh0","pricing_plan_id":"cebpf4jnsgd1na2vs0mg"},{"bike_id":"8ffeadd3-62c7-4f54-8d0f-b2e43a2b2d82","system_id":"levelo_inurba_marseille","lat":43.2894,"lon":5.36634,"is_reserved":false,"is_disabled":false,"rental_uris":{"android":"levelo://app?vid=8ffeadd3-62c7-4f54-8d0f-b2e43a2b2d82","ios":"levelo://app?vid=8ffeadd3-62c7-4f54-8d0f-b2e43a2b2d82"},"vehicle_type_id":"4","last_reported":1717527969,"current_range_meters":25600,"station_id":"ce4bhap2rcd13ifvqek0","pricing_plan_id":"cebpf4jnsgd1na2vs0mg"},{"bike_id":"2d3bea60-1205-4e2a-a0ee-f4020662a2b9","system_id":"levelo_inurba_marseille","lat":43.28938,"lon":5.36634,"is_reserved":false,"is_disabled":false,"rental_uris":{"android":"levelo://app?vid=2d3bea60-1205-4e2a-a0ee-f4020662a2b9","ios":"levelo://app?vid=2d3bea60-1205-4e2a-a0ee-f4020662a2b9"},"vehicle_type_id":"4","last_reported":1717527969,"current_range_meters":0,"station_id":"ce4bhap2rcd13ifvqek0","pricing_plan_id":"cebpf4jnsgd1na2vs0mg"},{"bike_id":"a8223ce5-98f8-4350-9043-e7da1da31771","system_id":"levelo_inurba_marseille","lat":43.28938,"lon":5.36631,"is_reserved":false,"is_disabled":false,"rental_uris":{"android":"levelo://app?vid=a8223ce5-98f8-4350-9043-e7da1da31771","ios":"levelo://app?vid=a8223ce5-98f8-4350-9043-e7da1da31771"},"vehicle_type_id":"4","last_reported":1717527969,"current_range_meters":800,"station_id":"ce4bhap2rcd13ifvqek0","pricing_plan_id":"cebpf4jnsgd1na2vs0mg"},{"bike_id":"9e75fc62-994a-40af-a106-8b175955ccc4","system_id":"levelo_inurba_marseille","lat":43.28934,"lon":5.36627,"is_reserved":false,"is_disabled":false,"rental_uris":{"android":"levelo://app?vid=9e75fc62-994a-40af-a106-8b175955ccc4","ios":"levelo://app?vid=9e75fc62-994a-40af-a106-8b175955ccc4"},"vehicle_type_id":"4","last_reported":1717527969,"current_range_meters":0,"station_id":"ce4bhap2rcd13ifvqek0","pricing_plan_id":"cebpf4jnsgd1na2vs0mg"},{"bike_id":"77aa032c-a54c-4511-9a22-14a439bd860f","system_id":"levelo_inurba_marseille","lat":43.289468,"lon":5.363719,"is_reserved":false,"is_disabled":false,"rental_uris":{"android":"levelo://app?vid=77aa032c-a54c-4511-9a22-14a439bd860f","ios":"levelo://app?vid=77aa032c-a54c-4511-9a22-14a439bd860f"},"vehicle_type_id":"4","last_reported":1717527969,"current_range_meters":9600,"station_id":"ce4bhc92rcd13ifvqetg","pricing_plan_id":"cebpf4jnsgd1na2vs0mg"},{"bike_id":"8e4723ba-1ef2-4fe9-a698-2a0b2de2cc3a","system_id":"levelo_inurba_marseille","lat":43.28932,"lon":5.3641,"is_reserved":false,"is_disabled":false,"rental_uris":{"android":"levelo://app?vid=8e4723ba-1ef2-4fe9-a698-2a0b2de2cc3a","ios":"levelo://app?vid=8e4723ba-1ef2-4fe9-a698-2a0b2de2cc3a"},"vehicle_type_id":"4","last_reported":1717527969,"current_range_meters":8800,"station_id":"ce4bhc92rcd13ifvqetg","pricing_plan_id":"cebpf4jnsgd1na2vs0mg"},{"bike_id":"7040555a-91d0-4854-b44a-065b9fd00475","system_id":"levelo_inurba_marseille","lat":43.292642,"lon":5.384254,"is_reserved":false,"is_disabled":false,"rental_uris":{"android":"levelo://app?vid=7040555a-91d0-4854-b44a-065b9fd00475","ios":"levelo://app?vid=7040555a-91d0-4854-b44a-065b9fd00475"},"vehicle_type_id":"4","last_reported":1717527969,"current_range_meters":24400,"station_id":"ce4bh692rcd13ifvqea0","pricing_plan_id":"cebpf4jnsgd1na2vs0mg"},{"bike_id":"e7ddaf31-b25e-4dca-82cd-f557322c261a","system_id":"levelo_inurba_marseille","lat":43.292642,"lon":5.384254,"is_reserved":false,"is_disabled":false,"rental_uris":{"android":"levelo://app?vid=e7ddaf31-b25e-4dca-82cd-f557322c261a","ios":"levelo://app?vid=e7ddaf31-b25e-4dca-82cd-f557322c261a"},"vehicle_type_id":"4","last_reported":1717527969,"current_range_meters":21600,"station_id":"ce4bh692rcd13ifvqea0","pricing_plan_id":"cebpf4jnsgd1na2vs0mg"},{"bike_id":"2d6bf147-3fd4-45a5-82ba-a676d131420d","system_id":"levelo_inurba_marseille","lat":43.292642,"lon":5.384254,"is_reserved":false,"is_disabled":false,"rental_uris":{"android":"levelo://app?vid=2d6bf147-3fd4-45a5-82ba-a676d131420d","ios":"levelo://app?vid=2d6bf147-3fd4-45a5-82ba-a676d131420d"},"vehicle_type_id":"4","last_reported":1717527969,"current_range_meters":0,"station_id":"ce4bh692rcd13ifvqea0","pricing_plan_id":"cebpf4jnsgd1na2vs0mg"},{"bike_id":"cb2db105-7998-475f-b4fb-7909fdca7a67","system_id":"levelo_inurba_marseille","lat":43.292642,"lon":5.384254,"is_reserved":false,"is_disabled":false,"rental_uris":{"android":"levelo://app?vid=cb2db105-7998-475f-b4fb-7909fdca7a67","ios":"levelo://app?vid=cb2db105-7998-475f-b4fb-7909fdca7a67"},"vehicle_type_id":"4","last_reported":1717527969,"current_range_meters":0,"station_id":"ce4bh692rcd13ifvqea0","pricing_plan_id":"cebpf4jnsgd1na2vs0mg"},{"bike_id":"9d43c717-c220-460b-97cc-77e92a994122","system_id":"levelo_inurba_marseille","lat":43.292642,"lon":5.384254,"is_reserved":false,"is_disabled":false,"rental_uris":{"android":"levelo://app?vid=9d43c717-c220-460b-97cc-77e92a994122","ios":"levelo://app?vid=9d43c717-c220-460b-97cc-77e92a994122"},"vehicle_type_id":"4","last_reported":1717527969,"current_range_meters":8800,"station_id":"ce4bh692rcd13ifvqea0","pricing_plan_id":"cebpf4jnsgd1na2vs0mg"},{"bike_id":"98cc07d7-91a0-4887-a00e-c9fddaaa413e","system_id":"levelo_inurba_marseille","lat":43.292644,"lon":5.384257,"is_reserved":false,"is_disabled":false,"rental_uris":{"android":"levelo://app?vid=98cc07d7-91a0-4887-a00e-c9fddaaa413e","ios":"levelo://app?vid=98cc07d7-91a0-4887-a00e-c9fddaaa413e"},"vehicle_type_id":"4","last_reported":1717527969,"current_range_meters":4400,"station_id":"ce4bh692rcd13ifvqea0","pricing_plan_id":"cebpf4jnsgd1na2vs0mg"},{"bike_id":"5d7b1708-3237-4d89-9342-fea9c5d4bdd1","system_id":"levelo_inurba_marseille","lat":43.292642,"lon":5.384254,"is_reserved":false,"is_disabled":false,"rental_uris":{"android":"levelo://app?vid=5d7b1708-3237-4d89-9342-fea9c5d4bdd1","ios":"levelo://app?vid=5d7b1708-3237-4d89-9342-fea9c5d4bdd1"},"vehicle_type_id":"4","last_reported":1717527969,"current_range_meters":22000,"station_id":"ce4bh692rcd13ifvqea0","pricing_plan_id":"cebpf4jnsgd1na2vs0mg"},{"bike_id":"5a046762-45f1-4f5b-bbd3-ba7658afea3e","system_id":"levelo_inurba_marseille","lat":43.292642,"lon":5.384254,"is_reserved":false,"is_disabled":false,"rental_uris":{"android":"levelo://app?vid=5a046762-45f1-4f5b-bbd3-ba7658afea3e","ios":"levelo://app?vid=5a046762-45f1-4f5b-bbd3-ba7658afea3e"},"vehicle_type_id":"4","last_reported":1717527969,"current_range_meters":400,"station_id":"ce4bh692rcd13ifvqea0","pricing_plan_id":"cebpf4jnsgd1na2vs0mg"},{"bike_id":"bd6bfb9d-272b-4963-b2cd-ff63dc03c31e","system_id":"levelo_inurba_marseille","lat":43.292644,"lon":5.384257,"is_reserved":false,"is_disabled":false,"rental_uris":{"android":"levelo://app?vid=bd6bfb9d-272b-4963-b2cd-ff63dc03c31e","ios":"levelo://app?vid=bd6bfb9d-272b-4963-b2cd-ff63dc03c31e"},"vehicle_type_id":"4","last_reported":1717527969,"current_range_meters":0,"station_id":"ce4bh692rcd13ifvqea0","pricing_plan_id":"cebpf4jnsgd1na2vs0mg"},{"bike_id":"d5e8078f-7615-4694-8ba9-e7704a649419","system_id":"levelo_inurba_marseille","lat":43.290103,"lon":5.356114,"is_reserved":false,"is_disabled":false,"rental_uris":{"android":"levelo://app?vid=d5e8078f-7615-4694-8ba9-e7704a649419","ios":"levelo://app?vid=d5e8078f-7615-4694-8ba9-e7704a649419"},"vehicle_type_id":"4","last_reported":1717527969,"current_range_meters":0,"station_id":"ce4bhb92rcd13ifvqen0","pricing_plan_id":"cebpf4jnsgd1na2vs0mg"},{"bike_id":"023582fc-f610-4272-9c93-fdc37e373438","system_id":"levelo_inurba_marseille","lat":43.290104,"lon":5.356111,"is_reserved":false,"is_disabled":false,"rental_uris":{"android":"levelo://app?vid=023582fc-f610-4272-9c93-fdc37e373438","ios":"levelo://app?vid=023582fc-f610-4272-9c93-fdc37e373438"},"vehicle_type_id":"4","last_reported":1717527969,"current_range_meters":6800,"station_id":"ce4bhb92rcd13ifvqen0","pricing_plan_id":"cebpf4jnsgd1na2vs0mg"},{"bike_id":"bd0471e2-c891-43f4-81fe-d54371632ccd","system_id":"levelo_inurba_marseille","lat":43.29007,"lon":5.35616,"is_reserved":false,"is_disabled":false,"rental_uris":{"android":"levelo://app?vid=bd0471e2-c891-43f4-81fe-d54371632ccd","ios":"levelo://app?vid=bd0471e2-c891-43f4-81fe-d54371632ccd"},"vehicle_type_id":"4","last_reported":1717527969,"current_range_meters":0,"station_id":"ce4bhb92rcd13ifvqen0","pricing_plan_id":"cebpf4jnsgd1na2vs0mg"},{"bike_id":"fe312a5e-852b-41c5-8f88-b22a92839806","system_id":"levelo_inurba_marseille","lat":43.290104,"lon":5.356111,"is_reserved":false,"is_disabled":false,"rental_uris":{"android":"levelo://app?vid=fe312a5e-852b-41c5-8f88-b22a92839806","ios":"levelo://app?vid=fe312a5e-852b-41c5-8f88-b22a92839806"},"vehicle_type_id":"4","last_reported":1717527969,"current_range_meters":17600,"station_id":"ce4bhb92rcd13ifvqen0","pricing_plan_id":"cebpf4jnsgd1na2vs0mg"},{"bike_id":"3f54ccab-39f8-4b3e-9305-37ae54f90fb1","system_id":"levelo_inurba_marseille","lat":43.290103,"lon":5.356114,"is_reserved":false,"is_disabled":false,"rental_uris":{"android":"levelo://app?vid=3f54ccab-39f8-4b3e-9305-37ae54f90fb1","ios":"levelo://app?vid=3f54ccab-39f8-4b3e-9305-37ae54f90fb1"},"vehicle_type_id":"4","last_reported":1717527969,"current_range_meters":20000,"station_id":"ce4bhb92rcd13ifvqen0","pricing_plan_id":"cebpf4jnsgd1na2vs0mg"},{"bike_id":"94b9c1b5-a890-49b3-ba02-39686a78b2df","system_id":"levelo_inurba_marseille","lat":43.290103,"lon":5.356114,"is_reserved":false,"is_disabled":false,"rental_uris":{"android":"levelo://app?vid=94b9c1b5-a890-49b3-ba02-39686a78b2df","ios":"levelo://app?vid=94b9c1b5-a890-49b3-ba02-39686a78b2df"},"vehicle_type_id":"4","last_reported":1717527969,"current_range_meters":4400,"station_id":"ce4bhb92rcd13ifvqen0","pricing_plan_id":"cebpf4jnsgd1na2vs0mg"},{"bike_id":"6e721785-334e-4c38-970e-d77f3bf3c636","system_id":"levelo_inurba_marseille","lat":43.290104,"lon":5.356111,"is_reserved":false,"is_disabled":false,"rental_uris":{"android":"levelo://app?vid=6e721785-334e-4c38-970e-d77f3bf3c636","ios":"levelo://app?vid=6e721785-334e-4c38-970e-d77f3bf3c636"},"vehicle_type_id":"4","last_reported":1717527969,"current_range_meters":25200,"station_id":"ce4bhb92rcd13ifvqen0","pricing_plan_id":"cebpf4jnsgd1na2vs0mg"},{"bike_id":"9d3a61a3-3b0f-4880-9cd7-edb9516fb3c3","system_id":"levelo_inurba_marseille","lat":43.290103,"lon":5.356114,"is_reserved":false,"is_disabled":false,"rental_uris":{"android":"levelo://app?vid=9d3a61a3-3b0f-4880-9cd7-edb9516fb3c3","ios":"levelo://app?vid=9d3a61a3-3b0f-4880-9cd7-edb9516fb3c3"},"vehicle_type_id":"4","last_reported":1717527969,"current_range_meters":28400,"station_id":"ce4bhb92rcd13ifvqen0","pricing_plan_id":"cebpf4jnsgd1na2vs0mg"},{"bike_id":"51a7696f-853c-4f12-ba66-477fe631c6b7","system_id":"levelo_inurba_marseille","lat":43.290104,"lon":5.356111,"is_reserved":false,"is_disabled":false,"rental_uris":{"android":"levelo://app?vid=51a7696f-853c-4f12-ba66-477fe631c6b7","ios":"levelo://app?vid=51a7696f-853c-4f12-ba66-477fe631c6b7"},"vehicle_type_id":"4","last_reported":1717527969,"current_range_meters":7200,"station_id":"ce4bhb92rcd13ifvqen0","pricing_plan_id":"cebpf4jnsgd1na2vs0mg"},{"bike_id":"c1f8e4e5-2709-4bd0-a7f1-c14a6b5991e7","system_id":"levelo_inurba_marseille","lat":43.290103,"lon":5.356114,"is_reserved":false,"is_disabled":false,"rental_uris":{"android":"levelo://app?vid=c1f8e4e5-2709-4bd0-a7f1-c14a6b5991e7","ios":"levelo://app?vid=c1f8e4e5-2709-4bd0-a7f1-c14a6b5991e7"},"vehicle_type_id":"4","last_reported":1717527969,"current_range_meters":0,"station_id":"ce4bhb92rcd13ifvqen0","pricing_plan_id":"cebpf4jnsgd1na2vs0mg"},{"bike_id":"62e24e4f-6d79-4160-8940-b5ac8b9c34cc","system_id":"levelo_inurba_marseille","lat":43.29101,"lon":5.38141,"is_reserved":false,"is_disabled":false,"rental_uris":{"android":"levelo://app?vid=62e24e4f-6d79-4160-8940-b5ac8b9c34cc","ios":"levelo://app?vid=62e24e4f-6d79-4160-8940-b5ac8b9c34cc"},"vehicle_type_id":"4","last_reported":1717527969,"current_range_meters":0,"station_id":"ce4bh512rcd13ifvqe2g","pricing_plan_id":"cebpf4jnsgd1na2vs0mg"},{"bike_id":"6e80c515-4eb3-47a1-a8e9-e52f5fafc2a1","system_id":"levelo_inurba_marseille","lat":43.29096,"lon":5.38134,"is_reserved":false,"is_disabled":false,"rental_uris":{"android":"levelo://app?vid=6e80c515-4eb3-47a1-a8e9-e52f5fafc2a1","ios":"levelo://app?vid=6e80c515-4eb3-47a1-a8e9-e52f5fafc2a1"},"vehicle_type_id":"4","last_reported":1717527969,"current_range_meters":0,"station_id":"ce4bh512rcd13ifvqe2g","pricing_plan_id":"cebpf4jnsgd1na2vs0mg"},{"bike_id":"cef4c0ad-78f5-4c14-b875-e8dd398e48ff","system_id":"levelo_inurba_marseille","lat":43.297815,"lon":5.393548,"is_reserved":false,"is_disabled":false,"rental_uris":{"android":"levelo://app?vid=cef4c0ad-78f5-4c14-b875-e8dd398e48ff","ios":"levelo://app?vid=cef4c0ad-78f5-4c14-b875-e8dd398e48ff"},"vehicle_type_id":"4","last_reported":1717527969,"current_range_meters":2400,"station_id":"chh1huq6cuj3fo74tm60","pricing_plan_id":"cebpf4jnsgd1na2vs0mg"},{"bike_id":"dc9cac50-1533-43e5-978b-95bbc0aa3491","system_id":"levelo_inurba_marseille","lat":43.297855,"lon":5.393335,"is_reserved":false,"is_disabled":false,"rental_uris":{"android":"levelo://app?vid=dc9cac50-1533-43e5-978b-95bbc0aa3491","ios":"levelo://app?vid=dc9cac50-1533-43e5-978b-95bbc0aa3491"},"vehicle_type_id":"4","last_reported":1717527969,"current_range_meters":8000,"station_id":"chh1huq6cuj3fo74tm60","pricing_plan_id":"cebpf4jnsgd1na2vs0mg"},{"bike_id":"0beb7888-2e89-4ef9-8a87-b39fbfa2c062","system_id":"levelo_inurba_marseille","lat":43.330442,"lon":5.389148,"is_reserved":false,"is_disabled":false,"rental_uris":{"android":"levelo://app?vid=0beb7888-2e89-4ef9-8a87-b39fbfa2c062","ios":"levelo://app?vid=0beb7888-2e89-4ef9-8a87-b39fbfa2c062"},"vehicle_type_id":"4","last_reported":1717527969,"current_range_meters":12000,"station_id":"ce4bhr92rcd13ifvqhrg","pricing_plan_id":"cebpf4jnsgd1na2vs0mg"},{"bike_id":"bbe4c5f5-ff83-40ae-8615-ca0fe4d73e68","system_id":"levelo_inurba_marseille","lat":43.330442,"lon":5.389148,"is_reserved":false,"is_disabled":false,"rental_uris":{"android":"levelo://app?vid=bbe4c5f5-ff83-40ae-8615-ca0fe4d73e68","ios":"levelo://app?vid=bbe4c5f5-ff83-40ae-8615-ca0fe4d73e68"},"vehicle_type_id":"4","last_reported":1717527969,"current_range_meters":8000,"station_id":"ce4bhr92rcd13ifvqhrg","pricing_plan_id":"cebpf4jnsgd1na2vs0mg"},{"bike_id":"dce62d08-aec7-4ef9-9fc1-b99ec4487b86","system_id":"levelo_inurba_marseille","lat":43.330442,"lon":5.389148,"is_reserved":false,"is_disabled":false,"rental_uris":{"android":"levelo://app?vid=dce62d08-aec7-4ef9-9fc1-b99ec4487b86","ios":"levelo://app?vid=dce62d08-aec7-4ef9-9fc1-b99ec4487b86"},"vehicle_type_id":"4","last_reported":1717527969,"current_range_meters":0,"station_id":"ce4bhr92rcd13ifvqhrg","pricing_plan_id":"cebpf4jnsgd1na2vs0mg"},{"bike_id":"200758cc-a980-439e-9a29-a167aae7a4a0","system_id":"levelo_inurba_marseille","lat":43.330442,"lon":5.389148,"is_reserved":false,"is_disabled":false,"rental_uris":{"android":"levelo://app?vid=200758cc-a980-439e-9a29-a167aae7a4a0","ios":"levelo://app?vid=200758cc-a980-439e-9a29-a167aae7a4a0"},"vehicle_type_id":"4","last_reported":1717527969,"current_range_meters":24400,"station_id":"ce4bhr92rcd13ifvqhrg","pricing_plan_id":"cebpf4jnsgd1na2vs0mg"},{"bike_id":"4775a8d1-0d5a-49df-b41a-7b403726af33","system_id":"levelo_inurba_marseille","lat":43.330442,"lon":5.389148,"is_reserved":false,"is_disabled":false,"rental_uris":{"android":"levelo://app?vid=4775a8d1-0d5a-49df-b41a-7b403726af33","ios":"levelo://app?vid=4775a8d1-0d5a-49df-b41a-7b403726af33"},"vehicle_type_id":"4","last_reported":1717527969,"current_range_meters":17200,"station_id":"ce4bhr92rcd13ifvqhrg","pricing_plan_id":"cebpf4jnsgd1na2vs0mg"},{"bike_id":"67f203b7-592b-46ab-a92f-d2bdbf24b0eb","system_id":"levelo_inurba_marseille","lat":43.330442,"lon":5.389148,"is_reserved":false,"is_disabled":false,"rental_uris":{"android":"levelo://app?vid=67f203b7-592b-46ab-a92f-d2bdbf24b0eb","ios":"levelo://app?vid=67f203b7-592b-46ab-a92f-d2bdbf24b0eb"},"vehicle_type_id":"4","last_reported":1717527969,"current_range_meters":23600,"station_id":"ce4bhr92rcd13ifvqhrg","pricing_plan_id":"cebpf4jnsgd1na2vs0mg"},{"bike_id":"52082711-f349-40c9-8350-827066808b06","system_id":"levelo_inurba_marseille","lat":43.330442,"lon":5.389148,"is_reserved":false,"is_disabled":false,"rental_uris":{"android":"levelo://app?vid=52082711-f349-40c9-8350-827066808b06","ios":"levelo://app?vid=52082711-f349-40c9-8350-827066808b06"},"vehicle_type_id":"4","last_reported":1717527969,"current_range_meters":15600,"station_id":"ce4bhr92rcd13ifvqhrg","pricing_plan_id":"cebpf4jnsgd1na2vs0mg"},{"bike_id":"e7096369-178b-490c-ab74-f7f1da1d0fdf","system_id":"levelo_inurba_marseille","lat":43.330442,"lon":5.389148,"is_reserved":false,"is_disabled":false,"rental_uris":{"android":"levelo://app?vid=e7096369-178b-490c-ab74-f7f1da1d0fdf","ios":"levelo://app?vid=e7096369-178b-490c-ab74-f7f1da1d0fdf"},"vehicle_type_id":"4","last_reported":1717527969,"current_range_meters":20000,"station_id":"ce4bhr92rcd13ifvqhrg","pricing_plan_id":"cebpf4jnsgd1na2vs0mg"},{"bike_id":"3c89943f-109d-469c-b53a-a61212ff7a9d","system_id":"levelo_inurba_marseille","lat":43.33028,"lon":5.39041,"is_reserved":false,"is_disabled":false,"rental_uris":{"android":"levelo://app?vid=3c89943f-109d-469c-b53a-a61212ff7a9d","ios":"levelo://app?vid=3c89943f-109d-469c-b53a-a61212ff7a9d"},"vehicle_type_id":"4","last_reported":1717527969,"current_range_meters":800,"station_id":"ce4bhr92rcd13ifvqhrg","pricing_plan_id":"cebpf4jnsgd1na2vs0mg"},{"bike_id":"dc37b1be-67b7-4423-ba4f-52260a48674f","system_id":"levelo_inurba_marseille","lat":43.330442,"lon":5.389148,"is_reserved":false,"is_disabled":false,"rental_uris":{"android":"levelo://app?vid=dc37b1be-67b7-4423-ba4f-52260a48674f","ios":"levelo://app?vid=dc37b1be-67b7-4423-ba4f-52260a48674f"},"vehicle_type_id":"4","last_reported":1717527969,"current_range_meters":12400,"station_id":"ce4bhr92rcd13ifvqhrg","pricing_plan_id":"cebpf4jnsgd1na2vs0mg"},{"bike_id":"47c7927e-81e4-453b-8eed-6b52232ec34c","system_id":"levelo_inurba_marseille","lat":43.330442,"lon":5.389148,"is_reserved":false,"is_disabled":false,"rental_uris":{"android":"levelo://app?vid=47c7927e-81e4-453b-8eed-6b52232ec34c","ios":"levelo://app?vid=47c7927e-81e4-453b-8eed-6b52232ec34c"},"vehicle_type_id":"4","last_reported":1717527969,"current_range_meters":31600,"station_id":"ce4bhr92rcd13ifvqhrg","pricing_plan_id":"cebpf4jnsgd1na2vs0mg"},{"bike_id":"6ea25449-2305-4161-9a48-52a8290c60f2","system_id":"levelo_inurba_marseille","lat":43.330442,"lon":5.389148,"is_reserved":false,"is_disabled":false,"rental_uris":{"android":"levelo://app?vid=6ea25449-2305-4161-9a48-52a8290c60f2","ios":"levelo://app?vid=6ea25449-2305-4161-9a48-52a8290c60f2"},"vehicle_type_id":"4","last_reported":1717527969,"current_range_meters":22800,"station_id":"ce4bhr92rcd13ifvqhrg","pricing_plan_id":"cebpf4jnsgd1na2vs0mg"},{"bike_id":"f9aa627e-3620-4096-ae76-0c38b21b39f5","system_id":"levelo_inurba_marseille","lat":43.330442,"lon":5.389148,"is_reserved":false,"is_disabled":false,"rental_uris":{"android":"levelo://app?vid=f9aa627e-3620-4096-ae76-0c38b21b39f5","ios":"levelo://app?vid=f9aa627e-3620-4096-ae76-0c38b21b39f5"},"vehicle_type_id":"4","last_reported":1717527969,"current_range_meters":16800,"station_id":"ce4bhr92rcd13ifvqhrg","pricing_plan_id":"cebpf4jnsgd1na2vs0mg"},{"bike_id":"b68c1b92-c874-4c77-b396-b46c3bc69959","system_id":"levelo_inurba_marseille","lat":43.2901,"lon":5.381269,"is_reserved":false,"is_disabled":false,"rental_uris":{"android":"levelo://app?vid=b68c1b92-c874-4c77-b396-b46c3bc69959","ios":"levelo://app?vid=b68c1b92-c874-4c77-b396-b46c3bc69959"},"vehicle_type_id":"4","last_reported":1717527969,"current_range_meters":20000,"station_id":"ce4bh4p2rcd13ifvqe1g","pricing_plan_id":"cebpf4jnsgd1na2vs0mg"},{"bike_id":"71f76b8f-be2b-4a54-b1ab-4591bcfa299f","system_id":"levelo_inurba_marseille","lat":43.290094,"lon":5.381264,"is_reserved":false,"is_disabled":false,"rental_uris":{"android":"levelo://app?vid=71f76b8f-be2b-4a54-b1ab-4591bcfa299f","ios":"levelo://app?vid=71f76b8f-be2b-4a54-b1ab-4591bcfa299f"},"vehicle_type_id":"4","last_reported":1717527969,"current_range_meters":2400,"station_id":"ce4bh4p2rcd13ifvqe1g","pricing_plan_id":"cebpf4jnsgd1na2vs0mg"},{"bike_id":"372a8dac-8db5-46d6-8588-182ccad1e370","system_id":"levelo_inurba_marseille","lat":43.290094,"lon":5.381264,"is_reserved":false,"is_disabled":false,"rental_uris":{"android":"levelo://app?vid=372a8dac-8db5-46d6-8588-182ccad1e370","ios":"levelo://app?vid=372a8dac-8db5-46d6-8588-182ccad1e370"},"vehicle_type_id":"4","last_reported":1717527969,"current_range_meters":25600,"station_id":"ce4bh4p2rcd13ifvqe1g","pricing_plan_id":"cebpf4jnsgd1na2vs0mg"},{"bike_id":"70fabdb0-64f5-49dd-a4d1-5d4ff39eba27","system_id":"levelo_inurba_marseille","lat":43.288537,"lon":5.358473,"is_reserved":false,"is_disabled":false,"rental_uris":{"android":"levelo://app?vid=70fabdb0-64f5-49dd-a4d1-5d4ff39eba27","ios":"levelo://app?vid=70fabdb0-64f5-49dd-a4d1-5d4ff39eba27"},"vehicle_type_id":"4","last_reported":1717527969,"current_range_meters":0,"station_id":"ce4bhb12rcd13ifvqem0","pricing_plan_id":"cebpf4jnsgd1na2vs0mg"},{"bike_id":"0bba90a3-ce22-4bff-9673-03c877b117b7","system_id":"levelo_inurba_marseille","lat":43.28856,"lon":5.358371,"is_reserved":false,"is_disabled":false,"rental_uris":{"android":"levelo://app?vid=0bba90a3-ce22-4bff-9673-03c877b117b7","ios":"levelo://app?vid=0bba90a3-ce22-4bff-9673-03c877b117b7"},"vehicle_type_id":"4","last_reported":1717527969,"current_range_meters":22800,"station_id":"ce4bhb12rcd13ifvqem0","pricing_plan_id":"cebpf4jnsgd1na2vs0mg"},{"bike_id":"63c69da3-78bf-4c1b-b6a4-548fde49100a","system_id":"levelo_inurba_marseille","lat":43.28856,"lon":5.358371,"is_reserved":false,"is_disabled":false,"rental_uris":{"android":"levelo://app?vid=63c69da3-78bf-4c1b-b6a4-548fde49100a","ios":"levelo://app?vid=63c69da3-78bf-4c1b-b6a4-548fde49100a"},"vehicle_type_id":"4","last_reported":1717527969,"current_range_meters":22400,"station_id":"ce4bhb12rcd13ifvqem0","pricing_plan_id":"cebpf4jnsgd1na2vs0mg"},{"bike_id":"4cd1330a-0938-402e-b9be-7c20a9854b2b","system_id":"levelo_inurba_marseille","lat":43.312609,"lon":5.401662,"is_reserved":false,"is_disabled":false,"rental_uris":{"android":"levelo://app?vid=4cd1330a-0938-402e-b9be-7c20a9854b2b","ios":"levelo://app?vid=4cd1330a-0938-402e-b9be-7c20a9854b2b"},"vehicle_type_id":"4","last_reported":1717527969,"current_range_meters":0,"station_id":"ce4bh092rcd13ifvqd30","pricing_plan_id":"cebpf4jnsgd1na2vs0mg"},{"bike_id":"e65ec0d3-df39-4985-8805-3e671c7f4c1d","system_id":"levelo_inurba_marseille","lat":43.312609,"lon":5.401662,"is_reserved":false,"is_disabled":false,"rental_uris":{"android":"levelo://app?vid=e65ec0d3-df39-4985-8805-3e671c7f4c1d","ios":"levelo://app?vid=e65ec0d3-df39-4985-8805-3e671c7f4c1d"},"vehicle_type_id":"4","last_reported":1717527969,"current_range_meters":0,"station_id":"ce4bh092rcd13ifvqd30","pricing_plan_id":"cebpf4jnsgd1na2vs0mg"},{"bike_id":"ed10c4e4-d3ba-48d3-9097-538e65a623f5","system_id":"levelo_inurba_marseille","lat":43.33751,"lon":5.37441,"is_reserved":false,"is_disabled":false,"rental_uris":{"android":"levelo://app?vid=ed10c4e4-d3ba-48d3-9097-538e65a623f5","ios":"levelo://app?vid=ed10c4e4-d3ba-48d3-9097-538e65a623f5"},"vehicle_type_id":"4","last_reported":1717527969,"current_range_meters":26800,"station_id":"","pricing_plan_id":"cebpf4jnsgd1na2vs0mg"},{"bike_id":"5e95ebab-54cb-46d3-b906-545b56910a8d","system_id":"levelo_inurba_marseille","lat":43.290345,"lon":5.38646,"is_reserved":false,"is_disabled":false,"rental_uris":{"android":"levelo://app?vid=5e95ebab-54cb-46d3-b906-545b56910a8d","ios":"levelo://app?vid=5e95ebab-54cb-46d3-b906-545b56910a8d"},"vehicle_type_id":"4","last_reported":1717527969,"current_range_meters":12000,"station_id":"ce4bh4p2rcd13ifvqe0g","pricing_plan_id":"cebpf4jnsgd1na2vs0mg"},{"bike_id":"26e88c15-1ebf-4978-814d-f8bc280f73dc","system_id":"levelo_inurba_marseille","lat":43.337446,"lon":5.37483,"is_reserved":false,"is_disabled":false,"rental_uris":{"android":"levelo://app?vid=26e88c15-1ebf-4978-814d-f8bc280f73dc","ios":"levelo://app?vid=26e88c15-1ebf-4978-814d-f8bc280f73dc"},"vehicle_type_id":"4","last_reported":1717527969,"current_range_meters":22000,"station_id":"","pricing_plan_id":"cebpf4jnsgd1na2vs0mg"},{"bike_id":"05d8c434-7975-40a6-9e87-559953fee98f","system_id":"levelo_inurba_marseille","lat":43.309371,"lon":5.401449,"is_reserved":false,"is_disabled":false,"rental_uris":{"android":"levelo://app?vid=05d8c434-7975-40a6-9e87-559953fee98f","ios":"levelo://app?vid=05d8c434-7975-40a6-9e87-559953fee98f"},"vehicle_type_id":"4","last_reported":1717527969,"current_range_meters":4400,"station_id":"ce4bgvp2rcd13ifvqct0","pricing_plan_id":"cebpf4jnsgd1na2vs0mg"},{"bike_id":"5f9df14f-a50d-4a21-beda-1aea4f1d00b1","system_id":"levelo_inurba_marseille","lat":43.30642,"lon":5.401031,"is_reserved":false,"is_disabled":false,"rental_uris":{"android":"levelo://app?vid=5f9df14f-a50d-4a21-beda-1aea4f1d00b1","ios":"levelo://app?vid=5f9df14f-a50d-4a21-beda-1aea4f1d00b1"},"vehicle_type_id":"4","last_reported":1717527969,"current_range_meters":26800,"station_id":"ce4bh112rcd13ifvqda0","pricing_plan_id":"cebpf4jnsgd1na2vs0mg"},{"bike_id":"688222bb-de54-4b8d-b4c8-5bc320068bb2","system_id":"levelo_inurba_marseille","lat":43.306412,"lon":5.401035,"is_reserved":false,"is_disabled":false,"rental_uris":{"android":"levelo://app?vid=688222bb-de54-4b8d-b4c8-5bc320068bb2","ios":"levelo://app?vid=688222bb-de54-4b8d-b4c8-5bc320068bb2"},"vehicle_type_id":"4","last_reported":1717527969,"current_range_meters":3200,"station_id":"ce4bh112rcd13ifvqda0","pricing_plan_id":"cebpf4jnsgd1na2vs0mg"},{"bike_id":"1d06f2b0-e890-4ea1-9e47-c8c7a5e4aad0","system_id":"levelo_inurba_marseille","lat":43.306412,"lon":5.401035,"is_reserved":false,"is_disabled":false,"rental_uris":{"android":"levelo://app?vid=1d06f2b0-e890-4ea1-9e47-c8c7a5e4aad0","ios":"levelo://app?vid=1d06f2b0-e890-4ea1-9e47-c8c7a5e4aad0"},"vehicle_type_id":"4","last_reported":1717527969,"current_range_meters":5600,"station_id":"ce4bh112rcd13ifvqda0","pricing_plan_id":"cebpf4jnsgd1na2vs0mg"},{"bike_id":"1c786bf2-c54c-4995-bfc3-1d6ee4920bf5","system_id":"levelo_inurba_marseille","lat":43.306412,"lon":5.401035,"is_reserved":false,"is_disabled":false,"rental_uris":{"android":"levelo://app?vid=1c786bf2-c54c-4995-bfc3-1d6ee4920bf5","ios":"levelo://app?vid=1c786bf2-c54c-4995-bfc3-1d6ee4920bf5"},"vehicle_type_id":"4","last_reported":1717527969,"current_range_meters":2000,"station_id":"ce4bh112rcd13ifvqda0","pricing_plan_id":"cebpf4jnsgd1na2vs0mg"},{"bike_id":"8066575c-0f05-4d6e-9fd5-5cefe773f262","system_id":"levelo_inurba_marseille","lat":43.30642,"lon":5.401031,"is_reserved":false,"is_disabled":false,"rental_uris":{"android":"levelo://app?vid=8066575c-0f05-4d6e-9fd5-5cefe773f262","ios":"levelo://app?vid=8066575c-0f05-4d6e-9fd5-5cefe773f262"},"vehicle_type_id":"4","last_reported":1717527969,"current_range_meters":25600,"station_id":"ce4bh112rcd13ifvqda0","pricing_plan_id":"cebpf4jnsgd1na2vs0mg"},{"bike_id":"d2d7becb-9102-4ef1-a10a-8e08a2dcf038","system_id":"levelo_inurba_marseille","lat":43.306412,"lon":5.401035,"is_reserved":false,"is_disabled":false,"rental_uris":{"android":"levelo://app?vid=d2d7becb-9102-4ef1-a10a-8e08a2dcf038","ios":"levelo://app?vid=d2d7becb-9102-4ef1-a10a-8e08a2dcf038"},"vehicle_type_id":"4","last_reported":1717527969,"current_range_meters":12400,"station_id":"ce4bh112rcd13ifvqda0","pricing_plan_id":"cebpf4jnsgd1na2vs0mg"},{"bike_id":"d826b3ac-f12f-4eba-a8dc-31edd727b8b0","system_id":"levelo_inurba_marseille","lat":43.301117,"lon":5.398795,"is_reserved":false,"is_disabled":false,"rental_uris":{"android":"levelo://app?vid=d826b3ac-f12f-4eba-a8dc-31edd727b8b0","ios":"levelo://app?vid=d826b3ac-f12f-4eba-a8dc-31edd727b8b0"},"vehicle_type_id":"4","last_reported":1717527969,"current_range_meters":0,"station_id":"ce4bh0h2rcd13ifvqd40","pricing_plan_id":"cebpf4jnsgd1na2vs0mg"},