{"last_updated":1742814516,"ttl":60,"version":"2.2","data":{"bikes":[{"bike_id":"9f068f5d-965d-42fe-ba5b-115bba80f7ef","system_id":"levelo_inurba_marseille","lat":43.284347,"lon":5.39193,"is_reserved":false,"is_disabled":false,"rental_uris":{"android":"levelo://app?vid=9f068f5d-965d-42fe-ba5b-115bba80f7ef","ios":"levelo://app?vid=9f068f5d-965d-42fe-ba5b-115bba80f7ef"},"vehicle_type_id":"4","last_reported":1742814516,"current_range_meters":3200,"station_id":"ce4bhoh2rcd13ifvqh5g","pricing_plan_id":"cebpf4jnsgd1na2vs0mg"},{"bike_id":"91a10428-2175-4748-9f9d-b17609b7f414","system_id":"levelo_inurba_marseille","lat":43.27197,"lon":5.39197,"is_reserved":false,"is_disabled":false,"rental_uris":{"android":"levelo://app?vid=91a10428-2175-4748-9f9d-b17609b7f414","ios":"levelo://app?vid=91a10428-2175-4748-9f9d-b17609b7f414"},"vehicle_type_id":"4","last_reported":1742814516,"current_range_meters":2800,"station_id":"ce4bhhp2rcd13ifvqfm0","pricing_plan_id":"cebpf4jnsgd1na2vs0mg"},{"bike_id":"1da1d766-b310-48be-8cd1-55d7964d3d02","system_id":"levelo_inurba_marseille","lat":43.27071,"lon":5.4227,"is_reserved":false,"is_disabled":false,"rental_uris":{"android":"levelo://app?vid=1da1d766-b310-48be-8cd1-55d7964d3d02","ios":"levelo://app?vid=1da1d766-b310-48be-8cd1-55d7964d3d02"},"vehicle_type_id":"4","last_reported":1742814516,"current_range_meters":3600,"station_id":"ce4bhk92rcd13ifvqgb0","pricing_plan_id":"cebpf4jnsgd1na2vs0mg"},{"bike_id":"bdb62e3e-7964-462d-a057-8795c14ccdf7","system_id":"levelo_inurba_marseille","lat":43.26784,"lon":5.39413,"is_reserved":false,"is_disabled":true,"rental_uris":{"android":"levelo://app?vid=bdb62e3e-7964-462d-a057-8795c14ccdf7","ios":"levelo://app?vid=bdb62e3e-7964-462d-a057-8795c14ccdf7"},"vehicle_type_id":"4","last_reported":1742814516,"current_range_meters":3200,"station_id":"ce4bhh12rcd13ifvqfg0","pricing_plan_id":"cebpf4jnsgd1na2vs0mg"},{"bike_id":"53b26c9b-4d8c-4fda-9104-0074c8e3519e","system_id":"levelo_inurba_marseille","lat":43.27101,"lon":5.39606,"is_reserved":false,"is_disabled":false,"rental_uris":{"android":"levelo://app?vid=53b26c9b-4d8c-4fda-9104-0074c8e3519e","ios":"levelo://app?vid=53b26c9b-4d8c-4fda-9104-0074c8e3519e"},"vehicle_type_id":"4","last_reported":1742814516,"current_range_meters":3600,"station_id":"ce4bhjp2rcd13ifvqga0","pricing_plan_id":"cebpf4jnsgd1na2vs0mg"},{"bike_id":"fbaba96f-fff3-42d8-8786-f6a72f5041a3","system_id":"levelo_inurba_marseille","lat":43.30965,"lon":5.39073,"is_reserved":false,"is_disabled":true,"rental_uris":{"android":"levelo://app?vid=fbaba96f-fff3-42d8-8786-f6a72f5041a3","ios":"levelo://app?vid=fbaba96f-fff3-42d8-8786-f6a72f5041a3"},"vehicle_type_id":"4","last_reported":1742814516,"current_range_meters":3600,"station_id":"ce4bgup2rcd13ifvqco0","pricing_plan_id":"cebpf4jnsgd1na2vs0mg"},{"bike_id":"e3b0e39b-75a0-415d-b343-de318beceba1","system_id":"levelo_inurba_marseille","lat":43.25924,"lon":5.40884,"is_reserved":false,"is_disabled":false,"rental_uris":{"android":"levelo://app?vid=e3b0e39b-75a0-415d-b343-de318beceba1","ios":"levelo://app?vid=e3b0e39b-75a0-415d-b343-de318beceba1"},"vehicle_type_id":"4","last_reported":1742814516,"current_range_meters":3600,"station_id":"ce4bhm92rcd13ifvqglg","pricing_plan_id":"cebpf4jnsgd1na2vs0mg"},{"bike_id":"880acbe2-81eb-4e2a-ad5b-ce7298654245","system_id":"levelo_inurba_marseille","lat":43.24069,"lon":5.37758,"is_reserved":false,"is_disabled":true,"rental_uris":{"android":"levelo://app?vid=880acbe2-81eb-4e2a-ad5b-ce7298654245","ios":"levelo://app?vid=880acbe2-81eb-4e2a-ad5b-ce7298654245"},"vehicle_type_id":"4","last_reported":1742814516,"current_range_meters":3600,"station_id":"ce4bhnp2rcd13ifvqgvg","pricing_plan_id":"cebpf4jnsgd1na2vs0mg"},{"bike_id":"8ed1ac19-a2dd-4532-af16-423d1df5a6d4","system_id":"levelo_inurba_marseille","lat":43.23122,"lon":5.41396,"is_reserved":false,"is_disabled":false,"rental_uris":{"android":"levelo://app?vid=8ed1ac19-a2dd-4532-af16-423d1df5a6d4","ios":"levelo://app?vid=8ed1ac19-a2dd-4532-af16-423d1df5a6d4"},"vehicle_type_id":"4","last_reported":1742814516,"current_range_meters":4000,"station_id":"","pricing_plan_id":"cebpf4jnsgd1na2vs0mg"},{"bike_id":"11055595-8ae3-48b4-9ec1-3423cedcb0d0","system_id":"levelo_inurba_marseille","lat":43.27417,"lon":5.39392,"is_reserved":false,"is_disabled":false,"rental_uris":{"android":"levelo://app?vid=11055595-8ae3-48b4-9ec1-3423cedcb0d0","ios":"levelo://app?vid=11055595-8ae3-48b4-9ec1-3423cedcb0d0"},"vehicle_type_id":"4","last_reported":1742814516,"current_range_meters":4400,"station_id":"ce4bhdp2rcd13ifvqf20","pricing_plan_id":"cebpf4jnsgd1na2vs0mg"},{"bike_id":"cd3d7643-b8dc-4c04-9486-28ccdc2db1cf","system_id":"levelo_inurba_marseille","lat":43.31699,"lon":5.37722,"is_reserved":false,"is_disabled":false,"rental_uris":{"android":"levelo://app?vid=cd3d7643-b8dc-4c04-9486-28ccdc2db1cf","ios":"levelo://app?vid=cd3d7643-b8dc-4c04-9486-28ccdc2db1cf"},"vehicle_type_id":"4","last_reported":1742814516,"current_range_meters":4800,"station_id":"ce4bgth2rcd13ifvqch0","pricing_plan_id":"cebpf4jnsgd1na2vs0mg"},{"bike_id":"b0bc738f-6156-4b57-a35a-c938fcd830a4","system_id":"levelo_inurba_marseille","lat":43.28607,"lon":5.37068,"is_reserved":false,"is_disabled":false,"rental_uris":{"android":"levelo://app?vid=b0bc738f-6156-4b57-a35a-c938fcd830a4","ios":"levelo://app?vid=b0bc738f-6156-4b57-a35a-c938fcd830a4"},"vehicle_type_id":"4","last_reported":1742814516,"current_range_meters":4800,"station_id":"ce4bht12rcd13ifvqi60","pricing_plan_id":"cebpf4jnsgd1na2vs0mg"},{"bike_id":"4a4f679b-3cdc-4bc7-89da-ebb2488f9b9a","system_id":"levelo_inurba_marseille","lat":43.28477,"lon":5.3856,"is_reserved":false,"is_disabled":false,"rental_uris":{"android":"levelo://app?vid=4a4f679b-3cdc-4bc7-89da-ebb2488f9b9a","ios":"levelo://app?vid=4a4f679b-3cdc-4bc7-89da-ebb2488f9b9a"},"vehicle_type_id":"4","last_reported":1742814516,"current_range_meters":4800,"station_id":"ce4bh8p2rcd13ifvqeb0","pricing_plan_id":"cebpf4jnsgd1na2vs0mg"},{"bike_id":"6ff7612f-c5bf-45e7-b796-fe571032baad","system_id":"levelo_inurba_marseille","lat":43.33581,"lon":5.40956,"is_reserved":false,"is_disabled":false,"rental_uris":{"android":"levelo://app?vid=6ff7612f-c5bf-45e7-b796-fe571032baad","ios":"levelo://app?vid=6ff7612f-c5bf-45e7-b796-fe571032baad"},"vehicle_type_id":"4","last_reported":1742814516,"current_range_meters":4800,"station_id":"ce4bhqh2rcd13ifvqhmg","pricing_plan_id":"cebpf4jnsgd1na2vs0mg"},{"bike_id":"f82d61b6-a985-4cdd-af91-32f19ae82d4c","system_id":"levelo_inurba_marseille","lat":43.25501,"lon":5.37644,"is_reserved":false,"is_disabled":false,"rental_uris":{"android":"levelo://app?vid=f82d61b6-a985-4cdd-af91-32f19ae82d4c","ios":"levelo://app?vid=f82d61b6-a985-4cdd-af91-32f19ae82d4c"},"vehicle_type_id":"4","last_reported":1742814516,"current_range_meters":5600,"station_id":"ce4bhh12rcd13ifvqff0","pricing_plan_id":"cebpf4jnsgd1na2vs0mg"},{"bike_id":"a7a9d68a-b527-472d-b45c-c1363e8def55","system_id":"levelo_inurba_marseille","lat":43.26214,"lon":5.37446,"is_reserved":false,"is_disabled":false,"rental_uris":{"android":"levelo://app?vid=a7a9d68a-b527-472d-b45c-c1363e8def55","ios":"levelo://app?vid=a7a9d68a-b527-472d-b45c-c1363e8def55"},"vehicle_type_id":"4","last_reported":1742814516,"current_range_meters":5600,"station_id":"ce4bhgp2rcd13ifvqfc0","pricing_plan_id":"cebpf4jnsgd1na2vs0mg"},{"bike_id":"721ba561-54ac-4548-8df8-dfb5a4ff8561","system_id":"levelo_inurba_marseille","lat":43.32319,"lon":5.36596,"is_reserved":false,"is_disabled":false,"rental_uris":{"android":"levelo://app?vid=721ba561-54ac-4548-8df8-dfb5a4ff8561","ios":"levelo://app?vid=721ba561-54ac-4548-8df8-dfb5a4ff8561"},"vehicle_type_id":"4","last_reported":1742814516,"current_range_meters":5600,"station_id":"ce4bhsh2rcd13ifvqi2g","pricing_plan_id":"cebpf4jnsgd1na2vs0mg"},{"bike_id":"e7e74b61-5dcd-4922-a862-9afe2eeba841","system_id":"levelo_inurba_marseille","lat":43.30901,"lon":5.36844,"is_reserved":false,"is_disabled":false,"rental_uris":{"android":"levelo://app?vid=e7e74b61-5dcd-4922-a862-9afe2eeba841","ios":"levelo://app?vid=e7e74b61-5dcd-4922-a862-9afe2eeba841"},"vehicle_type_id":"4","last_reported":1742814516,"current_range_meters":5600,"station_id":"ce4bgn92rcd13ifvqbvg","pricing_plan_id":"cebpf4jnsgd1na2vs0mg"},{"bike_id":"787fb028-74e3-4ece-a600-b719e0014a09","system_id":"levelo_inurba_marseille","lat":43.24669,"lon":5.38155,"is_reserved":false,"is_disabled":false,"rental_uris":{"android":"levelo://app?vid=787fb028-74e3-4ece-a600-b719e0014a09","ios":"levelo://app?vid=787fb028-74e3-4ece-a600-b719e0014a09"},"vehicle_type_id":"4","last_reported":1742814516,"current_range_meters":6000,"station_id":"ce4bhih2rcd13ifvqfr0","pricing_plan_id":"cebpf4jnsgd1na2vs0mg"},{"bike_id":"42dac74d-cb0b-441e-84af-c9fc6427c0c9","system_id":"levelo_inurba_marseille","lat":43.27956,"lon":5.3871,"is_reserved":false,"is_disabled":false,"rental_uris":{"android":"levelo://app?vid=42dac74d-cb0b-441e-84af-c9fc6427c0c9","ios":"levelo://app?vid=42dac74d-cb0b-441e-84af-c9fc6427c0c9"},"vehicle_type_id":"4","last_reported":1742814516,"current_range_meters":6000,"station_id":"ce4bhg12rcd13ifvqf80","pricing_plan_id":"cebpf4jnsgd1na2vs0mg"},{"bike_id":"3dc255a4-229f-4e25-a8b4-e1c4459d7c84","system_id":"levelo_inurba_marseille","lat":43.259405,"lon":5.408975,"is_reserved":false,"is_disabled":false,"rental_uris":{"android":"levelo://app?vid=3dc255a4-229f-4e25-a8b4-e1c4459d7c84","ios":"levelo://app?vid=3dc255a4-229f-4e25-a8b4-e1c4459d7c84"},"vehicle_type_id":"4","last_reported":1742814516,"current_range_meters":6000,"station_id":"ce4bhm92rcd13ifvqglg","pricing_plan_id":"cebpf4jnsgd1na2vs0mg"},{"bike_id":"a0514e1d-555c-40ed-b843-6b56e40772bc","system_id":"levelo_inurba_marseille","lat":43.31235,"lon":5.36874,"is_reserved":false,"is_disabled":false,"rental_uris":{"android":"levelo://app?vid=a0514e1d-555c-40ed-b843-6b56e40772bc","ios":"levelo://app?vid=a0514e1d-555c-40ed-b843-6b56e40772bc"},"vehicle_type_id":"4","last_reported":1742814516,"current_range_meters":6000,"station_id":"ce4bgl92rcd13ifvqbq0","pricing_plan_id":"cebpf4jnsgd1na2vs0mg"},{"bike_id":"3c4613d7-e6d3-483c-b535-86ecd575b38e","system_id":"levelo_inurba_marseille","lat":43.26806,"lon":5.402618,"is_reserved":false,"is_disabled":false,"rental_uris":{"android":"levelo://app?vid=3c4613d7-e6d3-483c-b535-86ecd575b38e","ios":"levelo://app?vid=3c4613d7-e6d3-483c-b535-86ecd575b38e"},"vehicle_type_id":"4","last_reported":1742814516,"current_range_meters":6400,"station_id":"ce501612rcd8frsf0b60","pricing_plan_id":"cebpf4jnsgd1na2vs0mg"},{"bike_id":"70414b69-49bc-47b7-adc0-31b9c9594897","system_id":"levelo_inurba_marseille","lat":43.299041,"lon":5.374606,"is_reserved":false,"is_disabled":true,"rental_uris":{"android":"levelo://app?vid=70414b69-49bc-47b7-adc0-31b9c9594897","ios":"levelo://app?vid=70414b69-49bc-47b7-adc0-31b9c9594897"},"vehicle_type_id":"4","last_reported":1742814516,"current_range_meters":6400,"station_id":"ce4bgjh2rcd13ifvqbg0","pricing_plan_id":"cebpf4jnsgd1na2vs0mg"},{"bike_id":"dfcf84fc-5be7-4be4-bd90-b2af6031a9d8","system_id":"levelo_inurba_marseille","lat":43.286163,"lon":5.351096,"is_reserved":false,"is_disabled":false,"rental_uris":{"android":"levelo://app?vid=dfcf84fc-5be7-4be4-bd90-b2af6031a9d8","ios":"levelo://app?vid=dfcf84fc-5be7-4be4-bd90-b2af6031a9d8"},"vehicle_type_id":"4","last_reported":1742814516,"current_range_meters":6000,"station_id":"ce4bgh92rcd13ifvqb40","pricing_plan_id":"cebpf4jnsgd1na2vs0mg"},{"bike_id":"192cc444-162e-447c-9223-a11a7af1e7f6","system_id":"levelo_inurba_marseille","lat":43.336037,"lon":5.41031,"is_reserved":false,"is_disabled":false,"rental_uris":{"android":"levelo://app?vid=192cc444-162e-447c-9223-a11a7af1e7f6","ios":"levelo://app?vid=192cc444-162e-447c-9223-a11a7af1e7f6"},"vehicle_type_id":"4","last_reported":1742814516,"current_range_meters":6400,"station_id":"ce4bhqh2rcd13ifvqhmg","pricing_plan_id":"cebpf4jnsgd1na2vs0mg"},{"bike_id":"6affd26d-3c2f-4482-bc96-2275240556ec","system_id":"levelo_inurba_marseille","lat":43.26218,"lon":5.40442,"is_reserved":false,"is_disabled":false,"rental_uris":{"android":"levelo://app?vid=6affd26d-3c2f-4482-bc96-2275240556ec","ios":"levelo://app?vid=6affd26d-3c2f-4482-bc96-2275240556ec"},"vehicle_type_id":"4","last_reported":1742814516,"current_range_meters":6400,"station_id":"ce4bhmh2rcd13ifvqgmg","pricing_plan_id":"cebpf4jnsgd1na2vs0mg"},{"bike_id":"2032e81a-8d24-4036-9cc6-bf67698b8322","system_id":"levelo_inurba_marseille","lat":43.2418,"lon":5.39742,"is_reserved":false,"is_disabled":false,"rental_uris":{"android":"levelo://app?vid=2032e81a-8d24-4036-9cc6-bf67698b8322","ios":"levelo://app?vid=2032e81a-8d24-4036-9cc6-bf67698b8322"},"vehicle_type_id":"4","last_reported":1742814516,"current_range_meters":6400,"station_id":"ce4bhn12rcd13ifvqgpg","pricing_plan_id":"cebpf4jnsgd1na2vs0mg"},{"bike_id":"bdf66989-e0e5-4082-9607-aff4ca0b3edd","system_id":"levelo_inurba_marseille","lat":43.31325,"lon":5.36663,"is_reserved":false,"is_disabled":false,"rental_uris":{"android":"levelo://app?vid=bdf66989-e0e5-4082-9607-aff4ca0b3edd","ios":"levelo://app?vid=bdf66989-e0e5-4082-9607-aff4ca0b3edd"},"vehicle_type_id":"4","last_reported":1742814516,"current_range_meters":6400,"station_id":"ce4bgr92rcd13ifvqc6g","pricing_plan_id":"cebpf4jnsgd1na2vs0mg"},{"bike_id":"2e1ad8d2-f47b-40a6-8e0b-992775a14c77","system_id":"levelo_inurba_marseille","lat":43.274854,"lon":5.436905,"is_reserved":false,"is_disabled":false,"rental_uris":{"android":"levelo://app?vid=2e1ad8d2-f47b-40a6-8e0b-992775a14c77","ios":"levelo://app?vid=2e1ad8d2-f47b-40a6-8e0b-992775a14c77"},"vehicle_type_id":"4","last_reported":1742814516,"current_range_meters":6400,"station_id":"ce4bhph2rcd13ifvqhdg","pricing_plan_id":"cebpf4jnsgd1na2vs0mg"},{"bike_id":"217589cc-6d6b-4c93-be2c-3a260f0ed08c","system_id":"levelo_inurba_marseille","lat":43.259368,"lon":5.409022,"is_reserved":false,"is_disabled":false,"rental_uris":{"android":"levelo://app?vid=217589cc-6d6b-4c93-be2c-3a260f0ed08c","ios":"levelo://app?vid=217589cc-6d6b-4c93-be2c-3a260f0ed08c"},"vehicle_type_id":"4","last_reported":1742814516,"current_range_meters":6400,"station_id":"ce4bhm92rcd13ifvqglg","pricing_plan_id":"cebpf4jnsgd1na2vs0mg"},{"bike_id":"033921e9-9794-4943-8df8-c05bbebc3f49","system_id":"levelo_inurba_marseille","lat":43.28612,"lon":5.35106,"is_reserved":false,"is_disabled":false,"rental_uris":{"android":"levelo://app?vid=033921e9-9794-4943-8df8-c05bbebc3f49","ios":"levelo://app?vid=033921e9-9794-4943-8df8-c05bbebc3f49"},"vehicle_type_id":"4","last_reported":1742814516,"current_range_meters":6800,"station_id":"ce4bhch2rcd13ifvqeug","pricing_plan_id":"cebpf4jnsgd1na2vs0mg"},{"bike_id":"cd383773-4b9e-47b8-a0dc-4b9211546aa7","system_id":"levelo_inurba_marseille","lat":43.33607,"lon":5.41024,"is_reserved":false,"is_disabled":false,"rental_uris":{"android":"levelo://app?vid=cd383773-4b9e-47b8-a0dc-4b9211546aa7","ios":"levelo://app?vid=cd383773-4b9e-47b8-a0dc-4b9211546aa7"},"vehicle_type_id":"4","last_reported":1742814516,"current_range_meters":6800,"station_id":"ce4bhqh2rcd13ifvqhmg","pricing_plan_id":"cebpf4jnsgd1na2vs0mg"},{"bike_id":"728313ab-b6db-40a7-a8ae-7f2cee68d533","system_id":"levelo_inurba_marseille","lat":43.31273,"lon":5.40174,"is_reserved":false,"is_disabled":false,"rental_uris":{"android":"levelo://app?vid=728313ab-b6db-40a7-a8ae-7f2cee68d533","ios":"levelo://app?vid=728313ab-b6db-40a7-a8ae-7f2cee68d533"},"vehicle_type_id":"4","last_reported":1742814516,"current_range_meters":6400,"station_id":"ce4bh092rcd13ifvqd30","pricing_plan_id":"cebpf4jnsgd1na2vs0mg"},{"bike_id":"7edc5590-72c3-4ba7-8a9e-2f8e77b78b1a","system_id":"levelo_inurba_marseille","lat":43.27912,"lon":5.38003,"is_reserved":false,"is_disabled":false,"rental_uris":{"android":"levelo://app?vid=7edc5590-72c3-4ba7-8a9e-2f8e77b78b1a","ios":"levelo://app?vid=7edc5590-72c3-4ba7-8a9e-2f8e77b78b1a"},"vehicle_type_id":"4","last_reported":1742814516,"current_range_meters":6800,"station_id":"ce4bhf92rcd13ifvqf50","pricing_plan_id":"cebpf4jnsgd1na2vs0mg"},{"bike_id":"612a0c17-962e-4e78-b8bf-84b6c93d4dc8","system_id":"levelo_inurba_marseille","lat":43.32486,"lon":5.36568,"is_reserved":false,"is_disabled":false,"rental_uris":{"android":"levelo://app?vid=612a0c17-962e-4e78-b8bf-84b6c93d4dc8","ios":"levelo://app?vid=612a0c17-962e-4e78-b8bf-84b6c93d4dc8"},"vehicle_type_id":"4","last_reported":1742814516,"current_range_meters":6800,"station_id":"ce4bhs12rcd13ifvqhvg","pricing_plan_id":"cebpf4jnsgd1na2vs0mg"},{"bike_id":"ca7ca978-1fef-4a0e-9aa2-95e430214d5b","system_id":"levelo_inurba_marseille","lat":43.24164,"lon":5.364177,"is_reserved":false,"is_disabled":false,"rental_uris":{"android":"levelo://app?vid=ca7ca978-1fef-4a0e-9aa2-95e430214d5b","ios":"levelo://app?vid=ca7ca978-1fef-4a0e-9aa2-95e430214d5b"},"vehicle_type_id":"4","last_reported":1742814516,"current_range_meters":6800,"station_id":"cpo36qri1sfpv3e86is0","pricing_plan_id":"cebpf4jnsgd1na2vs0mg"},{"bike_id":"bd62022d-7027-4e20-a262-5f551d4d7063","system_id":"levelo_inurba_marseille","lat":43.26949,"lon":5.38633,"is_reserved":false,"is_disabled":false,"rental_uris":{"android":"levelo://app?vid=bd62022d-7027-4e20-a262-5f551d4d7063","ios":"levelo://app?vid=bd62022d-7027-4e20-a262-5f551d4d7063"},"vehicle_type_id":"4","last_reported":1742814516,"current_range_meters":6800,"station_id":"ce4bhh92rcd13ifvqfh0","pricing_plan_id":"cebpf4jnsgd1na2vs0mg"},{"bike_id":"64a1b830-5cca-4a65-aa03-fd1145f5f4f4","system_id":"levelo_inurba_marseille","lat":43.26211,"lon":5.37444,"is_reserved":false,"is_disabled":false,"rental_uris":{"android":"levelo://app?vid=64a1b830-5cca-4a65-aa03-fd1145f5f4f4","ios":"levelo://app?vid=64a1b830-5cca-4a65-aa03-fd1145f5f4f4"},"vehicle_type_id":"4","last_reported":1742814516,"current_range_meters":6800,"station_id":"ce4bhgp2rcd13ifvqfc0","pricing_plan_id":"cebpf4jnsgd1na2vs0mg"},{"bike_id":"a8054457-ef9c-4293-879f-1eab83000740","system_id":"levelo_inurba_marseille","lat":43.24173,"lon":5.364034,"is_reserved":false,"is_disabled":false,"rental_uris":{"android":"levelo://app?vid=a8054457-ef9c-4293-879f-1eab83000740","ios":"levelo://app?vid=a8054457-ef9c-4293-879f-1eab83000740"},"vehicle_type_id":"4","last_reported":1742814516,"current_range_meters":7200,"station_id":"cpo36qri1sfpv3e86is0","pricing_plan_id":"cebpf4jnsgd1na2vs0mg"},{"bike_id":"2fd4d927-0f70-4f4e-9269-8cd3b232bcd8","system_id":"levelo_inurba_marseille","lat":43.25924,"lon":5.40874,"is_reserved":false,"is_disabled":false,"rental_uris":{"android":"levelo://app?vid=2fd4d927-0f70-4f4e-9269-8cd3b232bcd8","ios":"levelo://app?vid=2fd4d927-0f70-4f4e-9269-8cd3b232bcd8"},"vehicle_type_id":"4","last_reported":1742814516,"current_range_meters":7200,"station_id":"ce4bhm92rcd13ifvqglg","pricing_plan_id":"cebpf4jnsgd1na2vs0mg"},{"bike_id":"f16eb143-e12c-4fad-93eb-ad81ca487513","system_id":"levelo_inurba_marseille","lat":43.27521,"lon":5.42466,"is_reserved":false,"is_disabled":false,"rental_uris":{"android":"levelo://app?vid=f16eb143-e12c-4fad-93eb-ad81ca487513","ios":"levelo://app?vid=f16eb143-e12c-4fad-93eb-ad81ca487513"},"vehicle_type_id":"4","last_reported":1742814516,"current_range_meters":7200,"station_id":"ce4bhn92rcd13ifvqgrg","pricing_plan_id":"cebpf4jnsgd1na2vs0mg"},{"bike_id":"d954b141-3cee-4de0-9c29-d5babd11cd82","system_id":"levelo_inurba_marseille","lat":43.25085,"lon":5.3952,"is_reserved":false,"is_disabled":false,"rental_uris":{"android":"levelo://app?vid=d954b141-3cee-4de0-9c29-d5babd11cd82","ios":"levelo://app?vid=d954b141-3cee-4de0-9c29-d5babd11cd82"},"vehicle_type_id":"4","last_reported":1742814516,"current_range_meters":7200,"station_id":"ce4bhm12rcd13ifvqgkg","pricing_plan_id":"cebpf4jnsgd1na2vs0mg"},{"bike_id":"3bb33489-a82f-4739-bc09-2fe3082e2e8c","system_id":"levelo_inurba_marseille","lat":43.30794,"lon":5.37332,"is_reserved":false,"is_disabled":false,"rental_uris":{"android":"levelo://app?vid=3bb33489-a82f-4739-bc09-2fe3082e2e8c","ios":"levelo://app?vid=3bb33489-a82f-4739-bc09-2fe3082e2e8c"},"vehicle_type_id":"4","last_reported":1742814516,"current_range_meters":7200,"station_id":"","pricing_plan_id":"cebpf4jnsgd1na2vs0mg"},{"bike_id":"e286c3ad-5aad-4e60-be2d-b5f6cad4b6bc","system_id":"levelo_inurba_marseille","lat":43.29306,"lon":5.37454,"is_reserved":false,"is_disabled":true,"rental_uris":{"android":"levelo://app?vid=e286c3ad-5aad-4e60-be2d-b5f6cad4b6bc","ios":"levelo://app?vid=e286c3ad-5aad-4e60-be2d-b5f6cad4b6bc"},"vehicle_type_id":"4","last_reported":1742814516,"current_range_meters":8000,"station_id":"ce4bgi12rcd13ifvqb70","pricing_plan_id":"cebpf4jnsgd1na2vs0mg"},{"bike_id":"2ba46124-a093-4345-928b-13702ad74f31","system_id":"levelo_inurba_marseille","lat":43.23062,"lon":5.35487,"is_reserved":false,"is_disabled":false,"rental_uris":{"android":"levelo://app?vid=2ba46124-a093-4345-928b-13702ad74f31","ios":"levelo://app?vid=2ba46124-a093-4345-928b-13702ad74f31"},"vehicle_type_id":"4","last_reported":1742814516,"current_range_meters":8000,"station_id":"cpo3342slgdg3j2ifvpg","pricing_plan_id":"cebpf4jnsgd1na2vs0mg"},{"bike_id":"5932f5b5-0803-41be-ad57-2c62bb691349","system_id":"levelo_inurba_marseille","lat":43.24666,"lon":5.3817,"is_reserved":false,"is_disabled":false,"rental_uris":{"android":"levelo://app?vid=5932f5b5-0803-41be-ad57-2c62bb691349","ios":"levelo://app?vid=5932f5b5-0803-41be-ad57-2c62bb691349"},"vehicle_type_id":"4","last_reported":1742814516,"current_range_meters":8000,"station_id":"ce4bhih2rcd13ifvqfr0","pricing_plan_id":"cebpf4jnsgd1na2vs0mg"},{"bike_id":"ff83d67d-69e1-4014-a673-c72aeeff7474","system_id":"levelo_inurba_marseille","lat":43.26944,"lon":5.38723,"is_reserved":false,"is_disabled":false,"rental_uris":{"android":"levelo://app?vid=ff83d67d-69e1-4014-a673-c72aeeff7474","ios":"levelo://app?vid=ff83d67d-69e1-4014-a673-c72aeeff7474"},"vehicle_type_id":"4","last_reported":1742814516,"current_range_meters":8000,"station_id":"","pricing_plan_id":"cebpf4jnsgd1na2vs0mg"},{"bike_id":"07541760-82c4-4d38-b58c-85ffff07e965","system_id":"levelo_inurba_marseille","lat":43.23959,"lon":5.36633,"is_reserved":false,"is_disabled":false,"rental_uris":{"android":"levelo://app?vid=07541760-82c4-4d38-b58c-85ffff07e965","ios":"levelo://app?vid=07541760-82c4-4d38-b58c-85ffff07e965"},"vehicle_type_id":"4","last_reported":1742814516,"current_range_meters":8000,"station_id":"ce4bhi12rcd13ifvqfp0","pricing_plan_id":"cebpf4jnsgd1na2vs0mg"},{"bike_id":"39a193f3-4122-44f2-9625-810cfb1e057c","system_id":"levelo_inurba_marseille","lat":43.30541,"lon":5.36534,"is_reserved":false,"is_disabled":true,"rental_uris":{"android":"levelo://app?vid=39a193f3-4122-44f2-9625-810cfb1e057c","ios":"levelo://app?vid=39a193f3-4122-44f2-9625-810cfb1e057c"},"vehicle_type_id":"4","last_reported":1742814516,"current_range_meters":8000,"station_id":"ce4bgs12rcd13ifvqcag","pricing_plan_id":"cebpf4jnsgd1na2vs0mg"},{"bike_id":"c3a779b8-db1b-464f-a687-12b59a10b13c","system_id":"levelo_inurba_marseille","lat":43.28676,"lon":5.38678,"is_reserved":false,"is_disabled":false,"rental_uris":{"android":"levelo://app?vid=c3a779b8-db1b-464f-a687-12b59a10b13c","ios":"levelo://app?vid=c3a779b8-db1b-464f-a687-12b59a10b13c"},"vehicle_type_id":"4","last_reported":1742814516,"current_range_meters":7200,"station_id":"ce4bh492rcd13ifvqdug","pricing_plan_id":"cebpf4jnsgd1na2vs0mg"},{"bike_id":"86b43762-52f4-4a3d-9b78-732d12caffdd","system_id":"levelo_inurba_marseille","lat":43.2925,"lon":5.37615,"is_reserved":false,"is_disabled":false,"rental_uris":{"android":"levelo://app?vid=86b43762-52f4-4a3d-9b78-732d12caffdd","ios":"levelo://app?vid=86b43762-52f4-4a3d-9b78-732d12caffdd"},"vehicle_type_id":"4","last_reported":1742814516,"current_range_meters":8000,"station_id":"ce4bgi12rcd13ifvqb80","pricing_plan_id":"cebpf4jnsgd1na2vs0mg"},{"bike_id":"196e5527-f8ec-47c9-88d8-c0c49611574a","system_id":"levelo_inurba_marseille","lat":43.23046,"lon":5.354825,"is_reserved":false,"is_disabled":false,"rental_uris":{"android":"levelo://app?vid=196e5527-f8ec-47c9-88d8-c0c49611574a","ios":"levelo://app?vid=196e5527-f8ec-47c9-88d8-c0c49611574a"},"vehicle_type_id":"4","last_reported":1742814516,"current_range_meters":8000,"station_id":"cpo3342slgdg3j2ifvpg","pricing_plan_id":"cebpf4jnsgd1na2vs0mg"},{"bike_id":"0bdcf116-4ba9-495a-860f-b8bd175bed9c","system_id":"levelo_inurba_marseille","lat":43.25937,"lon":5.40873,"is_reserved":false,"is_disabled":false,"rental_uris":{"android":"levelo://app?vid=0bdcf116-4ba9-495a-860f-b8bd175bed9c","ios":"levelo://app?vid=0bdcf116-4ba9-495a-860f-b8bd175bed9c"},"vehicle_type_id":"4","last_reported":1742814516,"current_range_meters":8400,"station_id":"ce4bhm92rcd13ifvqglg","pricing_plan_id":"cebpf4jnsgd1na2vs0mg"},{"bike_id":"8ac76298-3375-4b96-8a90-9315b1510fa4","system_id":"levelo_inurba_marseille","lat":43.27813,"lon":5.40707,"is_reserved":false,"is_disabled":false,"rental_uris":{"android":"levelo://app?vid=8ac76298-3375-4b96-8a90-9315b1510fa4","ios":"levelo://app?vid=8ac76298-3375-4b96-8a90-9315b1510fa4"},"vehicle_type_id":"4","last_reported":1742814516,"current_range_meters":8400,"station_id":"ce4bhnh2rcd13ifvqgtg","pricing_plan_id":"cebpf4jnsgd1na2vs0mg"},{"bike_id":"101b6fd1-1f31-4309-b7bd-7132c7a0e064","system_id":"levelo_inurba_marseille","lat":43.2795,"lon":5.41041,"is_reserved":false,"is_disabled":false,"rental_uris":{"android":"levelo://app?vid=101b6fd1-1f31-4309-b7bd-7132c7a0e064","ios":"levelo://app?vid=101b6fd1-1f31-4309-b7bd-7132c7a0e064"},"vehicle_type_id":"4","last_reported":1742814516,"current_range_meters":8400,"station_id":"ce4bhnp2rcd13ifvqh0g","pricing_plan_id":"cebpf4jnsgd1na2vs0mg"},{"bike_id":"daf705b5-817b-4bbc-bd5a-5101c6aa000f","system_id":"levelo_inurba_marseille","lat":43.27734,"lon":5.40745,"is_reserved":false,"is_disabled":true,"rental_uris":{"android":"levelo://app?vid=daf705b5-817b-4bbc-bd5a-5101c6aa000f","ios":"levelo://app?vid=daf705b5-817b-4bbc-bd5a-5101c6aa000f"},"vehicle_type_id":"4","last_reported":1742814516,"current_range_meters":8400,"station_id":"ce4bhnh2rcd13ifvqgtg","pricing_plan_id":"cebpf4jnsgd1na2vs0mg"},{"bike_id":"d56adfe4-71b8-4296-a347-e43ee3f50c5b","system_id":"levelo_inurba_marseille","lat":43.29197,"lon":5.39316,"is_reserved":false,"is_disabled":true,"rental_uris":{"android":"levelo://app?vid=d56adfe4-71b8-4296-a347-e43ee3f50c5b","ios":"levelo://app?vid=d56adfe4-71b8-4296-a347-e43ee3f50c5b"},"vehicle_type_id":"4","last_reported":1742814516,"current_range_meters":8800,"station_id":"ce4bh192rcd13ifvqdd0","pricing_plan_id":"cebpf4jnsgd1na2vs0mg"},{"bike_id":"54bc3f4e-a9d1-432a-b1e2-cf65bcc98926","system_id":"levelo_inurba_marseille","lat":43.28487,"lon":5.3842,"is_reserved":false,"is_disabled":false,"rental_uris":{"android":"levelo://app?vid=54bc3f4e-a9d1-432a-b1e2-cf65bcc98926","ios":"levelo://app?vid=54bc3f4e-a9d1-432a-b1e2-cf65bcc98926"},"vehicle_type_id":"4","last_reported":1742814516,"current_range_meters":8800,"station_id":"ce4bh512rcd13ifvqe3g","pricing_plan_id":"cebpf4jnsgd1na2vs0mg"},{"bike_id":"61af8afd-e8a0-462f-9c35-9f9ff162dd4e","system_id":"levelo_inurba_marseille","lat":43.26564,"lon":5.38998,"is_reserved":false,"is_disabled":false,"rental_uris":{"android":"levelo://app?vid=61af8afd-e8a0-462f-9c35-9f9ff162dd4e","ios":"levelo://app?vid=61af8afd-e8a0-462f-9c35-9f9ff162dd4e"},"vehicle_type_id":"4","last_reported":1742814516,"current_range_meters":8800,"station_id":"ce4bhe12rcd13ifvqf30","pricing_plan_id":"cebpf4jnsgd1na2vs0mg"},{"bike_id":"87daaa80-6ddc-4503-894b-46bea2b10d41","system_id":"levelo_inurba_marseille","lat":43.296208,"lon":5.370661,"is_reserved":false,"is_disabled":false,"rental_uris":{"android":"levelo://app?vid=87daaa80-6ddc-4503-894b-46bea2b10d41","ios":"levelo://app?vid=87daaa80-6ddc-4503-894b-46bea2b10d41"},"vehicle_type_id":"4","last_reported":1742814516,"current_range_meters":8800,"station_id":"ce4bgph2rcd13ifvqc2g","pricing_plan_id":"cebpf4jnsgd1na2vs0mg"},{"bike_id":"41f13d5c-4113-4455-89cc-5a98eb3367a4","system_id":"levelo_inurba_marseille","lat":43.27831,"lon":5.39211,"is_reserved":false,"is_disabled":false,"rental_uris":{"android":"levelo://app?vid=41f13d5c-4113-4455-89cc-5a98eb3367a4","ios":"levelo://app?vid=41f13d5c-4113-4455-89cc-5a98eb3367a4"},"vehicle_type_id":"4","last_reported":1742814516,"current_range_meters":14000,"station_id":"ce4bhjp2rcd13ifvqga0","pricing_plan_id":"cebpf4jnsgd1na2vs0mg"},{"bike_id":"4baf8c5d-e0fe-4a6c-97de-a71e960c5338","system_id":"levelo_inurba_marseille","lat":43.24165,"lon":5.364014,"is_reserved":false,"is_disabled":false,"rental_uris":{"android":"levelo://app?vid=4baf8c5d-e0fe-4a6c-97de-a71e960c5338","ios":"levelo://app?vid=4baf8c5d-e0fe-4a6c-97de-a71e960c5338"},"vehicle_type_id":"4","last_reported":1742814516,"current_range_meters":8800,"station_id":"cpo36qri1sfpv3e86is0","pricing_plan_id":"cebpf4jnsgd1na2vs0mg"},{"bike_id":"901ad870-67db-4efd-a3cc-2d5ce9510114","system_id":"levelo_inurba_marseille","lat":43.2681,"lon":5.39397,"is_reserved":false,"is_disabled":false,"rental_uris":{"android":"levelo://app?vid=901ad870-67db-4efd-a3cc-2d5ce9510114","ios":"levelo://app?vid=901ad870-67db-4efd-a3cc-2d5ce9510114"},"vehicle_type_id":"4","last_reported":1742814516,"current_range_meters":8800,"station_id":"ce4bhh12rcd13ifvqfg0","pricing_plan_id":"cebpf4jnsgd1na2vs0mg"},{"bike_id":"e03a81f7-5753-483d-b791-095abd0d4770","system_id":"levelo_inurba_marseille","lat":43.25003,"lon":5.38952,"is_reserved":false,"is_disabled":false,"rental_uris":{"android":"levelo://app?vid=e03a81f7-5753-483d-b791-095abd0d4770","ios":"levelo://app?vid=e03a81f7-5753-483d-b791-095abd0d4770"},"vehicle_type_id":"4","last_reported":1742814516,"current_range_meters":8800,"station_id":"ce4bhgp2rcd13ifvqfd0","pricing_plan_id":"cebpf4jnsgd1na2vs0mg"},{"bike_id":"713ab737-c234-4d46-8112-2057b4371ffd","system_id":"levelo_inurba_marseille","lat":43.29586,"lon":5.39951,"is_reserved":false,"is_disabled":true,"rental_uris":{"android":"levelo://app?vid=713ab737-c234-4d46-8112-2057b4371ffd","ios":"levelo://app?vid=713ab737-c234-4d46-8112-2057b4371ffd"},"vehicle_type_id":"4","last_reported":1742814516,"current_range_meters":8800,"station_id":"ce4bh312rcd13ifvqdj0","pricing_plan_id":"cebpf4jnsgd1na2vs0mg"},{"bike_id":"0f695239-c866-4a2b-88c6-8844266ee6b8","system_id":"levelo_inurba_marseille","lat":43.33715,"lon":5.3918,"is_reserved":false,"is_disabled":false,"rental_uris":{"android":"levelo://app?vid=0f695239-c866-4a2b-88c6-8844266ee6b8","ios":"levelo://app?vid=0f695239-c866-4a2b-88c6-8844266ee6b8"},"vehicle_type_id":"4","last_reported":1742814516,"current_range_meters":9200,"station_id":"ce4bhr92rcd13ifvqhsg","pricing_plan_id":"cebpf4jnsgd1na2vs0mg"},{"bike_id":"bb0a4a5f-6373-4b21-8807-70f0bc0a65c7","system_id":"levelo_inurba_marseille","lat":43.32489,"lon":5.36553,"is_reserved":false,"is_disabled":false,"rental_uris":{"android":"levelo://app?vid=bb0a4a5f-6373-4b21-8807-70f0bc0a65c7","ios":"levelo://app?vid=bb0a4a5f-6373-4b21-8807-70f0bc0a65c7"},"vehicle_type_id":"4","last_reported":1742814516,"current_range_meters":9200,"station_id":"ce4bhs12rcd13ifvqhvg","pricing_plan_id":"cebpf4jnsgd1na2vs0mg"},{"bike_id":"034718de-67f9-4b03-9b14-13a8fc4858ac","system_id":"levelo_inurba_marseille","lat":43.23185,"lon":5.35561,"is_reserved":false,"is_disabled":false,"rental_uris":{"android":"levelo://app?vid=034718de-67f9-4b03-9b14-13a8fc4858ac","ios":"levelo://app?vid=034718de-67f9-4b03-9b14-13a8fc4858ac"},"vehicle_type_id":"4","last_reported":1742814516,"current_range_meters":9200,"station_id":"ce4bhu92rcd13ifvqi70","pricing_plan_id":"cebpf4jnsgd1na2vs0mg"},{"bike_id":"83749387-4504-4259-a6ca-3b74b7ae7717","system_id":"levelo_inurba_marseille","lat":43.23153,"lon":5.43714,"is_reserved":false,"is_disabled":false,"rental_uris":{"android":"levelo://app?vid=83749387-4504-4259-a6ca-3b74b7ae7717","ios":"levelo://app?vid=83749387-4504-4259-a6ca-3b74b7ae7717"},"vehicle_type_id":"4","last_reported":1742814516,"current_range_meters":9200,"station_id":"ce4bhmp2rcd13ifvqgog","pricing_plan_id":"cebpf4jnsgd1na2vs0mg"},{"bike_id":"7566f83e-2e0c-4336-9596-b28227e11ec8","system_id":"levelo_inurba_marseille","lat":43.30431,"lon":5.3975,"is_reserved":false,"is_disabled":false,"rental_uris":{"android":"levelo://app?vid=7566f83e-2e0c-4336-9596-b28227e11ec8","ios":"levelo://app?vid=7566f83e-2e0c-4336-9596-b28227e11ec8"},"vehicle_type_id":"4","last_reported":1742814516,"current_range_meters":9200,"station_id":"ce4bh092rcd13ifvqd20","pricing_plan_id":"cebpf4jnsgd1na2vs0mg"},{"bike_id":"455f0926-a76c-4086-8b11-c16d77e2194d","system_id":"levelo_inurba_marseille","lat":43.29414,"lon":5.38613,"is_reserved":false,"is_disabled":false,"rental_uris":{"android":"levelo://app?vid=455f0926-a76c-4086-8b11-c16d77e2194d","ios":"levelo://app?vid=455f0926-a76c-4086-8b11-c16d77e2194d"},"vehicle_type_id":"4","last_reported":1742814516,"current_range_meters":9200,"station_id":"ce4bh2h2rcd13ifvqdh0","pricing_plan_id":"cebpf4jnsgd1na2vs0mg"},{"bike_id":"381a9357-20ee-4876-a633-fd1dd38f1cf7","system_id":"levelo_inurba_marseille","lat":43.2797,"lon":5.3874,"is_reserved":false,"is_disabled":false,"rental_uris":{"android":"levelo://app?vid=381a9357-20ee-4876-a633-fd1dd38f1cf7","ios":"levelo://app?vid=381a9357-20ee-4876-a633-fd1dd38f1cf7"},"vehicle_type_id":"4","last_reported":1742814516,"current_range_meters":9600,"station_id":"ce4bhg12rcd13ifvqf80","pricing_plan_id":"cebpf4jnsgd1na2vs0mg"},{"bike_id":"b9379432-0e96-4d9f-a7ed-12d7d124db3e","system_id":"levelo_inurba_marseille","lat":43.25916,"lon":5.40875,"is_reserved":false,"is_disabled":false,"rental_uris":{"android":"levelo://app?vid=b9379432-0e96-4d9f-a7ed-12d7d124db3e","ios":"levelo://app?vid=b9379432-0e96-4d9f-a7ed-12d7d124db3e"},"vehicle_type_id":"4","last_reported":1742814516,"current_range_meters":9600,"station_id":"ce4bhm92rcd13ifvqglg","pricing_plan_id":"cebpf4jnsgd1na2vs0mg"},{"bike_id":"73f24004-486a-42ce-8b4c-437345158989","system_id":"levelo_inurba_marseille","lat":43.259313,"lon":5.408949,"is_reserved":false,"is_disabled":false,"rental_uris":{"android":"levelo://app?vid=73f24004-486a-42ce-8b4c-437345158989","ios":"levelo://app?vid=73f24004-486a-42ce-8b4c-437345158989"},"vehicle_type_id":"4","last_reported":1742814516,"current_range_meters":9600,"station_id":"ce4bhm92rcd13ifvqglg","pricing_plan_id":"cebpf4jnsgd1na2vs0mg"},{"bike_id":"e56ce71b-4075-43b9-82e7-656577b26a70","system_id":"levelo_inurba_marseille","lat":43.28972,"lon":5.37848,"is_reserved":false,"is_disabled":false,"rental_uris":{"android":"levelo://app?vid=e56ce71b-4075-43b9-82e7-656577b26a70","ios":"levelo://app?vid=e56ce71b-4075-43b9-82e7-656577b26a70"},"vehicle_type_id":"4","last_reported":1742814516,"current_range_meters":9600,"station_id":"ce4bh9p2rcd13ifvqed0","pricing_plan_id":"cebpf4jnsgd1na2vs0mg"},{"bike_id":"81c28995-a624-4bc5-ad4b-6d333e9d549b","system_id":"levelo_inurba_marseille","lat":43.24655,"lon":5.38165,"is_reserved":false,"is_disabled":false,"rental_uris":{"android":"levelo://app?vid=81c28995-a624-4bc5-ad4b-6d333e9d549b","ios":"levelo://app?vid=81c28995-a624-4bc5-ad4b-6d333e9d549b"},"vehicle_type_id":"4","last_reported":1742814516,"current_range_meters":9600,"station_id":"ce4bhih2rcd13ifvqfr0","pricing_plan_id":"cebpf4jnsgd1na2vs0mg"},{"bike_id":"6a8fb34b-1c2c-4e30-9fa4-a23fcf3c6317","system_id":"levelo_inurba_marseille","lat":43.25929,"lon":5.40895,"is_reserved":false,"is_disabled":false,"rental_uris":{"android":"levelo://app?vid=6a8fb34b-1c2c-4e30-9fa4-a23fcf3c6317","ios":"levelo://app?vid=6a8fb34b-1c2c-4e30-9fa4-a23fcf3c6317"},"vehicle_type_id":"4","last_reported":1742814516,"current_range_meters":9600,"station_id":"ce4bhm92rcd13ifvqglg","pricing_plan_id":"cebpf4jnsgd1na2vs0mg"},{"bike_id":"6aee422b-ce48-43c2-8d50-3cdb9cce783e","system_id":"levelo_inurba_marseille","lat":43.28724,"lon":5.36255,"is_reserved":false,"is_disabled":false,"rental_uris":{"android":"levelo://app?vid=6aee422b-ce48-43c2-8d50-3cdb9cce783e","ios":"levelo://app?vid=6aee422b-ce48-43c2-8d50-3cdb9cce783e"},"vehicle_type_id":"4","last_reported":1742814516,"current_range_meters":9600,"station_id":"ce4bhah2rcd13ifvqej0","pricing_plan_id":"cebpf4jnsgd1na2vs0mg"},{"bike_id":"b4033be0-5b35-45ca-9979-c7890f6c888e","system_id":"levelo_inurba_marseille","lat":43.311677,"lon":5.387185,"is_reserved":false,"is_disabled":false,"rental_uris":{"android":"levelo://app?vid=b4033be0-5b35-45ca-9979-c7890f6c888e","ios":"levelo://app?vid=b4033be0-5b35-45ca-9979-c7890f6c888e"},"vehicle_type_id":"4","last_reported":1742814516,"current_range_meters":9600,"station_id":"ce4bh612rcd13ifvqe6g","pricing_plan_id":"cebpf4jnsgd1na2vs0mg"},{"bike_id":"ed40845c-fa2f-40ec-b3cc-29764c8d6b31","system_id":"levelo_inurba_marseille","lat":43.29847,"lon":5.36281,"is_reserved":false,"is_disabled":false,"rental_uris":{"android":"levelo://app?vid=ed40845c-fa2f-40ec-b3cc-29764c8d6b31","ios":"levelo://app?vid=ed40845c-fa2f-40ec-b3cc-29764c8d6b31"},"vehicle_type_id":"4","last_reported":1742814516,"current_range_meters":9600,"station_id":"ce4bgpp2rcd13ifvqc3g","pricing_plan_id":"cebpf4jnsgd1na2vs0mg"},{"bike_id":"587c4b09-c6c3-4755-8011-d820e3904490","system_id":"levelo_inurba_marseille","lat":43.239582,"lon":5.36632,"is_reserved":false,"is_disabled":false,"rental_uris":{"android":"levelo://app?vid=587c4b09-c6c3-4755-8011-d820e3904490","ios":"levelo://app?vid=587c4b09-c6c3-4755-8011-d820e3904490"},"vehicle_type_id":"4","last_reported":1742814516,"current_range_meters":9600,"station_id":"ce4bhi12rcd13ifvqfp0","pricing_plan_id":"cebpf4jnsgd1na2vs0mg"},{"bike_id":"24b77e8f-4e9e-4342-9950-404af23a4ef7","system_id":"levelo_inurba_marseille","lat":43.239606,"lon":5.366288,"is_reserved":false,"is_disabled":false,"rental_uris":{"android":"levelo://app?vid=24b77e8f-4e9e-4342-9950-404af23a4ef7","ios":"levelo://app?vid=24b77e8f-4e9e-4342-9950-404af23a4ef7"},"vehicle_type_id":"4","last_reported":1742814516,"current_range_meters":10000,"station_id":"ce4bhi12rcd13ifvqfp0","pricing_plan_id":"cebpf4jnsgd1na2vs0mg"},{"bike_id":"f52d578c-2e92-468c-8d0d-6b48faf8734d","system_id":"levelo_inurba_marseille","lat":43.29884,"lon":5.38929,"is_reserved":false,"is_disabled":true,"rental_uris":{"android":"levelo://app?vid=f52d578c-2e92-468c-8d0d-6b48faf8734d","ios":"levelo://app?vid=f52d578c-2e92-468c-8d0d-6b48faf8734d"},"vehicle_type_id":"4","last_reported":1742814516,"current_range_meters":10000,"station_id":"ce4bh392rcd13ifvqdl0","pricing_plan_id":"cebpf4jnsgd1na2vs0mg"},{"bike_id":"362ce256-d873-44d5-8d0c-8eb3060da6b1","system_id":"levelo_inurba_marseille","lat":43.28145,"lon":5.42651,"is_reserved":false,"is_disabled":false,"rental_uris":{"android":"levelo://app?vid=362ce256-d873-44d5-8d0c-8eb3060da6b1","ios":"levelo://app?vid=362ce256-d873-44d5-8d0c-8eb3060da6b1"},"vehicle_type_id":"4","last_reported":1742814516,"current_range_meters":10000,"station_id":"ce4bhnh2rcd13ifvqgug","pricing_plan_id":"cebpf4jnsgd1na2vs0mg"},{"bike_id":"6a4366b6-19e3-4323-8bb2-296ae8760e60","system_id":"levelo_inurba_marseille","lat":43.30141,"lon":5.38801,"is_reserved":false,"is_disabled":false,"rental_uris":{"android":"levelo://app?vid=6a4366b6-19e3-4323-8bb2-296ae8760e60","ios":"levelo://app?vid=6a4366b6-19e3-4323-8bb2-296ae8760e60"},"vehicle_type_id":"4","last_reported":1742814516,"current_range_meters":10000,"station_id":"ce4bghh2rcd13ifvqb60","pricing_plan_id":"cebpf4jnsgd1na2vs0mg"},{"bike_id":"df71e60d-9738-4a38-9a53-57e77ee84d52","system_id":"levelo_inurba_marseille","lat":43.25581,"lon":5.38237,"is_reserved":false,"is_disabled":false,"rental_uris":{"android":"levelo://app?vid=df71e60d-9738-4a38-9a53-57e77ee84d52","ios":"levelo://app?vid=df71e60d-9738-4a38-9a53-57e77ee84d52"},"vehicle_type_id":"4","last_reported":1742814516,"current_range_meters":10000,"station_id":"ce4bhih2rcd13ifvqfs0","pricing_plan_id":"cebpf4jnsgd1na2vs0mg"},{"bike_id":"90cda2f0-22fd-43de-9112-912f036781a7","system_id":"levelo_inurba_marseille","lat":43.26197,"lon":5.37931,"is_reserved":false,"is_disabled":false,"rental_uris":{"android":"levelo://app?vid=90cda2f0-22fd-43de-9112-912f036781a7","ios":"levelo://app?vid=90cda2f0-22fd-43de-9112-912f036781a7"},"vehicle_type_id":"4","last_reported":1742814516,"current_range_meters":10000,"station_id":"","pricing_plan_id":"cebpf4jnsgd1na2vs0mg"},{"bike_id":"0a4354e8-53c1-4dcd-a339-7d678ff0723b","system_id":"levelo_inurba_marseille","lat":43.31219,"lon":5.36855,"is_reserved":false,"is_disabled":false,"rental_uris":{"android":"levelo://app?vid=0a4354e8-53c1-4dcd-a339-7d678ff0723b","ios":"levelo://app?vid=0a4354e8-53c1-4dcd-a339-7d678ff0723b"},"vehicle_type_id":"4","last_reported":1742814516,"current_range_meters":10000,"station_id":"ce4bgl92rcd13ifvqbq0","pricing_plan_id":"cebpf4jnsgd1na2vs0mg"},{"bike_id":"18863800-62ba-4763-abac-b1114de2bcbe","system_id":"levelo_inurba_marseille","lat":43.22933,"lon":5.35376,"is_reserved":false,"is_disabled":false,"rental_uris":{"android":"levelo://app?vid=18863800-62ba-4763-abac-b1114de2bcbe","ios":"levelo://app?vid=18863800-62ba-4763-abac-b1114de2bcbe"},"vehicle_type_id":"4","last_reported":1742814516,"current_range_meters":10000,"station_id":"cpo3532slgdg3j2ikp40","pricing_plan_id":"cebpf4jnsgd1na2vs0mg"},{"bike_id":"13b996b2-0583-48fc-8082-3cfb258502ad","system_id":"levelo_inurba_marseille","lat":43.29269,"lon":5.38435,"is_reserved":false,"is_disabled":false,"rental_uris":{"android":"levelo://app?vid=13b996b2-0583-48fc-8082-3cfb258502ad","ios":"levelo://app?vid=13b996b2-0583-48fc-8082-3cfb258502ad"},"vehicle_type_id":"4","last_reported":1742814516,"current_range_meters":9600,"station_id":"ce4bh692rcd13ifvqea0","pricing_plan_id":"cebpf4jnsgd1na2vs0mg"},{"bike_id":"c5f56a9d-b348-45ca-a460-ed5d68cadf18","system_id":"levelo_inurba_marseille","lat":43.28485,"lon":5.38569,"is_reserved":false,"is_disabled":false,"rental_uris":{"android":"levelo://app?vid=c5f56a9d-b348-45ca-a460-ed5d68cadf18","ios":"levelo://app?vid=c5f56a9d-b348-45ca-a460-ed5d68cadf18"},"vehicle_type_id":"4","last_reported":1742814516,"current_range_meters":10800,"station_id":"ce4bh8p2rcd13ifvqeb0","pricing_plan_id":"cebpf4jnsgd1na2vs0mg"},{"bike_id":"dfc1031b-a216-441c-8a80-f825c7526a72","system_id":"levelo_inurba_marseille","lat":43.26558,"lon":5.3728,"is_reserved":false,"is_disabled":false,"rental_uris":{"android":"levelo://app?vid=dfc1031b-a216-441c-8a80-f825c7526a72","ios":"levelo://app?vid=dfc1031b-a216-441c-8a80-f825c7526a72"},"vehicle_type_id":"4","last_reported":1742814516,"current_range_meters":10800,"station_id":"ce4bhg12rcd13ifvqf70","pricing_plan_id":"cebpf4jnsgd1na2vs0mg"},{"bike_id":"61cd691f-e58e-4ab9-8fb6-7d3af04b9559","system_id":"levelo_inurba_marseille","lat":43.28469,"lon":5.38551,"is_reserved":false,"is_disabled":false,"rental_uris":{"android":"levelo://app?vid=61cd691f-e58e-4ab9-8fb6-7d3af04b9559","ios":"levelo://app?vid=61cd691f-e58e-4ab9-8fb6-7d3af04b9559"},"vehicle_type_id":"4","last_reported":1742814516,"current_range_meters":10800,"station_id":"ce4bh8p2rcd13ifvqeb0","pricing_plan_id":"cebpf4jnsgd1na2vs0mg"},{"bike_id":"f30771e1-73d8-4d02-b97c-d48620cc6958","system_id":"levelo_inurba_marseille","lat":43.30549,"lon":5.36543,"is_reserved":false,"is_disabled":false,"rental_uris":{"android":"levelo://app?vid=f30771e1-73d8-4d02-b97c-d48620cc6958","ios":"levelo://app?vid=f30771e1-73d8-4d02-b97c-d48620cc6958"},"vehicle_type_id":"4","last_reported":1742814516,"current_range_meters":10800,"station_id":"ce4bgs12rcd13ifvqcag","pricing_plan_id":"cebpf4jnsgd1na2vs0mg"},{"bike_id":"29d4de3c-ff17-4478-aa46-9d278e36c4da","system_id":"levelo_inurba_marseille","lat":43.25882,"lon":5.39946,"is_reserved":false,"is_disabled":false,"rental_uris":{"android":"levelo://app?vid=29d4de3c-ff17-4478-aa46-9d278e36c4da","ios":"levelo://app?vid=29d4de3c-ff17-4478-aa46-9d278e36c4da"},"vehicle_type_id":"4","last_reported":1742814516,"current_range_meters":10800,"station_id":"ce4bhip2rcd13ifvqft0","pricing_plan_id":"cebpf4jnsgd1na2vs0mg"},{"bike_id":"6640b7df-07ff-4f2a-93e9-899e14db5fff","system_id":"levelo_inurba_marseille","lat":43.30141,"lon":5.37417,"is_reserved":false,"is_disabled":false,"rental_uris":{"android":"levelo://app?vid=6640b7df-07ff-4f2a-93e9-899e14db5fff","ios":"levelo://app?vid=6640b7df-07ff-4f2a-93e9-899e14db5fff"},"vehicle_type_id":"4","last_reported":1742814516,"current_range_meters":10800,"station_id":"ce4bgs92rcd13ifvqcc0","pricing_plan_id":"cebpf4jnsgd1na2vs0mg"},{"bike_id":"d1f7ca60-4bb4-4dd9-9c90-e8069ceefa40","system_id":"levelo_inurba_marseille","lat":43.24171,"lon":5.36417,"is_reserved":false,"is_disabled":false,"rental_uris":{"android":"levelo://app?vid=d1f7ca60-4bb4-4dd9-9c90-e8069ceefa40","ios":"levelo://app?vid=d1f7ca60-4bb4-4dd9-9c90-e8069ceefa40"},"vehicle_type_id":"4","last_reported":1742814516,"current_range_meters":11200,"station_id":"cpo36qri1sfpv3e86is0","pricing_plan_id":"cebpf4jnsgd1na2vs0mg"},{"bike_id":"76757220-d8a3-400d-93c0-947089c24c8c","system_id":"levelo_inurba_marseille","lat":43.29905,"lon":5.4367,"is_reserved":false,"is_disabled":false,"rental_uris":{"android":"levelo://app?vid=76757220-d8a3-400d-93c0-947089c24c8c","ios":"levelo://app?vid=76757220-d8a3-400d-93c0-947089c24c8c"},"vehicle_type_id":"4","last_reported":1742814516,"current_range_meters":11200,"station_id":"ce4bhpp2rcd13ifvqhfg","pricing_plan_id":"cebpf4jnsgd1na2vs0mg"},{"bike_id":"fdf6f462-6fbb-42ad-8da3-30e1716c6779","system_id":"levelo_inurba_marseille","lat":43.23963,"lon":5.36627,"is_reserved":false,"is_disabled":false,"rental_uris":{"android":"levelo://app?vid=fdf6f462-6fbb-42ad-8da3-30e1716c6779","ios":"levelo://app?vid=fdf6f462-6fbb-42ad-8da3-30e1716c6779"},"vehicle_type_id":"4","last_reported":1742814516,"current_range_meters":11200,"station_id":"ce4bhi12rcd13ifvqfp0","pricing_plan_id":"cebpf4jnsgd1na2vs0mg"},{"bike_id":"545e0882-70c3-4493-a3c0-55f92f9780d4","system_id":"levelo_inurba_marseille","lat":43.29308,"lon":5.37458,"is_reserved":false,"is_disabled":false,"rental_uris":{"android":"levelo://app?vid=545e0882-70c3-4493-a3c0-55f92f9780d4","ios":"levelo://app?vid=545e0882-70c3-4493-a3c0-55f92f9780d4"},"vehicle_type_id":"4","last_reported":1742814516,"current_range_meters":11200,"station_id":"ce4bgi12rcd13ifvqb70","pricing_plan_id":"cebpf4jnsgd1na2vs0mg"},{"bike_id":"2ce2029b-4cb6-4887-9b95-9dbf07c99a19","system_id":"levelo_inurba_marseille","lat":43.30339,"lon":5.36923,"is_reserved":false,"is_disabled":false,"rental_uris":{"android":"levelo://app?vid=2ce2029b-4cb6-4887-9b95-9dbf07c99a19","ios":"levelo://app?vid=2ce2029b-4cb6-4887-9b95-9dbf07c99a19"},"vehicle_type_id":"4","last_reported":1742814516,"current_range_meters":11200,"station_id":"ce4bgqh2rcd13ifvqc5g","pricing_plan_id":"cebpf4jnsgd1na2vs0mg"},{"bike_id":"5fb2ef9e-7a11-4b33-93f2-deeb46995972","system_id":"levelo_inurba_marseille","lat":43.30547,"lon":5.36531,"is_reserved":false,"is_disabled":false,"rental_uris":{"android":"levelo://app?vid=5fb2ef9e-7a11-4b33-93f2-deeb46995972","ios":"levelo://app?vid=5fb2ef9e-7a11-4b33-93f2-deeb46995972"},"vehicle_type_id":"4","last_reported":1742814516,"current_range_meters":11200,"station_id":"ce4bgs12rcd13ifvqcag","pricing_plan_id":"cebpf4jnsgd1na2vs0mg"},{"bike_id":"d4f91f45-0624-46e0-a253-ac67857b1545","system_id":"levelo_inurba_marseille","lat":43.29615,"lon":5.37726,"is_reserved":false,"is_disabled":false,"rental_uris":{"android":"levelo://app?vid=d4f91f45-0624-46e0-a253-ac67857b1545","ios":"levelo://app?vid=d4f91f45-0624-46e0-a253-ac67857b1545"},"vehicle_type_id":"4","last_reported":1742814516,"current_range_meters":11600,"station_id":"ce4bgi92rcd13ifvqb90","pricing_plan_id":"cebpf4jnsgd1na2vs0mg"},{"bike_id":"97094130-f181-43f6-b0c1-2b4b181bbd8a","system_id":"levelo_inurba_marseille","lat":43.29914,"lon":5.37474,"is_reserved":false,"is_disabled":false,"rental_uris":{"android":"levelo://app?vid=97094130-f181-43f6-b0c1-2b4b181bbd8a","ios":"levelo://app?vid=97094130-f181-43f6-b0c1-2b4b181bbd8a"},"vehicle_type_id":"4","last_reported":1742814516,"current_range_meters":11600,"station_id":"ce4bgjh2rcd13ifvqbg0","pricing_plan_id":"cebpf4jnsgd1na2vs0mg"},{"bike_id":"e784bcf0-e6f4-419c-acc0-929d2665a4b7","system_id":"levelo_inurba_marseille","lat":43.28143,"lon":5.42637,"is_reserved":false,"is_disabled":false,"rental_uris":{"android":"levelo://app?vid=e784bcf0-e6f4-419c-acc0-929d2665a4b7","ios":"levelo://app?vid=e784bcf0-e6f4-419c-acc0-929d2665a4b7"},"vehicle_type_id":"4","last_reported":1742814516,"current_range_meters":11600,"station_id":"ce4bhnh2rcd13ifvqgug","pricing_plan_id":"cebpf4jnsgd1na2vs0mg"},{"bike_id":"55b86800-4bfb-4509-b486-5706fe5277fd","system_id":"levelo_inurba_marseille","lat":43.28772,"lon":5.40008,"is_reserved":false,"is_disabled":true,"rental_uris":{"android":"levelo://app?vid=55b86800-4bfb-4509-b486-5706fe5277fd","ios":"levelo://app?vid=55b86800-4bfb-4509-b486-5706fe5277fd"},"vehicle_type_id":"4","last_reported":1742814516,"current_range_meters":11600,"station_id":"ce4bho92rcd13ifvqh3g","pricing_plan_id":"cebpf4jnsgd1na2vs0mg"},{"bike_id":"35a7ada3-cda5-451b-a623-fdae1ca395eb","system_id":"levelo_inurba_marseille","lat":43.23141,"lon":5.43733,"is_reserved":false,"is_disabled":false,"rental_uris":{"android":"levelo://app?vid=35a7ada3-cda5-451b-a623-fdae1ca395eb","ios":"levelo://app?vid=35a7ada3-cda5-451b-a623-fdae1ca395eb"},"vehicle_type_id":"4","last_reported":1742814516,"current_range_meters":11600,"station_id":"ce4bhmp2rcd13ifvqgog","pricing_plan_id":"cebpf4jnsgd1na2vs0mg"},{"bike_id":"e68f39a4-b1c9-4500-a984-f338c20cee46","system_id":"levelo_inurba_marseille","lat":43.24174,"lon":5.39738,"is_reserved":false,"is_disabled":false,"rental_uris":{"android":"levelo://app?vid=e68f39a4-b1c9-4500-a984-f338c20cee46","ios":"levelo://app?vid=e68f39a4-b1c9-4500-a984-f338c20cee46"},"vehicle_type_id":"4","last_reported":1742814516,"current_range_meters":11600,"station_id":"ce4bhn12rcd13ifvqgpg","pricing_plan_id":"cebpf4jnsgd1na2vs0mg"},{"bike_id":"146e9910-47e7-491e-a10d-9b6776a654aa","system_id":"levelo_inurba_marseille","lat":43.25002,"lon":5.38938,"is_reserved":false,"is_disabled":false,"rental_uris":{"android":"levelo://app?vid=146e9910-47e7-491e-a10d-9b6776a654aa","ios":"levelo://app?vid=146e9910-47e7-491e-a10d-9b6776a654aa"},"vehicle_type_id":"4","last_reported":1742814516,"current_range_meters":11600,"station_id":"ce4bhgp2rcd13ifvqfd0","pricing_plan_id":"cebpf4jnsgd1na2vs0mg"},{"bike_id":"1ddc70ec-e444-4841-84e9-456f7aeb224f","system_id":"levelo_inurba_marseille","lat":43.30968,"lon":5.40471,"is_reserved":false,"is_disabled":false,"rental_uris":{"android":"levelo://app?vid=1ddc70ec-e444-4841-84e9-456f7aeb224f","ios":"levelo://app?vid=1ddc70ec-e444-4841-84e9-456f7aeb224f"},"vehicle_type_id":"4","last_reported":1742814516,"current_range_meters":12000,"station_id":"","pricing_plan_id":"cebpf4jnsgd1na2vs0mg"},{"bike_id":"fe4789cb-5d10-4e8d-9434-0c011da7503d","system_id":"levelo_inurba_marseille","lat":43.23193,"lon":5.35554,"is_reserved":false,"is_disabled":false,"rental_uris":{"android":"levelo://app?vid=fe4789cb-5d10-4e8d-9434-0c011da7503d","ios":"levelo://app?vid=fe4789cb-5d10-4e8d-9434-0c011da7503d"},"vehicle_type_id":"4","last_reported":1742814516,"current_range_meters":12000,"station_id":"ce4bhu92rcd13ifvqi70","pricing_plan_id":"cebpf4jnsgd1na2vs0mg"},{"bike_id":"ddae7320-3209-4db1-b04b-9a399cb526e7","system_id":"levelo_inurba_marseille","lat":43.258184,"lon":5.394357,"is_reserved":false,"is_disabled":false,"rental_uris":{"android":"levelo://app?vid=ddae7320-3209-4db1-b04b-9a399cb526e7","ios":"levelo://app?vid=ddae7320-3209-4db1-b04b-9a399cb526e7"},"vehicle_type_id":"4","last_reported":1742814516,"current_range_meters":12000,"station_id":"ce4bhip2rcd13ifvqft0","pricing_plan_id":"cebpf4jnsgd1na2vs0mg"},{"bike_id":"ba298775-8350-4b57-9be0-99308773b5b4","system_id":"levelo_inurba_marseille","lat":43.28152,"lon":5.4264,"is_reserved":false,"is_disabled":false,"rental_uris":{"android":"levelo://app?vid=ba298775-8350-4b57-9be0-99308773b5b4","ios":"levelo://app?vid=ba298775-8350-4b57-9be0-99308773b5b4"},"vehicle_type_id":"4","last_reported":1742814516,"current_range_meters":12000,"station_id":"ce4bhnh2rcd13ifvqgug","pricing_plan_id":"cebpf4jnsgd1na2vs0mg"},{"bike_id":"b4f43f66-3b24-49fa-a71b-063832082f08","system_id":"levelo_inurba_marseille","lat":43.25943,"lon":5.40893,"is_reserved":false,"is_disabled":false,"rental_uris":{"android":"levelo://app?vid=b4f43f66-3b24-49fa-a71b-063832082f08","ios":"levelo://app?vid=b4f43f66-3b24-49fa-a71b-063832082f08"},"vehicle_type_id":"4","last_reported":1742814516,"current_range_meters":12000,"station_id":"ce4bhm92rcd13ifvqglg","pricing_plan_id":"cebpf4jnsgd1na2vs0mg"},{"bike_id":"9b3dcaf5-b313-4c20-91dc-f1c16272632c","system_id":"levelo_inurba_marseille","lat":43.28154,"lon":5.42645,"is_reserved":false,"is_disabled":false,"rental_uris":{"android":"levelo://app?vid=9b3dcaf5-b313-4c20-91dc-f1c16272632c","ios":"levelo://app?vid=9b3dcaf5-b313-4c20-91dc-f1c16272632c"},"vehicle_type_id":"4","last_reported":1742814516,"current_range_meters":12000,"station_id":"ce4bhnh2rcd13ifvqgug","pricing_plan_id":"cebpf4jnsgd1na2vs0mg"},{"bike_id":"41c8b74c-362a-4ace-a8be-a871abb3ef89","system_id":"levelo_inurba_marseille","lat":43.26152,"lon":5.40558,"is_reserved":false,"is_disabled":false,"rental_uris":{"android":"levelo://app?vid=41c8b74c-362a-4ace-a8be-a871abb3ef89","ios":"levelo://app?vid=41c8b74c-362a-4ace-a8be-a871abb3ef89"},"vehicle_type_id":"4","last_reported":1742814516,"current_range_meters":12000,"station_id":"","pricing_plan_id":"cebpf4jnsgd1na2vs0mg"},{"bike_id":"11f4a5ee-676e-429f-8679-1776cbfb5777","system_id":"levelo_inurba_marseille","lat":43.23961,"lon":5.36631,"is_reserved":false,"is_disabled":false,"rental_uris":{"android":"levelo://app?vid=11f4a5ee-676e-429f-8679-1776cbfb5777","ios":"levelo://app?vid=11f4a5ee-676e-429f-8679-1776cbfb5777"},"vehicle_type_id":"4","last_reported":1742814516,"current_range_meters":12400,"station_id":"ce4bhi12rcd13ifvqfp0","pricing_plan_id":"cebpf4jnsgd1na2vs0mg"},{"bike_id":"10a0c52e-aaad-43b0-bcb0-32221d122b65","system_id":"levelo_inurba_marseille","lat":43.27946,"lon":5.41024,"is_reserved":false,"is_disabled":false,"rental_uris":{"android":"levelo://app?vid=10a0c52e-aaad-43b0-bcb0-32221d122b65","ios":"levelo://app?vid=10a0c52e-aaad-43b0-bcb0-32221d122b65"},"vehicle_type_id":"4","last_reported":1742814516,"current_range_meters":12400,"station_id":"ce4bhnp2rcd13ifvqh0g","pricing_plan_id":"cebpf4jnsgd1na2vs0mg"},{"bike_id":"7d6193e3-915e-44a9-ae35-c9faba27c9f0","system_id":"levelo_inurba_marseille","lat":43.24555,"lon":5.39524,"is_reserved":false,"is_disabled":false,"rental_uris":{"android":"levelo://app?vid=7d6193e3-915e-44a9-ae35-c9faba27c9f0","ios":"levelo://app?vid=7d6193e3-915e-44a9-ae35-c9faba27c9f0"},"vehicle_type_id":"4","last_reported":1742814516,"current_range_meters":12400,"station_id":"ce4bhlp2rcd13ifvqgjg","pricing_plan_id":"cebpf4jnsgd1na2vs0mg"},{"bike_id":"c3ea81e6-8675-4847-b618-2dfb23c938f8","system_id":"levelo_inurba_marseille","lat":43.276171,"lon":5.361014,"is_reserved":false,"is_disabled":true,"rental_uris":{"android":"levelo://app?vid=c3ea81e6-8675-4847-b618-2dfb23c938f8","ios":"levelo://app?vid=c3ea81e6-8675-4847-b618-2dfb23c938f8"},"vehicle_type_id":"4","last_reported":1742814516,"current_range_meters":12400,"station_id":"ce4bgj92rcd13ifvqbe0","pricing_plan_id":"cebpf4jnsgd1na2vs0mg"},{"bike_id":"1121c899-a0e6-4212-a382-0fa02fa3ecb2","system_id":"levelo_inurba_marseille","lat":43.29528,"lon":5.37506,"is_reserved":false,"is_disabled":false,"rental_uris":{"android":"levelo://app?vid=1121c899-a0e6-4212-a382-0fa02fa3ecb2","ios":"levelo://app?vid=1121c899-a0e6-4212-a382-0fa02fa3ecb2"},"vehicle_type_id":"4","last_reported":1742814516,"current_range_meters":12000,"station_id":"ce4bgkp2rcd13ifvqbmg","pricing_plan_id":"cebpf4jnsgd1na2vs0mg"},{"bike_id":"64da6105-406b-402f-b4c9-ed2c19fbf402","system_id":"levelo_inurba_marseille","lat":43.292725,"lon":5.384452,"is_reserved":false,"is_disabled":true,"rental_uris":{"android":"levelo://app?vid=64da6105-406b-402f-b4c9-ed2c19fbf402","ios":"levelo://app?vid=64da6105-406b-402f-b4c9-ed2c19fbf402"},"vehicle_type_id":"4","last_reported":1742814516,"current_range_meters":12800,"station_id":"","pricing_plan_id":"cebpf4jnsgd1na2vs0mg"},{"bike_id":"fc88defb-c5ea-48ea-aa23-da6f0532c57b","system_id":"levelo_inurba_marseille","lat":43.30852,"lon":5.3689,"is_reserved":false,"is_disabled":false,"rental_uris":{"android":"levelo://app?vid=fc88defb-c5ea-48ea-aa23-da6f0532c57b","ios":"levelo://app?vid=fc88defb-c5ea-48ea-aa23-da6f0532c57b"},"vehicle_type_id":"4","last_reported":1742814516,"current_range_meters":12800,"station_id":"","pricing_plan_id":"cebpf4jnsgd1na2vs0mg"},{"bike_id":"58aff406-8be8-4dc2-a0d8-3b18b0b27b78","system_id":"levelo_inurba_marseille","lat":43.29518,"lon":5.39045,"is_reserved":false,"is_disabled":false,"rental_uris":{"android":"levelo://app?vid=58aff406-8be8-4dc2-a0d8-3b18b0b27b78","ios":"levelo://app?vid=58aff406-8be8-4dc2-a0d8-3b18b0b27b78"},"vehicle_type_id":"4","last_reported":1742814516,"current_range_meters":12400,"station_id":"ce4bh3p2rcd13ifvqdp0","pricing_plan_id":"cebpf4jnsgd1na2vs0mg"},{"bike_id":"b97b8876-d969-4576-b7ab-db9b2177d974","system_id":"levelo_inurba_marseille","lat":43.27643,"lon":5.38888,"is_reserved":false,"is_disabled":false,"rental_uris":{"android":"levelo://app?vid=b97b8876-d969-4576-b7ab-db9b2177d974","ios":"levelo://app?vid=b97b8876-d969-4576-b7ab-db9b2177d974"},"vehicle_type_id":"4","last_reported":1742814516,"current_range_meters":12800,"station_id":"ce4bhi12rcd13ifvqfo0","pricing_plan_id":"cebpf4jnsgd1na2vs0mg"},{"bike_id":"b8c55d8a-dbd2-455d-921a-196c9c89183e","system_id":"levelo_inurba_marseille","lat":43.30965,"lon":5.39057,"is_reserved":false,"is_disabled":true,"rental_uris":{"android":"levelo://app?vid=b8c55d8a-dbd2-455d-921a-196c9c89183e","ios":"levelo://app?vid=b8c55d8a-dbd2-455d-921a-196c9c89183e"},"vehicle_type_id":"4","last_reported":1742814516,"current_range_meters":12800,"station_id":"ce4bgup2rcd13ifvqco0","pricing_plan_id":"cebpf4jnsgd1na2vs0mg"},{"bike_id":"094a60c7-9412-4fa7-a7e3-18d67bf68fe4","system_id":"levelo_inurba_marseille","lat":43.23955,"lon":5.36619,"is_reserved":false,"is_disabled":false,"rental_uris":{"android":"levelo://app?vid=094a60c7-9412-4fa7-a7e3-18d67bf68fe4","ios":"levelo://app?vid=094a60c7-9412-4fa7-a7e3-18d67bf68fe4"},"vehicle_type_id":"4","last_reported":1742814516,"current_range_meters":12800,"station_id":"ce4bhi12rcd13ifvqfp0","pricing_plan_id":"cebpf4jnsgd1na2vs0mg"},{"bike_id":"ecce5ef5-fffb-4551-b35f-ad8ad47e8d82","system_id":"levelo_inurba_marseille","lat":43.26814,"lon":5.40243,"is_reserved":false,"is_disabled":false,"rental_uris":{"android":"levelo://app?vid=ecce5ef5-fffb-4551-b35f-ad8ad47e8d82","ios":"levelo://app?vid=ecce5ef5-fffb-4551-b35f-ad8ad47e8d82"},"vehicle_type_id":"4","last_reported":1742814516,"current_range_meters":13600,"station_id":"ce501612rcd8frsf0b60","pricing_plan_id":"cebpf4jnsgd1na2vs0mg"},{"bike_id":"074ef621-2343-421e-9821-ea27910008f6","system_id":"levelo_inurba_marseille","lat":43.23655,"lon":5.37765,"is_reserved":false,"is_disabled":false,"rental_uris":{"android":"levelo://app?vid=074ef621-2343-421e-9821-ea27910008f6","ios":"levelo://app?vid=074ef621-2343-421e-9821-ea27910008f6"},"vehicle_type_id":"4","last_reported":1742814516,"current_range_meters":13600,"station_id":"","pricing_plan_id":"cebpf4jnsgd1na2vs0mg"},{"bike_id":"dbbd636e-a5cb-462f-9394-b160e90ed820","system_id":"levelo_inurba_marseille","lat":43.25943,"lon":5.4089,"is_reserved":false,"is_disabled":false,"rental_uris":{"android":"levelo://app?vid=dbbd636e-a5cb-462f-9394-b160e90ed820","ios":"levelo://app?vid=dbbd636e-a5cb-462f-9394-b160e90ed820"},"vehicle_type_id":"4","last_reported":1742814516,"current_range_meters":13600,"station_id":"ce4bhm92rcd13ifvqglg","pricing_plan_id":"cebpf4jnsgd1na2vs0mg"},{"bike_id":"3bdebdf2-56ae-437c-b382-19775de32079","system_id":"levelo_inurba_marseille","lat":43.29854,"lon":5.36287,"is_reserved":false,"is_disabled":false,"rental_uris":{"android":"levelo://app?vid=3bdebdf2-56ae-437c-b382-19775de32079","ios":"levelo://app?vid=3bdebdf2-56ae-437c-b382-19775de32079"},"vehicle_type_id":"4","last_reported":1742814516,"current_range_meters":13600,"station_id":"ce4bgpp2rcd13ifvqc3g","pricing_plan_id":"cebpf4jnsgd1na2vs0mg"},{"bike_id":"69e58d75-4622-44f9-a116-094186a08c1c","system_id":"levelo_inurba_marseille","lat":43.25928,"lon":5.40891,"is_reserved":false,"is_disabled":false,"rental_uris":{"android":"levelo://app?vid=69e58d75-4622-44f9-a116-094186a08c1c","ios":"levelo://app?vid=69e58d75-4622-44f9-a116-094186a08c1c"},"vehicle_type_id":"4","last_reported":1742814516,"current_range_meters":13600,"station_id":"ce4bhm92rcd13ifvqglg","pricing_plan_id":"cebpf4jnsgd1na2vs0mg"},{"bike_id":"2837128b-27ec-48c9-9f29-25103435cee9","system_id":"levelo_inurba_marseille","lat":43.26561,"lon":5.39013,"is_reserved":false,"is_disabled":false,"rental_uris":{"android":"levelo://app?vid=2837128b-27ec-48c9-9f29-25103435cee9","ios":"levelo://app?vid=2837128b-27ec-48c9-9f29-25103435cee9"},"vehicle_type_id":"4","last_reported":1742814516,"current_range_meters":13600,"station_id":"ce4bhe12rcd13ifvqf30","pricing_plan_id":"cebpf4jnsgd1na2vs0mg"},{"bike_id":"5834dfcf-f290-419a-acc0-1e4a34af5222","system_id":"levelo_inurba_marseille","lat":43.23952,"lon":5.36631,"is_reserved":false,"is_disabled":false,"rental_uris":{"android":"levelo://app?vid=5834dfcf-f290-419a-acc0-1e4a34af5222","ios":"levelo://app?vid=5834dfcf-f290-419a-acc0-1e4a34af5222"},"vehicle_type_id":"4","last_reported":1742814516,"current_range_meters":13600,"station_id":"ce4bhi12rcd13ifvqfp0","pricing_plan_id":"cebpf4jnsgd1na2vs0mg"},{"bike_id":"09970276-bc89-434d-91a0-c6dee7402bba","system_id":"levelo_inurba_marseille","lat":43.24176,"lon":5.3971,"is_reserved":false,"is_disabled":false,"rental_uris":{"android":"levelo://app?vid=09970276-bc89-434d-91a0-c6dee7402bba","ios":"levelo://app?vid=09970276-bc89-434d-91a0-c6dee7402bba"},"vehicle_type_id":"4","last_reported":1742814516,"current_range_meters":13600,"station_id":"ce4bhn12rcd13ifvqgpg","pricing_plan_id":"cebpf4jnsgd1na2vs0mg"},{"bike_id":"45b24853-412b-406f-a456-c930caa99d0b","system_id":"levelo_inurba_marseille","lat":43.32095,"lon":5.36777,"is_reserved":false,"is_disabled":false,"rental_uris":{"android":"levelo://app?vid=45b24853-412b-406f-a456-c930caa99d0b","ios":"levelo://app?vid=45b24853-412b-406f-a456-c930caa99d0b"},"vehicle_type_id":"4","last_reported":1742814516,"current_range_meters":13600,"station_id":"ce4bhrh2rcd13ifvqhug","pricing_plan_id":"cebpf4jnsgd1na2vs0mg"},{"bike_id":"b591fe37-40e2-4515-a7e6-ee520cb97e5f","system_id":"levelo_inurba_marseille","lat":43.29257,"lon":5.37439,"is_reserved":false,"is_disabled":false,"rental_uris":{"android":"levelo://app?vid=b591fe37-40e2-4515-a7e6-ee520cb97e5f","ios":"levelo://app?vid=b591fe37-40e2-4515-a7e6-ee520cb97e5f"},"vehicle_type_id":"4","last_reported":1742814516,"current_range_meters":13600,"station_id":"","pricing_plan_id":"cebpf4jnsgd1na2vs0mg"},{"bike_id":"5362e564-49a1-4afb-a12b-05ced5661eaa","system_id":"levelo_inurba_marseille","lat":43.30562,"lon":5.36544,"is_reserved":false,"is_disabled":false,"rental_uris":{"android":"levelo://app?vid=5362e564-49a1-4afb-a12b-05ced5661eaa","ios":"levelo://app?vid=5362e564-49a1-4afb-a12b-05ced5661eaa"},"vehicle_type_id":"4","last_reported":1742814516,"current_range_meters":13600,"station_id":"ce4bgs12rcd13ifvqcag","pricing_plan_id":"cebpf4jnsgd1na2vs0mg"},{"bike_id":"d68dd08e-fa23-4565-a7b6-7a97edfe2ce9","system_id":"levelo_inurba_marseille","lat":43.28922,"lon":5.38391,"is_reserved":false,"is_disabled":true,"rental_uris":{"android":"levelo://app?vid=d68dd08e-fa23-4565-a7b6-7a97edfe2ce9","ios":"levelo://app?vid=d68dd08e-fa23-4565-a7b6-7a97edfe2ce9"},"vehicle_type_id":"4","last_reported":1742814516,"current_range_meters":14000,"station_id":"ce4bh612rcd13ifvqe6g","pricing_plan_id":"cebpf4jnsgd1na2vs0mg"},{"bike_id":"c344540f-c840-4e62-adc1-0d209d4c3c3e","system_id":"levelo_inurba_marseille","lat":43.23194,"lon":5.35554,"is_reserved":false,"is_disabled":false,"rental_uris":{"android":"levelo://app?vid=c344540f-c840-4e62-adc1-0d209d4c3c3e","ios":"levelo://app?vid=c344540f-c840-4e62-adc1-0d209d4c3c3e"},"vehicle_type_id":"4","last_reported":1742814516,"current_range_meters":14000,"station_id":"ce4bhu92rcd13ifvqi70","pricing_plan_id":"cebpf4jnsgd1na2vs0mg"},{"bike_id":"479067b0-fbf6-4767-934b-6c0d74f12f79","system_id":"levelo_inurba_marseille","lat":43.262,"lon":5.37931,"is_reserved":false,"is_disabled":false,"rental_uris":{"android":"levelo://app?vid=479067b0-fbf6-4767-934b-6c0d74f12f79","ios":"levelo://app?vid=479067b0-fbf6-4767-934b-6c0d74f12f79"},"vehicle_type_id":"4","last_reported":1742814516,"current_range_meters":14400,"station_id":"ce4bhjp2rcd13ifvqg90","pricing_plan_id":"cebpf4jnsgd1na2vs0mg"},{"bike_id":"7693ecee-8d6e-455f-b5ec-ea4ac1b115de","system_id":"levelo_inurba_marseille","lat":43.31233,"lon":5.36853,"is_reserved":false,"is_disabled":false,"rental_uris":{"android":"levelo://app?vid=7693ecee-8d6e-455f-b5ec-ea4ac1b115de","ios":"levelo://app?vid=7693ecee-8d6e-455f-b5ec-ea4ac1b115de"},"vehicle_type_id":"4","last_reported":1742814516,"current_range_meters":14000,"station_id":"ce4bgl92rcd13ifvqbq0","pricing_plan_id":"cebpf4jnsgd1na2vs0mg"},{"bike_id":"989306f0-ec00-4c5a-a143-c730bd5bb983","system_id":"levelo_inurba_marseille","lat":43.26516,"lon":5.37331,"is_reserved":false,"is_disabled":false,"rental_uris":{"android":"levelo://app?vid=989306f0-ec00-4c5a-a143-c730bd5bb983","ios":"levelo://app?vid=989306f0-ec00-4c5a-a143-c730bd5bb983"},"vehicle_type_id":"4","last_reported":1742814516,"current_range_meters":14000,"station_id":"","pricing_plan_id":"cebpf4jnsgd1na2vs0mg"},{"bike_id":"07b2103e-4193-4858-b1c1-e886843ce84c","system_id":"levelo_inurba_marseille","lat":43.33612,"lon":5.41014,"is_reserved":false,"is_disabled":false,"rental_uris":{"android":"levelo://app?vid=07b2103e-4193-4858-b1c1-e886843ce84c","ios":"levelo://app?vid=07b2103e-4193-4858-b1c1-e886843ce84c"},"vehicle_type_id":"4","last_reported":1742814516,"current_range_meters":14000,"station_id":"ce4bhqh2rcd13ifvqhmg","pricing_plan_id":"cebpf4jnsgd1na2vs0mg"},{"bike_id":"382936bb-a0a7-40d3-8b6d-5c403ae33868","system_id":"levelo_inurba_marseille","lat":43.27939,"lon":5.41043,"is_reserved":false,"is_disabled":false,"rental_uris":{"android":"levelo://app?vid=382936bb-a0a7-40d3-8b6d-5c403ae33868","ios":"levelo://app?vid=382936bb-a0a7-40d3-8b6d-5c403ae33868"},"vehicle_type_id":"4","last_reported":1742814516,"current_range_meters":14400,"station_id":"ce4bhnp2rcd13ifvqh0g","pricing_plan_id":"cebpf4jnsgd1na2vs0mg"},{"bike_id":"32c52765-d7d0-4271-9921-e60cde98e516","system_id":"levelo_inurba_marseille","lat":43.30923,"lon":5.40154,"is_reserved":false,"is_disabled":true,"rental_uris":{"android":"levelo://app?vid=32c52765-d7d0-4271-9921-e60cde98e516","ios":"levelo://app?vid=32c52765-d7d0-4271-9921-e60cde98e516"},"vehicle_type_id":"4","last_reported":1742814516,"current_range_meters":14400,"station_id":"ce4bgvp2rcd13ifvqct0","pricing_plan_id":"cebpf4jnsgd1na2vs0mg"},{"bike_id":"5aa0b45f-be4e-4023-b733-8ed860543228","system_id":"levelo_inurba_marseille","lat":43.23067,"lon":5.35502,"is_reserved":false,"is_disabled":false,"rental_uris":{"android":"levelo://app?vid=5aa0b45f-be4e-4023-b733-8ed860543228","ios":"levelo://app?vid=5aa0b45f-be4e-4023-b733-8ed860543228"},"vehicle_type_id":"4","last_reported":1742814516,"current_range_meters":14400,"station_id":"cpo3342slgdg3j2ifvpg","pricing_plan_id":"cebpf4jnsgd1na2vs0mg"},{"bike_id":"de5ee395-27b0-47e4-ad82-2ba579efa4a0","system_id":"levelo_inurba_marseille","lat":43.24547,"lon":5.39525,"is_reserved":false,"is_disabled":false,"rental_uris":{"android":"levelo://app?vid=de5ee395-27b0-47e4-ad82-2ba579efa4a0","ios":"levelo://app?vid=de5ee395-27b0-47e4-ad82-2ba579efa4a0"},"vehicle_type_id":"4","last_reported":1742814516,"current_range_meters":14400,"station_id":"ce4bhlp2rcd13ifvqgjg","pricing_plan_id":"cebpf4jnsgd1na2vs0mg"},{"bike_id":"8b0044fa-37e4-42fc-bb47-64dd5d739dae","system_id":"levelo_inurba_marseille","lat":43.23047,"lon":5.3551,"is_reserved":false,"is_disabled":false,"rental_uris":{"android":"levelo://app?vid=8b0044fa-37e4-42fc-bb47-64dd5d739dae","ios":"levelo://app?vid=8b0044fa-37e4-42fc-bb47-64dd5d739dae"},"vehicle_type_id":"4","last_reported":1742814516,"current_range_meters":14400,"station_id":"cpo3342slgdg3j2ifvpg","pricing_plan_id":"cebpf4jnsgd1na2vs0mg"},{"bike_id":"e7c12649-b507-4a31-b459-5de93f676a93","system_id":"levelo_inurba_marseille","lat":43.23147,"lon":5.43717,"is_reserved":false,"is_disabled":false,"rental_uris":{"android":"levelo://app?vid=e7c12649-b507-4a31-b459-5de93f676a93","ios":"levelo://app?vid=e7c12649-b507-4a31-b459-5de93f676a93"},"vehicle_type_id":"4","last_reported":1742814516,"current_range_meters":14400,"station_id":"ce4bhmp2rcd13ifvqgog","pricing_plan_id":"cebpf4jnsgd1na2vs0mg"},{"bike_id":"2ded2aef-d386-4b12-bf94-6d80e6034554","system_id":"levelo_inurba_marseille","lat":43.336,"lon":5.4102,"is_reserved":false,"is_disabled":false,"rental_uris":{"android":"levelo://app?vid=2ded2aef-d386-4b12-bf94-6d80e6034554","ios":"levelo://app?vid=2ded2aef-d386-4b12-bf94-6d80e6034554"},"vehicle_type_id":"4","last_reported":1742814516,"current_range_meters":14400,"station_id":"ce4bhqh2rcd13ifvqhmg","pricing_plan_id":"cebpf4jnsgd1na2vs0mg"},{"bike_id":"ef12f1df-58a7-44f9-a515-abbc046895de","system_id":"levelo_inurba_marseille","lat":43.24187,"lon":5.39722,"is_reserved":false,"is_disabled":false,"rental_uris":{"android":"levelo://app?vid=ef12f1df-58a7-44f9-a515-abbc046895de","ios":"levelo://app?vid=ef12f1df-58a7-44f9-a515-abbc046895de"},"vehicle_type_id":"4","last_reported":1742814516,"current_range_meters":14800,"station_id":"ce4bhn12rcd13ifvqgpg","pricing_plan_id":"cebpf4jnsgd1na2vs0mg"},{"bike_id":"24068a25-aec7-4a93-84b4-0ff786d8d93b","system_id":"levelo_inurba_marseille","lat":43.30538,"lon":5.36531,"is_reserved":false,"is_disabled":false,"rental_uris":{"android":"levelo://app?vid=24068a25-aec7-4a93-84b4-0ff786d8d93b","ios":"levelo://app?vid=24068a25-aec7-4a93-84b4-0ff786d8d93b"},"vehicle_type_id":"4","last_reported":1742814516,"current_range_meters":14800,"station_id":"ce4bgs12rcd13ifvqcag","pricing_plan_id":"cebpf4jnsgd1na2vs0mg"},{"bike_id":"ce942f3c-c8bc-45ca-9166-50ef7d5bca2c","system_id":"levelo_inurba_marseille","lat":43.23066,"lon":5.35494,"is_reserved":false,"is_disabled":false,"rental_uris":{"android":"levelo://app?vid=ce942f3c-c8bc-45ca-9166-50ef7d5bca2c","ios":"levelo://app?vid=ce942f3c-c8bc-45ca-9166-50ef7d5bca2c"},"vehicle_type_id":"4","last_reported":1742814516,"current_range_meters":14800,"station_id":"cpo3342slgdg3j2ifvpg","pricing_plan_id":"cebpf4jnsgd1na2vs0mg"},{"bike_id":"c39d698d-c28d-4e7b-ba3e-ce8ac576bdaf","system_id":"levelo_inurba_marseille","lat":43.28487,"lon":5.38414,"is_reserved":false,"is_disabled":false,"rental_uris":{"android":"levelo://app?vid=c39d698d-c28d-4e7b-ba3e-ce8ac576bdaf","ios":"levelo://app?vid=c39d698d-c28d-4e7b-ba3e-ce8ac576bdaf"},"vehicle_type_id":"4","last_reported":1742814516,"current_range_meters":14800,"station_id":"ce4bh512rcd13ifvqe3g","pricing_plan_id":"cebpf4jnsgd1na2vs0mg"},{"bike_id":"1cc087f6-c366-4ed5-99df-b37678ee7b71","system_id":"levelo_inurba_marseille","lat":43.23962,"lon":5.36627,"is_reserved":false,"is_disabled":false,"rental_uris":{"android":"levelo://app?vid=1cc087f6-c366-4ed5-99df-b37678ee7b71","ios":"levelo://app?vid=1cc087f6-c366-4ed5-99df-b37678ee7b71"},"vehicle_type_id":"4","last_reported":1742814516,"current_range_meters":15200,"station_id":"ce4bhi12rcd13ifvqfp0","pricing_plan_id":"cebpf4jnsgd1na2vs0mg"},{"bike_id":"757e9d77-3e68-4058-adbb-ffeaa3762057","system_id":"levelo_inurba_marseille","lat":43.25743,"lon":5.41092,"is_reserved":false,"is_disabled":false,"rental_uris":{"android":"levelo://app?vid=757e9d77-3e68-4058-adbb-ffeaa3762057","ios":"levelo://app?vid=757e9d77-3e68-4058-adbb-ffeaa3762057"},"vehicle_type_id":"4","last_reported":1742814516,"current_range_meters":14800,"station_id":"ce4bhkp2rcd13ifvqgd0","pricing_plan_id":"cebpf4jnsgd1na2vs0mg"},{"bike_id":"b91e64e7-d25b-41c3-a6a4-73a829fb9e24","system_id":"levelo_inurba_marseille","lat":43.24164,"lon":5.39715,"is_reserved":false,"is_disabled":false,"rental_uris":{"android":"levelo://app?vid=b91e64e7-d25b-41c3-a6a4-73a829fb9e24","ios":"levelo://app?vid=b91e64e7-d25b-41c3-a6a4-73a829fb9e24"},"vehicle_type_id":"4","last_reported":1742814516,"current_range_meters":14800,"station_id":"ce4bhn12rcd13ifvqgpg","pricing_plan_id":"cebpf4jnsgd1na2vs0mg"},{"bike_id":"60fc9dc0-aa89-46d1-a71a-98cd30570cb9","system_id":"levelo_inurba_marseille","lat":43.25722,"lon":5.41014,"is_reserved":false,"is_disabled":false,"rental_uris":{"android":"levelo://app?vid=60fc9dc0-aa89-46d1-a71a-98cd30570cb9","ios":"levelo://app?vid=60fc9dc0-aa89-46d1-a71a-98cd30570cb9"},"vehicle_type_id":"4","last_reported":1742814516,"current_range_meters":15200,"station_id":"ce4bhkp2rcd13ifvqgd0","pricing_plan_id":"cebpf4jnsgd1na2vs0mg"},{"bike_id":"658551b1-24cd-4950-91d4-140f8bd28f92","system_id":"levelo_inurba_marseille","lat":43.262137,"lon":5.374383,"is_reserved":false,"is_disabled":false,"rental_uris":{"android":"levelo://app?vid=658551b1-24cd-4950-91d4-140f8bd28f92","ios":"levelo://app?vid=658551b1-24cd-4950-91d4-140f8bd28f92"},"vehicle_type_id":"4","last_reported":1742814516,"current_range_meters":17200,"station_id":"ce4bho92rcd13ifvqh4g","pricing_plan_id":"cebpf4jnsgd1na2vs0mg"},{"bike_id":"11a49c7b-5038-411f-a240-88e098d89f73","system_id":"levelo_inurba_marseille","lat":43.26567,"lon":5.39011,"is_reserved":false,"is_disabled":true,"rental_uris":{"android":"levelo://app?vid=11a49c7b-5038-411f-a240-88e098d89f73","ios":"levelo://app?vid=11a49c7b-5038-411f-a240-88e098d89f73"},"vehicle_type_id":"4","last_reported":1742814516,"current_range_meters":15200,"station_id":"ce4bhe12rcd13ifvqf30","pricing_plan_id":"cebpf4jnsgd1na2vs0mg"},{"bike_id":"5586353e-900d-45b4-b7d4-ea35b43984b6","system_id":"levelo_inurba_marseille","lat":43.27683,"lon":5.38899,"is_reserved":false,"is_disabled":false,"rental_uris":{"android":"levelo://app?vid=5586353e-900d-45b4-b7d4-ea35b43984b6","ios":"levelo://app?vid=5586353e-900d-45b4-b7d4-ea35b43984b6"},"vehicle_type_id":"4","last_reported":1742814516,"current_range_meters":15200,"station_id":"ce4bhi12rcd13ifvqfo0","pricing_plan_id":"cebpf4jnsgd1na2vs0mg"},{"bike_id":"e8d11189-179b-452b-a63c-55efa65fe5c6","system_id":"levelo_inurba_marseille","lat":43.27173,"lon":5.40983,"is_reserved":false,"is_disabled":false,"rental_uris":{"android":"levelo://app?vid=e8d11189-179b-452b-a63c-55efa65fe5c6","ios":"levelo://app?vid=e8d11189-179b-452b-a63c-55efa65fe5c6"},"vehicle_type_id":"4","last_reported":1742814516,"current_range_meters":15200,"station_id":"ce4bhl12rcd13ifvqgf0","pricing_plan_id":"cebpf4jnsgd1na2vs0mg"},{"bike_id":"a9546c06-69dc-4e8a-bf33-853b0f7b0def","system_id":"levelo_inurba_marseille","lat":43.31119,"lon":5.37756,"is_reserved":false,"is_disabled":false,"rental_uris":{"android":"levelo://app?vid=a9546c06-69dc-4e8a-bf33-853b0f7b0def","ios":"levelo://app?vid=a9546c06-69dc-4e8a-bf33-853b0f7b0def"},"vehicle_type_id":"4","last_reported":1742814516,"current_range_meters":16000,"station_id":"ce4bgt92rcd13ifvqcg0","pricing_plan_id":"cebpf4jnsgd1na2vs0mg"},{"bike_id":"2ba0f073-e0c1-4981-8b66-b0ecda6f1fe8","system_id":"levelo_inurba_marseille","lat":43.278,"lon":5.40706,"is_reserved":false,"is_disabled":true,"rental_uris":{"android":"levelo://app?vid=2ba0f073-e0c1-4981-8b66-b0ecda6f1fe8","ios":"levelo://app?vid=2ba0f073-e0c1-4981-8b66-b0ecda6f1fe8"},"vehicle_type_id":"4","last_reported":1742814516,"current_range_meters":16000,"station_id":"ce4bhnh2rcd13ifvqgtg","pricing_plan_id":"cebpf4jnsgd1na2vs0mg"},{"bike_id":"d1adfc43-e43c-4f7c-aa18-df37eb15e88e","system_id":"levelo_inurba_marseille","lat":43.29955,"lon":5.41322,"is_reserved":false,"is_disabled":true,"rental_uris":{"android":"levelo://app?vid=d1adfc43-e43c-4f7c-aa18-df37eb15e88e","ios":"levelo://app?vid=d1adfc43-e43c-4f7c-aa18-df37eb15e88e"},"vehicle_type_id":"4","last_reported":1742814516,"current_range_meters":16000,"station_id":"ce4bhp12rcd13ifvqh9g","pricing_plan_id":"cebpf4jnsgd1na2vs0mg"},{"bike_id":"e07ea2d7-5b46-4660-b60c-44f8cf6d528d","system_id":"levelo_inurba_marseille","lat":43.23146,"lon":5.43719,"is_reserved":false,"is_disabled":false,"rental_uris":{"android":"levelo://app?vid=e07ea2d7-5b46-4660-b60c-44f8cf6d528d","ios":"levelo://app?vid=e07ea2d7-5b46-4660-b60c-44f8cf6d528d"},"vehicle_type_id":"4","last_reported":1742814516,"current_range_meters":16000,"station_id":"ce4bhmp2rcd13ifvqgog","pricing_plan_id":"cebpf4jnsgd1na2vs0mg"},{"bike_id":"6c118103-fd82-493b-86f4-1172b6cd3eaf","system_id":"levelo_inurba_marseille","lat":43.25862,"lon":5.39907,"is_reserved":false,"is_disabled":false,"rental_uris":{"android":"levelo://app?vid=6c118103-fd82-493b-86f4-1172b6cd3eaf","ios":"levelo://app?vid=6c118103-fd82-493b-86f4-1172b6cd3eaf"},"vehicle_type_id":"4","last_reported":1742814516,"current_range_meters":15200,"station_id":"ce4bhl92rcd13ifvqghg","pricing_plan_id":"cebpf4jnsgd1na2vs0mg"},{"bike_id":"57fa4fda-525a-48dd-870b-5c0f46032c4d","system_id":"levelo_inurba_marseille","lat":43.23967,"lon":5.36626,"is_reserved":false,"is_disabled":false,"rental_uris":{"android":"levelo://app?vid=57fa4fda-525a-48dd-870b-5c0f46032c4d","ios":"levelo://app?vid=57fa4fda-525a-48dd-870b-5c0f46032c4d"},"vehicle_type_id":"4","last_reported":1742814516,"current_range_meters":15200,"station_id":"ce4bhi12rcd13ifvqfp0","pricing_plan_id":"cebpf4jnsgd1na2vs0mg"},{"bike_id":"8a7dc508-8681-48c4-8b3e-c86f5ffcc977","system_id":"levelo_inurba_marseille","lat":43.30096,"lon":5.39089,"is_reserved":false,"is_disabled":false,"rental_uris":{"android":"levelo://app?vid=8a7dc508-8681-48c4-8b3e-c86f5ffcc977","ios":"levelo://app?vid=8a7dc508-8681-48c4-8b3e-c86f5ffcc977"},"vehicle_type_id":"4","last_reported":1742814516,"current_range_meters":16000,"station_id":"ce4bh192rcd13ifvqdb0","pricing_plan_id":"cebpf4jnsgd1na2vs0mg"},{"bike_id":"aacabc2e-b5f4-4836-97cb-dd2be5b36748","system_id":"levelo_inurba_marseille","lat":43.30533,"lon":5.3669,"is_reserved":false,"is_disabled":false,"rental_uris":{"android":"levelo://app?vid=aacabc2e-b5f4-4836-97cb-dd2be5b36748","ios":"levelo://app?vid=aacabc2e-b5f4-4836-97cb-dd2be5b36748"},"vehicle_type_id":"4","last_reported":1742814516,"current_range_meters":16000,"station_id":"ce4bgrp2rcd13ifvqc9g","pricing_plan_id":"cebpf4jnsgd1na2vs0mg"},{"bike_id":"6ccd74ca-e32c-4fab-884b-28d942c9806c","system_id":"levelo_inurba_marseille","lat":43.32361,"lon":5.38891,"is_reserved":false,"is_disabled":false,"rental_uris":{"android":"levelo://app?vid=6ccd74ca-e32c-4fab-884b-28d942c9806c","ios":"levelo://app?vid=6ccd74ca-e32c-4fab-884b-28d942c9806c"},"vehicle_type_id":"4","last_reported":1742814516,"current_range_meters":16000,"station_id":"ce4bhqp2rcd13ifvqhog","pricing_plan_id":"cebpf4jnsgd1na2vs0mg"},{"bike_id":"0df9c56d-3f8f-470d-865f-649e11f6a2f0","system_id":"levelo_inurba_marseille","lat":43.29619,"lon":5.37729,"is_reserved":false,"is_disabled":false,"rental_uris":{"android":"levelo://app?vid=0df9c56d-3f8f-470d-865f-649e11f6a2f0","ios":"levelo://app?vid=0df9c56d-3f8f-470d-865f-649e11f6a2f0"},"vehicle_type_id":"4","last_reported":1742814516,"current_range_meters":16000,"station_id":"ce4bgi92rcd13ifvqb90","pricing_plan_id":"cebpf4jnsgd1na2vs0mg"},{"bike_id":"3c5f6d1c-8e84-4f98-930c-f2d0d12ae2dc","system_id":"levelo_inurba_marseille","lat":43.29723,"lon":5.37949,"is_reserved":false,"is_disabled":false,"rental_uris":{"android":"levelo://app?vid=3c5f6d1c-8e84-4f98-930c-f2d0d12ae2dc","ios":"levelo://app?vid=3c5f6d1c-8e84-4f98-930c-f2d0d12ae2dc"},"vehicle_type_id":"4","last_reported":1742814516,"current_range_meters":16400,"station_id":"","pricing_plan_id":"cebpf4jnsgd1na2vs0mg"},{"bike_id":"57b83645-2987-4346-ae33-23cd851c6c26","system_id":"levelo_inurba_marseille","lat":43.25919,"lon":5.40891,"is_reserved":false,"is_disabled":false,"rental_uris":{"android":"levelo://app?vid=57b83645-2987-4346-ae33-23cd851c6c26","ios":"levelo://app?vid=57b83645-2987-4346-ae33-23cd851c6c26"},"vehicle_type_id":"4","last_reported":1742814516,"current_range_meters":16400,"station_id":"ce4bhm92rcd13ifvqglg","pricing_plan_id":"cebpf4jnsgd1na2vs0mg"},{"bike_id":"1dfcca0b-1615-4f07-b489-f72661b8a763","system_id":"levelo_inurba_marseille","lat":43.27901,"lon":5.38008,"is_reserved":false,"is_disabled":false,"rental_uris":{"android":"levelo://app?vid=1dfcca0b-1615-4f07-b489-f72661b8a763","ios":"levelo://app?vid=1dfcca0b-1615-4f07-b489-f72661b8a763"},"vehicle_type_id":"4","last_reported":1742814516,"current_range_meters":16400,"station_id":"ce4bhf92rcd13ifvqf50","pricing_plan_id":"cebpf4jnsgd1na2vs0mg"},{"bike_id":"b4a865ef-5407-4b97-a61f-e52939005fe4","system_id":"levelo_inurba_marseille","lat":43.30874,"lon":5.36809,"is_reserved":false,"is_disabled":false,"rental_uris":{"android":"levelo://app?vid=b4a865ef-5407-4b97-a61f-e52939005fe4","ios":"levelo://app?vid=b4a865ef-5407-4b97-a61f-e52939005fe4"},"vehicle_type_id":"4","last_reported":1742814516,"current_range_meters":16000,"station_id":"ce4bgn92rcd13ifvqbvg","pricing_plan_id":"cebpf4jnsgd1na2vs0mg"},{"bike_id":"ea7cde4d-2353-4207-9f0d-08689e8d76d1","system_id":"levelo_inurba_marseille","lat":43.26808,"lon":5.40246,"is_reserved":false,"is_disabled":false,"rental_uris":{"android":"levelo://app?vid=ea7cde4d-2353-4207-9f0d-08689e8d76d1","ios":"levelo://app?vid=ea7cde4d-2353-4207-9f0d-08689e8d76d1"},"vehicle_type_id":"4","last_reported":1742814516,"current_range_meters":16400,"station_id":"ce501612rcd8frsf0b60","pricing_plan_id":"cebpf4jnsgd1na2vs0mg"},{"bike_id":"9e0aa70d-46be-49fd-ac8d-9cad19ef0031","system_id":"levelo_inurba_marseille","lat":43.30818,"lon":5.37505,"is_reserved":false,"is_disabled":false,"rental_uris":{"android":"levelo://app?vid=9e0aa70d-46be-49fd-ac8d-9cad19ef0031","ios":"levelo://app?vid=9e0aa70d-46be-49fd-ac8d-9cad19ef0031"},"vehicle_type_id":"4","last_reported":1742814516,"current_range_meters":16400,"station_id":"","pricing_plan_id":"cebpf4jnsgd1na2vs0mg"},{"bike_id":"a5446fa9-b2f7-45f6-bfb4-1335cb6018ff","system_id":"levelo_inurba_marseille","lat":43.23062,"lon":5.35483,"is_reserved":false,"is_disabled":false,"rental_uris":{"android":"levelo://app?vid=a5446fa9-b2f7-45f6-bfb4-1335cb6018ff","ios":"levelo://app?vid=a5446fa9-b2f7-45f6-bfb4-1335cb6018ff"},"vehicle_type_id":"4","last_reported":1742814516,"current_range_meters":16400,"station_id":"cpo3342slgdg3j2ifvpg","pricing_plan_id":"cebpf4jnsgd1na2vs0mg"},{"bike_id":"3b92dbdd-25f3-4387-9d5a-02c5bf280819","system_id":"levelo_inurba_marseille","lat":43.24556,"lon":5.39523,"is_reserved":false,"is_disabled":false,"rental_uris":{"android":"levelo://app?vid=3b92dbdd-25f3-4387-9d5a-02c5bf280819","ios":"levelo://app?vid=3b92dbdd-25f3-4387-9d5a-02c5bf280819"},"vehicle_type_id":"4","last_reported":1742814516,"current_range_meters":16400,"station_id":"ce4bhlp2rcd13ifvqgjg","pricing_plan_id":"cebpf4jnsgd1na2vs0mg"},{"bike_id":"5e446086-f538-4f82-8594-55be36e5c271","system_id":"levelo_inurba_marseille","lat":43.30093,"lon":5.39082,"is_reserved":false,"is_disabled":false,"rental_uris":{"android":"levelo://app?vid=5e446086-f538-4f82-8594-55be36e5c271","ios":"levelo://app?vid=5e446086-f538-4f82-8594-55be36e5c271"},"vehicle_type_id":"4","last_reported":1742814516,"current_range_meters":16400,"station_id":"ce4bh192rcd13ifvqdb0","pricing_plan_id":"cebpf4jnsgd1na2vs0mg"},{"bike_id":"0588399f-c86f-433c-b4af-e8e4e2319b08","system_id":"levelo_inurba_marseille","lat":43.32107,"lon":5.36773,"is_reserved":false,"is_disabled":false,"rental_uris":{"android":"levelo://app?vid=0588399f-c86f-433c-b4af-e8e4e2319b08","ios":"levelo://app?vid=0588399f-c86f-433c-b4af-e8e4e2319b08"},"vehicle_type_id":"4","last_reported":1742814516,"current_range_meters":16400,"station_id":"ce4bhrh2rcd13ifvqhug","pricing_plan_id":"cebpf4jnsgd1na2vs0mg"},{"bike_id":"416a93e2-5a6e-4d3e-a5fd-e328f231823b","system_id":"levelo_inurba_marseille","lat":43.2846,"lon":5.38551,"is_reserved":false,"is_disabled":false,"rental_uris":{"android":"levelo://app?vid=416a93e2-5a6e-4d3e-a5fd-e328f231823b","ios":"levelo://app?vid=416a93e2-5a6e-4d3e-a5fd-e328f231823b"},"vehicle_type_id":"4","last_reported":1742814516,"current_range_meters":16400,"station_id":"ce4bh8p2rcd13ifvqeb0","pricing_plan_id":"cebpf4jnsgd1na2vs0mg"},{"bike_id":"da17f9f3-fe2b-4ad6-abcd-b9d45c002f2e","system_id":"levelo_inurba_marseille","lat":43.27935,"lon":5.41048,"is_reserved":false,"is_disabled":false,"rental_uris":{"android":"levelo://app?vid=da17f9f3-fe2b-4ad6-abcd-b9d45c002f2e","ios":"levelo://app?vid=da17f9f3-fe2b-4ad6-abcd-b9d45c002f2e"},"vehicle_type_id":"4","last_reported":1742814516,"current_range_meters":16400,"station_id":"ce4bhnp2rcd13ifvqh0g","pricing_plan_id":"cebpf4jnsgd1na2vs0mg"},{"bike_id":"68bf77d1-f7b2-4f13-a7d4-868a5c8aaa5b","system_id":"levelo_inurba_marseille","lat":43.246481,"lon":5.389,"is_reserved":false,"is_disabled":false,"rental_uris":{"android":"levelo://app?vid=68bf77d1-f7b2-4f13-a7d4-868a5c8aaa5b","ios":"levelo://app?vid=68bf77d1-f7b2-4f13-a7d4-868a5c8aaa5b"},"vehicle_type_id":"4","last_reported":1742814516,"current_range_meters":16400,"station_id":"ce4bhg12rcd13ifvqf60","pricing_plan_id":"cebpf4jnsgd1na2vs0mg"},{"bike_id":"46fc8030-f736-4758-8fff-960db363a17e","system_id":"levelo_inurba_marseille","lat":43.30141,"lon":5.37455,"is_reserved":false,"is_disabled":true,"rental_uris":{"android":"levelo://app?vid=46fc8030-f736-4758-8fff-960db363a17e","ios":"levelo://app?vid=46fc8030-f736-4758-8fff-960db363a17e"},"vehicle_type_id":"4","last_reported":1742814516,"current_range_meters":16400,"station_id":"ce4bgs92rcd13ifvqcc0","pricing_plan_id":"cebpf4jnsgd1na2vs0mg"},{"bike_id":"d0378c28-2ab6-47f3-9248-f012c7b13062","system_id":"levelo_inurba_marseille","lat":43.27674,"lon":5.38922,"is_reserved":false,"is_disabled":true,"rental_uris":{"android":"levelo://app?vid=d0378c28-2ab6-47f3-9248-f012c7b13062","ios":"levelo://app?vid=d0378c28-2ab6-47f3-9248-f012c7b13062"},"vehicle_type_id":"4","last_reported":1742814516,"current_range_meters":16800,"station_id":"ce4bhi12rcd13ifvqfo0","pricing_plan_id":"cebpf4jnsgd1na2vs0mg"},{"bike_id":"eacd5ebb-de17-45f6-9755-15b1dd2ae8a6","system_id":"levelo_inurba_marseille","lat":43.3376,"lon":5.37476,"is_reserved":false,"is_disabled":false,"rental_uris":{"android":"levelo://app?vid=eacd5ebb-de17-45f6-9755-15b1dd2ae8a6","ios":"levelo://app?vid=eacd5ebb-de17-45f6-9755-15b1dd2ae8a6"},"vehicle_type_id":"4","last_reported":1742814516,"current_range_meters":16800,"station_id":"","pricing_plan_id":"cebpf4jnsgd1na2vs0mg"},{"bike_id":"2f0a20ac-ab44-41f3-b6bc-4c1004a02af6","system_id":"levelo_inurba_marseille","lat":43.24652,"lon":5.38886,"is_reserved":false,"is_disabled":false,"rental_uris":{"android":"levelo://app?vid=2f0a20ac-ab44-41f3-b6bc-4c1004a02af6","ios":"levelo://app?vid=2f0a20ac-ab44-41f3-b6bc-4c1004a02af6"},"vehicle_type_id":"4","last_reported":1742814516,"current_range_meters":16800,"station_id":"ce4bhg12rcd13ifvqf60","pricing_plan_id":"cebpf4jnsgd1na2vs0mg"},{"bike_id":"39c676cc-ab07-440d-8906-a7ef3c8cf252","system_id":"levelo_inurba_marseille","lat":43.2577,"lon":5.41028,"is_reserved":false,"is_disabled":false,"rental_uris":{"android":"levelo://app?vid=39c676cc-ab07-440d-8906-a7ef3c8cf252","ios":"levelo://app?vid=39c676cc-ab07-440d-8906-a7ef3c8cf252"},"vehicle_type_id":"4","last_reported":1742814516,"current_range_meters":16800,"station_id":"","pricing_plan_id":"cebpf4jnsgd1na2vs0mg"},{"bike_id":"71a0dc20-d26b-4d99-a306-0fcb263b6e66","system_id":"levelo_inurba_marseille","lat":43.31234,"lon":5.36871,"is_reserved":false,"is_disabled":false,"rental_uris":{"android":"levelo://app?vid=71a0dc20-d26b-4d99-a306-0fcb263b6e66","ios":"levelo://app?vid=71a0dc20-d26b-4d99-a306-0fcb263b6e66"},"vehicle_type_id":"4","last_reported":1742814516,"current_range_meters":16800,"station_id":"ce4bgl92rcd13ifvqbq0","pricing_plan_id":"cebpf4jnsgd1na2vs0mg"},{"bike_id":"0d052b9d-ee0e-4ced-8964-60aaa9554e1c","system_id":"levelo_inurba_marseille","lat":43.26804,"lon":5.40264,"is_reserved":false,"is_disabled":false,"rental_uris":{"android":"levelo://app?vid=0d052b9d-ee0e-4ced-8964-60aaa9554e1c","ios":"levelo://app?vid=0d052b9d-ee0e-4ced-8964-60aaa9554e1c"},"vehicle_type_id":"4","last_reported":1742814516,"current_range_meters":16800,"station_id":"ce501612rcd8frsf0b60","pricing_plan_id":"cebpf4jnsgd1na2vs0mg"},{"bike_id":"47e2694e-5505-4c9e-a74f-54bc5c942706","system_id":"levelo_inurba_marseille","lat":43.30321,"lon":5.36878,"is_reserved":false,"is_disabled":false,"rental_uris":{"android":"levelo://app?vid=47e2694e-5505-4c9e-a74f-54bc5c942706","ios":"levelo://app?vid=47e2694e-5505-4c9e-a74f-54bc5c942706"},"vehicle_type_id":"4","last_reported":1742814516,"current_range_meters":16800,"station_id":"ce4bgqh2rcd13ifvqc5g","pricing_plan_id":"cebpf4jnsgd1na2vs0mg"},{"bike_id":"067c4189-50ff-4e88-8d1d-d5468d7c6bf8","system_id":"levelo_inurba_marseille","lat":43.27187,"lon":5.40989,"is_reserved":false,"is_disabled":false,"rental_uris":{"android":"levelo://app?vid=067c4189-50ff-4e88-8d1d-d5468d7c6bf8","ios":"levelo://app?vid=067c4189-50ff-4e88-8d1d-d5468d7c6bf8"},"vehicle_type_id":"4","last_reported":1742814516,"current_range_meters":16800,"station_id":"ce4bhl12rcd13ifvqgf0","pricing_plan_id":"cebpf4jnsgd1na2vs0mg"},{"bike_id":"6d1fcfdc-34ac-48bc-af1f-051d5119986e","system_id":"levelo_inurba_marseille","lat":43.23154,"lon":5.43701,"is_reserved":false,"is_disabled":false,"rental_uris":{"android":"levelo://app?vid=6d1fcfdc-34ac-48bc-af1f-051d5119986e","ios":"levelo://app?vid=6d1fcfdc-34ac-48bc-af1f-051d5119986e"},"vehicle_type_id":"4","last_reported":1742814516,"current_range_meters":16800,"station_id":"ce4bhmp2rcd13ifvqgog","pricing_plan_id":"cebpf4jnsgd1na2vs0mg"},{"bike_id":"1989f9c3-6156-47a7-8f6e-689a009b64a2","system_id":"levelo_inurba_marseille","lat":43.31214,"lon":5.36874,"is_reserved":false,"is_disabled":false,"rental_uris":{"android":"levelo://app?vid=1989f9c3-6156-47a7-8f6e-689a009b64a2","ios":"levelo://app?vid=1989f9c3-6156-47a7-8f6e-689a009b64a2"},"vehicle_type_id":"4","last_reported":1742814516,"current_range_meters":17200,"station_id":"ce4bgl92rcd13ifvqbq0","pricing_plan_id":"cebpf4jnsgd1na2vs0mg"},{"bike_id":"7f869988-23aa-407e-80d8-3b578867d0d0","system_id":"levelo_inurba_marseille","lat":43.31222,"lon":5.36891,"is_reserved":false,"is_disabled":false,"rental_uris":{"android":"levelo://app?vid=7f869988-23aa-407e-80d8-3b578867d0d0","ios":"levelo://app?vid=7f869988-23aa-407e-80d8-3b578867d0d0"},"vehicle_type_id":"4","last_reported":1742814516,"current_range_meters":17200,"station_id":"ce4bgl92rcd13ifvqbq0","pricing_plan_id":"cebpf4jnsgd1na2vs0mg"},{"bike_id":"33fcddcc-43ee-449f-8136-08f4b0a5738b","system_id":"levelo_inurba_marseille","lat":43.30594,"lon":5.39345,"is_reserved":false,"is_disabled":true,"rental_uris":{"android":"levelo://app?vid=33fcddcc-43ee-449f-8136-08f4b0a5738b","ios":"levelo://app?vid=33fcddcc-43ee-449f-8136-08f4b0a5738b"},"vehicle_type_id":"4","last_reported":1742814516,"current_range_meters":17200,"station_id":"ce4bh0p2rcd13ifvqd80","pricing_plan_id":"cebpf4jnsgd1na2vs0mg"},{"bike_id":"6d2b811a-9175-4f6a-8eab-9e25f99d5847","system_id":"levelo_inurba_marseille","lat":43.3095,"lon":5.39042,"is_reserved":false,"is_disabled":false,"rental_uris":{"android":"levelo://app?vid=6d2b811a-9175-4f6a-8eab-9e25f99d5847","ios":"levelo://app?vid=6d2b811a-9175-4f6a-8eab-9e25f99d5847"},"vehicle_type_id":"4","last_reported":1742814516,"current_range_meters":17200,"station_id":"","pricing_plan_id":"cebpf4jnsgd1na2vs0mg"},{"bike_id":"fb7a185f-7de9-4e66-b150-f4dd3549937c","system_id":"levelo_inurba_marseille","lat":43.23966,"lon":5.36615,"is_reserved":false,"is_disabled":false,"rental_uris":{"android":"levelo://app?vid=fb7a185f-7de9-4e66-b150-f4dd3549937c","ios":"levelo://app?vid=fb7a185f-7de9-4e66-b150-f4dd3549937c"},"vehicle_type_id":"4","last_reported":1742814516,"current_range_meters":17200,"station_id":"ce4bhi12rcd13ifvqfp0","pricing_plan_id":"cebpf4jnsgd1na2vs0mg"},{"bike_id":"7f9b2e17-cff5-4571-89a8-faf216bdaffa","system_id":"levelo_inurba_marseille","lat":43.25374,"lon":5.41342,"is_reserved":false,"is_disabled":false,"rental_uris":{"android":"levelo://app?vid=7f9b2e17-cff5-4571-89a8-faf216bdaffa","ios":"levelo://app?vid=7f9b2e17-cff5-4571-89a8-faf216bdaffa"},"vehicle_type_id":"4","last_reported":1742814516,"current_range_meters":17200,"station_id":"","pricing_plan_id":"cebpf4jnsgd1na2vs0mg"},{"bike_id":"82f07b90-b4ea-45bc-9117-3b0a0b315f4e","system_id":"levelo_inurba_marseille","lat":43.24997,"lon":5.38925,"is_reserved":false,"is_disabled":false,"rental_uris":{"android":"levelo://app?vid=82f07b90-b4ea-45bc-9117-3b0a0b315f4e","ios":"levelo://app?vid=82f07b90-b4ea-45bc-9117-3b0a0b315f4e"},"vehicle_type_id":"4","last_reported":1742814516,"current_range_meters":17200,"station_id":"ce4bhgp2rcd13ifvqfd0","pricing_plan_id":"cebpf4jnsgd1na2vs0mg"},{"bike_id":"0ee6d451-5fff-4008-a6a3-d6c89031f1f5","system_id":"levelo_inurba_marseille","lat":43.29613,"lon":5.37727,"is_reserved":false,"is_disabled":false,"rental_uris":{"android":"levelo://app?vid=0ee6d451-5fff-4008-a6a3-d6c89031f1f5","ios":"levelo://app?vid=0ee6d451-5fff-4008-a6a3-d6c89031f1f5"},"vehicle_type_id":"4","last_reported":1742814516,"current_range_meters":17200,"station_id":"ce4bgi92rcd13ifvqb90","pricing_plan_id":"cebpf4jnsgd1na2vs0mg"},{"bike_id":"410d90ce-ebc7-41c9-afc5-e552e9ec6d8e","system_id":"levelo_inurba_marseille","lat":43.230703,"lon":5.354926,"is_reserved":false,"is_disabled":true,"rental_uris":{"android":"levelo://app?vid=410d90ce-ebc7-41c9-afc5-e552e9ec6d8e","ios":"levelo://app?vid=410d90ce-ebc7-41c9-afc5-e552e9ec6d8e"},"vehicle_type_id":"4","last_reported":1742814516,"current_range_meters":17200,"station_id":"cpo3342slgdg3j2ifvpg","pricing_plan_id":"cebpf4jnsgd1na2vs0mg"},{"bike_id":"e246959c-006c-4734-9362-62ca6d0116b2","system_id":"levelo_inurba_marseille","lat":43.2417,"lon":5.39727,"is_reserved":false,"is_disabled":false,"rental_uris":{"android":"levelo://app?vid=e246959c-006c-4734-9362-62ca6d0116b2","ios":"levelo://app?vid=e246959c-006c-4734-9362-62ca6d0116b2"},"vehicle_type_id":"4","last_reported":1742814516,"current_range_meters":17200,"station_id":"ce4bhn12rcd13ifvqgpg","pricing_plan_id":"cebpf4jnsgd1na2vs0mg"},{"bike_id":"63efce5d-ac8d-4433-9526-275c7a7c737d","system_id":"levelo_inurba_marseille","lat":43.24539,"lon":5.39513,"is_reserved":false,"is_disabled":false,"rental_uris":{"android":"levelo://app?vid=63efce5d-ac8d-4433-9526-275c7a7c737d","ios":"levelo://app?vid=63efce5d-ac8d-4433-9526-275c7a7c737d"},"vehicle_type_id":"4","last_reported":1742814516,"current_range_meters":17600,"station_id":"ce4bhlp2rcd13ifvqgjg","pricing_plan_id":"cebpf4jnsgd1na2vs0mg"},{"bike_id":"9c910ab4-fbc4-4fdc-9e17-21fd1add59ce","system_id":"levelo_inurba_marseille","lat":43.23141,"lon":5.43703,"is_reserved":false,"is_disabled":false,"rental_uris":{"android":"levelo://app?vid=9c910ab4-fbc4-4fdc-9e17-21fd1add59ce","ios":"levelo://app?vid=9c910ab4-fbc4-4fdc-9e17-21fd1add59ce"},"vehicle_type_id":"4","last_reported":1742814516,"current_range_meters":17600,"station_id":"ce4bhmp2rcd13ifvqgog","pricing_plan_id":"cebpf4jnsgd1na2vs0mg"},{"bike_id":"d986c5df-ac35-44a9-9b58-ccbbbcdad740","system_id":"levelo_inurba_marseille","lat":43.23964,"lon":5.36621,"is_reserved":false,"is_disabled":false,"rental_uris":{"android":"levelo://app?vid=d986c5df-ac35-44a9-9b58-ccbbbcdad740","ios":"levelo://app?vid=d986c5df-ac35-44a9-9b58-ccbbbcdad740"},"vehicle_type_id":"4","last_reported":1742814516,"current_range_meters":17600,"station_id":"ce4bhi12rcd13ifvqfp0","pricing_plan_id":"cebpf4jnsgd1na2vs0mg"},{"bike_id":"7c5e495e-a4fe-44d2-8a9d-3caa1e3e3f04","system_id":"levelo_inurba_marseille","lat":43.32475,"lon":5.36584,"is_reserved":false,"is_disabled":false,"rental_uris":{"android":"levelo://app?vid=7c5e495e-a4fe-44d2-8a9d-3caa1e3e3f04","ios":"levelo://app?vid=7c5e495e-a4fe-44d2-8a9d-3caa1e3e3f04"},"vehicle_type_id":"4","last_reported":1742814516,"current_range_meters":17600,"station_id":"ce4bhs12rcd13ifvqhvg","pricing_plan_id":"cebpf4jnsgd1na2vs0mg"},{"bike_id":"d2facb37-73d1-46b8-8ff4-6d04ce0631bc","system_id":"levelo_inurba_marseille","lat":43.293,"lon":5.37447,"is_reserved":false,"is_disabled":false,"rental_uris":{"android":"levelo://app?vid=d2facb37-73d1-46b8-8ff4-6d04ce0631bc","ios":"levelo://app?vid=d2facb37-73d1-46b8-8ff4-6d04ce0631bc"},"vehicle_type_id":"4","last_reported":1742814516,"current_range_meters":17600,"station_id":"ce4bgi12rcd13ifvqb70","pricing_plan_id":"cebpf4jnsgd1na2vs0mg"},{"bike_id":"54f50533-19ab-42a2-a18b-1488c3affc33","system_id":"levelo_inurba_marseille","lat":43.3013,"lon":5.37414,"is_reserved":false,"is_disabled":false,"rental_uris":{"android":"levelo://app?vid=54f50533-19ab-42a2-a18b-1488c3affc33","ios":"levelo://app?vid=54f50533-19ab-42a2-a18b-1488c3affc33"},"vehicle_type_id":"4","last_reported":1742814516,"current_range_meters":17600,"station_id":"ce4bgs92rcd13ifvqcc0","pricing_plan_id":"cebpf4jnsgd1na2vs0mg"},{"bike_id":"24bf3895-921c-4337-95f0-7d1f0f3e28b3","system_id":"levelo_inurba_marseille","lat":43.28483,"lon":5.38532,"is_reserved":false,"is_disabled":true,"rental_uris":{"android":"levelo://app?vid=24bf3895-921c-4337-95f0-7d1f0f3e28b3","ios":"levelo://app?vid=24bf3895-921c-4337-95f0-7d1f0f3e28b3"},"vehicle_type_id":"4","last_reported":1742814516,"current_range_meters":17600,"station_id":"ce4bh8p2rcd13ifvqeb0","pricing_plan_id":"cebpf4jnsgd1na2vs0mg"},{"bike_id":"81c9fdca-a6b5-4e9c-a33d-dbc5d9b7a10d","system_id":"levelo_inurba_marseille","lat":43.30316,"lon":5.36903,"is_reserved":false,"is_disabled":false,"rental_uris":{"android":"levelo://app?vid=81c9fdca-a6b5-4e9c-a33d-dbc5d9b7a10d","ios":"levelo://app?vid=81c9fdca-a6b5-4e9c-a33d-dbc5d9b7a10d"},"vehicle_type_id":"4","last_reported":1742814516,"current_range_meters":18000,"station_id":"ce4bgqh2rcd13ifvqc5g","pricing_plan_id":"cebpf4jnsgd1na2vs0mg"},{"bike_id":"767a4e7d-df85-43ef-9c2d-d4f5f297e1a3","system_id":"levelo_inurba_marseille","lat":43.30121,"lon":5.39869,"is_reserved":false,"is_disabled":true,"rental_uris":{"android":"levelo://app?vid=767a4e7d-df85-43ef-9c2d-d4f5f297e1a3","ios":"levelo://app?vid=767a4e7d-df85-43ef-9c2d-d4f5f297e1a3"},"vehicle_type_id":"4","last_reported":1742814516,"current_range_meters":18000,"station_id":"ce4bh0h2rcd13ifvqd40","pricing_plan_id":"cebpf4jnsgd1na2vs0mg"},{"bike_id":"a0a76abd-f1a0-42b4-b75c-cc3cea312f46","system_id":"levelo_inurba_marseille","lat":43.30557,"lon":5.36724,"is_reserved":false,"is_disabled":false,"rental_uris":{"android":"levelo://app?vid=a0a76abd-f1a0-42b4-b75c-cc3cea312f46","ios":"levelo://app?vid=a0a76abd-f1a0-42b4-b75c-cc3cea312f46"},"vehicle_type_id":"4","last_reported":1742814516,"current_range_meters":18000,"station_id":"ce4bgrp2rcd13ifvqc9g","pricing_plan_id":"cebpf4jnsgd1na2vs0mg"},{"bike_id":"071eeb20-7824-4630-861c-9142e4aabd12","system_id":"levelo_inurba_marseille","lat":43.2657,"lon":5.39006,"is_reserved":false,"is_disabled":false,"rental_uris":{"android":"levelo://app?vid=071eeb20-7824-4630-861c-9142e4aabd12","ios":"levelo://app?vid=071eeb20-7824-4630-861c-9142e4aabd12"},"vehicle_type_id":"4","last_reported":1742814516,"current_range_meters":18000,"station_id":"ce4bhe12rcd13ifvqf30","pricing_plan_id":"cebpf4jnsgd1na2vs0mg"},{"bike_id":"5fb395ec-01ca-4e72-979e-8177b5793f5d","system_id":"levelo_inurba_marseille","lat":43.29013,"lon":5.38157,"is_reserved":false,"is_disabled":false,"rental_uris":{"android":"levelo://app?vid=5fb395ec-01ca-4e72-979e-8177b5793f5d","ios":"levelo://app?vid=5fb395ec-01ca-4e72-979e-8177b5793f5d"},"vehicle_type_id":"4","last_reported":1742814516,"current_range_meters":18000,"station_id":"ce4bh4p2rcd13ifvqe1g","pricing_plan_id":"cebpf4jnsgd1na2vs0mg"},