{"last_updated":1739925959,"ttl":60,"version":"2.2","data":{"bikes":[{"bike_id":"1242f1ce-bafc-425c-9527-1715639e4a35","system_id":"levelo_inurba_marseille","lat":43.2512,"lon":5.40319,"is_reserved":false,"is_disabled":false,"rental_uris":{"android":"levelo://app?vid=1242f1ce-bafc-425c-9527-1715639e4a35","ios":"levelo://app?vid=1242f1ce-bafc-425c-9527-1715639e4a35"},"vehicle_type_id":"4","last_reported":1739925959,"current_range_meters":3200,"station_id":"ce4bhlh2rcd13ifvqgig","pricing_plan_id":"cebpf4jnsgd1na2vs0mg"},{"bike_id":"357fe735-a389-4078-bae8-5922263c3a6a","system_id":"levelo_inurba_marseille","lat":43.2867,"lon":5.36342,"is_reserved":false,"is_disabled":false,"rental_uris":{"android":"levelo://app?vid=357fe735-a389-4078-bae8-5922263c3a6a","ios":"levelo://app?vid=357fe735-a389-4078-bae8-5922263c3a6a"},"vehicle_type_id":"4","last_reported":1739925959,"current_range_meters":3600,"station_id":"ce4bhah2rcd13ifvqej0","pricing_plan_id":"cebpf4jnsgd1na2vs0mg"},{"bike_id":"98dafedc-f25b-409d-b3e2-803b47ffb900","system_id":"levelo_inurba_marseille","lat":43.33758,"lon":5.37503,"is_reserved":false,"is_disabled":false,"rental_uris":{"android":"levelo://app?vid=98dafedc-f25b-409d-b3e2-803b47ffb900","ios":"levelo://app?vid=98dafedc-f25b-409d-b3e2-803b47ffb900"},"vehicle_type_id":"4","last_reported":1739925959,"current_range_meters":3600,"station_id":"","pricing_plan_id":"cebpf4jnsgd1na2vs0mg"},{"bike_id":"635050f9-a2c9-4910-8267-ff5a32e2982d","system_id":"levelo_inurba_marseille","lat":43.24811,"lon":5.37455,"is_reserved":false,"is_disabled":false,"rental_uris":{"android":"levelo://app?vid=635050f9-a2c9-4910-8267-ff5a32e2982d","ios":"levelo://app?vid=635050f9-a2c9-4910-8267-ff5a32e2982d"},"vehicle_type_id":"4","last_reported":1739925959,"current_range_meters":3600,"station_id":"","pricing_plan_id":"cebpf4jnsgd1na2vs0mg"},{"bike_id":"828f024f-3fa3-492e-b4f4-7bfb9d5e214d","system_id":"levelo_inurba_marseille","lat":43.27072,"lon":5.42281,"is_reserved":false,"is_disabled":true,"rental_uris":{"android":"levelo://app?vid=828f024f-3fa3-492e-b4f4-7bfb9d5e214d","ios":"levelo://app?vid=828f024f-3fa3-492e-b4f4-7bfb9d5e214d"},"vehicle_type_id":"4","last_reported":1739925959,"current_range_meters":4000,"station_id":"ce4bhk92rcd13ifvqgb0","pricing_plan_id":"cebpf4jnsgd1na2vs0mg"},{"bike_id":"7b85ab77-b4da-49c0-828e-288db2e9b9ca","system_id":"levelo_inurba_marseille","lat":43.27818,"lon":5.39212,"is_reserved":false,"is_disabled":false,"rental_uris":{"android":"levelo://app?vid=7b85ab77-b4da-49c0-828e-288db2e9b9ca","ios":"levelo://app?vid=7b85ab77-b4da-49c0-828e-288db2e9b9ca"},"vehicle_type_id":"4","last_reported":1739925959,"current_range_meters":4400,"station_id":"ce4bhjp2rcd13ifvqga0","pricing_plan_id":"cebpf4jnsgd1na2vs0mg"},{"bike_id":"2fc51c18-93da-4c7a-ae54-30bc1bf5f64d","system_id":"levelo_inurba_marseille","lat":43.2951,"lon":5.38198,"is_reserved":false,"is_disabled":true,"rental_uris":{"android":"levelo://app?vid=2fc51c18-93da-4c7a-ae54-30bc1bf5f64d","ios":"levelo://app?vid=2fc51c18-93da-4c7a-ae54-30bc1bf5f64d"},"vehicle_type_id":"4","last_reported":1739925959,"current_range_meters":4800,"station_id":"","pricing_plan_id":"cebpf4jnsgd1na2vs0mg"},{"bike_id":"25dcf690-db42-4694-9c97-37e209bee538","system_id":"levelo_inurba_marseille","lat":43.24655,"lon":5.38887,"is_reserved":false,"is_disabled":false,"rental_uris":{"android":"levelo://app?vid=25dcf690-db42-4694-9c97-37e209bee538","ios":"levelo://app?vid=25dcf690-db42-4694-9c97-37e209bee538"},"vehicle_type_id":"4","last_reported":1739925959,"current_range_meters":5600,"station_id":"ce4bhg12rcd13ifvqf60","pricing_plan_id":"cebpf4jnsgd1na2vs0mg"},{"bike_id":"811901b7-6a39-4b98-9209-f363e05c2482","system_id":"levelo_inurba_marseille","lat":43.28118,"lon":5.42607,"is_reserved":false,"is_disabled":false,"rental_uris":{"android":"levelo://app?vid=811901b7-6a39-4b98-9209-f363e05c2482","ios":"levelo://app?vid=811901b7-6a39-4b98-9209-f363e05c2482"},"vehicle_type_id":"4","last_reported":1739925959,"current_range_meters":5600,"station_id":"ce4bhnh2rcd13ifvqgug","pricing_plan_id":"cebpf4jnsgd1na2vs0mg"},{"bike_id":"427b0dee-fa52-4bd3-ac45-08f5b6aa2862","system_id":"levelo_inurba_marseille","lat":43.28453,"lon":5.35883,"is_reserved":false,"is_disabled":false,"rental_uris":{"android":"levelo://app?vid=427b0dee-fa52-4bd3-ac45-08f5b6aa2862","ios":"levelo://app?vid=427b0dee-fa52-4bd3-ac45-08f5b6aa2862"},"vehicle_type_id":"4","last_reported":1739925959,"current_range_meters":6000,"station_id":"ce4bhah2rcd13ifvqei0","pricing_plan_id":"cebpf4jnsgd1na2vs0mg"},{"bike_id":"d26850d0-243b-45ca-ad06-7a292cc6551f","system_id":"levelo_inurba_marseille","lat":43.23959,"lon":5.36628,"is_reserved":false,"is_disabled":false,"rental_uris":{"android":"levelo://app?vid=d26850d0-243b-45ca-ad06-7a292cc6551f","ios":"levelo://app?vid=d26850d0-243b-45ca-ad06-7a292cc6551f"},"vehicle_type_id":"4","last_reported":1739925959,"current_range_meters":6000,"station_id":"ce4bhi12rcd13ifvqfp0","pricing_plan_id":"cebpf4jnsgd1na2vs0mg"},{"bike_id":"79cd125d-096e-49ef-87ce-fc49628ea344","system_id":"levelo_inurba_marseille","lat":43.30607,"lon":5.39338,"is_reserved":false,"is_disabled":false,"rental_uris":{"android":"levelo://app?vid=79cd125d-096e-49ef-87ce-fc49628ea344","ios":"levelo://app?vid=79cd125d-096e-49ef-87ce-fc49628ea344"},"vehicle_type_id":"4","last_reported":1739925959,"current_range_meters":6000,"station_id":"ce4bh0p2rcd13ifvqd80","pricing_plan_id":"cebpf4jnsgd1na2vs0mg"},{"bike_id":"f301f0ca-9a74-4b1b-95f5-7641143983d6","system_id":"levelo_inurba_marseille","lat":43.25083,"lon":5.39517,"is_reserved":false,"is_disabled":false,"rental_uris":{"android":"levelo://app?vid=f301f0ca-9a74-4b1b-95f5-7641143983d6","ios":"levelo://app?vid=f301f0ca-9a74-4b1b-95f5-7641143983d6"},"vehicle_type_id":"4","last_reported":1739925959,"current_range_meters":6000,"station_id":"ce4bhm12rcd13ifvqgkg","pricing_plan_id":"cebpf4jnsgd1na2vs0mg"},{"bike_id":"020f9db3-6048-4a83-8c59-4acc533112c8","system_id":"levelo_inurba_marseille","lat":43.28157,"lon":5.42622,"is_reserved":false,"is_disabled":false,"rental_uris":{"android":"levelo://app?vid=020f9db3-6048-4a83-8c59-4acc533112c8","ios":"levelo://app?vid=020f9db3-6048-4a83-8c59-4acc533112c8"},"vehicle_type_id":"4","last_reported":1739925959,"current_range_meters":6400,"station_id":"ce4bhnh2rcd13ifvqgug","pricing_plan_id":"cebpf4jnsgd1na2vs0mg"},{"bike_id":"6619481b-c4dc-4a32-9900-753ecba9765b","system_id":"levelo_inurba_marseille","lat":43.29476,"lon":5.43836,"is_reserved":false,"is_disabled":false,"rental_uris":{"android":"levelo://app?vid=6619481b-c4dc-4a32-9900-753ecba9765b","ios":"levelo://app?vid=6619481b-c4dc-4a32-9900-753ecba9765b"},"vehicle_type_id":"4","last_reported":1739925959,"current_range_meters":6400,"station_id":"","pricing_plan_id":"cebpf4jnsgd1na2vs0mg"},{"bike_id":"3f8a7573-ed17-44ef-ba58-3ffcbe5d2815","system_id":"levelo_inurba_marseille","lat":43.28799,"lon":5.39139,"is_reserved":false,"is_disabled":true,"rental_uris":{"android":"levelo://app?vid=3f8a7573-ed17-44ef-ba58-3ffcbe5d2815","ios":"levelo://app?vid=3f8a7573-ed17-44ef-ba58-3ffcbe5d2815"},"vehicle_type_id":"4","last_reported":1739925959,"current_range_meters":6400,"station_id":"","pricing_plan_id":"cebpf4jnsgd1na2vs0mg"},{"bike_id":"80013539-cfab-4c1a-834a-dd957c015eb9","system_id":"levelo_inurba_marseille","lat":43.27048,"lon":5.40275,"is_reserved":false,"is_disabled":false,"rental_uris":{"android":"levelo://app?vid=80013539-cfab-4c1a-834a-dd957c015eb9","ios":"levelo://app?vid=80013539-cfab-4c1a-834a-dd957c015eb9"},"vehicle_type_id":"4","last_reported":1739925959,"current_range_meters":6800,"station_id":"ce4bhk92rcd13ifvqgc0","pricing_plan_id":"cebpf4jnsgd1na2vs0mg"},{"bike_id":"cb3cef2b-66e9-48a6-9bcb-2842452463cf","system_id":"levelo_inurba_marseille","lat":43.26947,"lon":5.40284,"is_reserved":false,"is_disabled":false,"rental_uris":{"android":"levelo://app?vid=cb3cef2b-66e9-48a6-9bcb-2842452463cf","ios":"levelo://app?vid=cb3cef2b-66e9-48a6-9bcb-2842452463cf"},"vehicle_type_id":"4","last_reported":1739925959,"current_range_meters":6800,"station_id":"cjm6bp8fraef2m0cb0m0","pricing_plan_id":"cebpf4jnsgd1na2vs0mg"},{"bike_id":"6528e792-6c2b-41ab-b102-37d30001a0e7","system_id":"levelo_inurba_marseille","lat":43.27208,"lon":5.40099,"is_reserved":false,"is_disabled":false,"rental_uris":{"android":"levelo://app?vid=6528e792-6c2b-41ab-b102-37d30001a0e7","ios":"levelo://app?vid=6528e792-6c2b-41ab-b102-37d30001a0e7"},"vehicle_type_id":"4","last_reported":1739925959,"current_range_meters":6800,"station_id":"","pricing_plan_id":"cebpf4jnsgd1na2vs0mg"},{"bike_id":"f40ecb63-308a-4679-8a2e-bdf98057674d","system_id":"levelo_inurba_marseille","lat":43.29276,"lon":5.40162,"is_reserved":false,"is_disabled":false,"rental_uris":{"android":"levelo://app?vid=f40ecb63-308a-4679-8a2e-bdf98057674d","ios":"levelo://app?vid=f40ecb63-308a-4679-8a2e-bdf98057674d"},"vehicle_type_id":"4","last_reported":1739925959,"current_range_meters":6800,"station_id":"ce4bh312rcd13ifvqdk0","pricing_plan_id":"cebpf4jnsgd1na2vs0mg"},{"bike_id":"ed322256-cd91-4434-b404-49332559415f","system_id":"levelo_inurba_marseille","lat":43.31116,"lon":5.37774,"is_reserved":false,"is_disabled":false,"rental_uris":{"android":"levelo://app?vid=ed322256-cd91-4434-b404-49332559415f","ios":"levelo://app?vid=ed322256-cd91-4434-b404-49332559415f"},"vehicle_type_id":"4","last_reported":1739925959,"current_range_meters":6800,"station_id":"ce4bgt92rcd13ifvqcg0","pricing_plan_id":"cebpf4jnsgd1na2vs0mg"},{"bike_id":"dc2583c0-b500-4494-85fd-da6fc368e56b","system_id":"levelo_inurba_marseille","lat":43.27823,"lon":5.39203,"is_reserved":false,"is_disabled":false,"rental_uris":{"android":"levelo://app?vid=dc2583c0-b500-4494-85fd-da6fc368e56b","ios":"levelo://app?vid=dc2583c0-b500-4494-85fd-da6fc368e56b"},"vehicle_type_id":"4","last_reported":1739925959,"current_range_meters":7200,"station_id":"ce4bhjp2rcd13ifvqga0","pricing_plan_id":"cebpf4jnsgd1na2vs0mg"},{"bike_id":"79fca65f-7726-4d8c-b178-da207c385007","system_id":"levelo_inurba_marseille","lat":43.27905,"lon":5.39605,"is_reserved":false,"is_disabled":false,"rental_uris":{"android":"levelo://app?vid=79fca65f-7726-4d8c-b178-da207c385007","ios":"levelo://app?vid=79fca65f-7726-4d8c-b178-da207c385007"},"vehicle_type_id":"4","last_reported":1739925959,"current_range_meters":7200,"station_id":"ce4bhf92rcd13ifvqf40","pricing_plan_id":"cebpf4jnsgd1na2vs0mg"},{"bike_id":"a573452d-7d92-454e-9154-9c995ba585ef","system_id":"levelo_inurba_marseille","lat":43.29737,"lon":5.3771,"is_reserved":false,"is_disabled":true,"rental_uris":{"android":"levelo://app?vid=a573452d-7d92-454e-9154-9c995ba585ef","ios":"levelo://app?vid=a573452d-7d92-454e-9154-9c995ba585ef"},"vehicle_type_id":"4","last_reported":1739925959,"current_range_meters":7200,"station_id":"","pricing_plan_id":"cebpf4jnsgd1na2vs0mg"},{"bike_id":"b254d2fc-7ca1-4f51-80ab-788ad9e5de08","system_id":"levelo_inurba_marseille","lat":43.30462,"lon":5.37908,"is_reserved":false,"is_disabled":false,"rental_uris":{"android":"levelo://app?vid=b254d2fc-7ca1-4f51-80ab-788ad9e5de08","ios":"levelo://app?vid=b254d2fc-7ca1-4f51-80ab-788ad9e5de08"},"vehicle_type_id":"4","last_reported":1739925959,"current_range_meters":7200,"station_id":"ce4bgup2rcd13ifvqcn0","pricing_plan_id":"cebpf4jnsgd1na2vs0mg"},{"bike_id":"66bdaba1-8ea6-4d2c-ad9c-6d213bc14ad8","system_id":"levelo_inurba_marseille","lat":43.26219,"lon":5.37939,"is_reserved":false,"is_disabled":false,"rental_uris":{"android":"levelo://app?vid=66bdaba1-8ea6-4d2c-ad9c-6d213bc14ad8","ios":"levelo://app?vid=66bdaba1-8ea6-4d2c-ad9c-6d213bc14ad8"},"vehicle_type_id":"4","last_reported":1739925959,"current_range_meters":7200,"station_id":"ce4bhjp2rcd13ifvqg90","pricing_plan_id":"cebpf4jnsgd1na2vs0mg"},{"bike_id":"792e3d88-dc83-4f31-b40d-b8044acbf174","system_id":"levelo_inurba_marseille","lat":43.27314,"lon":5.3914,"is_reserved":false,"is_disabled":false,"rental_uris":{"android":"levelo://app?vid=792e3d88-dc83-4f31-b40d-b8044acbf174","ios":"levelo://app?vid=792e3d88-dc83-4f31-b40d-b8044acbf174"},"vehicle_type_id":"4","last_reported":1739925959,"current_range_meters":7200,"station_id":"","pricing_plan_id":"cebpf4jnsgd1na2vs0mg"},{"bike_id":"e34dc701-144c-4e9a-8f13-ba13983b3a86","system_id":"levelo_inurba_marseille","lat":43.287244,"lon":5.360847,"is_reserved":false,"is_disabled":false,"rental_uris":{"android":"levelo://app?vid=e34dc701-144c-4e9a-8f13-ba13983b3a86","ios":"levelo://app?vid=e34dc701-144c-4e9a-8f13-ba13983b3a86"},"vehicle_type_id":"4","last_reported":1739925959,"current_range_meters":7200,"station_id":"cki0cbj6b192h4jlfktg","pricing_plan_id":"cebpf4jnsgd1na2vs0mg"},{"bike_id":"6ff414da-5d5e-4b76-82eb-59e133f84778","system_id":"levelo_inurba_marseille","lat":43.27816,"lon":5.4072,"is_reserved":false,"is_disabled":false,"rental_uris":{"android":"levelo://app?vid=6ff414da-5d5e-4b76-82eb-59e133f84778","ios":"levelo://app?vid=6ff414da-5d5e-4b76-82eb-59e133f84778"},"vehicle_type_id":"4","last_reported":1739925959,"current_range_meters":8000,"station_id":"ce4bhnh2rcd13ifvqgtg","pricing_plan_id":"cebpf4jnsgd1na2vs0mg"},{"bike_id":"0e9ae8c5-7a7e-467d-afe2-bb8df6bfeefc","system_id":"levelo_inurba_marseille","lat":43.23336,"lon":5.40306,"is_reserved":false,"is_disabled":false,"rental_uris":{"android":"levelo://app?vid=0e9ae8c5-7a7e-467d-afe2-bb8df6bfeefc","ios":"levelo://app?vid=0e9ae8c5-7a7e-467d-afe2-bb8df6bfeefc"},"vehicle_type_id":"4","last_reported":1739925959,"current_range_meters":8000,"station_id":"","pricing_plan_id":"cebpf4jnsgd1na2vs0mg"},{"bike_id":"4b2cf509-6732-4c40-b6b7-1727a938fd1a","system_id":"levelo_inurba_marseille","lat":43.28408,"lon":5.37501,"is_reserved":false,"is_disabled":false,"rental_uris":{"android":"levelo://app?vid=4b2cf509-6732-4c40-b6b7-1727a938fd1a","ios":"levelo://app?vid=4b2cf509-6732-4c40-b6b7-1727a938fd1a"},"vehicle_type_id":"4","last_reported":1739925959,"current_range_meters":8000,"station_id":"","pricing_plan_id":"cebpf4jnsgd1na2vs0mg"},{"bike_id":"9198c6ef-bd5b-45d9-bd7b-e058d791d44b","system_id":"levelo_inurba_marseille","lat":43.24812,"lon":5.3746,"is_reserved":false,"is_disabled":false,"rental_uris":{"android":"levelo://app?vid=9198c6ef-bd5b-45d9-bd7b-e058d791d44b","ios":"levelo://app?vid=9198c6ef-bd5b-45d9-bd7b-e058d791d44b"},"vehicle_type_id":"4","last_reported":1739925959,"current_range_meters":8000,"station_id":"","pricing_plan_id":"cebpf4jnsgd1na2vs0mg"},{"bike_id":"687f6eec-a4ba-47ad-90ca-71871f4c643d","system_id":"levelo_inurba_marseille","lat":43.23181,"lon":5.399869,"is_reserved":false,"is_disabled":false,"rental_uris":{"android":"levelo://app?vid=687f6eec-a4ba-47ad-90ca-71871f4c643d","ios":"levelo://app?vid=687f6eec-a4ba-47ad-90ca-71871f4c643d"},"vehicle_type_id":"4","last_reported":1739925959,"current_range_meters":8400,"station_id":"ce4bhn12rcd13ifvqgqg","pricing_plan_id":"cebpf4jnsgd1na2vs0mg"},{"bike_id":"12b33330-5dcb-4644-8a5c-3a95dc32ce98","system_id":"levelo_inurba_marseille","lat":43.281462,"lon":5.426522,"is_reserved":false,"is_disabled":false,"rental_uris":{"android":"levelo://app?vid=12b33330-5dcb-4644-8a5c-3a95dc32ce98","ios":"levelo://app?vid=12b33330-5dcb-4644-8a5c-3a95dc32ce98"},"vehicle_type_id":"4","last_reported":1739925959,"current_range_meters":8400,"station_id":"ce4bhnh2rcd13ifvqgug","pricing_plan_id":"cebpf4jnsgd1na2vs0mg"},{"bike_id":"02d35df5-2be8-4d22-81d7-6afd631a6300","system_id":"levelo_inurba_marseille","lat":43.30313,"lon":5.40437,"is_reserved":false,"is_disabled":false,"rental_uris":{"android":"levelo://app?vid=02d35df5-2be8-4d22-81d7-6afd631a6300","ios":"levelo://app?vid=02d35df5-2be8-4d22-81d7-6afd631a6300"},"vehicle_type_id":"4","last_reported":1739925959,"current_range_meters":8400,"station_id":"ce4bh012rcd13ifvqd10","pricing_plan_id":"cebpf4jnsgd1na2vs0mg"},{"bike_id":"a685ec2d-ecdc-461b-9135-09c1967b97ae","system_id":"levelo_inurba_marseille","lat":43.23189,"lon":5.39983,"is_reserved":false,"is_disabled":false,"rental_uris":{"android":"levelo://app?vid=a685ec2d-ecdc-461b-9135-09c1967b97ae","ios":"levelo://app?vid=a685ec2d-ecdc-461b-9135-09c1967b97ae"},"vehicle_type_id":"4","last_reported":1739925959,"current_range_meters":8400,"station_id":"","pricing_plan_id":"cebpf4jnsgd1na2vs0mg"},{"bike_id":"cd189a51-ee99-4048-9ef7-2fc5d8a8f9b2","system_id":"levelo_inurba_marseille","lat":43.32098,"lon":5.36794,"is_reserved":false,"is_disabled":false,"rental_uris":{"android":"levelo://app?vid=cd189a51-ee99-4048-9ef7-2fc5d8a8f9b2","ios":"levelo://app?vid=cd189a51-ee99-4048-9ef7-2fc5d8a8f9b2"},"vehicle_type_id":"4","last_reported":1739925959,"current_range_meters":8400,"station_id":"ce4bhrh2rcd13ifvqhug","pricing_plan_id":"cebpf4jnsgd1na2vs0mg"},{"bike_id":"03746526-254a-4087-980a-633e87b0db20","system_id":"levelo_inurba_marseille","lat":43.31694,"lon":5.37794,"is_reserved":false,"is_disabled":false,"rental_uris":{"android":"levelo://app?vid=03746526-254a-4087-980a-633e87b0db20","ios":"levelo://app?vid=03746526-254a-4087-980a-633e87b0db20"},"vehicle_type_id":"4","last_reported":1739925959,"current_range_meters":8400,"station_id":"ce4bgth2rcd13ifvqch0","pricing_plan_id":"cebpf4jnsgd1na2vs0mg"},{"bike_id":"eef448bb-9056-40f5-941c-ba4616f18fa6","system_id":"levelo_inurba_marseille","lat":43.26942,"lon":5.40251,"is_reserved":false,"is_disabled":false,"rental_uris":{"android":"levelo://app?vid=eef448bb-9056-40f5-941c-ba4616f18fa6","ios":"levelo://app?vid=eef448bb-9056-40f5-941c-ba4616f18fa6"},"vehicle_type_id":"4","last_reported":1739925959,"current_range_meters":8400,"station_id":"cjm6bp8fraef2m0cb0m0","pricing_plan_id":"cebpf4jnsgd1na2vs0mg"},{"bike_id":"989a1c05-c74a-4632-af21-81b3f55f7909","system_id":"levelo_inurba_marseille","lat":43.29204,"lon":5.36034,"is_reserved":false,"is_disabled":true,"rental_uris":{"android":"levelo://app?vid=989a1c05-c74a-4632-af21-81b3f55f7909","ios":"levelo://app?vid=989a1c05-c74a-4632-af21-81b3f55f7909"},"vehicle_type_id":"4","last_reported":1739925959,"current_range_meters":8400,"station_id":"","pricing_plan_id":"cebpf4jnsgd1na2vs0mg"},{"bike_id":"82179589-f90b-450a-a2c2-34addb9778c3","system_id":"levelo_inurba_marseille","lat":43.30133,"lon":5.39883,"is_reserved":false,"is_disabled":false,"rental_uris":{"android":"levelo://app?vid=82179589-f90b-450a-a2c2-34addb9778c3","ios":"levelo://app?vid=82179589-f90b-450a-a2c2-34addb9778c3"},"vehicle_type_id":"4","last_reported":1739925959,"current_range_meters":8800,"station_id":"ce4bh0h2rcd13ifvqd40","pricing_plan_id":"cebpf4jnsgd1na2vs0mg"},{"bike_id":"6436a366-7865-49ec-a9a2-d4b8e372d7c3","system_id":"levelo_inurba_marseille","lat":43.276245,"lon":5.361111,"is_reserved":false,"is_disabled":false,"rental_uris":{"android":"levelo://app?vid=6436a366-7865-49ec-a9a2-d4b8e372d7c3","ios":"levelo://app?vid=6436a366-7865-49ec-a9a2-d4b8e372d7c3"},"vehicle_type_id":"4","last_reported":1739925959,"current_range_meters":8800,"station_id":"ce4bha12rcd13ifvqef0","pricing_plan_id":"cebpf4jnsgd1na2vs0mg"},{"bike_id":"f5a7abcc-f6fb-4888-9484-dd0e57f220b4","system_id":"levelo_inurba_marseille","lat":43.29499,"lon":5.39405,"is_reserved":false,"is_disabled":false,"rental_uris":{"android":"levelo://app?vid=f5a7abcc-f6fb-4888-9484-dd0e57f220b4","ios":"levelo://app?vid=f5a7abcc-f6fb-4888-9484-dd0e57f220b4"},"vehicle_type_id":"4","last_reported":1739925959,"current_range_meters":8800,"station_id":"","pricing_plan_id":"cebpf4jnsgd1na2vs0mg"},{"bike_id":"c9071df5-5664-4a5e-b1b2-1df958a7db03","system_id":"levelo_inurba_marseille","lat":43.23959,"lon":5.36644,"is_reserved":false,"is_disabled":false,"rental_uris":{"android":"levelo://app?vid=c9071df5-5664-4a5e-b1b2-1df958a7db03","ios":"levelo://app?vid=c9071df5-5664-4a5e-b1b2-1df958a7db03"},"vehicle_type_id":"4","last_reported":1739925959,"current_range_meters":8800,"station_id":"ce4bhi12rcd13ifvqfp0","pricing_plan_id":"cebpf4jnsgd1na2vs0mg"},{"bike_id":"62be18f2-c2fa-44c2-99ab-1a24b18e63e4","system_id":"levelo_inurba_marseille","lat":43.306,"lon":5.39345,"is_reserved":false,"is_disabled":false,"rental_uris":{"android":"levelo://app?vid=62be18f2-c2fa-44c2-99ab-1a24b18e63e4","ios":"levelo://app?vid=62be18f2-c2fa-44c2-99ab-1a24b18e63e4"},"vehicle_type_id":"4","last_reported":1739925959,"current_range_meters":8800,"station_id":"ce4bh0p2rcd13ifvqd80","pricing_plan_id":"cebpf4jnsgd1na2vs0mg"},{"bike_id":"7d309820-d1db-4b08-8937-4adba6adeb8f","system_id":"levelo_inurba_marseille","lat":43.28099,"lon":5.37847,"is_reserved":false,"is_disabled":false,"rental_uris":{"android":"levelo://app?vid=7d309820-d1db-4b08-8937-4adba6adeb8f","ios":"levelo://app?vid=7d309820-d1db-4b08-8937-4adba6adeb8f"},"vehicle_type_id":"4","last_reported":1739925959,"current_range_meters":8800,"station_id":"ce4bha12rcd13ifvqee0","pricing_plan_id":"cebpf4jnsgd1na2vs0mg"},{"bike_id":"fa6d9dca-d4a9-45ea-a6ad-1f6c75d10deb","system_id":"levelo_inurba_marseille","lat":43.30707,"lon":5.40093,"is_reserved":false,"is_disabled":false,"rental_uris":{"android":"levelo://app?vid=fa6d9dca-d4a9-45ea-a6ad-1f6c75d10deb","ios":"levelo://app?vid=fa6d9dca-d4a9-45ea-a6ad-1f6c75d10deb"},"vehicle_type_id":"4","last_reported":1739925959,"current_range_meters":8800,"station_id":"ce4bh112rcd13ifvqda0","pricing_plan_id":"cebpf4jnsgd1na2vs0mg"},{"bike_id":"603829f6-1bd6-420a-b866-4544fcbffbce","system_id":"levelo_inurba_marseille","lat":43.24806,"lon":5.37462,"is_reserved":false,"is_disabled":false,"rental_uris":{"android":"levelo://app?vid=603829f6-1bd6-420a-b866-4544fcbffbce","ios":"levelo://app?vid=603829f6-1bd6-420a-b866-4544fcbffbce"},"vehicle_type_id":"4","last_reported":1739925959,"current_range_meters":8800,"station_id":"ce4bhgh2rcd13ifvqfb0","pricing_plan_id":"cebpf4jnsgd1na2vs0mg"},{"bike_id":"5e717aac-58b6-44b6-a302-9fe17a89f32b","system_id":"levelo_inurba_marseille","lat":43.31896,"lon":5.40727,"is_reserved":false,"is_disabled":false,"rental_uris":{"android":"levelo://app?vid=5e717aac-58b6-44b6-a302-9fe17a89f32b","ios":"levelo://app?vid=5e717aac-58b6-44b6-a302-9fe17a89f32b"},"vehicle_type_id":"4","last_reported":1739925959,"current_range_meters":8800,"station_id":"ce4bhq12rcd13ifvqhig","pricing_plan_id":"cebpf4jnsgd1na2vs0mg"},{"bike_id":"fc9896ce-1f52-403c-86a7-1678079c9523","system_id":"levelo_inurba_marseille","lat":43.28363,"lon":5.44276,"is_reserved":false,"is_disabled":false,"rental_uris":{"android":"levelo://app?vid=fc9896ce-1f52-403c-86a7-1678079c9523","ios":"levelo://app?vid=fc9896ce-1f52-403c-86a7-1678079c9523"},"vehicle_type_id":"4","last_reported":1739925959,"current_range_meters":8800,"station_id":"","pricing_plan_id":"cebpf4jnsgd1na2vs0mg"},{"bike_id":"3b99b838-b820-4eb3-a6d5-8935fc9251a1","system_id":"levelo_inurba_marseille","lat":43.30879,"lon":5.39659,"is_reserved":false,"is_disabled":false,"rental_uris":{"android":"levelo://app?vid=3b99b838-b820-4eb3-a6d5-8935fc9251a1","ios":"levelo://app?vid=3b99b838-b820-4eb3-a6d5-8935fc9251a1"},"vehicle_type_id":"4","last_reported":1739925959,"current_range_meters":8800,"station_id":"ce4bh012rcd13ifvqcv0","pricing_plan_id":"cebpf4jnsgd1na2vs0mg"},{"bike_id":"8072f034-69d4-48c5-b234-451357393f04","system_id":"levelo_inurba_marseille","lat":43.23948,"lon":5.36654,"is_reserved":false,"is_disabled":false,"rental_uris":{"android":"levelo://app?vid=8072f034-69d4-48c5-b234-451357393f04","ios":"levelo://app?vid=8072f034-69d4-48c5-b234-451357393f04"},"vehicle_type_id":"4","last_reported":1739925959,"current_range_meters":9200,"station_id":"ce4bhi12rcd13ifvqfp0","pricing_plan_id":"cebpf4jnsgd1na2vs0mg"},{"bike_id":"0ddd8de4-1fa2-44a4-910e-01dbc6c0ee46","system_id":"levelo_inurba_marseille","lat":43.29614,"lon":5.37713,"is_reserved":false,"is_disabled":true,"rental_uris":{"android":"levelo://app?vid=0ddd8de4-1fa2-44a4-910e-01dbc6c0ee46","ios":"levelo://app?vid=0ddd8de4-1fa2-44a4-910e-01dbc6c0ee46"},"vehicle_type_id":"4","last_reported":1739925959,"current_range_meters":9200,"station_id":"","pricing_plan_id":"cebpf4jnsgd1na2vs0mg"},{"bike_id":"b04eb08b-32f4-4698-a915-61f10cf0ae1b","system_id":"levelo_inurba_marseille","lat":43.29278,"lon":5.40121,"is_reserved":false,"is_disabled":false,"rental_uris":{"android":"levelo://app?vid=b04eb08b-32f4-4698-a915-61f10cf0ae1b","ios":"levelo://app?vid=b04eb08b-32f4-4698-a915-61f10cf0ae1b"},"vehicle_type_id":"4","last_reported":1739925959,"current_range_meters":9200,"station_id":"ce4bh312rcd13ifvqdk0","pricing_plan_id":"cebpf4jnsgd1na2vs0mg"},{"bike_id":"e605dea0-84a5-4395-b86a-134e39164b56","system_id":"levelo_inurba_marseille","lat":43.28621,"lon":5.35097,"is_reserved":false,"is_disabled":false,"rental_uris":{"android":"levelo://app?vid=e605dea0-84a5-4395-b86a-134e39164b56","ios":"levelo://app?vid=e605dea0-84a5-4395-b86a-134e39164b56"},"vehicle_type_id":"4","last_reported":1739925959,"current_range_meters":9200,"station_id":"ce4bhch2rcd13ifvqeug","pricing_plan_id":"cebpf4jnsgd1na2vs0mg"},{"bike_id":"cb8372d6-bad2-4555-89ad-5b495afb0b59","system_id":"levelo_inurba_marseille","lat":43.24822,"lon":5.37459,"is_reserved":false,"is_disabled":false,"rental_uris":{"android":"levelo://app?vid=cb8372d6-bad2-4555-89ad-5b495afb0b59","ios":"levelo://app?vid=cb8372d6-bad2-4555-89ad-5b495afb0b59"},"vehicle_type_id":"4","last_reported":1739925959,"current_range_meters":9200,"station_id":"ce4bhgh2rcd13ifvqfb0","pricing_plan_id":"cebpf4jnsgd1na2vs0mg"},{"bike_id":"70dee217-670e-40d7-b959-7dcdfca9f445","system_id":"levelo_inurba_marseille","lat":43.24803,"lon":5.37455,"is_reserved":false,"is_disabled":false,"rental_uris":{"android":"levelo://app?vid=70dee217-670e-40d7-b959-7dcdfca9f445","ios":"levelo://app?vid=70dee217-670e-40d7-b959-7dcdfca9f445"},"vehicle_type_id":"4","last_reported":1739925959,"current_range_meters":9200,"station_id":"ce4bhgh2rcd13ifvqfb0","pricing_plan_id":"cebpf4jnsgd1na2vs0mg"},{"bike_id":"db04039e-8736-414e-a3e5-1ee7b7e2837d","system_id":"levelo_inurba_marseille","lat":43.29185,"lon":5.39347,"is_reserved":false,"is_disabled":false,"rental_uris":{"android":"levelo://app?vid=db04039e-8736-414e-a3e5-1ee7b7e2837d","ios":"levelo://app?vid=db04039e-8736-414e-a3e5-1ee7b7e2837d"},"vehicle_type_id":"4","last_reported":1739925959,"current_range_meters":7200,"station_id":"ce4bh192rcd13ifvqdd0","pricing_plan_id":"cebpf4jnsgd1na2vs0mg"},{"bike_id":"5ae0012d-6179-440f-a02a-a607c9208eb9","system_id":"levelo_inurba_marseille","lat":43.24639,"lon":5.38116,"is_reserved":false,"is_disabled":false,"rental_uris":{"android":"levelo://app?vid=5ae0012d-6179-440f-a02a-a607c9208eb9","ios":"levelo://app?vid=5ae0012d-6179-440f-a02a-a607c9208eb9"},"vehicle_type_id":"4","last_reported":1739925959,"current_range_meters":9200,"station_id":"ce4bhih2rcd13ifvqfr0","pricing_plan_id":"cebpf4jnsgd1na2vs0mg"},{"bike_id":"c21214b8-4e24-4e4f-a69f-672307e7c6ff","system_id":"levelo_inurba_marseille","lat":43.28148,"lon":5.42635,"is_reserved":false,"is_disabled":false,"rental_uris":{"android":"levelo://app?vid=c21214b8-4e24-4e4f-a69f-672307e7c6ff","ios":"levelo://app?vid=c21214b8-4e24-4e4f-a69f-672307e7c6ff"},"vehicle_type_id":"4","last_reported":1739925959,"current_range_meters":9200,"station_id":"","pricing_plan_id":"cebpf4jnsgd1na2vs0mg"},{"bike_id":"150d470b-8649-4d00-b7ab-12e70df09d60","system_id":"levelo_inurba_marseille","lat":43.27939,"lon":5.41033,"is_reserved":false,"is_disabled":false,"rental_uris":{"android":"levelo://app?vid=150d470b-8649-4d00-b7ab-12e70df09d60","ios":"levelo://app?vid=150d470b-8649-4d00-b7ab-12e70df09d60"},"vehicle_type_id":"4","last_reported":1739925959,"current_range_meters":9200,"station_id":"ce4bhnp2rcd13ifvqh0g","pricing_plan_id":"cebpf4jnsgd1na2vs0mg"},{"bike_id":"07460ddc-72b2-47b9-ae7a-e7f9041dd312","system_id":"levelo_inurba_marseille","lat":43.2395,"lon":5.36625,"is_reserved":false,"is_disabled":false,"rental_uris":{"android":"levelo://app?vid=07460ddc-72b2-47b9-ae7a-e7f9041dd312","ios":"levelo://app?vid=07460ddc-72b2-47b9-ae7a-e7f9041dd312"},"vehicle_type_id":"4","last_reported":1739925959,"current_range_meters":9600,"station_id":"","pricing_plan_id":"cebpf4jnsgd1na2vs0mg"},{"bike_id":"e6735b2b-deca-42b8-9f2c-14163ec3f2b8","system_id":"levelo_inurba_marseille","lat":43.30942,"lon":5.3906,"is_reserved":false,"is_disabled":false,"rental_uris":{"android":"levelo://app?vid=e6735b2b-deca-42b8-9f2c-14163ec3f2b8","ios":"levelo://app?vid=e6735b2b-deca-42b8-9f2c-14163ec3f2b8"},"vehicle_type_id":"4","last_reported":1739925959,"current_range_meters":9600,"station_id":"ce4bgup2rcd13ifvqco0","pricing_plan_id":"cebpf4jnsgd1na2vs0mg"},{"bike_id":"a85165fb-7fdb-4cc1-ae98-ce974cfd16ca","system_id":"levelo_inurba_marseille","lat":43.23181,"lon":5.39962,"is_reserved":false,"is_disabled":false,"rental_uris":{"android":"levelo://app?vid=a85165fb-7fdb-4cc1-ae98-ce974cfd16ca","ios":"levelo://app?vid=a85165fb-7fdb-4cc1-ae98-ce974cfd16ca"},"vehicle_type_id":"4","last_reported":1739925959,"current_range_meters":9600,"station_id":"ce4bhn12rcd13ifvqgqg","pricing_plan_id":"cebpf4jnsgd1na2vs0mg"},{"bike_id":"10f8da56-b982-4af7-a78a-0fa9c8b1a438","system_id":"levelo_inurba_marseille","lat":43.31876,"lon":5.40734,"is_reserved":false,"is_disabled":false,"rental_uris":{"android":"levelo://app?vid=10f8da56-b982-4af7-a78a-0fa9c8b1a438","ios":"levelo://app?vid=10f8da56-b982-4af7-a78a-0fa9c8b1a438"},"vehicle_type_id":"4","last_reported":1739925959,"current_range_meters":9600,"station_id":"ce4bhq12rcd13ifvqhig","pricing_plan_id":"cebpf4jnsgd1na2vs0mg"},{"bike_id":"0c2cd5f2-9b97-4e60-b8b7-a3385bb64f37","system_id":"levelo_inurba_marseille","lat":43.30651,"lon":5.40082,"is_reserved":false,"is_disabled":false,"rental_uris":{"android":"levelo://app?vid=0c2cd5f2-9b97-4e60-b8b7-a3385bb64f37","ios":"levelo://app?vid=0c2cd5f2-9b97-4e60-b8b7-a3385bb64f37"},"vehicle_type_id":"4","last_reported":1739925959,"current_range_meters":9600,"station_id":"ce4bh112rcd13ifvqda0","pricing_plan_id":"cebpf4jnsgd1na2vs0mg"},{"bike_id":"5f60bded-880c-4221-8396-831bbe81b7df","system_id":"levelo_inurba_marseille","lat":43.28614,"lon":5.351,"is_reserved":false,"is_disabled":false,"rental_uris":{"android":"levelo://app?vid=5f60bded-880c-4221-8396-831bbe81b7df","ios":"levelo://app?vid=5f60bded-880c-4221-8396-831bbe81b7df"},"vehicle_type_id":"4","last_reported":1739925959,"current_range_meters":9600,"station_id":"ce4bhch2rcd13ifvqeug","pricing_plan_id":"cebpf4jnsgd1na2vs0mg"},{"bike_id":"0563389e-d2fb-4cf7-b867-f187226876ea","system_id":"levelo_inurba_marseille","lat":43.29022,"lon":5.38129,"is_reserved":false,"is_disabled":true,"rental_uris":{"android":"levelo://app?vid=0563389e-d2fb-4cf7-b867-f187226876ea","ios":"levelo://app?vid=0563389e-d2fb-4cf7-b867-f187226876ea"},"vehicle_type_id":"4","last_reported":1739925959,"current_range_meters":9600,"station_id":"ce4bh4p2rcd13ifvqe1g","pricing_plan_id":"cebpf4jnsgd1na2vs0mg"},{"bike_id":"f734e773-17df-48e9-9fba-b65495e7d8cf","system_id":"levelo_inurba_marseille","lat":43.28417,"lon":5.3498,"is_reserved":false,"is_disabled":true,"rental_uris":{"android":"levelo://app?vid=f734e773-17df-48e9-9fba-b65495e7d8cf","ios":"levelo://app?vid=f734e773-17df-48e9-9fba-b65495e7d8cf"},"vehicle_type_id":"4","last_reported":1739925959,"current_range_meters":9600,"station_id":"","pricing_plan_id":"cebpf4jnsgd1na2vs0mg"},{"bike_id":"6c96a73f-ff01-463f-bd8c-14885ee904b6","system_id":"levelo_inurba_marseille","lat":43.29061,"lon":5.35756,"is_reserved":false,"is_disabled":false,"rental_uris":{"android":"levelo://app?vid=6c96a73f-ff01-463f-bd8c-14885ee904b6","ios":"levelo://app?vid=6c96a73f-ff01-463f-bd8c-14885ee904b6"},"vehicle_type_id":"4","last_reported":1739925959,"current_range_meters":9600,"station_id":"ce4bhb92rcd13ifvqen0","pricing_plan_id":"cebpf4jnsgd1na2vs0mg"},{"bike_id":"ec4721f0-4b3b-4dda-9c1c-294a4af452cd","system_id":"levelo_inurba_marseille","lat":43.25125,"lon":5.40319,"is_reserved":false,"is_disabled":false,"rental_uris":{"android":"levelo://app?vid=ec4721f0-4b3b-4dda-9c1c-294a4af452cd","ios":"levelo://app?vid=ec4721f0-4b3b-4dda-9c1c-294a4af452cd"},"vehicle_type_id":"4","last_reported":1739925959,"current_range_meters":9600,"station_id":"ce4bhlh2rcd13ifvqgig","pricing_plan_id":"cebpf4jnsgd1na2vs0mg"},{"bike_id":"394c5a6e-3d6a-43cd-b27a-debd4e18101b","system_id":"levelo_inurba_marseille","lat":43.336105,"lon":5.410312,"is_reserved":false,"is_disabled":false,"rental_uris":{"android":"levelo://app?vid=394c5a6e-3d6a-43cd-b27a-debd4e18101b","ios":"levelo://app?vid=394c5a6e-3d6a-43cd-b27a-debd4e18101b"},"vehicle_type_id":"4","last_reported":1739925959,"current_range_meters":9600,"station_id":"ce4bhqh2rcd13ifvqhmg","pricing_plan_id":"cebpf4jnsgd1na2vs0mg"},{"bike_id":"a6e47676-9a97-4574-b4ab-46943fcdbbe0","system_id":"levelo_inurba_marseille","lat":43.27194,"lon":5.40973,"is_reserved":false,"is_disabled":false,"rental_uris":{"android":"levelo://app?vid=a6e47676-9a97-4574-b4ab-46943fcdbbe0","ios":"levelo://app?vid=a6e47676-9a97-4574-b4ab-46943fcdbbe0"},"vehicle_type_id":"4","last_reported":1739925959,"current_range_meters":9600,"station_id":"ce4bhl12rcd13ifvqgf0","pricing_plan_id":"cebpf4jnsgd1na2vs0mg"},{"bike_id":"3f5c0cbe-76cb-46f9-8009-cb568b808f59","system_id":"levelo_inurba_marseille","lat":43.29169,"lon":5.40818,"is_reserved":false,"is_disabled":false,"rental_uris":{"android":"levelo://app?vid=3f5c0cbe-76cb-46f9-8009-cb568b808f59","ios":"levelo://app?vid=3f5c0cbe-76cb-46f9-8009-cb568b808f59"},"vehicle_type_id":"4","last_reported":1739925959,"current_range_meters":10000,"station_id":"","pricing_plan_id":"cebpf4jnsgd1na2vs0mg"},{"bike_id":"f6ba40c5-f255-4f0d-8f57-d368a3f1328d","system_id":"levelo_inurba_marseille","lat":43.28089,"lon":5.37891,"is_reserved":false,"is_disabled":false,"rental_uris":{"android":"levelo://app?vid=f6ba40c5-f255-4f0d-8f57-d368a3f1328d","ios":"levelo://app?vid=f6ba40c5-f255-4f0d-8f57-d368a3f1328d"},"vehicle_type_id":"4","last_reported":1739925959,"current_range_meters":10000,"station_id":"ce4bha12rcd13ifvqee0","pricing_plan_id":"cebpf4jnsgd1na2vs0mg"},{"bike_id":"b06ba296-7cf1-477b-95f3-e9f9f82106cc","system_id":"levelo_inurba_marseille","lat":43.28615,"lon":5.35104,"is_reserved":false,"is_disabled":false,"rental_uris":{"android":"levelo://app?vid=b06ba296-7cf1-477b-95f3-e9f9f82106cc","ios":"levelo://app?vid=b06ba296-7cf1-477b-95f3-e9f9f82106cc"},"vehicle_type_id":"4","last_reported":1739925959,"current_range_meters":10000,"station_id":"","pricing_plan_id":"cebpf4jnsgd1na2vs0mg"},{"bike_id":"68190e97-a692-45ca-ac1b-c2b508322dad","system_id":"levelo_inurba_marseille","lat":43.31349,"lon":5.3849,"is_reserved":false,"is_disabled":false,"rental_uris":{"android":"levelo://app?vid=68190e97-a692-45ca-ac1b-c2b508322dad","ios":"levelo://app?vid=68190e97-a692-45ca-ac1b-c2b508322dad"},"vehicle_type_id":"4","last_reported":1739925959,"current_range_meters":10000,"station_id":"","pricing_plan_id":"cebpf4jnsgd1na2vs0mg"},{"bike_id":"18368891-0c3a-4202-aa26-0c46fc585663","system_id":"levelo_inurba_marseille","lat":43.23963,"lon":5.3663,"is_reserved":false,"is_disabled":false,"rental_uris":{"android":"levelo://app?vid=18368891-0c3a-4202-aa26-0c46fc585663","ios":"levelo://app?vid=18368891-0c3a-4202-aa26-0c46fc585663"},"vehicle_type_id":"4","last_reported":1739925959,"current_range_meters":10000,"station_id":"ce4bhi12rcd13ifvqfp0","pricing_plan_id":"cebpf4jnsgd1na2vs0mg"},{"bike_id":"46ea923b-1a59-495a-a45f-bcf3c15a4145","system_id":"levelo_inurba_marseille","lat":43.31701,"lon":5.37747,"is_reserved":false,"is_disabled":false,"rental_uris":{"android":"levelo://app?vid=46ea923b-1a59-495a-a45f-bcf3c15a4145","ios":"levelo://app?vid=46ea923b-1a59-495a-a45f-bcf3c15a4145"},"vehicle_type_id":"4","last_reported":1739925959,"current_range_meters":10000,"station_id":"ce4bgth2rcd13ifvqch0","pricing_plan_id":"cebpf4jnsgd1na2vs0mg"},{"bike_id":"27d281e4-ae2c-4d0a-b5af-b1a6c9a261f7","system_id":"levelo_inurba_marseille","lat":43.31714,"lon":5.37767,"is_reserved":false,"is_disabled":true,"rental_uris":{"android":"levelo://app?vid=27d281e4-ae2c-4d0a-b5af-b1a6c9a261f7","ios":"levelo://app?vid=27d281e4-ae2c-4d0a-b5af-b1a6c9a261f7"},"vehicle_type_id":"4","last_reported":1739925959,"current_range_meters":10000,"station_id":"ce4bgth2rcd13ifvqch0","pricing_plan_id":"cebpf4jnsgd1na2vs0mg"},{"bike_id":"98a35eaa-0306-447b-8dd2-b17593015cfb","system_id":"levelo_inurba_marseille","lat":43.27506,"lon":5.4163,"is_reserved":false,"is_disabled":false,"rental_uris":{"android":"levelo://app?vid=98a35eaa-0306-447b-8dd2-b17593015cfb","ios":"levelo://app?vid=98a35eaa-0306-447b-8dd2-b17593015cfb"},"vehicle_type_id":"4","last_reported":1739925959,"current_range_meters":10000,"station_id":"","pricing_plan_id":"cebpf4jnsgd1na2vs0mg"},{"bike_id":"7342bfbd-9082-4169-8159-57866036272e","system_id":"levelo_inurba_marseille","lat":43.28448,"lon":5.35886,"is_reserved":false,"is_disabled":false,"rental_uris":{"android":"levelo://app?vid=7342bfbd-9082-4169-8159-57866036272e","ios":"levelo://app?vid=7342bfbd-9082-4169-8159-57866036272e"},"vehicle_type_id":"4","last_reported":1739925959,"current_range_meters":10000,"station_id":"ce4bhah2rcd13ifvqei0","pricing_plan_id":"cebpf4jnsgd1na2vs0mg"},{"bike_id":"9582ddc0-b6af-49e9-b173-94c0a9b6801a","system_id":"levelo_inurba_marseille","lat":43.28355,"lon":5.38102,"is_reserved":false,"is_disabled":false,"rental_uris":{"android":"levelo://app?vid=9582ddc0-b6af-49e9-b173-94c0a9b6801a","ios":"levelo://app?vid=9582ddc0-b6af-49e9-b173-94c0a9b6801a"},"vehicle_type_id":"4","last_reported":1739925959,"current_range_meters":10000,"station_id":"","pricing_plan_id":"cebpf4jnsgd1na2vs0mg"},{"bike_id":"e49e8625-3f41-4904-ae2f-c278ccd70248","system_id":"levelo_inurba_marseille","lat":43.30094,"lon":5.3909,"is_reserved":false,"is_disabled":false,"rental_uris":{"android":"levelo://app?vid=e49e8625-3f41-4904-ae2f-c278ccd70248","ios":"levelo://app?vid=e49e8625-3f41-4904-ae2f-c278ccd70248"},"vehicle_type_id":"4","last_reported":1739925959,"current_range_meters":10800,"station_id":"ce4bh192rcd13ifvqdb0","pricing_plan_id":"cebpf4jnsgd1na2vs0mg"},{"bike_id":"91bf3218-0a05-4226-acc9-b3131b7d5a8d","system_id":"levelo_inurba_marseille","lat":43.2396,"lon":5.36623,"is_reserved":false,"is_disabled":false,"rental_uris":{"android":"levelo://app?vid=91bf3218-0a05-4226-acc9-b3131b7d5a8d","ios":"levelo://app?vid=91bf3218-0a05-4226-acc9-b3131b7d5a8d"},"vehicle_type_id":"4","last_reported":1739925959,"current_range_meters":10800,"station_id":"ce4bhi12rcd13ifvqfp0","pricing_plan_id":"cebpf4jnsgd1na2vs0mg"},{"bike_id":"10c134e7-7862-45ed-8103-0b6221fb4b66","system_id":"levelo_inurba_marseille","lat":43.25009,"lon":5.38913,"is_reserved":false,"is_disabled":false,"rental_uris":{"android":"levelo://app?vid=10c134e7-7862-45ed-8103-0b6221fb4b66","ios":"levelo://app?vid=10c134e7-7862-45ed-8103-0b6221fb4b66"},"vehicle_type_id":"4","last_reported":1739925959,"current_range_meters":10800,"station_id":"ce4bhgp2rcd13ifvqfd0","pricing_plan_id":"cebpf4jnsgd1na2vs0mg"},{"bike_id":"9b03b96d-2041-4d92-a949-290d7b50f943","system_id":"levelo_inurba_marseille","lat":43.27178,"lon":5.40982,"is_reserved":false,"is_disabled":false,"rental_uris":{"android":"levelo://app?vid=9b03b96d-2041-4d92-a949-290d7b50f943","ios":"levelo://app?vid=9b03b96d-2041-4d92-a949-290d7b50f943"},"vehicle_type_id":"4","last_reported":1739925959,"current_range_meters":10800,"station_id":"","pricing_plan_id":"cebpf4jnsgd1na2vs0mg"},{"bike_id":"60d314df-a667-495a-a59f-db49b86bae5a","system_id":"levelo_inurba_marseille","lat":43.30096,"lon":5.39095,"is_reserved":false,"is_disabled":false,"rental_uris":{"android":"levelo://app?vid=60d314df-a667-495a-a59f-db49b86bae5a","ios":"levelo://app?vid=60d314df-a667-495a-a59f-db49b86bae5a"},"vehicle_type_id":"4","last_reported":1739925959,"current_range_meters":10800,"station_id":"ce4bh192rcd13ifvqdb0","pricing_plan_id":"cebpf4jnsgd1na2vs0mg"},{"bike_id":"ebc6e618-f041-497c-aed9-aed1729dfec2","system_id":"levelo_inurba_marseille","lat":43.31331,"lon":5.39684,"is_reserved":false,"is_disabled":false,"rental_uris":{"android":"levelo://app?vid=ebc6e618-f041-497c-aed9-aed1729dfec2","ios":"levelo://app?vid=ebc6e618-f041-497c-aed9-aed1729dfec2"},"vehicle_type_id":"4","last_reported":1739925959,"current_range_meters":10800,"station_id":"","pricing_plan_id":"cebpf4jnsgd1na2vs0mg"},{"bike_id":"f2bd0e80-1a1c-4c5e-8abe-44eea6773c13","system_id":"levelo_inurba_marseille","lat":43.31261,"lon":5.40185,"is_reserved":false,"is_disabled":false,"rental_uris":{"android":"levelo://app?vid=f2bd0e80-1a1c-4c5e-8abe-44eea6773c13","ios":"levelo://app?vid=f2bd0e80-1a1c-4c5e-8abe-44eea6773c13"},"vehicle_type_id":"4","last_reported":1739925959,"current_range_meters":10800,"station_id":"ce4bh092rcd13ifvqd30","pricing_plan_id":"cebpf4jnsgd1na2vs0mg"},{"bike_id":"07996083-2bb1-4f25-82e7-e63d97f95135","system_id":"levelo_inurba_marseille","lat":43.24796,"lon":5.37449,"is_reserved":false,"is_disabled":false,"rental_uris":{"android":"levelo://app?vid=07996083-2bb1-4f25-82e7-e63d97f95135","ios":"levelo://app?vid=07996083-2bb1-4f25-82e7-e63d97f95135"},"vehicle_type_id":"4","last_reported":1739925959,"current_range_meters":10800,"station_id":"ce4bhgh2rcd13ifvqfb0","pricing_plan_id":"cebpf4jnsgd1na2vs0mg"},{"bike_id":"530e1f32-df4c-4fa6-a604-a93fa1550392","system_id":"levelo_inurba_marseille","lat":43.29667,"lon":5.37935,"is_reserved":false,"is_disabled":false,"rental_uris":{"android":"levelo://app?vid=530e1f32-df4c-4fa6-a604-a93fa1550392","ios":"levelo://app?vid=530e1f32-df4c-4fa6-a604-a93fa1550392"},"vehicle_type_id":"4","last_reported":1739925959,"current_range_meters":10800,"station_id":"","pricing_plan_id":"cebpf4jnsgd1na2vs0mg"},{"bike_id":"2efb74c5-b0ab-4e80-bd16-087048350db4","system_id":"levelo_inurba_marseille","lat":43.29882,"lon":5.39731,"is_reserved":false,"is_disabled":false,"rental_uris":{"android":"levelo://app?vid=2efb74c5-b0ab-4e80-bd16-087048350db4","ios":"levelo://app?vid=2efb74c5-b0ab-4e80-bd16-087048350db4"},"vehicle_type_id":"4","last_reported":1739925959,"current_range_meters":11200,"station_id":"","pricing_plan_id":"cebpf4jnsgd1na2vs0mg"},{"bike_id":"4bf40669-9c35-43f4-8817-8a07f6463fda","system_id":"levelo_inurba_marseille","lat":43.308857,"lon":5.371928,"is_reserved":false,"is_disabled":false,"rental_uris":{"android":"levelo://app?vid=4bf40669-9c35-43f4-8817-8a07f6463fda","ios":"levelo://app?vid=4bf40669-9c35-43f4-8817-8a07f6463fda"},"vehicle_type_id":"4","last_reported":1739925959,"current_range_meters":11200,"station_id":"","pricing_plan_id":"cebpf4jnsgd1na2vs0mg"},{"bike_id":"0e43aaf2-5553-4ce4-8a5f-0e2f15c2357c","system_id":"levelo_inurba_marseille","lat":43.25021,"lon":5.38909,"is_reserved":false,"is_disabled":false,"rental_uris":{"android":"levelo://app?vid=0e43aaf2-5553-4ce4-8a5f-0e2f15c2357c","ios":"levelo://app?vid=0e43aaf2-5553-4ce4-8a5f-0e2f15c2357c"},"vehicle_type_id":"4","last_reported":1739925959,"current_range_meters":11200,"station_id":"ce4bhgp2rcd13ifvqfd0","pricing_plan_id":"cebpf4jnsgd1na2vs0mg"},{"bike_id":"ebd42a07-3c1a-4797-9229-007447e5f2f5","system_id":"levelo_inurba_marseille","lat":43.28673,"lon":5.3633,"is_reserved":false,"is_disabled":false,"rental_uris":{"android":"levelo://app?vid=ebd42a07-3c1a-4797-9229-007447e5f2f5","ios":"levelo://app?vid=ebd42a07-3c1a-4797-9229-007447e5f2f5"},"vehicle_type_id":"4","last_reported":1739925959,"current_range_meters":11200,"station_id":"ce4bhah2rcd13ifvqej0","pricing_plan_id":"cebpf4jnsgd1na2vs0mg"},{"bike_id":"442eb9a9-6af9-47d6-ba34-e89e9722b0f2","system_id":"levelo_inurba_marseille","lat":43.27485,"lon":5.42455,"is_reserved":false,"is_disabled":false,"rental_uris":{"android":"levelo://app?vid=442eb9a9-6af9-47d6-ba34-e89e9722b0f2","ios":"levelo://app?vid=442eb9a9-6af9-47d6-ba34-e89e9722b0f2"},"vehicle_type_id":"4","last_reported":1739925959,"current_range_meters":11600,"station_id":"ce4bhmh2rcd13ifvqgmg","pricing_plan_id":"cebpf4jnsgd1na2vs0mg"},{"bike_id":"7beb0637-fdc1-4315-9de7-143b2e5fe258","system_id":"levelo_inurba_marseille","lat":43.28449,"lon":5.35899,"is_reserved":false,"is_disabled":false,"rental_uris":{"android":"levelo://app?vid=7beb0637-fdc1-4315-9de7-143b2e5fe258","ios":"levelo://app?vid=7beb0637-fdc1-4315-9de7-143b2e5fe258"},"vehicle_type_id":"4","last_reported":1739925959,"current_range_meters":11600,"station_id":"ce4bhah2rcd13ifvqei0","pricing_plan_id":"cebpf4jnsgd1na2vs0mg"},{"bike_id":"ee5ed675-bb03-4728-ab31-548b0122803c","system_id":"levelo_inurba_marseille","lat":43.28693,"lon":5.37404,"is_reserved":false,"is_disabled":false,"rental_uris":{"android":"levelo://app?vid=ee5ed675-bb03-4728-ab31-548b0122803c","ios":"levelo://app?vid=ee5ed675-bb03-4728-ab31-548b0122803c"},"vehicle_type_id":"4","last_reported":1739925959,"current_range_meters":11600,"station_id":"ce4bh3p2rcd13ifvqdq0","pricing_plan_id":"cebpf4jnsgd1na2vs0mg"},{"bike_id":"85e87220-f6a3-46be-8172-f6efecf3643e","system_id":"levelo_inurba_marseille","lat":43.28144,"lon":5.4265,"is_reserved":false,"is_disabled":false,"rental_uris":{"android":"levelo://app?vid=85e87220-f6a3-46be-8172-f6efecf3643e","ios":"levelo://app?vid=85e87220-f6a3-46be-8172-f6efecf3643e"},"vehicle_type_id":"4","last_reported":1739925959,"current_range_meters":11600,"station_id":"","pricing_plan_id":"cebpf4jnsgd1na2vs0mg"},{"bike_id":"66130ab3-09ba-4efc-991d-6fb29a7363a9","system_id":"levelo_inurba_marseille","lat":43.26537,"lon":5.39078,"is_reserved":false,"is_disabled":false,"rental_uris":{"android":"levelo://app?vid=66130ab3-09ba-4efc-991d-6fb29a7363a9","ios":"levelo://app?vid=66130ab3-09ba-4efc-991d-6fb29a7363a9"},"vehicle_type_id":"4","last_reported":1739925959,"current_range_meters":12000,"station_id":"ce4bhe12rcd13ifvqf30","pricing_plan_id":"cebpf4jnsgd1na2vs0mg"},{"bike_id":"cf26339c-5b63-450c-ad04-209feed7638a","system_id":"levelo_inurba_marseille","lat":43.28418,"lon":5.39203,"is_reserved":false,"is_disabled":false,"rental_uris":{"android":"levelo://app?vid=cf26339c-5b63-450c-ad04-209feed7638a","ios":"levelo://app?vid=cf26339c-5b63-450c-ad04-209feed7638a"},"vehicle_type_id":"4","last_reported":1739925959,"current_range_meters":12000,"station_id":"","pricing_plan_id":"cebpf4jnsgd1na2vs0mg"},{"bike_id":"729d7404-1778-4fe3-ac83-d1c64cdf1603","system_id":"levelo_inurba_marseille","lat":43.29707,"lon":5.36592,"is_reserved":false,"is_disabled":false,"rental_uris":{"android":"levelo://app?vid=729d7404-1778-4fe3-ac83-d1c64cdf1603","ios":"levelo://app?vid=729d7404-1778-4fe3-ac83-d1c64cdf1603"},"vehicle_type_id":"4","last_reported":1739925959,"current_range_meters":12000,"station_id":"ce4bgn12rcd13ifvqbt0","pricing_plan_id":"cebpf4jnsgd1na2vs0mg"},{"bike_id":"4aafbb8b-68ec-4703-af07-4a7deefd238a","system_id":"levelo_inurba_marseille","lat":43.29923,"lon":5.36556,"is_reserved":false,"is_disabled":false,"rental_uris":{"android":"levelo://app?vid=4aafbb8b-68ec-4703-af07-4a7deefd238a","ios":"levelo://app?vid=4aafbb8b-68ec-4703-af07-4a7deefd238a"},"vehicle_type_id":"4","last_reported":1739925959,"current_range_meters":12000,"station_id":"ce4bgm92rcd13ifvqbr0","pricing_plan_id":"cebpf4jnsgd1na2vs0mg"},{"bike_id":"e62b11a9-e863-4e0b-86fd-5b1e10318f00","system_id":"levelo_inurba_marseille","lat":43.30877,"lon":5.39674,"is_reserved":false,"is_disabled":false,"rental_uris":{"android":"levelo://app?vid=e62b11a9-e863-4e0b-86fd-5b1e10318f00","ios":"levelo://app?vid=e62b11a9-e863-4e0b-86fd-5b1e10318f00"},"vehicle_type_id":"4","last_reported":1739925959,"current_range_meters":12000,"station_id":"ce4bh012rcd13ifvqcv0","pricing_plan_id":"cebpf4jnsgd1na2vs0mg"},{"bike_id":"5ac779f2-1fb7-4568-b0fe-31c31466d82e","system_id":"levelo_inurba_marseille","lat":43.26563,"lon":5.39009,"is_reserved":false,"is_disabled":false,"rental_uris":{"android":"levelo://app?vid=5ac779f2-1fb7-4568-b0fe-31c31466d82e","ios":"levelo://app?vid=5ac779f2-1fb7-4568-b0fe-31c31466d82e"},"vehicle_type_id":"4","last_reported":1739925959,"current_range_meters":12000,"station_id":"ce4bhe12rcd13ifvqf30","pricing_plan_id":"cebpf4jnsgd1na2vs0mg"},{"bike_id":"f0f61fdf-e262-479f-a259-1997ef9b3f40","system_id":"levelo_inurba_marseille","lat":43.2814,"lon":5.4266,"is_reserved":false,"is_disabled":false,"rental_uris":{"android":"levelo://app?vid=f0f61fdf-e262-479f-a259-1997ef9b3f40","ios":"levelo://app?vid=f0f61fdf-e262-479f-a259-1997ef9b3f40"},"vehicle_type_id":"4","last_reported":1739925959,"current_range_meters":12000,"station_id":"","pricing_plan_id":"cebpf4jnsgd1na2vs0mg"},{"bike_id":"ea1519e7-b5fe-42ac-aa41-a04f66c121d4","system_id":"levelo_inurba_marseille","lat":43.24074,"lon":5.37762,"is_reserved":false,"is_disabled":false,"rental_uris":{"android":"levelo://app?vid=ea1519e7-b5fe-42ac-aa41-a04f66c121d4","ios":"levelo://app?vid=ea1519e7-b5fe-42ac-aa41-a04f66c121d4"},"vehicle_type_id":"4","last_reported":1739925959,"current_range_meters":12000,"station_id":"ce4bhnp2rcd13ifvqgvg","pricing_plan_id":"cebpf4jnsgd1na2vs0mg"},{"bike_id":"6b61a15f-d255-41a0-8166-7f2b93e7d846","system_id":"levelo_inurba_marseille","lat":43.23963,"lon":5.36631,"is_reserved":false,"is_disabled":false,"rental_uris":{"android":"levelo://app?vid=6b61a15f-d255-41a0-8166-7f2b93e7d846","ios":"levelo://app?vid=6b61a15f-d255-41a0-8166-7f2b93e7d846"},"vehicle_type_id":"4","last_reported":1739925959,"current_range_meters":12000,"station_id":"ce4bhi12rcd13ifvqfp0","pricing_plan_id":"cebpf4jnsgd1na2vs0mg"},{"bike_id":"1c7cc57d-72b8-4e06-99e1-774b2b47b295","system_id":"levelo_inurba_marseille","lat":43.287247,"lon":5.360854,"is_reserved":false,"is_disabled":false,"rental_uris":{"android":"levelo://app?vid=1c7cc57d-72b8-4e06-99e1-774b2b47b295","ios":"levelo://app?vid=1c7cc57d-72b8-4e06-99e1-774b2b47b295"},"vehicle_type_id":"4","last_reported":1739925959,"current_range_meters":12400,"station_id":"cki0cbj6b192h4jlfktg","pricing_plan_id":"cebpf4jnsgd1na2vs0mg"},{"bike_id":"f027fe38-3f5d-42fa-b16a-68ca60104c09","system_id":"levelo_inurba_marseille","lat":43.24159,"lon":5.36391,"is_reserved":false,"is_disabled":false,"rental_uris":{"android":"levelo://app?vid=f027fe38-3f5d-42fa-b16a-68ca60104c09","ios":"levelo://app?vid=f027fe38-3f5d-42fa-b16a-68ca60104c09"},"vehicle_type_id":"4","last_reported":1739925959,"current_range_meters":12800,"station_id":"","pricing_plan_id":"cebpf4jnsgd1na2vs0mg"},{"bike_id":"e390b3e0-6373-4792-b8bf-72bf9d2f304d","system_id":"levelo_inurba_marseille","lat":43.28695,"lon":5.37938,"is_reserved":false,"is_disabled":false,"rental_uris":{"android":"levelo://app?vid=e390b3e0-6373-4792-b8bf-72bf9d2f304d","ios":"levelo://app?vid=e390b3e0-6373-4792-b8bf-72bf9d2f304d"},"vehicle_type_id":"4","last_reported":1739925959,"current_range_meters":12400,"station_id":"ce4bh9p2rcd13ifvqec0","pricing_plan_id":"cebpf4jnsgd1na2vs0mg"},{"bike_id":"2dd047c3-b127-473c-9df4-461ec9e68000","system_id":"levelo_inurba_marseille","lat":43.3188,"lon":5.40735,"is_reserved":false,"is_disabled":false,"rental_uris":{"android":"levelo://app?vid=2dd047c3-b127-473c-9df4-461ec9e68000","ios":"levelo://app?vid=2dd047c3-b127-473c-9df4-461ec9e68000"},"vehicle_type_id":"4","last_reported":1739925959,"current_range_meters":12800,"station_id":"ce4bhq12rcd13ifvqhig","pricing_plan_id":"cebpf4jnsgd1na2vs0mg"},{"bike_id":"98b1401a-7342-47bc-852f-3b0a705035c6","system_id":"levelo_inurba_marseille","lat":43.23963,"lon":5.36639,"is_reserved":false,"is_disabled":false,"rental_uris":{"android":"levelo://app?vid=98b1401a-7342-47bc-852f-3b0a705035c6","ios":"levelo://app?vid=98b1401a-7342-47bc-852f-3b0a705035c6"},"vehicle_type_id":"4","last_reported":1739925959,"current_range_meters":13600,"station_id":"ce4bhi12rcd13ifvqfp0","pricing_plan_id":"cebpf4jnsgd1na2vs0mg"},{"bike_id":"8649791e-2902-4391-9163-244df2caea41","system_id":"levelo_inurba_marseille","lat":43.31075,"lon":5.38349,"is_reserved":false,"is_disabled":false,"rental_uris":{"android":"levelo://app?vid=8649791e-2902-4391-9163-244df2caea41","ios":"levelo://app?vid=8649791e-2902-4391-9163-244df2caea41"},"vehicle_type_id":"4","last_reported":1739925959,"current_range_meters":13600,"station_id":"","pricing_plan_id":"cebpf4jnsgd1na2vs0mg"},{"bike_id":"c6b4c1d4-7170-42e8-a495-57f7e8da8511","system_id":"levelo_inurba_marseille","lat":43.24638,"lon":5.38916,"is_reserved":false,"is_disabled":false,"rental_uris":{"android":"levelo://app?vid=c6b4c1d4-7170-42e8-a495-57f7e8da8511","ios":"levelo://app?vid=c6b4c1d4-7170-42e8-a495-57f7e8da8511"},"vehicle_type_id":"4","last_reported":1739925959,"current_range_meters":13600,"station_id":"ce4bhg12rcd13ifvqf60","pricing_plan_id":"cebpf4jnsgd1na2vs0mg"},{"bike_id":"63c4cf47-dbff-4d5e-a88a-080b99df99de","system_id":"levelo_inurba_marseille","lat":43.29491,"lon":5.38875,"is_reserved":false,"is_disabled":true,"rental_uris":{"android":"levelo://app?vid=63c4cf47-dbff-4d5e-a88a-080b99df99de","ios":"levelo://app?vid=63c4cf47-dbff-4d5e-a88a-080b99df99de"},"vehicle_type_id":"4","last_reported":1739925959,"current_range_meters":14000,"station_id":"","pricing_plan_id":"cebpf4jnsgd1na2vs0mg"},{"bike_id":"d1dec037-ee4c-4db9-a655-1087d8ee1f4f","system_id":"levelo_inurba_marseille","lat":43.28444,"lon":5.39175,"is_reserved":false,"is_disabled":true,"rental_uris":{"android":"levelo://app?vid=d1dec037-ee4c-4db9-a655-1087d8ee1f4f","ios":"levelo://app?vid=d1dec037-ee4c-4db9-a655-1087d8ee1f4f"},"vehicle_type_id":"4","last_reported":1739925959,"current_range_meters":14000,"station_id":"","pricing_plan_id":"cebpf4jnsgd1na2vs0mg"},{"bike_id":"62a23491-d2ae-4294-8b74-20dfbf127b08","system_id":"levelo_inurba_marseille","lat":43.29806,"lon":5.40415,"is_reserved":false,"is_disabled":false,"rental_uris":{"android":"levelo://app?vid=62a23491-d2ae-4294-8b74-20dfbf127b08","ios":"levelo://app?vid=62a23491-d2ae-4294-8b74-20dfbf127b08"},"vehicle_type_id":"4","last_reported":1739925959,"current_range_meters":14000,"station_id":"ce4bh112rcd13ifvqd90","pricing_plan_id":"cebpf4jnsgd1na2vs0mg"},{"bike_id":"397b80cf-cbf3-4f7e-9d00-ad56509053a2","system_id":"levelo_inurba_marseille","lat":43.29177,"lon":5.39776,"is_reserved":false,"is_disabled":false,"rental_uris":{"android":"levelo://app?vid=397b80cf-cbf3-4f7e-9d00-ad56509053a2","ios":"levelo://app?vid=397b80cf-cbf3-4f7e-9d00-ad56509053a2"},"vehicle_type_id":"4","last_reported":1739925959,"current_range_meters":14000,"station_id":"","pricing_plan_id":"cebpf4jnsgd1na2vs0mg"},{"bike_id":"4b24adb7-9454-4244-8b6a-eba6dbe9d5f9","system_id":"levelo_inurba_marseille","lat":43.3042,"lon":5.41277,"is_reserved":false,"is_disabled":false,"rental_uris":{"android":"levelo://app?vid=4b24adb7-9454-4244-8b6a-eba6dbe9d5f9","ios":"levelo://app?vid=4b24adb7-9454-4244-8b6a-eba6dbe9d5f9"},"vehicle_type_id":"4","last_reported":1739925959,"current_range_meters":14000,"station_id":"ce4bhop2rcd13ifvqh8g","pricing_plan_id":"cebpf4jnsgd1na2vs0mg"},{"bike_id":"29a80104-7c84-4882-96c6-67eb68777f92","system_id":"levelo_inurba_marseille","lat":43.24874,"lon":5.37429,"is_reserved":false,"is_disabled":false,"rental_uris":{"android":"levelo://app?vid=29a80104-7c84-4882-96c6-67eb68777f92","ios":"levelo://app?vid=29a80104-7c84-4882-96c6-67eb68777f92"},"vehicle_type_id":"4","last_reported":1739925959,"current_range_meters":14000,"station_id":"","pricing_plan_id":"cebpf4jnsgd1na2vs0mg"},{"bike_id":"89b7354b-223a-4feb-969d-8fbb5a2161f1","system_id":"levelo_inurba_marseille","lat":43.28087,"lon":5.37909,"is_reserved":false,"is_disabled":false,"rental_uris":{"android":"levelo://app?vid=89b7354b-223a-4feb-969d-8fbb5a2161f1","ios":"levelo://app?vid=89b7354b-223a-4feb-969d-8fbb5a2161f1"},"vehicle_type_id":"4","last_reported":1739925959,"current_range_meters":14000,"station_id":"","pricing_plan_id":"cebpf4jnsgd1na2vs0mg"},{"bike_id":"2f0159d6-67d6-4164-bb19-cb2ab133b4ae","system_id":"levelo_inurba_marseille","lat":43.23966,"lon":5.36618,"is_reserved":false,"is_disabled":false,"rental_uris":{"android":"levelo://app?vid=2f0159d6-67d6-4164-bb19-cb2ab133b4ae","ios":"levelo://app?vid=2f0159d6-67d6-4164-bb19-cb2ab133b4ae"},"vehicle_type_id":"4","last_reported":1739925959,"current_range_meters":14000,"station_id":"","pricing_plan_id":"cebpf4jnsgd1na2vs0mg"},{"bike_id":"6d64d870-73f5-414b-8581-96d7c609780c","system_id":"levelo_inurba_marseille","lat":43.30225,"lon":5.39738,"is_reserved":false,"is_disabled":false,"rental_uris":{"android":"levelo://app?vid=6d64d870-73f5-414b-8581-96d7c609780c","ios":"levelo://app?vid=6d64d870-73f5-414b-8581-96d7c609780c"},"vehicle_type_id":"4","last_reported":1739925959,"current_range_meters":16000,"station_id":"","pricing_plan_id":"cebpf4jnsgd1na2vs0mg"},{"bike_id":"6c335b3b-f93c-450a-8403-36cd529bb099","system_id":"levelo_inurba_marseille","lat":43.29605,"lon":5.38099,"is_reserved":false,"is_disabled":false,"rental_uris":{"android":"levelo://app?vid=6c335b3b-f93c-450a-8403-36cd529bb099","ios":"levelo://app?vid=6c335b3b-f93c-450a-8403-36cd529bb099"},"vehicle_type_id":"4","last_reported":1739925959,"current_range_meters":14400,"station_id":"","pricing_plan_id":"cebpf4jnsgd1na2vs0mg"},{"bike_id":"2808b5d1-b2a6-4b89-ae1e-ea1270366bb1","system_id":"levelo_inurba_marseille","lat":43.27992,"lon":5.41629,"is_reserved":false,"is_disabled":false,"rental_uris":{"android":"levelo://app?vid=2808b5d1-b2a6-4b89-ae1e-ea1270366bb1","ios":"levelo://app?vid=2808b5d1-b2a6-4b89-ae1e-ea1270366bb1"},"vehicle_type_id":"4","last_reported":1739925959,"current_range_meters":14400,"station_id":"","pricing_plan_id":"cebpf4jnsgd1na2vs0mg"},{"bike_id":"1d63a175-89ef-49ff-9ead-dfe9ed6c22cf","system_id":"levelo_inurba_marseille","lat":43.24685,"lon":5.39423,"is_reserved":false,"is_disabled":false,"rental_uris":{"android":"levelo://app?vid=1d63a175-89ef-49ff-9ead-dfe9ed6c22cf","ios":"levelo://app?vid=1d63a175-89ef-49ff-9ead-dfe9ed6c22cf"},"vehicle_type_id":"4","last_reported":1739925959,"current_range_meters":14400,"station_id":"","pricing_plan_id":"cebpf4jnsgd1na2vs0mg"},{"bike_id":"8975d2e3-9424-43f8-9da1-ac957503ce48","system_id":"levelo_inurba_marseille","lat":43.30792,"lon":5.38157,"is_reserved":false,"is_disabled":false,"rental_uris":{"android":"levelo://app?vid=8975d2e3-9424-43f8-9da1-ac957503ce48","ios":"levelo://app?vid=8975d2e3-9424-43f8-9da1-ac957503ce48"},"vehicle_type_id":"4","last_reported":1739925959,"current_range_meters":14000,"station_id":"ce4bgt12rcd13ifvqce0","pricing_plan_id":"cebpf4jnsgd1na2vs0mg"},{"bike_id":"0bd739e5-7607-4447-8b6d-dd71907e2096","system_id":"levelo_inurba_marseille","lat":43.28448,"lon":5.35892,"is_reserved":false,"is_disabled":false,"rental_uris":{"android":"levelo://app?vid=0bd739e5-7607-4447-8b6d-dd71907e2096","ios":"levelo://app?vid=0bd739e5-7607-4447-8b6d-dd71907e2096"},"vehicle_type_id":"4","last_reported":1739925959,"current_range_meters":14400,"station_id":"","pricing_plan_id":"cebpf4jnsgd1na2vs0mg"},{"bike_id":"c9e76473-9005-44c4-8436-f04e84d6b23c","system_id":"levelo_inurba_marseille","lat":43.30423,"lon":5.388872,"is_reserved":false,"is_disabled":false,"rental_uris":{"android":"levelo://app?vid=c9e76473-9005-44c4-8436-f04e84d6b23c","ios":"levelo://app?vid=c9e76473-9005-44c4-8436-f04e84d6b23c"},"vehicle_type_id":"4","last_reported":1739925959,"current_range_meters":14800,"station_id":"ce4bgk12rcd13ifvqbi0","pricing_plan_id":"cebpf4jnsgd1na2vs0mg"},{"bike_id":"150693b5-e9e5-40db-94aa-ad3bd62b6aa6","system_id":"levelo_inurba_marseille","lat":43.28701,"lon":5.37389,"is_reserved":false,"is_disabled":false,"rental_uris":{"android":"levelo://app?vid=150693b5-e9e5-40db-94aa-ad3bd62b6aa6","ios":"levelo://app?vid=150693b5-e9e5-40db-94aa-ad3bd62b6aa6"},"vehicle_type_id":"4","last_reported":1739925959,"current_range_meters":14800,"station_id":"ce4bh3p2rcd13ifvqdq0","pricing_plan_id":"cebpf4jnsgd1na2vs0mg"},{"bike_id":"fd2d5483-4107-4f1a-b1eb-4debf72583a0","system_id":"levelo_inurba_marseille","lat":43.3043,"lon":5.3889,"is_reserved":false,"is_disabled":false,"rental_uris":{"android":"levelo://app?vid=fd2d5483-4107-4f1a-b1eb-4debf72583a0","ios":"levelo://app?vid=fd2d5483-4107-4f1a-b1eb-4debf72583a0"},"vehicle_type_id":"4","last_reported":1739925959,"current_range_meters":14800,"station_id":"ce4bgk12rcd13ifvqbi0","pricing_plan_id":"cebpf4jnsgd1na2vs0mg"},{"bike_id":"91b1687b-1d68-4f0a-919a-c8ba715a3f0f","system_id":"levelo_inurba_marseille","lat":43.25114,"lon":5.4032,"is_reserved":false,"is_disabled":false,"rental_uris":{"android":"levelo://app?vid=91b1687b-1d68-4f0a-919a-c8ba715a3f0f","ios":"levelo://app?vid=91b1687b-1d68-4f0a-919a-c8ba715a3f0f"},"vehicle_type_id":"4","last_reported":1739925959,"current_range_meters":14800,"station_id":"ce4bhlh2rcd13ifvqgig","pricing_plan_id":"cebpf4jnsgd1na2vs0mg"},{"bike_id":"d2bbc16b-17e1-4745-a415-b4cd89817190","system_id":"levelo_inurba_marseille","lat":43.24657,"lon":5.38896,"is_reserved":false,"is_disabled":false,"rental_uris":{"android":"levelo://app?vid=d2bbc16b-17e1-4745-a415-b4cd89817190","ios":"levelo://app?vid=d2bbc16b-17e1-4745-a415-b4cd89817190"},"vehicle_type_id":"4","last_reported":1739925959,"current_range_meters":15200,"station_id":"ce4bhg12rcd13ifvqf60","pricing_plan_id":"cebpf4jnsgd1na2vs0mg"},{"bike_id":"3f1530f3-97a3-4d2f-8080-b3400c86bc3f","system_id":"levelo_inurba_marseille","lat":43.27484,"lon":5.3949,"is_reserved":false,"is_disabled":false,"rental_uris":{"android":"levelo://app?vid=3f1530f3-97a3-4d2f-8080-b3400c86bc3f","ios":"levelo://app?vid=3f1530f3-97a3-4d2f-8080-b3400c86bc3f"},"vehicle_type_id":"4","last_reported":1739925959,"current_range_meters":15200,"station_id":"","pricing_plan_id":"cebpf4jnsgd1na2vs0mg"},{"bike_id":"a00fb5cd-e0d2-4f96-befb-5275c0df0c87","system_id":"levelo_inurba_marseille","lat":43.27985,"lon":5.41655,"is_reserved":false,"is_disabled":false,"rental_uris":{"android":"levelo://app?vid=a00fb5cd-e0d2-4f96-befb-5275c0df0c87","ios":"levelo://app?vid=a00fb5cd-e0d2-4f96-befb-5275c0df0c87"},"vehicle_type_id":"4","last_reported":1739925959,"current_range_meters":15200,"station_id":"ce4bho12rcd13ifvqh1g","pricing_plan_id":"cebpf4jnsgd1na2vs0mg"},{"bike_id":"34d14ec0-9a1d-4d07-8158-52ff5d0c0371","system_id":"levelo_inurba_marseille","lat":43.29433,"lon":5.38049,"is_reserved":false,"is_disabled":false,"rental_uris":{"android":"levelo://app?vid=34d14ec0-9a1d-4d07-8158-52ff5d0c0371","ios":"levelo://app?vid=34d14ec0-9a1d-4d07-8158-52ff5d0c0371"},"vehicle_type_id":"4","last_reported":1739925959,"current_range_meters":15200,"station_id":"","pricing_plan_id":"cebpf4jnsgd1na2vs0mg"},{"bike_id":"8f04f2b4-ce82-4ae2-ae92-6f91e9b12132","system_id":"levelo_inurba_marseille","lat":43.28703,"lon":5.39958,"is_reserved":false,"is_disabled":false,"rental_uris":{"android":"levelo://app?vid=8f04f2b4-ce82-4ae2-ae92-6f91e9b12132","ios":"levelo://app?vid=8f04f2b4-ce82-4ae2-ae92-6f91e9b12132"},"vehicle_type_id":"4","last_reported":1739925959,"current_range_meters":15200,"station_id":"","pricing_plan_id":"cebpf4jnsgd1na2vs0mg"},{"bike_id":"2dbc425f-3bee-4be2-8fa8-cf09e61f1a7f","system_id":"levelo_inurba_marseille","lat":43.30413,"lon":5.41284,"is_reserved":false,"is_disabled":false,"rental_uris":{"android":"levelo://app?vid=2dbc425f-3bee-4be2-8fa8-cf09e61f1a7f","ios":"levelo://app?vid=2dbc425f-3bee-4be2-8fa8-cf09e61f1a7f"},"vehicle_type_id":"4","last_reported":1739925959,"current_range_meters":15200,"station_id":"ce4bhop2rcd13ifvqh8g","pricing_plan_id":"cebpf4jnsgd1na2vs0mg"},{"bike_id":"53e54bd0-8233-4ff8-b25e-794e3b0dd698","system_id":"levelo_inurba_marseille","lat":43.27825,"lon":5.39208,"is_reserved":false,"is_disabled":false,"rental_uris":{"android":"levelo://app?vid=53e54bd0-8233-4ff8-b25e-794e3b0dd698","ios":"levelo://app?vid=53e54bd0-8233-4ff8-b25e-794e3b0dd698"},"vehicle_type_id":"4","last_reported":1739925959,"current_range_meters":16000,"station_id":"ce4bhjp2rcd13ifvqga0","pricing_plan_id":"cebpf4jnsgd1na2vs0mg"},{"bike_id":"c67fb496-8441-458a-af2d-8f07c087bdd0","system_id":"levelo_inurba_marseille","lat":43.24172,"lon":5.36426,"is_reserved":false,"is_disabled":true,"rental_uris":{"android":"levelo://app?vid=c67fb496-8441-458a-af2d-8f07c087bdd0","ios":"levelo://app?vid=c67fb496-8441-458a-af2d-8f07c087bdd0"},"vehicle_type_id":"4","last_reported":1739925959,"current_range_meters":16000,"station_id":"","pricing_plan_id":"cebpf4jnsgd1na2vs0mg"},{"bike_id":"db7f2d58-492d-4297-aa78-ce0ad99a0a74","system_id":"levelo_inurba_marseille","lat":43.27453,"lon":5.41043,"is_reserved":false,"is_disabled":false,"rental_uris":{"android":"levelo://app?vid=db7f2d58-492d-4297-aa78-ce0ad99a0a74","ios":"levelo://app?vid=db7f2d58-492d-4297-aa78-ce0ad99a0a74"},"vehicle_type_id":"4","last_reported":1739925959,"current_range_meters":16000,"station_id":"ce4bhb92rcd13ifvqen0","pricing_plan_id":"cebpf4jnsgd1na2vs0mg"},{"bike_id":"59c06e16-2c1f-4444-a3f6-6a7b6c9c893e","system_id":"levelo_inurba_marseille","lat":43.30297,"lon":5.3921,"is_reserved":false,"is_disabled":true,"rental_uris":{"android":"levelo://app?vid=59c06e16-2c1f-4444-a3f6-6a7b6c9c893e","ios":"levelo://app?vid=59c06e16-2c1f-4444-a3f6-6a7b6c9c893e"},"vehicle_type_id":"4","last_reported":1739925959,"current_range_meters":16000,"station_id":"ce4bgkh2rcd13ifvqbk0","pricing_plan_id":"cebpf4jnsgd1na2vs0mg"},{"bike_id":"baf6d894-ad10-49a9-b91a-24f60ad956f7","system_id":"levelo_inurba_marseille","lat":43.28976,"lon":5.4268,"is_reserved":false,"is_disabled":false,"rental_uris":{"android":"levelo://app?vid=baf6d894-ad10-49a9-b91a-24f60ad956f7","ios":"levelo://app?vid=baf6d894-ad10-49a9-b91a-24f60ad956f7"},"vehicle_type_id":"4","last_reported":1739925959,"current_range_meters":16000,"station_id":"","pricing_plan_id":"cebpf4jnsgd1na2vs0mg"},{"bike_id":"5a53eb6b-200f-4ac0-8efb-be28f6b20f01","system_id":"levelo_inurba_marseille","lat":43.23968,"lon":5.36625,"is_reserved":false,"is_disabled":false,"rental_uris":{"android":"levelo://app?vid=5a53eb6b-200f-4ac0-8efb-be28f6b20f01","ios":"levelo://app?vid=5a53eb6b-200f-4ac0-8efb-be28f6b20f01"},"vehicle_type_id":"4","last_reported":1739925959,"current_range_meters":16000,"station_id":"","pricing_plan_id":"cebpf4jnsgd1na2vs0mg"},{"bike_id":"93682908-43c6-4032-8e45-6984dd069700","system_id":"levelo_inurba_marseille","lat":43.24637,"lon":5.38906,"is_reserved":false,"is_disabled":false,"rental_uris":{"android":"levelo://app?vid=93682908-43c6-4032-8e45-6984dd069700","ios":"levelo://app?vid=93682908-43c6-4032-8e45-6984dd069700"},"vehicle_type_id":"4","last_reported":1739925959,"current_range_meters":16000,"station_id":"ce4bhg12rcd13ifvqf60","pricing_plan_id":"cebpf4jnsgd1na2vs0mg"},{"bike_id":"fc971b16-bef3-4b6d-813c-ffc8ffa48842","system_id":"levelo_inurba_marseille","lat":43.2841,"lon":5.34986,"is_reserved":false,"is_disabled":true,"rental_uris":{"android":"levelo://app?vid=fc971b16-bef3-4b6d-813c-ffc8ffa48842","ios":"levelo://app?vid=fc971b16-bef3-4b6d-813c-ffc8ffa48842"},"vehicle_type_id":"4","last_reported":1739925959,"current_range_meters":16000,"station_id":"","pricing_plan_id":"cebpf4jnsgd1na2vs0mg"},{"bike_id":"47f0921d-aa1d-4b4b-a868-e9e97a59a34c","system_id":"levelo_inurba_marseille","lat":43.296,"lon":5.381017,"is_reserved":false,"is_disabled":true,"rental_uris":{"android":"levelo://app?vid=47f0921d-aa1d-4b4b-a868-e9e97a59a34c","ios":"levelo://app?vid=47f0921d-aa1d-4b4b-a868-e9e97a59a34c"},"vehicle_type_id":"4","last_reported":1739925959,"current_range_meters":16000,"station_id":"ce4bgl12rcd13ifvqbo0","pricing_plan_id":"cebpf4jnsgd1na2vs0mg"},{"bike_id":"a8c89a23-99a6-4794-9ee3-4e5c07f642a3","system_id":"levelo_inurba_marseille","lat":43.30199,"lon":5.3946,"is_reserved":false,"is_disabled":false,"rental_uris":{"android":"levelo://app?vid=a8c89a23-99a6-4794-9ee3-4e5c07f642a3","ios":"levelo://app?vid=a8c89a23-99a6-4794-9ee3-4e5c07f642a3"},"vehicle_type_id":"4","last_reported":1739925959,"current_range_meters":16000,"station_id":"","pricing_plan_id":"cebpf4jnsgd1na2vs0mg"},{"bike_id":"8b02c9e0-ece7-49cb-a377-20f8942d546e","system_id":"levelo_inurba_marseille","lat":43.28736,"lon":5.36079,"is_reserved":false,"is_disabled":false,"rental_uris":{"android":"levelo://app?vid=8b02c9e0-ece7-49cb-a377-20f8942d546e","ios":"levelo://app?vid=8b02c9e0-ece7-49cb-a377-20f8942d546e"},"vehicle_type_id":"4","last_reported":1739925959,"current_range_meters":16000,"station_id":"cki0cbj6b192h4jlfktg","pricing_plan_id":"cebpf4jnsgd1na2vs0mg"},{"bike_id":"b64778c2-2434-4409-b125-e965a1fd469a","system_id":"levelo_inurba_marseille","lat":43.302921,"lon":5.366886,"is_reserved":false,"is_disabled":false,"rental_uris":{"android":"levelo://app?vid=b64778c2-2434-4409-b125-e965a1fd469a","ios":"levelo://app?vid=b64778c2-2434-4409-b125-e965a1fd469a"},"vehicle_type_id":"4","last_reported":1739925959,"current_range_meters":16000,"station_id":"ce4bgs12rcd13ifvqcag","pricing_plan_id":"cebpf4jnsgd1na2vs0mg"},{"bike_id":"1c43eb49-ea1b-41ce-946d-e5fe349433b9","system_id":"levelo_inurba_marseille","lat":43.27937,"lon":5.41041,"is_reserved":false,"is_disabled":false,"rental_uris":{"android":"levelo://app?vid=1c43eb49-ea1b-41ce-946d-e5fe349433b9","ios":"levelo://app?vid=1c43eb49-ea1b-41ce-946d-e5fe349433b9"},"vehicle_type_id":"4","last_reported":1739925959,"current_range_meters":16400,"station_id":"ce4bhnp2rcd13ifvqh0g","pricing_plan_id":"cebpf4jnsgd1na2vs0mg"},{"bike_id":"090d254b-7e06-4322-b664-ffb12aca0039","system_id":"levelo_inurba_marseille","lat":43.28436,"lon":5.34986,"is_reserved":false,"is_disabled":false,"rental_uris":{"android":"levelo://app?vid=090d254b-7e06-4322-b664-ffb12aca0039","ios":"levelo://app?vid=090d254b-7e06-4322-b664-ffb12aca0039"},"vehicle_type_id":"4","last_reported":1739925959,"current_range_meters":16400,"station_id":"ce4bhbh2rcd13ifvqepg","pricing_plan_id":"cebpf4jnsgd1na2vs0mg"},{"bike_id":"5bf48597-a71c-452b-987b-7a4d53313741","system_id":"levelo_inurba_marseille","lat":43.28708,"lon":5.39992,"is_reserved":false,"is_disabled":false,"rental_uris":{"android":"levelo://app?vid=5bf48597-a71c-452b-987b-7a4d53313741","ios":"levelo://app?vid=5bf48597-a71c-452b-987b-7a4d53313741"},"vehicle_type_id":"4","last_reported":1739925959,"current_range_meters":16400,"station_id":"ce4bho92rcd13ifvqh3g","pricing_plan_id":"cebpf4jnsgd1na2vs0mg"},{"bike_id":"fbf9ca1a-508e-40dc-b3a5-3c72272a275f","system_id":"levelo_inurba_marseille","lat":43.28396,"lon":5.37529,"is_reserved":false,"is_disabled":false,"rental_uris":{"android":"levelo://app?vid=fbf9ca1a-508e-40dc-b3a5-3c72272a275f","ios":"levelo://app?vid=fbf9ca1a-508e-40dc-b3a5-3c72272a275f"},"vehicle_type_id":"4","last_reported":1739925959,"current_range_meters":16400,"station_id":"ce4bh412rcd13ifvqds0","pricing_plan_id":"cebpf4jnsgd1na2vs0mg"},{"bike_id":"3b206c53-d161-476c-ada8-c634428579ca","system_id":"levelo_inurba_marseille","lat":43.27492,"lon":5.42445,"is_reserved":false,"is_disabled":false,"rental_uris":{"android":"levelo://app?vid=3b206c53-d161-476c-ada8-c634428579ca","ios":"levelo://app?vid=3b206c53-d161-476c-ada8-c634428579ca"},"vehicle_type_id":"4","last_reported":1739925959,"current_range_meters":16400,"station_id":"ce4bhn92rcd13ifvqgrg","pricing_plan_id":"cebpf4jnsgd1na2vs0mg"},{"bike_id":"d32e8a00-2a77-4bd0-84d9-45bbeb2c03ac","system_id":"levelo_inurba_marseille","lat":43.31272,"lon":5.40173,"is_reserved":false,"is_disabled":false,"rental_uris":{"android":"levelo://app?vid=d32e8a00-2a77-4bd0-84d9-45bbeb2c03ac","ios":"levelo://app?vid=d32e8a00-2a77-4bd0-84d9-45bbeb2c03ac"},"vehicle_type_id":"4","last_reported":1739925959,"current_range_meters":16400,"station_id":"ce4bh092rcd13ifvqd30","pricing_plan_id":"cebpf4jnsgd1na2vs0mg"},{"bike_id":"24dd12c1-4d8a-40c0-b521-a98d2d462c41","system_id":"levelo_inurba_marseille","lat":43.24165,"lon":5.36394,"is_reserved":false,"is_disabled":false,"rental_uris":{"android":"levelo://app?vid=24dd12c1-4d8a-40c0-b521-a98d2d462c41","ios":"levelo://app?vid=24dd12c1-4d8a-40c0-b521-a98d2d462c41"},"vehicle_type_id":"4","last_reported":1739925959,"current_range_meters":16400,"station_id":"","pricing_plan_id":"cebpf4jnsgd1na2vs0mg"},{"bike_id":"e3422978-e3d1-4168-a7a6-5ae7ec99e03f","system_id":"levelo_inurba_marseille","lat":43.272,"lon":5.40969,"is_reserved":false,"is_disabled":false,"rental_uris":{"android":"levelo://app?vid=e3422978-e3d1-4168-a7a6-5ae7ec99e03f","ios":"levelo://app?vid=e3422978-e3d1-4168-a7a6-5ae7ec99e03f"},"vehicle_type_id":"4","last_reported":1739925959,"current_range_meters":16400,"station_id":"","pricing_plan_id":"cebpf4jnsgd1na2vs0mg"},{"bike_id":"5d5578c2-a2af-4336-8a20-d08d83d12092","system_id":"levelo_inurba_marseille","lat":43.27822,"lon":5.39216,"is_reserved":false,"is_disabled":false,"rental_uris":{"android":"levelo://app?vid=5d5578c2-a2af-4336-8a20-d08d83d12092","ios":"levelo://app?vid=5d5578c2-a2af-4336-8a20-d08d83d12092"},"vehicle_type_id":"4","last_reported":1739925959,"current_range_meters":16400,"station_id":"ce4bhjp2rcd13ifvqga0","pricing_plan_id":"cebpf4jnsgd1na2vs0mg"},{"bike_id":"9935677e-0262-4894-974f-fec1281c49ef","system_id":"levelo_inurba_marseille","lat":43.295191,"lon":5.393969,"is_reserved":false,"is_disabled":false,"rental_uris":{"android":"levelo://app?vid=9935677e-0262-4894-974f-fec1281c49ef","ios":"levelo://app?vid=9935677e-0262-4894-974f-fec1281c49ef"},"vehicle_type_id":"4","last_reported":1739925959,"current_range_meters":16400,"station_id":"ce4bh292rcd13ifvqdf0","pricing_plan_id":"cebpf4jnsgd1na2vs0mg"},{"bike_id":"618ea6ac-e1e1-4ad3-b2b1-cca47934b1a9","system_id":"levelo_inurba_marseille","lat":43.28942,"lon":5.36615,"is_reserved":false,"is_disabled":false,"rental_uris":{"android":"levelo://app?vid=618ea6ac-e1e1-4ad3-b2b1-cca47934b1a9","ios":"levelo://app?vid=618ea6ac-e1e1-4ad3-b2b1-cca47934b1a9"},"vehicle_type_id":"4","last_reported":1739925959,"current_range_meters":16400,"station_id":"ce4bhap2rcd13ifvqek0","pricing_plan_id":"cebpf4jnsgd1na2vs0mg"},{"bike_id":"1e5f00f6-5fb6-454d-965d-0f1a57b392dd","system_id":"levelo_inurba_marseille","lat":43.31184,"lon":5.38732,"is_reserved":false,"is_disabled":false,"rental_uris":{"android":"levelo://app?vid=1e5f00f6-5fb6-454d-965d-0f1a57b392dd","ios":"levelo://app?vid=1e5f00f6-5fb6-454d-965d-0f1a57b392dd"},"vehicle_type_id":"4","last_reported":1739925959,"current_range_meters":16400,"station_id":"ce4bgv12rcd13ifvqcp0","pricing_plan_id":"cebpf4jnsgd1na2vs0mg"},{"bike_id":"5180f318-4948-4085-aaf1-5f3160b57dbe","system_id":"levelo_inurba_marseille","lat":43.27611,"lon":5.36108,"is_reserved":false,"is_disabled":true,"rental_uris":{"android":"levelo://app?vid=5180f318-4948-4085-aaf1-5f3160b57dbe","ios":"levelo://app?vid=5180f318-4948-4085-aaf1-5f3160b57dbe"},"vehicle_type_id":"4","last_reported":1739925959,"current_range_meters":16400,"station_id":"ce4bgj92rcd13ifvqbe0","pricing_plan_id":"cebpf4jnsgd1na2vs0mg"},{"bike_id":"15b0174e-ab3a-4cc4-86ef-34755cf70d1a","system_id":"levelo_inurba_marseille","lat":43.30925,"lon":5.40164,"is_reserved":false,"is_disabled":false,"rental_uris":{"android":"levelo://app?vid=15b0174e-ab3a-4cc4-86ef-34755cf70d1a","ios":"levelo://app?vid=15b0174e-ab3a-4cc4-86ef-34755cf70d1a"},"vehicle_type_id":"4","last_reported":1739925959,"current_range_meters":16800,"station_id":"","pricing_plan_id":"cebpf4jnsgd1na2vs0mg"},{"bike_id":"af8da04b-d58f-4e51-9b15-e88ec8d5ef2f","system_id":"levelo_inurba_marseille","lat":43.28453,"lon":5.35885,"is_reserved":false,"is_disabled":false,"rental_uris":{"android":"levelo://app?vid=af8da04b-d58f-4e51-9b15-e88ec8d5ef2f","ios":"levelo://app?vid=af8da04b-d58f-4e51-9b15-e88ec8d5ef2f"},"vehicle_type_id":"4","last_reported":1739925959,"current_range_meters":16800,"station_id":"ce4bhah2rcd13ifvqei0","pricing_plan_id":"cebpf4jnsgd1na2vs0mg"},{"bike_id":"712b3527-737c-4555-bbb2-2952f0c5ba44","system_id":"levelo_inurba_marseille","lat":43.28022,"lon":5.36944,"is_reserved":false,"is_disabled":false,"rental_uris":{"android":"levelo://app?vid=712b3527-737c-4555-bbb2-2952f0c5ba44","ios":"levelo://app?vid=712b3527-737c-4555-bbb2-2952f0c5ba44"},"vehicle_type_id":"4","last_reported":1739925959,"current_range_meters":16800,"station_id":"ce4bha12rcd13ifvqef0","pricing_plan_id":"cebpf4jnsgd1na2vs0mg"},{"bike_id":"b7c1be6c-763f-4f1e-81d3-d99c2e779f8e","system_id":"levelo_inurba_marseille","lat":43.2717,"lon":5.40998,"is_reserved":false,"is_disabled":false,"rental_uris":{"android":"levelo://app?vid=b7c1be6c-763f-4f1e-81d3-d99c2e779f8e","ios":"levelo://app?vid=b7c1be6c-763f-4f1e-81d3-d99c2e779f8e"},"vehicle_type_id":"4","last_reported":1739925959,"current_range_meters":16800,"station_id":"ce4bhl12rcd13ifvqgf0","pricing_plan_id":"cebpf4jnsgd1na2vs0mg"},{"bike_id":"1bbcc8d5-a5b1-4bc6-8c8e-4a8c2fa46283","system_id":"levelo_inurba_marseille","lat":43.27906,"lon":5.38013,"is_reserved":false,"is_disabled":false,"rental_uris":{"android":"levelo://app?vid=1bbcc8d5-a5b1-4bc6-8c8e-4a8c2fa46283","ios":"levelo://app?vid=1bbcc8d5-a5b1-4bc6-8c8e-4a8c2fa46283"},"vehicle_type_id":"4","last_reported":1739925959,"current_range_meters":16800,"station_id":"ce4bhf92rcd13ifvqf50","pricing_plan_id":"cebpf4jnsgd1na2vs0mg"},{"bike_id":"9a20bf4a-2838-4260-9d28-debd745460c0","system_id":"levelo_inurba_marseille","lat":43.30883,"lon":5.37801,"is_reserved":false,"is_disabled":false,"rental_uris":{"android":"levelo://app?vid=9a20bf4a-2838-4260-9d28-debd745460c0","ios":"levelo://app?vid=9a20bf4a-2838-4260-9d28-debd745460c0"},"vehicle_type_id":"4","last_reported":1739925959,"current_range_meters":16800,"station_id":"ce4bgv92rcd13ifvqcq0","pricing_plan_id":"cebpf4jnsgd1na2vs0mg"},{"bike_id":"bd14d312-2e14-49ec-8eda-7f9faf5d358b","system_id":"levelo_inurba_marseille","lat":43.32105,"lon":5.36772,"is_reserved":false,"is_disabled":false,"rental_uris":{"android":"levelo://app?vid=bd14d312-2e14-49ec-8eda-7f9faf5d358b","ios":"levelo://app?vid=bd14d312-2e14-49ec-8eda-7f9faf5d358b"},"vehicle_type_id":"4","last_reported":1739925959,"current_range_meters":16800,"station_id":"ce4bhrh2rcd13ifvqhug","pricing_plan_id":"cebpf4jnsgd1na2vs0mg"},{"bike_id":"5b80abf9-df02-44a7-b61b-dd0a85631c27","system_id":"levelo_inurba_marseille","lat":43.23963,"lon":5.36647,"is_reserved":false,"is_disabled":false,"rental_uris":{"android":"levelo://app?vid=5b80abf9-df02-44a7-b61b-dd0a85631c27","ios":"levelo://app?vid=5b80abf9-df02-44a7-b61b-dd0a85631c27"},"vehicle_type_id":"4","last_reported":1739925959,"current_range_meters":16800,"station_id":"","pricing_plan_id":"cebpf4jnsgd1na2vs0mg"},{"bike_id":"b55c6a2a-b46f-46ea-a538-ee515a357de6","system_id":"levelo_inurba_marseille","lat":43.32051,"lon":5.41555,"is_reserved":false,"is_disabled":false,"rental_uris":{"android":"levelo://app?vid=b55c6a2a-b46f-46ea-a538-ee515a357de6","ios":"levelo://app?vid=b55c6a2a-b46f-46ea-a538-ee515a357de6"},"vehicle_type_id":"4","last_reported":1739925959,"current_range_meters":16800,"station_id":"","pricing_plan_id":"cebpf4jnsgd1na2vs0mg"},{"bike_id":"5f9ede52-c720-4107-a864-980fb2608395","system_id":"levelo_inurba_marseille","lat":43.24127,"lon":5.38742,"is_reserved":false,"is_disabled":false,"rental_uris":{"android":"levelo://app?vid=5f9ede52-c720-4107-a864-980fb2608395","ios":"levelo://app?vid=5f9ede52-c720-4107-a864-980fb2608395"},"vehicle_type_id":"4","last_reported":1739925959,"current_range_meters":17200,"station_id":"","pricing_plan_id":"cebpf4jnsgd1na2vs0mg"},{"bike_id":"e8af6774-9853-4dcf-b2da-40728ab09614","system_id":"levelo_inurba_marseille","lat":43.28261,"lon":5.35067,"is_reserved":false,"is_disabled":false,"rental_uris":{"android":"levelo://app?vid=e8af6774-9853-4dcf-b2da-40728ab09614","ios":"levelo://app?vid=e8af6774-9853-4dcf-b2da-40728ab09614"},"vehicle_type_id":"4","last_reported":1739925959,"current_range_meters":17200,"station_id":"ce4bhbp2rcd13ifvqerg","pricing_plan_id":"cebpf4jnsgd1na2vs0mg"},{"bike_id":"5089bb88-a0cd-4434-a1a9-f3d5b67361c6","system_id":"levelo_inurba_marseille","lat":43.24407,"lon":5.38665,"is_reserved":false,"is_disabled":false,"rental_uris":{"android":"levelo://app?vid=5089bb88-a0cd-4434-a1a9-f3d5b67361c6","ios":"levelo://app?vid=5089bb88-a0cd-4434-a1a9-f3d5b67361c6"},"vehicle_type_id":"4","last_reported":1739925959,"current_range_meters":17200,"station_id":"","pricing_plan_id":"cebpf4jnsgd1na2vs0mg"},{"bike_id":"659813f7-fc3e-49b2-b743-3ceee2ae3dd9","system_id":"levelo_inurba_marseille","lat":43.23185,"lon":5.39983,"is_reserved":false,"is_disabled":false,"rental_uris":{"android":"levelo://app?vid=659813f7-fc3e-49b2-b743-3ceee2ae3dd9","ios":"levelo://app?vid=659813f7-fc3e-49b2-b743-3ceee2ae3dd9"},"vehicle_type_id":"4","last_reported":1739925959,"current_range_meters":17200,"station_id":"ce4bhn12rcd13ifvqgqg","pricing_plan_id":"cebpf4jnsgd1na2vs0mg"},{"bike_id":"af106718-5533-468b-b311-34ef2267eaa9","system_id":"levelo_inurba_marseille","lat":43.25086,"lon":5.39528,"is_reserved":false,"is_disabled":false,"rental_uris":{"android":"levelo://app?vid=af106718-5533-468b-b311-34ef2267eaa9","ios":"levelo://app?vid=af106718-5533-468b-b311-34ef2267eaa9"},"vehicle_type_id":"4","last_reported":1739925959,"current_range_meters":17200,"station_id":"ce4bhm12rcd13ifvqgkg","pricing_plan_id":"cebpf4jnsgd1na2vs0mg"},{"bike_id":"33604822-0839-49e5-a64a-3e509bb43553","system_id":"levelo_inurba_marseille","lat":43.28161,"lon":5.42667,"is_reserved":false,"is_disabled":false,"rental_uris":{"android":"levelo://app?vid=33604822-0839-49e5-a64a-3e509bb43553","ios":"levelo://app?vid=33604822-0839-49e5-a64a-3e509bb43553"},"vehicle_type_id":"4","last_reported":1739925959,"current_range_meters":17200,"station_id":"ce4bhnh2rcd13ifvqgug","pricing_plan_id":"cebpf4jnsgd1na2vs0mg"},{"bike_id":"5ecd443d-db34-486a-b6f9-c8e67e540a70","system_id":"levelo_inurba_marseille","lat":43.28616,"lon":5.35107,"is_reserved":false,"is_disabled":false,"rental_uris":{"android":"levelo://app?vid=5ecd443d-db34-486a-b6f9-c8e67e540a70","ios":"levelo://app?vid=5ecd443d-db34-486a-b6f9-c8e67e540a70"},"vehicle_type_id":"4","last_reported":1739925959,"current_range_meters":17200,"station_id":"ce4bhch2rcd13ifvqeug","pricing_plan_id":"cebpf4jnsgd1na2vs0mg"},{"bike_id":"7e3809a0-01e4-4f37-9275-3c7b0fd64ef4","system_id":"levelo_inurba_marseille","lat":43.27913,"lon":5.39601,"is_reserved":false,"is_disabled":false,"rental_uris":{"android":"levelo://app?vid=7e3809a0-01e4-4f37-9275-3c7b0fd64ef4","ios":"levelo://app?vid=7e3809a0-01e4-4f37-9275-3c7b0fd64ef4"},"vehicle_type_id":"4","last_reported":1739925959,"current_range_meters":17200,"station_id":"ce4bhf92rcd13ifvqf40","pricing_plan_id":"cebpf4jnsgd1na2vs0mg"},{"bike_id":"b9733126-3c3f-4c59-bad9-f580c8a42f02","system_id":"levelo_inurba_marseille","lat":43.23192,"lon":5.39988,"is_reserved":false,"is_disabled":false,"rental_uris":{"android":"levelo://app?vid=b9733126-3c3f-4c59-bad9-f580c8a42f02","ios":"levelo://app?vid=b9733126-3c3f-4c59-bad9-f580c8a42f02"},"vehicle_type_id":"4","last_reported":1739925959,"current_range_meters":17200,"station_id":"ce4bhn12rcd13ifvqgqg","pricing_plan_id":"cebpf4jnsgd1na2vs0mg"},{"bike_id":"05870f88-3b88-4731-867f-b6f8d5bc8150","system_id":"levelo_inurba_marseille","lat":43.2988,"lon":5.3974,"is_reserved":false,"is_disabled":false,"rental_uris":{"android":"levelo://app?vid=05870f88-3b88-4731-867f-b6f8d5bc8150","ios":"levelo://app?vid=05870f88-3b88-4731-867f-b6f8d5bc8150"},"vehicle_type_id":"4","last_reported":1739925959,"current_range_meters":17200,"station_id":"","pricing_plan_id":"cebpf4jnsgd1na2vs0mg"},{"bike_id":"e46c179c-969e-4fe6-8b83-52017debaf62","system_id":"levelo_inurba_marseille","lat":43.27913,"lon":5.39574,"is_reserved":false,"is_disabled":false,"rental_uris":{"android":"levelo://app?vid=e46c179c-969e-4fe6-8b83-52017debaf62","ios":"levelo://app?vid=e46c179c-969e-4fe6-8b83-52017debaf62"},"vehicle_type_id":"4","last_reported":1739925959,"current_range_meters":17200,"station_id":"ce4bhf92rcd13ifvqf40","pricing_plan_id":"cebpf4jnsgd1na2vs0mg"},{"bike_id":"47c92581-3495-49b4-8e5b-3bee30320655","system_id":"levelo_inurba_marseille","lat":43.29264,"lon":5.40094,"is_reserved":false,"is_disabled":false,"rental_uris":{"android":"levelo://app?vid=47c92581-3495-49b4-8e5b-3bee30320655","ios":"levelo://app?vid=47c92581-3495-49b4-8e5b-3bee30320655"},"vehicle_type_id":"4","last_reported":1739925959,"current_range_meters":17200,"station_id":"","pricing_plan_id":"cebpf4jnsgd1na2vs0mg"},{"bike_id":"b85644ed-f65a-4039-a397-da921e97276e","system_id":"levelo_inurba_marseille","lat":43.23966,"lon":5.36632,"is_reserved":false,"is_disabled":false,"rental_uris":{"android":"levelo://app?vid=b85644ed-f65a-4039-a397-da921e97276e","ios":"levelo://app?vid=b85644ed-f65a-4039-a397-da921e97276e"},"vehicle_type_id":"4","last_reported":1739925959,"current_range_meters":17600,"station_id":"ce4bhi12rcd13ifvqfp0","pricing_plan_id":"cebpf4jnsgd1na2vs0mg"},{"bike_id":"a0af3547-0f5a-4ee7-a39d-23ed992db956","system_id":"levelo_inurba_marseille","lat":43.23418,"lon":5.40452,"is_reserved":false,"is_disabled":false,"rental_uris":{"android":"levelo://app?vid=a0af3547-0f5a-4ee7-a39d-23ed992db956","ios":"levelo://app?vid=a0af3547-0f5a-4ee7-a39d-23ed992db956"},"vehicle_type_id":"4","last_reported":1739925959,"current_range_meters":17600,"station_id":"","pricing_plan_id":"cebpf4jnsgd1na2vs0mg"},{"bike_id":"ffa697b7-285b-4519-acbd-7c152b9e76d0","system_id":"levelo_inurba_marseille","lat":43.28713,"lon":5.36106,"is_reserved":false,"is_disabled":false,"rental_uris":{"android":"levelo://app?vid=ffa697b7-285b-4519-acbd-7c152b9e76d0","ios":"levelo://app?vid=ffa697b7-285b-4519-acbd-7c152b9e76d0"},"vehicle_type_id":"4","last_reported":1739925959,"current_range_meters":17600,"station_id":"cki0cbj6b192h4jlfktg","pricing_plan_id":"cebpf4jnsgd1na2vs0mg"},{"bike_id":"af246186-84c5-47ac-9840-acf8926725e0","system_id":"levelo_inurba_marseille","lat":43.23958,"lon":5.36625,"is_reserved":false,"is_disabled":false,"rental_uris":{"android":"levelo://app?vid=af246186-84c5-47ac-9840-acf8926725e0","ios":"levelo://app?vid=af246186-84c5-47ac-9840-acf8926725e0"},"vehicle_type_id":"4","last_reported":1739925959,"current_range_meters":17600,"station_id":"","pricing_plan_id":"cebpf4jnsgd1na2vs0mg"},{"bike_id":"ec5814cc-8b7e-4d45-b2f0-e8a2b9b37adc","system_id":"levelo_inurba_marseille","lat":43.28145,"lon":5.42646,"is_reserved":false,"is_disabled":false,"rental_uris":{"android":"levelo://app?vid=ec5814cc-8b7e-4d45-b2f0-e8a2b9b37adc","ios":"levelo://app?vid=ec5814cc-8b7e-4d45-b2f0-e8a2b9b37adc"},"vehicle_type_id":"4","last_reported":1739925959,"current_range_meters":17600,"station_id":"ce4bhnh2rcd13ifvqgug","pricing_plan_id":"cebpf4jnsgd1na2vs0mg"},{"bike_id":"780aed50-8925-4c8b-93f6-f1bec5770765","system_id":"levelo_inurba_marseille","lat":43.28613,"lon":5.35105,"is_reserved":false,"is_disabled":false,"rental_uris":{"android":"levelo://app?vid=780aed50-8925-4c8b-93f6-f1bec5770765","ios":"levelo://app?vid=780aed50-8925-4c8b-93f6-f1bec5770765"},"vehicle_type_id":"4","last_reported":1739925959,"current_range_meters":17600,"station_id":"ce4bhch2rcd13ifvqeug","pricing_plan_id":"cebpf4jnsgd1na2vs0mg"},{"bike_id":"21c97aee-504c-480f-84c7-11258b97f58a","system_id":"levelo_inurba_marseille","lat":43.28932,"lon":5.38399,"is_reserved":false,"is_disabled":false,"rental_uris":{"android":"levelo://app?vid=21c97aee-504c-480f-84c7-11258b97f58a","ios":"levelo://app?vid=21c97aee-504c-480f-84c7-11258b97f58a"},"vehicle_type_id":"4","last_reported":1739925959,"current_range_meters":17600,"station_id":"ce4bh612rcd13ifvqe6g","pricing_plan_id":"cebpf4jnsgd1na2vs0mg"},{"bike_id":"53cc3e09-8226-4f83-9e42-b5b81a54d618","system_id":"levelo_inurba_marseille","lat":43.28853,"lon":5.35865,"is_reserved":false,"is_disabled":false,"rental_uris":{"android":"levelo://app?vid=53cc3e09-8226-4f83-9e42-b5b81a54d618","ios":"levelo://app?vid=53cc3e09-8226-4f83-9e42-b5b81a54d618"},"vehicle_type_id":"4","last_reported":1739925959,"current_range_meters":17600,"station_id":"ce4bhdp2rcd13ifvqf20","pricing_plan_id":"cebpf4jnsgd1na2vs0mg"},{"bike_id":"ee318ccd-c697-43a6-bafd-c758274e6962","system_id":"levelo_inurba_marseille","lat":43.30329,"lon":5.40098,"is_reserved":false,"is_disabled":false,"rental_uris":{"android":"levelo://app?vid=ee318ccd-c697-43a6-bafd-c758274e6962","ios":"levelo://app?vid=ee318ccd-c697-43a6-bafd-c758274e6962"},"vehicle_type_id":"4","last_reported":1739925959,"current_range_meters":17600,"station_id":"","pricing_plan_id":"cebpf4jnsgd1na2vs0mg"},{"bike_id":"25463790-041d-4228-abe8-4cb0481d16fb","system_id":"levelo_inurba_marseille","lat":43.28698,"lon":5.39983,"is_reserved":false,"is_disabled":false,"rental_uris":{"android":"levelo://app?vid=25463790-041d-4228-abe8-4cb0481d16fb","ios":"levelo://app?vid=25463790-041d-4228-abe8-4cb0481d16fb"},"vehicle_type_id":"4","last_reported":1739925959,"current_range_meters":18000,"station_id":"","pricing_plan_id":"cebpf4jnsgd1na2vs0mg"},{"bike_id":"ba0a4dbe-d370-492e-a789-44c6ef69c02b","system_id":"levelo_inurba_marseille","lat":43.28614,"lon":5.35109,"is_reserved":false,"is_disabled":false,"rental_uris":{"android":"levelo://app?vid=ba0a4dbe-d370-492e-a789-44c6ef69c02b","ios":"levelo://app?vid=ba0a4dbe-d370-492e-a789-44c6ef69c02b"},"vehicle_type_id":"4","last_reported":1739925959,"current_range_meters":18000,"station_id":"","pricing_plan_id":"cebpf4jnsgd1na2vs0mg"},{"bike_id":"92976659-85fd-47c2-b762-4263c63c96d3","system_id":"levelo_inurba_marseille","lat":43.30097,"lon":5.39088,"is_reserved":false,"is_disabled":false,"rental_uris":{"android":"levelo://app?vid=92976659-85fd-47c2-b762-4263c63c96d3","ios":"levelo://app?vid=92976659-85fd-47c2-b762-4263c63c96d3"},"vehicle_type_id":"4","last_reported":1739925959,"current_range_meters":18000,"station_id":"ce4bh192rcd13ifvqdb0","pricing_plan_id":"cebpf4jnsgd1na2vs0mg"},{"bike_id":"03b254b4-0be6-4242-b808-ae2832892601","system_id":"levelo_inurba_marseille","lat":43.29022,"lon":5.35922,"is_reserved":false,"is_disabled":false,"rental_uris":{"android":"levelo://app?vid=03b254b4-0be6-4242-b808-ae2832892601","ios":"levelo://app?vid=03b254b4-0be6-4242-b808-ae2832892601"},"vehicle_type_id":"4","last_reported":1739925959,"current_range_meters":18000,"station_id":"ce4bha92rcd13ifvqeg0","pricing_plan_id":"cebpf4jnsgd1na2vs0mg"},{"bike_id":"c4360e19-f166-43bf-b819-11bc86f8932b","system_id":"levelo_inurba_marseille","lat":43.30419,"lon":5.412895,"is_reserved":false,"is_disabled":false,"rental_uris":{"android":"levelo://app?vid=c4360e19-f166-43bf-b819-11bc86f8932b","ios":"levelo://app?vid=c4360e19-f166-43bf-b819-11bc86f8932b"},"vehicle_type_id":"4","last_reported":1739925959,"current_range_meters":18000,"station_id":"ce4bhop2rcd13ifvqh8g","pricing_plan_id":"cebpf4jnsgd1na2vs0mg"},{"bike_id":"2e65bb49-c0f1-41aa-b38f-342e2076ebe3","system_id":"levelo_inurba_marseille","lat":43.28843,"lon":5.3587,"is_reserved":false,"is_disabled":false,"rental_uris":{"android":"levelo://app?vid=2e65bb49-c0f1-41aa-b38f-342e2076ebe3","ios":"levelo://app?vid=2e65bb49-c0f1-41aa-b38f-342e2076ebe3"},"vehicle_type_id":"4","last_reported":1739925959,"current_range_meters":18000,"station_id":"ce4bhb12rcd13ifvqem0","pricing_plan_id":"cebpf4jnsgd1na2vs0mg"},{"bike_id":"f7db23b2-4c03-4c27-a486-c3e2483540b0","system_id":"levelo_inurba_marseille","lat":43.28742,"lon":5.36069,"is_reserved":false,"is_disabled":false,"rental_uris":{"android":"levelo://app?vid=f7db23b2-4c03-4c27-a486-c3e2483540b0","ios":"levelo://app?vid=f7db23b2-4c03-4c27-a486-c3e2483540b0"},"vehicle_type_id":"4","last_reported":1739925959,"current_range_meters":18000,"station_id":"cki0cbj6b192h4jlfktg","pricing_plan_id":"cebpf4jnsgd1na2vs0mg"},{"bike_id":"74508a42-9156-4119-9e4b-33f6b6500ac7","system_id":"levelo_inurba_marseille","lat":43.28439,"lon":5.3918,"is_reserved":false,"is_disabled":false,"rental_uris":{"android":"levelo://app?vid=74508a42-9156-4119-9e4b-33f6b6500ac7","ios":"levelo://app?vid=74508a42-9156-4119-9e4b-33f6b6500ac7"},"vehicle_type_id":"4","last_reported":1739925959,"current_range_meters":18000,"station_id":"","pricing_plan_id":"cebpf4jnsgd1na2vs0mg"},{"bike_id":"5428c4a6-2268-45c5-aff9-a5f8e308d92b","system_id":"levelo_inurba_marseille","lat":43.30902,"lon":5.37337,"is_reserved":false,"is_disabled":false,"rental_uris":{"android":"levelo://app?vid=5428c4a6-2268-45c5-aff9-a5f8e308d92b","ios":"levelo://app?vid=5428c4a6-2268-45c5-aff9-a5f8e308d92b"},"vehicle_type_id":"4","last_reported":1739925959,"current_range_meters":18800,"station_id":"ce4bguh2rcd13ifvqckg","pricing_plan_id":"cebpf4jnsgd1na2vs0mg"},{"bike_id":"0b1a3b32-459a-4ff9-a388-d16482304482","system_id":"levelo_inurba_marseille","lat":43.279942,"lon":5.400029,"is_reserved":false,"is_disabled":true,"rental_uris":{"android":"levelo://app?vid=0b1a3b32-459a-4ff9-a388-d16482304482","ios":"levelo://app?vid=0b1a3b32-459a-4ff9-a388-d16482304482"},"vehicle_type_id":"4","last_reported":1739925959,"current_range_meters":18800,"station_id":"","pricing_plan_id":"cebpf4jnsgd1na2vs0mg"},{"bike_id":"ecbd6e29-5b86-41d0-a4bd-3518ee3bab53","system_id":"levelo_inurba_marseille","lat":43.24625,"lon":5.38923,"is_reserved":false,"is_disabled":false,"rental_uris":{"android":"levelo://app?vid=ecbd6e29-5b86-41d0-a4bd-3518ee3bab53","ios":"levelo://app?vid=ecbd6e29-5b86-41d0-a4bd-3518ee3bab53"},"vehicle_type_id":"4","last_reported":1739925959,"current_range_meters":18800,"station_id":"ce4bhg12rcd13ifvqf60","pricing_plan_id":"cebpf4jnsgd1na2vs0mg"},{"bike_id":"ad359680-270a-4809-a6be-cc0bca8cc2fb","system_id":"levelo_inurba_marseille","lat":43.23189,"lon":5.3999,"is_reserved":false,"is_disabled":false,"rental_uris":{"android":"levelo://app?vid=ad359680-270a-4809-a6be-cc0bca8cc2fb","ios":"levelo://app?vid=ad359680-270a-4809-a6be-cc0bca8cc2fb"},"vehicle_type_id":"4","last_reported":1739925959,"current_range_meters":18800,"station_id":"ce4bhn12rcd13ifvqgqg","pricing_plan_id":"cebpf4jnsgd1na2vs0mg"},{"bike_id":"ba379239-9216-4e46-a96c-a73988d910ff","system_id":"levelo_inurba_marseille","lat":43.26492,"lon":5.37154,"is_reserved":false,"is_disabled":false,"rental_uris":{"android":"levelo://app?vid=ba379239-9216-4e46-a96c-a73988d910ff","ios":"levelo://app?vid=ba379239-9216-4e46-a96c-a73988d910ff"},"vehicle_type_id":"4","last_reported":1739925959,"current_range_meters":18800,"station_id":"","pricing_plan_id":"cebpf4jnsgd1na2vs0mg"},{"bike_id":"b6c48bd6-2b12-44c9-b2cf-db7866bbd8bf","system_id":"levelo_inurba_marseille","lat":43.28448,"lon":5.35891,"is_reserved":false,"is_disabled":false,"rental_uris":{"android":"levelo://app?vid=b6c48bd6-2b12-44c9-b2cf-db7866bbd8bf","ios":"levelo://app?vid=b6c48bd6-2b12-44c9-b2cf-db7866bbd8bf"},"vehicle_type_id":"4","last_reported":1739925959,"current_range_meters":18800,"station_id":"ce4bhah2rcd13ifvqei0","pricing_plan_id":"cebpf4jnsgd1na2vs0mg"},{"bike_id":"e5e2ed65-0a50-46fd-af77-1264dac67336","system_id":"levelo_inurba_marseille","lat":43.24171,"lon":5.36398,"is_reserved":false,"is_disabled":false,"rental_uris":{"android":"levelo://app?vid=e5e2ed65-0a50-46fd-af77-1264dac67336","ios":"levelo://app?vid=e5e2ed65-0a50-46fd-af77-1264dac67336"},"vehicle_type_id":"4","last_reported":1739925959,"current_range_meters":18800,"station_id":"","pricing_plan_id":"cebpf4jnsgd1na2vs0mg"},{"bike_id":"dc00ef06-7692-4993-916b-780fdec954cf","system_id":"levelo_inurba_marseille","lat":43.30186,"lon":5.39472,"is_reserved":false,"is_disabled":false,"rental_uris":{"android":"levelo://app?vid=dc00ef06-7692-4993-916b-780fdec954cf","ios":"levelo://app?vid=dc00ef06-7692-4993-916b-780fdec954cf"},"vehicle_type_id":"4","last_reported":1739925959,"current_range_meters":18800,"station_id":"ce4bh0p2rcd13ifvqd70","pricing_plan_id":"cebpf4jnsgd1na2vs0mg"},{"bike_id":"14079f7d-8e23-4c1f-bbfd-c149bacc30d3","system_id":"levelo_inurba_marseille","lat":43.27489,"lon":5.4247,"is_reserved":false,"is_disabled":false,"rental_uris":{"android":"levelo://app?vid=14079f7d-8e23-4c1f-bbfd-c149bacc30d3","ios":"levelo://app?vid=14079f7d-8e23-4c1f-bbfd-c149bacc30d3"},"vehicle_type_id":"4","last_reported":1739925959,"current_range_meters":18800,"station_id":"ce4bhn92rcd13ifvqgrg","pricing_plan_id":"cebpf4jnsgd1na2vs0mg"},{"bike_id":"ed0a7614-7380-46a3-854b-f819ee7a1b79","system_id":"levelo_inurba_marseille","lat":43.28661,"lon":5.36352,"is_reserved":false,"is_disabled":false,"rental_uris":{"android":"levelo://app?vid=ed0a7614-7380-46a3-854b-f819ee7a1b79","ios":"levelo://app?vid=ed0a7614-7380-46a3-854b-f819ee7a1b79"},"vehicle_type_id":"4","last_reported":1739925959,"current_range_meters":18800,"station_id":"ce4bhah2rcd13ifvqej0","pricing_plan_id":"cebpf4jnsgd1na2vs0mg"},{"bike_id":"4df47e88-41bc-4b68-b0d1-97f3b41c726a","system_id":"levelo_inurba_marseille","lat":43.30146,"lon":5.39895,"is_reserved":false,"is_disabled":true,"rental_uris":{"android":"levelo://app?vid=4df47e88-41bc-4b68-b0d1-97f3b41c726a","ios":"levelo://app?vid=4df47e88-41bc-4b68-b0d1-97f3b41c726a"},"vehicle_type_id":"4","last_reported":1739925959,"current_range_meters":18800,"station_id":"ce4bh0h2rcd13ifvqd40","pricing_plan_id":"cebpf4jnsgd1na2vs0mg"},{"bike_id":"9fc5c6d3-ddcd-43fb-ba9a-8837857c0c04","system_id":"levelo_inurba_marseille","lat":43.28441,"lon":5.35847,"is_reserved":false,"is_disabled":false,"rental_uris":{"android":"levelo://app?vid=9fc5c6d3-ddcd-43fb-ba9a-8837857c0c04","ios":"levelo://app?vid=9fc5c6d3-ddcd-43fb-ba9a-8837857c0c04"},"vehicle_type_id":"4","last_reported":1739925959,"current_range_meters":18800,"station_id":"","pricing_plan_id":"cebpf4jnsgd1na2vs0mg"},{"bike_id":"ca8b528a-7731-4b3c-8fb1-7e3556ed10d0","system_id":"levelo_inurba_marseille","lat":43.25024,"lon":5.38905,"is_reserved":false,"is_disabled":false,"rental_uris":{"android":"levelo://app?vid=ca8b528a-7731-4b3c-8fb1-7e3556ed10d0","ios":"levelo://app?vid=ca8b528a-7731-4b3c-8fb1-7e3556ed10d0"},"vehicle_type_id":"4","last_reported":1739925959,"current_range_meters":18800,"station_id":"ce4bhgp2rcd13ifvqfd0","pricing_plan_id":"cebpf4jnsgd1na2vs0mg"},{"bike_id":"bb3be691-f0be-4096-8eea-552dbe72c2b3","system_id":"levelo_inurba_marseille","lat":43.286129,"lon":5.350993,"is_reserved":false,"is_disabled":false,"rental_uris":{"android":"levelo://app?vid=bb3be691-f0be-4096-8eea-552dbe72c2b3","ios":"levelo://app?vid=bb3be691-f0be-4096-8eea-552dbe72c2b3"},"vehicle_type_id":"4","last_reported":1739925959,"current_range_meters":18800,"station_id":"ce4bhch2rcd13ifvqeug","pricing_plan_id":"cebpf4jnsgd1na2vs0mg"},{"bike_id":"41b1f5b8-75f3-4ec6-8344-959b9791673e","system_id":"levelo_inurba_marseille","lat":43.23166,"lon":5.40002,"is_reserved":false,"is_disabled":false,"rental_uris":{"android":"levelo://app?vid=41b1f5b8-75f3-4ec6-8344-959b9791673e","ios":"levelo://app?vid=41b1f5b8-75f3-4ec6-8344-959b9791673e"},"vehicle_type_id":"4","last_reported":1739925959,"current_range_meters":19200,"station_id":"ce4bhn12rcd13ifvqgqg","pricing_plan_id":"cebpf4jnsgd1na2vs0mg"},{"bike_id":"d5e8e1ef-42ea-44e6-b804-06519d4613ee","system_id":"levelo_inurba_marseille","lat":43.2869,"lon":5.37421,"is_reserved":false,"is_disabled":false,"rental_uris":{"android":"levelo://app?vid=d5e8e1ef-42ea-44e6-b804-06519d4613ee","ios":"levelo://app?vid=d5e8e1ef-42ea-44e6-b804-06519d4613ee"},"vehicle_type_id":"4","last_reported":1739925959,"current_range_meters":19200,"station_id":"ce4bh3p2rcd13ifvqdq0","pricing_plan_id":"cebpf4jnsgd1na2vs0mg"},{"bike_id":"f0876ec4-0d07-434b-9152-ca898eff03d1","system_id":"levelo_inurba_marseille","lat":43.30115,"lon":5.39062,"is_reserved":false,"is_disabled":false,"rental_uris":{"android":"levelo://app?vid=f0876ec4-0d07-434b-9152-ca898eff03d1","ios":"levelo://app?vid=f0876ec4-0d07-434b-9152-ca898eff03d1"},"vehicle_type_id":"4","last_reported":1739925959,"current_range_meters":19200,"station_id":"ce4bh192rcd13ifvqdb0","pricing_plan_id":"cebpf4jnsgd1na2vs0mg"},{"bike_id":"d2ebe9e9-0e91-4596-9593-66367cd0223f","system_id":"levelo_inurba_marseille","lat":43.29601,"lon":5.38096,"is_reserved":false,"is_disabled":false,"rental_uris":{"android":"levelo://app?vid=d2ebe9e9-0e91-4596-9593-66367cd0223f","ios":"levelo://app?vid=d2ebe9e9-0e91-4596-9593-66367cd0223f"},"vehicle_type_id":"4","last_reported":1739925959,"current_range_meters":19200,"station_id":"","pricing_plan_id":"cebpf4jnsgd1na2vs0mg"},{"bike_id":"96453e9e-2787-4f71-b474-ae409a8765d8","system_id":"levelo_inurba_marseille","lat":43.31366,"lon":5.3851,"is_reserved":false,"is_disabled":false,"rental_uris":{"android":"levelo://app?vid=96453e9e-2787-4f71-b474-ae409a8765d8","ios":"levelo://app?vid=96453e9e-2787-4f71-b474-ae409a8765d8"},"vehicle_type_id":"4","last_reported":1739925959,"current_range_meters":19200,"station_id":"ce4bgt92rcd13ifvqcf0","pricing_plan_id":"cebpf4jnsgd1na2vs0mg"},