{"last_updated":1701637539,"ttl":30,"version":"2.2","data":{"bikes":[{"bike_id":"33d8b72a-8715-4d55-ab54-b3cc2b9fa66c","system_id":"levelo_inurba_marseille","lat":43.313391,"lon":5.36706,"is_reserved":false,"is_disabled":false,"rental_uris":{"android":"levelo://app?vid=33d8b72a-8715-4d55-ab54-b3cc2b9fa66c","ios":"levelo://app?vid=33d8b72a-8715-4d55-ab54-b3cc2b9fa66c"},"vehicle_type_id":"4","last_reported":1701637539,"current_range_meters":22000,"station_id":"ce4bgr92rcd13ifvqc6g","pricing_plan_id":"free"},{"bike_id":"ba73574d-fe8b-43ce-b48a-aae5b0aedcaf","system_id":"levelo_inurba_marseille","lat":43.312239,"lon":5.368562,"is_reserved":false,"is_disabled":false,"rental_uris":{"android":"levelo://app?vid=ba73574d-fe8b-43ce-b48a-aae5b0aedcaf","ios":"levelo://app?vid=ba73574d-fe8b-43ce-b48a-aae5b0aedcaf"},"vehicle_type_id":"4","last_reported":1701637539,"current_range_meters":27600,"station_id":"ce4bgl92rcd13ifvqbq0","pricing_plan_id":"free"},{"bike_id":"e4bb6148-1453-4d67-8082-29190f3fa38a","system_id":"levelo_inurba_marseille","lat":43.314811,"lon":5.373103,"is_reserved":false,"is_disabled":false,"rental_uris":{"android":"levelo://app?vid=e4bb6148-1453-4d67-8082-29190f3fa38a","ios":"levelo://app?vid=e4bb6148-1453-4d67-8082-29190f3fa38a"},"vehicle_type_id":"4","last_reported":1701637539,"current_range_meters":30400,"station_id":"ce4bgt12rcd13ifvqcd0","pricing_plan_id":"free"},{"bike_id":"73343222-2e19-4003-aa65-f0321d8ccb82","system_id":"levelo_inurba_marseille","lat":43.309039,"lon":5.371797,"is_reserved":false,"is_disabled":false,"rental_uris":{"android":"levelo://app?vid=73343222-2e19-4003-aa65-f0321d8ccb82","ios":"levelo://app?vid=73343222-2e19-4003-aa65-f0321d8ccb82"},"vehicle_type_id":"4","last_reported":1701637539,"current_range_meters":2000,"station_id":"ce4bguh2rcd13ifvqckg","pricing_plan_id":"free"},{"bike_id":"ab531847-86aa-40e1-b8ae-0d7e8595d445","system_id":"levelo_inurba_marseille","lat":43.309039,"lon":5.371797,"is_reserved":false,"is_disabled":false,"rental_uris":{"android":"levelo://app?vid=ab531847-86aa-40e1-b8ae-0d7e8595d445","ios":"levelo://app?vid=ab531847-86aa-40e1-b8ae-0d7e8595d445"},"vehicle_type_id":"4","last_reported":1701637539,"current_range_meters":5600,"station_id":"ce4bguh2rcd13ifvqckg","pricing_plan_id":"free"},{"bike_id":"11b17297-98be-480c-b05b-527fd442998d","system_id":"levelo_inurba_marseille","lat":43.309039,"lon":5.371797,"is_reserved":false,"is_disabled":false,"rental_uris":{"android":"levelo://app?vid=11b17297-98be-480c-b05b-527fd442998d","ios":"levelo://app?vid=11b17297-98be-480c-b05b-527fd442998d"},"vehicle_type_id":"4","last_reported":1701637539,"current_range_meters":3600,"station_id":"ce4bguh2rcd13ifvqckg","pricing_plan_id":"free"},{"bike_id":"f427a2c3-6e4a-446b-ae2f-9be8aa7f4122","system_id":"levelo_inurba_marseille","lat":43.31719,"lon":5.376813,"is_reserved":false,"is_disabled":false,"rental_uris":{"android":"levelo://app?vid=f427a2c3-6e4a-446b-ae2f-9be8aa7f4122","ios":"levelo://app?vid=f427a2c3-6e4a-446b-ae2f-9be8aa7f4122"},"vehicle_type_id":"4","last_reported":1701637539,"current_range_meters":0,"station_id":"","pricing_plan_id":"free"},{"bike_id":"e913f328-1e31-4c22-bd87-f809ea246de4","system_id":"levelo_inurba_marseille","lat":43.317168,"lon":5.376883,"is_reserved":false,"is_disabled":false,"rental_uris":{"android":"levelo://app?vid=e913f328-1e31-4c22-bd87-f809ea246de4","ios":"levelo://app?vid=e913f328-1e31-4c22-bd87-f809ea246de4"},"vehicle_type_id":"4","last_reported":1701637539,"current_range_meters":0,"station_id":"","pricing_plan_id":"free"},{"bike_id":"f29681ad-064f-4e60-ab4a-ac666ea68096","system_id":"levelo_inurba_marseille","lat":43.307945,"lon":5.376487,"is_reserved":false,"is_disabled":false,"rental_uris":{"android":"levelo://app?vid=f29681ad-064f-4e60-ab4a-ac666ea68096","ios":"levelo://app?vid=f29681ad-064f-4e60-ab4a-ac666ea68096"},"vehicle_type_id":"4","last_reported":1701637539,"current_range_meters":12800,"station_id":"ce4bgv92rcd13ifvqcq0","pricing_plan_id":"free"},{"bike_id":"fb6fd937-527b-4585-9058-0dfdc6436ac8","system_id":"levelo_inurba_marseille","lat":43.31351,"lon":5.37909,"is_reserved":false,"is_disabled":false,"rental_uris":{"android":"levelo://app?vid=fb6fd937-527b-4585-9058-0dfdc6436ac8","ios":"levelo://app?vid=fb6fd937-527b-4585-9058-0dfdc6436ac8"},"vehicle_type_id":"4","last_reported":1701637539,"current_range_meters":16400,"station_id":"","pricing_plan_id":"free"},{"bike_id":"c32b4a1c-8be5-4f93-a794-fd809cd16078","system_id":"levelo_inurba_marseille","lat":43.319935,"lon":5.381699,"is_reserved":false,"is_disabled":false,"rental_uris":{"android":"levelo://app?vid=c32b4a1c-8be5-4f93-a794-fd809cd16078","ios":"levelo://app?vid=c32b4a1c-8be5-4f93-a794-fd809cd16078"},"vehicle_type_id":"4","last_reported":1701637539,"current_range_meters":10000,"station_id":"ce4bhr12rcd13ifvqhpg","pricing_plan_id":"free"},{"bike_id":"1b836397-024f-4ce5-8ba8-e625623686d0","system_id":"levelo_inurba_marseille","lat":43.319935,"lon":5.381699,"is_reserved":false,"is_disabled":false,"rental_uris":{"android":"levelo://app?vid=1b836397-024f-4ce5-8ba8-e625623686d0","ios":"levelo://app?vid=1b836397-024f-4ce5-8ba8-e625623686d0"},"vehicle_type_id":"4","last_reported":1701637539,"current_range_meters":7600,"station_id":"ce4bhr12rcd13ifvqhpg","pricing_plan_id":"free"},{"bike_id":"2275aca5-3158-4c2c-8022-ca5d2714bc86","system_id":"levelo_inurba_marseille","lat":43.319997,"lon":5.381594,"is_reserved":false,"is_disabled":false,"rental_uris":{"android":"levelo://app?vid=2275aca5-3158-4c2c-8022-ca5d2714bc86","ios":"levelo://app?vid=2275aca5-3158-4c2c-8022-ca5d2714bc86"},"vehicle_type_id":"4","last_reported":1701637539,"current_range_meters":10000,"station_id":"ce4bhr12rcd13ifvqhpg","pricing_plan_id":"free"},{"bike_id":"ff9b9c62-b8c0-432a-9bca-d08a40adc04a","system_id":"levelo_inurba_marseille","lat":43.313571,"lon":5.384829,"is_reserved":false,"is_disabled":false,"rental_uris":{"android":"levelo://app?vid=ff9b9c62-b8c0-432a-9bca-d08a40adc04a","ios":"levelo://app?vid=ff9b9c62-b8c0-432a-9bca-d08a40adc04a"},"vehicle_type_id":"4","last_reported":1701637539,"current_range_meters":21600,"station_id":"ce4bgt92rcd13ifvqcf0","pricing_plan_id":"free"},{"bike_id":"7e5d3ace-3993-403e-9afc-7da29c2865be","system_id":"levelo_inurba_marseille","lat":43.299724,"lon":5.371829,"is_reserved":false,"is_disabled":false,"rental_uris":{"android":"levelo://app?vid=7e5d3ace-3993-403e-9afc-7da29c2865be","ios":"levelo://app?vid=7e5d3ace-3993-403e-9afc-7da29c2865be"},"vehicle_type_id":"4","last_reported":1701637539,"current_range_meters":4400,"station_id":"ce4bgr92rcd13ifvqc7g","pricing_plan_id":"free"},{"bike_id":"9fdb7f97-586d-42d2-befd-15216ba2e422","system_id":"levelo_inurba_marseille","lat":43.31183,"lon":5.38523,"is_reserved":false,"is_disabled":false,"rental_uris":{"android":"levelo://app?vid=9fdb7f97-586d-42d2-befd-15216ba2e422","ios":"levelo://app?vid=9fdb7f97-586d-42d2-befd-15216ba2e422"},"vehicle_type_id":"4","last_reported":1701637539,"current_range_meters":0,"station_id":"","pricing_plan_id":"free"},{"bike_id":"b1f966d6-9340-433a-9595-5a109a237b86","system_id":"levelo_inurba_marseille","lat":43.299222,"lon":5.365554,"is_reserved":false,"is_disabled":false,"rental_uris":{"android":"levelo://app?vid=b1f966d6-9340-433a-9595-5a109a237b86","ios":"levelo://app?vid=b1f966d6-9340-433a-9595-5a109a237b86"},"vehicle_type_id":"4","last_reported":1701637539,"current_range_meters":25600,"station_id":"ce4bgm92rcd13ifvqbr0","pricing_plan_id":"free"},{"bike_id":"748d12ab-8e09-4ecd-b2d2-cbe0ea9624f6","system_id":"levelo_inurba_marseille","lat":43.298911,"lon":5.367308,"is_reserved":false,"is_disabled":false,"rental_uris":{"android":"levelo://app?vid=748d12ab-8e09-4ecd-b2d2-cbe0ea9624f6","ios":"levelo://app?vid=748d12ab-8e09-4ecd-b2d2-cbe0ea9624f6"},"vehicle_type_id":"4","last_reported":1701637539,"current_range_meters":400,"station_id":"","pricing_plan_id":"free"},{"bike_id":"8f471969-8e2d-4ef5-8d2e-654dab26d28a","system_id":"levelo_inurba_marseille","lat":43.31233,"lon":5.38664,"is_reserved":false,"is_disabled":false,"rental_uris":{"android":"levelo://app?vid=8f471969-8e2d-4ef5-8d2e-654dab26d28a","ios":"levelo://app?vid=8f471969-8e2d-4ef5-8d2e-654dab26d28a"},"vehicle_type_id":"4","last_reported":1701637539,"current_range_meters":20000,"station_id":"","pricing_plan_id":"free"},{"bike_id":"0a39dd03-261e-42e4-8565-1ecf12f7bfae","system_id":"levelo_inurba_marseille","lat":43.322872,"lon":5.382756,"is_reserved":false,"is_disabled":false,"rental_uris":{"android":"levelo://app?vid=0a39dd03-261e-42e4-8565-1ecf12f7bfae","ios":"levelo://app?vid=0a39dd03-261e-42e4-8565-1ecf12f7bfae"},"vehicle_type_id":"4","last_reported":1701637539,"current_range_meters":21200,"station_id":"ce4bhr12rcd13ifvqhqg","pricing_plan_id":"free"},{"bike_id":"08a721db-bf5d-46b3-9ba3-2a9c6c13bcf6","system_id":"levelo_inurba_marseille","lat":43.328256,"lon":5.366905,"is_reserved":false,"is_disabled":false,"rental_uris":{"android":"levelo://app?vid=08a721db-bf5d-46b3-9ba3-2a9c6c13bcf6","ios":"levelo://app?vid=08a721db-bf5d-46b3-9ba3-2a9c6c13bcf6"},"vehicle_type_id":"4","last_reported":1701637539,"current_range_meters":23600,"station_id":"","pricing_plan_id":"free"},{"bike_id":"65a9133c-c61d-4979-8e7b-24fafb96941b","system_id":"levelo_inurba_marseille","lat":43.328371,"lon":5.366909,"is_reserved":false,"is_disabled":false,"rental_uris":{"android":"levelo://app?vid=65a9133c-c61d-4979-8e7b-24fafb96941b","ios":"levelo://app?vid=65a9133c-c61d-4979-8e7b-24fafb96941b"},"vehicle_type_id":"4","last_reported":1701637539,"current_range_meters":10000,"station_id":"ce4bhs92rcd13ifvqi0g","pricing_plan_id":"free"},{"bike_id":"8874ef37-d11b-4860-b7df-daab8952a737","system_id":"levelo_inurba_marseille","lat":43.328292,"lon":5.366732,"is_reserved":false,"is_disabled":false,"rental_uris":{"android":"levelo://app?vid=8874ef37-d11b-4860-b7df-daab8952a737","ios":"levelo://app?vid=8874ef37-d11b-4860-b7df-daab8952a737"},"vehicle_type_id":"4","last_reported":1701637539,"current_range_meters":22400,"station_id":"ce4bhs92rcd13ifvqi0g","pricing_plan_id":"free"},{"bike_id":"56c27ac6-d3be-4b1b-a869-2d0f1759ad4a","system_id":"levelo_inurba_marseille","lat":43.298208,"lon":5.376707,"is_reserved":false,"is_disabled":false,"rental_uris":{"android":"levelo://app?vid=56c27ac6-d3be-4b1b-a869-2d0f1759ad4a","ios":"levelo://app?vid=56c27ac6-d3be-4b1b-a869-2d0f1759ad4a"},"vehicle_type_id":"4","last_reported":1701637539,"current_range_meters":0,"station_id":"","pricing_plan_id":"free"},{"bike_id":"5c26bdfb-7b7c-43fb-8a01-250128a1a6f8","system_id":"levelo_inurba_marseille","lat":43.3296,"lon":5.367065,"is_reserved":false,"is_disabled":false,"rental_uris":{"android":"levelo://app?vid=5c26bdfb-7b7c-43fb-8a01-250128a1a6f8","ios":"levelo://app?vid=5c26bdfb-7b7c-43fb-8a01-250128a1a6f8"},"vehicle_type_id":"4","last_reported":1701637539,"current_range_meters":18000,"station_id":"","pricing_plan_id":"free"},{"bike_id":"eaa0e7e7-2390-47fa-909b-7b240952cbef","system_id":"levelo_inurba_marseille","lat":43.316511,"lon":5.3896,"is_reserved":false,"is_disabled":false,"rental_uris":{"android":"levelo://app?vid=eaa0e7e7-2390-47fa-909b-7b240952cbef","ios":"levelo://app?vid=eaa0e7e7-2390-47fa-909b-7b240952cbef"},"vehicle_type_id":"4","last_reported":1701637539,"current_range_meters":17600,"station_id":"","pricing_plan_id":"free"},{"bike_id":"50451858-4fd4-406d-badc-776a2e8a63c3","system_id":"levelo_inurba_marseille","lat":43.32973,"lon":5.36736,"is_reserved":false,"is_disabled":false,"rental_uris":{"android":"levelo://app?vid=50451858-4fd4-406d-badc-776a2e8a63c3","ios":"levelo://app?vid=50451858-4fd4-406d-badc-776a2e8a63c3"},"vehicle_type_id":"4","last_reported":1701637539,"current_range_meters":18800,"station_id":"","pricing_plan_id":"free"},{"bike_id":"b3f4aa41-7b9a-4424-bbc6-ca5d25f478d2","system_id":"levelo_inurba_marseille","lat":43.29919,"lon":5.38154,"is_reserved":false,"is_disabled":false,"rental_uris":{"android":"levelo://app?vid=b3f4aa41-7b9a-4424-bbc6-ca5d25f478d2","ios":"levelo://app?vid=b3f4aa41-7b9a-4424-bbc6-ca5d25f478d2"},"vehicle_type_id":"4","last_reported":1701637539,"current_range_meters":13600,"station_id":"ce4bgj12rcd13ifvqbc0","pricing_plan_id":"free"},{"bike_id":"f4daf710-bed7-47b5-9cbf-34beff69fe75","system_id":"levelo_inurba_marseille","lat":43.309589,"lon":5.390258,"is_reserved":false,"is_disabled":false,"rental_uris":{"android":"levelo://app?vid=f4daf710-bed7-47b5-9cbf-34beff69fe75","ios":"levelo://app?vid=f4daf710-bed7-47b5-9cbf-34beff69fe75"},"vehicle_type_id":"4","last_reported":1701637539,"current_range_meters":10000,"station_id":"ce4bgup2rcd13ifvqco0","pricing_plan_id":"free"},{"bike_id":"e6b639dc-1d0c-4f04-a924-02ede549ec7f","system_id":"levelo_inurba_marseille","lat":43.296921,"lon":5.376579,"is_reserved":false,"is_disabled":false,"rental_uris":{"android":"levelo://app?vid=e6b639dc-1d0c-4f04-a924-02ede549ec7f","ios":"levelo://app?vid=e6b639dc-1d0c-4f04-a924-02ede549ec7f"},"vehicle_type_id":"4","last_reported":1701637539,"current_range_meters":27600,"station_id":"ce4bgkh2rcd13ifvqbl0","pricing_plan_id":"free"},{"bike_id":"a7d6993c-889b-472d-8005-f6e35e313883","system_id":"levelo_inurba_marseille","lat":43.309589,"lon":5.390258,"is_reserved":false,"is_disabled":false,"rental_uris":{"android":"levelo://app?vid=a7d6993c-889b-472d-8005-f6e35e313883","ios":"levelo://app?vid=a7d6993c-889b-472d-8005-f6e35e313883"},"vehicle_type_id":"4","last_reported":1701637539,"current_range_meters":23200,"station_id":"ce4bgup2rcd13ifvqco0","pricing_plan_id":"free"},{"bike_id":"0df651d9-e958-4f07-afa4-d2f14454e39d","system_id":"levelo_inurba_marseille","lat":43.309589,"lon":5.390258,"is_reserved":false,"is_disabled":false,"rental_uris":{"android":"levelo://app?vid=0df651d9-e958-4f07-afa4-d2f14454e39d","ios":"levelo://app?vid=0df651d9-e958-4f07-afa4-d2f14454e39d"},"vehicle_type_id":"4","last_reported":1701637539,"current_range_meters":27600,"station_id":"ce4bgup2rcd13ifvqco0","pricing_plan_id":"free"},{"bike_id":"d7b46bee-d340-476c-9aab-d55e5cf22500","system_id":"levelo_inurba_marseille","lat":43.317557,"lon":5.390173,"is_reserved":false,"is_disabled":false,"rental_uris":{"android":"levelo://app?vid=d7b46bee-d340-476c-9aab-d55e5cf22500","ios":"levelo://app?vid=d7b46bee-d340-476c-9aab-d55e5cf22500"},"vehicle_type_id":"4","last_reported":1701637539,"current_range_meters":20000,"station_id":"ce4bhqp2rcd13ifvqhng","pricing_plan_id":"free"},{"bike_id":"76dd4704-50cc-41a0-a1f0-271eb7e77e63","system_id":"levelo_inurba_marseille","lat":43.29617,"lon":5.37719,"is_reserved":false,"is_disabled":false,"rental_uris":{"android":"levelo://app?vid=76dd4704-50cc-41a0-a1f0-271eb7e77e63","ios":"levelo://app?vid=76dd4704-50cc-41a0-a1f0-271eb7e77e63"},"vehicle_type_id":"4","last_reported":1701637539,"current_range_meters":25600,"station_id":"ce4bgi92rcd13ifvqb90","pricing_plan_id":"free"},{"bike_id":"df823655-819c-4812-a4ae-13ae5dd85366","system_id":"levelo_inurba_marseille","lat":43.299707,"lon":5.384859,"is_reserved":false,"is_disabled":false,"rental_uris":{"android":"levelo://app?vid=df823655-819c-4812-a4ae-13ae5dd85366","ios":"levelo://app?vid=df823655-819c-4812-a4ae-13ae5dd85366"},"vehicle_type_id":"4","last_reported":1701637539,"current_range_meters":27600,"station_id":"ce4bgj92rcd13ifvqbd0","pricing_plan_id":"free"},{"bike_id":"7eb8a0bd-be10-4409-8312-afdc128e5d54","system_id":"levelo_inurba_marseille","lat":43.313291,"lon":5.396838,"is_reserved":false,"is_disabled":false,"rental_uris":{"android":"levelo://app?vid=7eb8a0bd-be10-4409-8312-afdc128e5d54","ios":"levelo://app?vid=7eb8a0bd-be10-4409-8312-afdc128e5d54"},"vehicle_type_id":"4","last_reported":1701637539,"current_range_meters":24000,"station_id":"ce4bgvp2rcd13ifvqcu0","pricing_plan_id":"free"},{"bike_id":"77d42006-3993-4990-b44a-d5e693bcbccc","system_id":"levelo_inurba_marseille","lat":43.313304,"lon":5.396932,"is_reserved":false,"is_disabled":false,"rental_uris":{"android":"levelo://app?vid=77d42006-3993-4990-b44a-d5e693bcbccc","ios":"levelo://app?vid=77d42006-3993-4990-b44a-d5e693bcbccc"},"vehicle_type_id":"4","last_reported":1701637539,"current_range_meters":2800,"station_id":"ce4bgvp2rcd13ifvqcu0","pricing_plan_id":"free"},{"bike_id":"7233bf92-8e9d-4e2e-8572-43cda1791189","system_id":"levelo_inurba_marseille","lat":43.309038,"lon":5.396546,"is_reserved":false,"is_disabled":false,"rental_uris":{"android":"levelo://app?vid=7233bf92-8e9d-4e2e-8572-43cda1791189","ios":"levelo://app?vid=7233bf92-8e9d-4e2e-8572-43cda1791189"},"vehicle_type_id":"4","last_reported":1701637539,"current_range_meters":21600,"station_id":"ce4bh012rcd13ifvqcv0","pricing_plan_id":"free"},{"bike_id":"12482b75-7a2d-4c6d-89c1-a957c4637c98","system_id":"levelo_inurba_marseille","lat":43.302008,"lon":5.394694,"is_reserved":false,"is_disabled":false,"rental_uris":{"android":"levelo://app?vid=12482b75-7a2d-4c6d-89c1-a957c4637c98","ios":"levelo://app?vid=12482b75-7a2d-4c6d-89c1-a957c4637c98"},"vehicle_type_id":"4","last_reported":1701637539,"current_range_meters":23600,"station_id":"ce4bh0p2rcd13ifvqd70","pricing_plan_id":"free"},{"bike_id":"8992b905-d17b-44f0-b9b1-ed23aea04030","system_id":"levelo_inurba_marseille","lat":43.289468,"lon":5.363719,"is_reserved":false,"is_disabled":false,"rental_uris":{"android":"levelo://app?vid=8992b905-d17b-44f0-b9b1-ed23aea04030","ios":"levelo://app?vid=8992b905-d17b-44f0-b9b1-ed23aea04030"},"vehicle_type_id":"4","last_reported":1701637539,"current_range_meters":1200,"station_id":"ce4bhc92rcd13ifvqetg","pricing_plan_id":"free"},{"bike_id":"dd9cd122-3ebd-4024-9b7c-9cf57fb2d6df","system_id":"levelo_inurba_marseille","lat":43.29056,"lon":5.37936,"is_reserved":false,"is_disabled":false,"rental_uris":{"android":"levelo://app?vid=dd9cd122-3ebd-4024-9b7c-9cf57fb2d6df","ios":"levelo://app?vid=dd9cd122-3ebd-4024-9b7c-9cf57fb2d6df"},"vehicle_type_id":"4","last_reported":1701637539,"current_range_meters":18000,"station_id":"","pricing_plan_id":"free"},{"bike_id":"f177791c-9060-433b-9b29-a52f636d5425","system_id":"levelo_inurba_marseille","lat":43.295169,"lon":5.390426,"is_reserved":false,"is_disabled":false,"rental_uris":{"android":"levelo://app?vid=f177791c-9060-433b-9b29-a52f636d5425","ios":"levelo://app?vid=f177791c-9060-433b-9b29-a52f636d5425"},"vehicle_type_id":"4","last_reported":1701637539,"current_range_meters":16000,"station_id":"ce4bh3p2rcd13ifvqdp0","pricing_plan_id":"free"},{"bike_id":"1412896f-c5ef-4adc-be41-39706c7ddfd5","system_id":"levelo_inurba_marseille","lat":43.31269,"lon":5.40163,"is_reserved":false,"is_disabled":false,"rental_uris":{"android":"levelo://app?vid=1412896f-c5ef-4adc-be41-39706c7ddfd5","ios":"levelo://app?vid=1412896f-c5ef-4adc-be41-39706c7ddfd5"},"vehicle_type_id":"4","last_reported":1701637539,"current_range_meters":14000,"station_id":"ce4bh092rcd13ifvqd30","pricing_plan_id":"free"},{"bike_id":"c4521d03-ea82-4304-a27a-52990fbbcfc8","system_id":"levelo_inurba_marseille","lat":43.312689,"lon":5.401677,"is_reserved":false,"is_disabled":false,"rental_uris":{"android":"levelo://app?vid=c4521d03-ea82-4304-a27a-52990fbbcfc8","ios":"levelo://app?vid=c4521d03-ea82-4304-a27a-52990fbbcfc8"},"vehicle_type_id":"4","last_reported":1701637539,"current_range_meters":16000,"station_id":"ce4bh092rcd13ifvqd30","pricing_plan_id":"free"},{"bike_id":"80ac9a83-47dc-4474-ba9e-95f62f2a5969","system_id":"levelo_inurba_marseille","lat":43.31272,"lon":5.40174,"is_reserved":false,"is_disabled":false,"rental_uris":{"android":"levelo://app?vid=80ac9a83-47dc-4474-ba9e-95f62f2a5969","ios":"levelo://app?vid=80ac9a83-47dc-4474-ba9e-95f62f2a5969"},"vehicle_type_id":"4","last_reported":1701637539,"current_range_meters":3600,"station_id":"ce4bh092rcd13ifvqd30","pricing_plan_id":"free"},{"bike_id":"c2920d2a-41a8-45fa-8bf8-58ef40b1983f","system_id":"levelo_inurba_marseille","lat":43.309371,"lon":5.401449,"is_reserved":false,"is_disabled":false,"rental_uris":{"android":"levelo://app?vid=c2920d2a-41a8-45fa-8bf8-58ef40b1983f","ios":"levelo://app?vid=c2920d2a-41a8-45fa-8bf8-58ef40b1983f"},"vehicle_type_id":"4","last_reported":1701637539,"current_range_meters":18000,"station_id":"ce4bgvp2rcd13ifvqct0","pricing_plan_id":"free"},{"bike_id":"3aca80cb-97ef-491f-abe3-36f79076ad91","system_id":"levelo_inurba_marseille","lat":43.30146,"lon":5.39887,"is_reserved":false,"is_disabled":false,"rental_uris":{"android":"levelo://app?vid=3aca80cb-97ef-491f-abe3-36f79076ad91","ios":"levelo://app?vid=3aca80cb-97ef-491f-abe3-36f79076ad91"},"vehicle_type_id":"4","last_reported":1701637539,"current_range_meters":12400,"station_id":"ce4bh0h2rcd13ifvqd40","pricing_plan_id":"free"},{"bike_id":"0c26cda2-8167-4df8-9453-78c0754eba71","system_id":"levelo_inurba_marseille","lat":43.286961,"lon":5.373785,"is_reserved":false,"is_disabled":false,"rental_uris":{"android":"levelo://app?vid=0c26cda2-8167-4df8-9453-78c0754eba71","ios":"levelo://app?vid=0c26cda2-8167-4df8-9453-78c0754eba71"},"vehicle_type_id":"4","last_reported":1701637539,"current_range_meters":9600,"station_id":"ce4bh3p2rcd13ifvqdq0","pricing_plan_id":"free"},{"bike_id":"d277906a-d34c-4bcd-a9fb-319a9eab5bd8","system_id":"levelo_inurba_marseille","lat":43.298681,"lon":5.397225,"is_reserved":false,"is_disabled":false,"rental_uris":{"android":"levelo://app?vid=d277906a-d34c-4bcd-a9fb-319a9eab5bd8","ios":"levelo://app?vid=d277906a-d34c-4bcd-a9fb-319a9eab5bd8"},"vehicle_type_id":"4","last_reported":1701637539,"current_range_meters":3200,"station_id":"ce4bh0h2rcd13ifvqd50","pricing_plan_id":"free"},{"bike_id":"865bbc53-bebb-43ff-9dea-6d76b83b72a1","system_id":"levelo_inurba_marseille","lat":43.286961,"lon":5.373785,"is_reserved":false,"is_disabled":false,"rental_uris":{"android":"levelo://app?vid=865bbc53-bebb-43ff-9dea-6d76b83b72a1","ios":"levelo://app?vid=865bbc53-bebb-43ff-9dea-6d76b83b72a1"},"vehicle_type_id":"4","last_reported":1701637539,"current_range_meters":32000,"station_id":"ce4bh3p2rcd13ifvqdq0","pricing_plan_id":"free"},{"bike_id":"f4b23cd2-d3a8-4238-99c1-274a7386417b","system_id":"levelo_inurba_marseille","lat":43.286983,"lon":5.374027,"is_reserved":false,"is_disabled":false,"rental_uris":{"android":"levelo://app?vid=f4b23cd2-d3a8-4238-99c1-274a7386417b","ios":"levelo://app?vid=f4b23cd2-d3a8-4238-99c1-274a7386417b"},"vehicle_type_id":"4","last_reported":1701637539,"current_range_meters":22400,"station_id":"ce4bh3p2rcd13ifvqdq0","pricing_plan_id":"free"},{"bike_id":"4c4dd060-cc2c-4063-a880-d6406b50b97f","system_id":"levelo_inurba_marseille","lat":43.302759,"lon":5.400793,"is_reserved":false,"is_disabled":false,"rental_uris":{"android":"levelo://app?vid=4c4dd060-cc2c-4063-a880-d6406b50b97f","ios":"levelo://app?vid=4c4dd060-cc2c-4063-a880-d6406b50b97f"},"vehicle_type_id":"4","last_reported":1701637539,"current_range_meters":15200,"station_id":"ce4bgvh2rcd13ifvqcs0","pricing_plan_id":"free"},{"bike_id":"2169f855-0da5-48a3-89d0-7b146d053f4c","system_id":"levelo_inurba_marseille","lat":43.30094,"lon":5.40083,"is_reserved":false,"is_disabled":false,"rental_uris":{"android":"levelo://app?vid=2169f855-0da5-48a3-89d0-7b146d053f4c","ios":"levelo://app?vid=2169f855-0da5-48a3-89d0-7b146d053f4c"},"vehicle_type_id":"4","last_reported":1701637539,"current_range_meters":11600,"station_id":"","pricing_plan_id":"free"},{"bike_id":"0d604e16-f3a5-4d04-9185-fe8967ed334b","system_id":"levelo_inurba_marseille","lat":43.291994,"lon":5.392907,"is_reserved":false,"is_disabled":false,"rental_uris":{"android":"levelo://app?vid=0d604e16-f3a5-4d04-9185-fe8967ed334b","ios":"levelo://app?vid=0d604e16-f3a5-4d04-9185-fe8967ed334b"},"vehicle_type_id":"4","last_reported":1701637539,"current_range_meters":20800,"station_id":"ce4bh192rcd13ifvqdd0","pricing_plan_id":"free"},{"bike_id":"104ab63b-334e-45c3-9308-421bb28d97e8","system_id":"levelo_inurba_marseille","lat":43.284538,"lon":5.358657,"is_reserved":false,"is_disabled":false,"rental_uris":{"android":"levelo://app?vid=104ab63b-334e-45c3-9308-421bb28d97e8","ios":"levelo://app?vid=104ab63b-334e-45c3-9308-421bb28d97e8"},"vehicle_type_id":"4","last_reported":1701637539,"current_range_meters":17600,"station_id":"ce4bhah2rcd13ifvqei0","pricing_plan_id":"free"},{"bike_id":"7139f4f6-993e-4275-a374-7720f24f2359","system_id":"levelo_inurba_marseille","lat":43.284534,"lon":5.358662,"is_reserved":false,"is_disabled":false,"rental_uris":{"android":"levelo://app?vid=7139f4f6-993e-4275-a374-7720f24f2359","ios":"levelo://app?vid=7139f4f6-993e-4275-a374-7720f24f2359"},"vehicle_type_id":"4","last_reported":1701637539,"current_range_meters":2000,"station_id":"ce4bhah2rcd13ifvqei0","pricing_plan_id":"free"},{"bike_id":"47e7ac63-2632-4ae8-9f67-dc575c2b67f4","system_id":"levelo_inurba_marseille","lat":43.284538,"lon":5.358657,"is_reserved":false,"is_disabled":false,"rental_uris":{"android":"levelo://app?vid=47e7ac63-2632-4ae8-9f67-dc575c2b67f4","ios":"levelo://app?vid=47e7ac63-2632-4ae8-9f67-dc575c2b67f4"},"vehicle_type_id":"4","last_reported":1701637539,"current_range_meters":13600,"station_id":"ce4bhah2rcd13ifvqei0","pricing_plan_id":"free"},{"bike_id":"0a9171ae-d19b-4f95-9a43-7c63ce3e268b","system_id":"levelo_inurba_marseille","lat":43.284538,"lon":5.358657,"is_reserved":false,"is_disabled":false,"rental_uris":{"android":"levelo://app?vid=0a9171ae-d19b-4f95-9a43-7c63ce3e268b","ios":"levelo://app?vid=0a9171ae-d19b-4f95-9a43-7c63ce3e268b"},"vehicle_type_id":"4","last_reported":1701637539,"current_range_meters":22800,"station_id":"ce4bhah2rcd13ifvqei0","pricing_plan_id":"free"},{"bike_id":"4f16a13c-1bcc-4bf1-a7c2-20a6ff94aa57","system_id":"levelo_inurba_marseille","lat":43.294314,"lon":5.397498,"is_reserved":false,"is_disabled":false,"rental_uris":{"android":"levelo://app?vid=4f16a13c-1bcc-4bf1-a7c2-20a6ff94aa57","ios":"levelo://app?vid=4f16a13c-1bcc-4bf1-a7c2-20a6ff94aa57"},"vehicle_type_id":"4","last_reported":1701637539,"current_range_meters":30000,"station_id":"ce4bh3h2rcd13ifvqdo0","pricing_plan_id":"free"},{"bike_id":"5a3c04d2-ecc3-40ce-8b74-fe5660e95ae7","system_id":"levelo_inurba_marseille","lat":43.285848,"lon":5.350787,"is_reserved":false,"is_disabled":false,"rental_uris":{"android":"levelo://app?vid=5a3c04d2-ecc3-40ce-8b74-fe5660e95ae7","ios":"levelo://app?vid=5a3c04d2-ecc3-40ce-8b74-fe5660e95ae7"},"vehicle_type_id":"4","last_reported":1701637539,"current_range_meters":15200,"station_id":"ce4bhch2rcd13ifvqeug","pricing_plan_id":"free"},{"bike_id":"f02f3243-ea83-483a-8af1-4c8628210ea2","system_id":"levelo_inurba_marseille","lat":43.2861,"lon":5.35101,"is_reserved":false,"is_disabled":false,"rental_uris":{"android":"levelo://app?vid=f02f3243-ea83-483a-8af1-4c8628210ea2","ios":"levelo://app?vid=f02f3243-ea83-483a-8af1-4c8628210ea2"},"vehicle_type_id":"4","last_reported":1701637539,"current_range_meters":15200,"station_id":"ce4bhch2rcd13ifvqeug","pricing_plan_id":"free"},{"bike_id":"5a6d5c80-a7a9-47e6-85e0-6875bc9e2103","system_id":"levelo_inurba_marseille","lat":43.283998,"lon":5.375062,"is_reserved":false,"is_disabled":false,"rental_uris":{"android":"levelo://app?vid=5a6d5c80-a7a9-47e6-85e0-6875bc9e2103","ios":"levelo://app?vid=5a6d5c80-a7a9-47e6-85e0-6875bc9e2103"},"vehicle_type_id":"4","last_reported":1701637539,"current_range_meters":29600,"station_id":"ce4bh412rcd13ifvqds0","pricing_plan_id":"free"},{"bike_id":"40a62de0-cbe5-45b5-8151-8364e404bb8d","system_id":"levelo_inurba_marseille","lat":43.283998,"lon":5.375062,"is_reserved":false,"is_disabled":false,"rental_uris":{"android":"levelo://app?vid=40a62de0-cbe5-45b5-8151-8364e404bb8d","ios":"levelo://app?vid=40a62de0-cbe5-45b5-8151-8364e404bb8d"},"vehicle_type_id":"4","last_reported":1701637539,"current_range_meters":18800,"station_id":"ce4bh412rcd13ifvqds0","pricing_plan_id":"free"},{"bike_id":"b716489b-9c40-4d3d-bc45-02769c398e16","system_id":"levelo_inurba_marseille","lat":43.283998,"lon":5.375062,"is_reserved":false,"is_disabled":false,"rental_uris":{"android":"levelo://app?vid=b716489b-9c40-4d3d-bc45-02769c398e16","ios":"levelo://app?vid=b716489b-9c40-4d3d-bc45-02769c398e16"},"vehicle_type_id":"4","last_reported":1701637539,"current_range_meters":26400,"station_id":"ce4bh412rcd13ifvqds0","pricing_plan_id":"free"},{"bike_id":"23a6e18e-5ad6-40cf-b6fb-7a4b1a6034c9","system_id":"levelo_inurba_marseille","lat":43.33745,"lon":5.39116,"is_reserved":false,"is_disabled":false,"rental_uris":{"android":"levelo://app?vid=23a6e18e-5ad6-40cf-b6fb-7a4b1a6034c9","ios":"levelo://app?vid=23a6e18e-5ad6-40cf-b6fb-7a4b1a6034c9"},"vehicle_type_id":"4","last_reported":1701637539,"current_range_meters":26800,"station_id":"","pricing_plan_id":"free"},{"bike_id":"2f73a9c6-ea7c-45de-beee-438befc58a7b","system_id":"levelo_inurba_marseille","lat":43.33717,"lon":5.391857,"is_reserved":false,"is_disabled":false,"rental_uris":{"android":"levelo://app?vid=2f73a9c6-ea7c-45de-beee-438befc58a7b","ios":"levelo://app?vid=2f73a9c6-ea7c-45de-beee-438befc58a7b"},"vehicle_type_id":"4","last_reported":1701637539,"current_range_meters":18000,"station_id":"ce4bhr92rcd13ifvqhsg","pricing_plan_id":"free"},{"bike_id":"4b021143-be23-4d8d-ac72-086548831286","system_id":"levelo_inurba_marseille","lat":43.33717,"lon":5.391857,"is_reserved":false,"is_disabled":false,"rental_uris":{"android":"levelo://app?vid=4b021143-be23-4d8d-ac72-086548831286","ios":"levelo://app?vid=4b021143-be23-4d8d-ac72-086548831286"},"vehicle_type_id":"4","last_reported":1701637539,"current_range_meters":31200,"station_id":"ce4bhr92rcd13ifvqhsg","pricing_plan_id":"free"},{"bike_id":"8819edde-f48a-4a77-9ef7-b61525dfc6c9","system_id":"levelo_inurba_marseille","lat":43.288501,"lon":5.393087,"is_reserved":false,"is_disabled":false,"rental_uris":{"android":"levelo://app?vid=8819edde-f48a-4a77-9ef7-b61525dfc6c9","ios":"levelo://app?vid=8819edde-f48a-4a77-9ef7-b61525dfc6c9"},"vehicle_type_id":"4","last_reported":1701637539,"current_range_meters":19200,"station_id":"ce4bh2p2rcd13ifvqdi0","pricing_plan_id":"free"},{"bike_id":"ac385c88-38c7-4939-a95a-bdae0a783995","system_id":"levelo_inurba_marseille","lat":43.283494,"lon":5.380945,"is_reserved":false,"is_disabled":false,"rental_uris":{"android":"levelo://app?vid=ac385c88-38c7-4939-a95a-bdae0a783995","ios":"levelo://app?vid=ac385c88-38c7-4939-a95a-bdae0a783995"},"vehicle_type_id":"4","last_reported":1701637539,"current_range_meters":15200,"station_id":"ce4bh412rcd13ifvqdr0","pricing_plan_id":"free"},{"bike_id":"e66e629b-b4fe-41b0-8a9f-fba2626b6f6a","system_id":"levelo_inurba_marseille","lat":43.289363,"lon":5.396322,"is_reserved":false,"is_disabled":false,"rental_uris":{"android":"levelo://app?vid=e66e629b-b4fe-41b0-8a9f-fba2626b6f6a","ios":"levelo://app?vid=e66e629b-b4fe-41b0-8a9f-fba2626b6f6a"},"vehicle_type_id":"4","last_reported":1701637539,"current_range_meters":22000,"station_id":"ce4bh3h2rcd13ifvqdn0","pricing_plan_id":"free"},{"bike_id":"ffd0f445-c315-47d0-bd2e-08562e20ea25","system_id":"levelo_inurba_marseille","lat":43.282744,"lon":5.350533,"is_reserved":false,"is_disabled":false,"rental_uris":{"android":"levelo://app?vid=ffd0f445-c315-47d0-bd2e-08562e20ea25","ios":"levelo://app?vid=ffd0f445-c315-47d0-bd2e-08562e20ea25"},"vehicle_type_id":"4","last_reported":1701637539,"current_range_meters":27200,"station_id":"ce4bhbp2rcd13ifvqerg","pricing_plan_id":"free"},{"bike_id":"2bc3ede3-14be-4629-9ad4-5b4ae198650f","system_id":"levelo_inurba_marseille","lat":43.28039,"lon":5.369297,"is_reserved":false,"is_disabled":false,"rental_uris":{"android":"levelo://app?vid=2bc3ede3-14be-4629-9ad4-5b4ae198650f","ios":"levelo://app?vid=2bc3ede3-14be-4629-9ad4-5b4ae198650f"},"vehicle_type_id":"4","last_reported":1701637539,"current_range_meters":28000,"station_id":"ce4bha12rcd13ifvqef0","pricing_plan_id":"free"},{"bike_id":"a9cec647-2fa3-4d82-a42f-4dd28accb0c0","system_id":"levelo_inurba_marseille","lat":43.28039,"lon":5.369297,"is_reserved":false,"is_disabled":false,"rental_uris":{"android":"levelo://app?vid=a9cec647-2fa3-4d82-a42f-4dd28accb0c0","ios":"levelo://app?vid=a9cec647-2fa3-4d82-a42f-4dd28accb0c0"},"vehicle_type_id":"4","last_reported":1701637539,"current_range_meters":30000,"station_id":"ce4bha12rcd13ifvqef0","pricing_plan_id":"free"},{"bike_id":"7a33bebd-e3e5-425f-960b-fe25aec483ef","system_id":"levelo_inurba_marseille","lat":43.28095,"lon":5.37849,"is_reserved":false,"is_disabled":false,"rental_uris":{"android":"levelo://app?vid=7a33bebd-e3e5-425f-960b-fe25aec483ef","ios":"levelo://app?vid=7a33bebd-e3e5-425f-960b-fe25aec483ef"},"vehicle_type_id":"4","last_reported":1701637539,"current_range_meters":0,"station_id":"ce4bha12rcd13ifvqee0","pricing_plan_id":"free"},{"bike_id":"9d7489d3-986c-4d49-b567-95127c977aa8","system_id":"levelo_inurba_marseille","lat":43.285742,"lon":5.395004,"is_reserved":false,"is_disabled":false,"rental_uris":{"android":"levelo://app?vid=9d7489d3-986c-4d49-b567-95127c977aa8","ios":"levelo://app?vid=9d7489d3-986c-4d49-b567-95127c977aa8"},"vehicle_type_id":"4","last_reported":1701637539,"current_range_meters":29200,"station_id":"ce4bh292rcd13ifvqdg0","pricing_plan_id":"free"},{"bike_id":"9a037e00-3e08-43d6-b7ca-d9199e11de56","system_id":"levelo_inurba_marseille","lat":43.28573,"lon":5.394992,"is_reserved":false,"is_disabled":false,"rental_uris":{"android":"levelo://app?vid=9a037e00-3e08-43d6-b7ca-d9199e11de56","ios":"levelo://app?vid=9a037e00-3e08-43d6-b7ca-d9199e11de56"},"vehicle_type_id":"4","last_reported":1701637539,"current_range_meters":18800,"station_id":"ce4bh292rcd13ifvqdg0","pricing_plan_id":"free"},{"bike_id":"83d4ecdb-a1f2-4efc-89d9-296332c5f116","system_id":"levelo_inurba_marseille","lat":43.326605,"lon":5.409903,"is_reserved":false,"is_disabled":false,"rental_uris":{"android":"levelo://app?vid=83d4ecdb-a1f2-4efc-89d9-296332c5f116","ios":"levelo://app?vid=83d4ecdb-a1f2-4efc-89d9-296332c5f116"},"vehicle_type_id":"4","last_reported":1701637539,"current_range_meters":24000,"station_id":"ce4bhpp2rcd13ifvqhgg","pricing_plan_id":"free"},{"bike_id":"3dd4ee6c-f936-4276-b662-c85ef72f8eed","system_id":"levelo_inurba_marseille","lat":43.287154,"lon":5.399979,"is_reserved":false,"is_disabled":false,"rental_uris":{"android":"levelo://app?vid=3dd4ee6c-f936-4276-b662-c85ef72f8eed","ios":"levelo://app?vid=3dd4ee6c-f936-4276-b662-c85ef72f8eed"},"vehicle_type_id":"4","last_reported":1701637539,"current_range_meters":19600,"station_id":"ce4bho92rcd13ifvqh3g","pricing_plan_id":"free"},{"bike_id":"2bb6c6e3-3605-48ff-aa4a-063f9b7b33fd","system_id":"levelo_inurba_marseille","lat":43.279087,"lon":5.380114,"is_reserved":false,"is_disabled":false,"rental_uris":{"android":"levelo://app?vid=2bb6c6e3-3605-48ff-aa4a-063f9b7b33fd","ios":"levelo://app?vid=2bb6c6e3-3605-48ff-aa4a-063f9b7b33fd"},"vehicle_type_id":"4","last_reported":1701637539,"current_range_meters":27200,"station_id":"ce4bhf92rcd13ifvqf50","pricing_plan_id":"free"},{"bike_id":"0f4df7db-85f3-4968-94fa-e5730d883a2b","system_id":"levelo_inurba_marseille","lat":43.279742,"lon":5.38744,"is_reserved":false,"is_disabled":false,"rental_uris":{"android":"levelo://app?vid=0f4df7db-85f3-4968-94fa-e5730d883a2b","ios":"levelo://app?vid=0f4df7db-85f3-4968-94fa-e5730d883a2b"},"vehicle_type_id":"4","last_reported":1701637539,"current_range_meters":20400,"station_id":"ce4bhg12rcd13ifvqf80","pricing_plan_id":"free"},{"bike_id":"9c2ced92-3002-403a-aa72-bb5fe6d66aa6","system_id":"levelo_inurba_marseille","lat":43.279742,"lon":5.38744,"is_reserved":false,"is_disabled":false,"rental_uris":{"android":"levelo://app?vid=9c2ced92-3002-403a-aa72-bb5fe6d66aa6","ios":"levelo://app?vid=9c2ced92-3002-403a-aa72-bb5fe6d66aa6"},"vehicle_type_id":"4","last_reported":1701637539,"current_range_meters":25600,"station_id":"ce4bhg12rcd13ifvqf80","pricing_plan_id":"free"},{"bike_id":"5a25bf69-6178-4680-ba62-eb181662b01d","system_id":"levelo_inurba_marseille","lat":43.325243,"lon":5.414326,"is_reserved":false,"is_disabled":false,"rental_uris":{"android":"levelo://app?vid=5a25bf69-6178-4680-ba62-eb181662b01d","ios":"levelo://app?vid=5a25bf69-6178-4680-ba62-eb181662b01d"},"vehicle_type_id":"4","last_reported":1701637539,"current_range_meters":26000,"station_id":"ce4bhq12rcd13ifvqhhg","pricing_plan_id":"free"},{"bike_id":"d83ccb3e-3ec2-4a1c-8424-08e0b207462f","system_id":"levelo_inurba_marseille","lat":43.292647,"lon":5.409162,"is_reserved":false,"is_disabled":false,"rental_uris":{"android":"levelo://app?vid=d83ccb3e-3ec2-4a1c-8424-08e0b207462f","ios":"levelo://app?vid=d83ccb3e-3ec2-4a1c-8424-08e0b207462f"},"vehicle_type_id":"4","last_reported":1701637539,"current_range_meters":14800,"station_id":"","pricing_plan_id":"free"},{"bike_id":"487ad7ad-ee7f-40ab-b43c-43d7d5434705","system_id":"levelo_inurba_marseille","lat":43.303837,"lon":5.418724,"is_reserved":false,"is_disabled":false,"rental_uris":{"android":"levelo://app?vid=487ad7ad-ee7f-40ab-b43c-43d7d5434705","ios":"levelo://app?vid=487ad7ad-ee7f-40ab-b43c-43d7d5434705"},"vehicle_type_id":"4","last_reported":1701637539,"current_range_meters":30800,"station_id":"ce4bhop2rcd13ifvqh7g","pricing_plan_id":"free"},{"bike_id":"8655e413-80ee-4d84-b730-270082651002","system_id":"levelo_inurba_marseille","lat":43.278399,"lon":5.392139,"is_reserved":false,"is_disabled":false,"rental_uris":{"android":"levelo://app?vid=8655e413-80ee-4d84-b730-270082651002","ios":"levelo://app?vid=8655e413-80ee-4d84-b730-270082651002"},"vehicle_type_id":"4","last_reported":1701637539,"current_range_meters":18400,"station_id":"ce4bhjp2rcd13ifvqga0","pricing_plan_id":"free"},{"bike_id":"583542c5-23c7-402a-a75e-774d530474ba","system_id":"levelo_inurba_marseille","lat":43.33612,"lon":5.410321,"is_reserved":false,"is_disabled":false,"rental_uris":{"android":"levelo://app?vid=583542c5-23c7-402a-a75e-774d530474ba","ios":"levelo://app?vid=583542c5-23c7-402a-a75e-774d530474ba"},"vehicle_type_id":"4","last_reported":1701637539,"current_range_meters":20800,"station_id":"ce4bhqh2rcd13ifvqhmg","pricing_plan_id":"free"},{"bike_id":"ae9af643-001e-42d9-8c47-cb12ff606b64","system_id":"levelo_inurba_marseille","lat":43.317121,"lon":5.423936,"is_reserved":false,"is_disabled":false,"rental_uris":{"android":"levelo://app?vid=ae9af643-001e-42d9-8c47-cb12ff606b64","ios":"levelo://app?vid=ae9af643-001e-42d9-8c47-cb12ff606b64"},"vehicle_type_id":"4","last_reported":1701637539,"current_range_meters":15200,"station_id":"ce4bhp92rcd13ifvqhbg","pricing_plan_id":"free"},{"bike_id":"ee4024f5-e2a3-4ee7-ad91-692fd6ea21f0","system_id":"levelo_inurba_marseille","lat":43.317121,"lon":5.423936,"is_reserved":false,"is_disabled":false,"rental_uris":{"android":"levelo://app?vid=ee4024f5-e2a3-4ee7-ad91-692fd6ea21f0","ios":"levelo://app?vid=ee4024f5-e2a3-4ee7-ad91-692fd6ea21f0"},"vehicle_type_id":"4","last_reported":1701637539,"current_range_meters":5200,"station_id":"ce4bhp92rcd13ifvqhbg","pricing_plan_id":"free"},{"bike_id":"4c266738-4562-4ce1-aca7-b04f03b275b5","system_id":"levelo_inurba_marseille","lat":43.317121,"lon":5.423936,"is_reserved":false,"is_disabled":false,"rental_uris":{"android":"levelo://app?vid=4c266738-4562-4ce1-aca7-b04f03b275b5","ios":"levelo://app?vid=4c266738-4562-4ce1-aca7-b04f03b275b5"},"vehicle_type_id":"4","last_reported":1701637539,"current_range_meters":27600,"station_id":"ce4bhp92rcd13ifvqhbg","pricing_plan_id":"free"},{"bike_id":"ba2cdc49-316c-4fb7-ae87-5812c3ece311","system_id":"levelo_inurba_marseille","lat":43.317121,"lon":5.423936,"is_reserved":false,"is_disabled":false,"rental_uris":{"android":"levelo://app?vid=ba2cdc49-316c-4fb7-ae87-5812c3ece311","ios":"levelo://app?vid=ba2cdc49-316c-4fb7-ae87-5812c3ece311"},"vehicle_type_id":"4","last_reported":1701637539,"current_range_meters":31600,"station_id":"ce4bhp92rcd13ifvqhbg","pricing_plan_id":"free"},{"bike_id":"910fd3aa-d2e0-4553-894a-6161d41c7fcd","system_id":"levelo_inurba_marseille","lat":43.27609,"lon":5.39475,"is_reserved":false,"is_disabled":false,"rental_uris":{"android":"levelo://app?vid=910fd3aa-d2e0-4553-894a-6161d41c7fcd","ios":"levelo://app?vid=910fd3aa-d2e0-4553-894a-6161d41c7fcd"},"vehicle_type_id":"4","last_reported":1701637539,"current_range_meters":14000,"station_id":"","pricing_plan_id":"free"},{"bike_id":"7dad5fee-3b24-4370-be23-bef38d7b72fb","system_id":"levelo_inurba_marseille","lat":43.273125,"lon":5.390731,"is_reserved":false,"is_disabled":false,"rental_uris":{"android":"levelo://app?vid=7dad5fee-3b24-4370-be23-bef38d7b72fb","ios":"levelo://app?vid=7dad5fee-3b24-4370-be23-bef38d7b72fb"},"vehicle_type_id":"4","last_reported":1701637539,"current_range_meters":26000,"station_id":"ce4bhgp2rcd13ifvqfe0","pricing_plan_id":"free"},{"bike_id":"3edcb459-c4d1-4877-949a-61e70f772fac","system_id":"levelo_inurba_marseille","lat":43.27322,"lon":5.39078,"is_reserved":false,"is_disabled":false,"rental_uris":{"android":"levelo://app?vid=3edcb459-c4d1-4877-949a-61e70f772fac","ios":"levelo://app?vid=3edcb459-c4d1-4877-949a-61e70f772fac"},"vehicle_type_id":"4","last_reported":1701637539,"current_range_meters":0,"station_id":"ce4bhgp2rcd13ifvqfe0","pricing_plan_id":"free"},{"bike_id":"efb27c4b-1da9-4cd0-8b16-89083f23742e","system_id":"levelo_inurba_marseille","lat":43.274099,"lon":5.394019,"is_reserved":false,"is_disabled":false,"rental_uris":{"android":"levelo://app?vid=efb27c4b-1da9-4cd0-8b16-89083f23742e","ios":"levelo://app?vid=efb27c4b-1da9-4cd0-8b16-89083f23742e"},"vehicle_type_id":"4","last_reported":1701637539,"current_range_meters":0,"station_id":"ce4bhdp2rcd13ifvqf20","pricing_plan_id":"free"},{"bike_id":"6e4cfde5-2c43-4b27-9566-7a490fc00ac4","system_id":"levelo_inurba_marseille","lat":43.273125,"lon":5.390731,"is_reserved":false,"is_disabled":false,"rental_uris":{"android":"levelo://app?vid=6e4cfde5-2c43-4b27-9566-7a490fc00ac4","ios":"levelo://app?vid=6e4cfde5-2c43-4b27-9566-7a490fc00ac4"},"vehicle_type_id":"4","last_reported":1701637539,"current_range_meters":16800,"station_id":"ce4bhgp2rcd13ifvqfe0","pricing_plan_id":"free"},{"bike_id":"e93517e7-ae0c-4aa9-a507-71059cae02a9","system_id":"levelo_inurba_marseille","lat":43.274103,"lon":5.394016,"is_reserved":false,"is_disabled":false,"rental_uris":{"android":"levelo://app?vid=e93517e7-ae0c-4aa9-a507-71059cae02a9","ios":"levelo://app?vid=e93517e7-ae0c-4aa9-a507-71059cae02a9"},"vehicle_type_id":"4","last_reported":1701637539,"current_range_meters":26800,"station_id":"ce4bhdp2rcd13ifvqf20","pricing_plan_id":"free"},{"bike_id":"5a6a6ed8-b287-41d3-b15c-a8e6568e97ae","system_id":"levelo_inurba_marseille","lat":43.273134,"lon":5.390882,"is_reserved":false,"is_disabled":false,"rental_uris":{"android":"levelo://app?vid=5a6a6ed8-b287-41d3-b15c-a8e6568e97ae","ios":"levelo://app?vid=5a6a6ed8-b287-41d3-b15c-a8e6568e97ae"},"vehicle_type_id":"4","last_reported":1701637539,"current_range_meters":0,"station_id":"ce4bhgp2rcd13ifvqfe0","pricing_plan_id":"free"},{"bike_id":"9cf7360c-a2c1-40db-bf29-710d87a5fa1c","system_id":"levelo_inurba_marseille","lat":43.274099,"lon":5.394019,"is_reserved":false,"is_disabled":false,"rental_uris":{"android":"levelo://app?vid=9cf7360c-a2c1-40db-bf29-710d87a5fa1c","ios":"levelo://app?vid=9cf7360c-a2c1-40db-bf29-710d87a5fa1c"},"vehicle_type_id":"4","last_reported":1701637539,"current_range_meters":22800,"station_id":"ce4bhdp2rcd13ifvqf20","pricing_plan_id":"free"},{"bike_id":"1e7c4549-42c6-4210-8f8c-78d6cebbc410","system_id":"levelo_inurba_marseille","lat":43.273129,"lon":5.390725,"is_reserved":false,"is_disabled":false,"rental_uris":{"android":"levelo://app?vid=1e7c4549-42c6-4210-8f8c-78d6cebbc410","ios":"levelo://app?vid=1e7c4549-42c6-4210-8f8c-78d6cebbc410"},"vehicle_type_id":"4","last_reported":1701637539,"current_range_meters":23200,"station_id":"ce4bhgp2rcd13ifvqfe0","pricing_plan_id":"free"},{"bike_id":"75e72b5a-e5b4-4ec6-bd14-0516a2992e57","system_id":"levelo_inurba_marseille","lat":43.295523,"lon":5.422926,"is_reserved":false,"is_disabled":false,"rental_uris":{"android":"levelo://app?vid=75e72b5a-e5b4-4ec6-bd14-0516a2992e57","ios":"levelo://app?vid=75e72b5a-e5b4-4ec6-bd14-0516a2992e57"},"vehicle_type_id":"4","last_reported":1701637539,"current_range_meters":27200,"station_id":"ce4bhph2rcd13ifvqhdg","pricing_plan_id":"free"},{"bike_id":"16ed0702-3beb-465e-8f72-aa4e21e2a2dc","system_id":"levelo_inurba_marseille","lat":43.295511,"lon":5.422926,"is_reserved":false,"is_disabled":false,"rental_uris":{"android":"levelo://app?vid=16ed0702-3beb-465e-8f72-aa4e21e2a2dc","ios":"levelo://app?vid=16ed0702-3beb-465e-8f72-aa4e21e2a2dc"},"vehicle_type_id":"4","last_reported":1701637539,"current_range_meters":22400,"station_id":"ce4bhph2rcd13ifvqhdg","pricing_plan_id":"free"},{"bike_id":"b2c2d860-979e-4069-ba1c-d868b86d0358","system_id":"levelo_inurba_marseille","lat":43.295511,"lon":5.422926,"is_reserved":false,"is_disabled":false,"rental_uris":{"android":"levelo://app?vid=b2c2d860-979e-4069-ba1c-d868b86d0358","ios":"levelo://app?vid=b2c2d860-979e-4069-ba1c-d868b86d0358"},"vehicle_type_id":"4","last_reported":1701637539,"current_range_meters":6800,"station_id":"ce4bhph2rcd13ifvqhdg","pricing_plan_id":"free"},{"bike_id":"538ee7d1-5a63-40d8-9d45-0fe1cade3215","system_id":"levelo_inurba_marseille","lat":43.272124,"lon":5.391768,"is_reserved":false,"is_disabled":false,"rental_uris":{"android":"levelo://app?vid=538ee7d1-5a63-40d8-9d45-0fe1cade3215","ios":"levelo://app?vid=538ee7d1-5a63-40d8-9d45-0fe1cade3215"},"vehicle_type_id":"4","last_reported":1701637539,"current_range_meters":30000,"station_id":"ce4bhhp2rcd13ifvqfm0","pricing_plan_id":"free"},{"bike_id":"0ec294ff-9422-4356-8a22-81003cc506db","system_id":"levelo_inurba_marseille","lat":43.278128,"lon":5.407195,"is_reserved":false,"is_disabled":false,"rental_uris":{"android":"levelo://app?vid=0ec294ff-9422-4356-8a22-81003cc506db","ios":"levelo://app?vid=0ec294ff-9422-4356-8a22-81003cc506db"},"vehicle_type_id":"4","last_reported":1701637539,"current_range_meters":25200,"station_id":"ce4bhnh2rcd13ifvqgtg","pricing_plan_id":"free"},{"bike_id":"d6bd0d5c-ab30-485f-8ce1-cf2a2d8b99aa","system_id":"levelo_inurba_marseille","lat":43.279393,"lon":5.410377,"is_reserved":false,"is_disabled":false,"rental_uris":{"android":"levelo://app?vid=d6bd0d5c-ab30-485f-8ce1-cf2a2d8b99aa","ios":"levelo://app?vid=d6bd0d5c-ab30-485f-8ce1-cf2a2d8b99aa"},"vehicle_type_id":"4","last_reported":1701637539,"current_range_meters":13600,"station_id":"ce4bhnp2rcd13ifvqh0g","pricing_plan_id":"free"},{"bike_id":"0ce340ee-4cc5-455c-8ef2-e149b03f6229","system_id":"levelo_inurba_marseille","lat":43.279465,"lon":5.410561,"is_reserved":false,"is_disabled":false,"rental_uris":{"android":"levelo://app?vid=0ce340ee-4cc5-455c-8ef2-e149b03f6229","ios":"levelo://app?vid=0ce340ee-4cc5-455c-8ef2-e149b03f6229"},"vehicle_type_id":"4","last_reported":1701637539,"current_range_meters":11200,"station_id":"ce4bhnp2rcd13ifvqh0g","pricing_plan_id":"free"},{"bike_id":"380b3730-ab69-4cd8-b308-01faff1b9792","system_id":"levelo_inurba_marseille","lat":43.269319,"lon":5.389397,"is_reserved":false,"is_disabled":false,"rental_uris":{"android":"levelo://app?vid=380b3730-ab69-4cd8-b308-01faff1b9792","ios":"levelo://app?vid=380b3730-ab69-4cd8-b308-01faff1b9792"},"vehicle_type_id":"4","last_reported":1701637539,"current_range_meters":31200,"station_id":"ce4bhhh2rcd13ifvqfl0","pricing_plan_id":"free"},{"bike_id":"07fddda8-c870-4045-b584-544f2f850345","system_id":"levelo_inurba_marseille","lat":43.27996,"lon":5.416624,"is_reserved":false,"is_disabled":false,"rental_uris":{"android":"levelo://app?vid=07fddda8-c870-4045-b584-544f2f850345","ios":"levelo://app?vid=07fddda8-c870-4045-b584-544f2f850345"},"vehicle_type_id":"4","last_reported":1701637539,"current_range_meters":12400,"station_id":"ce4bho12rcd13ifvqh1g","pricing_plan_id":"free"},{"bike_id":"3a085ded-79fe-4229-ba36-720621cc3c5b","system_id":"levelo_inurba_marseille","lat":43.27996,"lon":5.416624,"is_reserved":false,"is_disabled":false,"rental_uris":{"android":"levelo://app?vid=3a085ded-79fe-4229-ba36-720621cc3c5b","ios":"levelo://app?vid=3a085ded-79fe-4229-ba36-720621cc3c5b"},"vehicle_type_id":"4","last_reported":1701637539,"current_range_meters":22800,"station_id":"ce4bho12rcd13ifvqh1g","pricing_plan_id":"free"},{"bike_id":"f6832eff-41da-4d3c-a0f3-b2e95ea5d710","system_id":"levelo_inurba_marseille","lat":43.265714,"lon":5.372891,"is_reserved":false,"is_disabled":false,"rental_uris":{"android":"levelo://app?vid=f6832eff-41da-4d3c-a0f3-b2e95ea5d710","ios":"levelo://app?vid=f6832eff-41da-4d3c-a0f3-b2e95ea5d710"},"vehicle_type_id":"4","last_reported":1701637539,"current_range_meters":26000,"station_id":"ce4bhg12rcd13ifvqf70","pricing_plan_id":"free"},{"bike_id":"e9dfa189-87f7-42a5-9ebb-5c849184d83c","system_id":"levelo_inurba_marseille","lat":43.265714,"lon":5.372891,"is_reserved":false,"is_disabled":false,"rental_uris":{"android":"levelo://app?vid=e9dfa189-87f7-42a5-9ebb-5c849184d83c","ios":"levelo://app?vid=e9dfa189-87f7-42a5-9ebb-5c849184d83c"},"vehicle_type_id":"4","last_reported":1701637539,"current_range_meters":30400,"station_id":"ce4bhg12rcd13ifvqf70","pricing_plan_id":"free"},{"bike_id":"e9eca45e-9bea-400a-925f-9536b4a307b0","system_id":"levelo_inurba_marseille","lat":43.26941,"lon":5.40254,"is_reserved":false,"is_disabled":false,"rental_uris":{"android":"levelo://app?vid=e9eca45e-9bea-400a-925f-9536b4a307b0","ios":"levelo://app?vid=e9eca45e-9bea-400a-925f-9536b4a307b0"},"vehicle_type_id":"4","last_reported":1701637539,"current_range_meters":800,"station_id":"cjm6bp8fraef2m0cb0m0","pricing_plan_id":"free"},{"bike_id":"7ab9d445-27c0-4c24-bb7c-2b2fc59ad2f5","system_id":"levelo_inurba_marseille","lat":43.26949,"lon":5.40262,"is_reserved":false,"is_disabled":false,"rental_uris":{"android":"levelo://app?vid=7ab9d445-27c0-4c24-bb7c-2b2fc59ad2f5","ios":"levelo://app?vid=7ab9d445-27c0-4c24-bb7c-2b2fc59ad2f5"},"vehicle_type_id":"4","last_reported":1701637539,"current_range_meters":0,"station_id":"cjm6bp8fraef2m0cb0m0","pricing_plan_id":"free"},{"bike_id":"577b6cd3-6946-40f0-88a6-f913101b8be5","system_id":"levelo_inurba_marseille","lat":43.269409,"lon":5.402572,"is_reserved":false,"is_disabled":false,"rental_uris":{"android":"levelo://app?vid=577b6cd3-6946-40f0-88a6-f913101b8be5","ios":"levelo://app?vid=577b6cd3-6946-40f0-88a6-f913101b8be5"},"vehicle_type_id":"4","last_reported":1701637539,"current_range_meters":8400,"station_id":"cjm6bp8fraef2m0cb0m0","pricing_plan_id":"free"},{"bike_id":"bf4ad048-f8b7-41c5-b87b-d5135b06aace","system_id":"levelo_inurba_marseille","lat":43.26187,"lon":5.37446,"is_reserved":false,"is_disabled":false,"rental_uris":{"android":"levelo://app?vid=bf4ad048-f8b7-41c5-b87b-d5135b06aace","ios":"levelo://app?vid=bf4ad048-f8b7-41c5-b87b-d5135b06aace"},"vehicle_type_id":"4","last_reported":1701637539,"current_range_meters":6400,"station_id":"ce4bhgp2rcd13ifvqfc0","pricing_plan_id":"free"},{"bike_id":"92a9cb82-c8c6-4ac1-9083-a38e30be1c7d","system_id":"levelo_inurba_marseille","lat":43.261782,"lon":5.374515,"is_reserved":false,"is_disabled":false,"rental_uris":{"android":"levelo://app?vid=92a9cb82-c8c6-4ac1-9083-a38e30be1c7d","ios":"levelo://app?vid=92a9cb82-c8c6-4ac1-9083-a38e30be1c7d"},"vehicle_type_id":"4","last_reported":1701637539,"current_range_meters":7600,"station_id":"ce4bhgp2rcd13ifvqfc0","pricing_plan_id":"free"},{"bike_id":"3805e747-2c5d-4156-80d7-dd2c2acb6d08","system_id":"levelo_inurba_marseille","lat":43.317104,"lon":5.436818,"is_reserved":false,"is_disabled":false,"rental_uris":{"android":"levelo://app?vid=3805e747-2c5d-4156-80d7-dd2c2acb6d08","ios":"levelo://app?vid=3805e747-2c5d-4156-80d7-dd2c2acb6d08"},"vehicle_type_id":"4","last_reported":1701637539,"current_range_meters":26000,"station_id":"ce4bhp92rcd13ifvqhcg","pricing_plan_id":"free"},{"bike_id":"08c0ebf9-bf3e-4259-9641-66f2fdb4dde0","system_id":"levelo_inurba_marseille","lat":43.317104,"lon":5.436818,"is_reserved":false,"is_disabled":false,"rental_uris":{"android":"levelo://app?vid=08c0ebf9-bf3e-4259-9641-66f2fdb4dde0","ios":"levelo://app?vid=08c0ebf9-bf3e-4259-9641-66f2fdb4dde0"},"vehicle_type_id":"4","last_reported":1701637539,"current_range_meters":30400,"station_id":"ce4bhp92rcd13ifvqhcg","pricing_plan_id":"free"},{"bike_id":"b3a4a88c-d155-447c-ad55-fd92c25575ce","system_id":"levelo_inurba_marseille","lat":43.262012,"lon":5.379307,"is_reserved":false,"is_disabled":false,"rental_uris":{"android":"levelo://app?vid=b3a4a88c-d155-447c-ad55-fd92c25575ce","ios":"levelo://app?vid=b3a4a88c-d155-447c-ad55-fd92c25575ce"},"vehicle_type_id":"4","last_reported":1701637539,"current_range_meters":27600,"station_id":"ce4bhjp2rcd13ifvqg90","pricing_plan_id":"free"},{"bike_id":"3077bcab-438e-4dd0-bf48-5f4d9e38e248","system_id":"levelo_inurba_marseille","lat":43.27174,"lon":5.40995,"is_reserved":false,"is_disabled":false,"rental_uris":{"android":"levelo://app?vid=3077bcab-438e-4dd0-bf48-5f4d9e38e248","ios":"levelo://app?vid=3077bcab-438e-4dd0-bf48-5f4d9e38e248"},"vehicle_type_id":"4","last_reported":1701637539,"current_range_meters":18400,"station_id":"ce4bhl12rcd13ifvqgf0","pricing_plan_id":"free"},{"bike_id":"56a0f8d5-fd2f-440d-83b6-80e388cb1667","system_id":"levelo_inurba_marseille","lat":43.267959,"lon":5.402685,"is_reserved":false,"is_disabled":false,"rental_uris":{"android":"levelo://app?vid=56a0f8d5-fd2f-440d-83b6-80e388cb1667","ios":"levelo://app?vid=56a0f8d5-fd2f-440d-83b6-80e388cb1667"},"vehicle_type_id":"4","last_reported":1701637539,"current_range_meters":23200,"station_id":"ce501612rcd8frsf0b60","pricing_plan_id":"free"},{"bike_id":"19daf5e3-6af4-4e70-b97c-c9dda04c99d9","system_id":"levelo_inurba_marseille","lat":43.267959,"lon":5.402687,"is_reserved":false,"is_disabled":false,"rental_uris":{"android":"levelo://app?vid=19daf5e3-6af4-4e70-b97c-c9dda04c99d9","ios":"levelo://app?vid=19daf5e3-6af4-4e70-b97c-c9dda04c99d9"},"vehicle_type_id":"4","last_reported":1701637539,"current_range_meters":29200,"station_id":"ce501612rcd8frsf0b60","pricing_plan_id":"free"},{"bike_id":"28d64698-c55c-417b-9b8d-6c12b47b72d7","system_id":"levelo_inurba_marseille","lat":43.267959,"lon":5.402685,"is_reserved":false,"is_disabled":false,"rental_uris":{"android":"levelo://app?vid=28d64698-c55c-417b-9b8d-6c12b47b72d7","ios":"levelo://app?vid=28d64698-c55c-417b-9b8d-6c12b47b72d7"},"vehicle_type_id":"4","last_reported":1701637539,"current_range_meters":19200,"station_id":"ce501612rcd8frsf0b60","pricing_plan_id":"free"},{"bike_id":"fe5031d5-2f0d-4035-86b1-c742d73eeb3e","system_id":"levelo_inurba_marseille","lat":43.267959,"lon":5.402687,"is_reserved":false,"is_disabled":false,"rental_uris":{"android":"levelo://app?vid=fe5031d5-2f0d-4035-86b1-c742d73eeb3e","ios":"levelo://app?vid=fe5031d5-2f0d-4035-86b1-c742d73eeb3e"},"vehicle_type_id":"4","last_reported":1701637539,"current_range_meters":18800,"station_id":"ce501612rcd8frsf0b60","pricing_plan_id":"free"},{"bike_id":"2d610ba6-fcf3-4809-9a5e-efd5439f15ad","system_id":"levelo_inurba_marseille","lat":43.267959,"lon":5.402687,"is_reserved":false,"is_disabled":false,"rental_uris":{"android":"levelo://app?vid=2d610ba6-fcf3-4809-9a5e-efd5439f15ad","ios":"levelo://app?vid=2d610ba6-fcf3-4809-9a5e-efd5439f15ad"},"vehicle_type_id":"4","last_reported":1701637539,"current_range_meters":30800,"station_id":"ce501612rcd8frsf0b60","pricing_plan_id":"free"},{"bike_id":"0fd8254e-a95a-4dc5-963d-03782d038304","system_id":"levelo_inurba_marseille","lat":43.28146,"lon":5.42653,"is_reserved":false,"is_disabled":false,"rental_uris":{"android":"levelo://app?vid=0fd8254e-a95a-4dc5-963d-03782d038304","ios":"levelo://app?vid=0fd8254e-a95a-4dc5-963d-03782d038304"},"vehicle_type_id":"4","last_reported":1701637539,"current_range_meters":22400,"station_id":"ce4bhnh2rcd13ifvqgug","pricing_plan_id":"free"},{"bike_id":"19337c19-12ca-4f3b-a568-40a561779510","system_id":"levelo_inurba_marseille","lat":43.281396,"lon":5.429964,"is_reserved":false,"is_disabled":false,"rental_uris":{"android":"levelo://app?vid=19337c19-12ca-4f3b-a568-40a561779510","ios":"levelo://app?vid=19337c19-12ca-4f3b-a568-40a561779510"},"vehicle_type_id":"4","last_reported":1701637539,"current_range_meters":25200,"station_id":"","pricing_plan_id":"free"},{"bike_id":"2896d740-c829-4769-ab23-e2aa604b10cd","system_id":"levelo_inurba_marseille","lat":43.27494,"lon":5.42451,"is_reserved":false,"is_disabled":false,"rental_uris":{"android":"levelo://app?vid=2896d740-c829-4769-ab23-e2aa604b10cd","ios":"levelo://app?vid=2896d740-c829-4769-ab23-e2aa604b10cd"},"vehicle_type_id":"4","last_reported":1701637539,"current_range_meters":4400,"station_id":"ce4bhn92rcd13ifvqgrg","pricing_plan_id":"free"},{"bike_id":"17f35e7a-e54c-4208-a0bd-45b6b8360203","system_id":"levelo_inurba_marseille","lat":43.27493,"lon":5.42453,"is_reserved":false,"is_disabled":false,"rental_uris":{"android":"levelo://app?vid=17f35e7a-e54c-4208-a0bd-45b6b8360203","ios":"levelo://app?vid=17f35e7a-e54c-4208-a0bd-45b6b8360203"},"vehicle_type_id":"4","last_reported":1701637539,"current_range_meters":24800,"station_id":"ce4bhn92rcd13ifvqgrg","pricing_plan_id":"free"},{"bike_id":"91e9a8ab-02bf-4fcc-b8f1-587cd6d6e2d5","system_id":"levelo_inurba_marseille","lat":43.270721,"lon":5.422764,"is_reserved":false,"is_disabled":false,"rental_uris":{"android":"levelo://app?vid=91e9a8ab-02bf-4fcc-b8f1-587cd6d6e2d5","ios":"levelo://app?vid=91e9a8ab-02bf-4fcc-b8f1-587cd6d6e2d5"},"vehicle_type_id":"4","last_reported":1701637539,"current_range_meters":4400,"station_id":"ce4bhk92rcd13ifvqgb0","pricing_plan_id":"free"},{"bike_id":"e6fee166-d8ae-4019-abb3-6c4f3b176b93","system_id":"levelo_inurba_marseille","lat":43.270721,"lon":5.422764,"is_reserved":false,"is_disabled":false,"rental_uris":{"android":"levelo://app?vid=e6fee166-d8ae-4019-abb3-6c4f3b176b93","ios":"levelo://app?vid=e6fee166-d8ae-4019-abb3-6c4f3b176b93"},"vehicle_type_id":"4","last_reported":1701637539,"current_range_meters":18800,"station_id":"ce4bhk92rcd13ifvqgb0","pricing_plan_id":"free"},{"bike_id":"fffc5660-a500-44e2-8362-30383e934b4a","system_id":"levelo_inurba_marseille","lat":43.258658,"lon":5.398935,"is_reserved":false,"is_disabled":false,"rental_uris":{"android":"levelo://app?vid=fffc5660-a500-44e2-8362-30383e934b4a","ios":"levelo://app?vid=fffc5660-a500-44e2-8362-30383e934b4a"},"vehicle_type_id":"4","last_reported":1701637539,"current_range_meters":7200,"station_id":"ce4bhl92rcd13ifvqghg","pricing_plan_id":"free"},{"bike_id":"350df198-6813-4d03-8bd4-87ddbf23ecc4","system_id":"levelo_inurba_marseille","lat":43.258658,"lon":5.398935,"is_reserved":false,"is_disabled":false,"rental_uris":{"android":"levelo://app?vid=350df198-6813-4d03-8bd4-87ddbf23ecc4","ios":"levelo://app?vid=350df198-6813-4d03-8bd4-87ddbf23ecc4"},"vehicle_type_id":"4","last_reported":1701637539,"current_range_meters":30000,"station_id":"ce4bhl92rcd13ifvqghg","pricing_plan_id":"free"},{"bike_id":"bdc72d7c-9d46-4016-8a92-851cd50823f9","system_id":"levelo_inurba_marseille","lat":43.25929,"lon":5.409086,"is_reserved":false,"is_disabled":false,"rental_uris":{"android":"levelo://app?vid=bdc72d7c-9d46-4016-8a92-851cd50823f9","ios":"levelo://app?vid=bdc72d7c-9d46-4016-8a92-851cd50823f9"},"vehicle_type_id":"4","last_reported":1701637539,"current_range_meters":22400,"station_id":"ce4bhm92rcd13ifvqglg","pricing_plan_id":"free"},{"bike_id":"8a71ef35-7495-4100-9fba-54e41698ab95","system_id":"levelo_inurba_marseille","lat":43.25718,"lon":5.41113,"is_reserved":false,"is_disabled":false,"rental_uris":{"android":"levelo://app?vid=8a71ef35-7495-4100-9fba-54e41698ab95","ios":"levelo://app?vid=8a71ef35-7495-4100-9fba-54e41698ab95"},"vehicle_type_id":"4","last_reported":1701637539,"current_range_meters":0,"station_id":"ce4bhkp2rcd13ifvqgd0","pricing_plan_id":"free"},{"bike_id":"d4a274d2-6a26-45e1-95f7-65ca74e73ea7","system_id":"levelo_inurba_marseille","lat":43.257079,"lon":5.411051,"is_reserved":false,"is_disabled":false,"rental_uris":{"android":"levelo://app?vid=d4a274d2-6a26-45e1-95f7-65ca74e73ea7","ios":"levelo://app?vid=d4a274d2-6a26-45e1-95f7-65ca74e73ea7"},"vehicle_type_id":"4","last_reported":1701637539,"current_range_meters":14800,"station_id":"ce4bhkp2rcd13ifvqgd0","pricing_plan_id":"free"},{"bike_id":"98b99360-6909-42f6-96c8-71c4cf453988","system_id":"levelo_inurba_marseille","lat":43.257079,"lon":5.411051,"is_reserved":false,"is_disabled":false,"rental_uris":{"android":"levelo://app?vid=98b99360-6909-42f6-96c8-71c4cf453988","ios":"levelo://app?vid=98b99360-6909-42f6-96c8-71c4cf453988"},"vehicle_type_id":"4","last_reported":1701637539,"current_range_meters":28800,"station_id":"ce4bhkp2rcd13ifvqgd0","pricing_plan_id":"free"},{"bike_id":"d10a0046-453f-46e2-bcb4-5558cad0a0ca","system_id":"levelo_inurba_marseille","lat":43.250009,"lon":5.389195,"is_reserved":false,"is_disabled":false,"rental_uris":{"android":"levelo://app?vid=d10a0046-453f-46e2-bcb4-5558cad0a0ca","ios":"levelo://app?vid=d10a0046-453f-46e2-bcb4-5558cad0a0ca"},"vehicle_type_id":"4","last_reported":1701637539,"current_range_meters":22800,"station_id":"ce4bhgp2rcd13ifvqfd0","pricing_plan_id":"free"},{"bike_id":"f3031a93-c812-47f9-befb-cee3e4d878fb","system_id":"levelo_inurba_marseille","lat":43.2479,"lon":5.374457,"is_reserved":false,"is_disabled":false,"rental_uris":{"android":"levelo://app?vid=f3031a93-c812-47f9-befb-cee3e4d878fb","ios":"levelo://app?vid=f3031a93-c812-47f9-befb-cee3e4d878fb"},"vehicle_type_id":"4","last_reported":1701637539,"current_range_meters":24400,"station_id":"ce4bhgh2rcd13ifvqfb0","pricing_plan_id":"free"},{"bike_id":"ab651f20-342c-401a-ba35-80bb8d257ab6","system_id":"levelo_inurba_marseille","lat":43.2479,"lon":5.374457,"is_reserved":false,"is_disabled":false,"rental_uris":{"android":"levelo://app?vid=ab651f20-342c-401a-ba35-80bb8d257ab6","ios":"levelo://app?vid=ab651f20-342c-401a-ba35-80bb8d257ab6"},"vehicle_type_id":"4","last_reported":1701637539,"current_range_meters":8000,"station_id":"ce4bhgh2rcd13ifvqfb0","pricing_plan_id":"free"},{"bike_id":"47218376-6c80-47cd-991a-4badc7584f1a","system_id":"levelo_inurba_marseille","lat":43.25102,"lon":5.403214,"is_reserved":false,"is_disabled":false,"rental_uris":{"android":"levelo://app?vid=47218376-6c80-47cd-991a-4badc7584f1a","ios":"levelo://app?vid=47218376-6c80-47cd-991a-4badc7584f1a"},"vehicle_type_id":"4","last_reported":1701637539,"current_range_meters":23600,"station_id":"ce4bhlh2rcd13ifvqgig","pricing_plan_id":"free"},{"bike_id":"75d46db8-3715-440c-b22a-71065c63321a","system_id":"levelo_inurba_marseille","lat":43.25102,"lon":5.403214,"is_reserved":false,"is_disabled":false,"rental_uris":{"android":"levelo://app?vid=75d46db8-3715-440c-b22a-71065c63321a","ios":"levelo://app?vid=75d46db8-3715-440c-b22a-71065c63321a"},"vehicle_type_id":"4","last_reported":1701637539,"current_range_meters":28000,"station_id":"ce4bhlh2rcd13ifvqgig","pricing_plan_id":"free"},{"bike_id":"6f54c9b4-f207-4da9-bb60-51f1e8d0a790","system_id":"levelo_inurba_marseille","lat":43.25102,"lon":5.403214,"is_reserved":false,"is_disabled":false,"rental_uris":{"android":"levelo://app?vid=6f54c9b4-f207-4da9-bb60-51f1e8d0a790","ios":"levelo://app?vid=6f54c9b4-f207-4da9-bb60-51f1e8d0a790"},"vehicle_type_id":"4","last_reported":1701637539,"current_range_meters":25200,"station_id":"ce4bhlh2rcd13ifvqgig","pricing_plan_id":"free"},{"bike_id":"0b4d43f8-4b31-4b54-8b03-c02db7df8d78","system_id":"levelo_inurba_marseille","lat":43.25108,"lon":5.40325,"is_reserved":false,"is_disabled":false,"rental_uris":{"android":"levelo://app?vid=0b4d43f8-4b31-4b54-8b03-c02db7df8d78","ios":"levelo://app?vid=0b4d43f8-4b31-4b54-8b03-c02db7df8d78"},"vehicle_type_id":"4","last_reported":1701637539,"current_range_meters":15200,"station_id":"ce4bhlh2rcd13ifvqgig","pricing_plan_id":"free"},{"bike_id":"d61b5f41-e01d-4ded-8bed-a9c596243b0e","system_id":"levelo_inurba_marseille","lat":43.245581,"lon":5.395069,"is_reserved":false,"is_disabled":false,"rental_uris":{"android":"levelo://app?vid=d61b5f41-e01d-4ded-8bed-a9c596243b0e","ios":"levelo://app?vid=d61b5f41-e01d-4ded-8bed-a9c596243b0e"},"vehicle_type_id":"4","last_reported":1701637539,"current_range_meters":31200,"station_id":"ce4bhlp2rcd13ifvqgjg","pricing_plan_id":"free"},{"bike_id":"0e0fb7a4-df83-4f4f-85a3-f73d94481244","system_id":"levelo_inurba_marseille","lat":43.245581,"lon":5.395069,"is_reserved":false,"is_disabled":false,"rental_uris":{"android":"levelo://app?vid=0e0fb7a4-df83-4f4f-85a3-f73d94481244","ios":"levelo://app?vid=0e0fb7a4-df83-4f4f-85a3-f73d94481244"},"vehicle_type_id":"4","last_reported":1701637539,"current_range_meters":1200,"station_id":"ce4bhlp2rcd13ifvqgjg","pricing_plan_id":"free"},{"bike_id":"f2d1c53e-c9ac-415e-8fd6-e07b040e3303","system_id":"levelo_inurba_marseille","lat":43.24059,"lon":5.36759,"is_reserved":false,"is_disabled":false,"rental_uris":{"android":"levelo://app?vid=f2d1c53e-c9ac-415e-8fd6-e07b040e3303","ios":"levelo://app?vid=f2d1c53e-c9ac-415e-8fd6-e07b040e3303"},"vehicle_type_id":"4","last_reported":1701637539,"current_range_meters":21600,"station_id":"ce4bhi12rcd13ifvqfp0","pricing_plan_id":"free"},{"bike_id":"370d8d0c-fead-40f1-9b16-d3e5b5f2faef","system_id":"levelo_inurba_marseille","lat":43.240623,"lon":5.377642,"is_reserved":false,"is_disabled":false,"rental_uris":{"android":"levelo://app?vid=370d8d0c-fead-40f1-9b16-d3e5b5f2faef","ios":"levelo://app?vid=370d8d0c-fead-40f1-9b16-d3e5b5f2faef"},"vehicle_type_id":"4","last_reported":1701637539,"current_range_meters":400,"station_id":"ce4bhnp2rcd13ifvqgvg","pricing_plan_id":"free"},{"bike_id":"b147e189-f8d6-4f19-b83d-273cd9dabf73","system_id":"levelo_inurba_marseille","lat":43.240623,"lon":5.377642,"is_reserved":false,"is_disabled":false,"rental_uris":{"android":"levelo://app?vid=b147e189-f8d6-4f19-b83d-273cd9dabf73","ios":"levelo://app?vid=b147e189-f8d6-4f19-b83d-273cd9dabf73"},"vehicle_type_id":"4","last_reported":1701637539,"current_range_meters":12400,"station_id":"ce4bhnp2rcd13ifvqgvg","pricing_plan_id":"free"},{"bike_id":"c75b2ba4-b197-45b4-91b3-d622061740e4","system_id":"levelo_inurba_marseille","lat":43.240623,"lon":5.377642,"is_reserved":false,"is_disabled":false,"rental_uris":{"android":"levelo://app?vid=c75b2ba4-b197-45b4-91b3-d622061740e4","ios":"levelo://app?vid=c75b2ba4-b197-45b4-91b3-d622061740e4"},"vehicle_type_id":"4","last_reported":1701637539,"current_range_meters":11200,"station_id":"ce4bhnp2rcd13ifvqgvg","pricing_plan_id":"free"},{"bike_id":"66d07158-1c05-469e-a266-b66692f04cb5","system_id":"levelo_inurba_marseille","lat":43.239588,"lon":5.366238,"is_reserved":false,"is_disabled":false,"rental_uris":{"android":"levelo://app?vid=66d07158-1c05-469e-a266-b66692f04cb5","ios":"levelo://app?vid=66d07158-1c05-469e-a266-b66692f04cb5"},"vehicle_type_id":"4","last_reported":1701637539,"current_range_meters":31200,"station_id":"ce4bhi12rcd13ifvqfp0","pricing_plan_id":"free"},{"bike_id":"b101f295-ac85-402a-8afe-c635c176f114","system_id":"levelo_inurba_marseille","lat":43.28525,"lon":5.46066,"is_reserved":false,"is_disabled":false,"rental_uris":{"android":"levelo://app?vid=b101f295-ac85-402a-8afe-c635c176f114","ios":"levelo://app?vid=b101f295-ac85-402a-8afe-c635c176f114"},"vehicle_type_id":"4","last_reported":1701637539,"current_range_meters":18400,"station_id":"","pricing_plan_id":"free"},{"bike_id":"a3aad75b-64ef-4634-9f77-a5b976c8f7fb","system_id":"levelo_inurba_marseille","lat":43.24178,"lon":5.39729,"is_reserved":false,"is_disabled":false,"rental_uris":{"android":"levelo://app?vid=a3aad75b-64ef-4634-9f77-a5b976c8f7fb","ios":"levelo://app?vid=a3aad75b-64ef-4634-9f77-a5b976c8f7fb"},"vehicle_type_id":"4","last_reported":1701637539,"current_range_meters":6800,"station_id":"ce4bhn12rcd13ifvqgpg","pricing_plan_id":"free"},{"bike_id":"6041d620-664b-4836-b597-a0e62593a032","system_id":"levelo_inurba_marseille","lat":43.231923,"lon":5.355545,"is_reserved":false,"is_disabled":false,"rental_uris":{"android":"levelo://app?vid=6041d620-664b-4836-b597-a0e62593a032","ios":"levelo://app?vid=6041d620-664b-4836-b597-a0e62593a032"},"vehicle_type_id":"4","last_reported":1701637539,"current_range_meters":27200,"station_id":"ce4bhu92rcd13ifvqi70","pricing_plan_id":"free"},{"bike_id":"87815193-0a9e-4a5a-8f22-63817bf9d429","system_id":"levelo_inurba_marseille","lat":43.231976,"lon":5.355431,"is_reserved":false,"is_disabled":false,"rental_uris":{"android":"levelo://app?vid=87815193-0a9e-4a5a-8f22-63817bf9d429","ios":"levelo://app?vid=87815193-0a9e-4a5a-8f22-63817bf9d429"},"vehicle_type_id":"4","last_reported":1701637539,"current_range_meters":28400,"station_id":"ce4bhu92rcd13ifvqi70","pricing_plan_id":"free"},{"bike_id":"58d4edcd-4441-486c-8457-28ebda4ac431","system_id":"levelo_inurba_marseille","lat":43.23194,"lon":5.35545,"is_reserved":false,"is_disabled":false,"rental_uris":{"android":"levelo://app?vid=58d4edcd-4441-486c-8457-28ebda4ac431","ios":"levelo://app?vid=58d4edcd-4441-486c-8457-28ebda4ac431"},"vehicle_type_id":"4","last_reported":1701637539,"current_range_meters":18800,"station_id":"ce4bhu92rcd13ifvqi70","pricing_plan_id":"free"},{"bike_id":"a2778a75-2f32-457d-810c-ad5c32010803","system_id":"levelo_inurba_marseille","lat":43.23192,"lon":5.355614,"is_reserved":false,"is_disabled":false,"rental_uris":{"android":"levelo://app?vid=a2778a75-2f32-457d-810c-ad5c32010803","ios":"levelo://app?vid=a2778a75-2f32-457d-810c-ad5c32010803"},"vehicle_type_id":"4","last_reported":1701637539,"current_range_meters":18800,"station_id":"ce4bhu92rcd13ifvqi70","pricing_plan_id":"free"},{"bike_id":"cf3102c4-88e0-4a41-86b7-69a76932d3e6","system_id":"levelo_inurba_marseille","lat":43.231923,"lon":5.355545,"is_reserved":false,"is_disabled":false,"rental_uris":{"android":"levelo://app?vid=cf3102c4-88e0-4a41-86b7-69a76932d3e6","ios":"levelo://app?vid=cf3102c4-88e0-4a41-86b7-69a76932d3e6"},"vehicle_type_id":"4","last_reported":1701637539,"current_range_meters":31600,"station_id":"ce4bhu92rcd13ifvqi70","pricing_plan_id":"free"},{"bike_id":"2b04708e-eed8-4471-916a-9fdeea01eec7","system_id":"levelo_inurba_marseille","lat":43.231923,"lon":5.355545,"is_reserved":false,"is_disabled":false,"rental_uris":{"android":"levelo://app?vid=2b04708e-eed8-4471-916a-9fdeea01eec7","ios":"levelo://app?vid=2b04708e-eed8-4471-916a-9fdeea01eec7"},"vehicle_type_id":"4","last_reported":1701637539,"current_range_meters":30800,"station_id":"ce4bhu92rcd13ifvqi70","pricing_plan_id":"free"},{"bike_id":"9e01ee59-41e6-425c-ae1f-3e33312fefcd","system_id":"levelo_inurba_marseille","lat":43.231923,"lon":5.355545,"is_reserved":false,"is_disabled":false,"rental_uris":{"android":"levelo://app?vid=9e01ee59-41e6-425c-ae1f-3e33312fefcd","ios":"levelo://app?vid=9e01ee59-41e6-425c-ae1f-3e33312fefcd"},"vehicle_type_id":"4","last_reported":1701637539,"current_range_meters":14800,"station_id":"ce4bhu92rcd13ifvqi70","pricing_plan_id":"free"},{"bike_id":"941004a4-21a1-40d0-a251-aacd94276fe6","system_id":"levelo_inurba_marseille","lat":43.231923,"lon":5.355545,"is_reserved":false,"is_disabled":false,"rental_uris":{"android":"levelo://app?vid=941004a4-21a1-40d0-a251-aacd94276fe6","ios":"levelo://app?vid=941004a4-21a1-40d0-a251-aacd94276fe6"},"vehicle_type_id":"4","last_reported":1701637539,"current_range_meters":6800,"station_id":"ce4bhu92rcd13ifvqi70","pricing_plan_id":"free"},{"bike_id":"118d4a35-86b4-49cc-8abc-987caa7ffe62","system_id":"levelo_inurba_marseille","lat":43.231909,"lon":5.399934,"is_reserved":false,"is_disabled":false,"rental_uris":{"android":"levelo://app?vid=118d4a35-86b4-49cc-8abc-987caa7ffe62","ios":"levelo://app?vid=118d4a35-86b4-49cc-8abc-987caa7ffe62"},"vehicle_type_id":"4","last_reported":1701637539,"current_range_meters":30400,"station_id":"ce4bhn12rcd13ifvqgqg","pricing_plan_id":"free"},{"bike_id":"77b1a551-da7f-429a-980e-bfc6767a5958","system_id":"levelo_inurba_marseille","lat":43.231794,"lon":5.400052,"is_reserved":false,"is_disabled":false,"rental_uris":{"android":"levelo://app?vid=77b1a551-da7f-429a-980e-bfc6767a5958","ios":"levelo://app?vid=77b1a551-da7f-429a-980e-bfc6767a5958"},"vehicle_type_id":"4","last_reported":1701637539,"current_range_meters":31600,"station_id":"ce4bhn12rcd13ifvqgqg","pricing_plan_id":"free"},{"bike_id":"d7955d6f-88ae-4e83-97c1-4a0668d076f6","system_id":"levelo_inurba_marseille","lat":43.23188,"lon":5.39986,"is_reserved":false,"is_disabled":false,"rental_uris":{"android":"levelo://app?vid=d7955d6f-88ae-4e83-97c1-4a0668d076f6","ios":"levelo://app?vid=d7955d6f-88ae-4e83-97c1-4a0668d076f6"},"vehicle_type_id":"4","last_reported":1701637539,"current_range_meters":17600,"station_id":"ce4bhn12rcd13ifvqgqg","pricing_plan_id":"free"},{"bike_id":"6bd9f065-50d9-4657-9ca0-a006f413d305","system_id":"levelo_inurba_marseille","lat":43.231794,"lon":5.400052,"is_reserved":false,"is_disabled":false,"rental_uris":{"android":"levelo://app?vid=6bd9f065-50d9-4657-9ca0-a006f413d305","ios":"levelo://app?vid=6bd9f065-50d9-4657-9ca0-a006f413d305"},"vehicle_type_id":"4","last_reported":1701637539,"current_range_meters":31600,"station_id":"ce4bhn12rcd13ifvqgqg","pricing_plan_id":"free"},{"bike_id":"ab5eae98-96ca-4718-91b7-353de917f40d","system_id":"levelo_inurba_marseille","lat":43.231793,"lon":5.400044,"is_reserved":false,"is_disabled":false,"rental_uris":{"android":"levelo://app?vid=ab5eae98-96ca-4718-91b7-353de917f40d","ios":"levelo://app?vid=ab5eae98-96ca-4718-91b7-353de917f40d"},"vehicle_type_id":"4","last_reported":1701637539,"current_range_meters":31200,"station_id":"ce4bhn12rcd13ifvqgqg","pricing_plan_id":"free"},{"bike_id":"3fdd6789-d52a-4c7f-96f4-f754cbf436d6","system_id":"levelo_inurba_marseille","lat":43.231831,"lon":5.399801,"is_reserved":false,"is_disabled":false,"rental_uris":{"android":"levelo://app?vid=3fdd6789-d52a-4c7f-96f4-f754cbf436d6","ios":"levelo://app?vid=3fdd6789-d52a-4c7f-96f4-f754cbf436d6"},"vehicle_type_id":"4","last_reported":1701637539,"current_range_meters":30800,"station_id":"ce4bhn12rcd13ifvqgqg","pricing_plan_id":"free"},{"bike_id":"0cf73e26-cfe4-495a-8675-6603ab968aec","system_id":"levelo_inurba_marseille","lat":43.231794,"lon":5.400052,"is_reserved":false,"is_disabled":false,"rental_uris":{"android":"levelo://app?vid=0cf73e26-cfe4-495a-8675-6603ab968aec","ios":"levelo://app?vid=0cf73e26-cfe4-495a-8675-6603ab968aec"},"vehicle_type_id":"4","last_reported":1701637539,"current_range_meters":12400,"station_id":"ce4bhn12rcd13ifvqgqg","pricing_plan_id":"free"},{"bike_id":"7119d2ec-3a1f-47f1-97aa-a12f1d72912d","system_id":"levelo_inurba_marseille","lat":43.231811,"lon":5.399853,"is_reserved":false,"is_disabled":false,"rental_uris":{"android":"levelo://app?vid=7119d2ec-3a1f-47f1-97aa-a12f1d72912d","ios":"levelo://app?vid=7119d2ec-3a1f-47f1-97aa-a12f1d72912d"},"vehicle_type_id":"4","last_reported":1701637539,"current_range_meters":11600,"station_id":"ce4bhn12rcd13ifvqgqg","pricing_plan_id":"free"},{"bike_id":"4ee99995-f63f-4ddb-ac4b-88a5ee23324c","system_id":"levelo_inurba_marseille","lat":43.23181,"lon":5.399853,"is_reserved":false,"is_disabled":false,"rental_uris":{"android":"levelo://app?vid=4ee99995-f63f-4ddb-ac4b-88a5ee23324c","ios":"levelo://app?vid=4ee99995-f63f-4ddb-ac4b-88a5ee23324c"},"vehicle_type_id":"4","last_reported":1701637539,"current_range_meters":12000,"station_id":"ce4bhn12rcd13ifvqgqg","pricing_plan_id":"free"},{"bike_id":"457c552c-8af5-4b7b-9f6b-8c901265a623","system_id":"levelo_inurba_marseille","lat":43.231818,"lon":5.399963,"is_reserved":false,"is_disabled":false,"rental_uris":{"android":"levelo://app?vid=457c552c-8af5-4b7b-9f6b-8c901265a623","ios":"levelo://app?vid=457c552c-8af5-4b7b-9f6b-8c901265a623"},"vehicle_type_id":"4","last_reported":1701637539,"current_range_meters":26800,"station_id":"ce4bhn12rcd13ifvqgqg","pricing_plan_id":"free"},{"bike_id":"22bd98e3-c33f-4c44-ae2b-f96729d36f4f","system_id":"levelo_inurba_marseille","lat":43.231793,"lon":5.400044,"is_reserved":false,"is_disabled":false,"rental_uris":{"android":"levelo://app?vid=22bd98e3-c33f-4c44-ae2b-f96729d36f4f","ios":"levelo://app?vid=22bd98e3-c33f-4c44-ae2b-f96729d36f4f"},"vehicle_type_id":"4","last_reported":1701637539,"current_range_meters":31200,"station_id":"ce4bhn12rcd13ifvqgqg","pricing_plan_id":"free"},{"bike_id":"e47e98e0-4256-4c41-ae86-e531a41b9213","system_id":"levelo_inurba_marseille","lat":43.231794,"lon":5.400052,"is_reserved":false,"is_disabled":false,"rental_uris":{"android":"levelo://app?vid=e47e98e0-4256-4c41-ae86-e531a41b9213","ios":"levelo://app?vid=e47e98e0-4256-4c41-ae86-e531a41b9213"},"vehicle_type_id":"4","last_reported":1701637539,"current_range_meters":31600,"station_id":"ce4bhn12rcd13ifvqgqg","pricing_plan_id":"free"},{"bike_id":"88cf855f-bb31-40e0-8afc-686df3c193ab","system_id":"levelo_inurba_marseille","lat":43.231794,"lon":5.400052,"is_reserved":false,"is_disabled":false,"rental_uris":{"android":"levelo://app?vid=88cf855f-bb31-40e0-8afc-686df3c193ab","ios":"levelo://app?vid=88cf855f-bb31-40e0-8afc-686df3c193ab"},"vehicle_type_id":"4","last_reported":1701637539,"current_range_meters":28400,"station_id":"ce4bhn12rcd13ifvqgqg","pricing_plan_id":"free"},{"bike_id":"8f0fb87f-53e2-432d-b05f-ab1e816b61dc","system_id":"levelo_inurba_marseille","lat":43.231794,"lon":5.400052,"is_reserved":false,"is_disabled":false,"rental_uris":{"android":"levelo://app?vid=8f0fb87f-53e2-432d-b05f-ab1e816b61dc","ios":"levelo://app?vid=8f0fb87f-53e2-432d-b05f-ab1e816b61dc"},"vehicle_type_id":"4","last_reported":1701637539,"current_range_meters":15200,"station_id":"ce4bhn12rcd13ifvqgqg","pricing_plan_id":"free"},{"bike_id":"8bb4a4e8-9672-4d13-b6c9-9d0eb28673b3","system_id":"levelo_inurba_marseille","lat":43.231793,"lon":5.400044,"is_reserved":false,"is_disabled":false,"rental_uris":{"android":"levelo://app?vid=8bb4a4e8-9672-4d13-b6c9-9d0eb28673b3","ios":"levelo://app?vid=8bb4a4e8-9672-4d13-b6c9-9d0eb28673b3"},"vehicle_type_id":"4","last_reported":1701637539,"current_range_meters":29200,"station_id":"ce4bhn12rcd13ifvqgqg","pricing_plan_id":"free"}]}}