{"last_updated":1719940052,"ttl":30,"version":"2.2","data":{"bikes":[{"bike_id":"0817222a-a179-40e8-ae8a-1ca8d0054032","system_id":"levelo_inurba_marseille","lat":43.312239,"lon":5.368562,"is_reserved":false,"is_disabled":false,"rental_uris":{"android":"levelo://app?vid=0817222a-a179-40e8-ae8a-1ca8d0054032","ios":"levelo://app?vid=0817222a-a179-40e8-ae8a-1ca8d0054032"},"vehicle_type_id":"4","last_reported":1719940052,"current_range_meters":27200,"station_id":"ce4bgl92rcd13ifvqbq0","pricing_plan_id":"cebpf4jnsgd1na2vs0mg"},{"bike_id":"b5e1ed18-a21a-4b35-9f3a-445e64b3ed87","system_id":"levelo_inurba_marseille","lat":43.312239,"lon":5.368562,"is_reserved":false,"is_disabled":false,"rental_uris":{"android":"levelo://app?vid=b5e1ed18-a21a-4b35-9f3a-445e64b3ed87","ios":"levelo://app?vid=b5e1ed18-a21a-4b35-9f3a-445e64b3ed87"},"vehicle_type_id":"4","last_reported":1719940052,"current_range_meters":16400,"station_id":"ce4bgl92rcd13ifvqbq0","pricing_plan_id":"cebpf4jnsgd1na2vs0mg"},{"bike_id":"8dd16bd5-94f3-41c8-9a25-6e16131255ce","system_id":"levelo_inurba_marseille","lat":43.312239,"lon":5.368562,"is_reserved":false,"is_disabled":false,"rental_uris":{"android":"levelo://app?vid=8dd16bd5-94f3-41c8-9a25-6e16131255ce","ios":"levelo://app?vid=8dd16bd5-94f3-41c8-9a25-6e16131255ce"},"vehicle_type_id":"4","last_reported":1719940052,"current_range_meters":28400,"station_id":"ce4bgl92rcd13ifvqbq0","pricing_plan_id":"cebpf4jnsgd1na2vs0mg"},{"bike_id":"948e6086-1384-4f24-8434-cb2bc0fa4bdf","system_id":"levelo_inurba_marseille","lat":43.31105,"lon":5.370523,"is_reserved":false,"is_disabled":false,"rental_uris":{"android":"levelo://app?vid=948e6086-1384-4f24-8434-cb2bc0fa4bdf","ios":"levelo://app?vid=948e6086-1384-4f24-8434-cb2bc0fa4bdf"},"vehicle_type_id":"4","last_reported":1719940052,"current_range_meters":16800,"station_id":"","pricing_plan_id":"cebpf4jnsgd1na2vs0mg"},{"bike_id":"89690132-3364-428e-bd95-db17c33f2eed","system_id":"levelo_inurba_marseille","lat":43.309076,"lon":5.368465,"is_reserved":false,"is_disabled":false,"rental_uris":{"android":"levelo://app?vid=89690132-3364-428e-bd95-db17c33f2eed","ios":"levelo://app?vid=89690132-3364-428e-bd95-db17c33f2eed"},"vehicle_type_id":"4","last_reported":1719940052,"current_range_meters":2400,"station_id":"ce4bgn92rcd13ifvqbvg","pricing_plan_id":"cebpf4jnsgd1na2vs0mg"},{"bike_id":"ed308d1d-8253-4888-95a1-fe2656aa51ed","system_id":"levelo_inurba_marseille","lat":43.30911,"lon":5.36849,"is_reserved":false,"is_disabled":false,"rental_uris":{"android":"levelo://app?vid=ed308d1d-8253-4888-95a1-fe2656aa51ed","ios":"levelo://app?vid=ed308d1d-8253-4888-95a1-fe2656aa51ed"},"vehicle_type_id":"4","last_reported":1719940052,"current_range_meters":24400,"station_id":"ce4bgn92rcd13ifvqbvg","pricing_plan_id":"cebpf4jnsgd1na2vs0mg"},{"bike_id":"ffaa0300-9613-4d47-9e0d-fdaa8ce443c0","system_id":"levelo_inurba_marseille","lat":43.309076,"lon":5.368465,"is_reserved":false,"is_disabled":false,"rental_uris":{"android":"levelo://app?vid=ffaa0300-9613-4d47-9e0d-fdaa8ce443c0","ios":"levelo://app?vid=ffaa0300-9613-4d47-9e0d-fdaa8ce443c0"},"vehicle_type_id":"4","last_reported":1719940052,"current_range_meters":10800,"station_id":"ce4bgn92rcd13ifvqbvg","pricing_plan_id":"cebpf4jnsgd1na2vs0mg"},{"bike_id":"7f9505f6-9a3e-4d3a-a967-23ebfd7d9bba","system_id":"levelo_inurba_marseille","lat":43.309076,"lon":5.368465,"is_reserved":false,"is_disabled":false,"rental_uris":{"android":"levelo://app?vid=7f9505f6-9a3e-4d3a-a967-23ebfd7d9bba","ios":"levelo://app?vid=7f9505f6-9a3e-4d3a-a967-23ebfd7d9bba"},"vehicle_type_id":"4","last_reported":1719940052,"current_range_meters":14800,"station_id":"ce4bgn92rcd13ifvqbvg","pricing_plan_id":"cebpf4jnsgd1na2vs0mg"},{"bike_id":"7b2434c4-89dd-4871-b228-fae776330ff3","system_id":"levelo_inurba_marseille","lat":43.30893,"lon":5.371923,"is_reserved":false,"is_disabled":false,"rental_uris":{"android":"levelo://app?vid=7b2434c4-89dd-4871-b228-fae776330ff3","ios":"levelo://app?vid=7b2434c4-89dd-4871-b228-fae776330ff3"},"vehicle_type_id":"4","last_reported":1719940052,"current_range_meters":31600,"station_id":"ce4bguh2rcd13ifvqckg","pricing_plan_id":"cebpf4jnsgd1na2vs0mg"},{"bike_id":"b7c40c4a-54b4-4a11-9fbe-872f168ca6c1","system_id":"levelo_inurba_marseille","lat":43.309039,"lon":5.371797,"is_reserved":false,"is_disabled":false,"rental_uris":{"android":"levelo://app?vid=b7c40c4a-54b4-4a11-9fbe-872f168ca6c1","ios":"levelo://app?vid=b7c40c4a-54b4-4a11-9fbe-872f168ca6c1"},"vehicle_type_id":"4","last_reported":1719940052,"current_range_meters":30000,"station_id":"ce4bguh2rcd13ifvqckg","pricing_plan_id":"cebpf4jnsgd1na2vs0mg"},{"bike_id":"680354a0-47dd-4515-9af6-2f5bab6d1594","system_id":"levelo_inurba_marseille","lat":43.30546,"lon":5.36656,"is_reserved":false,"is_disabled":false,"rental_uris":{"android":"levelo://app?vid=680354a0-47dd-4515-9af6-2f5bab6d1594","ios":"levelo://app?vid=680354a0-47dd-4515-9af6-2f5bab6d1594"},"vehicle_type_id":"4","last_reported":1719940052,"current_range_meters":9600,"station_id":"","pricing_plan_id":"cebpf4jnsgd1na2vs0mg"},{"bike_id":"f77a0df8-a725-4e15-b547-c5c37a587ed1","system_id":"levelo_inurba_marseille","lat":43.305706,"lon":5.365654,"is_reserved":false,"is_disabled":false,"rental_uris":{"android":"levelo://app?vid=f77a0df8-a725-4e15-b547-c5c37a587ed1","ios":"levelo://app?vid=f77a0df8-a725-4e15-b547-c5c37a587ed1"},"vehicle_type_id":"4","last_reported":1719940052,"current_range_meters":4000,"station_id":"ce4bgs12rcd13ifvqcag","pricing_plan_id":"cebpf4jnsgd1na2vs0mg"},{"bike_id":"7a5ce10b-ae7a-4128-8a46-b0229279ea73","system_id":"levelo_inurba_marseille","lat":43.305989,"lon":5.37225,"is_reserved":false,"is_disabled":false,"rental_uris":{"android":"levelo://app?vid=7a5ce10b-ae7a-4128-8a46-b0229279ea73","ios":"levelo://app?vid=7a5ce10b-ae7a-4128-8a46-b0229279ea73"},"vehicle_type_id":"4","last_reported":1719940052,"current_range_meters":0,"station_id":"ce4bgqh2rcd13ifvqc4g","pricing_plan_id":"cebpf4jnsgd1na2vs0mg"},{"bike_id":"19722169-9453-48b3-b329-cdbf20b37eca","system_id":"levelo_inurba_marseille","lat":43.3112,"lon":5.3777,"is_reserved":false,"is_disabled":false,"rental_uris":{"android":"levelo://app?vid=19722169-9453-48b3-b329-cdbf20b37eca","ios":"levelo://app?vid=19722169-9453-48b3-b329-cdbf20b37eca"},"vehicle_type_id":"4","last_reported":1719940052,"current_range_meters":0,"station_id":"ce4bgt92rcd13ifvqcg0","pricing_plan_id":"cebpf4jnsgd1na2vs0mg"},{"bike_id":"053a228a-39bc-4433-8017-5339440cf949","system_id":"levelo_inurba_marseille","lat":43.311125,"lon":5.377624,"is_reserved":false,"is_disabled":false,"rental_uris":{"android":"levelo://app?vid=053a228a-39bc-4433-8017-5339440cf949","ios":"levelo://app?vid=053a228a-39bc-4433-8017-5339440cf949"},"vehicle_type_id":"4","last_reported":1719940052,"current_range_meters":24000,"station_id":"ce4bgt92rcd13ifvqcg0","pricing_plan_id":"cebpf4jnsgd1na2vs0mg"},{"bike_id":"8542211d-5490-428b-b423-ef6c8166d9e7","system_id":"levelo_inurba_marseille","lat":43.307945,"lon":5.376487,"is_reserved":false,"is_disabled":false,"rental_uris":{"android":"levelo://app?vid=8542211d-5490-428b-b423-ef6c8166d9e7","ios":"levelo://app?vid=8542211d-5490-428b-b423-ef6c8166d9e7"},"vehicle_type_id":"4","last_reported":1719940052,"current_range_meters":24800,"station_id":"ce4bgv92rcd13ifvqcq0","pricing_plan_id":"cebpf4jnsgd1na2vs0mg"},{"bike_id":"9361d4e9-549b-4ede-bdc4-dff6d96a7843","system_id":"levelo_inurba_marseille","lat":43.307945,"lon":5.376487,"is_reserved":false,"is_disabled":false,"rental_uris":{"android":"levelo://app?vid=9361d4e9-549b-4ede-bdc4-dff6d96a7843","ios":"levelo://app?vid=9361d4e9-549b-4ede-bdc4-dff6d96a7843"},"vehicle_type_id":"4","last_reported":1719940052,"current_range_meters":800,"station_id":"ce4bgv92rcd13ifvqcq0","pricing_plan_id":"cebpf4jnsgd1na2vs0mg"},{"bike_id":"f04238b4-0d7a-432b-ae09-1a2bb5d9be64","system_id":"levelo_inurba_marseille","lat":43.30779,"lon":5.37649,"is_reserved":false,"is_disabled":false,"rental_uris":{"android":"levelo://app?vid=f04238b4-0d7a-432b-ae09-1a2bb5d9be64","ios":"levelo://app?vid=f04238b4-0d7a-432b-ae09-1a2bb5d9be64"},"vehicle_type_id":"4","last_reported":1719940052,"current_range_meters":3600,"station_id":"ce4bgv92rcd13ifvqcq0","pricing_plan_id":"cebpf4jnsgd1na2vs0mg"},{"bike_id":"b79cbe68-8c7b-4d7a-9929-7552dca14b32","system_id":"levelo_inurba_marseille","lat":43.317075,"lon":5.377367,"is_reserved":false,"is_disabled":false,"rental_uris":{"android":"levelo://app?vid=b79cbe68-8c7b-4d7a-9929-7552dca14b32","ios":"levelo://app?vid=b79cbe68-8c7b-4d7a-9929-7552dca14b32"},"vehicle_type_id":"4","last_reported":1719940052,"current_range_meters":1200,"station_id":"ce4bgth2rcd13ifvqch0","pricing_plan_id":"cebpf4jnsgd1na2vs0mg"},{"bike_id":"a13b13f1-b6f2-4dde-a79e-9a13d937720f","system_id":"levelo_inurba_marseille","lat":43.303046,"lon":5.368981,"is_reserved":false,"is_disabled":false,"rental_uris":{"android":"levelo://app?vid=a13b13f1-b6f2-4dde-a79e-9a13d937720f","ios":"levelo://app?vid=a13b13f1-b6f2-4dde-a79e-9a13d937720f"},"vehicle_type_id":"4","last_reported":1719940052,"current_range_meters":13600,"station_id":"ce4bgqh2rcd13ifvqc5g","pricing_plan_id":"cebpf4jnsgd1na2vs0mg"},{"bike_id":"cf228592-dd46-41cc-a6b9-f0462fca542c","system_id":"levelo_inurba_marseille","lat":43.30523,"lon":5.37566,"is_reserved":false,"is_disabled":false,"rental_uris":{"android":"levelo://app?vid=cf228592-dd46-41cc-a6b9-f0462fca542c","ios":"levelo://app?vid=cf228592-dd46-41cc-a6b9-f0462fca542c"},"vehicle_type_id":"4","last_reported":1719940052,"current_range_meters":17600,"station_id":"","pricing_plan_id":"cebpf4jnsgd1na2vs0mg"},{"bike_id":"d8ef14c1-f64b-4fe5-b255-b606daa37fb8","system_id":"levelo_inurba_marseille","lat":43.315289,"lon":5.380349,"is_reserved":false,"is_disabled":false,"rental_uris":{"android":"levelo://app?vid=d8ef14c1-f64b-4fe5-b255-b606daa37fb8","ios":"levelo://app?vid=d8ef14c1-f64b-4fe5-b255-b606daa37fb8"},"vehicle_type_id":"4","last_reported":1719940052,"current_range_meters":0,"station_id":"ce4bhsp2rcd13ifvqi50","pricing_plan_id":"cebpf4jnsgd1na2vs0mg"},{"bike_id":"a708cb3b-3d87-47e4-b932-5f5a3605abbc","system_id":"levelo_inurba_marseille","lat":43.315289,"lon":5.380349,"is_reserved":false,"is_disabled":false,"rental_uris":{"android":"levelo://app?vid=a708cb3b-3d87-47e4-b932-5f5a3605abbc","ios":"levelo://app?vid=a708cb3b-3d87-47e4-b932-5f5a3605abbc"},"vehicle_type_id":"4","last_reported":1719940052,"current_range_meters":20800,"station_id":"ce4bhsp2rcd13ifvqi50","pricing_plan_id":"cebpf4jnsgd1na2vs0mg"},{"bike_id":"0957cbfa-9849-4ec2-a09d-20baa2993ddb","system_id":"levelo_inurba_marseille","lat":43.3153,"lon":5.3804,"is_reserved":false,"is_disabled":false,"rental_uris":{"android":"levelo://app?vid=0957cbfa-9849-4ec2-a09d-20baa2993ddb","ios":"levelo://app?vid=0957cbfa-9849-4ec2-a09d-20baa2993ddb"},"vehicle_type_id":"4","last_reported":1719940052,"current_range_meters":0,"station_id":"ce4bhsp2rcd13ifvqi50","pricing_plan_id":"cebpf4jnsgd1na2vs0mg"},{"bike_id":"38a1de4f-8263-4b05-8de9-73ffb32d7e2b","system_id":"levelo_inurba_marseille","lat":43.308012,"lon":5.381511,"is_reserved":false,"is_disabled":false,"rental_uris":{"android":"levelo://app?vid=38a1de4f-8263-4b05-8de9-73ffb32d7e2b","ios":"levelo://app?vid=38a1de4f-8263-4b05-8de9-73ffb32d7e2b"},"vehicle_type_id":"4","last_reported":1719940052,"current_range_meters":0,"station_id":"ce4bgt12rcd13ifvqce0","pricing_plan_id":"cebpf4jnsgd1na2vs0mg"},{"bike_id":"8262f083-319e-4b32-a408-7f415a8d3a5d","system_id":"levelo_inurba_marseille","lat":43.304606,"lon":5.379026,"is_reserved":false,"is_disabled":false,"rental_uris":{"android":"levelo://app?vid=8262f083-319e-4b32-a408-7f415a8d3a5d","ios":"levelo://app?vid=8262f083-319e-4b32-a408-7f415a8d3a5d"},"vehicle_type_id":"4","last_reported":1719940052,"current_range_meters":0,"station_id":"ce4bgup2rcd13ifvqcn0","pricing_plan_id":"cebpf4jnsgd1na2vs0mg"},{"bike_id":"21c551fb-3f9b-4f61-929c-6e08b9bac5bf","system_id":"levelo_inurba_marseille","lat":43.324771,"lon":5.36557,"is_reserved":false,"is_disabled":false,"rental_uris":{"android":"levelo://app?vid=21c551fb-3f9b-4f61-929c-6e08b9bac5bf","ios":"levelo://app?vid=21c551fb-3f9b-4f61-929c-6e08b9bac5bf"},"vehicle_type_id":"4","last_reported":1719940052,"current_range_meters":7600,"station_id":"ce4bhs12rcd13ifvqhvg","pricing_plan_id":"cebpf4jnsgd1na2vs0mg"},{"bike_id":"b152c35b-985b-41a0-8a5b-57b8e00e843f","system_id":"levelo_inurba_marseille","lat":43.324771,"lon":5.36557,"is_reserved":false,"is_disabled":false,"rental_uris":{"android":"levelo://app?vid=b152c35b-985b-41a0-8a5b-57b8e00e843f","ios":"levelo://app?vid=b152c35b-985b-41a0-8a5b-57b8e00e843f"},"vehicle_type_id":"4","last_reported":1719940052,"current_range_meters":30000,"station_id":"ce4bhs12rcd13ifvqhvg","pricing_plan_id":"cebpf4jnsgd1na2vs0mg"},{"bike_id":"9a143371-b349-4707-a8dc-407c0e12c325","system_id":"levelo_inurba_marseille","lat":43.32476,"lon":5.36565,"is_reserved":false,"is_disabled":false,"rental_uris":{"android":"levelo://app?vid=9a143371-b349-4707-a8dc-407c0e12c325","ios":"levelo://app?vid=9a143371-b349-4707-a8dc-407c0e12c325"},"vehicle_type_id":"4","last_reported":1719940052,"current_range_meters":4800,"station_id":"ce4bhs12rcd13ifvqhvg","pricing_plan_id":"cebpf4jnsgd1na2vs0mg"},{"bike_id":"28dae859-7940-410e-926e-93da0f96b36d","system_id":"levelo_inurba_marseille","lat":43.324771,"lon":5.36557,"is_reserved":false,"is_disabled":false,"rental_uris":{"android":"levelo://app?vid=28dae859-7940-410e-926e-93da0f96b36d","ios":"levelo://app?vid=28dae859-7940-410e-926e-93da0f96b36d"},"vehicle_type_id":"4","last_reported":1719940052,"current_range_meters":0,"station_id":"ce4bhs12rcd13ifvqhvg","pricing_plan_id":"cebpf4jnsgd1na2vs0mg"},{"bike_id":"28070617-4776-4360-a76b-763f3dd69249","system_id":"levelo_inurba_marseille","lat":43.29573,"lon":5.367355,"is_reserved":false,"is_disabled":false,"rental_uris":{"android":"levelo://app?vid=28070617-4776-4360-a76b-763f3dd69249","ios":"levelo://app?vid=28070617-4776-4360-a76b-763f3dd69249"},"vehicle_type_id":"4","last_reported":1719940052,"current_range_meters":16800,"station_id":"ce4bgph2rcd13ifvqc2g","pricing_plan_id":"cebpf4jnsgd1na2vs0mg"},{"bike_id":"26f91d66-a8f0-4d36-aba2-3845a651de0a","system_id":"levelo_inurba_marseille","lat":43.324771,"lon":5.36557,"is_reserved":false,"is_disabled":false,"rental_uris":{"android":"levelo://app?vid=26f91d66-a8f0-4d36-aba2-3845a651de0a","ios":"levelo://app?vid=26f91d66-a8f0-4d36-aba2-3845a651de0a"},"vehicle_type_id":"4","last_reported":1719940052,"current_range_meters":19200,"station_id":"ce4bhs12rcd13ifvqhvg","pricing_plan_id":"cebpf4jnsgd1na2vs0mg"},{"bike_id":"165b3d55-a98a-4394-98db-62c707f10dcc","system_id":"levelo_inurba_marseille","lat":43.324771,"lon":5.36557,"is_reserved":false,"is_disabled":false,"rental_uris":{"android":"levelo://app?vid=165b3d55-a98a-4394-98db-62c707f10dcc","ios":"levelo://app?vid=165b3d55-a98a-4394-98db-62c707f10dcc"},"vehicle_type_id":"4","last_reported":1719940052,"current_range_meters":4000,"station_id":"ce4bhs12rcd13ifvqhvg","pricing_plan_id":"cebpf4jnsgd1na2vs0mg"},{"bike_id":"36d67741-2271-45a5-919b-c7558b1f24ab","system_id":"levelo_inurba_marseille","lat":43.310804,"lon":5.38359,"is_reserved":false,"is_disabled":false,"rental_uris":{"android":"levelo://app?vid=36d67741-2271-45a5-919b-c7558b1f24ab","ios":"levelo://app?vid=36d67741-2271-45a5-919b-c7558b1f24ab"},"vehicle_type_id":"4","last_reported":1719940052,"current_range_meters":0,"station_id":"ce4bgv92rcd13ifvqcr0","pricing_plan_id":"cebpf4jnsgd1na2vs0mg"},{"bike_id":"e6e8a84b-f35b-4d5e-9bdf-fdd5266116f8","system_id":"levelo_inurba_marseille","lat":43.310804,"lon":5.38359,"is_reserved":false,"is_disabled":false,"rental_uris":{"android":"levelo://app?vid=e6e8a84b-f35b-4d5e-9bdf-fdd5266116f8","ios":"levelo://app?vid=e6e8a84b-f35b-4d5e-9bdf-fdd5266116f8"},"vehicle_type_id":"4","last_reported":1719940052,"current_range_meters":25200,"station_id":"ce4bgv92rcd13ifvqcr0","pricing_plan_id":"cebpf4jnsgd1na2vs0mg"},{"bike_id":"684133e9-8e58-4a0b-bfb7-1dd841bf5c35","system_id":"levelo_inurba_marseille","lat":43.302784,"lon":5.377158,"is_reserved":false,"is_disabled":false,"rental_uris":{"android":"levelo://app?vid=684133e9-8e58-4a0b-bfb7-1dd841bf5c35","ios":"levelo://app?vid=684133e9-8e58-4a0b-bfb7-1dd841bf5c35"},"vehicle_type_id":"4","last_reported":1719940052,"current_range_meters":22400,"station_id":"ce4bguh2rcd13ifvqcj0","pricing_plan_id":"cebpf4jnsgd1na2vs0mg"},{"bike_id":"c6577b9a-1511-4025-b774-146137f06059","system_id":"levelo_inurba_marseille","lat":43.301429,"lon":5.37413,"is_reserved":false,"is_disabled":false,"rental_uris":{"android":"levelo://app?vid=c6577b9a-1511-4025-b774-146137f06059","ios":"levelo://app?vid=c6577b9a-1511-4025-b774-146137f06059"},"vehicle_type_id":"4","last_reported":1719940052,"current_range_meters":0,"station_id":"ce4bgs92rcd13ifvqcc0","pricing_plan_id":"cebpf4jnsgd1na2vs0mg"},{"bike_id":"7f6db51f-6a36-4aac-b184-324fba8e17d8","system_id":"levelo_inurba_marseille","lat":43.30243,"lon":5.37731,"is_reserved":false,"is_disabled":false,"rental_uris":{"android":"levelo://app?vid=7f6db51f-6a36-4aac-b184-324fba8e17d8","ios":"levelo://app?vid=7f6db51f-6a36-4aac-b184-324fba8e17d8"},"vehicle_type_id":"4","last_reported":1719940052,"current_range_meters":23600,"station_id":"","pricing_plan_id":"cebpf4jnsgd1na2vs0mg"},{"bike_id":"ac3472b2-9578-4eca-970c-1a48a171e9a9","system_id":"levelo_inurba_marseille","lat":43.31997,"lon":5.3815,"is_reserved":false,"is_disabled":false,"rental_uris":{"android":"levelo://app?vid=ac3472b2-9578-4eca-970c-1a48a171e9a9","ios":"levelo://app?vid=ac3472b2-9578-4eca-970c-1a48a171e9a9"},"vehicle_type_id":"4","last_reported":1719940052,"current_range_meters":0,"station_id":"ce4bhr12rcd13ifvqhpg","pricing_plan_id":"cebpf4jnsgd1na2vs0mg"},{"bike_id":"1f14ccd8-d962-4aea-9237-e591e85935d4","system_id":"levelo_inurba_marseille","lat":43.313571,"lon":5.384829,"is_reserved":false,"is_disabled":false,"rental_uris":{"android":"levelo://app?vid=1f14ccd8-d962-4aea-9237-e591e85935d4","ios":"levelo://app?vid=1f14ccd8-d962-4aea-9237-e591e85935d4"},"vehicle_type_id":"4","last_reported":1719940052,"current_range_meters":1600,"station_id":"ce4bgt92rcd13ifvqcf0","pricing_plan_id":"cebpf4jnsgd1na2vs0mg"},{"bike_id":"8851d7a1-081d-4842-9df0-2efb59b5fc71","system_id":"levelo_inurba_marseille","lat":43.299222,"lon":5.365554,"is_reserved":false,"is_disabled":false,"rental_uris":{"android":"levelo://app?vid=8851d7a1-081d-4842-9df0-2efb59b5fc71","ios":"levelo://app?vid=8851d7a1-081d-4842-9df0-2efb59b5fc71"},"vehicle_type_id":"4","last_reported":1719940052,"current_range_meters":0,"station_id":"ce4bgm92rcd13ifvqbr0","pricing_plan_id":"cebpf4jnsgd1na2vs0mg"},{"bike_id":"8f48c6ad-49fc-406b-8c2e-89c39ddd531c","system_id":"levelo_inurba_marseille","lat":43.299222,"lon":5.365554,"is_reserved":false,"is_disabled":false,"rental_uris":{"android":"levelo://app?vid=8f48c6ad-49fc-406b-8c2e-89c39ddd531c","ios":"levelo://app?vid=8f48c6ad-49fc-406b-8c2e-89c39ddd531c"},"vehicle_type_id":"4","last_reported":1719940052,"current_range_meters":0,"station_id":"ce4bgm92rcd13ifvqbr0","pricing_plan_id":"cebpf4jnsgd1na2vs0mg"},{"bike_id":"8478d5cb-548d-425f-babb-91881411a358","system_id":"levelo_inurba_marseille","lat":43.299222,"lon":5.365554,"is_reserved":false,"is_disabled":false,"rental_uris":{"android":"levelo://app?vid=8478d5cb-548d-425f-babb-91881411a358","ios":"levelo://app?vid=8478d5cb-548d-425f-babb-91881411a358"},"vehicle_type_id":"4","last_reported":1719940052,"current_range_meters":800,"station_id":"ce4bgm92rcd13ifvqbr0","pricing_plan_id":"cebpf4jnsgd1na2vs0mg"},{"bike_id":"df6a605f-64df-4632-9c66-2e3a71595bb0","system_id":"levelo_inurba_marseille","lat":43.299724,"lon":5.371829,"is_reserved":false,"is_disabled":false,"rental_uris":{"android":"levelo://app?vid=df6a605f-64df-4632-9c66-2e3a71595bb0","ios":"levelo://app?vid=df6a605f-64df-4632-9c66-2e3a71595bb0"},"vehicle_type_id":"4","last_reported":1719940052,"current_range_meters":18800,"station_id":"ce4bgr92rcd13ifvqc7g","pricing_plan_id":"cebpf4jnsgd1na2vs0mg"},{"bike_id":"f9d658da-2f7d-41cf-afd4-8c686b134dc6","system_id":"levelo_inurba_marseille","lat":43.299724,"lon":5.371829,"is_reserved":false,"is_disabled":false,"rental_uris":{"android":"levelo://app?vid=f9d658da-2f7d-41cf-afd4-8c686b134dc6","ios":"levelo://app?vid=f9d658da-2f7d-41cf-afd4-8c686b134dc6"},"vehicle_type_id":"4","last_reported":1719940052,"current_range_meters":6800,"station_id":"ce4bgr92rcd13ifvqc7g","pricing_plan_id":"cebpf4jnsgd1na2vs0mg"},{"bike_id":"5e1bf21c-baea-465d-bb75-f298e38932b5","system_id":"levelo_inurba_marseille","lat":43.30104,"lon":5.37718,"is_reserved":false,"is_disabled":false,"rental_uris":{"android":"levelo://app?vid=5e1bf21c-baea-465d-bb75-f298e38932b5","ios":"levelo://app?vid=5e1bf21c-baea-465d-bb75-f298e38932b5"},"vehicle_type_id":"4","last_reported":1719940052,"current_range_meters":7200,"station_id":"","pricing_plan_id":"cebpf4jnsgd1na2vs0mg"},{"bike_id":"65f15396-0d4a-4aed-9093-b9d9af3376c7","system_id":"levelo_inurba_marseille","lat":43.313571,"lon":5.384829,"is_reserved":false,"is_disabled":false,"rental_uris":{"android":"levelo://app?vid=65f15396-0d4a-4aed-9093-b9d9af3376c7","ios":"levelo://app?vid=65f15396-0d4a-4aed-9093-b9d9af3376c7"},"vehicle_type_id":"4","last_reported":1719940052,"current_range_meters":20000,"station_id":"ce4bgt92rcd13ifvqcf0","pricing_plan_id":"cebpf4jnsgd1na2vs0mg"},{"bike_id":"adc4024b-3f3e-4987-b679-29e6a909a809","system_id":"levelo_inurba_marseille","lat":43.29992,"lon":5.37584,"is_reserved":false,"is_disabled":false,"rental_uris":{"android":"levelo://app?vid=adc4024b-3f3e-4987-b679-29e6a909a809","ios":"levelo://app?vid=adc4024b-3f3e-4987-b679-29e6a909a809"},"vehicle_type_id":"4","last_reported":1719940052,"current_range_meters":14800,"station_id":"","pricing_plan_id":"cebpf4jnsgd1na2vs0mg"},{"bike_id":"fa189760-f578-41a5-bb51-aeb1f7eda8df","system_id":"levelo_inurba_marseille","lat":43.305364,"lon":5.384119,"is_reserved":false,"is_disabled":false,"rental_uris":{"android":"levelo://app?vid=fa189760-f578-41a5-bb51-aeb1f7eda8df","ios":"levelo://app?vid=fa189760-f578-41a5-bb51-aeb1f7eda8df"},"vehicle_type_id":"4","last_reported":1719940052,"current_range_meters":25200,"station_id":"ce4bgg92rcd13ifvqb30","pricing_plan_id":"cebpf4jnsgd1na2vs0mg"},{"bike_id":"7af74abe-4487-4b67-b262-da19b8b5eff9","system_id":"levelo_inurba_marseille","lat":43.29848,"lon":5.36284,"is_reserved":false,"is_disabled":false,"rental_uris":{"android":"levelo://app?vid=7af74abe-4487-4b67-b262-da19b8b5eff9","ios":"levelo://app?vid=7af74abe-4487-4b67-b262-da19b8b5eff9"},"vehicle_type_id":"4","last_reported":1719940052,"current_range_meters":0,"station_id":"ce4bgpp2rcd13ifvqc3g","pricing_plan_id":"cebpf4jnsgd1na2vs0mg"},{"bike_id":"e800db87-6942-4ce8-887a-c1e77e0ab81e","system_id":"levelo_inurba_marseille","lat":43.30531,"lon":5.38418,"is_reserved":false,"is_disabled":false,"rental_uris":{"android":"levelo://app?vid=e800db87-6942-4ce8-887a-c1e77e0ab81e","ios":"levelo://app?vid=e800db87-6942-4ce8-887a-c1e77e0ab81e"},"vehicle_type_id":"4","last_reported":1719940052,"current_range_meters":20000,"station_id":"ce4bgg92rcd13ifvqb30","pricing_plan_id":"cebpf4jnsgd1na2vs0mg"},{"bike_id":"5187eb4f-e748-40fe-996c-1f14f200b576","system_id":"levelo_inurba_marseille","lat":43.298433,"lon":5.362774,"is_reserved":false,"is_disabled":false,"rental_uris":{"android":"levelo://app?vid=5187eb4f-e748-40fe-996c-1f14f200b576","ios":"levelo://app?vid=5187eb4f-e748-40fe-996c-1f14f200b576"},"vehicle_type_id":"4","last_reported":1719940052,"current_range_meters":4000,"station_id":"ce4bgpp2rcd13ifvqc3g","pricing_plan_id":"cebpf4jnsgd1na2vs0mg"},{"bike_id":"8b033c88-e885-436f-a8e8-d550fde27b1c","system_id":"levelo_inurba_marseille","lat":43.298433,"lon":5.362774,"is_reserved":false,"is_disabled":false,"rental_uris":{"android":"levelo://app?vid=8b033c88-e885-436f-a8e8-d550fde27b1c","ios":"levelo://app?vid=8b033c88-e885-436f-a8e8-d550fde27b1c"},"vehicle_type_id":"4","last_reported":1719940052,"current_range_meters":8800,"station_id":"ce4bgpp2rcd13ifvqc3g","pricing_plan_id":"cebpf4jnsgd1na2vs0mg"},{"bike_id":"ab309c99-e6a7-4fde-a295-9f4f42980ce4","system_id":"levelo_inurba_marseille","lat":43.311722,"lon":5.387247,"is_reserved":false,"is_disabled":false,"rental_uris":{"android":"levelo://app?vid=ab309c99-e6a7-4fde-a295-9f4f42980ce4","ios":"levelo://app?vid=ab309c99-e6a7-4fde-a295-9f4f42980ce4"},"vehicle_type_id":"4","last_reported":1719940052,"current_range_meters":1600,"station_id":"ce4bgv12rcd13ifvqcp0","pricing_plan_id":"cebpf4jnsgd1na2vs0mg"},{"bike_id":"d19cc2d7-a2cd-4762-8101-bdfd426f5490","system_id":"levelo_inurba_marseille","lat":43.311722,"lon":5.387247,"is_reserved":false,"is_disabled":false,"rental_uris":{"android":"levelo://app?vid=d19cc2d7-a2cd-4762-8101-bdfd426f5490","ios":"levelo://app?vid=d19cc2d7-a2cd-4762-8101-bdfd426f5490"},"vehicle_type_id":"4","last_reported":1719940052,"current_range_meters":4800,"station_id":"ce4bgv12rcd13ifvqcp0","pricing_plan_id":"cebpf4jnsgd1na2vs0mg"},{"bike_id":"94f1c8e7-c56e-4818-ba02-3dd251c816df","system_id":"levelo_inurba_marseille","lat":43.289743,"lon":5.378304,"is_reserved":false,"is_disabled":false,"rental_uris":{"android":"levelo://app?vid=94f1c8e7-c56e-4818-ba02-3dd251c816df","ios":"levelo://app?vid=94f1c8e7-c56e-4818-ba02-3dd251c816df"},"vehicle_type_id":"4","last_reported":1719940052,"current_range_meters":0,"station_id":"ce4bh9p2rcd13ifvqed0","pricing_plan_id":"cebpf4jnsgd1na2vs0mg"},{"bike_id":"cd923de3-eb9d-4350-9613-a7771ddd91eb","system_id":"levelo_inurba_marseille","lat":43.322877,"lon":5.382655,"is_reserved":false,"is_disabled":false,"rental_uris":{"android":"levelo://app?vid=cd923de3-eb9d-4350-9613-a7771ddd91eb","ios":"levelo://app?vid=cd923de3-eb9d-4350-9613-a7771ddd91eb"},"vehicle_type_id":"4","last_reported":1719940052,"current_range_meters":24400,"station_id":"ce4bhr12rcd13ifvqhqg","pricing_plan_id":"cebpf4jnsgd1na2vs0mg"},{"bike_id":"708ec8f6-5933-4656-8642-2955eb070790","system_id":"levelo_inurba_marseille","lat":43.32288,"lon":5.38271,"is_reserved":false,"is_disabled":false,"rental_uris":{"android":"levelo://app?vid=708ec8f6-5933-4656-8642-2955eb070790","ios":"levelo://app?vid=708ec8f6-5933-4656-8642-2955eb070790"},"vehicle_type_id":"4","last_reported":1719940052,"current_range_meters":14400,"station_id":"ce4bhr12rcd13ifvqhqg","pricing_plan_id":"cebpf4jnsgd1na2vs0mg"},{"bike_id":"22b1ae34-f613-4a2d-bbce-23c9c8be1d8f","system_id":"levelo_inurba_marseille","lat":43.322872,"lon":5.382756,"is_reserved":false,"is_disabled":false,"rental_uris":{"android":"levelo://app?vid=22b1ae34-f613-4a2d-bbce-23c9c8be1d8f","ios":"levelo://app?vid=22b1ae34-f613-4a2d-bbce-23c9c8be1d8f"},"vehicle_type_id":"4","last_reported":1719940052,"current_range_meters":28000,"station_id":"ce4bhr12rcd13ifvqhqg","pricing_plan_id":"cebpf4jnsgd1na2vs0mg"},{"bike_id":"acbacc07-3406-42b6-a4b4-6ba8eee52b33","system_id":"levelo_inurba_marseille","lat":43.322872,"lon":5.382756,"is_reserved":false,"is_disabled":false,"rental_uris":{"android":"levelo://app?vid=acbacc07-3406-42b6-a4b4-6ba8eee52b33","ios":"levelo://app?vid=acbacc07-3406-42b6-a4b4-6ba8eee52b33"},"vehicle_type_id":"4","last_reported":1719940052,"current_range_meters":31200,"station_id":"ce4bhr12rcd13ifvqhqg","pricing_plan_id":"cebpf4jnsgd1na2vs0mg"},{"bike_id":"ea731f8a-f311-41ff-add8-bfb6a4ee4b2d","system_id":"levelo_inurba_marseille","lat":43.322872,"lon":5.382756,"is_reserved":false,"is_disabled":false,"rental_uris":{"android":"levelo://app?vid=ea731f8a-f311-41ff-add8-bfb6a4ee4b2d","ios":"levelo://app?vid=ea731f8a-f311-41ff-add8-bfb6a4ee4b2d"},"vehicle_type_id":"4","last_reported":1719940052,"current_range_meters":30000,"station_id":"ce4bhr12rcd13ifvqhqg","pricing_plan_id":"cebpf4jnsgd1na2vs0mg"},{"bike_id":"b2e010a7-d455-4d81-8e2a-45f1afb99cfe","system_id":"levelo_inurba_marseille","lat":43.322872,"lon":5.382756,"is_reserved":false,"is_disabled":false,"rental_uris":{"android":"levelo://app?vid=b2e010a7-d455-4d81-8e2a-45f1afb99cfe","ios":"levelo://app?vid=b2e010a7-d455-4d81-8e2a-45f1afb99cfe"},"vehicle_type_id":"4","last_reported":1719940052,"current_range_meters":7200,"station_id":"ce4bhr12rcd13ifvqhqg","pricing_plan_id":"cebpf4jnsgd1na2vs0mg"},{"bike_id":"9b8adec2-2d8d-474c-bbc5-03ad96be0b08","system_id":"levelo_inurba_marseille","lat":43.32291,"lon":5.38282,"is_reserved":false,"is_disabled":false,"rental_uris":{"android":"levelo://app?vid=9b8adec2-2d8d-474c-bbc5-03ad96be0b08","ios":"levelo://app?vid=9b8adec2-2d8d-474c-bbc5-03ad96be0b08"},"vehicle_type_id":"4","last_reported":1719940052,"current_range_meters":0,"station_id":"ce4bhr12rcd13ifvqhqg","pricing_plan_id":"cebpf4jnsgd1na2vs0mg"},{"bike_id":"80a78888-9870-4b5a-92d4-45b8792108ae","system_id":"levelo_inurba_marseille","lat":43.29763,"lon":5.36257,"is_reserved":false,"is_disabled":false,"rental_uris":{"android":"levelo://app?vid=80a78888-9870-4b5a-92d4-45b8792108ae","ios":"levelo://app?vid=80a78888-9870-4b5a-92d4-45b8792108ae"},"vehicle_type_id":"4","last_reported":1719940052,"current_range_meters":8800,"station_id":"","pricing_plan_id":"cebpf4jnsgd1na2vs0mg"},{"bike_id":"8f64fcc1-7760-4ea5-8faa-6a56d9a134bf","system_id":"levelo_inurba_marseille","lat":43.297163,"lon":5.365866,"is_reserved":false,"is_disabled":false,"rental_uris":{"android":"levelo://app?vid=8f64fcc1-7760-4ea5-8faa-6a56d9a134bf","ios":"levelo://app?vid=8f64fcc1-7760-4ea5-8faa-6a56d9a134bf"},"vehicle_type_id":"4","last_reported":1719940052,"current_range_meters":3200,"station_id":"ce4bgn12rcd13ifvqbt0","pricing_plan_id":"cebpf4jnsgd1na2vs0mg"},{"bike_id":"c42e0ab6-73b7-4a7b-bba2-409c6d303ad8","system_id":"levelo_inurba_marseille","lat":43.297163,"lon":5.365866,"is_reserved":false,"is_disabled":false,"rental_uris":{"android":"levelo://app?vid=c42e0ab6-73b7-4a7b-bba2-409c6d303ad8","ios":"levelo://app?vid=c42e0ab6-73b7-4a7b-bba2-409c6d303ad8"},"vehicle_type_id":"4","last_reported":1719940052,"current_range_meters":20800,"station_id":"ce4bgn12rcd13ifvqbt0","pricing_plan_id":"cebpf4jnsgd1na2vs0mg"},{"bike_id":"2a73571f-2217-40a3-bcea-fc713069df4c","system_id":"levelo_inurba_marseille","lat":43.297163,"lon":5.365866,"is_reserved":false,"is_disabled":false,"rental_uris":{"android":"levelo://app?vid=2a73571f-2217-40a3-bcea-fc713069df4c","ios":"levelo://app?vid=2a73571f-2217-40a3-bcea-fc713069df4c"},"vehicle_type_id":"4","last_reported":1719940052,"current_range_meters":21600,"station_id":"ce4bgn12rcd13ifvqbt0","pricing_plan_id":"cebpf4jnsgd1na2vs0mg"},{"bike_id":"4ec56048-5891-4fe7-af78-cf2d77acf85a","system_id":"levelo_inurba_marseille","lat":43.297163,"lon":5.365866,"is_reserved":false,"is_disabled":false,"rental_uris":{"android":"levelo://app?vid=4ec56048-5891-4fe7-af78-cf2d77acf85a","ios":"levelo://app?vid=4ec56048-5891-4fe7-af78-cf2d77acf85a"},"vehicle_type_id":"4","last_reported":1719940052,"current_range_meters":10800,"station_id":"ce4bgn12rcd13ifvqbt0","pricing_plan_id":"cebpf4jnsgd1na2vs0mg"},{"bike_id":"5f647973-e8b8-4ca2-8b8c-edd315b34fe8","system_id":"levelo_inurba_marseille","lat":43.297163,"lon":5.365866,"is_reserved":false,"is_disabled":false,"rental_uris":{"android":"levelo://app?vid=5f647973-e8b8-4ca2-8b8c-edd315b34fe8","ios":"levelo://app?vid=5f647973-e8b8-4ca2-8b8c-edd315b34fe8"},"vehicle_type_id":"4","last_reported":1719940052,"current_range_meters":9200,"station_id":"ce4bgn12rcd13ifvqbt0","pricing_plan_id":"cebpf4jnsgd1na2vs0mg"},{"bike_id":"73d88b56-4471-41c7-ac85-93fd712318bd","system_id":"levelo_inurba_marseille","lat":43.297163,"lon":5.365866,"is_reserved":false,"is_disabled":false,"rental_uris":{"android":"levelo://app?vid=73d88b56-4471-41c7-ac85-93fd712318bd","ios":"levelo://app?vid=73d88b56-4471-41c7-ac85-93fd712318bd"},"vehicle_type_id":"4","last_reported":1719940052,"current_range_meters":17200,"station_id":"ce4bgn12rcd13ifvqbt0","pricing_plan_id":"cebpf4jnsgd1na2vs0mg"},{"bike_id":"38160a90-fdca-4773-bc29-d7b123ca0095","system_id":"levelo_inurba_marseille","lat":43.297,"lon":5.37107,"is_reserved":false,"is_disabled":false,"rental_uris":{"android":"levelo://app?vid=38160a90-fdca-4773-bc29-d7b123ca0095","ios":"levelo://app?vid=38160a90-fdca-4773-bc29-d7b123ca0095"},"vehicle_type_id":"4","last_reported":1719940052,"current_range_meters":12400,"station_id":"","pricing_plan_id":"cebpf4jnsgd1na2vs0mg"},{"bike_id":"a1a3f908-0293-4ffe-88df-d648d27ac344","system_id":"levelo_inurba_marseille","lat":43.29659,"lon":5.36238,"is_reserved":false,"is_disabled":false,"rental_uris":{"android":"levelo://app?vid=a1a3f908-0293-4ffe-88df-d648d27ac344","ios":"levelo://app?vid=a1a3f908-0293-4ffe-88df-d648d27ac344"},"vehicle_type_id":"4","last_reported":1719940052,"current_range_meters":1200,"station_id":"","pricing_plan_id":"cebpf4jnsgd1na2vs0mg"},{"bike_id":"ff758a06-2594-43c8-87a1-51718cab4853","system_id":"levelo_inurba_marseille","lat":43.2965,"lon":5.36247,"is_reserved":false,"is_disabled":false,"rental_uris":{"android":"levelo://app?vid=ff758a06-2594-43c8-87a1-51718cab4853","ios":"levelo://app?vid=ff758a06-2594-43c8-87a1-51718cab4853"},"vehicle_type_id":"4","last_reported":1719940052,"current_range_meters":0,"station_id":"","pricing_plan_id":"cebpf4jnsgd1na2vs0mg"},{"bike_id":"0c845e77-91f9-4f53-b4c0-9cd585c05b3e","system_id":"levelo_inurba_marseille","lat":43.29663,"lon":5.36162,"is_reserved":false,"is_disabled":false,"rental_uris":{"android":"levelo://app?vid=0c845e77-91f9-4f53-b4c0-9cd585c05b3e","ios":"levelo://app?vid=0c845e77-91f9-4f53-b4c0-9cd585c05b3e"},"vehicle_type_id":"4","last_reported":1719940052,"current_range_meters":7200,"station_id":"","pricing_plan_id":"cebpf4jnsgd1na2vs0mg"},{"bike_id":"5ec70aad-a49e-4323-bc49-ba8f9bde0aff","system_id":"levelo_inurba_marseille","lat":43.2962,"lon":5.37143,"is_reserved":false,"is_disabled":false,"rental_uris":{"android":"levelo://app?vid=5ec70aad-a49e-4323-bc49-ba8f9bde0aff","ios":"levelo://app?vid=5ec70aad-a49e-4323-bc49-ba8f9bde0aff"},"vehicle_type_id":"4","last_reported":1719940052,"current_range_meters":15600,"station_id":"ce4bgnh2rcd13ifvqc0g","pricing_plan_id":"cebpf4jnsgd1na2vs0mg"},{"bike_id":"ca3c2251-d2d8-4772-999a-c4ee8644d5e7","system_id":"levelo_inurba_marseille","lat":43.29573,"lon":5.367355,"is_reserved":false,"is_disabled":false,"rental_uris":{"android":"levelo://app?vid=ca3c2251-d2d8-4772-999a-c4ee8644d5e7","ios":"levelo://app?vid=ca3c2251-d2d8-4772-999a-c4ee8644d5e7"},"vehicle_type_id":"4","last_reported":1719940052,"current_range_meters":0,"station_id":"ce4bgph2rcd13ifvqc2g","pricing_plan_id":"cebpf4jnsgd1na2vs0mg"},{"bike_id":"4ad392ad-e39d-47de-8234-2e96c196792f","system_id":"levelo_inurba_marseille","lat":43.29573,"lon":5.367355,"is_reserved":false,"is_disabled":false,"rental_uris":{"android":"levelo://app?vid=4ad392ad-e39d-47de-8234-2e96c196792f","ios":"levelo://app?vid=4ad392ad-e39d-47de-8234-2e96c196792f"},"vehicle_type_id":"4","last_reported":1719940052,"current_range_meters":1200,"station_id":"ce4bgph2rcd13ifvqc2g","pricing_plan_id":"cebpf4jnsgd1na2vs0mg"},{"bike_id":"a36deebb-8fc0-43a0-8b23-959a54f915d3","system_id":"levelo_inurba_marseille","lat":43.29731,"lon":5.37693,"is_reserved":false,"is_disabled":false,"rental_uris":{"android":"levelo://app?vid=a36deebb-8fc0-43a0-8b23-959a54f915d3","ios":"levelo://app?vid=a36deebb-8fc0-43a0-8b23-959a54f915d3"},"vehicle_type_id":"4","last_reported":1719940052,"current_range_meters":16400,"station_id":"","pricing_plan_id":"cebpf4jnsgd1na2vs0mg"},{"bike_id":"8b58d822-ad9c-4e02-96c0-b2d644a0bbc3","system_id":"levelo_inurba_marseille","lat":43.296935,"lon":5.376544,"is_reserved":false,"is_disabled":false,"rental_uris":{"android":"levelo://app?vid=8b58d822-ad9c-4e02-96c0-b2d644a0bbc3","ios":"levelo://app?vid=8b58d822-ad9c-4e02-96c0-b2d644a0bbc3"},"vehicle_type_id":"4","last_reported":1719940052,"current_range_meters":0,"station_id":"ce4bgkh2rcd13ifvqbl0","pricing_plan_id":"cebpf4jnsgd1na2vs0mg"},{"bike_id":"25070d0a-4a5d-4da9-ba22-cd915749c0ad","system_id":"levelo_inurba_marseille","lat":43.299028,"lon":5.381509,"is_reserved":false,"is_disabled":false,"rental_uris":{"android":"levelo://app?vid=25070d0a-4a5d-4da9-ba22-cd915749c0ad","ios":"levelo://app?vid=25070d0a-4a5d-4da9-ba22-cd915749c0ad"},"vehicle_type_id":"4","last_reported":1719940052,"current_range_meters":28000,"station_id":"ce4bgj12rcd13ifvqbc0","pricing_plan_id":"cebpf4jnsgd1na2vs0mg"},{"bike_id":"25b005be-6aef-487e-b512-f31c3e8e42b7","system_id":"levelo_inurba_marseille","lat":43.299028,"lon":5.381509,"is_reserved":false,"is_disabled":false,"rental_uris":{"android":"levelo://app?vid=25b005be-6aef-487e-b512-f31c3e8e42b7","ios":"levelo://app?vid=25b005be-6aef-487e-b512-f31c3e8e42b7"},"vehicle_type_id":"4","last_reported":1719940052,"current_range_meters":11200,"station_id":"ce4bgj12rcd13ifvqbc0","pricing_plan_id":"cebpf4jnsgd1na2vs0mg"},{"bike_id":"f77d795e-4bf6-452f-9607-86a72cc268f8","system_id":"levelo_inurba_marseille","lat":43.299028,"lon":5.381509,"is_reserved":false,"is_disabled":false,"rental_uris":{"android":"levelo://app?vid=f77d795e-4bf6-452f-9607-86a72cc268f8","ios":"levelo://app?vid=f77d795e-4bf6-452f-9607-86a72cc268f8"},"vehicle_type_id":"4","last_reported":1719940052,"current_range_meters":17600,"station_id":"ce4bgj12rcd13ifvqbc0","pricing_plan_id":"cebpf4jnsgd1na2vs0mg"},{"bike_id":"95aca447-f6dc-4db9-90e7-bdb75e516995","system_id":"levelo_inurba_marseille","lat":43.296921,"lon":5.376579,"is_reserved":false,"is_disabled":false,"rental_uris":{"android":"levelo://app?vid=95aca447-f6dc-4db9-90e7-bdb75e516995","ios":"levelo://app?vid=95aca447-f6dc-4db9-90e7-bdb75e516995"},"vehicle_type_id":"4","last_reported":1719940052,"current_range_meters":0,"station_id":"ce4bgkh2rcd13ifvqbl0","pricing_plan_id":"cebpf4jnsgd1na2vs0mg"},{"bike_id":"a2d737c7-d737-42ea-9541-1245be0ed7d1","system_id":"levelo_inurba_marseille","lat":43.309589,"lon":5.390258,"is_reserved":false,"is_disabled":false,"rental_uris":{"android":"levelo://app?vid=a2d737c7-d737-42ea-9541-1245be0ed7d1","ios":"levelo://app?vid=a2d737c7-d737-42ea-9541-1245be0ed7d1"},"vehicle_type_id":"4","last_reported":1719940052,"current_range_meters":10000,"station_id":"ce4bgup2rcd13ifvqco0","pricing_plan_id":"cebpf4jnsgd1na2vs0mg"},{"bike_id":"03a35c8c-13f0-4d95-9eb3-1c3c8637ffb7","system_id":"levelo_inurba_marseille","lat":43.317557,"lon":5.390173,"is_reserved":false,"is_disabled":false,"rental_uris":{"android":"levelo://app?vid=03a35c8c-13f0-4d95-9eb3-1c3c8637ffb7","ios":"levelo://app?vid=03a35c8c-13f0-4d95-9eb3-1c3c8637ffb7"},"vehicle_type_id":"4","last_reported":1719940052,"current_range_meters":400,"station_id":"ce4bhqp2rcd13ifvqhng","pricing_plan_id":"cebpf4jnsgd1na2vs0mg"},{"bike_id":"807922e4-a87c-4821-88df-bddcc9ff14ca","system_id":"levelo_inurba_marseille","lat":43.317557,"lon":5.390173,"is_reserved":false,"is_disabled":false,"rental_uris":{"android":"levelo://app?vid=807922e4-a87c-4821-88df-bddcc9ff14ca","ios":"levelo://app?vid=807922e4-a87c-4821-88df-bddcc9ff14ca"},"vehicle_type_id":"4","last_reported":1719940052,"current_range_meters":24000,"station_id":"ce4bhqp2rcd13ifvqhng","pricing_plan_id":"cebpf4jnsgd1na2vs0mg"},{"bike_id":"5720c517-3372-4a86-b982-e59a5efb5762","system_id":"levelo_inurba_marseille","lat":43.31758,"lon":5.39023,"is_reserved":false,"is_disabled":false,"rental_uris":{"android":"levelo://app?vid=5720c517-3372-4a86-b982-e59a5efb5762","ios":"levelo://app?vid=5720c517-3372-4a86-b982-e59a5efb5762"},"vehicle_type_id":"4","last_reported":1719940052,"current_range_meters":0,"station_id":"ce4bhqp2rcd13ifvqhng","pricing_plan_id":"cebpf4jnsgd1na2vs0mg"},{"bike_id":"295f5103-90d6-4ed2-bd22-32fc685564cf","system_id":"levelo_inurba_marseille","lat":43.298037,"lon":5.381066,"is_reserved":false,"is_disabled":false,"rental_uris":{"android":"levelo://app?vid=295f5103-90d6-4ed2-bd22-32fc685564cf","ios":"levelo://app?vid=295f5103-90d6-4ed2-bd22-32fc685564cf"},"vehicle_type_id":"4","last_reported":1719940052,"current_range_meters":400,"station_id":"ce4bgip2rcd13ifvqbb0","pricing_plan_id":"cebpf4jnsgd1na2vs0mg"},{"bike_id":"d62953c5-9a1a-4e9a-9fa1-f9cea6aa24d7","system_id":"levelo_inurba_marseille","lat":43.298037,"lon":5.381066,"is_reserved":false,"is_disabled":false,"rental_uris":{"android":"levelo://app?vid=d62953c5-9a1a-4e9a-9fa1-f9cea6aa24d7","ios":"levelo://app?vid=d62953c5-9a1a-4e9a-9fa1-f9cea6aa24d7"},"vehicle_type_id":"4","last_reported":1719940052,"current_range_meters":6400,"station_id":"ce4bgip2rcd13ifvqbb0","pricing_plan_id":"cebpf4jnsgd1na2vs0mg"},{"bike_id":"0a89ea71-2372-41b3-a1af-32346554c21d","system_id":"levelo_inurba_marseille","lat":43.304274,"lon":5.388873,"is_reserved":false,"is_disabled":false,"rental_uris":{"android":"levelo://app?vid=0a89ea71-2372-41b3-a1af-32346554c21d","ios":"levelo://app?vid=0a89ea71-2372-41b3-a1af-32346554c21d"},"vehicle_type_id":"4","last_reported":1719940052,"current_range_meters":0,"station_id":"ce4bgk12rcd13ifvqbi0","pricing_plan_id":"cebpf4jnsgd1na2vs0mg"},{"bike_id":"ad71bddf-ab22-4aeb-91ee-9bc2f1a9179b","system_id":"levelo_inurba_marseille","lat":43.298037,"lon":5.381066,"is_reserved":false,"is_disabled":false,"rental_uris":{"android":"levelo://app?vid=ad71bddf-ab22-4aeb-91ee-9bc2f1a9179b","ios":"levelo://app?vid=ad71bddf-ab22-4aeb-91ee-9bc2f1a9179b"},"vehicle_type_id":"4","last_reported":1719940052,"current_range_meters":0,"station_id":"ce4bgip2rcd13ifvqbb0","pricing_plan_id":"cebpf4jnsgd1na2vs0mg"},{"bike_id":"e9f79470-b107-4840-b86a-cbe4fe1a63ce","system_id":"levelo_inurba_marseille","lat":43.304274,"lon":5.388873,"is_reserved":false,"is_disabled":false,"rental_uris":{"android":"levelo://app?vid=e9f79470-b107-4840-b86a-cbe4fe1a63ce","ios":"levelo://app?vid=e9f79470-b107-4840-b86a-cbe4fe1a63ce"},"vehicle_type_id":"4","last_reported":1719940052,"current_range_meters":18400,"station_id":"ce4bgk12rcd13ifvqbi0","pricing_plan_id":"cebpf4jnsgd1na2vs0mg"},{"bike_id":"581554ca-036c-4fab-87dc-434a7b684d97","system_id":"levelo_inurba_marseille","lat":43.299707,"lon":5.384859,"is_reserved":false,"is_disabled":false,"rental_uris":{"android":"levelo://app?vid=581554ca-036c-4fab-87dc-434a7b684d97","ios":"levelo://app?vid=581554ca-036c-4fab-87dc-434a7b684d97"},"vehicle_type_id":"4","last_reported":1719940052,"current_range_meters":3200,"station_id":"ce4bgj92rcd13ifvqbd0","pricing_plan_id":"cebpf4jnsgd1na2vs0mg"},{"bike_id":"c33cc835-9a27-4437-802f-fc6f239fa580","system_id":"levelo_inurba_marseille","lat":43.299724,"lon":5.384848,"is_reserved":false,"is_disabled":false,"rental_uris":{"android":"levelo://app?vid=c33cc835-9a27-4437-802f-fc6f239fa580","ios":"levelo://app?vid=c33cc835-9a27-4437-802f-fc6f239fa580"},"vehicle_type_id":"4","last_reported":1719940052,"current_range_meters":2000,"station_id":"ce4bgj92rcd13ifvqbd0","pricing_plan_id":"cebpf4jnsgd1na2vs0mg"},{"bike_id":"85091878-b4e5-4b08-850d-675d02457ee7","system_id":"levelo_inurba_marseille","lat":43.29523,"lon":5.37509,"is_reserved":false,"is_disabled":false,"rental_uris":{"android":"levelo://app?vid=85091878-b4e5-4b08-850d-675d02457ee7","ios":"levelo://app?vid=85091878-b4e5-4b08-850d-675d02457ee7"},"vehicle_type_id":"4","last_reported":1719940052,"current_range_meters":4400,"station_id":"ce4bgkp2rcd13ifvqbmg","pricing_plan_id":"cebpf4jnsgd1na2vs0mg"},{"bike_id":"c2cbc15d-dbc6-4cb3-8e42-4a7d7e1d14a7","system_id":"levelo_inurba_marseille","lat":43.295279,"lon":5.375048,"is_reserved":false,"is_disabled":false,"rental_uris":{"android":"levelo://app?vid=c2cbc15d-dbc6-4cb3-8e42-4a7d7e1d14a7","ios":"levelo://app?vid=c2cbc15d-dbc6-4cb3-8e42-4a7d7e1d14a7"},"vehicle_type_id":"4","last_reported":1719940052,"current_range_meters":25200,"station_id":"ce4bgkp2rcd13ifvqbmg","pricing_plan_id":"cebpf4jnsgd1na2vs0mg"},{"bike_id":"109adb53-07d4-4216-850c-23d4c0665fdc","system_id":"levelo_inurba_marseille","lat":43.309589,"lon":5.390258,"is_reserved":false,"is_disabled":false,"rental_uris":{"android":"levelo://app?vid=109adb53-07d4-4216-850c-23d4c0665fdc","ios":"levelo://app?vid=109adb53-07d4-4216-850c-23d4c0665fdc"},"vehicle_type_id":"4","last_reported":1719940052,"current_range_meters":25200,"station_id":"ce4bgup2rcd13ifvqco0","pricing_plan_id":"cebpf4jnsgd1na2vs0mg"},{"bike_id":"637347a8-74ce-456e-8240-7386ef9aff57","system_id":"levelo_inurba_marseille","lat":43.32367,"lon":5.388836,"is_reserved":false,"is_disabled":false,"rental_uris":{"android":"levelo://app?vid=637347a8-74ce-456e-8240-7386ef9aff57","ios":"levelo://app?vid=637347a8-74ce-456e-8240-7386ef9aff57"},"vehicle_type_id":"4","last_reported":1719940052,"current_range_meters":2400,"station_id":"ce4bhqp2rcd13ifvqhog","pricing_plan_id":"cebpf4jnsgd1na2vs0mg"},{"bike_id":"bf2bd46d-aba5-4b3e-a18c-d6a31c78c314","system_id":"levelo_inurba_marseille","lat":43.32367,"lon":5.388836,"is_reserved":false,"is_disabled":false,"rental_uris":{"android":"levelo://app?vid=bf2bd46d-aba5-4b3e-a18c-d6a31c78c314","ios":"levelo://app?vid=bf2bd46d-aba5-4b3e-a18c-d6a31c78c314"},"vehicle_type_id":"4","last_reported":1719940052,"current_range_meters":24000,"station_id":"ce4bhqp2rcd13ifvqhog","pricing_plan_id":"cebpf4jnsgd1na2vs0mg"},{"bike_id":"5f4fef3e-355a-4f30-8998-f51fab722b87","system_id":"levelo_inurba_marseille","lat":43.32367,"lon":5.388836,"is_reserved":false,"is_disabled":false,"rental_uris":{"android":"levelo://app?vid=5f4fef3e-355a-4f30-8998-f51fab722b87","ios":"levelo://app?vid=5f4fef3e-355a-4f30-8998-f51fab722b87"},"vehicle_type_id":"4","last_reported":1719940052,"current_range_meters":0,"station_id":"ce4bhqp2rcd13ifvqhog","pricing_plan_id":"cebpf4jnsgd1na2vs0mg"},{"bike_id":"20f4654b-e6e8-4f1d-828e-8bfe4619e1ed","system_id":"levelo_inurba_marseille","lat":43.32367,"lon":5.388836,"is_reserved":false,"is_disabled":false,"rental_uris":{"android":"levelo://app?vid=20f4654b-e6e8-4f1d-828e-8bfe4619e1ed","ios":"levelo://app?vid=20f4654b-e6e8-4f1d-828e-8bfe4619e1ed"},"vehicle_type_id":"4","last_reported":1719940052,"current_range_meters":11600,"station_id":"ce4bhqp2rcd13ifvqhog","pricing_plan_id":"cebpf4jnsgd1na2vs0mg"},{"bike_id":"12293b0c-593c-4c6e-b798-45aa0ff07e35","system_id":"levelo_inurba_marseille","lat":43.32367,"lon":5.388836,"is_reserved":false,"is_disabled":false,"rental_uris":{"android":"levelo://app?vid=12293b0c-593c-4c6e-b798-45aa0ff07e35","ios":"levelo://app?vid=12293b0c-593c-4c6e-b798-45aa0ff07e35"},"vehicle_type_id":"4","last_reported":1719940052,"current_range_meters":4000,"station_id":"ce4bhqp2rcd13ifvqhog","pricing_plan_id":"cebpf4jnsgd1na2vs0mg"},{"bike_id":"16682002-02b8-43d1-8548-e81bb4ff3167","system_id":"levelo_inurba_marseille","lat":43.32367,"lon":5.388836,"is_reserved":false,"is_disabled":false,"rental_uris":{"android":"levelo://app?vid=16682002-02b8-43d1-8548-e81bb4ff3167","ios":"levelo://app?vid=16682002-02b8-43d1-8548-e81bb4ff3167"},"vehicle_type_id":"4","last_reported":1719940052,"current_range_meters":11200,"station_id":"ce4bhqp2rcd13ifvqhog","pricing_plan_id":"cebpf4jnsgd1na2vs0mg"},{"bike_id":"a7e1aa39-7ba5-4d31-857a-ef46a76fb3d7","system_id":"levelo_inurba_marseille","lat":43.32367,"lon":5.388836,"is_reserved":false,"is_disabled":false,"rental_uris":{"android":"levelo://app?vid=a7e1aa39-7ba5-4d31-857a-ef46a76fb3d7","ios":"levelo://app?vid=a7e1aa39-7ba5-4d31-857a-ef46a76fb3d7"},"vehicle_type_id":"4","last_reported":1719940052,"current_range_meters":4000,"station_id":"ce4bhqp2rcd13ifvqhog","pricing_plan_id":"cebpf4jnsgd1na2vs0mg"},{"bike_id":"c923f19e-288c-4c01-97e3-a774dc39a63c","system_id":"levelo_inurba_marseille","lat":43.295959,"lon":5.380927,"is_reserved":false,"is_disabled":false,"rental_uris":{"android":"levelo://app?vid=c923f19e-288c-4c01-97e3-a774dc39a63c","ios":"levelo://app?vid=c923f19e-288c-4c01-97e3-a774dc39a63c"},"vehicle_type_id":"4","last_reported":1719940052,"current_range_meters":0,"station_id":"ce4bgl12rcd13ifvqbo0","pricing_plan_id":"cebpf4jnsgd1na2vs0mg"},{"bike_id":"27bfb8bb-883e-4cfa-9b5e-0312dcd2fe2a","system_id":"levelo_inurba_marseille","lat":43.29602,"lon":5.381084,"is_reserved":false,"is_disabled":false,"rental_uris":{"android":"levelo://app?vid=27bfb8bb-883e-4cfa-9b5e-0312dcd2fe2a","ios":"levelo://app?vid=27bfb8bb-883e-4cfa-9b5e-0312dcd2fe2a"},"vehicle_type_id":"4","last_reported":1719940052,"current_range_meters":400,"station_id":"ce4bgl12rcd13ifvqbo0","pricing_plan_id":"cebpf4jnsgd1na2vs0mg"},{"bike_id":"8397db02-4989-48c4-83d1-cace6f325461","system_id":"levelo_inurba_marseille","lat":43.293249,"lon":5.371578,"is_reserved":false,"is_disabled":false,"rental_uris":{"android":"levelo://app?vid=8397db02-4989-48c4-83d1-cace6f325461","ios":"levelo://app?vid=8397db02-4989-48c4-83d1-cace6f325461"},"vehicle_type_id":"4","last_reported":1719940052,"current_range_meters":12800,"station_id":"ce4bgh92rcd13ifvqb40","pricing_plan_id":"cebpf4jnsgd1na2vs0mg"},{"bike_id":"27e19827-6f9e-49dd-9e9b-3ae2feb5e3d3","system_id":"levelo_inurba_marseille","lat":43.292749,"lon":5.368402,"is_reserved":false,"is_disabled":false,"rental_uris":{"android":"levelo://app?vid=27e19827-6f9e-49dd-9e9b-3ae2feb5e3d3","ios":"levelo://app?vid=27e19827-6f9e-49dd-9e9b-3ae2feb5e3d3"},"vehicle_type_id":"4","last_reported":1719940052,"current_range_meters":25600,"station_id":"ce4bhbp2rcd13ifvqesg","pricing_plan_id":"cebpf4jnsgd1na2vs0mg"},{"bike_id":"f807c973-414b-48c9-bdfc-395b77f4544b","system_id":"levelo_inurba_marseille","lat":43.303002,"lon":5.392142,"is_reserved":false,"is_disabled":false,"rental_uris":{"android":"levelo://app?vid=f807c973-414b-48c9-bdfc-395b77f4544b","ios":"levelo://app?vid=f807c973-414b-48c9-bdfc-395b77f4544b"},"vehicle_type_id":"4","last_reported":1719940052,"current_range_meters":12800,"station_id":"ce4bgkh2rcd13ifvqbk0","pricing_plan_id":"cebpf4jnsgd1na2vs0mg"},{"bike_id":"1598361b-561a-4f31-aabf-f7692bb9e7f6","system_id":"levelo_inurba_marseille","lat":43.30597,"lon":5.39343,"is_reserved":false,"is_disabled":false,"rental_uris":{"android":"levelo://app?vid=1598361b-561a-4f31-aabf-f7692bb9e7f6","ios":"levelo://app?vid=1598361b-561a-4f31-aabf-f7692bb9e7f6"},"vehicle_type_id":"4","last_reported":1719940052,"current_range_meters":0,"station_id":"ce4bh0p2rcd13ifvqd80","pricing_plan_id":"cebpf4jnsgd1na2vs0mg"},{"bike_id":"a19b2dcd-f4e3-4b66-8471-882cb2c83129","system_id":"levelo_inurba_marseille","lat":43.30584,"lon":5.39351,"is_reserved":false,"is_disabled":false,"rental_uris":{"android":"levelo://app?vid=a19b2dcd-f4e3-4b66-8471-882cb2c83129","ios":"levelo://app?vid=a19b2dcd-f4e3-4b66-8471-882cb2c83129"},"vehicle_type_id":"4","last_reported":1719940052,"current_range_meters":0,"station_id":"ce4bh0p2rcd13ifvqd80","pricing_plan_id":"cebpf4jnsgd1na2vs0mg"},{"bike_id":"3a89c59d-d6bb-4096-8ff5-fc1b26d51212","system_id":"levelo_inurba_marseille","lat":43.30597,"lon":5.39359,"is_reserved":false,"is_disabled":false,"rental_uris":{"android":"levelo://app?vid=3a89c59d-d6bb-4096-8ff5-fc1b26d51212","ios":"levelo://app?vid=3a89c59d-d6bb-4096-8ff5-fc1b26d51212"},"vehicle_type_id":"4","last_reported":1719940052,"current_range_meters":0,"station_id":"ce4bh0p2rcd13ifvqd80","pricing_plan_id":"cebpf4jnsgd1na2vs0mg"},{"bike_id":"b78ad309-ede2-4fba-b6df-03ccc5181fd3","system_id":"levelo_inurba_marseille","lat":43.305994,"lon":5.393687,"is_reserved":false,"is_disabled":false,"rental_uris":{"android":"levelo://app?vid=b78ad309-ede2-4fba-b6df-03ccc5181fd3","ios":"levelo://app?vid=b78ad309-ede2-4fba-b6df-03ccc5181fd3"},"vehicle_type_id":"4","last_reported":1719940052,"current_range_meters":0,"station_id":"ce4bh0p2rcd13ifvqd80","pricing_plan_id":"cebpf4jnsgd1na2vs0mg"},{"bike_id":"aef41e08-4bf3-4e37-b64f-606d0c82316d","system_id":"levelo_inurba_marseille","lat":43.30586,"lon":5.39358,"is_reserved":false,"is_disabled":false,"rental_uris":{"android":"levelo://app?vid=aef41e08-4bf3-4e37-b64f-606d0c82316d","ios":"levelo://app?vid=aef41e08-4bf3-4e37-b64f-606d0c82316d"},"vehicle_type_id":"4","last_reported":1719940052,"current_range_meters":11600,"station_id":"ce4bh0p2rcd13ifvqd80","pricing_plan_id":"cebpf4jnsgd1na2vs0mg"},{"bike_id":"cf9117c9-4185-4fa3-b398-af5a750cd2f0","system_id":"levelo_inurba_marseille","lat":43.293009,"lon":5.374584,"is_reserved":false,"is_disabled":false,"rental_uris":{"android":"levelo://app?vid=cf9117c9-4185-4fa3-b398-af5a750cd2f0","ios":"levelo://app?vid=cf9117c9-4185-4fa3-b398-af5a750cd2f0"},"vehicle_type_id":"4","last_reported":1719940052,"current_range_meters":4800,"station_id":"ce4bgi12rcd13ifvqb70","pricing_plan_id":"cebpf4jnsgd1na2vs0mg"},{"bike_id":"71a095b8-ac6c-4077-8664-c44c214722e0","system_id":"levelo_inurba_marseille","lat":43.293009,"lon":5.374584,"is_reserved":false,"is_disabled":false,"rental_uris":{"android":"levelo://app?vid=71a095b8-ac6c-4077-8664-c44c214722e0","ios":"levelo://app?vid=71a095b8-ac6c-4077-8664-c44c214722e0"},"vehicle_type_id":"4","last_reported":1719940052,"current_range_meters":30800,"station_id":"ce4bgi12rcd13ifvqb70","pricing_plan_id":"cebpf4jnsgd1na2vs0mg"},{"bike_id":"387bae44-88b3-45fc-aacb-f37aa2e22a5b","system_id":"levelo_inurba_marseille","lat":43.30303,"lon":5.39213,"is_reserved":false,"is_disabled":false,"rental_uris":{"android":"levelo://app?vid=387bae44-88b3-45fc-aacb-f37aa2e22a5b","ios":"levelo://app?vid=387bae44-88b3-45fc-aacb-f37aa2e22a5b"},"vehicle_type_id":"4","last_reported":1719940052,"current_range_meters":0,"station_id":"ce4bgkh2rcd13ifvqbk0","pricing_plan_id":"cebpf4jnsgd1na2vs0mg"},{"bike_id":"e9170646-76eb-4d1a-8bcd-3418eb911d6f","system_id":"levelo_inurba_marseille","lat":43.302992,"lon":5.392136,"is_reserved":false,"is_disabled":false,"rental_uris":{"android":"levelo://app?vid=e9170646-76eb-4d1a-8bcd-3418eb911d6f","ios":"levelo://app?vid=e9170646-76eb-4d1a-8bcd-3418eb911d6f"},"vehicle_type_id":"4","last_reported":1719940052,"current_range_meters":6000,"station_id":"ce4bgkh2rcd13ifvqbk0","pricing_plan_id":"cebpf4jnsgd1na2vs0mg"},{"bike_id":"9853487a-460e-42dc-be88-7583a751feb2","system_id":"levelo_inurba_marseille","lat":43.30297,"lon":5.39214,"is_reserved":false,"is_disabled":false,"rental_uris":{"android":"levelo://app?vid=9853487a-460e-42dc-be88-7583a751feb2","ios":"levelo://app?vid=9853487a-460e-42dc-be88-7583a751feb2"},"vehicle_type_id":"4","last_reported":1719940052,"current_range_meters":0,"station_id":"ce4bgkh2rcd13ifvqbk0","pricing_plan_id":"cebpf4jnsgd1na2vs0mg"},{"bike_id":"c1b92d04-dbc8-4f53-856f-0b3a9d0e4dc9","system_id":"levelo_inurba_marseille","lat":43.30292,"lon":5.39214,"is_reserved":false,"is_disabled":false,"rental_uris":{"android":"levelo://app?vid=c1b92d04-dbc8-4f53-856f-0b3a9d0e4dc9","ios":"levelo://app?vid=c1b92d04-dbc8-4f53-856f-0b3a9d0e4dc9"},"vehicle_type_id":"4","last_reported":1719940052,"current_range_meters":0,"station_id":"ce4bgkh2rcd13ifvqbk0","pricing_plan_id":"cebpf4jnsgd1na2vs0mg"},{"bike_id":"502e5b5c-b445-48fe-96ae-947bf0c1788b","system_id":"levelo_inurba_marseille","lat":43.2936,"lon":5.37835,"is_reserved":false,"is_disabled":false,"rental_uris":{"android":"levelo://app?vid=502e5b5c-b445-48fe-96ae-947bf0c1788b","ios":"levelo://app?vid=502e5b5c-b445-48fe-96ae-947bf0c1788b"},"vehicle_type_id":"4","last_reported":1719940052,"current_range_meters":3600,"station_id":"ce4bgjh2rcd13ifvqbf0","pricing_plan_id":"cebpf4jnsgd1na2vs0mg"},{"bike_id":"61b3693c-12ec-418d-b304-b90920a0206c","system_id":"levelo_inurba_marseille","lat":43.30085,"lon":5.390856,"is_reserved":false,"is_disabled":false,"rental_uris":{"android":"levelo://app?vid=61b3693c-12ec-418d-b304-b90920a0206c","ios":"levelo://app?vid=61b3693c-12ec-418d-b304-b90920a0206c"},"vehicle_type_id":"4","last_reported":1719940052,"current_range_meters":6400,"station_id":"ce4bh192rcd13ifvqdb0","pricing_plan_id":"cebpf4jnsgd1na2vs0mg"},{"bike_id":"46b0fa2c-2102-4472-9b94-b825a1e1f3e8","system_id":"levelo_inurba_marseille","lat":43.292311,"lon":5.360731,"is_reserved":false,"is_disabled":false,"rental_uris":{"android":"levelo://app?vid=46b0fa2c-2102-4472-9b94-b825a1e1f3e8","ios":"levelo://app?vid=46b0fa2c-2102-4472-9b94-b825a1e1f3e8"},"vehicle_type_id":"4","last_reported":1719940052,"current_range_meters":13600,"station_id":"ce4bhbh2rcd13ifvqeqg","pricing_plan_id":"cebpf4jnsgd1na2vs0mg"},{"bike_id":"127fd988-b541-4610-8d66-cf242fada00a","system_id":"levelo_inurba_marseille","lat":43.3009,"lon":5.39094,"is_reserved":false,"is_disabled":false,"rental_uris":{"android":"levelo://app?vid=127fd988-b541-4610-8d66-cf242fada00a","ios":"levelo://app?vid=127fd988-b541-4610-8d66-cf242fada00a"},"vehicle_type_id":"4","last_reported":1719940052,"current_range_meters":0,"station_id":"ce4bh192rcd13ifvqdb0","pricing_plan_id":"cebpf4jnsgd1na2vs0mg"},{"bike_id":"c045ba2a-4a15-48e1-8c91-6b869b760d1f","system_id":"levelo_inurba_marseille","lat":43.2989,"lon":5.38911,"is_reserved":false,"is_disabled":false,"rental_uris":{"android":"levelo://app?vid=c045ba2a-4a15-48e1-8c91-6b869b760d1f","ios":"levelo://app?vid=c045ba2a-4a15-48e1-8c91-6b869b760d1f"},"vehicle_type_id":"4","last_reported":1719940052,"current_range_meters":1200,"station_id":"ce4bh392rcd13ifvqdl0","pricing_plan_id":"cebpf4jnsgd1na2vs0mg"},{"bike_id":"000a47e7-2792-48e1-bbcc-b42baabfb7e1","system_id":"levelo_inurba_marseille","lat":43.29882,"lon":5.38904,"is_reserved":false,"is_disabled":false,"rental_uris":{"android":"levelo://app?vid=000a47e7-2792-48e1-bbcc-b42baabfb7e1","ios":"levelo://app?vid=000a47e7-2792-48e1-bbcc-b42baabfb7e1"},"vehicle_type_id":"4","last_reported":1719940052,"current_range_meters":28000,"station_id":"ce4bh392rcd13ifvqdl0","pricing_plan_id":"cebpf4jnsgd1na2vs0mg"},{"bike_id":"30837bf6-b928-471f-b632-b11a1085e2a4","system_id":"levelo_inurba_marseille","lat":43.293009,"lon":5.374584,"is_reserved":false,"is_disabled":false,"rental_uris":{"android":"levelo://app?vid=30837bf6-b928-471f-b632-b11a1085e2a4","ios":"levelo://app?vid=30837bf6-b928-471f-b632-b11a1085e2a4"},"vehicle_type_id":"4","last_reported":1719940052,"current_range_meters":13600,"station_id":"ce4bgi12rcd13ifvqb70","pricing_plan_id":"cebpf4jnsgd1na2vs0mg"},{"bike_id":"a6e06ca1-4ae0-4db3-8ffa-03ef58170e4e","system_id":"levelo_inurba_marseille","lat":43.29864,"lon":5.38914,"is_reserved":false,"is_disabled":false,"rental_uris":{"android":"levelo://app?vid=a6e06ca1-4ae0-4db3-8ffa-03ef58170e4e","ios":"levelo://app?vid=a6e06ca1-4ae0-4db3-8ffa-03ef58170e4e"},"vehicle_type_id":"4","last_reported":1719940052,"current_range_meters":0,"station_id":"ce4bh392rcd13ifvqdl0","pricing_plan_id":"cebpf4jnsgd1na2vs0mg"},{"bike_id":"a228fd8d-cde1-4d53-8d1c-f42744d88d7a","system_id":"levelo_inurba_marseille","lat":43.292005,"lon":5.357875,"is_reserved":false,"is_disabled":false,"rental_uris":{"android":"levelo://app?vid=a228fd8d-cde1-4d53-8d1c-f42744d88d7a","ios":"levelo://app?vid=a228fd8d-cde1-4d53-8d1c-f42744d88d7a"},"vehicle_type_id":"4","last_reported":1719940052,"current_range_meters":6400,"station_id":"ce4bhb12rcd13ifvqel0","pricing_plan_id":"cebpf4jnsgd1na2vs0mg"},{"bike_id":"deeeb4e9-078c-4370-90be-b8ba832712a3","system_id":"levelo_inurba_marseille","lat":43.309038,"lon":5.396546,"is_reserved":false,"is_disabled":false,"rental_uris":{"android":"levelo://app?vid=deeeb4e9-078c-4370-90be-b8ba832712a3","ios":"levelo://app?vid=deeeb4e9-078c-4370-90be-b8ba832712a3"},"vehicle_type_id":"4","last_reported":1719940052,"current_range_meters":0,"station_id":"ce4bh012rcd13ifvqcv0","pricing_plan_id":"cebpf4jnsgd1na2vs0mg"},{"bike_id":"19bef516-d70b-4fac-b64c-e03e7c48e331","system_id":"levelo_inurba_marseille","lat":43.292005,"lon":5.357875,"is_reserved":false,"is_disabled":false,"rental_uris":{"android":"levelo://app?vid=19bef516-d70b-4fac-b64c-e03e7c48e331","ios":"levelo://app?vid=19bef516-d70b-4fac-b64c-e03e7c48e331"},"vehicle_type_id":"4","last_reported":1719940052,"current_range_meters":12000,"station_id":"ce4bhb12rcd13ifvqel0","pricing_plan_id":"cebpf4jnsgd1na2vs0mg"},{"bike_id":"e3daef0c-f255-4b71-bb9b-65ff7978425a","system_id":"levelo_inurba_marseille","lat":43.313291,"lon":5.396838,"is_reserved":false,"is_disabled":false,"rental_uris":{"android":"levelo://app?vid=e3daef0c-f255-4b71-bb9b-65ff7978425a","ios":"levelo://app?vid=e3daef0c-f255-4b71-bb9b-65ff7978425a"},"vehicle_type_id":"4","last_reported":1719940052,"current_range_meters":22000,"station_id":"ce4bgvp2rcd13ifvqcu0","pricing_plan_id":"cebpf4jnsgd1na2vs0mg"},{"bike_id":"e7183d59-6519-414a-8c5b-cb69034d617c","system_id":"levelo_inurba_marseille","lat":43.30882,"lon":5.39663,"is_reserved":false,"is_disabled":false,"rental_uris":{"android":"levelo://app?vid=e7183d59-6519-414a-8c5b-cb69034d617c","ios":"levelo://app?vid=e7183d59-6519-414a-8c5b-cb69034d617c"},"vehicle_type_id":"4","last_reported":1719940052,"current_range_meters":14000,"station_id":"ce4bh012rcd13ifvqcv0","pricing_plan_id":"cebpf4jnsgd1na2vs0mg"},{"bike_id":"b1a1ea67-9613-4a9c-8ca7-328bf8eac4e9","system_id":"levelo_inurba_marseille","lat":43.29533,"lon":5.3854,"is_reserved":false,"is_disabled":false,"rental_uris":{"android":"levelo://app?vid=b1a1ea67-9613-4a9c-8ca7-328bf8eac4e9","ios":"levelo://app?vid=b1a1ea67-9613-4a9c-8ca7-328bf8eac4e9"},"vehicle_type_id":"4","last_reported":1719940052,"current_range_meters":10000,"station_id":"ce4bgih2rcd13ifvqba0","pricing_plan_id":"cebpf4jnsgd1na2vs0mg"},{"bike_id":"b25bc38f-d96b-4c2f-94ac-8bfc4278c1ea","system_id":"levelo_inurba_marseille","lat":43.29529,"lon":5.385581,"is_reserved":false,"is_disabled":false,"rental_uris":{"android":"levelo://app?vid=b25bc38f-d96b-4c2f-94ac-8bfc4278c1ea","ios":"levelo://app?vid=b25bc38f-d96b-4c2f-94ac-8bfc4278c1ea"},"vehicle_type_id":"4","last_reported":1719940052,"current_range_meters":31200,"station_id":"ce4bgih2rcd13ifvqba0","pricing_plan_id":"cebpf4jnsgd1na2vs0mg"},{"bike_id":"805c8d1f-857e-4a5c-96ca-1bc3e17f0584","system_id":"levelo_inurba_marseille","lat":43.29529,"lon":5.385581,"is_reserved":false,"is_disabled":false,"rental_uris":{"android":"levelo://app?vid=805c8d1f-857e-4a5c-96ca-1bc3e17f0584","ios":"levelo://app?vid=805c8d1f-857e-4a5c-96ca-1bc3e17f0584"},"vehicle_type_id":"4","last_reported":1719940052,"current_range_meters":0,"station_id":"ce4bgih2rcd13ifvqba0","pricing_plan_id":"cebpf4jnsgd1na2vs0mg"},{"bike_id":"70173d98-9375-4751-932a-d41d8de66d13","system_id":"levelo_inurba_marseille","lat":43.29529,"lon":5.385581,"is_reserved":false,"is_disabled":false,"rental_uris":{"android":"levelo://app?vid=70173d98-9375-4751-932a-d41d8de66d13","ios":"levelo://app?vid=70173d98-9375-4751-932a-d41d8de66d13"},"vehicle_type_id":"4","last_reported":1719940052,"current_range_meters":6800,"station_id":"ce4bgih2rcd13ifvqba0","pricing_plan_id":"cebpf4jnsgd1na2vs0mg"},{"bike_id":"a4cb5e9e-1cf2-4212-926b-6b349a426adc","system_id":"levelo_inurba_marseille","lat":43.29528,"lon":5.38549,"is_reserved":false,"is_disabled":false,"rental_uris":{"android":"levelo://app?vid=a4cb5e9e-1cf2-4212-926b-6b349a426adc","ios":"levelo://app?vid=a4cb5e9e-1cf2-4212-926b-6b349a426adc"},"vehicle_type_id":"4","last_reported":1719940052,"current_range_meters":29200,"station_id":"ce4bgih2rcd13ifvqba0","pricing_plan_id":"cebpf4jnsgd1na2vs0mg"},{"bike_id":"7018f367-6d0c-4d13-aae2-6ade3e5394d5","system_id":"levelo_inurba_marseille","lat":43.290779,"lon":5.371482,"is_reserved":false,"is_disabled":false,"rental_uris":{"android":"levelo://app?vid=7018f367-6d0c-4d13-aae2-6ade3e5394d5","ios":"levelo://app?vid=7018f367-6d0c-4d13-aae2-6ade3e5394d5"},"vehicle_type_id":"4","last_reported":1719940052,"current_range_meters":0,"station_id":"ce4bh5p2rcd13ifvqe4g","pricing_plan_id":"cebpf4jnsgd1na2vs0mg"},{"bike_id":"ffa660ee-2786-4d6d-9dd7-5412a8f346c5","system_id":"levelo_inurba_marseille","lat":43.29064,"lon":5.37166,"is_reserved":false,"is_disabled":false,"rental_uris":{"android":"levelo://app?vid=ffa660ee-2786-4d6d-9dd7-5412a8f346c5","ios":"levelo://app?vid=ffa660ee-2786-4d6d-9dd7-5412a8f346c5"},"vehicle_type_id":"4","last_reported":1719940052,"current_range_meters":30400,"station_id":"ce4bh5p2rcd13ifvqe4g","pricing_plan_id":"cebpf4jnsgd1na2vs0mg"},{"bike_id":"a9eeb22a-e802-4556-8901-dc59d1e63e77","system_id":"levelo_inurba_marseille","lat":43.290779,"lon":5.371482,"is_reserved":false,"is_disabled":false,"rental_uris":{"android":"levelo://app?vid=a9eeb22a-e802-4556-8901-dc59d1e63e77","ios":"levelo://app?vid=a9eeb22a-e802-4556-8901-dc59d1e63e77"},"vehicle_type_id":"4","last_reported":1719940052,"current_range_meters":19600,"station_id":"ce4bh5p2rcd13ifvqe4g","pricing_plan_id":"cebpf4jnsgd1na2vs0mg"},{"bike_id":"3d566dfb-f049-4131-916c-ec2372a26c02","system_id":"levelo_inurba_marseille","lat":43.302008,"lon":5.394694,"is_reserved":false,"is_disabled":false,"rental_uris":{"android":"levelo://app?vid=3d566dfb-f049-4131-916c-ec2372a26c02","ios":"levelo://app?vid=3d566dfb-f049-4131-916c-ec2372a26c02"},"vehicle_type_id":"4","last_reported":1719940052,"current_range_meters":17600,"station_id":"ce4bh0p2rcd13ifvqd70","pricing_plan_id":"cebpf4jnsgd1na2vs0mg"},{"bike_id":"d8677a3d-f767-46e3-9034-9e4bc0c5a315","system_id":"levelo_inurba_marseille","lat":43.302008,"lon":5.394694,"is_reserved":false,"is_disabled":false,"rental_uris":{"android":"levelo://app?vid=d8677a3d-f767-46e3-9034-9e4bc0c5a315","ios":"levelo://app?vid=d8677a3d-f767-46e3-9034-9e4bc0c5a315"},"vehicle_type_id":"4","last_reported":1719940052,"current_range_meters":19600,"station_id":"ce4bh0p2rcd13ifvqd70","pricing_plan_id":"cebpf4jnsgd1na2vs0mg"},{"bike_id":"e1d53f29-407d-4789-a721-b384d8ed411e","system_id":"levelo_inurba_marseille","lat":43.302008,"lon":5.394694,"is_reserved":false,"is_disabled":false,"rental_uris":{"android":"levelo://app?vid=e1d53f29-407d-4789-a721-b384d8ed411e","ios":"levelo://app?vid=e1d53f29-407d-4789-a721-b384d8ed411e"},"vehicle_type_id":"4","last_reported":1719940052,"current_range_meters":0,"station_id":"ce4bh0p2rcd13ifvqd70","pricing_plan_id":"cebpf4jnsgd1na2vs0mg"},{"bike_id":"202e145e-0ee7-496d-896f-4eee6b4dcb05","system_id":"levelo_inurba_marseille","lat":43.302008,"lon":5.394694,"is_reserved":false,"is_disabled":false,"rental_uris":{"android":"levelo://app?vid=202e145e-0ee7-496d-896f-4eee6b4dcb05","ios":"levelo://app?vid=202e145e-0ee7-496d-896f-4eee6b4dcb05"},"vehicle_type_id":"4","last_reported":1719940052,"current_range_meters":1600,"station_id":"ce4bh0p2rcd13ifvqd70","pricing_plan_id":"cebpf4jnsgd1na2vs0mg"},{"bike_id":"59ef0fb0-899b-4df3-aa28-ec220710f5b7","system_id":"levelo_inurba_marseille","lat":43.302008,"lon":5.394694,"is_reserved":false,"is_disabled":false,"rental_uris":{"android":"levelo://app?vid=59ef0fb0-899b-4df3-aa28-ec220710f5b7","ios":"levelo://app?vid=59ef0fb0-899b-4df3-aa28-ec220710f5b7"},"vehicle_type_id":"4","last_reported":1719940052,"current_range_meters":0,"station_id":"ce4bh0p2rcd13ifvqd70","pricing_plan_id":"cebpf4jnsgd1na2vs0mg"},{"bike_id":"2cec447a-3088-48d9-818a-66d1b63998c1","system_id":"levelo_inurba_marseille","lat":43.290624,"lon":5.359245,"is_reserved":false,"is_disabled":false,"rental_uris":{"android":"levelo://app?vid=2cec447a-3088-48d9-818a-66d1b63998c1","ios":"levelo://app?vid=2cec447a-3088-48d9-818a-66d1b63998c1"},"vehicle_type_id":"4","last_reported":1719940052,"current_range_meters":13600,"station_id":"ce4bha92rcd13ifvqeg0","pricing_plan_id":"cebpf4jnsgd1na2vs0mg"},{"bike_id":"ba8e96e2-28f4-45f4-8cb2-d3863e95100b","system_id":"levelo_inurba_marseille","lat":43.29034,"lon":5.35922,"is_reserved":false,"is_disabled":false,"rental_uris":{"android":"levelo://app?vid=ba8e96e2-28f4-45f4-8cb2-d3863e95100b","ios":"levelo://app?vid=ba8e96e2-28f4-45f4-8cb2-d3863e95100b"},"vehicle_type_id":"4","last_reported":1719940052,"current_range_meters":0,"station_id":"ce4bha92rcd13ifvqeg0","pricing_plan_id":"cebpf4jnsgd1na2vs0mg"},{"bike_id":"fe95eaf6-ab5f-4b14-97a8-c731b9037ad0","system_id":"levelo_inurba_marseille","lat":43.294153,"lon":5.386305,"is_reserved":false,"is_disabled":false,"rental_uris":{"android":"levelo://app?vid=fe95eaf6-ab5f-4b14-97a8-c731b9037ad0","ios":"levelo://app?vid=fe95eaf6-ab5f-4b14-97a8-c731b9037ad0"},"vehicle_type_id":"4","last_reported":1719940052,"current_range_meters":31200,"station_id":"ce4bh2h2rcd13ifvqdh0","pricing_plan_id":"cebpf4jnsgd1na2vs0mg"},{"bike_id":"3f94d7c9-b487-4d59-bf7a-8679b354be20","system_id":"levelo_inurba_marseille","lat":43.294153,"lon":5.386305,"is_reserved":false,"is_disabled":false,"rental_uris":{"android":"levelo://app?vid=3f94d7c9-b487-4d59-bf7a-8679b354be20","ios":"levelo://app?vid=3f94d7c9-b487-4d59-bf7a-8679b354be20"},"vehicle_type_id":"4","last_reported":1719940052,"current_range_meters":13600,"station_id":"ce4bh2h2rcd13ifvqdh0","pricing_plan_id":"cebpf4jnsgd1na2vs0mg"},{"bike_id":"92158ec0-cc53-4039-b010-a4ed157eb3a7","system_id":"levelo_inurba_marseille","lat":43.294153,"lon":5.386305,"is_reserved":false,"is_disabled":false,"rental_uris":{"android":"levelo://app?vid=92158ec0-cc53-4039-b010-a4ed157eb3a7","ios":"levelo://app?vid=92158ec0-cc53-4039-b010-a4ed157eb3a7"},"vehicle_type_id":"4","last_reported":1719940052,"current_range_meters":31200,"station_id":"ce4bh2h2rcd13ifvqdh0","pricing_plan_id":"cebpf4jnsgd1na2vs0mg"},{"bike_id":"712c8322-a47d-474b-9767-b83638fc8a4d","system_id":"levelo_inurba_marseille","lat":43.294153,"lon":5.386305,"is_reserved":false,"is_disabled":false,"rental_uris":{"android":"levelo://app?vid=712c8322-a47d-474b-9767-b83638fc8a4d","ios":"levelo://app?vid=712c8322-a47d-474b-9767-b83638fc8a4d"},"vehicle_type_id":"4","last_reported":1719940052,"current_range_meters":23600,"station_id":"ce4bh2h2rcd13ifvqdh0","pricing_plan_id":"cebpf4jnsgd1na2vs0mg"},{"bike_id":"ad53535a-7857-4dd5-86c7-5c8168346343","system_id":"levelo_inurba_marseille","lat":43.289184,"lon":5.366408,"is_reserved":false,"is_disabled":false,"rental_uris":{"android":"levelo://app?vid=ad53535a-7857-4dd5-86c7-5c8168346343","ios":"levelo://app?vid=ad53535a-7857-4dd5-86c7-5c8168346343"},"vehicle_type_id":"4","last_reported":1719940052,"current_range_meters":14000,"station_id":"ce4bhap2rcd13ifvqek0","pricing_plan_id":"cebpf4jnsgd1na2vs0mg"},{"bike_id":"8e4e7d05-cb12-408f-a9bf-2b209c24dfd3","system_id":"levelo_inurba_marseille","lat":43.29416,"lon":5.38632,"is_reserved":false,"is_disabled":false,"rental_uris":{"android":"levelo://app?vid=8e4e7d05-cb12-408f-a9bf-2b209c24dfd3","ios":"levelo://app?vid=8e4e7d05-cb12-408f-a9bf-2b209c24dfd3"},"vehicle_type_id":"4","last_reported":1719940052,"current_range_meters":31200,"station_id":"ce4bh2h2rcd13ifvqdh0","pricing_plan_id":"cebpf4jnsgd1na2vs0mg"},{"bike_id":"b0b0ce60-f511-4711-bde6-cd33d92df203","system_id":"levelo_inurba_marseille","lat":43.289184,"lon":5.366408,"is_reserved":false,"is_disabled":false,"rental_uris":{"android":"levelo://app?vid=b0b0ce60-f511-4711-bde6-cd33d92df203","ios":"levelo://app?vid=b0b0ce60-f511-4711-bde6-cd33d92df203"},"vehicle_type_id":"4","last_reported":1719940052,"current_range_meters":2800,"station_id":"ce4bhap2rcd13ifvqek0","pricing_plan_id":"cebpf4jnsgd1na2vs0mg"},{"bike_id":"042c7227-7432-4063-8a01-8bd20ad08661","system_id":"levelo_inurba_marseille","lat":43.289184,"lon":5.366408,"is_reserved":false,"is_disabled":false,"rental_uris":{"android":"levelo://app?vid=042c7227-7432-4063-8a01-8bd20ad08661","ios":"levelo://app?vid=042c7227-7432-4063-8a01-8bd20ad08661"},"vehicle_type_id":"4","last_reported":1719940052,"current_range_meters":24800,"station_id":"ce4bhap2rcd13ifvqek0","pricing_plan_id":"cebpf4jnsgd1na2vs0mg"},{"bike_id":"3be3a5b5-1276-4010-affd-16af216a3f30","system_id":"levelo_inurba_marseille","lat":43.289468,"lon":5.363719,"is_reserved":false,"is_disabled":false,"rental_uris":{"android":"levelo://app?vid=3be3a5b5-1276-4010-affd-16af216a3f30","ios":"levelo://app?vid=3be3a5b5-1276-4010-affd-16af216a3f30"},"vehicle_type_id":"4","last_reported":1719940052,"current_range_meters":5200,"station_id":"ce4bhc92rcd13ifvqetg","pricing_plan_id":"cebpf4jnsgd1na2vs0mg"},{"bike_id":"d75fe258-a9ea-466a-8854-19aaafcb8a62","system_id":"levelo_inurba_marseille","lat":43.289468,"lon":5.363719,"is_reserved":false,"is_disabled":false,"rental_uris":{"android":"levelo://app?vid=d75fe258-a9ea-466a-8854-19aaafcb8a62","ios":"levelo://app?vid=d75fe258-a9ea-466a-8854-19aaafcb8a62"},"vehicle_type_id":"4","last_reported":1719940052,"current_range_meters":24400,"station_id":"ce4bhc92rcd13ifvqetg","pricing_plan_id":"cebpf4jnsgd1na2vs0mg"},{"bike_id":"f8b60216-4b92-41fc-8fa0-33ad3a852744","system_id":"levelo_inurba_marseille","lat":43.289468,"lon":5.363719,"is_reserved":false,"is_disabled":false,"rental_uris":{"android":"levelo://app?vid=f8b60216-4b92-41fc-8fa0-33ad3a852744","ios":"levelo://app?vid=f8b60216-4b92-41fc-8fa0-33ad3a852744"},"vehicle_type_id":"4","last_reported":1719940052,"current_range_meters":3600,"station_id":"ce4bhc92rcd13ifvqetg","pricing_plan_id":"cebpf4jnsgd1na2vs0mg"},{"bike_id":"77feec2f-409a-41fe-aa07-e407666a709c","system_id":"levelo_inurba_marseille","lat":43.28926,"lon":5.36644,"is_reserved":false,"is_disabled":false,"rental_uris":{"android":"levelo://app?vid=77feec2f-409a-41fe-aa07-e407666a709c","ios":"levelo://app?vid=77feec2f-409a-41fe-aa07-e407666a709c"},"vehicle_type_id":"4","last_reported":1719940052,"current_range_meters":1600,"station_id":"ce4bhap2rcd13ifvqek0","pricing_plan_id":"cebpf4jnsgd1na2vs0mg"},{"bike_id":"c7b42fde-30dd-4a04-957e-716979309e58","system_id":"levelo_inurba_marseille","lat":43.289468,"lon":5.363719,"is_reserved":false,"is_disabled":false,"rental_uris":{"android":"levelo://app?vid=c7b42fde-30dd-4a04-957e-716979309e58","ios":"levelo://app?vid=c7b42fde-30dd-4a04-957e-716979309e58"},"vehicle_type_id":"4","last_reported":1719940052,"current_range_meters":5200,"station_id":"ce4bhc92rcd13ifvqetg","pricing_plan_id":"cebpf4jnsgd1na2vs0mg"},{"bike_id":"04f0516b-197f-4cbc-a9b9-a3ef76af76d8","system_id":"levelo_inurba_marseille","lat":43.289468,"lon":5.363719,"is_reserved":false,"is_disabled":false,"rental_uris":{"android":"levelo://app?vid=04f0516b-197f-4cbc-a9b9-a3ef76af76d8","ios":"levelo://app?vid=04f0516b-197f-4cbc-a9b9-a3ef76af76d8"},"vehicle_type_id":"4","last_reported":1719940052,"current_range_meters":28000,"station_id":"ce4bhc92rcd13ifvqetg","pricing_plan_id":"cebpf4jnsgd1na2vs0mg"},{"bike_id":"8f126e5e-ece2-4ce5-8e2b-431e4c13c8e9","system_id":"levelo_inurba_marseille","lat":43.289468,"lon":5.363719,"is_reserved":false,"is_disabled":false,"rental_uris":{"android":"levelo://app?vid=8f126e5e-ece2-4ce5-8e2b-431e4c13c8e9","ios":"levelo://app?vid=8f126e5e-ece2-4ce5-8e2b-431e4c13c8e9"},"vehicle_type_id":"4","last_reported":1719940052,"current_range_meters":27200,"station_id":"ce4bhc92rcd13ifvqetg","pricing_plan_id":"cebpf4jnsgd1na2vs0mg"},{"bike_id":"17767364-988d-496d-b0ac-0e3eb36637cc","system_id":"levelo_inurba_marseille","lat":43.292642,"lon":5.384254,"is_reserved":false,"is_disabled":false,"rental_uris":{"android":"levelo://app?vid=17767364-988d-496d-b0ac-0e3eb36637cc","ios":"levelo://app?vid=17767364-988d-496d-b0ac-0e3eb36637cc"},"vehicle_type_id":"4","last_reported":1719940052,"current_range_meters":8800,"station_id":"ce4bh692rcd13ifvqea0","pricing_plan_id":"cebpf4jnsgd1na2vs0mg"},{"bike_id":"d06a8394-37ea-455d-beb0-7939c87ed2cf","system_id":"levelo_inurba_marseille","lat":43.292644,"lon":5.384257,"is_reserved":false,"is_disabled":false,"rental_uris":{"android":"levelo://app?vid=d06a8394-37ea-455d-beb0-7939c87ed2cf","ios":"levelo://app?vid=d06a8394-37ea-455d-beb0-7939c87ed2cf"},"vehicle_type_id":"4","last_reported":1719940052,"current_range_meters":31200,"station_id":"ce4bh692rcd13ifvqea0","pricing_plan_id":"cebpf4jnsgd1na2vs0mg"},{"bike_id":"8ed30677-0896-49c5-8cf0-33307dd9bbb4","system_id":"levelo_inurba_marseille","lat":43.304274,"lon":5.397513,"is_reserved":false,"is_disabled":false,"rental_uris":{"android":"levelo://app?vid=8ed30677-0896-49c5-8cf0-33307dd9bbb4","ios":"levelo://app?vid=8ed30677-0896-49c5-8cf0-33307dd9bbb4"},"vehicle_type_id":"4","last_reported":1719940052,"current_range_meters":11600,"station_id":"ce4bh092rcd13ifvqd20","pricing_plan_id":"cebpf4jnsgd1na2vs0mg"},{"bike_id":"42fe1a55-cf1a-4940-a203-ec7e99313f99","system_id":"levelo_inurba_marseille","lat":43.292644,"lon":5.384257,"is_reserved":false,"is_disabled":false,"rental_uris":{"android":"levelo://app?vid=42fe1a55-cf1a-4940-a203-ec7e99313f99","ios":"levelo://app?vid=42fe1a55-cf1a-4940-a203-ec7e99313f99"},"vehicle_type_id":"4","last_reported":1719940052,"current_range_meters":400,"station_id":"ce4bh692rcd13ifvqea0","pricing_plan_id":"cebpf4jnsgd1na2vs0mg"},{"bike_id":"af38c0a9-412c-4e8a-844c-e5c182d984aa","system_id":"levelo_inurba_marseille","lat":43.292642,"lon":5.384254,"is_reserved":false,"is_disabled":false,"rental_uris":{"android":"levelo://app?vid=af38c0a9-412c-4e8a-844c-e5c182d984aa","ios":"levelo://app?vid=af38c0a9-412c-4e8a-844c-e5c182d984aa"},"vehicle_type_id":"4","last_reported":1719940052,"current_range_meters":7600,"station_id":"ce4bh692rcd13ifvqea0","pricing_plan_id":"cebpf4jnsgd1na2vs0mg"},{"bike_id":"5b125a86-aea5-4df3-b66c-4618e399bf6c","system_id":"levelo_inurba_marseille","lat":43.292644,"lon":5.384257,"is_reserved":false,"is_disabled":false,"rental_uris":{"android":"levelo://app?vid=5b125a86-aea5-4df3-b66c-4618e399bf6c","ios":"levelo://app?vid=5b125a86-aea5-4df3-b66c-4618e399bf6c"},"vehicle_type_id":"4","last_reported":1719940052,"current_range_meters":9600,"station_id":"ce4bh692rcd13ifvqea0","pricing_plan_id":"cebpf4jnsgd1na2vs0mg"},{"bike_id":"34ee7706-a911-4ee7-a08a-69ffe26c1c4f","system_id":"levelo_inurba_marseille","lat":43.292642,"lon":5.384254,"is_reserved":false,"is_disabled":false,"rental_uris":{"android":"levelo://app?vid=34ee7706-a911-4ee7-a08a-69ffe26c1c4f","ios":"levelo://app?vid=34ee7706-a911-4ee7-a08a-69ffe26c1c4f"},"vehicle_type_id":"4","last_reported":1719940052,"current_range_meters":31200,"station_id":"ce4bh692rcd13ifvqea0","pricing_plan_id":"cebpf4jnsgd1na2vs0mg"},{"bike_id":"7aab2060-1562-4602-a5d4-3ad3d832a098","system_id":"levelo_inurba_marseille","lat":43.292644,"lon":5.384257,"is_reserved":false,"is_disabled":false,"rental_uris":{"android":"levelo://app?vid=7aab2060-1562-4602-a5d4-3ad3d832a098","ios":"levelo://app?vid=7aab2060-1562-4602-a5d4-3ad3d832a098"},"vehicle_type_id":"4","last_reported":1719940052,"current_range_meters":25200,"station_id":"ce4bh692rcd13ifvqea0","pricing_plan_id":"cebpf4jnsgd1na2vs0mg"},{"bike_id":"938488eb-9784-4fdd-a3b0-0bca39fe0fbb","system_id":"levelo_inurba_marseille","lat":43.304296,"lon":5.397513,"is_reserved":false,"is_disabled":false,"rental_uris":{"android":"levelo://app?vid=938488eb-9784-4fdd-a3b0-0bca39fe0fbb","ios":"levelo://app?vid=938488eb-9784-4fdd-a3b0-0bca39fe0fbb"},"vehicle_type_id":"4","last_reported":1719940052,"current_range_meters":12400,"station_id":"ce4bh092rcd13ifvqd20","pricing_plan_id":"cebpf4jnsgd1na2vs0mg"},{"bike_id":"d6b4ad43-699d-4791-b27e-b8b1bbb05f92","system_id":"levelo_inurba_marseille","lat":43.292644,"lon":5.384257,"is_reserved":false,"is_disabled":false,"rental_uris":{"android":"levelo://app?vid=d6b4ad43-699d-4791-b27e-b8b1bbb05f92","ios":"levelo://app?vid=d6b4ad43-699d-4791-b27e-b8b1bbb05f92"},"vehicle_type_id":"4","last_reported":1719940052,"current_range_meters":28000,"station_id":"ce4bh692rcd13ifvqea0","pricing_plan_id":"cebpf4jnsgd1na2vs0mg"},{"bike_id":"4646e80b-b9c7-428a-ad62-94f346ba28cb","system_id":"levelo_inurba_marseille","lat":43.292644,"lon":5.384257,"is_reserved":false,"is_disabled":false,"rental_uris":{"android":"levelo://app?vid=4646e80b-b9c7-428a-ad62-94f346ba28cb","ios":"levelo://app?vid=4646e80b-b9c7-428a-ad62-94f346ba28cb"},"vehicle_type_id":"4","last_reported":1719940052,"current_range_meters":7200,"station_id":"ce4bh692rcd13ifvqea0","pricing_plan_id":"cebpf4jnsgd1na2vs0mg"},{"bike_id":"d630641e-e231-4572-8eb5-4cbf12318de2","system_id":"levelo_inurba_marseille","lat":43.292644,"lon":5.384257,"is_reserved":false,"is_disabled":false,"rental_uris":{"android":"levelo://app?vid=d630641e-e231-4572-8eb5-4cbf12318de2","ios":"levelo://app?vid=d630641e-e231-4572-8eb5-4cbf12318de2"},"vehicle_type_id":"4","last_reported":1719940052,"current_range_meters":0,"station_id":"ce4bh692rcd13ifvqea0","pricing_plan_id":"cebpf4jnsgd1na2vs0mg"},{"bike_id":"6ac9c13a-d470-4545-b5f7-c663562f4632","system_id":"levelo_inurba_marseille","lat":43.292555,"lon":5.384505,"is_reserved":false,"is_disabled":false,"rental_uris":{"android":"levelo://app?vid=6ac9c13a-d470-4545-b5f7-c663562f4632","ios":"levelo://app?vid=6ac9c13a-d470-4545-b5f7-c663562f4632"},"vehicle_type_id":"4","last_reported":1719940052,"current_range_meters":31200,"station_id":"ce4bh692rcd13ifvqea0","pricing_plan_id":"cebpf4jnsgd1na2vs0mg"},{"bike_id":"51d26fb5-e6b2-42e8-b422-96eba48c210c","system_id":"levelo_inurba_marseille","lat":43.292642,"lon":5.384254,"is_reserved":false,"is_disabled":false,"rental_uris":{"android":"levelo://app?vid=51d26fb5-e6b2-42e8-b422-96eba48c210c","ios":"levelo://app?vid=51d26fb5-e6b2-42e8-b422-96eba48c210c"},"vehicle_type_id":"4","last_reported":1719940052,"current_range_meters":1200,"station_id":"ce4bh692rcd13ifvqea0","pricing_plan_id":"cebpf4jnsgd1na2vs0mg"},{"bike_id":"01d04927-50ab-416a-8609-3d03b5f9e0b5","system_id":"levelo_inurba_marseille","lat":43.304296,"lon":5.397513,"is_reserved":false,"is_disabled":false,"rental_uris":{"android":"levelo://app?vid=01d04927-50ab-416a-8609-3d03b5f9e0b5","ios":"levelo://app?vid=01d04927-50ab-416a-8609-3d03b5f9e0b5"},"vehicle_type_id":"4","last_reported":1719940052,"current_range_meters":23600,"station_id":"ce4bh092rcd13ifvqd20","pricing_plan_id":"cebpf4jnsgd1na2vs0mg"},{"bike_id":"cff52a38-9a68-4653-8ea5-bf3f098f63e4","system_id":"levelo_inurba_marseille","lat":43.290104,"lon":5.356111,"is_reserved":false,"is_disabled":false,"rental_uris":{"android":"levelo://app?vid=cff52a38-9a68-4653-8ea5-bf3f098f63e4","ios":"levelo://app?vid=cff52a38-9a68-4653-8ea5-bf3f098f63e4"},"vehicle_type_id":"4","last_reported":1719940052,"current_range_meters":30800,"station_id":"ce4bhb92rcd13ifvqen0","pricing_plan_id":"cebpf4jnsgd1na2vs0mg"},{"bike_id":"3bfb4b0f-8f32-4021-8ad0-1b68ae07e1b4","system_id":"levelo_inurba_marseille","lat":43.290103,"lon":5.356114,"is_reserved":false,"is_disabled":false,"rental_uris":{"android":"levelo://app?vid=3bfb4b0f-8f32-4021-8ad0-1b68ae07e1b4","ios":"levelo://app?vid=3bfb4b0f-8f32-4021-8ad0-1b68ae07e1b4"},"vehicle_type_id":"4","last_reported":1719940052,"current_range_meters":8400,"station_id":"ce4bhb92rcd13ifvqen0","pricing_plan_id":"cebpf4jnsgd1na2vs0mg"},{"bike_id":"45097876-5185-40cb-ac52-73e7e934b21a","system_id":"levelo_inurba_marseille","lat":43.290103,"lon":5.356114,"is_reserved":false,"is_disabled":false,"rental_uris":{"android":"levelo://app?vid=45097876-5185-40cb-ac52-73e7e934b21a","ios":"levelo://app?vid=45097876-5185-40cb-ac52-73e7e934b21a"},"vehicle_type_id":"4","last_reported":1719940052,"current_range_meters":5200,"station_id":"ce4bhb92rcd13ifvqen0","pricing_plan_id":"cebpf4jnsgd1na2vs0mg"},{"bike_id":"6118a5be-2925-4bff-8da2-57632bf9a584","system_id":"levelo_inurba_marseille","lat":43.29004,"lon":5.35615,"is_reserved":false,"is_disabled":false,"rental_uris":{"android":"levelo://app?vid=6118a5be-2925-4bff-8da2-57632bf9a584","ios":"levelo://app?vid=6118a5be-2925-4bff-8da2-57632bf9a584"},"vehicle_type_id":"4","last_reported":1719940052,"current_range_meters":14000,"station_id":"ce4bhb92rcd13ifvqen0","pricing_plan_id":"cebpf4jnsgd1na2vs0mg"},{"bike_id":"d850540b-660d-47b4-882d-10eb2871c2df","system_id":"levelo_inurba_marseille","lat":43.29005,"lon":5.35608,"is_reserved":false,"is_disabled":false,"rental_uris":{"android":"levelo://app?vid=d850540b-660d-47b4-882d-10eb2871c2df","ios":"levelo://app?vid=d850540b-660d-47b4-882d-10eb2871c2df"},"vehicle_type_id":"4","last_reported":1719940052,"current_range_meters":16800,"station_id":"ce4bhb92rcd13ifvqen0","pricing_plan_id":"cebpf4jnsgd1na2vs0mg"},{"bike_id":"65cd062f-4622-493f-a309-8e58a91bb7ca","system_id":"levelo_inurba_marseille","lat":43.290103,"lon":5.356114,"is_reserved":false,"is_disabled":false,"rental_uris":{"android":"levelo://app?vid=65cd062f-4622-493f-a309-8e58a91bb7ca","ios":"levelo://app?vid=65cd062f-4622-493f-a309-8e58a91bb7ca"},"vehicle_type_id":"4","last_reported":1719940052,"current_range_meters":2800,"station_id":"ce4bhb92rcd13ifvqen0","pricing_plan_id":"cebpf4jnsgd1na2vs0mg"},{"bike_id":"ebb0a1ab-d76c-4474-b1c2-48fcbab07d3a","system_id":"levelo_inurba_marseille","lat":43.290103,"lon":5.356114,"is_reserved":false,"is_disabled":false,"rental_uris":{"android":"levelo://app?vid=ebb0a1ab-d76c-4474-b1c2-48fcbab07d3a","ios":"levelo://app?vid=ebb0a1ab-d76c-4474-b1c2-48fcbab07d3a"},"vehicle_type_id":"4","last_reported":1719940052,"current_range_meters":16000,"station_id":"ce4bhb92rcd13ifvqen0","pricing_plan_id":"cebpf4jnsgd1na2vs0mg"},{"bike_id":"d42a4040-8866-46e3-a7ec-7a4a3a6937db","system_id":"levelo_inurba_marseille","lat":43.290032,"lon":5.356138,"is_reserved":false,"is_disabled":false,"rental_uris":{"android":"levelo://app?vid=d42a4040-8866-46e3-a7ec-7a4a3a6937db","ios":"levelo://app?vid=d42a4040-8866-46e3-a7ec-7a4a3a6937db"},"vehicle_type_id":"4","last_reported":1719940052,"current_range_meters":0,"station_id":"ce4bhb92rcd13ifvqen0","pricing_plan_id":"cebpf4jnsgd1na2vs0mg"},{"bike_id":"22e02e55-a422-427d-ac0e-450f9c310354","system_id":"levelo_inurba_marseille","lat":43.290032,"lon":5.356138,"is_reserved":false,"is_disabled":false,"rental_uris":{"android":"levelo://app?vid=22e02e55-a422-427d-ac0e-450f9c310354","ios":"levelo://app?vid=22e02e55-a422-427d-ac0e-450f9c310354"},"vehicle_type_id":"4","last_reported":1719940052,"current_range_meters":2800,"station_id":"ce4bhb92rcd13ifvqen0","pricing_plan_id":"cebpf4jnsgd1na2vs0mg"},{"bike_id":"93aefdd3-c0ac-4a1f-a89a-4f2519df015f","system_id":"levelo_inurba_marseille","lat":43.290104,"lon":5.356111,"is_reserved":false,"is_disabled":false,"rental_uris":{"android":"levelo://app?vid=93aefdd3-c0ac-4a1f-a89a-4f2519df015f","ios":"levelo://app?vid=93aefdd3-c0ac-4a1f-a89a-4f2519df015f"},"vehicle_type_id":"4","last_reported":1719940052,"current_range_meters":16400,"station_id":"ce4bhb92rcd13ifvqen0","pricing_plan_id":"cebpf4jnsgd1na2vs0mg"},{"bike_id":"14b5ccc2-811b-4dd3-99ef-1fc90d6eec19","system_id":"levelo_inurba_marseille","lat":43.29003,"lon":5.35613,"is_reserved":false,"is_disabled":false,"rental_uris":{"android":"levelo://app?vid=14b5ccc2-811b-4dd3-99ef-1fc90d6eec19","ios":"levelo://app?vid=14b5ccc2-811b-4dd3-99ef-1fc90d6eec19"},"vehicle_type_id":"4","last_reported":1719940052,"current_range_meters":26800,"station_id":"ce4bhb92rcd13ifvqen0","pricing_plan_id":"cebpf4jnsgd1na2vs0mg"},{"bike_id":"dd709668-5502-4992-a953-e8fa060fc2fa","system_id":"levelo_inurba_marseille","lat":43.29004,"lon":5.35606,"is_reserved":false,"is_disabled":false,"rental_uris":{"android":"levelo://app?vid=dd709668-5502-4992-a953-e8fa060fc2fa","ios":"levelo://app?vid=dd709668-5502-4992-a953-e8fa060fc2fa"},"vehicle_type_id":"4","last_reported":1719940052,"current_range_meters":13600,"station_id":"ce4bhb92rcd13ifvqen0","pricing_plan_id":"cebpf4jnsgd1na2vs0mg"},{"bike_id":"e357735c-f310-44c6-9353-66312ed14a2b","system_id":"levelo_inurba_marseille","lat":43.290104,"lon":5.356111,"is_reserved":false,"is_disabled":false,"rental_uris":{"android":"levelo://app?vid=e357735c-f310-44c6-9353-66312ed14a2b","ios":"levelo://app?vid=e357735c-f310-44c6-9353-66312ed14a2b"},"vehicle_type_id":"4","last_reported":1719940052,"current_range_meters":22400,"station_id":"ce4bhb92rcd13ifvqen0","pricing_plan_id":"cebpf4jnsgd1na2vs0mg"},{"bike_id":"39a6f94d-89ac-4680-9473-6c2715b8aa9b","system_id":"levelo_inurba_marseille","lat":43.290104,"lon":5.356111,"is_reserved":false,"is_disabled":false,"rental_uris":{"android":"levelo://app?vid=39a6f94d-89ac-4680-9473-6c2715b8aa9b","ios":"levelo://app?vid=39a6f94d-89ac-4680-9473-6c2715b8aa9b"},"vehicle_type_id":"4","last_reported":1719940052,"current_range_meters":32000,"station_id":"ce4bhb92rcd13ifvqen0","pricing_plan_id":"cebpf4jnsgd1na2vs0mg"},{"bike_id":"92fe73d1-03b7-409c-80b6-b35fa361a86a","system_id":"levelo_inurba_marseille","lat":43.290104,"lon":5.356111,"is_reserved":false,"is_disabled":false,"rental_uris":{"android":"levelo://app?vid=92fe73d1-03b7-409c-80b6-b35fa361a86a","ios":"levelo://app?vid=92fe73d1-03b7-409c-80b6-b35fa361a86a"},"vehicle_type_id":"4","last_reported":1719940052,"current_range_meters":25600,"station_id":"ce4bhb92rcd13ifvqen0","pricing_plan_id":"cebpf4jnsgd1na2vs0mg"},{"bike_id":"5ffac375-73f6-4aa7-9a0b-d97b5a6f83e9","system_id":"levelo_inurba_marseille","lat":43.289974,"lon":5.356159,"is_reserved":false,"is_disabled":false,"rental_uris":{"android":"levelo://app?vid=5ffac375-73f6-4aa7-9a0b-d97b5a6f83e9","ios":"levelo://app?vid=5ffac375-73f6-4aa7-9a0b-d97b5a6f83e9"},"vehicle_type_id":"4","last_reported":1719940052,"current_range_meters":8800,"station_id":"ce4bhb92rcd13ifvqen0","pricing_plan_id":"cebpf4jnsgd1na2vs0mg"},{"bike_id":"2e4df3c5-74d8-45de-9fc4-724b483166da","system_id":"levelo_inurba_marseille","lat":43.290995,"lon":5.381361,"is_reserved":false,"is_disabled":false,"rental_uris":{"android":"levelo://app?vid=2e4df3c5-74d8-45de-9fc4-724b483166da","ios":"levelo://app?vid=2e4df3c5-74d8-45de-9fc4-724b483166da"},"vehicle_type_id":"4","last_reported":1719940052,"current_range_meters":15600,"station_id":"ce4bh512rcd13ifvqe2g","pricing_plan_id":"cebpf4jnsgd1na2vs0mg"},{"bike_id":"24329bbb-8880-4dea-954a-65e435c648b5","system_id":"levelo_inurba_marseille","lat":43.297815,"lon":5.393548,"is_reserved":false,"is_disabled":false,"rental_uris":{"android":"levelo://app?vid=24329bbb-8880-4dea-954a-65e435c648b5","ios":"levelo://app?vid=24329bbb-8880-4dea-954a-65e435c648b5"},"vehicle_type_id":"4","last_reported":1719940052,"current_range_meters":30000,"station_id":"chh1huq6cuj3fo74tm60","pricing_plan_id":"cebpf4jnsgd1na2vs0mg"},{"bike_id":"35d0235f-b9e0-4552-b29f-0ed50b100fa7","system_id":"levelo_inurba_marseille","lat":43.297782,"lon":5.393282,"is_reserved":false,"is_disabled":false,"rental_uris":{"android":"levelo://app?vid=35d0235f-b9e0-4552-b29f-0ed50b100fa7","ios":"levelo://app?vid=35d0235f-b9e0-4552-b29f-0ed50b100fa7"},"vehicle_type_id":"4","last_reported":1719940052,"current_range_meters":12400,"station_id":"ce4bh292rcd13ifvqdf0","pricing_plan_id":"cebpf4jnsgd1na2vs0mg"},{"bike_id":"5e1f6195-bbac-49c7-960b-824411ba69ea","system_id":"levelo_inurba_marseille","lat":43.295169,"lon":5.390426,"is_reserved":false,"is_disabled":false,"rental_uris":{"android":"levelo://app?vid=5e1f6195-bbac-49c7-960b-824411ba69ea","ios":"levelo://app?vid=5e1f6195-bbac-49c7-960b-824411ba69ea"},"vehicle_type_id":"4","last_reported":1719940052,"current_range_meters":27200,"station_id":"ce4bh3p2rcd13ifvqdp0","pricing_plan_id":"cebpf4jnsgd1na2vs0mg"},{"bike_id":"bcff99c3-cd25-4b46-bf80-fabdea74ca88","system_id":"levelo_inurba_marseille","lat":43.29784,"lon":5.39355,"is_reserved":false,"is_disabled":false,"rental_uris":{"android":"levelo://app?vid=bcff99c3-cd25-4b46-bf80-fabdea74ca88","ios":"levelo://app?vid=bcff99c3-cd25-4b46-bf80-fabdea74ca88"},"vehicle_type_id":"4","last_reported":1719940052,"current_range_meters":0,"station_id":"chh1huq6cuj3fo74tm60","pricing_plan_id":"cebpf4jnsgd1na2vs0mg"},{"bike_id":"4695aaf3-a143-4b84-8572-ad37b5a1e3ed","system_id":"levelo_inurba_marseille","lat":43.29521,"lon":5.39039,"is_reserved":false,"is_disabled":false,"rental_uris":{"android":"levelo://app?vid=4695aaf3-a143-4b84-8572-ad37b5a1e3ed","ios":"levelo://app?vid=4695aaf3-a143-4b84-8572-ad37b5a1e3ed"},"vehicle_type_id":"4","last_reported":1719940052,"current_range_meters":0,"station_id":"ce4bh3p2rcd13ifvqdp0","pricing_plan_id":"cebpf4jnsgd1na2vs0mg"},{"bike_id":"7eaae296-a91e-48a7-abdb-f378d3aa628c","system_id":"levelo_inurba_marseille","lat":43.29519,"lon":5.39044,"is_reserved":false,"is_disabled":false,"rental_uris":{"android":"levelo://app?vid=7eaae296-a91e-48a7-abdb-f378d3aa628c","ios":"levelo://app?vid=7eaae296-a91e-48a7-abdb-f378d3aa628c"},"vehicle_type_id":"4","last_reported":1719940052,"current_range_meters":0,"station_id":"ce4bh3p2rcd13ifvqdp0","pricing_plan_id":"cebpf4jnsgd1na2vs0mg"},{"bike_id":"62143a27-3f2a-4701-ae4e-10c1d1a33e64","system_id":"levelo_inurba_marseille","lat":43.295169,"lon":5.390426,"is_reserved":false,"is_disabled":false,"rental_uris":{"android":"levelo://app?vid=62143a27-3f2a-4701-ae4e-10c1d1a33e64","ios":"levelo://app?vid=62143a27-3f2a-4701-ae4e-10c1d1a33e64"},"vehicle_type_id":"4","last_reported":1719940052,"current_range_meters":13200,"station_id":"ce4bh3p2rcd13ifvqdp0","pricing_plan_id":"cebpf4jnsgd1na2vs0mg"},{"bike_id":"43e9325c-dd31-41dd-93c8-b1ddda7c6b78","system_id":"levelo_inurba_marseille","lat":43.29518,"lon":5.39047,"is_reserved":false,"is_disabled":false,"rental_uris":{"android":"levelo://app?vid=43e9325c-dd31-41dd-93c8-b1ddda7c6b78","ios":"levelo://app?vid=43e9325c-dd31-41dd-93c8-b1ddda7c6b78"},"vehicle_type_id":"4","last_reported":1719940052,"current_range_meters":20000,"station_id":"ce4bh3p2rcd13ifvqdp0","pricing_plan_id":"cebpf4jnsgd1na2vs0mg"},{"bike_id":"cbc6723b-5b01-4260-be11-86cae3fce046","system_id":"levelo_inurba_marseille","lat":43.290094,"lon":5.381264,"is_reserved":false,"is_disabled":false,"rental_uris":{"android":"levelo://app?vid=cbc6723b-5b01-4260-be11-86cae3fce046","ios":"levelo://app?vid=cbc6723b-5b01-4260-be11-86cae3fce046"},"vehicle_type_id":"4","last_reported":1719940052,"current_range_meters":13200,"station_id":"ce4bh4p2rcd13ifvqe1g","pricing_plan_id":"cebpf4jnsgd1na2vs0mg"},{"bike_id":"bbfb1e96-c3fc-4400-ac8b-19e72ef86d2a","system_id":"levelo_inurba_marseille","lat":43.29518,"lon":5.39051,"is_reserved":false,"is_disabled":false,"rental_uris":{"android":"levelo://app?vid=bbfb1e96-c3fc-4400-ac8b-19e72ef86d2a","ios":"levelo://app?vid=bbfb1e96-c3fc-4400-ac8b-19e72ef86d2a"},"vehicle_type_id":"4","last_reported":1719940052,"current_range_meters":12400,"station_id":"ce4bh3p2rcd13ifvqdp0","pricing_plan_id":"cebpf4jnsgd1na2vs0mg"},{"bike_id":"7bb69c98-f58e-4250-8636-26f340667f8f","system_id":"levelo_inurba_marseille","lat":43.2901,"lon":5.381269,"is_reserved":false,"is_disabled":false,"rental_uris":{"android":"levelo://app?vid=7bb69c98-f58e-4250-8636-26f340667f8f","ios":"levelo://app?vid=7bb69c98-f58e-4250-8636-26f340667f8f"},"vehicle_type_id":"4","last_reported":1719940052,"current_range_meters":13600,"station_id":"ce4bh4p2rcd13ifvqe1g","pricing_plan_id":"cebpf4jnsgd1na2vs0mg"},{"bike_id":"1c8f55f9-ece9-4bd8-9bc7-4d5cb5e30670","system_id":"levelo_inurba_marseille","lat":43.28856,"lon":5.358371,"is_reserved":false,"is_disabled":false,"rental_uris":{"android":"levelo://app?vid=1c8f55f9-ece9-4bd8-9bc7-4d5cb5e30670","ios":"levelo://app?vid=1c8f55f9-ece9-4bd8-9bc7-4d5cb5e30670"},"vehicle_type_id":"4","last_reported":1719940052,"current_range_meters":22400,"station_id":"ce4bhb12rcd13ifvqem0","pricing_plan_id":"cebpf4jnsgd1na2vs0mg"},{"bike_id":"cf0ef334-4782-4943-ac4f-a5e1c33442ca","system_id":"levelo_inurba_marseille","lat":43.28856,"lon":5.358371,"is_reserved":false,"is_disabled":false,"rental_uris":{"android":"levelo://app?vid=cf0ef334-4782-4943-ac4f-a5e1c33442ca","ios":"levelo://app?vid=cf0ef334-4782-4943-ac4f-a5e1c33442ca"},"vehicle_type_id":"4","last_reported":1719940052,"current_range_meters":14000,"station_id":"ce4bhb12rcd13ifvqem0","pricing_plan_id":"cebpf4jnsgd1na2vs0mg"},{"bike_id":"a8be212a-59b2-4f96-b9c7-36995fcc1675","system_id":"levelo_inurba_marseille","lat":43.28856,"lon":5.358371,"is_reserved":false,"is_disabled":false,"rental_uris":{"android":"levelo://app?vid=a8be212a-59b2-4f96-b9c7-36995fcc1675","ios":"levelo://app?vid=a8be212a-59b2-4f96-b9c7-36995fcc1675"},"vehicle_type_id":"4","last_reported":1719940052,"current_range_meters":0,"station_id":"ce4bhb12rcd13ifvqem0","pricing_plan_id":"cebpf4jnsgd1na2vs0mg"},{"bike_id":"3e0eb6b0-f9c1-4742-a284-e6f97a517b89","system_id":"levelo_inurba_marseille","lat":43.31064,"lon":5.40103,"is_reserved":false,"is_disabled":false,"rental_uris":{"android":"levelo://app?vid=3e0eb6b0-f9c1-4742-a284-e6f97a517b89","ios":"levelo://app?vid=3e0eb6b0-f9c1-4742-a284-e6f97a517b89"},"vehicle_type_id":"4","last_reported":1719940052,"current_range_meters":4800,"station_id":"","pricing_plan_id":"cebpf4jnsgd1na2vs0mg"},{"bike_id":"24ce3e99-c641-4578-8af4-9ab83f4ac25a","system_id":"levelo_inurba_marseille","lat":43.28856,"lon":5.358371,"is_reserved":false,"is_disabled":false,"rental_uris":{"android":"levelo://app?vid=24ce3e99-c641-4578-8af4-9ab83f4ac25a","ios":"levelo://app?vid=24ce3e99-c641-4578-8af4-9ab83f4ac25a"},"vehicle_type_id":"4","last_reported":1719940052,"current_range_meters":0,"station_id":"ce4bhb12rcd13ifvqem0","pricing_plan_id":"cebpf4jnsgd1na2vs0mg"},{"bike_id":"2793a612-1327-49c5-8e33-6b616a1b50bf","system_id":"levelo_inurba_marseille","lat":43.28856,"lon":5.358371,"is_reserved":false,"is_disabled":false,"rental_uris":{"android":"levelo://app?vid=2793a612-1327-49c5-8e33-6b616a1b50bf","ios":"levelo://app?vid=2793a612-1327-49c5-8e33-6b616a1b50bf"},"vehicle_type_id":"4","last_reported":1719940052,"current_range_meters":6400,"station_id":"ce4bhb12rcd13ifvqem0","pricing_plan_id":"cebpf4jnsgd1na2vs0mg"},{"bike_id":"e1606a26-546d-4b2e-972d-0faf2db3a2e1","system_id":"levelo_inurba_marseille","lat":43.28856,"lon":5.358371,"is_reserved":false,"is_disabled":false,"rental_uris":{"android":"levelo://app?vid=e1606a26-546d-4b2e-972d-0faf2db3a2e1","ios":"levelo://app?vid=e1606a26-546d-4b2e-972d-0faf2db3a2e1"},"vehicle_type_id":"4","last_reported":1719940052,"current_range_meters":12400,"station_id":"ce4bhb12rcd13ifvqem0","pricing_plan_id":"cebpf4jnsgd1na2vs0mg"},{"bike_id":"67e32ea6-85d7-480a-9579-b132f7dc95a7","system_id":"levelo_inurba_marseille","lat":43.28856,"lon":5.358371,"is_reserved":false,"is_disabled":false,"rental_uris":{"android":"levelo://app?vid=67e32ea6-85d7-480a-9579-b132f7dc95a7","ios":"levelo://app?vid=67e32ea6-85d7-480a-9579-b132f7dc95a7"},"vehicle_type_id":"4","last_reported":1719940052,"current_range_meters":6800,"station_id":"ce4bhb12rcd13ifvqem0","pricing_plan_id":"cebpf4jnsgd1na2vs0mg"},{"bike_id":"bcb527ee-cae1-4d4c-8a7f-0b6f3b983c6b","system_id":"levelo_inurba_marseille","lat":43.28856,"lon":5.358371,"is_reserved":false,"is_disabled":false,"rental_uris":{"android":"levelo://app?vid=bcb527ee-cae1-4d4c-8a7f-0b6f3b983c6b","ios":"levelo://app?vid=bcb527ee-cae1-4d4c-8a7f-0b6f3b983c6b"},"vehicle_type_id":"4","last_reported":1719940052,"current_range_meters":4800,"station_id":"ce4bhb12rcd13ifvqem0","pricing_plan_id":"cebpf4jnsgd1na2vs0mg"},{"bike_id":"0fd579f4-504d-4867-aea2-ea6ad959aef4","system_id":"levelo_inurba_marseille","lat":43.28856,"lon":5.358371,"is_reserved":false,"is_disabled":false,"rental_uris":{"android":"levelo://app?vid=0fd579f4-504d-4867-aea2-ea6ad959aef4","ios":"levelo://app?vid=0fd579f4-504d-4867-aea2-ea6ad959aef4"},"vehicle_type_id":"4","last_reported":1719940052,"current_range_meters":4000,"station_id":"ce4bhb12rcd13ifvqem0","pricing_plan_id":"cebpf4jnsgd1na2vs0mg"},{"bike_id":"70f76d79-e788-433e-96c1-cf28fcac6938","system_id":"levelo_inurba_marseille","lat":43.28856,"lon":5.358371,"is_reserved":false,"is_disabled":false,"rental_uris":{"android":"levelo://app?vid=70f76d79-e788-433e-96c1-cf28fcac6938","ios":"levelo://app?vid=70f76d79-e788-433e-96c1-cf28fcac6938"},"vehicle_type_id":"4","last_reported":1719940052,"current_range_meters":2000,"station_id":"ce4bhb12rcd13ifvqem0","pricing_plan_id":"cebpf4jnsgd1na2vs0mg"},{"bike_id":"d68c7058-721d-4347-9437-906e5cd7d71f","system_id":"levelo_inurba_marseille","lat":43.28856,"lon":5.358371,"is_reserved":false,"is_disabled":false,"rental_uris":{"android":"levelo://app?vid=d68c7058-721d-4347-9437-906e5cd7d71f","ios":"levelo://app?vid=d68c7058-721d-4347-9437-906e5cd7d71f"},"vehicle_type_id":"4","last_reported":1719940052,"current_range_meters":2000,"station_id":"ce4bhb12rcd13ifvqem0","pricing_plan_id":"cebpf4jnsgd1na2vs0mg"},{"bike_id":"acf6398e-ea9c-4dff-bf37-11e9a2d560d4","system_id":"levelo_inurba_marseille","lat":43.28856,"lon":5.358371,"is_reserved":false,"is_disabled":false,"rental_uris":{"android":"levelo://app?vid=acf6398e-ea9c-4dff-bf37-11e9a2d560d4","ios":"levelo://app?vid=acf6398e-ea9c-4dff-bf37-11e9a2d560d4"},"vehicle_type_id":"4","last_reported":1719940052,"current_range_meters":14000,"station_id":"ce4bhb12rcd13ifvqem0","pricing_plan_id":"cebpf4jnsgd1na2vs0mg"},