{"last_updated":1747246424,"ttl":60,"version":"2.2","data":{"bikes":[{"bike_id":"c0b9fd4f-e181-46ce-b0bf-f5119973334f","system_id":"levelo_inurba_marseille","lat":43.33771,"lon":5.37424,"is_reserved":false,"is_disabled":false,"rental_uris":{"android":"levelo://app?vid=c0b9fd4f-e181-46ce-b0bf-f5119973334f","ios":"levelo://app?vid=c0b9fd4f-e181-46ce-b0bf-f5119973334f"},"vehicle_type_id":"4","last_reported":1747246424,"current_range_meters":18000,"station_id":"","pricing_plan_id":"cebpf4jnsgd1na2vs0mg"},{"bike_id":"3fae8334-a9d0-4ed3-aa20-0276813b60f6","system_id":"levelo_inurba_marseille","lat":43.26833,"lon":5.38444,"is_reserved":false,"is_disabled":true,"rental_uris":{"android":"levelo://app?vid=3fae8334-a9d0-4ed3-aa20-0276813b60f6","ios":"levelo://app?vid=3fae8334-a9d0-4ed3-aa20-0276813b60f6"},"vehicle_type_id":"4","last_reported":1747246424,"current_range_meters":0,"station_id":"","pricing_plan_id":"cebpf4jnsgd1na2vs0mg"},{"bike_id":"173fb44d-9730-4a64-8c00-f4ad4ef399d3","system_id":"levelo_inurba_marseille","lat":43.31819,"lon":5.38565,"is_reserved":false,"is_disabled":true,"rental_uris":{"android":"levelo://app?vid=173fb44d-9730-4a64-8c00-f4ad4ef399d3","ios":"levelo://app?vid=173fb44d-9730-4a64-8c00-f4ad4ef399d3"},"vehicle_type_id":"4","last_reported":1747246424,"current_range_meters":0,"station_id":"","pricing_plan_id":"cebpf4jnsgd1na2vs0mg"},{"bike_id":"fc2577e7-1497-425b-9d4f-ab8d7dc843c6","system_id":"levelo_inurba_marseille","lat":43.33771,"lon":5.37485,"is_reserved":false,"is_disabled":true,"rental_uris":{"android":"levelo://app?vid=fc2577e7-1497-425b-9d4f-ab8d7dc843c6","ios":"levelo://app?vid=fc2577e7-1497-425b-9d4f-ab8d7dc843c6"},"vehicle_type_id":"4","last_reported":1747246424,"current_range_meters":0,"station_id":"","pricing_plan_id":"cebpf4jnsgd1na2vs0mg"},{"bike_id":"0fedde00-40eb-40d2-8fc2-e61ecce46b7b","system_id":"levelo_inurba_marseille","lat":43.28313,"lon":5.43258,"is_reserved":false,"is_disabled":true,"rental_uris":{"android":"levelo://app?vid=0fedde00-40eb-40d2-8fc2-e61ecce46b7b","ios":"levelo://app?vid=0fedde00-40eb-40d2-8fc2-e61ecce46b7b"},"vehicle_type_id":"4","last_reported":1747246424,"current_range_meters":0,"station_id":"","pricing_plan_id":"cebpf4jnsgd1na2vs0mg"},{"bike_id":"16e98c4e-da7f-4160-a41d-37f546e0efaa","system_id":"levelo_inurba_marseille","lat":43.29567,"lon":5.3621,"is_reserved":false,"is_disabled":true,"rental_uris":{"android":"levelo://app?vid=16e98c4e-da7f-4160-a41d-37f546e0efaa","ios":"levelo://app?vid=16e98c4e-da7f-4160-a41d-37f546e0efaa"},"vehicle_type_id":"4","last_reported":1747246424,"current_range_meters":0,"station_id":"","pricing_plan_id":"cebpf4jnsgd1na2vs0mg"},{"bike_id":"792567c6-0442-4011-aff0-9c05e25deb48","system_id":"levelo_inurba_marseille","lat":43.28071,"lon":5.44168,"is_reserved":false,"is_disabled":true,"rental_uris":{"android":"levelo://app?vid=792567c6-0442-4011-aff0-9c05e25deb48","ios":"levelo://app?vid=792567c6-0442-4011-aff0-9c05e25deb48"},"vehicle_type_id":"4","last_reported":1747246424,"current_range_meters":0,"station_id":"","pricing_plan_id":"cebpf4jnsgd1na2vs0mg"},{"bike_id":"9451b84a-163d-49e3-bbf0-77ea7534e925","system_id":"levelo_inurba_marseille","lat":43.30653,"lon":5.40085,"is_reserved":false,"is_disabled":true,"rental_uris":{"android":"levelo://app?vid=9451b84a-163d-49e3-bbf0-77ea7534e925","ios":"levelo://app?vid=9451b84a-163d-49e3-bbf0-77ea7534e925"},"vehicle_type_id":"4","last_reported":1747246424,"current_range_meters":0,"station_id":"ce4bh112rcd13ifvqda0","pricing_plan_id":"cebpf4jnsgd1na2vs0mg"},{"bike_id":"955d9fc7-4763-4f6b-ba73-2005d028ec5d","system_id":"levelo_inurba_marseille","lat":43.2906,"lon":5.37586,"is_reserved":false,"is_disabled":true,"rental_uris":{"android":"levelo://app?vid=955d9fc7-4763-4f6b-ba73-2005d028ec5d","ios":"levelo://app?vid=955d9fc7-4763-4f6b-ba73-2005d028ec5d"},"vehicle_type_id":"4","last_reported":1747246424,"current_range_meters":0,"station_id":"ce4bh692rcd13ifvqe90","pricing_plan_id":"cebpf4jnsgd1na2vs0mg"},{"bike_id":"3d68e874-bfd3-4292-a502-0cd781056cac","system_id":"levelo_inurba_marseille","lat":43.27374,"lon":5.36256,"is_reserved":false,"is_disabled":true,"rental_uris":{"android":"levelo://app?vid=3d68e874-bfd3-4292-a502-0cd781056cac","ios":"levelo://app?vid=3d68e874-bfd3-4292-a502-0cd781056cac"},"vehicle_type_id":"4","last_reported":1747246424,"current_range_meters":0,"station_id":"ce4bhbh2rcd13ifvqeo0","pricing_plan_id":"cebpf4jnsgd1na2vs0mg"},{"bike_id":"cefada89-dceb-4f95-a6e1-57bc526c172c","system_id":"levelo_inurba_marseille","lat":43.27373,"lon":5.36248,"is_reserved":false,"is_disabled":true,"rental_uris":{"android":"levelo://app?vid=cefada89-dceb-4f95-a6e1-57bc526c172c","ios":"levelo://app?vid=cefada89-dceb-4f95-a6e1-57bc526c172c"},"vehicle_type_id":"4","last_reported":1747246424,"current_range_meters":0,"station_id":"ce4bhbh2rcd13ifvqeo0","pricing_plan_id":"cebpf4jnsgd1na2vs0mg"},{"bike_id":"9c70c815-12c9-47bb-a744-1210e17d993b","system_id":"levelo_inurba_marseille","lat":43.27379,"lon":5.36255,"is_reserved":false,"is_disabled":true,"rental_uris":{"android":"levelo://app?vid=9c70c815-12c9-47bb-a744-1210e17d993b","ios":"levelo://app?vid=9c70c815-12c9-47bb-a744-1210e17d993b"},"vehicle_type_id":"4","last_reported":1747246424,"current_range_meters":0,"station_id":"ce4bhbh2rcd13ifvqeo0","pricing_plan_id":"cebpf4jnsgd1na2vs0mg"},{"bike_id":"6053d98c-2520-4e86-b8d8-eb3aeb47a3f4","system_id":"levelo_inurba_marseille","lat":43.28616,"lon":5.35101,"is_reserved":false,"is_disabled":true,"rental_uris":{"android":"levelo://app?vid=6053d98c-2520-4e86-b8d8-eb3aeb47a3f4","ios":"levelo://app?vid=6053d98c-2520-4e86-b8d8-eb3aeb47a3f4"},"vehicle_type_id":"4","last_reported":1747246424,"current_range_meters":0,"station_id":"ce4bhch2rcd13ifvqeug","pricing_plan_id":"cebpf4jnsgd1na2vs0mg"},{"bike_id":"96b84cdd-5909-4e07-a5ee-88f79844cdf3","system_id":"levelo_inurba_marseille","lat":43.27906,"lon":5.39578,"is_reserved":false,"is_disabled":true,"rental_uris":{"android":"levelo://app?vid=96b84cdd-5909-4e07-a5ee-88f79844cdf3","ios":"levelo://app?vid=96b84cdd-5909-4e07-a5ee-88f79844cdf3"},"vehicle_type_id":"4","last_reported":1747246424,"current_range_meters":0,"station_id":"ce4bhf92rcd13ifvqf40","pricing_plan_id":"cebpf4jnsgd1na2vs0mg"},{"bike_id":"a70ebef5-8857-46a3-a373-d8f10a11e4a0","system_id":"levelo_inurba_marseille","lat":43.2119,"lon":5.35071,"is_reserved":false,"is_disabled":true,"rental_uris":{"android":"levelo://app?vid=a70ebef5-8857-46a3-a373-d8f10a11e4a0","ios":"levelo://app?vid=a70ebef5-8857-46a3-a373-d8f10a11e4a0"},"vehicle_type_id":"4","last_reported":1747246424,"current_range_meters":0,"station_id":"st_cvj6sg6p6f1abm77japg","pricing_plan_id":"cebpf4jnsgd1na2vs0mg"},{"bike_id":"fdf3acde-e444-4e95-87b2-0fcc87436dda","system_id":"levelo_inurba_marseille","lat":43.26565,"lon":5.39007,"is_reserved":false,"is_disabled":true,"rental_uris":{"android":"levelo://app?vid=fdf3acde-e444-4e95-87b2-0fcc87436dda","ios":"levelo://app?vid=fdf3acde-e444-4e95-87b2-0fcc87436dda"},"vehicle_type_id":"4","last_reported":1747246424,"current_range_meters":400,"station_id":"","pricing_plan_id":"cebpf4jnsgd1na2vs0mg"},{"bike_id":"fe59ee41-c721-42ae-a992-bdd46f4ca269","system_id":"levelo_inurba_marseille","lat":43.294035,"lon":5.373975,"is_reserved":false,"is_disabled":true,"rental_uris":{"android":"levelo://app?vid=fe59ee41-c721-42ae-a992-bdd46f4ca269","ios":"levelo://app?vid=fe59ee41-c721-42ae-a992-bdd46f4ca269"},"vehicle_type_id":"4","last_reported":1747246424,"current_range_meters":400,"station_id":"ce4bgi12rcd13ifvqb70","pricing_plan_id":"cebpf4jnsgd1na2vs0mg"},{"bike_id":"2f5e41f3-98ad-465f-b367-83c7c063759c","system_id":"levelo_inurba_marseille","lat":43.29932,"lon":5.36549,"is_reserved":false,"is_disabled":true,"rental_uris":{"android":"levelo://app?vid=2f5e41f3-98ad-465f-b367-83c7c063759c","ios":"levelo://app?vid=2f5e41f3-98ad-465f-b367-83c7c063759c"},"vehicle_type_id":"4","last_reported":1747246424,"current_range_meters":400,"station_id":"ce4bgm92rcd13ifvqbr0","pricing_plan_id":"cebpf4jnsgd1na2vs0mg"},{"bike_id":"c3dbf5d6-9355-4fa7-b815-33194d64ea25","system_id":"levelo_inurba_marseille","lat":43.27994,"lon":5.4166,"is_reserved":false,"is_disabled":true,"rental_uris":{"android":"levelo://app?vid=c3dbf5d6-9355-4fa7-b815-33194d64ea25","ios":"levelo://app?vid=c3dbf5d6-9355-4fa7-b815-33194d64ea25"},"vehicle_type_id":"4","last_reported":1747246424,"current_range_meters":400,"station_id":"ce4bho12rcd13ifvqh1g","pricing_plan_id":"cebpf4jnsgd1na2vs0mg"},{"bike_id":"b73bddf6-d9d1-4e8a-b9b3-2476d26b2d9c","system_id":"levelo_inurba_marseille","lat":43.294112,"lon":5.386297,"is_reserved":false,"is_disabled":true,"rental_uris":{"android":"levelo://app?vid=b73bddf6-d9d1-4e8a-b9b3-2476d26b2d9c","ios":"levelo://app?vid=b73bddf6-d9d1-4e8a-b9b3-2476d26b2d9c"},"vehicle_type_id":"4","last_reported":1747246424,"current_range_meters":800,"station_id":"","pricing_plan_id":"cebpf4jnsgd1na2vs0mg"},{"bike_id":"3522f741-1176-4fa4-8405-64bd977e5c1b","system_id":"levelo_inurba_marseille","lat":43.28443,"lon":5.37529,"is_reserved":false,"is_disabled":true,"rental_uris":{"android":"levelo://app?vid=3522f741-1176-4fa4-8405-64bd977e5c1b","ios":"levelo://app?vid=3522f741-1176-4fa4-8405-64bd977e5c1b"},"vehicle_type_id":"4","last_reported":1747246424,"current_range_meters":800,"station_id":"","pricing_plan_id":"cebpf4jnsgd1na2vs0mg"},{"bike_id":"a359fb19-2ed1-4d3f-aff5-25c050d5ca4b","system_id":"levelo_inurba_marseille","lat":43.29249,"lon":5.37627,"is_reserved":false,"is_disabled":true,"rental_uris":{"android":"levelo://app?vid=a359fb19-2ed1-4d3f-aff5-25c050d5ca4b","ios":"levelo://app?vid=a359fb19-2ed1-4d3f-aff5-25c050d5ca4b"},"vehicle_type_id":"4","last_reported":1747246424,"current_range_meters":800,"station_id":"ce4bgi12rcd13ifvqb80","pricing_plan_id":"cebpf4jnsgd1na2vs0mg"},{"bike_id":"6a7cd790-8edd-4a9d-821e-7022d9268a25","system_id":"levelo_inurba_marseille","lat":43.29204,"lon":5.35792,"is_reserved":false,"is_disabled":true,"rental_uris":{"android":"levelo://app?vid=6a7cd790-8edd-4a9d-821e-7022d9268a25","ios":"levelo://app?vid=6a7cd790-8edd-4a9d-821e-7022d9268a25"},"vehicle_type_id":"4","last_reported":1747246424,"current_range_meters":800,"station_id":"ce4bhb12rcd13ifvqel0","pricing_plan_id":"cebpf4jnsgd1na2vs0mg"},{"bike_id":"a5548f72-42a0-41a9-978e-38616539941b","system_id":"levelo_inurba_marseille","lat":43.26555,"lon":5.37282,"is_reserved":false,"is_disabled":true,"rental_uris":{"android":"levelo://app?vid=a5548f72-42a0-41a9-978e-38616539941b","ios":"levelo://app?vid=a5548f72-42a0-41a9-978e-38616539941b"},"vehicle_type_id":"4","last_reported":1747246424,"current_range_meters":800,"station_id":"ce4bhg12rcd13ifvqf70","pricing_plan_id":"cebpf4jnsgd1na2vs0mg"},{"bike_id":"aba5bac7-2edf-4a0f-a671-72913222699e","system_id":"levelo_inurba_marseille","lat":43.28609,"lon":5.37064,"is_reserved":false,"is_disabled":true,"rental_uris":{"android":"levelo://app?vid=aba5bac7-2edf-4a0f-a671-72913222699e","ios":"levelo://app?vid=aba5bac7-2edf-4a0f-a671-72913222699e"},"vehicle_type_id":"4","last_reported":1747246424,"current_range_meters":800,"station_id":"ce4bht12rcd13ifvqi60","pricing_plan_id":"cebpf4jnsgd1na2vs0mg"},{"bike_id":"0a20e84b-951f-45e6-a6c6-ac43e5c7ea07","system_id":"levelo_inurba_marseille","lat":43.29576,"lon":5.3675,"is_reserved":false,"is_disabled":true,"rental_uris":{"android":"levelo://app?vid=0a20e84b-951f-45e6-a6c6-ac43e5c7ea07","ios":"levelo://app?vid=0a20e84b-951f-45e6-a6c6-ac43e5c7ea07"},"vehicle_type_id":"4","last_reported":1747246424,"current_range_meters":1200,"station_id":"ce4bgph2rcd13ifvqc2g","pricing_plan_id":"cebpf4jnsgd1na2vs0mg"},{"bike_id":"bc4ee492-d3f2-4757-8601-e8b9f5b1b8a3","system_id":"levelo_inurba_marseille","lat":43.24995,"lon":5.38931,"is_reserved":false,"is_disabled":true,"rental_uris":{"android":"levelo://app?vid=bc4ee492-d3f2-4757-8601-e8b9f5b1b8a3","ios":"levelo://app?vid=bc4ee492-d3f2-4757-8601-e8b9f5b1b8a3"},"vehicle_type_id":"4","last_reported":1747246424,"current_range_meters":1200,"station_id":"ce4bhgp2rcd13ifvqfd0","pricing_plan_id":"cebpf4jnsgd1na2vs0mg"},{"bike_id":"f15e5755-3ad4-464d-9cf1-1394b901af7e","system_id":"levelo_inurba_marseille","lat":43.29972,"lon":5.37174,"is_reserved":false,"is_disabled":true,"rental_uris":{"android":"levelo://app?vid=f15e5755-3ad4-464d-9cf1-1394b901af7e","ios":"levelo://app?vid=f15e5755-3ad4-464d-9cf1-1394b901af7e"},"vehicle_type_id":"4","last_reported":1747246424,"current_range_meters":1600,"station_id":"ce4bgr92rcd13ifvqc7g","pricing_plan_id":"cebpf4jnsgd1na2vs0mg"},{"bike_id":"78ea3e1c-ba62-4be9-b5a5-cd14465b2a9a","system_id":"levelo_inurba_marseille","lat":43.29261,"lon":5.38422,"is_reserved":false,"is_disabled":true,"rental_uris":{"android":"levelo://app?vid=78ea3e1c-ba62-4be9-b5a5-cd14465b2a9a","ios":"levelo://app?vid=78ea3e1c-ba62-4be9-b5a5-cd14465b2a9a"},"vehicle_type_id":"4","last_reported":1747246424,"current_range_meters":1600,"station_id":"ce4bh692rcd13ifvqea0","pricing_plan_id":"cebpf4jnsgd1na2vs0mg"},{"bike_id":"baa8477f-e1d4-4481-b6c7-99682467b75c","system_id":"levelo_inurba_marseille","lat":43.255034,"lon":5.376473,"is_reserved":false,"is_disabled":true,"rental_uris":{"android":"levelo://app?vid=baa8477f-e1d4-4481-b6c7-99682467b75c","ios":"levelo://app?vid=baa8477f-e1d4-4481-b6c7-99682467b75c"},"vehicle_type_id":"4","last_reported":1747246424,"current_range_meters":1600,"station_id":"ce4bhh12rcd13ifvqff0","pricing_plan_id":"cebpf4jnsgd1na2vs0mg"},{"bike_id":"641f2eb0-f475-4afe-9f1d-99c44ad80ba0","system_id":"levelo_inurba_marseille","lat":43.27048,"lon":5.4026,"is_reserved":false,"is_disabled":true,"rental_uris":{"android":"levelo://app?vid=641f2eb0-f475-4afe-9f1d-99c44ad80ba0","ios":"levelo://app?vid=641f2eb0-f475-4afe-9f1d-99c44ad80ba0"},"vehicle_type_id":"4","last_reported":1747246424,"current_range_meters":1600,"station_id":"ce4bhk92rcd13ifvqgc0","pricing_plan_id":"cebpf4jnsgd1na2vs0mg"},{"bike_id":"57ddeb2b-38aa-457b-9ea6-1c47cf7c50f9","system_id":"levelo_inurba_marseille","lat":43.288,"lon":5.38266,"is_reserved":false,"is_disabled":true,"rental_uris":{"android":"levelo://app?vid=57ddeb2b-38aa-457b-9ea6-1c47cf7c50f9","ios":"levelo://app?vid=57ddeb2b-38aa-457b-9ea6-1c47cf7c50f9"},"vehicle_type_id":"4","last_reported":1747246424,"current_range_meters":2000,"station_id":"","pricing_plan_id":"cebpf4jnsgd1na2vs0mg"},{"bike_id":"560c10a9-58b6-40d3-acf5-5e963f6a9ebd","system_id":"levelo_inurba_marseille","lat":43.28945,"lon":5.36634,"is_reserved":false,"is_disabled":true,"rental_uris":{"android":"levelo://app?vid=560c10a9-58b6-40d3-acf5-5e963f6a9ebd","ios":"levelo://app?vid=560c10a9-58b6-40d3-acf5-5e963f6a9ebd"},"vehicle_type_id":"4","last_reported":1747246424,"current_range_meters":2000,"station_id":"ce4bhap2rcd13ifvqek0","pricing_plan_id":"cebpf4jnsgd1na2vs0mg"},{"bike_id":"cd5e9cd1-fdde-4a4b-91da-23b3dbca4add","system_id":"levelo_inurba_marseille","lat":43.28276,"lon":5.35075,"is_reserved":false,"is_disabled":true,"rental_uris":{"android":"levelo://app?vid=cd5e9cd1-fdde-4a4b-91da-23b3dbca4add","ios":"levelo://app?vid=cd5e9cd1-fdde-4a4b-91da-23b3dbca4add"},"vehicle_type_id":"4","last_reported":1747246424,"current_range_meters":2000,"station_id":"ce4bhbp2rcd13ifvqerg","pricing_plan_id":"cebpf4jnsgd1na2vs0mg"},{"bike_id":"747e6e77-d0b5-4668-821d-2cd546ad49f6","system_id":"levelo_inurba_marseille","lat":43.27913,"lon":5.39582,"is_reserved":false,"is_disabled":true,"rental_uris":{"android":"levelo://app?vid=747e6e77-d0b5-4668-821d-2cd546ad49f6","ios":"levelo://app?vid=747e6e77-d0b5-4668-821d-2cd546ad49f6"},"vehicle_type_id":"4","last_reported":1747246424,"current_range_meters":2000,"station_id":"ce4bhf92rcd13ifvqf40","pricing_plan_id":"cebpf4jnsgd1na2vs0mg"},{"bike_id":"6b930718-68a9-4469-ae1b-e978c9eb0001","system_id":"levelo_inurba_marseille","lat":43.3055,"lon":5.36561,"is_reserved":false,"is_disabled":true,"rental_uris":{"android":"levelo://app?vid=6b930718-68a9-4469-ae1b-e978c9eb0001","ios":"levelo://app?vid=6b930718-68a9-4469-ae1b-e978c9eb0001"},"vehicle_type_id":"4","last_reported":1747246424,"current_range_meters":2800,"station_id":"ce4bgs12rcd13ifvqcag","pricing_plan_id":"cebpf4jnsgd1na2vs0mg"},{"bike_id":"edf260c1-dbb9-4d41-bc3a-000e4b2ca16e","system_id":"levelo_inurba_marseille","lat":43.31328,"lon":5.39692,"is_reserved":false,"is_disabled":false,"rental_uris":{"android":"levelo://app?vid=edf260c1-dbb9-4d41-bc3a-000e4b2ca16e","ios":"levelo://app?vid=edf260c1-dbb9-4d41-bc3a-000e4b2ca16e"},"vehicle_type_id":"4","last_reported":1747246424,"current_range_meters":3200,"station_id":"ce4bgvp2rcd13ifvqcu0","pricing_plan_id":"cebpf4jnsgd1na2vs0mg"},{"bike_id":"eb28d79e-7daa-45c6-91fc-9df04053d97e","system_id":"levelo_inurba_marseille","lat":43.29203,"lon":5.39322,"is_reserved":false,"is_disabled":false,"rental_uris":{"android":"levelo://app?vid=eb28d79e-7daa-45c6-91fc-9df04053d97e","ios":"levelo://app?vid=eb28d79e-7daa-45c6-91fc-9df04053d97e"},"vehicle_type_id":"4","last_reported":1747246424,"current_range_meters":3200,"station_id":"ce4bh192rcd13ifvqdd0","pricing_plan_id":"cebpf4jnsgd1na2vs0mg"},{"bike_id":"e40bfcc7-683b-4f5f-b0cc-ad57fa3d60c7","system_id":"levelo_inurba_marseille","lat":43.29513,"lon":5.39404,"is_reserved":false,"is_disabled":false,"rental_uris":{"android":"levelo://app?vid=e40bfcc7-683b-4f5f-b0cc-ad57fa3d60c7","ios":"levelo://app?vid=e40bfcc7-683b-4f5f-b0cc-ad57fa3d60c7"},"vehicle_type_id":"4","last_reported":1747246424,"current_range_meters":3200,"station_id":"ce4bh292rcd13ifvqdf0","pricing_plan_id":"cebpf4jnsgd1na2vs0mg"},{"bike_id":"9f305844-3678-4665-97f6-4c5dc92dd9f1","system_id":"levelo_inurba_marseille","lat":43.30421,"lon":5.39743,"is_reserved":false,"is_disabled":false,"rental_uris":{"android":"levelo://app?vid=9f305844-3678-4665-97f6-4c5dc92dd9f1","ios":"levelo://app?vid=9f305844-3678-4665-97f6-4c5dc92dd9f1"},"vehicle_type_id":"4","last_reported":1747246424,"current_range_meters":3600,"station_id":"ce4bh092rcd13ifvqd20","pricing_plan_id":"cebpf4jnsgd1na2vs0mg"},{"bike_id":"f80a05a0-0d76-4c7b-bb0c-95f25d6890fa","system_id":"levelo_inurba_marseille","lat":43.29055,"lon":5.35927,"is_reserved":false,"is_disabled":false,"rental_uris":{"android":"levelo://app?vid=f80a05a0-0d76-4c7b-bb0c-95f25d6890fa","ios":"levelo://app?vid=f80a05a0-0d76-4c7b-bb0c-95f25d6890fa"},"vehicle_type_id":"4","last_reported":1747246424,"current_range_meters":3600,"station_id":"ce4bha92rcd13ifvqeg0","pricing_plan_id":"cebpf4jnsgd1na2vs0mg"},{"bike_id":"589e118f-5264-44fd-92a2-dcfb62e0dfaa","system_id":"levelo_inurba_marseille","lat":43.24664,"lon":5.38162,"is_reserved":false,"is_disabled":false,"rental_uris":{"android":"levelo://app?vid=589e118f-5264-44fd-92a2-dcfb62e0dfaa","ios":"levelo://app?vid=589e118f-5264-44fd-92a2-dcfb62e0dfaa"},"vehicle_type_id":"4","last_reported":1747246424,"current_range_meters":3600,"station_id":"ce4bhih2rcd13ifvqfr0","pricing_plan_id":"cebpf4jnsgd1na2vs0mg"},{"bike_id":"ef6238af-bc50-4f20-b935-d25ec9d21423","system_id":"levelo_inurba_marseille","lat":43.31712,"lon":5.43708,"is_reserved":false,"is_disabled":false,"rental_uris":{"android":"levelo://app?vid=ef6238af-bc50-4f20-b935-d25ec9d21423","ios":"levelo://app?vid=ef6238af-bc50-4f20-b935-d25ec9d21423"},"vehicle_type_id":"4","last_reported":1747246424,"current_range_meters":3600,"station_id":"ce4bhp92rcd13ifvqhcg","pricing_plan_id":"cebpf4jnsgd1na2vs0mg"},{"bike_id":"3b131a46-ab32-472d-baff-f62cad42ba10","system_id":"levelo_inurba_marseille","lat":43.284135,"lon":5.375138,"is_reserved":false,"is_disabled":false,"rental_uris":{"android":"levelo://app?vid=3b131a46-ab32-472d-baff-f62cad42ba10","ios":"levelo://app?vid=3b131a46-ab32-472d-baff-f62cad42ba10"},"vehicle_type_id":"4","last_reported":1747246424,"current_range_meters":4000,"station_id":"ce4bh412rcd13ifvqds0","pricing_plan_id":"cebpf4jnsgd1na2vs0mg"},{"bike_id":"6ea3ae3a-2149-43e1-a077-c95dcc818eb3","system_id":"levelo_inurba_marseille","lat":43.25718,"lon":5.41095,"is_reserved":false,"is_disabled":false,"rental_uris":{"android":"levelo://app?vid=6ea3ae3a-2149-43e1-a077-c95dcc818eb3","ios":"levelo://app?vid=6ea3ae3a-2149-43e1-a077-c95dcc818eb3"},"vehicle_type_id":"4","last_reported":1747246424,"current_range_meters":4000,"station_id":"ce4bhkp2rcd13ifvqgd0","pricing_plan_id":"cebpf4jnsgd1na2vs0mg"},{"bike_id":"8e878946-a94b-4fe1-85ba-0d4acbffc095","system_id":"levelo_inurba_marseille","lat":43.27493,"lon":5.42448,"is_reserved":false,"is_disabled":false,"rental_uris":{"android":"levelo://app?vid=8e878946-a94b-4fe1-85ba-0d4acbffc095","ios":"levelo://app?vid=8e878946-a94b-4fe1-85ba-0d4acbffc095"},"vehicle_type_id":"4","last_reported":1747246424,"current_range_meters":4000,"station_id":"ce4bhn92rcd13ifvqgrg","pricing_plan_id":"cebpf4jnsgd1na2vs0mg"},{"bike_id":"85164947-0c61-4f8e-9f6b-73cac6af32eb","system_id":"levelo_inurba_marseille","lat":43.31716,"lon":5.43698,"is_reserved":false,"is_disabled":false,"rental_uris":{"android":"levelo://app?vid=85164947-0c61-4f8e-9f6b-73cac6af32eb","ios":"levelo://app?vid=85164947-0c61-4f8e-9f6b-73cac6af32eb"},"vehicle_type_id":"4","last_reported":1747246424,"current_range_meters":4000,"station_id":"ce4bhp92rcd13ifvqhcg","pricing_plan_id":"cebpf4jnsgd1na2vs0mg"},{"bike_id":"95b9651b-24ca-40ef-a319-3d06e507e536","system_id":"levelo_inurba_marseille","lat":43.31106,"lon":5.39007,"is_reserved":false,"is_disabled":false,"rental_uris":{"android":"levelo://app?vid=95b9651b-24ca-40ef-a319-3d06e507e536","ios":"levelo://app?vid=95b9651b-24ca-40ef-a319-3d06e507e536"},"vehicle_type_id":"4","last_reported":1747246424,"current_range_meters":4400,"station_id":"","pricing_plan_id":"cebpf4jnsgd1na2vs0mg"},{"bike_id":"32122cc2-1955-4fa7-b923-e772e4a9638a","system_id":"levelo_inurba_marseille","lat":43.29555,"lon":5.42293,"is_reserved":false,"is_disabled":false,"rental_uris":{"android":"levelo://app?vid=32122cc2-1955-4fa7-b923-e772e4a9638a","ios":"levelo://app?vid=32122cc2-1955-4fa7-b923-e772e4a9638a"},"vehicle_type_id":"4","last_reported":1747246424,"current_range_meters":4400,"station_id":"ce4bhph2rcd13ifvqhdg","pricing_plan_id":"cebpf4jnsgd1na2vs0mg"},{"bike_id":"98a32ada-4ae2-44ba-8441-138cec8691c4","system_id":"levelo_inurba_marseille","lat":43.29523,"lon":5.38546,"is_reserved":false,"is_disabled":false,"rental_uris":{"android":"levelo://app?vid=98a32ada-4ae2-44ba-8441-138cec8691c4","ios":"levelo://app?vid=98a32ada-4ae2-44ba-8441-138cec8691c4"},"vehicle_type_id":"4","last_reported":1747246424,"current_range_meters":4800,"station_id":"ce4bgih2rcd13ifvqba0","pricing_plan_id":"cebpf4jnsgd1na2vs0mg"},{"bike_id":"8a24d84e-ec1e-4a7c-aa35-00fa560e7032","system_id":"levelo_inurba_marseille","lat":43.31327,"lon":5.39685,"is_reserved":false,"is_disabled":false,"rental_uris":{"android":"levelo://app?vid=8a24d84e-ec1e-4a7c-aa35-00fa560e7032","ios":"levelo://app?vid=8a24d84e-ec1e-4a7c-aa35-00fa560e7032"},"vehicle_type_id":"4","last_reported":1747246424,"current_range_meters":4800,"station_id":"ce4bgvp2rcd13ifvqcu0","pricing_plan_id":"cebpf4jnsgd1na2vs0mg"},{"bike_id":"148cc4f9-eb09-45d6-a3d4-553b37fe7553","system_id":"levelo_inurba_marseille","lat":43.25102,"lon":5.40324,"is_reserved":false,"is_disabled":false,"rental_uris":{"android":"levelo://app?vid=148cc4f9-eb09-45d6-a3d4-553b37fe7553","ios":"levelo://app?vid=148cc4f9-eb09-45d6-a3d4-553b37fe7553"},"vehicle_type_id":"4","last_reported":1747246424,"current_range_meters":4800,"station_id":"ce4bhlh2rcd13ifvqgig","pricing_plan_id":"cebpf4jnsgd1na2vs0mg"},{"bike_id":"b557a11a-ee1b-4c2b-875f-57f43f30a7f5","system_id":"levelo_inurba_marseille","lat":43.241821,"lon":5.397225,"is_reserved":false,"is_disabled":false,"rental_uris":{"android":"levelo://app?vid=b557a11a-ee1b-4c2b-875f-57f43f30a7f5","ios":"levelo://app?vid=b557a11a-ee1b-4c2b-875f-57f43f30a7f5"},"vehicle_type_id":"4","last_reported":1747246424,"current_range_meters":4800,"station_id":"ce4bhn12rcd13ifvqgpg","pricing_plan_id":"cebpf4jnsgd1na2vs0mg"},{"bike_id":"ce4325af-2448-4172-bdec-81d552ee0b62","system_id":"levelo_inurba_marseille","lat":43.261703,"lon":5.42021,"is_reserved":false,"is_disabled":false,"rental_uris":{"android":"levelo://app?vid=ce4325af-2448-4172-bdec-81d552ee0b62","ios":"levelo://app?vid=ce4325af-2448-4172-bdec-81d552ee0b62"},"vehicle_type_id":"4","last_reported":1747246424,"current_range_meters":5600,"station_id":"","pricing_plan_id":"cebpf4jnsgd1na2vs0mg"},{"bike_id":"96d0275a-ccec-4de6-ad25-67ea77d4c332","system_id":"levelo_inurba_marseille","lat":43.29718,"lon":5.40041,"is_reserved":false,"is_disabled":false,"rental_uris":{"android":"levelo://app?vid=96d0275a-ccec-4de6-ad25-67ea77d4c332","ios":"levelo://app?vid=96d0275a-ccec-4de6-ad25-67ea77d4c332"},"vehicle_type_id":"4","last_reported":1747246424,"current_range_meters":5600,"station_id":"","pricing_plan_id":"cebpf4jnsgd1na2vs0mg"},{"bike_id":"f4649f5f-f530-4ba1-955e-c7492859325b","system_id":"levelo_inurba_marseille","lat":43.28934,"lon":5.38397,"is_reserved":false,"is_disabled":false,"rental_uris":{"android":"levelo://app?vid=f4649f5f-f530-4ba1-955e-c7492859325b","ios":"levelo://app?vid=f4649f5f-f530-4ba1-955e-c7492859325b"},"vehicle_type_id":"4","last_reported":1747246424,"current_range_meters":5600,"station_id":"ce4bh612rcd13ifvqe6g","pricing_plan_id":"cebpf4jnsgd1na2vs0mg"},{"bike_id":"6241b7d5-0ec2-4b76-9525-8dee2770b1d4","system_id":"levelo_inurba_marseille","lat":43.28611,"lon":5.35109,"is_reserved":false,"is_disabled":false,"rental_uris":{"android":"levelo://app?vid=6241b7d5-0ec2-4b76-9525-8dee2770b1d4","ios":"levelo://app?vid=6241b7d5-0ec2-4b76-9525-8dee2770b1d4"},"vehicle_type_id":"4","last_reported":1747246424,"current_range_meters":5600,"station_id":"ce4bhch2rcd13ifvqeug","pricing_plan_id":"cebpf4jnsgd1na2vs0mg"},{"bike_id":"54bff39a-b092-4699-9eaa-6cc701ab229f","system_id":"levelo_inurba_marseille","lat":43.27943,"lon":5.41051,"is_reserved":false,"is_disabled":false,"rental_uris":{"android":"levelo://app?vid=54bff39a-b092-4699-9eaa-6cc701ab229f","ios":"levelo://app?vid=54bff39a-b092-4699-9eaa-6cc701ab229f"},"vehicle_type_id":"4","last_reported":1747246424,"current_range_meters":5600,"station_id":"ce4bhnp2rcd13ifvqh0g","pricing_plan_id":"cebpf4jnsgd1na2vs0mg"},{"bike_id":"1e617839-1167-4a92-9580-b1d84de92983","system_id":"levelo_inurba_marseille","lat":43.279992,"lon":5.416599,"is_reserved":false,"is_disabled":false,"rental_uris":{"android":"levelo://app?vid=1e617839-1167-4a92-9580-b1d84de92983","ios":"levelo://app?vid=1e617839-1167-4a92-9580-b1d84de92983"},"vehicle_type_id":"4","last_reported":1747246424,"current_range_meters":5600,"station_id":"ce4bho12rcd13ifvqh1g","pricing_plan_id":"cebpf4jnsgd1na2vs0mg"},{"bike_id":"340668d1-5a5d-4701-98ab-a107e93206ba","system_id":"levelo_inurba_marseille","lat":43.2417,"lon":5.36389,"is_reserved":false,"is_disabled":false,"rental_uris":{"android":"levelo://app?vid=340668d1-5a5d-4701-98ab-a107e93206ba","ios":"levelo://app?vid=340668d1-5a5d-4701-98ab-a107e93206ba"},"vehicle_type_id":"4","last_reported":1747246424,"current_range_meters":5600,"station_id":"cpo36qri1sfpv3e86is0","pricing_plan_id":"cebpf4jnsgd1na2vs0mg"},{"bike_id":"5c95ce0c-847b-4b7b-9950-64fda5cb8694","system_id":"levelo_inurba_marseille","lat":43.28933,"lon":5.36653,"is_reserved":false,"is_disabled":false,"rental_uris":{"android":"levelo://app?vid=5c95ce0c-847b-4b7b-9950-64fda5cb8694","ios":"levelo://app?vid=5c95ce0c-847b-4b7b-9950-64fda5cb8694"},"vehicle_type_id":"4","last_reported":1747246424,"current_range_meters":6000,"station_id":"ce4bhap2rcd13ifvqek0","pricing_plan_id":"cebpf4jnsgd1na2vs0mg"},{"bike_id":"3ac3022a-ef99-4f01-9983-a76b5925bb2b","system_id":"levelo_inurba_marseille","lat":43.26679,"lon":5.38277,"is_reserved":false,"is_disabled":false,"rental_uris":{"android":"levelo://app?vid=3ac3022a-ef99-4f01-9983-a76b5925bb2b","ios":"levelo://app?vid=3ac3022a-ef99-4f01-9983-a76b5925bb2b"},"vehicle_type_id":"4","last_reported":1747246424,"current_range_meters":6000,"station_id":"ce4bhg92rcd13ifvqf90","pricing_plan_id":"cebpf4jnsgd1na2vs0mg"},{"bike_id":"f16a6a16-e390-45a5-bd81-cfecd659ed7d","system_id":"levelo_inurba_marseille","lat":43.25571,"lon":5.38236,"is_reserved":false,"is_disabled":false,"rental_uris":{"android":"levelo://app?vid=f16a6a16-e390-45a5-bd81-cfecd659ed7d","ios":"levelo://app?vid=f16a6a16-e390-45a5-bd81-cfecd659ed7d"},"vehicle_type_id":"4","last_reported":1747246424,"current_range_meters":6000,"station_id":"ce4bhih2rcd13ifvqfs0","pricing_plan_id":"cebpf4jnsgd1na2vs0mg"},{"bike_id":"39f40186-b53a-4a97-a3fc-e431cc41b89e","system_id":"levelo_inurba_marseille","lat":43.24146,"lon":5.36387,"is_reserved":false,"is_disabled":false,"rental_uris":{"android":"levelo://app?vid=39f40186-b53a-4a97-a3fc-e431cc41b89e","ios":"levelo://app?vid=39f40186-b53a-4a97-a3fc-e431cc41b89e"},"vehicle_type_id":"4","last_reported":1747246424,"current_range_meters":6000,"station_id":"cpo36qri1sfpv3e86is0","pricing_plan_id":"cebpf4jnsgd1na2vs0mg"},{"bike_id":"6953ca09-b1d0-473e-8b94-d568eb1a7f43","system_id":"levelo_inurba_marseille","lat":43.28857,"lon":5.37135,"is_reserved":false,"is_disabled":false,"rental_uris":{"android":"levelo://app?vid=6953ca09-b1d0-473e-8b94-d568eb1a7f43","ios":"levelo://app?vid=6953ca09-b1d0-473e-8b94-d568eb1a7f43"},"vehicle_type_id":"4","last_reported":1747246424,"current_range_meters":6400,"station_id":"","pricing_plan_id":"cebpf4jnsgd1na2vs0mg"},{"bike_id":"6426a045-070a-4132-a5f4-d2c3ad0a2ff1","system_id":"levelo_inurba_marseille","lat":43.3078,"lon":5.376547,"is_reserved":false,"is_disabled":false,"rental_uris":{"android":"levelo://app?vid=6426a045-070a-4132-a5f4-d2c3ad0a2ff1","ios":"levelo://app?vid=6426a045-070a-4132-a5f4-d2c3ad0a2ff1"},"vehicle_type_id":"4","last_reported":1747246424,"current_range_meters":6400,"station_id":"ce4bgv92rcd13ifvqcq0","pricing_plan_id":"cebpf4jnsgd1na2vs0mg"},{"bike_id":"52cf8110-c226-4602-85c9-41d45f37a07b","system_id":"levelo_inurba_marseille","lat":43.30787,"lon":5.37653,"is_reserved":false,"is_disabled":false,"rental_uris":{"android":"levelo://app?vid=52cf8110-c226-4602-85c9-41d45f37a07b","ios":"levelo://app?vid=52cf8110-c226-4602-85c9-41d45f37a07b"},"vehicle_type_id":"4","last_reported":1747246424,"current_range_meters":6400,"station_id":"ce4bgv92rcd13ifvqcq0","pricing_plan_id":"cebpf4jnsgd1na2vs0mg"},{"bike_id":"899ba1ed-3ffe-407a-86d7-03354195fe50","system_id":"levelo_inurba_marseille","lat":43.28357,"lon":5.38607,"is_reserved":false,"is_disabled":false,"rental_uris":{"android":"levelo://app?vid=899ba1ed-3ffe-407a-86d7-03354195fe50","ios":"levelo://app?vid=899ba1ed-3ffe-407a-86d7-03354195fe50"},"vehicle_type_id":"4","last_reported":1747246424,"current_range_meters":6400,"station_id":"ce4bh492rcd13ifvqdvg","pricing_plan_id":"cebpf4jnsgd1na2vs0mg"},{"bike_id":"0e104cc7-17a1-4e7f-9ea8-66c89e37f68b","system_id":"levelo_inurba_marseille","lat":43.29036,"lon":5.35906,"is_reserved":false,"is_disabled":false,"rental_uris":{"android":"levelo://app?vid=0e104cc7-17a1-4e7f-9ea8-66c89e37f68b","ios":"levelo://app?vid=0e104cc7-17a1-4e7f-9ea8-66c89e37f68b"},"vehicle_type_id":"4","last_reported":1747246424,"current_range_meters":6400,"station_id":"ce4bha92rcd13ifvqeg0","pricing_plan_id":"cebpf4jnsgd1na2vs0mg"},{"bike_id":"b0637f49-6733-43af-b3d1-1c02b3cb0550","system_id":"levelo_inurba_marseille","lat":43.26558,"lon":5.37282,"is_reserved":false,"is_disabled":false,"rental_uris":{"android":"levelo://app?vid=b0637f49-6733-43af-b3d1-1c02b3cb0550","ios":"levelo://app?vid=b0637f49-6733-43af-b3d1-1c02b3cb0550"},"vehicle_type_id":"4","last_reported":1747246424,"current_range_meters":6400,"station_id":"ce4bhg12rcd13ifvqf70","pricing_plan_id":"cebpf4jnsgd1na2vs0mg"},{"bike_id":"8178438a-5b97-4d14-b404-33757e54aa77","system_id":"levelo_inurba_marseille","lat":43.28162,"lon":5.42635,"is_reserved":false,"is_disabled":false,"rental_uris":{"android":"levelo://app?vid=8178438a-5b97-4d14-b404-33757e54aa77","ios":"levelo://app?vid=8178438a-5b97-4d14-b404-33757e54aa77"},"vehicle_type_id":"4","last_reported":1747246424,"current_range_meters":6400,"station_id":"ce4bhnh2rcd13ifvqgug","pricing_plan_id":"cebpf4jnsgd1na2vs0mg"},{"bike_id":"5de1e8df-cec1-47cf-b554-41f6e726d337","system_id":"levelo_inurba_marseille","lat":43.27435,"lon":5.40609,"is_reserved":false,"is_disabled":false,"rental_uris":{"android":"levelo://app?vid=5de1e8df-cec1-47cf-b554-41f6e726d337","ios":"levelo://app?vid=5de1e8df-cec1-47cf-b554-41f6e726d337"},"vehicle_type_id":"4","last_reported":1747246424,"current_range_meters":6800,"station_id":"","pricing_plan_id":"cebpf4jnsgd1na2vs0mg"},{"bike_id":"3909a31b-7d53-49e9-9495-163347e79cac","system_id":"levelo_inurba_marseille","lat":43.29842,"lon":5.36292,"is_reserved":false,"is_disabled":false,"rental_uris":{"android":"levelo://app?vid=3909a31b-7d53-49e9-9495-163347e79cac","ios":"levelo://app?vid=3909a31b-7d53-49e9-9495-163347e79cac"},"vehicle_type_id":"4","last_reported":1747246424,"current_range_meters":6800,"station_id":"ce4bgpp2rcd13ifvqc3g","pricing_plan_id":"cebpf4jnsgd1na2vs0mg"},{"bike_id":"f37b7848-b34f-4203-8cd6-ee4ac88ff930","system_id":"levelo_inurba_marseille","lat":43.23968,"lon":5.3662,"is_reserved":false,"is_disabled":false,"rental_uris":{"android":"levelo://app?vid=f37b7848-b34f-4203-8cd6-ee4ac88ff930","ios":"levelo://app?vid=f37b7848-b34f-4203-8cd6-ee4ac88ff930"},"vehicle_type_id":"4","last_reported":1747246424,"current_range_meters":6800,"station_id":"ce4bhi12rcd13ifvqfp0","pricing_plan_id":"cebpf4jnsgd1na2vs0mg"},{"bike_id":"31d91c88-22a2-4d7a-b03a-10d375fa00b2","system_id":"levelo_inurba_marseille","lat":43.24077,"lon":5.37753,"is_reserved":false,"is_disabled":false,"rental_uris":{"android":"levelo://app?vid=31d91c88-22a2-4d7a-b03a-10d375fa00b2","ios":"levelo://app?vid=31d91c88-22a2-4d7a-b03a-10d375fa00b2"},"vehicle_type_id":"4","last_reported":1747246424,"current_range_meters":6800,"station_id":"ce4bhnp2rcd13ifvqgvg","pricing_plan_id":"cebpf4jnsgd1na2vs0mg"},{"bike_id":"047624d7-ebbb-485a-b59e-99175483d65c","system_id":"levelo_inurba_marseille","lat":43.31712,"lon":5.43697,"is_reserved":false,"is_disabled":false,"rental_uris":{"android":"levelo://app?vid=047624d7-ebbb-485a-b59e-99175483d65c","ios":"levelo://app?vid=047624d7-ebbb-485a-b59e-99175483d65c"},"vehicle_type_id":"4","last_reported":1747246424,"current_range_meters":6800,"station_id":"ce4bhp92rcd13ifvqhcg","pricing_plan_id":"cebpf4jnsgd1na2vs0mg"},{"bike_id":"849a2b85-7732-4639-828a-b1e5d35ec2e3","system_id":"levelo_inurba_marseille","lat":43.29598,"lon":5.38105,"is_reserved":false,"is_disabled":false,"rental_uris":{"android":"levelo://app?vid=849a2b85-7732-4639-828a-b1e5d35ec2e3","ios":"levelo://app?vid=849a2b85-7732-4639-828a-b1e5d35ec2e3"},"vehicle_type_id":"4","last_reported":1747246424,"current_range_meters":7200,"station_id":"ce4bgl12rcd13ifvqbo0","pricing_plan_id":"cebpf4jnsgd1na2vs0mg"},{"bike_id":"faaea968-c001-4f5b-bb48-33f769b79d7c","system_id":"levelo_inurba_marseille","lat":43.2924,"lon":5.35784,"is_reserved":false,"is_disabled":false,"rental_uris":{"android":"levelo://app?vid=faaea968-c001-4f5b-bb48-33f769b79d7c","ios":"levelo://app?vid=faaea968-c001-4f5b-bb48-33f769b79d7c"},"vehicle_type_id":"4","last_reported":1747246424,"current_range_meters":7200,"station_id":"ce4bhb12rcd13ifvqel0","pricing_plan_id":"cebpf4jnsgd1na2vs0mg"},{"bike_id":"6baf8688-09eb-476b-be8c-c215426bad6b","system_id":"levelo_inurba_marseille","lat":43.25526,"lon":5.37649,"is_reserved":false,"is_disabled":false,"rental_uris":{"android":"levelo://app?vid=6baf8688-09eb-476b-be8c-c215426bad6b","ios":"levelo://app?vid=6baf8688-09eb-476b-be8c-c215426bad6b"},"vehicle_type_id":"4","last_reported":1747246424,"current_range_meters":7200,"station_id":"ce4bhh12rcd13ifvqff0","pricing_plan_id":"cebpf4jnsgd1na2vs0mg"},{"bike_id":"8627ad2c-18c3-4371-b797-50bdcc08edbf","system_id":"levelo_inurba_marseille","lat":43.21748,"lon":5.346,"is_reserved":false,"is_disabled":false,"rental_uris":{"android":"levelo://app?vid=8627ad2c-18c3-4371-b797-50bdcc08edbf","ios":"levelo://app?vid=8627ad2c-18c3-4371-b797-50bdcc08edbf"},"vehicle_type_id":"4","last_reported":1747246424,"current_range_meters":7200,"station_id":"st_cvj6r9ubvosntc0bgbag","pricing_plan_id":"cebpf4jnsgd1na2vs0mg"},{"bike_id":"49bfa56d-9b45-4a52-b035-206749ec8a37","system_id":"levelo_inurba_marseille","lat":43.30554,"lon":5.38418,"is_reserved":false,"is_disabled":false,"rental_uris":{"android":"levelo://app?vid=49bfa56d-9b45-4a52-b035-206749ec8a37","ios":"levelo://app?vid=49bfa56d-9b45-4a52-b035-206749ec8a37"},"vehicle_type_id":"4","last_reported":1747246424,"current_range_meters":8000,"station_id":"ce4bgg92rcd13ifvqb30","pricing_plan_id":"cebpf4jnsgd1na2vs0mg"},{"bike_id":"1e19cb12-c9bd-4f4b-b2ae-3533dff4a52e","system_id":"levelo_inurba_marseille","lat":43.2942,"lon":5.38628,"is_reserved":false,"is_disabled":false,"rental_uris":{"android":"levelo://app?vid=1e19cb12-c9bd-4f4b-b2ae-3533dff4a52e","ios":"levelo://app?vid=1e19cb12-c9bd-4f4b-b2ae-3533dff4a52e"},"vehicle_type_id":"4","last_reported":1747246424,"current_range_meters":8000,"station_id":"ce4bh2h2rcd13ifvqdh0","pricing_plan_id":"cebpf4jnsgd1na2vs0mg"},{"bike_id":"0b9a6ce7-92a8-4dbb-be94-0b3d37238dbf","system_id":"levelo_inurba_marseille","lat":43.28465,"lon":5.38413,"is_reserved":false,"is_disabled":false,"rental_uris":{"android":"levelo://app?vid=0b9a6ce7-92a8-4dbb-be94-0b3d37238dbf","ios":"levelo://app?vid=0b9a6ce7-92a8-4dbb-be94-0b3d37238dbf"},"vehicle_type_id":"4","last_reported":1747246424,"current_range_meters":8000,"station_id":"ce4bh512rcd13ifvqe3g","pricing_plan_id":"cebpf4jnsgd1na2vs0mg"},{"bike_id":"8ed6ad64-8987-43ea-98d1-81044a82137f","system_id":"levelo_inurba_marseille","lat":43.28413,"lon":5.34976,"is_reserved":false,"is_disabled":false,"rental_uris":{"android":"levelo://app?vid=8ed6ad64-8987-43ea-98d1-81044a82137f","ios":"levelo://app?vid=8ed6ad64-8987-43ea-98d1-81044a82137f"},"vehicle_type_id":"4","last_reported":1747246424,"current_range_meters":8000,"station_id":"ce4bhbh2rcd13ifvqepg","pricing_plan_id":"cebpf4jnsgd1na2vs0mg"},{"bike_id":"ffa6ba17-7731-448e-97e6-bf9479b4cef1","system_id":"levelo_inurba_marseille","lat":43.28603,"lon":5.3511,"is_reserved":false,"is_disabled":false,"rental_uris":{"android":"levelo://app?vid=ffa6ba17-7731-448e-97e6-bf9479b4cef1","ios":"levelo://app?vid=ffa6ba17-7731-448e-97e6-bf9479b4cef1"},"vehicle_type_id":"4","last_reported":1747246424,"current_range_meters":8000,"station_id":"ce4bhch2rcd13ifvqeug","pricing_plan_id":"cebpf4jnsgd1na2vs0mg"},{"bike_id":"e1da3f3f-564b-4f2e-bcca-116efc451f83","system_id":"levelo_inurba_marseille","lat":43.24815,"lon":5.37436,"is_reserved":false,"is_disabled":false,"rental_uris":{"android":"levelo://app?vid=e1da3f3f-564b-4f2e-bcca-116efc451f83","ios":"levelo://app?vid=e1da3f3f-564b-4f2e-bcca-116efc451f83"},"vehicle_type_id":"4","last_reported":1747246424,"current_range_meters":8000,"station_id":"ce4bhgh2rcd13ifvqfb0","pricing_plan_id":"cebpf4jnsgd1na2vs0mg"},{"bike_id":"a549d759-c4e9-4310-85bc-13b0c60ba0e4","system_id":"levelo_inurba_marseille","lat":43.27995,"lon":5.41662,"is_reserved":false,"is_disabled":false,"rental_uris":{"android":"levelo://app?vid=a549d759-c4e9-4310-85bc-13b0c60ba0e4","ios":"levelo://app?vid=a549d759-c4e9-4310-85bc-13b0c60ba0e4"},"vehicle_type_id":"4","last_reported":1747246424,"current_range_meters":8000,"station_id":"ce4bho12rcd13ifvqh1g","pricing_plan_id":"cebpf4jnsgd1na2vs0mg"},{"bike_id":"b0e44f07-78a2-4af9-bb27-310c70ed8cbe","system_id":"levelo_inurba_marseille","lat":43.32102,"lon":5.36766,"is_reserved":false,"is_disabled":false,"rental_uris":{"android":"levelo://app?vid=b0e44f07-78a2-4af9-bb27-310c70ed8cbe","ios":"levelo://app?vid=b0e44f07-78a2-4af9-bb27-310c70ed8cbe"},"vehicle_type_id":"4","last_reported":1747246424,"current_range_meters":8000,"station_id":"ce4bhrh2rcd13ifvqhug","pricing_plan_id":"cebpf4jnsgd1na2vs0mg"},{"bike_id":"472dc04a-65b4-495b-a04d-0e53111fbf97","system_id":"levelo_inurba_marseille","lat":43.30729,"lon":5.42448,"is_reserved":false,"is_disabled":false,"rental_uris":{"android":"levelo://app?vid=472dc04a-65b4-495b-a04d-0e53111fbf97","ios":"levelo://app?vid=472dc04a-65b4-495b-a04d-0e53111fbf97"},"vehicle_type_id":"4","last_reported":1747246424,"current_range_meters":8000,"station_id":"st_cvj6ca6bvosntc0bfgr0","pricing_plan_id":"cebpf4jnsgd1na2vs0mg"},{"bike_id":"6c5e2750-bf55-4812-bb81-a9df60873a61","system_id":"levelo_inurba_marseille","lat":43.29639,"lon":5.36185,"is_reserved":false,"is_disabled":false,"rental_uris":{"android":"levelo://app?vid=6c5e2750-bf55-4812-bb81-a9df60873a61","ios":"levelo://app?vid=6c5e2750-bf55-4812-bb81-a9df60873a61"},"vehicle_type_id":"4","last_reported":1747246424,"current_range_meters":8400,"station_id":"","pricing_plan_id":"cebpf4jnsgd1na2vs0mg"},{"bike_id":"616dd170-97e6-4bd1-8061-f955652ebf3d","system_id":"levelo_inurba_marseille","lat":43.28036,"lon":5.36944,"is_reserved":false,"is_disabled":false,"rental_uris":{"android":"levelo://app?vid=616dd170-97e6-4bd1-8061-f955652ebf3d","ios":"levelo://app?vid=616dd170-97e6-4bd1-8061-f955652ebf3d"},"vehicle_type_id":"4","last_reported":1747246424,"current_range_meters":8400,"station_id":"ce4bha12rcd13ifvqef0","pricing_plan_id":"cebpf4jnsgd1na2vs0mg"},{"bike_id":"b16a0518-0c86-4b34-ba24-12e5af73452e","system_id":"levelo_inurba_marseille","lat":43.28456,"lon":5.35885,"is_reserved":false,"is_disabled":false,"rental_uris":{"android":"levelo://app?vid=b16a0518-0c86-4b34-ba24-12e5af73452e","ios":"levelo://app?vid=b16a0518-0c86-4b34-ba24-12e5af73452e"},"vehicle_type_id":"4","last_reported":1747246424,"current_range_meters":8400,"station_id":"ce4bhah2rcd13ifvqei0","pricing_plan_id":"cebpf4jnsgd1na2vs0mg"},{"bike_id":"70b8896e-77e3-4fea-9927-16560ee9548d","system_id":"levelo_inurba_marseille","lat":43.2656,"lon":5.39013,"is_reserved":false,"is_disabled":false,"rental_uris":{"android":"levelo://app?vid=70b8896e-77e3-4fea-9927-16560ee9548d","ios":"levelo://app?vid=70b8896e-77e3-4fea-9927-16560ee9548d"},"vehicle_type_id":"4","last_reported":1747246424,"current_range_meters":8400,"station_id":"ce4bhe12rcd13ifvqf30","pricing_plan_id":"cebpf4jnsgd1na2vs0mg"},{"bike_id":"e6c9edfb-cf29-4d28-82dc-cb2937ea9eda","system_id":"levelo_inurba_marseille","lat":43.26024,"lon":5.37549,"is_reserved":false,"is_disabled":false,"rental_uris":{"android":"levelo://app?vid=e6c9edfb-cf29-4d28-82dc-cb2937ea9eda","ios":"levelo://app?vid=e6c9edfb-cf29-4d28-82dc-cb2937ea9eda"},"vehicle_type_id":"4","last_reported":1747246424,"current_range_meters":8400,"station_id":"ce4bhgh2rcd13ifvqfa0","pricing_plan_id":"cebpf4jnsgd1na2vs0mg"},{"bike_id":"7ddd34a0-d984-4dc0-a019-37962a1ca7c6","system_id":"levelo_inurba_marseille","lat":43.2511,"lon":5.40322,"is_reserved":false,"is_disabled":false,"rental_uris":{"android":"levelo://app?vid=7ddd34a0-d984-4dc0-a019-37962a1ca7c6","ios":"levelo://app?vid=7ddd34a0-d984-4dc0-a019-37962a1ca7c6"},"vehicle_type_id":"4","last_reported":1747246424,"current_range_meters":8400,"station_id":"ce4bhlh2rcd13ifvqgig","pricing_plan_id":"cebpf4jnsgd1na2vs0mg"},{"bike_id":"a57b1639-3aaa-43c0-9870-b89a19992ccc","system_id":"levelo_inurba_marseille","lat":43.284211,"lon":5.349824,"is_reserved":false,"is_disabled":false,"rental_uris":{"android":"levelo://app?vid=a57b1639-3aaa-43c0-9870-b89a19992ccc","ios":"levelo://app?vid=a57b1639-3aaa-43c0-9870-b89a19992ccc"},"vehicle_type_id":"4","last_reported":1747246424,"current_range_meters":8800,"station_id":"ce4bgvp2rcd13ifvqct0","pricing_plan_id":"cebpf4jnsgd1na2vs0mg"},{"bike_id":"e6fcd9ed-dd0b-4986-aac5-8831b51d5a47","system_id":"levelo_inurba_marseille","lat":43.2862,"lon":5.35096,"is_reserved":false,"is_disabled":false,"rental_uris":{"android":"levelo://app?vid=e6fcd9ed-dd0b-4986-aac5-8831b51d5a47","ios":"levelo://app?vid=e6fcd9ed-dd0b-4986-aac5-8831b51d5a47"},"vehicle_type_id":"4","last_reported":1747246424,"current_range_meters":8800,"station_id":"ce4bhch2rcd13ifvqeug","pricing_plan_id":"cebpf4jnsgd1na2vs0mg"},{"bike_id":"1668fff6-b0ac-4bf0-9a6b-0393032efc9f","system_id":"levelo_inurba_marseille","lat":43.26547,"lon":5.39032,"is_reserved":false,"is_disabled":false,"rental_uris":{"android":"levelo://app?vid=1668fff6-b0ac-4bf0-9a6b-0393032efc9f","ios":"levelo://app?vid=1668fff6-b0ac-4bf0-9a6b-0393032efc9f"},"vehicle_type_id":"4","last_reported":1747246424,"current_range_meters":8800,"station_id":"ce4bhe12rcd13ifvqf30","pricing_plan_id":"cebpf4jnsgd1na2vs0mg"},{"bike_id":"f516bdec-657c-46f1-abec-ebfac75025ea","system_id":"levelo_inurba_marseille","lat":43.229247,"lon":5.353781,"is_reserved":false,"is_disabled":false,"rental_uris":{"android":"levelo://app?vid=f516bdec-657c-46f1-abec-ebfac75025ea","ios":"levelo://app?vid=f516bdec-657c-46f1-abec-ebfac75025ea"},"vehicle_type_id":"4","last_reported":1747246424,"current_range_meters":8800,"station_id":"cpo3532slgdg3j2ikp40","pricing_plan_id":"cebpf4jnsgd1na2vs0mg"},{"bike_id":"4a17010c-02f7-449b-852e-ea8f8ecc45ba","system_id":"levelo_inurba_marseille","lat":43.29578,"lon":5.36738,"is_reserved":false,"is_disabled":false,"rental_uris":{"android":"levelo://app?vid=4a17010c-02f7-449b-852e-ea8f8ecc45ba","ios":"levelo://app?vid=4a17010c-02f7-449b-852e-ea8f8ecc45ba"},"vehicle_type_id":"4","last_reported":1747246424,"current_range_meters":9200,"station_id":"ce4bgph2rcd13ifvqc2g","pricing_plan_id":"cebpf4jnsgd1na2vs0mg"},{"bike_id":"c9da3338-7858-4e1f-905f-95a7252a3661","system_id":"levelo_inurba_marseille","lat":43.30148,"lon":5.39841,"is_reserved":false,"is_disabled":false,"rental_uris":{"android":"levelo://app?vid=c9da3338-7858-4e1f-905f-95a7252a3661","ios":"levelo://app?vid=c9da3338-7858-4e1f-905f-95a7252a3661"},"vehicle_type_id":"4","last_reported":1747246424,"current_range_meters":9200,"station_id":"ce4bh0h2rcd13ifvqd40","pricing_plan_id":"cebpf4jnsgd1na2vs0mg"},{"bike_id":"ecca135e-b998-4673-ab43-fe4f0d7ec9fc","system_id":"levelo_inurba_marseille","lat":43.28453,"lon":5.35894,"is_reserved":false,"is_disabled":false,"rental_uris":{"android":"levelo://app?vid=ecca135e-b998-4673-ab43-fe4f0d7ec9fc","ios":"levelo://app?vid=ecca135e-b998-4673-ab43-fe4f0d7ec9fc"},"vehicle_type_id":"4","last_reported":1747246424,"current_range_meters":9200,"station_id":"ce4bhah2rcd13ifvqei0","pricing_plan_id":"cebpf4jnsgd1na2vs0mg"},{"bike_id":"86c033af-706e-4069-beba-6756cdd575c0","system_id":"levelo_inurba_marseille","lat":43.2894,"lon":5.36404,"is_reserved":false,"is_disabled":false,"rental_uris":{"android":"levelo://app?vid=86c033af-706e-4069-beba-6756cdd575c0","ios":"levelo://app?vid=86c033af-706e-4069-beba-6756cdd575c0"},"vehicle_type_id":"4","last_reported":1747246424,"current_range_meters":9200,"station_id":"ce4bhc92rcd13ifvqetg","pricing_plan_id":"cebpf4jnsgd1na2vs0mg"},{"bike_id":"f42ea6a6-a209-430d-9df4-ca14aa42c3cf","system_id":"levelo_inurba_marseille","lat":43.24807,"lon":5.37459,"is_reserved":false,"is_disabled":false,"rental_uris":{"android":"levelo://app?vid=f42ea6a6-a209-430d-9df4-ca14aa42c3cf","ios":"levelo://app?vid=f42ea6a6-a209-430d-9df4-ca14aa42c3cf"},"vehicle_type_id":"4","last_reported":1747246424,"current_range_meters":9200,"station_id":"ce4bhgh2rcd13ifvqfb0","pricing_plan_id":"cebpf4jnsgd1na2vs0mg"},{"bike_id":"600926c1-56da-410d-8b13-fb0d384d4cd9","system_id":"levelo_inurba_marseille","lat":43.2694,"lon":5.4026,"is_reserved":false,"is_disabled":false,"rental_uris":{"android":"levelo://app?vid=600926c1-56da-410d-8b13-fb0d384d4cd9","ios":"levelo://app?vid=600926c1-56da-410d-8b13-fb0d384d4cd9"},"vehicle_type_id":"4","last_reported":1747246424,"current_range_meters":9200,"station_id":"cjm6bp8fraef2m0cb0m0","pricing_plan_id":"cebpf4jnsgd1na2vs0mg"},{"bike_id":"07c4dff6-1b61-49e1-b9f3-cebd8d8c4c2f","system_id":"levelo_inurba_marseille","lat":43.31358,"lon":5.38503,"is_reserved":false,"is_disabled":false,"rental_uris":{"android":"levelo://app?vid=07c4dff6-1b61-49e1-b9f3-cebd8d8c4c2f","ios":"levelo://app?vid=07c4dff6-1b61-49e1-b9f3-cebd8d8c4c2f"},"vehicle_type_id":"4","last_reported":1747246424,"current_range_meters":9600,"station_id":"ce4bgt92rcd13ifvqcf0","pricing_plan_id":"cebpf4jnsgd1na2vs0mg"},{"bike_id":"5178f68d-36f5-4a76-b586-5a01d2bad469","system_id":"levelo_inurba_marseille","lat":43.30139,"lon":5.39872,"is_reserved":false,"is_disabled":false,"rental_uris":{"android":"levelo://app?vid=5178f68d-36f5-4a76-b586-5a01d2bad469","ios":"levelo://app?vid=5178f68d-36f5-4a76-b586-5a01d2bad469"},"vehicle_type_id":"4","last_reported":1747246424,"current_range_meters":9600,"station_id":"ce4bh0h2rcd13ifvqd40","pricing_plan_id":"cebpf4jnsgd1na2vs0mg"},{"bike_id":"3b16b345-8c70-4084-a993-9feaa6c942bd","system_id":"levelo_inurba_marseille","lat":43.28934,"lon":5.3663,"is_reserved":false,"is_disabled":false,"rental_uris":{"android":"levelo://app?vid=3b16b345-8c70-4084-a993-9feaa6c942bd","ios":"levelo://app?vid=3b16b345-8c70-4084-a993-9feaa6c942bd"},"vehicle_type_id":"4","last_reported":1747246424,"current_range_meters":9600,"station_id":"ce4bhap2rcd13ifvqek0","pricing_plan_id":"cebpf4jnsgd1na2vs0mg"},{"bike_id":"fa9b6064-d7ee-4e04-97c3-44edb72451c2","system_id":"levelo_inurba_marseille","lat":43.25104,"lon":5.40324,"is_reserved":false,"is_disabled":false,"rental_uris":{"android":"levelo://app?vid=fa9b6064-d7ee-4e04-97c3-44edb72451c2","ios":"levelo://app?vid=fa9b6064-d7ee-4e04-97c3-44edb72451c2"},"vehicle_type_id":"4","last_reported":1747246424,"current_range_meters":9600,"station_id":"ce4bhlh2rcd13ifvqgig","pricing_plan_id":"cebpf4jnsgd1na2vs0mg"},{"bike_id":"3faf053c-e846-4d83-83ee-8fd51efc38bb","system_id":"levelo_inurba_marseille","lat":43.321074,"lon":5.367897,"is_reserved":false,"is_disabled":false,"rental_uris":{"android":"levelo://app?vid=3faf053c-e846-4d83-83ee-8fd51efc38bb","ios":"levelo://app?vid=3faf053c-e846-4d83-83ee-8fd51efc38bb"},"vehicle_type_id":"4","last_reported":1747246424,"current_range_meters":9600,"station_id":"ce4bhrh2rcd13ifvqhug","pricing_plan_id":"cebpf4jnsgd1na2vs0mg"},{"bike_id":"095c9901-4a13-4710-b9a6-b218eb3b6f23","system_id":"levelo_inurba_marseille","lat":43.28986,"lon":5.37841,"is_reserved":false,"is_disabled":false,"rental_uris":{"android":"levelo://app?vid=095c9901-4a13-4710-b9a6-b218eb3b6f23","ios":"levelo://app?vid=095c9901-4a13-4710-b9a6-b218eb3b6f23"},"vehicle_type_id":"4","last_reported":1747246424,"current_range_meters":10000,"station_id":"ce4bh9p2rcd13ifvqed0","pricing_plan_id":"cebpf4jnsgd1na2vs0mg"},{"bike_id":"697174d1-5121-4e93-b46b-5122f15f805f","system_id":"levelo_inurba_marseille","lat":43.27372,"lon":5.36256,"is_reserved":false,"is_disabled":false,"rental_uris":{"android":"levelo://app?vid=697174d1-5121-4e93-b46b-5122f15f805f","ios":"levelo://app?vid=697174d1-5121-4e93-b46b-5122f15f805f"},"vehicle_type_id":"4","last_reported":1747246424,"current_range_meters":10000,"station_id":"ce4bhbh2rcd13ifvqeo0","pricing_plan_id":"cebpf4jnsgd1na2vs0mg"},{"bike_id":"5a8cfce5-86a3-42d0-8577-b9db1b061200","system_id":"levelo_inurba_marseille","lat":43.28417,"lon":5.34995,"is_reserved":false,"is_disabled":false,"rental_uris":{"android":"levelo://app?vid=5a8cfce5-86a3-42d0-8577-b9db1b061200","ios":"levelo://app?vid=5a8cfce5-86a3-42d0-8577-b9db1b061200"},"vehicle_type_id":"4","last_reported":1747246424,"current_range_meters":10000,"station_id":"ce4bhbh2rcd13ifvqepg","pricing_plan_id":"cebpf4jnsgd1na2vs0mg"},{"bike_id":"7fb5d70c-e2b3-406d-837e-9dba26e1ca1e","system_id":"levelo_inurba_marseille","lat":43.28947,"lon":5.36391,"is_reserved":false,"is_disabled":false,"rental_uris":{"android":"levelo://app?vid=7fb5d70c-e2b3-406d-837e-9dba26e1ca1e","ios":"levelo://app?vid=7fb5d70c-e2b3-406d-837e-9dba26e1ca1e"},"vehicle_type_id":"4","last_reported":1747246424,"current_range_meters":10000,"station_id":"ce4bhc92rcd13ifvqetg","pricing_plan_id":"cebpf4jnsgd1na2vs0mg"},{"bike_id":"22df9d24-71cd-493b-bd1b-3e49a1287f80","system_id":"levelo_inurba_marseille","lat":43.28618,"lon":5.35094,"is_reserved":false,"is_disabled":false,"rental_uris":{"android":"levelo://app?vid=22df9d24-71cd-493b-bd1b-3e49a1287f80","ios":"levelo://app?vid=22df9d24-71cd-493b-bd1b-3e49a1287f80"},"vehicle_type_id":"4","last_reported":1747246424,"current_range_meters":10000,"station_id":"ce4bhch2rcd13ifvqeug","pricing_plan_id":"cebpf4jnsgd1na2vs0mg"},{"bike_id":"ebfedfe6-dee9-4129-9a75-1c0038169595","system_id":"levelo_inurba_marseille","lat":43.2862,"lon":5.35094,"is_reserved":false,"is_disabled":false,"rental_uris":{"android":"levelo://app?vid=ebfedfe6-dee9-4129-9a75-1c0038169595","ios":"levelo://app?vid=ebfedfe6-dee9-4129-9a75-1c0038169595"},"vehicle_type_id":"4","last_reported":1747246424,"current_range_meters":10000,"station_id":"ce4bhch2rcd13ifvqeug","pricing_plan_id":"cebpf4jnsgd1na2vs0mg"},{"bike_id":"28f9ed6b-e115-4008-94da-cddd81c12a8f","system_id":"levelo_inurba_marseille","lat":43.274025,"lon":5.394145,"is_reserved":false,"is_disabled":false,"rental_uris":{"android":"levelo://app?vid=28f9ed6b-e115-4008-94da-cddd81c12a8f","ios":"levelo://app?vid=28f9ed6b-e115-4008-94da-cddd81c12a8f"},"vehicle_type_id":"4","last_reported":1747246424,"current_range_meters":10000,"station_id":"ce4bhdp2rcd13ifvqf20","pricing_plan_id":"cebpf4jnsgd1na2vs0mg"},{"bike_id":"2692ce94-a4e2-440f-8bd1-8e7fdacaa5af","system_id":"levelo_inurba_marseille","lat":43.320433,"lon":5.415439,"is_reserved":false,"is_disabled":false,"rental_uris":{"android":"levelo://app?vid=2692ce94-a4e2-440f-8bd1-8e7fdacaa5af","ios":"levelo://app?vid=2692ce94-a4e2-440f-8bd1-8e7fdacaa5af"},"vehicle_type_id":"4","last_reported":1747246424,"current_range_meters":10000,"station_id":"ce4bhq92rcd13ifvqhkg","pricing_plan_id":"cebpf4jnsgd1na2vs0mg"},{"bike_id":"1c383844-fca3-4e7d-ad60-a675b5f34904","system_id":"levelo_inurba_marseille","lat":43.28487,"lon":5.38541,"is_reserved":false,"is_disabled":false,"rental_uris":{"android":"levelo://app?vid=1c383844-fca3-4e7d-ad60-a675b5f34904","ios":"levelo://app?vid=1c383844-fca3-4e7d-ad60-a675b5f34904"},"vehicle_type_id":"4","last_reported":1747246424,"current_range_meters":10800,"station_id":"ce4bh8p2rcd13ifvqeb0","pricing_plan_id":"cebpf4jnsgd1na2vs0mg"},{"bike_id":"f97c1d73-3292-4c23-8dd9-67703dd18af1","system_id":"levelo_inurba_marseille","lat":43.29057,"lon":5.35904,"is_reserved":false,"is_disabled":false,"rental_uris":{"android":"levelo://app?vid=f97c1d73-3292-4c23-8dd9-67703dd18af1","ios":"levelo://app?vid=f97c1d73-3292-4c23-8dd9-67703dd18af1"},"vehicle_type_id":"4","last_reported":1747246424,"current_range_meters":10800,"station_id":"ce4bha92rcd13ifvqeg0","pricing_plan_id":"cebpf4jnsgd1na2vs0mg"},{"bike_id":"4b6fcd6c-f632-42bc-a801-fd84829015c1","system_id":"levelo_inurba_marseille","lat":43.28953,"lon":5.3664,"is_reserved":false,"is_disabled":false,"rental_uris":{"android":"levelo://app?vid=4b6fcd6c-f632-42bc-a801-fd84829015c1","ios":"levelo://app?vid=4b6fcd6c-f632-42bc-a801-fd84829015c1"},"vehicle_type_id":"4","last_reported":1747246424,"current_range_meters":10800,"station_id":"ce4bhap2rcd13ifvqek0","pricing_plan_id":"cebpf4jnsgd1na2vs0mg"},{"bike_id":"82258d17-2326-4fc9-8e26-2aaa9d0eaf3b","system_id":"levelo_inurba_marseille","lat":43.284189,"lon":5.349987,"is_reserved":false,"is_disabled":false,"rental_uris":{"android":"levelo://app?vid=82258d17-2326-4fc9-8e26-2aaa9d0eaf3b","ios":"levelo://app?vid=82258d17-2326-4fc9-8e26-2aaa9d0eaf3b"},"vehicle_type_id":"4","last_reported":1747246424,"current_range_meters":10800,"station_id":"ce4bhbh2rcd13ifvqepg","pricing_plan_id":"cebpf4jnsgd1na2vs0mg"},{"bike_id":"574a0753-5229-45e8-80cf-215c4685f013","system_id":"levelo_inurba_marseille","lat":43.255,"lon":5.37645,"is_reserved":false,"is_disabled":false,"rental_uris":{"android":"levelo://app?vid=574a0753-5229-45e8-80cf-215c4685f013","ios":"levelo://app?vid=574a0753-5229-45e8-80cf-215c4685f013"},"vehicle_type_id":"4","last_reported":1747246424,"current_range_meters":10800,"station_id":"ce4bhh12rcd13ifvqff0","pricing_plan_id":"cebpf4jnsgd1na2vs0mg"},{"bike_id":"4a1605c8-9596-4ecb-94b7-2b583c66ecdd","system_id":"levelo_inurba_marseille","lat":43.24662,"lon":5.38164,"is_reserved":false,"is_disabled":false,"rental_uris":{"android":"levelo://app?vid=4a1605c8-9596-4ecb-94b7-2b583c66ecdd","ios":"levelo://app?vid=4a1605c8-9596-4ecb-94b7-2b583c66ecdd"},"vehicle_type_id":"4","last_reported":1747246424,"current_range_meters":10800,"station_id":"ce4bhih2rcd13ifvqfr0","pricing_plan_id":"cebpf4jnsgd1na2vs0mg"},{"bike_id":"9d024659-f2f8-462f-b190-98fd879059c9","system_id":"levelo_inurba_marseille","lat":43.25123,"lon":5.40322,"is_reserved":false,"is_disabled":false,"rental_uris":{"android":"levelo://app?vid=9d024659-f2f8-462f-b190-98fd879059c9","ios":"levelo://app?vid=9d024659-f2f8-462f-b190-98fd879059c9"},"vehicle_type_id":"4","last_reported":1747246424,"current_range_meters":10800,"station_id":"ce4bhlh2rcd13ifvqgig","pricing_plan_id":"cebpf4jnsgd1na2vs0mg"},{"bike_id":"e4b3229f-c99e-4082-a51f-99cbcc0ea895","system_id":"levelo_inurba_marseille","lat":43.27494,"lon":5.42446,"is_reserved":false,"is_disabled":false,"rental_uris":{"android":"levelo://app?vid=e4b3229f-c99e-4082-a51f-99cbcc0ea895","ios":"levelo://app?vid=e4b3229f-c99e-4082-a51f-99cbcc0ea895"},"vehicle_type_id":"4","last_reported":1747246424,"current_range_meters":10800,"station_id":"ce4bhn92rcd13ifvqgrg","pricing_plan_id":"cebpf4jnsgd1na2vs0mg"},{"bike_id":"97163a3d-c249-4c8c-ba82-63ec13b44948","system_id":"levelo_inurba_marseille","lat":43.24073,"lon":5.37762,"is_reserved":false,"is_disabled":false,"rental_uris":{"android":"levelo://app?vid=97163a3d-c249-4c8c-ba82-63ec13b44948","ios":"levelo://app?vid=97163a3d-c249-4c8c-ba82-63ec13b44948"},"vehicle_type_id":"4","last_reported":1747246424,"current_range_meters":10800,"station_id":"ce4bhnp2rcd13ifvqgvg","pricing_plan_id":"cebpf4jnsgd1na2vs0mg"},{"bike_id":"e3faef6f-635a-4b6b-b2b3-c0b918604df6","system_id":"levelo_inurba_marseille","lat":43.29928,"lon":5.43662,"is_reserved":false,"is_disabled":false,"rental_uris":{"android":"levelo://app?vid=e3faef6f-635a-4b6b-b2b3-c0b918604df6","ios":"levelo://app?vid=e3faef6f-635a-4b6b-b2b3-c0b918604df6"},"vehicle_type_id":"4","last_reported":1747246424,"current_range_meters":10800,"station_id":"ce4bhpp2rcd13ifvqhfg","pricing_plan_id":"cebpf4jnsgd1na2vs0mg"},{"bike_id":"b66b454e-94a3-4ad2-8cbe-795ac765acdd","system_id":"levelo_inurba_marseille","lat":43.323686,"lon":5.388951,"is_reserved":false,"is_disabled":false,"rental_uris":{"android":"levelo://app?vid=b66b454e-94a3-4ad2-8cbe-795ac765acdd","ios":"levelo://app?vid=b66b454e-94a3-4ad2-8cbe-795ac765acdd"},"vehicle_type_id":"4","last_reported":1747246424,"current_range_meters":10800,"station_id":"ce4bhqp2rcd13ifvqhog","pricing_plan_id":"cebpf4jnsgd1na2vs0mg"},{"bike_id":"d60c5cc5-e04e-47a5-9d40-5bd6a0046591","system_id":"levelo_inurba_marseille","lat":43.31363,"lon":5.38501,"is_reserved":false,"is_disabled":false,"rental_uris":{"android":"levelo://app?vid=d60c5cc5-e04e-47a5-9d40-5bd6a0046591","ios":"levelo://app?vid=d60c5cc5-e04e-47a5-9d40-5bd6a0046591"},"vehicle_type_id":"4","last_reported":1747246424,"current_range_meters":11200,"station_id":"ce4bgt92rcd13ifvqcf0","pricing_plan_id":"cebpf4jnsgd1na2vs0mg"},{"bike_id":"6d09ab16-4608-473b-9293-55e47a210357","system_id":"levelo_inurba_marseille","lat":43.28414,"lon":5.37526,"is_reserved":false,"is_disabled":false,"rental_uris":{"android":"levelo://app?vid=6d09ab16-4608-473b-9293-55e47a210357","ios":"levelo://app?vid=6d09ab16-4608-473b-9293-55e47a210357"},"vehicle_type_id":"4","last_reported":1747246424,"current_range_meters":11200,"station_id":"ce4bh412rcd13ifvqds0","pricing_plan_id":"cebpf4jnsgd1na2vs0mg"},{"bike_id":"8d1e585d-ff20-42c9-bb46-d28e5d6c5cef","system_id":"levelo_inurba_marseille","lat":43.24662,"lon":5.38165,"is_reserved":false,"is_disabled":false,"rental_uris":{"android":"levelo://app?vid=8d1e585d-ff20-42c9-bb46-d28e5d6c5cef","ios":"levelo://app?vid=8d1e585d-ff20-42c9-bb46-d28e5d6c5cef"},"vehicle_type_id":"4","last_reported":1747246424,"current_range_meters":11200,"station_id":"ce4bhih2rcd13ifvqfr0","pricing_plan_id":"cebpf4jnsgd1na2vs0mg"},{"bike_id":"bee2a9dd-691f-484e-9b59-97ac46c34bbc","system_id":"levelo_inurba_marseille","lat":43.28666,"lon":5.38666,"is_reserved":false,"is_disabled":false,"rental_uris":{"android":"levelo://app?vid=bee2a9dd-691f-484e-9b59-97ac46c34bbc","ios":"levelo://app?vid=bee2a9dd-691f-484e-9b59-97ac46c34bbc"},"vehicle_type_id":"4","last_reported":1747246424,"current_range_meters":11600,"station_id":"ce4bh492rcd13ifvqdug","pricing_plan_id":"cebpf4jnsgd1na2vs0mg"},{"bike_id":"5a397cf7-65bf-4a3f-9658-6e7414774df2","system_id":"levelo_inurba_marseille","lat":43.27381,"lon":5.36241,"is_reserved":false,"is_disabled":false,"rental_uris":{"android":"levelo://app?vid=5a397cf7-65bf-4a3f-9658-6e7414774df2","ios":"levelo://app?vid=5a397cf7-65bf-4a3f-9658-6e7414774df2"},"vehicle_type_id":"4","last_reported":1747246424,"current_range_meters":11600,"station_id":"ce4bhbh2rcd13ifvqeo0","pricing_plan_id":"cebpf4jnsgd1na2vs0mg"},{"bike_id":"41ac187e-4594-4da1-abd8-36f48d8b1f27","system_id":"levelo_inurba_marseille","lat":43.24802,"lon":5.37452,"is_reserved":false,"is_disabled":false,"rental_uris":{"android":"levelo://app?vid=41ac187e-4594-4da1-abd8-36f48d8b1f27","ios":"levelo://app?vid=41ac187e-4594-4da1-abd8-36f48d8b1f27"},"vehicle_type_id":"4","last_reported":1747246424,"current_range_meters":11600,"station_id":"ce4bhgh2rcd13ifvqfb0","pricing_plan_id":"cebpf4jnsgd1na2vs0mg"},{"bike_id":"be29d9fe-f70a-49e1-8e5b-9423936e79e8","system_id":"levelo_inurba_marseille","lat":43.27576,"lon":5.38426,"is_reserved":false,"is_disabled":false,"rental_uris":{"android":"levelo://app?vid=be29d9fe-f70a-49e1-8e5b-9423936e79e8","ios":"levelo://app?vid=be29d9fe-f70a-49e1-8e5b-9423936e79e8"},"vehicle_type_id":"4","last_reported":1747246424,"current_range_meters":11600,"station_id":"ce4bhh92rcd13ifvqfi0","pricing_plan_id":"cebpf4jnsgd1na2vs0mg"},{"bike_id":"a12f8da4-c8dd-408a-990c-1ba844459935","system_id":"levelo_inurba_marseille","lat":43.25819,"lon":5.39428,"is_reserved":false,"is_disabled":false,"rental_uris":{"android":"levelo://app?vid=a12f8da4-c8dd-408a-990c-1ba844459935","ios":"levelo://app?vid=a12f8da4-c8dd-408a-990c-1ba844459935"},"vehicle_type_id":"4","last_reported":1747246424,"current_range_meters":11600,"station_id":"ce4bhip2rcd13ifvqft0","pricing_plan_id":"cebpf4jnsgd1na2vs0mg"},{"bike_id":"0879c7af-989f-4e68-9fd6-d134be2b3e7f","system_id":"levelo_inurba_marseille","lat":43.25942,"lon":5.40904,"is_reserved":false,"is_disabled":false,"rental_uris":{"android":"levelo://app?vid=0879c7af-989f-4e68-9fd6-d134be2b3e7f","ios":"levelo://app?vid=0879c7af-989f-4e68-9fd6-d134be2b3e7f"},"vehicle_type_id":"4","last_reported":1747246424,"current_range_meters":11600,"station_id":"ce4bhm92rcd13ifvqglg","pricing_plan_id":"cebpf4jnsgd1na2vs0mg"},{"bike_id":"17afb980-ae3b-41da-9902-685bec908861","system_id":"levelo_inurba_marseille","lat":43.32366,"lon":5.38889,"is_reserved":false,"is_disabled":false,"rental_uris":{"android":"levelo://app?vid=17afb980-ae3b-41da-9902-685bec908861","ios":"levelo://app?vid=17afb980-ae3b-41da-9902-685bec908861"},"vehicle_type_id":"4","last_reported":1747246424,"current_range_meters":11600,"station_id":"ce4bhqp2rcd13ifvqhog","pricing_plan_id":"cebpf4jnsgd1na2vs0mg"},{"bike_id":"1726a8e6-6c6e-4ddb-a69e-fc15b4e0400f","system_id":"levelo_inurba_marseille","lat":43.27384,"lon":5.36256,"is_reserved":false,"is_disabled":false,"rental_uris":{"android":"levelo://app?vid=1726a8e6-6c6e-4ddb-a69e-fc15b4e0400f","ios":"levelo://app?vid=1726a8e6-6c6e-4ddb-a69e-fc15b4e0400f"},"vehicle_type_id":"4","last_reported":1747246424,"current_range_meters":12000,"station_id":"ce4bhbh2rcd13ifvqeo0","pricing_plan_id":"cebpf4jnsgd1na2vs0mg"},{"bike_id":"3253633f-1eff-46f8-b659-1eb3cc99745f","system_id":"levelo_inurba_marseille","lat":43.28438,"lon":5.34999,"is_reserved":false,"is_disabled":false,"rental_uris":{"android":"levelo://app?vid=3253633f-1eff-46f8-b659-1eb3cc99745f","ios":"levelo://app?vid=3253633f-1eff-46f8-b659-1eb3cc99745f"},"vehicle_type_id":"4","last_reported":1747246424,"current_range_meters":12000,"station_id":"ce4bhbh2rcd13ifvqepg","pricing_plan_id":"cebpf4jnsgd1na2vs0mg"},{"bike_id":"67323d6f-fcac-4514-9363-d27a08855f07","system_id":"levelo_inurba_marseille","lat":43.28617,"lon":5.35103,"is_reserved":false,"is_disabled":false,"rental_uris":{"android":"levelo://app?vid=67323d6f-fcac-4514-9363-d27a08855f07","ios":"levelo://app?vid=67323d6f-fcac-4514-9363-d27a08855f07"},"vehicle_type_id":"4","last_reported":1747246424,"current_range_meters":12000,"station_id":"ce4bhch2rcd13ifvqeug","pricing_plan_id":"cebpf4jnsgd1na2vs0mg"},{"bike_id":"4d83a49d-a4f7-4140-bff3-bb3633e6dccc","system_id":"levelo_inurba_marseille","lat":43.32366,"lon":5.38884,"is_reserved":false,"is_disabled":false,"rental_uris":{"android":"levelo://app?vid=4d83a49d-a4f7-4140-bff3-bb3633e6dccc","ios":"levelo://app?vid=4d83a49d-a4f7-4140-bff3-bb3633e6dccc"},"vehicle_type_id":"4","last_reported":1747246424,"current_range_meters":12000,"station_id":"ce4bhqp2rcd13ifvqhog","pricing_plan_id":"cebpf4jnsgd1na2vs0mg"},{"bike_id":"09e2f7f0-9433-49fa-8604-226904d36e00","system_id":"levelo_inurba_marseille","lat":43.30078,"lon":5.39065,"is_reserved":false,"is_disabled":false,"rental_uris":{"android":"levelo://app?vid=09e2f7f0-9433-49fa-8604-226904d36e00","ios":"levelo://app?vid=09e2f7f0-9433-49fa-8604-226904d36e00"},"vehicle_type_id":"4","last_reported":1747246424,"current_range_meters":12400,"station_id":"ce4bh192rcd13ifvqdb0","pricing_plan_id":"cebpf4jnsgd1na2vs0mg"},{"bike_id":"b893d639-d6b0-459a-9142-bf8a92e2792b","system_id":"levelo_inurba_marseille","lat":43.29036,"lon":5.35911,"is_reserved":false,"is_disabled":false,"rental_uris":{"android":"levelo://app?vid=b893d639-d6b0-459a-9142-bf8a92e2792b","ios":"levelo://app?vid=b893d639-d6b0-459a-9142-bf8a92e2792b"},"vehicle_type_id":"4","last_reported":1747246424,"current_range_meters":12400,"station_id":"ce4bha92rcd13ifvqeg0","pricing_plan_id":"cebpf4jnsgd1na2vs0mg"},{"bike_id":"65d2ca79-b186-4804-966c-27d021cf96e9","system_id":"levelo_inurba_marseille","lat":43.2827,"lon":5.35087,"is_reserved":false,"is_disabled":false,"rental_uris":{"android":"levelo://app?vid=65d2ca79-b186-4804-966c-27d021cf96e9","ios":"levelo://app?vid=65d2ca79-b186-4804-966c-27d021cf96e9"},"vehicle_type_id":"4","last_reported":1747246424,"current_range_meters":12400,"station_id":"ce4bhbp2rcd13ifvqerg","pricing_plan_id":"cebpf4jnsgd1na2vs0mg"},{"bike_id":"83c9ad85-31b5-4f18-a8e5-10e0ecbf0d4d","system_id":"levelo_inurba_marseille","lat":43.24806,"lon":5.37459,"is_reserved":false,"is_disabled":false,"rental_uris":{"android":"levelo://app?vid=83c9ad85-31b5-4f18-a8e5-10e0ecbf0d4d","ios":"levelo://app?vid=83c9ad85-31b5-4f18-a8e5-10e0ecbf0d4d"},"vehicle_type_id":"4","last_reported":1747246424,"current_range_meters":12400,"station_id":"ce4bhgh2rcd13ifvqfb0","pricing_plan_id":"cebpf4jnsgd1na2vs0mg"},{"bike_id":"c39c779f-b6a6-407c-9d09-733707e824a4","system_id":"levelo_inurba_marseille","lat":43.31084,"lon":5.424302,"is_reserved":false,"is_disabled":false,"rental_uris":{"android":"levelo://app?vid=c39c779f-b6a6-407c-9d09-733707e824a4","ios":"levelo://app?vid=c39c779f-b6a6-407c-9d09-733707e824a4"},"vehicle_type_id":"4","last_reported":1747246424,"current_range_meters":12400,"station_id":"ce4bhp92rcd13ifvqhag","pricing_plan_id":"cebpf4jnsgd1na2vs0mg"},{"bike_id":"d0bd9f58-7f05-4bad-bc13-cfce4dec78b3","system_id":"levelo_inurba_marseille","lat":43.31768,"lon":5.39008,"is_reserved":false,"is_disabled":false,"rental_uris":{"android":"levelo://app?vid=d0bd9f58-7f05-4bad-bc13-cfce4dec78b3","ios":"levelo://app?vid=d0bd9f58-7f05-4bad-bc13-cfce4dec78b3"},"vehicle_type_id":"4","last_reported":1747246424,"current_range_meters":12400,"station_id":"ce4bhqp2rcd13ifvqhng","pricing_plan_id":"cebpf4jnsgd1na2vs0mg"},{"bike_id":"fad91a23-5ed0-49f8-b77e-d000cb40472d","system_id":"levelo_inurba_marseille","lat":43.29343,"lon":5.37138,"is_reserved":false,"is_disabled":false,"rental_uris":{"android":"levelo://app?vid=fad91a23-5ed0-49f8-b77e-d000cb40472d","ios":"levelo://app?vid=fad91a23-5ed0-49f8-b77e-d000cb40472d"},"vehicle_type_id":"4","last_reported":1747246424,"current_range_meters":12800,"station_id":"","pricing_plan_id":"cebpf4jnsgd1na2vs0mg"},{"bike_id":"793ac350-3651-4f6c-8437-efb52dfb2f81","system_id":"levelo_inurba_marseille","lat":43.3148,"lon":5.37309,"is_reserved":false,"is_disabled":false,"rental_uris":{"android":"levelo://app?vid=793ac350-3651-4f6c-8437-efb52dfb2f81","ios":"levelo://app?vid=793ac350-3651-4f6c-8437-efb52dfb2f81"},"vehicle_type_id":"4","last_reported":1747246424,"current_range_meters":12800,"station_id":"ce4bgt12rcd13ifvqcd0","pricing_plan_id":"cebpf4jnsgd1na2vs0mg"},{"bike_id":"d07c61e3-91ae-4f1a-a672-f5890775bb23","system_id":"levelo_inurba_marseille","lat":43.25499,"lon":5.37652,"is_reserved":false,"is_disabled":false,"rental_uris":{"android":"levelo://app?vid=d07c61e3-91ae-4f1a-a672-f5890775bb23","ios":"levelo://app?vid=d07c61e3-91ae-4f1a-a672-f5890775bb23"},"vehicle_type_id":"4","last_reported":1747246424,"current_range_meters":12800,"station_id":"ce4bhh12rcd13ifvqff0","pricing_plan_id":"cebpf4jnsgd1na2vs0mg"},{"bike_id":"361fab2d-00fa-4c39-990e-b962dd6fc067","system_id":"levelo_inurba_marseille","lat":43.29045,"lon":5.35904,"is_reserved":false,"is_disabled":false,"rental_uris":{"android":"levelo://app?vid=361fab2d-00fa-4c39-990e-b962dd6fc067","ios":"levelo://app?vid=361fab2d-00fa-4c39-990e-b962dd6fc067"},"vehicle_type_id":"4","last_reported":1747246424,"current_range_meters":13600,"station_id":"ce4bha92rcd13ifvqeg0","pricing_plan_id":"cebpf4jnsgd1na2vs0mg"},{"bike_id":"efa99e96-36dc-4141-9c49-afb690742f45","system_id":"levelo_inurba_marseille","lat":43.27371,"lon":5.36259,"is_reserved":false,"is_disabled":false,"rental_uris":{"android":"levelo://app?vid=efa99e96-36dc-4141-9c49-afb690742f45","ios":"levelo://app?vid=efa99e96-36dc-4141-9c49-afb690742f45"},"vehicle_type_id":"4","last_reported":1747246424,"current_range_meters":13600,"station_id":"ce4bhbh2rcd13ifvqeo0","pricing_plan_id":"cebpf4jnsgd1na2vs0mg"},{"bike_id":"cb449aeb-63bf-4e11-a01d-928c7eea1054","system_id":"levelo_inurba_marseille","lat":43.28594,"lon":5.35116,"is_reserved":false,"is_disabled":false,"rental_uris":{"android":"levelo://app?vid=cb449aeb-63bf-4e11-a01d-928c7eea1054","ios":"levelo://app?vid=cb449aeb-63bf-4e11-a01d-928c7eea1054"},"vehicle_type_id":"4","last_reported":1747246424,"current_range_meters":13600,"station_id":"ce4bhch2rcd13ifvqeug","pricing_plan_id":"cebpf4jnsgd1na2vs0mg"},{"bike_id":"4a464b53-b6f1-406f-977c-852b5d022713","system_id":"levelo_inurba_marseille","lat":43.24386,"lon":5.37057,"is_reserved":false,"is_disabled":false,"rental_uris":{"android":"levelo://app?vid=4a464b53-b6f1-406f-977c-852b5d022713","ios":"levelo://app?vid=4a464b53-b6f1-406f-977c-852b5d022713"},"vehicle_type_id":"4","last_reported":1747246424,"current_range_meters":13600,"station_id":"ce4bhhh2rcd13ifvqfk0","pricing_plan_id":"cebpf4jnsgd1na2vs0mg"},{"bike_id":"17d57f58-ffb0-4d77-bbe5-7f462887ac74","system_id":"levelo_inurba_marseille","lat":43.241771,"lon":5.397119,"is_reserved":false,"is_disabled":false,"rental_uris":{"android":"levelo://app?vid=17d57f58-ffb0-4d77-bbe5-7f462887ac74","ios":"levelo://app?vid=17d57f58-ffb0-4d77-bbe5-7f462887ac74"},"vehicle_type_id":"4","last_reported":1747246424,"current_range_meters":13600,"station_id":"ce4bhn12rcd13ifvqgpg","pricing_plan_id":"cebpf4jnsgd1na2vs0mg"},{"bike_id":"3e73b882-a72c-4764-9071-0dc7a2f0291d","system_id":"levelo_inurba_marseille","lat":43.298651,"lon":5.397323,"is_reserved":false,"is_disabled":false,"rental_uris":{"android":"levelo://app?vid=3e73b882-a72c-4764-9071-0dc7a2f0291d","ios":"levelo://app?vid=3e73b882-a72c-4764-9071-0dc7a2f0291d"},"vehicle_type_id":"4","last_reported":1747246424,"current_range_meters":13600,"station_id":"ce4bhop2rcd13ifvqh8g","pricing_plan_id":"cebpf4jnsgd1na2vs0mg"},{"bike_id":"73078ec5-47ae-4577-8eea-f50fdd43609a","system_id":"levelo_inurba_marseille","lat":43.29551,"lon":5.42296,"is_reserved":false,"is_disabled":false,"rental_uris":{"android":"levelo://app?vid=73078ec5-47ae-4577-8eea-f50fdd43609a","ios":"levelo://app?vid=73078ec5-47ae-4577-8eea-f50fdd43609a"},"vehicle_type_id":"4","last_reported":1747246424,"current_range_meters":13600,"station_id":"ce4bhph2rcd13ifvqhdg","pricing_plan_id":"cebpf4jnsgd1na2vs0mg"},{"bike_id":"669f627d-2c23-4027-b93a-0a39ced0dc04","system_id":"levelo_inurba_marseille","lat":43.22934,"lon":5.35375,"is_reserved":false,"is_disabled":false,"rental_uris":{"android":"levelo://app?vid=669f627d-2c23-4027-b93a-0a39ced0dc04","ios":"levelo://app?vid=669f627d-2c23-4027-b93a-0a39ced0dc04"},"vehicle_type_id":"4","last_reported":1747246424,"current_range_meters":13600,"station_id":"cpo3532slgdg3j2ikp40","pricing_plan_id":"cebpf4jnsgd1na2vs0mg"},{"bike_id":"2acecc11-c539-48bd-a152-5d3c3ee323ca","system_id":"levelo_inurba_marseille","lat":43.27049,"lon":5.4026,"is_reserved":false,"is_disabled":false,"rental_uris":{"android":"levelo://app?vid=2acecc11-c539-48bd-a152-5d3c3ee323ca","ios":"levelo://app?vid=2acecc11-c539-48bd-a152-5d3c3ee323ca"},"vehicle_type_id":"4","last_reported":1747246424,"current_range_meters":14000,"station_id":"ce4bhk92rcd13ifvqgc0","pricing_plan_id":"cebpf4jnsgd1na2vs0mg"},{"bike_id":"e25e97af-2bf0-4380-b878-064b0649e13e","system_id":"levelo_inurba_marseille","lat":43.28079,"lon":5.39663,"is_reserved":false,"is_disabled":false,"rental_uris":{"android":"levelo://app?vid=e25e97af-2bf0-4380-b878-064b0649e13e","ios":"levelo://app?vid=e25e97af-2bf0-4380-b878-064b0649e13e"},"vehicle_type_id":"4","last_reported":1747246424,"current_range_meters":14000,"station_id":"ce4bho12rcd13ifvqh2g","pricing_plan_id":"cebpf4jnsgd1na2vs0mg"},{"bike_id":"faac790c-285b-4e73-ad07-d3dc84f9c931","system_id":"levelo_inurba_marseille","lat":43.296265,"lon":5.390036,"is_reserved":false,"is_disabled":false,"rental_uris":{"android":"levelo://app?vid=faac790c-285b-4e73-ad07-d3dc84f9c931","ios":"levelo://app?vid=faac790c-285b-4e73-ad07-d3dc84f9c931"},"vehicle_type_id":"4","last_reported":1747246424,"current_range_meters":14000,"station_id":"ce4bhph2rcd13ifvqhdg","pricing_plan_id":"cebpf4jnsgd1na2vs0mg"},{"bike_id":"cf04a449-8245-40e5-866f-abb00b28cc6f","system_id":"levelo_inurba_marseille","lat":43.229384,"lon":5.353624,"is_reserved":false,"is_disabled":false,"rental_uris":{"android":"levelo://app?vid=cf04a449-8245-40e5-866f-abb00b28cc6f","ios":"levelo://app?vid=cf04a449-8245-40e5-866f-abb00b28cc6f"},"vehicle_type_id":"4","last_reported":1747246424,"current_range_meters":14000,"station_id":"cpo3532slgdg3j2ikp40","pricing_plan_id":"cebpf4jnsgd1na2vs0mg"},{"bike_id":"89fca7c1-6fe5-48dd-b98d-a4f42b8e1bfc","system_id":"levelo_inurba_marseille","lat":43.21743,"lon":5.34605,"is_reserved":false,"is_disabled":false,"rental_uris":{"android":"levelo://app?vid=89fca7c1-6fe5-48dd-b98d-a4f42b8e1bfc","ios":"levelo://app?vid=89fca7c1-6fe5-48dd-b98d-a4f42b8e1bfc"},"vehicle_type_id":"4","last_reported":1747246424,"current_range_meters":14000,"station_id":"st_cvj6r9ubvosntc0bgbag","pricing_plan_id":"cebpf4jnsgd1na2vs0mg"},{"bike_id":"40034a3b-9923-44c5-a756-abb5c60d6675","system_id":"levelo_inurba_marseille","lat":43.26595,"lon":5.39512,"is_reserved":false,"is_disabled":false,"rental_uris":{"android":"levelo://app?vid=40034a3b-9923-44c5-a756-abb5c60d6675","ios":"levelo://app?vid=40034a3b-9923-44c5-a756-abb5c60d6675"},"vehicle_type_id":"4","last_reported":1747246424,"current_range_meters":14400,"station_id":"","pricing_plan_id":"cebpf4jnsgd1na2vs0mg"},{"bike_id":"e5bc00ce-46ab-46b4-b2ea-2583d5ded731","system_id":"levelo_inurba_marseille","lat":43.29842,"lon":5.36281,"is_reserved":false,"is_disabled":false,"rental_uris":{"android":"levelo://app?vid=e5bc00ce-46ab-46b4-b2ea-2583d5ded731","ios":"levelo://app?vid=e5bc00ce-46ab-46b4-b2ea-2583d5ded731"},"vehicle_type_id":"4","last_reported":1747246424,"current_range_meters":14400,"station_id":"ce4bgpp2rcd13ifvqc3g","pricing_plan_id":"cebpf4jnsgd1na2vs0mg"},{"bike_id":"9d5afb3c-f65b-448d-87c7-27ca74bb18df","system_id":"levelo_inurba_marseille","lat":43.29004,"lon":5.35615,"is_reserved":false,"is_disabled":false,"rental_uris":{"android":"levelo://app?vid=9d5afb3c-f65b-448d-87c7-27ca74bb18df","ios":"levelo://app?vid=9d5afb3c-f65b-448d-87c7-27ca74bb18df"},"vehicle_type_id":"4","last_reported":1747246424,"current_range_meters":14800,"station_id":"ce4bhb92rcd13ifvqen0","pricing_plan_id":"cebpf4jnsgd1na2vs0mg"},{"bike_id":"251e065c-d743-4244-8459-843930713d33","system_id":"levelo_inurba_marseille","lat":43.24808,"lon":5.37458,"is_reserved":false,"is_disabled":false,"rental_uris":{"android":"levelo://app?vid=251e065c-d743-4244-8459-843930713d33","ios":"levelo://app?vid=251e065c-d743-4244-8459-843930713d33"},"vehicle_type_id":"4","last_reported":1747246424,"current_range_meters":14800,"station_id":"ce4bhgh2rcd13ifvqfb0","pricing_plan_id":"cebpf4jnsgd1na2vs0mg"},{"bike_id":"7c16b07f-bb48-454e-8132-be553ff23ab6","system_id":"levelo_inurba_marseille","lat":43.24179,"lon":5.39734,"is_reserved":false,"is_disabled":false,"rental_uris":{"android":"levelo://app?vid=7c16b07f-bb48-454e-8132-be553ff23ab6","ios":"levelo://app?vid=7c16b07f-bb48-454e-8132-be553ff23ab6"},"vehicle_type_id":"4","last_reported":1747246424,"current_range_meters":14800,"station_id":"ce4bhn12rcd13ifvqgpg","pricing_plan_id":"cebpf4jnsgd1na2vs0mg"},{"bike_id":"8c7308bf-84fd-4edb-9b86-07fbeaf5e51b","system_id":"levelo_inurba_marseille","lat":43.3171,"lon":5.42395,"is_reserved":false,"is_disabled":false,"rental_uris":{"android":"levelo://app?vid=8c7308bf-84fd-4edb-9b86-07fbeaf5e51b","ios":"levelo://app?vid=8c7308bf-84fd-4edb-9b86-07fbeaf5e51b"},"vehicle_type_id":"4","last_reported":1747246424,"current_range_meters":14800,"station_id":"ce4bhp92rcd13ifvqhbg","pricing_plan_id":"cebpf4jnsgd1na2vs0mg"},{"bike_id":"39aa1628-822e-4ce2-a2a5-c0f8adefac2f","system_id":"levelo_inurba_marseille","lat":43.33739,"lon":5.39179,"is_reserved":false,"is_disabled":false,"rental_uris":{"android":"levelo://app?vid=39aa1628-822e-4ce2-a2a5-c0f8adefac2f","ios":"levelo://app?vid=39aa1628-822e-4ce2-a2a5-c0f8adefac2f"},"vehicle_type_id":"4","last_reported":1747246424,"current_range_meters":14800,"station_id":"ce4bhr92rcd13ifvqhsg","pricing_plan_id":"cebpf4jnsgd1na2vs0mg"},{"bike_id":"164773f1-f89b-4540-88f4-55c8984b5cf1","system_id":"levelo_inurba_marseille","lat":43.28612,"lon":5.37056,"is_reserved":false,"is_disabled":false,"rental_uris":{"android":"levelo://app?vid=164773f1-f89b-4540-88f4-55c8984b5cf1","ios":"levelo://app?vid=164773f1-f89b-4540-88f4-55c8984b5cf1"},"vehicle_type_id":"4","last_reported":1747246424,"current_range_meters":14800,"station_id":"ce4bht12rcd13ifvqi60","pricing_plan_id":"cebpf4jnsgd1na2vs0mg"},{"bike_id":"ee613623-31e1-44c0-961e-7df0445326d3","system_id":"levelo_inurba_marseille","lat":43.28462,"lon":5.3588,"is_reserved":false,"is_disabled":false,"rental_uris":{"android":"levelo://app?vid=ee613623-31e1-44c0-961e-7df0445326d3","ios":"levelo://app?vid=ee613623-31e1-44c0-961e-7df0445326d3"},"vehicle_type_id":"4","last_reported":1747246424,"current_range_meters":15200,"station_id":"ce4bhah2rcd13ifvqei0","pricing_plan_id":"cebpf4jnsgd1na2vs0mg"},{"bike_id":"c3957783-23c2-4225-8ba8-45d25bf9f611","system_id":"levelo_inurba_marseille","lat":43.28269,"lon":5.35078,"is_reserved":false,"is_disabled":false,"rental_uris":{"android":"levelo://app?vid=c3957783-23c2-4225-8ba8-45d25bf9f611","ios":"levelo://app?vid=c3957783-23c2-4225-8ba8-45d25bf9f611"},"vehicle_type_id":"4","last_reported":1747246424,"current_range_meters":15200,"station_id":"ce4bhbp2rcd13ifvqerg","pricing_plan_id":"cebpf4jnsgd1na2vs0mg"},{"bike_id":"d428bd4c-2f0d-472a-85e1-ec1affa268e2","system_id":"levelo_inurba_marseille","lat":43.255,"lon":5.37658,"is_reserved":false,"is_disabled":false,"rental_uris":{"android":"levelo://app?vid=d428bd4c-2f0d-472a-85e1-ec1affa268e2","ios":"levelo://app?vid=d428bd4c-2f0d-472a-85e1-ec1affa268e2"},"vehicle_type_id":"4","last_reported":1747246424,"current_range_meters":15200,"station_id":"ce4bhh12rcd13ifvqff0","pricing_plan_id":"cebpf4jnsgd1na2vs0mg"},{"bike_id":"f0508382-fe4f-4ca9-98bd-9c5a9f338a48","system_id":"levelo_inurba_marseille","lat":43.23959,"lon":5.36632,"is_reserved":false,"is_disabled":false,"rental_uris":{"android":"levelo://app?vid=f0508382-fe4f-4ca9-98bd-9c5a9f338a48","ios":"levelo://app?vid=f0508382-fe4f-4ca9-98bd-9c5a9f338a48"},"vehicle_type_id":"4","last_reported":1747246424,"current_range_meters":15200,"station_id":"ce4bhi12rcd13ifvqfp0","pricing_plan_id":"cebpf4jnsgd1na2vs0mg"},{"bike_id":"8d86e549-799d-463f-8f82-420b4a042f18","system_id":"levelo_inurba_marseille","lat":43.29557,"lon":5.42294,"is_reserved":false,"is_disabled":false,"rental_uris":{"android":"levelo://app?vid=8d86e549-799d-463f-8f82-420b4a042f18","ios":"levelo://app?vid=8d86e549-799d-463f-8f82-420b4a042f18"},"vehicle_type_id":"4","last_reported":1747246424,"current_range_meters":15200,"station_id":"ce4bhph2rcd13ifvqhdg","pricing_plan_id":"cebpf4jnsgd1na2vs0mg"},{"bike_id":"e4aa0fbe-f6ee-44ed-994a-2abd7c7493dd","system_id":"levelo_inurba_marseille","lat":43.29421,"lon":5.38618,"is_reserved":false,"is_disabled":false,"rental_uris":{"android":"levelo://app?vid=e4aa0fbe-f6ee-44ed-994a-2abd7c7493dd","ios":"levelo://app?vid=e4aa0fbe-f6ee-44ed-994a-2abd7c7493dd"},"vehicle_type_id":"4","last_reported":1747246424,"current_range_meters":16000,"station_id":"","pricing_plan_id":"cebpf4jnsgd1na2vs0mg"},{"bike_id":"a7c3f764-a47f-4430-9540-2c0a2c20e8eb","system_id":"levelo_inurba_marseille","lat":43.2901,"lon":5.35596,"is_reserved":false,"is_disabled":false,"rental_uris":{"android":"levelo://app?vid=a7c3f764-a47f-4430-9540-2c0a2c20e8eb","ios":"levelo://app?vid=a7c3f764-a47f-4430-9540-2c0a2c20e8eb"},"vehicle_type_id":"4","last_reported":1747246424,"current_range_meters":16000,"station_id":"ce4bhb92rcd13ifvqen0","pricing_plan_id":"cebpf4jnsgd1na2vs0mg"},{"bike_id":"d778cf32-bfc5-4a0a-858b-bf4642927d88","system_id":"levelo_inurba_marseille","lat":43.29277,"lon":5.36843,"is_reserved":false,"is_disabled":false,"rental_uris":{"android":"levelo://app?vid=d778cf32-bfc5-4a0a-858b-bf4642927d88","ios":"levelo://app?vid=d778cf32-bfc5-4a0a-858b-bf4642927d88"},"vehicle_type_id":"4","last_reported":1747246424,"current_range_meters":16000,"station_id":"ce4bhbp2rcd13ifvqesg","pricing_plan_id":"cebpf4jnsgd1na2vs0mg"},{"bike_id":"e1d28684-91de-49a5-967c-ce9af6b6be46","system_id":"levelo_inurba_marseille","lat":43.28169,"lon":5.42651,"is_reserved":false,"is_disabled":false,"rental_uris":{"android":"levelo://app?vid=e1d28684-91de-49a5-967c-ce9af6b6be46","ios":"levelo://app?vid=e1d28684-91de-49a5-967c-ce9af6b6be46"},"vehicle_type_id":"4","last_reported":1747246424,"current_range_meters":16000,"station_id":"ce4bhnh2rcd13ifvqgug","pricing_plan_id":"cebpf4jnsgd1na2vs0mg"},{"bike_id":"a08eee52-d78f-4d9f-91bd-1df5b309642d","system_id":"levelo_inurba_marseille","lat":43.23192,"lon":5.35552,"is_reserved":false,"is_disabled":false,"rental_uris":{"android":"levelo://app?vid=a08eee52-d78f-4d9f-91bd-1df5b309642d","ios":"levelo://app?vid=a08eee52-d78f-4d9f-91bd-1df5b309642d"},"vehicle_type_id":"4","last_reported":1747246424,"current_range_meters":16000,"station_id":"ce4bhu92rcd13ifvqi70","pricing_plan_id":"cebpf4jnsgd1na2vs0mg"},{"bike_id":"d02177fc-1ee3-4f5f-ad4a-65efbac43b49","system_id":"levelo_inurba_marseille","lat":43.301575,"lon":5.387596,"is_reserved":false,"is_disabled":false,"rental_uris":{"android":"levelo://app?vid=d02177fc-1ee3-4f5f-ad4a-65efbac43b49","ios":"levelo://app?vid=d02177fc-1ee3-4f5f-ad4a-65efbac43b49"},"vehicle_type_id":"4","last_reported":1747246424,"current_range_meters":16400,"station_id":"ce4bghh2rcd13ifvqb60","pricing_plan_id":"cebpf4jnsgd1na2vs0mg"},{"bike_id":"e2acee2f-f7a4-4935-abf9-a3a68e466d8c","system_id":"levelo_inurba_marseille","lat":43.30431,"lon":5.38889,"is_reserved":false,"is_disabled":false,"rental_uris":{"android":"levelo://app?vid=e2acee2f-f7a4-4935-abf9-a3a68e466d8c","ios":"levelo://app?vid=e2acee2f-f7a4-4935-abf9-a3a68e466d8c"},"vehicle_type_id":"4","last_reported":1747246424,"current_range_meters":16400,"station_id":"ce4bgk12rcd13ifvqbi0","pricing_plan_id":"cebpf4jnsgd1na2vs0mg"},{"bike_id":"8e5d0fa6-86ce-4a8c-b374-a8380bf81dcc","system_id":"levelo_inurba_marseille","lat":43.29937,"lon":5.36553,"is_reserved":false,"is_disabled":false,"rental_uris":{"android":"levelo://app?vid=8e5d0fa6-86ce-4a8c-b374-a8380bf81dcc","ios":"levelo://app?vid=8e5d0fa6-86ce-4a8c-b374-a8380bf81dcc"},"vehicle_type_id":"4","last_reported":1747246424,"current_range_meters":16400,"station_id":"ce4bgm92rcd13ifvqbr0","pricing_plan_id":"cebpf4jnsgd1na2vs0mg"},{"bike_id":"a534d250-0771-4652-8b99-40670ea96137","system_id":"levelo_inurba_marseille","lat":43.2884,"lon":5.39315,"is_reserved":false,"is_disabled":false,"rental_uris":{"android":"levelo://app?vid=a534d250-0771-4652-8b99-40670ea96137","ios":"levelo://app?vid=a534d250-0771-4652-8b99-40670ea96137"},"vehicle_type_id":"4","last_reported":1747246424,"current_range_meters":16400,"station_id":"ce4bh2p2rcd13ifvqdi0","pricing_plan_id":"cebpf4jnsgd1na2vs0mg"},{"bike_id":"e90de630-b56d-4fd7-9caf-d00c31196447","system_id":"levelo_inurba_marseille","lat":43.28415,"lon":5.37502,"is_reserved":false,"is_disabled":false,"rental_uris":{"android":"levelo://app?vid=e90de630-b56d-4fd7-9caf-d00c31196447","ios":"levelo://app?vid=e90de630-b56d-4fd7-9caf-d00c31196447"},"vehicle_type_id":"4","last_reported":1747246424,"current_range_meters":16400,"station_id":"ce4bh412rcd13ifvqds0","pricing_plan_id":"cebpf4jnsgd1na2vs0mg"},{"bike_id":"260c2eff-2912-4a74-afbb-abd7bf4ed033","system_id":"levelo_inurba_marseille","lat":43.27388,"lon":5.36249,"is_reserved":false,"is_disabled":false,"rental_uris":{"android":"levelo://app?vid=260c2eff-2912-4a74-afbb-abd7bf4ed033","ios":"levelo://app?vid=260c2eff-2912-4a74-afbb-abd7bf4ed033"},"vehicle_type_id":"4","last_reported":1747246424,"current_range_meters":16400,"station_id":"ce4bhbh2rcd13ifvqeo0","pricing_plan_id":"cebpf4jnsgd1na2vs0mg"},{"bike_id":"77a29338-5556-4205-9db9-a624ab9d00e5","system_id":"levelo_inurba_marseille","lat":43.24548,"lon":5.39514,"is_reserved":false,"is_disabled":false,"rental_uris":{"android":"levelo://app?vid=77a29338-5556-4205-9db9-a624ab9d00e5","ios":"levelo://app?vid=77a29338-5556-4205-9db9-a624ab9d00e5"},"vehicle_type_id":"4","last_reported":1747246424,"current_range_meters":16400,"station_id":"ce4bhlp2rcd13ifvqgjg","pricing_plan_id":"cebpf4jnsgd1na2vs0mg"},{"bike_id":"270f3bc4-0d7d-4cd6-9fc0-2d1c219ed071","system_id":"levelo_inurba_marseille","lat":43.278486,"lon":5.406678,"is_reserved":false,"is_disabled":false,"rental_uris":{"android":"levelo://app?vid=270f3bc4-0d7d-4cd6-9fc0-2d1c219ed071","ios":"levelo://app?vid=270f3bc4-0d7d-4cd6-9fc0-2d1c219ed071"},"vehicle_type_id":"4","last_reported":1747246424,"current_range_meters":16400,"station_id":"ce4bhnh2rcd13ifvqgtg","pricing_plan_id":"cebpf4jnsgd1na2vs0mg"},{"bike_id":"94425245-09df-4108-9a30-610dbcaf2585","system_id":"levelo_inurba_marseille","lat":43.31721,"lon":5.424,"is_reserved":false,"is_disabled":false,"rental_uris":{"android":"levelo://app?vid=94425245-09df-4108-9a30-610dbcaf2585","ios":"levelo://app?vid=94425245-09df-4108-9a30-610dbcaf2585"},"vehicle_type_id":"4","last_reported":1747246424,"current_range_meters":16400,"station_id":"ce4bhp92rcd13ifvqhbg","pricing_plan_id":"cebpf4jnsgd1na2vs0mg"},{"bike_id":"201598a9-d6f8-476b-96ae-500e2fa4b2f9","system_id":"levelo_inurba_marseille","lat":43.290483,"lon":5.359127,"is_reserved":false,"is_disabled":false,"rental_uris":{"android":"levelo://app?vid=201598a9-d6f8-476b-96ae-500e2fa4b2f9","ios":"levelo://app?vid=201598a9-d6f8-476b-96ae-500e2fa4b2f9"},"vehicle_type_id":"4","last_reported":1747246424,"current_range_meters":16800,"station_id":"ce4bha92rcd13ifvqeg0","pricing_plan_id":"cebpf4jnsgd1na2vs0mg"},{"bike_id":"14be15b6-fef4-4b06-9baa-7a1c3d2a7871","system_id":"levelo_inurba_marseille","lat":43.30414,"lon":5.41277,"is_reserved":false,"is_disabled":false,"rental_uris":{"android":"levelo://app?vid=14be15b6-fef4-4b06-9baa-7a1c3d2a7871","ios":"levelo://app?vid=14be15b6-fef4-4b06-9baa-7a1c3d2a7871"},"vehicle_type_id":"4","last_reported":1747246424,"current_range_meters":16800,"station_id":"ce4bhop2rcd13ifvqh8g","pricing_plan_id":"cebpf4jnsgd1na2vs0mg"},{"bike_id":"21f5a1a4-43c5-4049-8a8d-3146c5c35157","system_id":"levelo_inurba_marseille","lat":43.22936,"lon":5.35373,"is_reserved":false,"is_disabled":false,"rental_uris":{"android":"levelo://app?vid=21f5a1a4-43c5-4049-8a8d-3146c5c35157","ios":"levelo://app?vid=21f5a1a4-43c5-4049-8a8d-3146c5c35157"},"vehicle_type_id":"4","last_reported":1747246424,"current_range_meters":16800,"station_id":"cpo3532slgdg3j2ikp40","pricing_plan_id":"cebpf4jnsgd1na2vs0mg"},{"bike_id":"d74dda0c-2ae8-4a20-aee3-80ba3b692d64","system_id":"levelo_inurba_marseille","lat":43.30464,"lon":5.37196,"is_reserved":false,"is_disabled":false,"rental_uris":{"android":"levelo://app?vid=d74dda0c-2ae8-4a20-aee3-80ba3b692d64","ios":"levelo://app?vid=d74dda0c-2ae8-4a20-aee3-80ba3b692d64"},"vehicle_type_id":"4","last_reported":1747246424,"current_range_meters":17200,"station_id":"","pricing_plan_id":"cebpf4jnsgd1na2vs0mg"},{"bike_id":"1f56e479-0aa1-4296-9cc0-0a19d64546a2","system_id":"levelo_inurba_marseille","lat":43.255348,"lon":5.376387,"is_reserved":false,"is_disabled":false,"rental_uris":{"android":"levelo://app?vid=1f56e479-0aa1-4296-9cc0-0a19d64546a2","ios":"levelo://app?vid=1f56e479-0aa1-4296-9cc0-0a19d64546a2"},"vehicle_type_id":"4","last_reported":1747246424,"current_range_meters":17200,"station_id":"","pricing_plan_id":"cebpf4jnsgd1na2vs0mg"},{"bike_id":"25577b4b-1e5a-4ce6-9781-7fd14a008277","system_id":"levelo_inurba_marseille","lat":43.28415,"lon":5.34996,"is_reserved":false,"is_disabled":false,"rental_uris":{"android":"levelo://app?vid=25577b4b-1e5a-4ce6-9781-7fd14a008277","ios":"levelo://app?vid=25577b4b-1e5a-4ce6-9781-7fd14a008277"},"vehicle_type_id":"4","last_reported":1747246424,"current_range_meters":17200,"station_id":"ce4bhbh2rcd13ifvqepg","pricing_plan_id":"cebpf4jnsgd1na2vs0mg"},{"bike_id":"1608f3fd-ba57-4d2d-a6dc-e843f320bc0f","system_id":"levelo_inurba_marseille","lat":43.2842,"lon":5.3498,"is_reserved":false,"is_disabled":false,"rental_uris":{"android":"levelo://app?vid=1608f3fd-ba57-4d2d-a6dc-e843f320bc0f","ios":"levelo://app?vid=1608f3fd-ba57-4d2d-a6dc-e843f320bc0f"},"vehicle_type_id":"4","last_reported":1747246424,"current_range_meters":17200,"station_id":"ce4bhbh2rcd13ifvqepg","pricing_plan_id":"cebpf4jnsgd1na2vs0mg"},{"bike_id":"e08deac9-c0e2-4a9f-ad64-9f24a6265818","system_id":"levelo_inurba_marseille","lat":43.2826,"lon":5.35069,"is_reserved":false,"is_disabled":false,"rental_uris":{"android":"levelo://app?vid=e08deac9-c0e2-4a9f-ad64-9f24a6265818","ios":"levelo://app?vid=e08deac9-c0e2-4a9f-ad64-9f24a6265818"},"vehicle_type_id":"4","last_reported":1747246424,"current_range_meters":17200,"station_id":"ce4bhbp2rcd13ifvqerg","pricing_plan_id":"cebpf4jnsgd1na2vs0mg"},{"bike_id":"d3f05add-2399-4930-96be-802df569fbe4","system_id":"levelo_inurba_marseille","lat":43.27545,"lon":5.38436,"is_reserved":false,"is_disabled":false,"rental_uris":{"android":"levelo://app?vid=d3f05add-2399-4930-96be-802df569fbe4","ios":"levelo://app?vid=d3f05add-2399-4930-96be-802df569fbe4"},"vehicle_type_id":"4","last_reported":1747246424,"current_range_meters":17200,"station_id":"ce4bhh92rcd13ifvqfi0","pricing_plan_id":"cebpf4jnsgd1na2vs0mg"},{"bike_id":"60af0a7f-4cfd-4f77-8f2f-31f09c58ccf0","system_id":"levelo_inurba_marseille","lat":43.217476,"lon":5.346091,"is_reserved":false,"is_disabled":true,"rental_uris":{"android":"levelo://app?vid=60af0a7f-4cfd-4f77-8f2f-31f09c58ccf0","ios":"levelo://app?vid=60af0a7f-4cfd-4f77-8f2f-31f09c58ccf0"},"vehicle_type_id":"4","last_reported":1747246424,"current_range_meters":17200,"station_id":"st_cvj6r9ubvosntc0bgbag","pricing_plan_id":"cebpf4jnsgd1na2vs0mg"},{"bike_id":"3cf753b3-e375-48bf-9ae9-353b8cdd6fc3","system_id":"levelo_inurba_marseille","lat":43.2848,"lon":5.38418,"is_reserved":false,"is_disabled":false,"rental_uris":{"android":"levelo://app?vid=3cf753b3-e375-48bf-9ae9-353b8cdd6fc3","ios":"levelo://app?vid=3cf753b3-e375-48bf-9ae9-353b8cdd6fc3"},"vehicle_type_id":"4","last_reported":1747246424,"current_range_meters":17600,"station_id":"ce4bh512rcd13ifvqe3g","pricing_plan_id":"cebpf4jnsgd1na2vs0mg"},{"bike_id":"cf437b12-5b80-4bc3-bae1-e67639bc6708","system_id":"levelo_inurba_marseille","lat":43.2893,"lon":5.36645,"is_reserved":false,"is_disabled":false,"rental_uris":{"android":"levelo://app?vid=cf437b12-5b80-4bc3-bae1-e67639bc6708","ios":"levelo://app?vid=cf437b12-5b80-4bc3-bae1-e67639bc6708"},"vehicle_type_id":"4","last_reported":1747246424,"current_range_meters":17600,"station_id":"ce4bhap2rcd13ifvqek0","pricing_plan_id":"cebpf4jnsgd1na2vs0mg"},{"bike_id":"fa4befad-9e1d-4f2a-8cac-8fccb960e5af","system_id":"levelo_inurba_marseille","lat":43.2894,"lon":5.36641,"is_reserved":false,"is_disabled":false,"rental_uris":{"android":"levelo://app?vid=fa4befad-9e1d-4f2a-8cac-8fccb960e5af","ios":"levelo://app?vid=fa4befad-9e1d-4f2a-8cac-8fccb960e5af"},"vehicle_type_id":"4","last_reported":1747246424,"current_range_meters":17600,"station_id":"ce4bhap2rcd13ifvqek0","pricing_plan_id":"cebpf4jnsgd1na2vs0mg"},{"bike_id":"c2871eb7-bb83-4da8-bd9e-21c07b2319d9","system_id":"levelo_inurba_marseille","lat":43.28943,"lon":5.36635,"is_reserved":false,"is_disabled":false,"rental_uris":{"android":"levelo://app?vid=c2871eb7-bb83-4da8-bd9e-21c07b2319d9","ios":"levelo://app?vid=c2871eb7-bb83-4da8-bd9e-21c07b2319d9"},"vehicle_type_id":"4","last_reported":1747246424,"current_range_meters":17600,"station_id":"ce4bhap2rcd13ifvqek0","pricing_plan_id":"cebpf4jnsgd1na2vs0mg"},{"bike_id":"fc21f0fb-365a-44c4-981d-ed2262f30ba7","system_id":"levelo_inurba_marseille","lat":43.28627,"lon":5.35117,"is_reserved":false,"is_disabled":false,"rental_uris":{"android":"levelo://app?vid=fc21f0fb-365a-44c4-981d-ed2262f30ba7","ios":"levelo://app?vid=fc21f0fb-365a-44c4-981d-ed2262f30ba7"},"vehicle_type_id":"4","last_reported":1747246424,"current_range_meters":17600,"station_id":"ce4bhch2rcd13ifvqeug","pricing_plan_id":"cebpf4jnsgd1na2vs0mg"},{"bike_id":"85229f75-99f9-447a-a3ed-86236028f5a5","system_id":"levelo_inurba_marseille","lat":43.25108,"lon":5.40325,"is_reserved":false,"is_disabled":false,"rental_uris":{"android":"levelo://app?vid=85229f75-99f9-447a-a3ed-86236028f5a5","ios":"levelo://app?vid=85229f75-99f9-447a-a3ed-86236028f5a5"},"vehicle_type_id":"4","last_reported":1747246424,"current_range_meters":17600,"station_id":"ce4bhlh2rcd13ifvqgig","pricing_plan_id":"cebpf4jnsgd1na2vs0mg"},{"bike_id":"0a5e6cc4-0328-4fd7-9db5-c5029f1cf2d9","system_id":"levelo_inurba_marseille","lat":43.32366,"lon":5.38878,"is_reserved":false,"is_disabled":false,"rental_uris":{"android":"levelo://app?vid=0a5e6cc4-0328-4fd7-9db5-c5029f1cf2d9","ios":"levelo://app?vid=0a5e6cc4-0328-4fd7-9db5-c5029f1cf2d9"},"vehicle_type_id":"4","last_reported":1747246424,"current_range_meters":17600,"station_id":"ce4bhqp2rcd13ifvqhog","pricing_plan_id":"cebpf4jnsgd1na2vs0mg"},{"bike_id":"44a12b07-0b1e-437e-b500-1ba2c3a2c26f","system_id":"levelo_inurba_marseille","lat":43.31539,"lon":5.38023,"is_reserved":false,"is_disabled":false,"rental_uris":{"android":"levelo://app?vid=44a12b07-0b1e-437e-b500-1ba2c3a2c26f","ios":"levelo://app?vid=44a12b07-0b1e-437e-b500-1ba2c3a2c26f"},"vehicle_type_id":"4","last_reported":1747246424,"current_range_meters":17600,"station_id":"ce4bhsp2rcd13ifvqi50","pricing_plan_id":"cebpf4jnsgd1na2vs0mg"},{"bike_id":"9d98240b-0ca5-4c66-b24d-0cf314b68f13","system_id":"levelo_inurba_marseille","lat":43.3042,"lon":5.38868,"is_reserved":false,"is_disabled":false,"rental_uris":{"android":"levelo://app?vid=9d98240b-0ca5-4c66-b24d-0cf314b68f13","ios":"levelo://app?vid=9d98240b-0ca5-4c66-b24d-0cf314b68f13"},"vehicle_type_id":"4","last_reported":1747246424,"current_range_meters":18000,"station_id":"ce4bgk12rcd13ifvqbi0","pricing_plan_id":"cebpf4jnsgd1na2vs0mg"},{"bike_id":"d5d489bc-3548-4e8e-836b-9070f8da87d4","system_id":"levelo_inurba_marseille","lat":43.29696,"lon":5.3661,"is_reserved":false,"is_disabled":false,"rental_uris":{"android":"levelo://app?vid=d5d489bc-3548-4e8e-836b-9070f8da87d4","ios":"levelo://app?vid=d5d489bc-3548-4e8e-836b-9070f8da87d4"},"vehicle_type_id":"4","last_reported":1747246424,"current_range_meters":18000,"station_id":"ce4bgn12rcd13ifvqbt0","pricing_plan_id":"cebpf4jnsgd1na2vs0mg"},{"bike_id":"2d988030-e470-40a6-b253-e73eff4052f1","system_id":"levelo_inurba_marseille","lat":43.30464,"lon":5.37901,"is_reserved":false,"is_disabled":false,"rental_uris":{"android":"levelo://app?vid=2d988030-e470-40a6-b253-e73eff4052f1","ios":"levelo://app?vid=2d988030-e470-40a6-b253-e73eff4052f1"},"vehicle_type_id":"4","last_reported":1747246424,"current_range_meters":18000,"station_id":"ce4bgup2rcd13ifvqcn0","pricing_plan_id":"cebpf4jnsgd1na2vs0mg"},{"bike_id":"ac1f9f8a-e61d-4865-8f0c-6768a0c0c57d","system_id":"levelo_inurba_marseille","lat":43.24409,"lon":5.37033,"is_reserved":false,"is_disabled":false,"rental_uris":{"android":"levelo://app?vid=ac1f9f8a-e61d-4865-8f0c-6768a0c0c57d","ios":"levelo://app?vid=ac1f9f8a-e61d-4865-8f0c-6768a0c0c57d"},"vehicle_type_id":"4","last_reported":1747246424,"current_range_meters":18000,"station_id":"ce4bhhh2rcd13ifvqfk0","pricing_plan_id":"cebpf4jnsgd1na2vs0mg"},{"bike_id":"1a550ba1-abd7-420d-921b-fe979cde4562","system_id":"levelo_inurba_marseille","lat":43.32992,"lon":5.39028,"is_reserved":false,"is_disabled":false,"rental_uris":{"android":"levelo://app?vid=1a550ba1-abd7-420d-921b-fe979cde4562","ios":"levelo://app?vid=1a550ba1-abd7-420d-921b-fe979cde4562"},"vehicle_type_id":"4","last_reported":1747246424,"current_range_meters":18000,"station_id":"ce4bhr92rcd13ifvqhrg","pricing_plan_id":"cebpf4jnsgd1na2vs0mg"},{"bike_id":"c682a571-1b8e-42c7-82ff-72c8d128bd01","system_id":"levelo_inurba_marseille","lat":43.29889,"lon":5.38311,"is_reserved":false,"is_disabled":false,"rental_uris":{"android":"levelo://app?vid=c682a571-1b8e-42c7-82ff-72c8d128bd01","ios":"levelo://app?vid=c682a571-1b8e-42c7-82ff-72c8d128bd01"},"vehicle_type_id":"4","last_reported":1747246424,"current_range_meters":18800,"station_id":"","pricing_plan_id":"cebpf4jnsgd1na2vs0mg"},{"bike_id":"1def4d9e-ba54-4554-8279-72b57c0de750","system_id":"levelo_inurba_marseille","lat":43.337444,"lon":5.374475,"is_reserved":false,"is_disabled":false,"rental_uris":{"android":"levelo://app?vid=1def4d9e-ba54-4554-8279-72b57c0de750","ios":"levelo://app?vid=1def4d9e-ba54-4554-8279-72b57c0de750"},"vehicle_type_id":"4","last_reported":1747246424,"current_range_meters":18800,"station_id":"","pricing_plan_id":"cebpf4jnsgd1na2vs0mg"},{"bike_id":"9c4f0cfb-3892-43e8-b212-3036a4c5ad65","system_id":"levelo_inurba_marseille","lat":43.29969,"lon":5.38504,"is_reserved":false,"is_disabled":false,"rental_uris":{"android":"levelo://app?vid=9c4f0cfb-3892-43e8-b212-3036a4c5ad65","ios":"levelo://app?vid=9c4f0cfb-3892-43e8-b212-3036a4c5ad65"},"vehicle_type_id":"4","last_reported":1747246424,"current_range_meters":18800,"station_id":"ce4bgj92rcd13ifvqbd0","pricing_plan_id":"cebpf4jnsgd1na2vs0mg"},{"bike_id":"993f2a6a-5af9-42db-b77a-a5b785e3e768","system_id":"levelo_inurba_marseille","lat":43.31366,"lon":5.38498,"is_reserved":false,"is_disabled":false,"rental_uris":{"android":"levelo://app?vid=993f2a6a-5af9-42db-b77a-a5b785e3e768","ios":"levelo://app?vid=993f2a6a-5af9-42db-b77a-a5b785e3e768"},"vehicle_type_id":"4","last_reported":1747246424,"current_range_meters":18800,"station_id":"ce4bgt92rcd13ifvqcf0","pricing_plan_id":"cebpf4jnsgd1na2vs0mg"},{"bike_id":"7949dc2d-5b60-4ff1-869d-5181204615f9","system_id":"levelo_inurba_marseille","lat":43.28474,"lon":5.3841,"is_reserved":false,"is_disabled":false,"rental_uris":{"android":"levelo://app?vid=7949dc2d-5b60-4ff1-869d-5181204615f9","ios":"levelo://app?vid=7949dc2d-5b60-4ff1-869d-5181204615f9"},"vehicle_type_id":"4","last_reported":1747246424,"current_range_meters":18800,"station_id":"ce4bh512rcd13ifvqe3g","pricing_plan_id":"cebpf4jnsgd1na2vs0mg"},