{"last_updated":1752035130,"ttl":60,"version":"2.2","data":{"bikes":[{"bike_id":"cd20cfea-2f2f-444d-a882-a49b6cf370eb","system_id":"levelo_inurba_marseille","lat":43.337444,"lon":5.374475,"is_reserved":false,"is_disabled":true,"rental_uris":{"android":"levelo://app?vid=cd20cfea-2f2f-444d-a882-a49b6cf370eb","ios":"levelo://app?vid=cd20cfea-2f2f-444d-a882-a49b6cf370eb"},"vehicle_type_id":"4","last_reported":1752035130,"current_range_meters":0,"station_id":"","pricing_plan_id":"cebpf4jnsgd1na2vs0mg"},{"bike_id":"3da29fb8-fc97-44c6-b9ac-31dd456b2fd4","system_id":"levelo_inurba_marseille","lat":43.33771,"lon":5.37424,"is_reserved":false,"is_disabled":true,"rental_uris":{"android":"levelo://app?vid=3da29fb8-fc97-44c6-b9ac-31dd456b2fd4","ios":"levelo://app?vid=3da29fb8-fc97-44c6-b9ac-31dd456b2fd4"},"vehicle_type_id":"4","last_reported":1752035130,"current_range_meters":0,"station_id":"","pricing_plan_id":"cebpf4jnsgd1na2vs0mg"},{"bike_id":"01861ad8-a8d7-4be6-816e-651927c87584","system_id":"levelo_inurba_marseille","lat":43.33751,"lon":5.37456,"is_reserved":false,"is_disabled":true,"rental_uris":{"android":"levelo://app?vid=01861ad8-a8d7-4be6-816e-651927c87584","ios":"levelo://app?vid=01861ad8-a8d7-4be6-816e-651927c87584"},"vehicle_type_id":"4","last_reported":1752035130,"current_range_meters":0,"station_id":"","pricing_plan_id":"cebpf4jnsgd1na2vs0mg"},{"bike_id":"3d508917-55ee-42b6-894b-89c2a444dc06","system_id":"levelo_inurba_marseille","lat":43.33776,"lon":5.37468,"is_reserved":false,"is_disabled":true,"rental_uris":{"android":"levelo://app?vid=3d508917-55ee-42b6-894b-89c2a444dc06","ios":"levelo://app?vid=3d508917-55ee-42b6-894b-89c2a444dc06"},"vehicle_type_id":"4","last_reported":1752035130,"current_range_meters":0,"station_id":"","pricing_plan_id":"cebpf4jnsgd1na2vs0mg"},{"bike_id":"53b1a31e-8ada-40c0-8d64-113a81233c84","system_id":"levelo_inurba_marseille","lat":43.364064,"lon":5.319331,"is_reserved":false,"is_disabled":true,"rental_uris":{"android":"levelo://app?vid=53b1a31e-8ada-40c0-8d64-113a81233c84","ios":"levelo://app?vid=53b1a31e-8ada-40c0-8d64-113a81233c84"},"vehicle_type_id":"4","last_reported":1752035130,"current_range_meters":0,"station_id":"","pricing_plan_id":"cebpf4jnsgd1na2vs0mg"},{"bike_id":"58f55a5c-ed24-41a2-a2d7-e6fe4f18e0b2","system_id":"levelo_inurba_marseille","lat":43.30184,"lon":5.40044,"is_reserved":false,"is_disabled":true,"rental_uris":{"android":"levelo://app?vid=58f55a5c-ed24-41a2-a2d7-e6fe4f18e0b2","ios":"levelo://app?vid=58f55a5c-ed24-41a2-a2d7-e6fe4f18e0b2"},"vehicle_type_id":"4","last_reported":1752035130,"current_range_meters":0,"station_id":"","pricing_plan_id":"cebpf4jnsgd1na2vs0mg"},{"bike_id":"b46ad819-e64b-454b-8826-dbe61468145f","system_id":"levelo_inurba_marseille","lat":43.29237,"lon":5.36867,"is_reserved":false,"is_disabled":true,"rental_uris":{"android":"levelo://app?vid=b46ad819-e64b-454b-8826-dbe61468145f","ios":"levelo://app?vid=b46ad819-e64b-454b-8826-dbe61468145f"},"vehicle_type_id":"4","last_reported":1752035130,"current_range_meters":0,"station_id":"ce4bhbp2rcd13ifvqesg","pricing_plan_id":"cebpf4jnsgd1na2vs0mg"},{"bike_id":"4c669e22-66d1-46c8-bdef-1d9d16b1f0c6","system_id":"levelo_inurba_marseille","lat":43.28617,"lon":5.35104,"is_reserved":false,"is_disabled":true,"rental_uris":{"android":"levelo://app?vid=4c669e22-66d1-46c8-bdef-1d9d16b1f0c6","ios":"levelo://app?vid=4c669e22-66d1-46c8-bdef-1d9d16b1f0c6"},"vehicle_type_id":"4","last_reported":1752035130,"current_range_meters":0,"station_id":"ce4bhch2rcd13ifvqeug","pricing_plan_id":"cebpf4jnsgd1na2vs0mg"},{"bike_id":"93ac6d2f-8069-4549-8599-b67272735a17","system_id":"levelo_inurba_marseille","lat":43.25112,"lon":5.40323,"is_reserved":false,"is_disabled":true,"rental_uris":{"android":"levelo://app?vid=93ac6d2f-8069-4549-8599-b67272735a17","ios":"levelo://app?vid=93ac6d2f-8069-4549-8599-b67272735a17"},"vehicle_type_id":"4","last_reported":1752035130,"current_range_meters":0,"station_id":"ce4bhlh2rcd13ifvqgig","pricing_plan_id":"cebpf4jnsgd1na2vs0mg"},{"bike_id":"47cc12e9-1f9d-4b29-b948-db655857089a","system_id":"levelo_inurba_marseille","lat":43.225,"lon":5.34778,"is_reserved":false,"is_disabled":true,"rental_uris":{"android":"levelo://app?vid=47cc12e9-1f9d-4b29-b948-db655857089a","ios":"levelo://app?vid=47cc12e9-1f9d-4b29-b948-db655857089a"},"vehicle_type_id":"4","last_reported":1752035130,"current_range_meters":0,"station_id":"st_cvj5dfep6f1abm77gieg","pricing_plan_id":"cebpf4jnsgd1na2vs0mg"},{"bike_id":"ed290504-6948-4f69-8584-2e2b0286febf","system_id":"levelo_inurba_marseille","lat":43.211918,"lon":5.350729,"is_reserved":false,"is_disabled":true,"rental_uris":{"android":"levelo://app?vid=ed290504-6948-4f69-8584-2e2b0286febf","ios":"levelo://app?vid=ed290504-6948-4f69-8584-2e2b0286febf"},"vehicle_type_id":"4","last_reported":1752035130,"current_range_meters":0,"station_id":"st_cvj6sg6p6f1abm77japg","pricing_plan_id":"cebpf4jnsgd1na2vs0mg"},{"bike_id":"6661cbd2-6ba2-4b46-b15e-1188df0f29d7","system_id":"levelo_inurba_marseille","lat":43.21185,"lon":5.35067,"is_reserved":false,"is_disabled":true,"rental_uris":{"android":"levelo://app?vid=6661cbd2-6ba2-4b46-b15e-1188df0f29d7","ios":"levelo://app?vid=6661cbd2-6ba2-4b46-b15e-1188df0f29d7"},"vehicle_type_id":"4","last_reported":1752035130,"current_range_meters":0,"station_id":"st_cvj6sg6p6f1abm77japg","pricing_plan_id":"cebpf4jnsgd1na2vs0mg"},{"bike_id":"008e8804-2b69-4a2c-a93c-b87deb88b29b","system_id":"levelo_inurba_marseille","lat":43.307869,"lon":5.376508,"is_reserved":false,"is_disabled":true,"rental_uris":{"android":"levelo://app?vid=008e8804-2b69-4a2c-a93c-b87deb88b29b","ios":"levelo://app?vid=008e8804-2b69-4a2c-a93c-b87deb88b29b"},"vehicle_type_id":"4","last_reported":1752035130,"current_range_meters":1200,"station_id":"ce4bgv92rcd13ifvqcq0","pricing_plan_id":"cebpf4jnsgd1na2vs0mg"},{"bike_id":"a99e9c11-b514-4638-b616-7f21d0e65e6e","system_id":"levelo_inurba_marseille","lat":43.28345,"lon":5.38098,"is_reserved":false,"is_disabled":true,"rental_uris":{"android":"levelo://app?vid=a99e9c11-b514-4638-b616-7f21d0e65e6e","ios":"levelo://app?vid=a99e9c11-b514-4638-b616-7f21d0e65e6e"},"vehicle_type_id":"4","last_reported":1752035130,"current_range_meters":1200,"station_id":"ce4bh412rcd13ifvqdr0","pricing_plan_id":"cebpf4jnsgd1na2vs0mg"},{"bike_id":"e562ad4e-a577-4b7b-a74e-7e00b9c0f52f","system_id":"levelo_inurba_marseille","lat":43.22504,"lon":5.3478,"is_reserved":false,"is_disabled":true,"rental_uris":{"android":"levelo://app?vid=e562ad4e-a577-4b7b-a74e-7e00b9c0f52f","ios":"levelo://app?vid=e562ad4e-a577-4b7b-a74e-7e00b9c0f52f"},"vehicle_type_id":"4","last_reported":1752035130,"current_range_meters":1600,"station_id":"st_cvj5dfep6f1abm77gieg","pricing_plan_id":"cebpf4jnsgd1na2vs0mg"},{"bike_id":"cef03ba1-bfe1-4492-b9ec-f1ba3ab96f5d","system_id":"levelo_inurba_marseille","lat":43.31282,"lon":5.40153,"is_reserved":false,"is_disabled":true,"rental_uris":{"android":"levelo://app?vid=cef03ba1-bfe1-4492-b9ec-f1ba3ab96f5d","ios":"levelo://app?vid=cef03ba1-bfe1-4492-b9ec-f1ba3ab96f5d"},"vehicle_type_id":"4","last_reported":1752035130,"current_range_meters":2000,"station_id":"ce4bh092rcd13ifvqd30","pricing_plan_id":"cebpf4jnsgd1na2vs0mg"},{"bike_id":"d466258f-0750-4833-9b00-1af27f61abe1","system_id":"levelo_inurba_marseille","lat":43.2927,"lon":5.4013,"is_reserved":false,"is_disabled":true,"rental_uris":{"android":"levelo://app?vid=d466258f-0750-4833-9b00-1af27f61abe1","ios":"levelo://app?vid=d466258f-0750-4833-9b00-1af27f61abe1"},"vehicle_type_id":"4","last_reported":1752035130,"current_range_meters":2000,"station_id":"ce4bh312rcd13ifvqdk0","pricing_plan_id":"cebpf4jnsgd1na2vs0mg"},{"bike_id":"c4f89727-d1f3-4948-9675-efc831f59fc0","system_id":"levelo_inurba_marseille","lat":43.30809,"lon":5.38171,"is_reserved":false,"is_disabled":false,"rental_uris":{"android":"levelo://app?vid=c4f89727-d1f3-4948-9675-efc831f59fc0","ios":"levelo://app?vid=c4f89727-d1f3-4948-9675-efc831f59fc0"},"vehicle_type_id":"4","last_reported":1752035130,"current_range_meters":2800,"station_id":"ce4bgt12rcd13ifvqce0","pricing_plan_id":"cebpf4jnsgd1na2vs0mg"},{"bike_id":"e97ee5c0-87e5-403c-92ed-929b14d6ff8f","system_id":"levelo_inurba_marseille","lat":43.28312,"lon":5.38532,"is_reserved":false,"is_disabled":false,"rental_uris":{"android":"levelo://app?vid=e97ee5c0-87e5-403c-92ed-929b14d6ff8f","ios":"levelo://app?vid=e97ee5c0-87e5-403c-92ed-929b14d6ff8f"},"vehicle_type_id":"4","last_reported":1752035130,"current_range_meters":3200,"station_id":"","pricing_plan_id":"cebpf4jnsgd1na2vs0mg"},{"bike_id":"2bff9de0-dd27-4786-8c3a-ac93b8369f5d","system_id":"levelo_inurba_marseille","lat":43.217398,"lon":5.346189,"is_reserved":false,"is_disabled":false,"rental_uris":{"android":"levelo://app?vid=2bff9de0-dd27-4786-8c3a-ac93b8369f5d","ios":"levelo://app?vid=2bff9de0-dd27-4786-8c3a-ac93b8369f5d"},"vehicle_type_id":"4","last_reported":1752035130,"current_range_meters":3200,"station_id":"st_cvj6r9ubvosntc0bgbag","pricing_plan_id":"cebpf4jnsgd1na2vs0mg"},{"bike_id":"0d2a76dd-bbae-44be-8669-4f503228cb32","system_id":"levelo_inurba_marseille","lat":43.28157,"lon":5.42661,"is_reserved":false,"is_disabled":false,"rental_uris":{"android":"levelo://app?vid=0d2a76dd-bbae-44be-8669-4f503228cb32","ios":"levelo://app?vid=0d2a76dd-bbae-44be-8669-4f503228cb32"},"vehicle_type_id":"4","last_reported":1752035130,"current_range_meters":3600,"station_id":"ce4bhnh2rcd13ifvqgug","pricing_plan_id":"cebpf4jnsgd1na2vs0mg"},{"bike_id":"3b22f952-d0bc-4c00-8fd3-7e27b88aea23","system_id":"levelo_inurba_marseille","lat":43.29659,"lon":5.36245,"is_reserved":false,"is_disabled":false,"rental_uris":{"android":"levelo://app?vid=3b22f952-d0bc-4c00-8fd3-7e27b88aea23","ios":"levelo://app?vid=3b22f952-d0bc-4c00-8fd3-7e27b88aea23"},"vehicle_type_id":"4","last_reported":1752035130,"current_range_meters":4000,"station_id":"","pricing_plan_id":"cebpf4jnsgd1na2vs0mg"},{"bike_id":"37f2becd-23f9-4f13-a711-38b8024eeec7","system_id":"levelo_inurba_marseille","lat":43.33768,"lon":5.37516,"is_reserved":false,"is_disabled":false,"rental_uris":{"android":"levelo://app?vid=37f2becd-23f9-4f13-a711-38b8024eeec7","ios":"levelo://app?vid=37f2becd-23f9-4f13-a711-38b8024eeec7"},"vehicle_type_id":"4","last_reported":1752035130,"current_range_meters":4800,"station_id":"","pricing_plan_id":"cebpf4jnsgd1na2vs0mg"},{"bike_id":"14e7b21f-6a49-4bd8-adcb-9e2a34f46350","system_id":"levelo_inurba_marseille","lat":43.28133,"lon":5.3985,"is_reserved":false,"is_disabled":false,"rental_uris":{"android":"levelo://app?vid=14e7b21f-6a49-4bd8-adcb-9e2a34f46350","ios":"levelo://app?vid=14e7b21f-6a49-4bd8-adcb-9e2a34f46350"},"vehicle_type_id":"4","last_reported":1752035130,"current_range_meters":5600,"station_id":"","pricing_plan_id":"cebpf4jnsgd1na2vs0mg"},{"bike_id":"c98d0307-3157-4a39-9409-864e8e505802","system_id":"levelo_inurba_marseille","lat":43.24157,"lon":5.39367,"is_reserved":false,"is_disabled":false,"rental_uris":{"android":"levelo://app?vid=c98d0307-3157-4a39-9409-864e8e505802","ios":"levelo://app?vid=c98d0307-3157-4a39-9409-864e8e505802"},"vehicle_type_id":"4","last_reported":1752035130,"current_range_meters":5600,"station_id":"","pricing_plan_id":"cebpf4jnsgd1na2vs0mg"},{"bike_id":"db9df4e2-8da2-4a2a-a589-f7f91ade2850","system_id":"levelo_inurba_marseille","lat":43.27935,"lon":5.4103,"is_reserved":false,"is_disabled":false,"rental_uris":{"android":"levelo://app?vid=db9df4e2-8da2-4a2a-a589-f7f91ade2850","ios":"levelo://app?vid=db9df4e2-8da2-4a2a-a589-f7f91ade2850"},"vehicle_type_id":"4","last_reported":1752035130,"current_range_meters":5600,"station_id":"ce4bhnp2rcd13ifvqh0g","pricing_plan_id":"cebpf4jnsgd1na2vs0mg"},{"bike_id":"17b9bf06-a0cf-4fad-856c-bd3503a4dbc8","system_id":"levelo_inurba_marseille","lat":43.31689,"lon":5.43703,"is_reserved":false,"is_disabled":false,"rental_uris":{"android":"levelo://app?vid=17b9bf06-a0cf-4fad-856c-bd3503a4dbc8","ios":"levelo://app?vid=17b9bf06-a0cf-4fad-856c-bd3503a4dbc8"},"vehicle_type_id":"4","last_reported":1752035130,"current_range_meters":6000,"station_id":"ce4bhp92rcd13ifvqhcg","pricing_plan_id":"cebpf4jnsgd1na2vs0mg"},{"bike_id":"2c423baa-ecca-420a-87d7-ad0b7e0b9ebb","system_id":"levelo_inurba_marseille","lat":43.28038,"lon":5.35357,"is_reserved":false,"is_disabled":false,"rental_uris":{"android":"levelo://app?vid=2c423baa-ecca-420a-87d7-ad0b7e0b9ebb","ios":"levelo://app?vid=2c423baa-ecca-420a-87d7-ad0b7e0b9ebb"},"vehicle_type_id":"4","last_reported":1752035130,"current_range_meters":6400,"station_id":"","pricing_plan_id":"cebpf4jnsgd1na2vs0mg"},{"bike_id":"bcef6483-64fe-42a6-a47b-f30dede89a1d","system_id":"levelo_inurba_marseille","lat":43.29993,"lon":5.37238,"is_reserved":false,"is_disabled":false,"rental_uris":{"android":"levelo://app?vid=bcef6483-64fe-42a6-a47b-f30dede89a1d","ios":"levelo://app?vid=bcef6483-64fe-42a6-a47b-f30dede89a1d"},"vehicle_type_id":"4","last_reported":1752035130,"current_range_meters":6400,"station_id":"","pricing_plan_id":"cebpf4jnsgd1na2vs0mg"},{"bike_id":"a7536f99-a7e1-471e-8180-3f9e5ad2c318","system_id":"levelo_inurba_marseille","lat":43.29756,"lon":5.37442,"is_reserved":false,"is_disabled":false,"rental_uris":{"android":"levelo://app?vid=a7536f99-a7e1-471e-8180-3f9e5ad2c318","ios":"levelo://app?vid=a7536f99-a7e1-471e-8180-3f9e5ad2c318"},"vehicle_type_id":"4","last_reported":1752035130,"current_range_meters":7200,"station_id":"","pricing_plan_id":"cebpf4jnsgd1na2vs0mg"},{"bike_id":"355e2ee3-6caa-4b86-bdc3-60788f70cd17","system_id":"levelo_inurba_marseille","lat":43.304563,"lon":5.378993,"is_reserved":false,"is_disabled":false,"rental_uris":{"android":"levelo://app?vid=355e2ee3-6caa-4b86-bdc3-60788f70cd17","ios":"levelo://app?vid=355e2ee3-6caa-4b86-bdc3-60788f70cd17"},"vehicle_type_id":"4","last_reported":1752035130,"current_range_meters":7200,"station_id":"ce4bgup2rcd13ifvqcn0","pricing_plan_id":"cebpf4jnsgd1na2vs0mg"},{"bike_id":"875279e3-64a0-4d49-a9f1-10ad8dbead85","system_id":"levelo_inurba_marseille","lat":43.28662,"lon":5.36348,"is_reserved":false,"is_disabled":false,"rental_uris":{"android":"levelo://app?vid=875279e3-64a0-4d49-a9f1-10ad8dbead85","ios":"levelo://app?vid=875279e3-64a0-4d49-a9f1-10ad8dbead85"},"vehicle_type_id":"4","last_reported":1752035130,"current_range_meters":7200,"station_id":"ce4bhah2rcd13ifvqej0","pricing_plan_id":"cebpf4jnsgd1na2vs0mg"},{"bike_id":"2d35dc48-3bd7-438c-a084-02f211f03f2d","system_id":"levelo_inurba_marseille","lat":43.28414,"lon":5.34987,"is_reserved":false,"is_disabled":false,"rental_uris":{"android":"levelo://app?vid=2d35dc48-3bd7-438c-a084-02f211f03f2d","ios":"levelo://app?vid=2d35dc48-3bd7-438c-a084-02f211f03f2d"},"vehicle_type_id":"4","last_reported":1752035130,"current_range_meters":7200,"station_id":"ce4bhbh2rcd13ifvqepg","pricing_plan_id":"cebpf4jnsgd1na2vs0mg"},{"bike_id":"2bd1cd14-a6ba-4a49-8fd7-c5f54f06a9b6","system_id":"levelo_inurba_marseille","lat":43.303167,"lon":5.404441,"is_reserved":false,"is_disabled":false,"rental_uris":{"android":"levelo://app?vid=2bd1cd14-a6ba-4a49-8fd7-c5f54f06a9b6","ios":"levelo://app?vid=2bd1cd14-a6ba-4a49-8fd7-c5f54f06a9b6"},"vehicle_type_id":"4","last_reported":1752035130,"current_range_meters":8000,"station_id":"ce4bh012rcd13ifvqd10","pricing_plan_id":"cebpf4jnsgd1na2vs0mg"},{"bike_id":"eb232cbe-fec5-4c0e-a65b-11ce63336285","system_id":"levelo_inurba_marseille","lat":43.28412,"lon":5.37513,"is_reserved":false,"is_disabled":false,"rental_uris":{"android":"levelo://app?vid=eb232cbe-fec5-4c0e-a65b-11ce63336285","ios":"levelo://app?vid=eb232cbe-fec5-4c0e-a65b-11ce63336285"},"vehicle_type_id":"4","last_reported":1752035130,"current_range_meters":8000,"station_id":"ce4bh412rcd13ifvqds0","pricing_plan_id":"cebpf4jnsgd1na2vs0mg"},{"bike_id":"4ad925d8-b7e9-4754-8d98-08e5345edabf","system_id":"levelo_inurba_marseille","lat":43.255772,"lon":5.382367,"is_reserved":false,"is_disabled":false,"rental_uris":{"android":"levelo://app?vid=4ad925d8-b7e9-4754-8d98-08e5345edabf","ios":"levelo://app?vid=4ad925d8-b7e9-4754-8d98-08e5345edabf"},"vehicle_type_id":"4","last_reported":1752035130,"current_range_meters":8000,"station_id":"ce4bhih2rcd13ifvqfs0","pricing_plan_id":"cebpf4jnsgd1na2vs0mg"},{"bike_id":"00e5e892-e8ad-4d05-a303-bedd737bf3b5","system_id":"levelo_inurba_marseille","lat":43.270543,"lon":5.402605,"is_reserved":false,"is_disabled":false,"rental_uris":{"android":"levelo://app?vid=00e5e892-e8ad-4d05-a303-bedd737bf3b5","ios":"levelo://app?vid=00e5e892-e8ad-4d05-a303-bedd737bf3b5"},"vehicle_type_id":"4","last_reported":1752035130,"current_range_meters":8000,"station_id":"ce4bhk92rcd13ifvqgc0","pricing_plan_id":"cebpf4jnsgd1na2vs0mg"},{"bike_id":"3f24b057-8a85-40e7-ba1d-1d291dbcde11","system_id":"levelo_inurba_marseille","lat":43.28079,"lon":5.39666,"is_reserved":false,"is_disabled":false,"rental_uris":{"android":"levelo://app?vid=3f24b057-8a85-40e7-ba1d-1d291dbcde11","ios":"levelo://app?vid=3f24b057-8a85-40e7-ba1d-1d291dbcde11"},"vehicle_type_id":"4","last_reported":1752035130,"current_range_meters":8000,"station_id":"ce4bho12rcd13ifvqh2g","pricing_plan_id":"cebpf4jnsgd1na2vs0mg"},{"bike_id":"eec24c15-78bc-49b5-84b1-44a4a0226ad1","system_id":"levelo_inurba_marseille","lat":43.32332,"lon":5.40623,"is_reserved":false,"is_disabled":false,"rental_uris":{"android":"levelo://app?vid=eec24c15-78bc-49b5-84b1-44a4a0226ad1","ios":"levelo://app?vid=eec24c15-78bc-49b5-84b1-44a4a0226ad1"},"vehicle_type_id":"4","last_reported":1752035130,"current_range_meters":8000,"station_id":"ce4bhq92rcd13ifvqhjg","pricing_plan_id":"cebpf4jnsgd1na2vs0mg"},{"bike_id":"3c94d2c6-2996-41de-9e54-fa8af7df6912","system_id":"levelo_inurba_marseille","lat":43.21735,"lon":5.34613,"is_reserved":false,"is_disabled":false,"rental_uris":{"android":"levelo://app?vid=3c94d2c6-2996-41de-9e54-fa8af7df6912","ios":"levelo://app?vid=3c94d2c6-2996-41de-9e54-fa8af7df6912"},"vehicle_type_id":"4","last_reported":1752035130,"current_range_meters":8000,"station_id":"st_cvj6r9ubvosntc0bgbag","pricing_plan_id":"cebpf4jnsgd1na2vs0mg"},{"bike_id":"19c552da-55bc-46d8-97cb-d1fbabdad01a","system_id":"levelo_inurba_marseille","lat":43.211962,"lon":5.350699,"is_reserved":false,"is_disabled":false,"rental_uris":{"android":"levelo://app?vid=19c552da-55bc-46d8-97cb-d1fbabdad01a","ios":"levelo://app?vid=19c552da-55bc-46d8-97cb-d1fbabdad01a"},"vehicle_type_id":"4","last_reported":1752035130,"current_range_meters":8000,"station_id":"st_cvj6sg6p6f1abm77japg","pricing_plan_id":"cebpf4jnsgd1na2vs0mg"},{"bike_id":"12f97206-c573-4f7b-89b3-f824e71fa3ae","system_id":"levelo_inurba_marseille","lat":43.24163,"lon":5.39713,"is_reserved":false,"is_disabled":false,"rental_uris":{"android":"levelo://app?vid=12f97206-c573-4f7b-89b3-f824e71fa3ae","ios":"levelo://app?vid=12f97206-c573-4f7b-89b3-f824e71fa3ae"},"vehicle_type_id":"4","last_reported":1752035130,"current_range_meters":8400,"station_id":"ce4bhn12rcd13ifvqgpg","pricing_plan_id":"cebpf4jnsgd1na2vs0mg"},{"bike_id":"373f7154-05e4-4923-8d21-eb4b99691656","system_id":"levelo_inurba_marseille","lat":43.31541,"lon":5.38675,"is_reserved":false,"is_disabled":false,"rental_uris":{"android":"levelo://app?vid=373f7154-05e4-4923-8d21-eb4b99691656","ios":"levelo://app?vid=373f7154-05e4-4923-8d21-eb4b99691656"},"vehicle_type_id":"4","last_reported":1752035130,"current_range_meters":8800,"station_id":"","pricing_plan_id":"cebpf4jnsgd1na2vs0mg"},{"bike_id":"e54a69bc-634c-4579-91a1-2ea1e7521c68","system_id":"levelo_inurba_marseille","lat":43.30155,"lon":5.37214,"is_reserved":false,"is_disabled":false,"rental_uris":{"android":"levelo://app?vid=e54a69bc-634c-4579-91a1-2ea1e7521c68","ios":"levelo://app?vid=e54a69bc-634c-4579-91a1-2ea1e7521c68"},"vehicle_type_id":"4","last_reported":1752035130,"current_range_meters":9200,"station_id":"","pricing_plan_id":"cebpf4jnsgd1na2vs0mg"},{"bike_id":"a8d55b55-62b7-4620-9fd0-c7c006da694d","system_id":"levelo_inurba_marseille","lat":43.28658,"lon":5.36354,"is_reserved":false,"is_disabled":false,"rental_uris":{"android":"levelo://app?vid=a8d55b55-62b7-4620-9fd0-c7c006da694d","ios":"levelo://app?vid=a8d55b55-62b7-4620-9fd0-c7c006da694d"},"vehicle_type_id":"4","last_reported":1752035130,"current_range_meters":9200,"station_id":"ce4bhah2rcd13ifvqej0","pricing_plan_id":"cebpf4jnsgd1na2vs0mg"},{"bike_id":"98f46642-8fdc-43be-8379-a5bf33d8441b","system_id":"levelo_inurba_marseille","lat":43.211879,"lon":5.350747,"is_reserved":false,"is_disabled":false,"rental_uris":{"android":"levelo://app?vid=98f46642-8fdc-43be-8379-a5bf33d8441b","ios":"levelo://app?vid=98f46642-8fdc-43be-8379-a5bf33d8441b"},"vehicle_type_id":"4","last_reported":1752035130,"current_range_meters":9200,"station_id":"st_cvj6sg6p6f1abm77japg","pricing_plan_id":"cebpf4jnsgd1na2vs0mg"},{"bike_id":"63a29694-4af7-4a38-a698-5b65cb87714a","system_id":"levelo_inurba_marseille","lat":43.32007,"lon":5.40773,"is_reserved":false,"is_disabled":false,"rental_uris":{"android":"levelo://app?vid=63a29694-4af7-4a38-a698-5b65cb87714a","ios":"levelo://app?vid=63a29694-4af7-4a38-a698-5b65cb87714a"},"vehicle_type_id":"4","last_reported":1752035130,"current_range_meters":9600,"station_id":"","pricing_plan_id":"cebpf4jnsgd1na2vs0mg"},{"bike_id":"888522e3-39b6-4ff3-ad74-ff6c6f771157","system_id":"levelo_inurba_marseille","lat":43.295,"lon":5.40287,"is_reserved":false,"is_disabled":false,"rental_uris":{"android":"levelo://app?vid=888522e3-39b6-4ff3-ad74-ff6c6f771157","ios":"levelo://app?vid=888522e3-39b6-4ff3-ad74-ff6c6f771157"},"vehicle_type_id":"4","last_reported":1752035130,"current_range_meters":9600,"station_id":"","pricing_plan_id":"cebpf4jnsgd1na2vs0mg"},{"bike_id":"538e1b05-e2a4-4a42-9bc7-7ddbe3e776fc","system_id":"levelo_inurba_marseille","lat":43.30786,"lon":5.37644,"is_reserved":false,"is_disabled":false,"rental_uris":{"android":"levelo://app?vid=538e1b05-e2a4-4a42-9bc7-7ddbe3e776fc","ios":"levelo://app?vid=538e1b05-e2a4-4a42-9bc7-7ddbe3e776fc"},"vehicle_type_id":"4","last_reported":1752035130,"current_range_meters":9600,"station_id":"ce4bgv92rcd13ifvqcq0","pricing_plan_id":"cebpf4jnsgd1na2vs0mg"},{"bike_id":"05704d1f-6ebf-46d6-8049-9308e87e926f","system_id":"levelo_inurba_marseille","lat":43.260589,"lon":5.394028,"is_reserved":false,"is_disabled":false,"rental_uris":{"android":"levelo://app?vid=05704d1f-6ebf-46d6-8049-9308e87e926f","ios":"levelo://app?vid=05704d1f-6ebf-46d6-8049-9308e87e926f"},"vehicle_type_id":"4","last_reported":1752035130,"current_range_meters":9600,"station_id":"ce4bhh92rcd13ifvqfj0","pricing_plan_id":"cebpf4jnsgd1na2vs0mg"},{"bike_id":"7867a23a-3bdf-4fa1-9c73-ab4e74e4bcf9","system_id":"levelo_inurba_marseille","lat":43.310685,"lon":5.424449,"is_reserved":false,"is_disabled":false,"rental_uris":{"android":"levelo://app?vid=7867a23a-3bdf-4fa1-9c73-ab4e74e4bcf9","ios":"levelo://app?vid=7867a23a-3bdf-4fa1-9c73-ab4e74e4bcf9"},"vehicle_type_id":"4","last_reported":1752035130,"current_range_meters":9600,"station_id":"ce4bhp92rcd13ifvqhag","pricing_plan_id":"cebpf4jnsgd1na2vs0mg"},{"bike_id":"09d41f5a-6a7e-48ee-9cbb-ff2065249163","system_id":"levelo_inurba_marseille","lat":43.32002,"lon":5.38132,"is_reserved":false,"is_disabled":false,"rental_uris":{"android":"levelo://app?vid=09d41f5a-6a7e-48ee-9cbb-ff2065249163","ios":"levelo://app?vid=09d41f5a-6a7e-48ee-9cbb-ff2065249163"},"vehicle_type_id":"4","last_reported":1752035130,"current_range_meters":9600,"station_id":"ce4bhr12rcd13ifvqhpg","pricing_plan_id":"cebpf4jnsgd1na2vs0mg"},{"bike_id":"10b1f99e-90ed-4f9c-870a-397752a3c4a8","system_id":"levelo_inurba_marseille","lat":43.269418,"lon":5.40246,"is_reserved":false,"is_disabled":false,"rental_uris":{"android":"levelo://app?vid=10b1f99e-90ed-4f9c-870a-397752a3c4a8","ios":"levelo://app?vid=10b1f99e-90ed-4f9c-870a-397752a3c4a8"},"vehicle_type_id":"4","last_reported":1752035130,"current_range_meters":9600,"station_id":"cjm6bp8fraef2m0cb0m0","pricing_plan_id":"cebpf4jnsgd1na2vs0mg"},{"bike_id":"d26c9c2e-4093-4856-8b31-0b2bfb428c2a","system_id":"levelo_inurba_marseille","lat":43.310689,"lon":5.383632,"is_reserved":false,"is_disabled":false,"rental_uris":{"android":"levelo://app?vid=d26c9c2e-4093-4856-8b31-0b2bfb428c2a","ios":"levelo://app?vid=d26c9c2e-4093-4856-8b31-0b2bfb428c2a"},"vehicle_type_id":"4","last_reported":1752035130,"current_range_meters":10000,"station_id":"ce4bgv92rcd13ifvqcr0","pricing_plan_id":"cebpf4jnsgd1na2vs0mg"},{"bike_id":"9e057cb2-dffc-48cd-a115-95eef14863b5","system_id":"levelo_inurba_marseille","lat":43.2407,"lon":5.37762,"is_reserved":false,"is_disabled":false,"rental_uris":{"android":"levelo://app?vid=9e057cb2-dffc-48cd-a115-95eef14863b5","ios":"levelo://app?vid=9e057cb2-dffc-48cd-a115-95eef14863b5"},"vehicle_type_id":"4","last_reported":1752035130,"current_range_meters":10000,"station_id":"ce4bhnp2rcd13ifvqgvg","pricing_plan_id":"cebpf4jnsgd1na2vs0mg"},{"bike_id":"68131559-19c0-4fe3-9b0b-ee71ca00dce3","system_id":"levelo_inurba_marseille","lat":43.31365,"lon":5.36703,"is_reserved":false,"is_disabled":false,"rental_uris":{"android":"levelo://app?vid=68131559-19c0-4fe3-9b0b-ee71ca00dce3","ios":"levelo://app?vid=68131559-19c0-4fe3-9b0b-ee71ca00dce3"},"vehicle_type_id":"4","last_reported":1752035130,"current_range_meters":10800,"station_id":"ce4bgr92rcd13ifvqc6g","pricing_plan_id":"cebpf4jnsgd1na2vs0mg"},{"bike_id":"0c24c002-49aa-4dee-a865-910b7daed75c","system_id":"levelo_inurba_marseille","lat":43.28957,"lon":5.36382,"is_reserved":false,"is_disabled":false,"rental_uris":{"android":"levelo://app?vid=0c24c002-49aa-4dee-a865-910b7daed75c","ios":"levelo://app?vid=0c24c002-49aa-4dee-a865-910b7daed75c"},"vehicle_type_id":"4","last_reported":1752035130,"current_range_meters":10800,"station_id":"ce4bhc92rcd13ifvqetg","pricing_plan_id":"cebpf4jnsgd1na2vs0mg"},{"bike_id":"786d1f8e-48d7-45a6-98f0-0a0695f005c7","system_id":"levelo_inurba_marseille","lat":43.23955,"lon":5.36642,"is_reserved":false,"is_disabled":false,"rental_uris":{"android":"levelo://app?vid=786d1f8e-48d7-45a6-98f0-0a0695f005c7","ios":"levelo://app?vid=786d1f8e-48d7-45a6-98f0-0a0695f005c7"},"vehicle_type_id":"4","last_reported":1752035130,"current_range_meters":10800,"station_id":"ce4bhi12rcd13ifvqfp0","pricing_plan_id":"cebpf4jnsgd1na2vs0mg"},{"bike_id":"77c63ecf-8ec4-46ab-b695-3fed0ff0fb70","system_id":"levelo_inurba_marseille","lat":43.29893,"lon":5.43687,"is_reserved":false,"is_disabled":false,"rental_uris":{"android":"levelo://app?vid=77c63ecf-8ec4-46ab-b695-3fed0ff0fb70","ios":"levelo://app?vid=77c63ecf-8ec4-46ab-b695-3fed0ff0fb70"},"vehicle_type_id":"4","last_reported":1752035130,"current_range_meters":10800,"station_id":"ce4bhpp2rcd13ifvqhfg","pricing_plan_id":"cebpf4jnsgd1na2vs0mg"},{"bike_id":"b287377f-3d0b-47ac-86fe-9e0dfc1563de","system_id":"levelo_inurba_marseille","lat":43.225018,"lon":5.347769,"is_reserved":false,"is_disabled":false,"rental_uris":{"android":"levelo://app?vid=b287377f-3d0b-47ac-86fe-9e0dfc1563de","ios":"levelo://app?vid=b287377f-3d0b-47ac-86fe-9e0dfc1563de"},"vehicle_type_id":"4","last_reported":1752035130,"current_range_meters":10800,"station_id":"st_cvj5dfep6f1abm77gieg","pricing_plan_id":"cebpf4jnsgd1na2vs0mg"},{"bike_id":"d5ef770d-9759-47e3-b3a5-7d2785ef76db","system_id":"levelo_inurba_marseille","lat":43.32929,"lon":5.39031,"is_reserved":false,"is_disabled":false,"rental_uris":{"android":"levelo://app?vid=d5ef770d-9759-47e3-b3a5-7d2785ef76db","ios":"levelo://app?vid=d5ef770d-9759-47e3-b3a5-7d2785ef76db"},"vehicle_type_id":"4","last_reported":1752035130,"current_range_meters":11200,"station_id":"","pricing_plan_id":"cebpf4jnsgd1na2vs0mg"},{"bike_id":"3030cb07-c041-4d87-a253-8c849c24aa85","system_id":"levelo_inurba_marseille","lat":43.32646,"lon":5.36212,"is_reserved":false,"is_disabled":false,"rental_uris":{"android":"levelo://app?vid=3030cb07-c041-4d87-a253-8c849c24aa85","ios":"levelo://app?vid=3030cb07-c041-4d87-a253-8c849c24aa85"},"vehicle_type_id":"4","last_reported":1752035130,"current_range_meters":11200,"station_id":"","pricing_plan_id":"cebpf4jnsgd1na2vs0mg"},{"bike_id":"809e7d9f-b178-4700-bd01-939b3030627e","system_id":"levelo_inurba_marseille","lat":43.2318,"lon":5.39988,"is_reserved":false,"is_disabled":false,"rental_uris":{"android":"levelo://app?vid=809e7d9f-b178-4700-bd01-939b3030627e","ios":"levelo://app?vid=809e7d9f-b178-4700-bd01-939b3030627e"},"vehicle_type_id":"4","last_reported":1752035130,"current_range_meters":11200,"station_id":"ce4bhn12rcd13ifvqgqg","pricing_plan_id":"cebpf4jnsgd1na2vs0mg"},{"bike_id":"c2ee7d66-374b-44cd-b9d7-9ad64301293b","system_id":"levelo_inurba_marseille","lat":43.3378,"lon":5.37476,"is_reserved":false,"is_disabled":false,"rental_uris":{"android":"levelo://app?vid=c2ee7d66-374b-44cd-b9d7-9ad64301293b","ios":"levelo://app?vid=c2ee7d66-374b-44cd-b9d7-9ad64301293b"},"vehicle_type_id":"4","last_reported":1752035130,"current_range_meters":11600,"station_id":"","pricing_plan_id":"cebpf4jnsgd1na2vs0mg"},{"bike_id":"cc5e7b05-c8c1-4dbf-9203-2f3ace6f1f33","system_id":"levelo_inurba_marseille","lat":43.311159,"lon":5.377701,"is_reserved":false,"is_disabled":false,"rental_uris":{"android":"levelo://app?vid=cc5e7b05-c8c1-4dbf-9203-2f3ace6f1f33","ios":"levelo://app?vid=cc5e7b05-c8c1-4dbf-9203-2f3ace6f1f33"},"vehicle_type_id":"4","last_reported":1752035130,"current_range_meters":11600,"station_id":"ce4bgt92rcd13ifvqcg0","pricing_plan_id":"cebpf4jnsgd1na2vs0mg"},{"bike_id":"82f40aca-214c-480a-99d7-4df294448107","system_id":"levelo_inurba_marseille","lat":43.254895,"lon":5.376448,"is_reserved":false,"is_disabled":false,"rental_uris":{"android":"levelo://app?vid=82f40aca-214c-480a-99d7-4df294448107","ios":"levelo://app?vid=82f40aca-214c-480a-99d7-4df294448107"},"vehicle_type_id":"4","last_reported":1752035130,"current_range_meters":11600,"station_id":"ce4bhh12rcd13ifvqff0","pricing_plan_id":"cebpf4jnsgd1na2vs0mg"},{"bike_id":"bb29e41f-3292-49b1-a9fc-f6c4198e0b85","system_id":"levelo_inurba_marseille","lat":43.31066,"lon":5.42427,"is_reserved":false,"is_disabled":false,"rental_uris":{"android":"levelo://app?vid=bb29e41f-3292-49b1-a9fc-f6c4198e0b85","ios":"levelo://app?vid=bb29e41f-3292-49b1-a9fc-f6c4198e0b85"},"vehicle_type_id":"4","last_reported":1752035130,"current_range_meters":11600,"station_id":"ce4bhp92rcd13ifvqhag","pricing_plan_id":"cebpf4jnsgd1na2vs0mg"},{"bike_id":"2e28e98a-5eb3-4578-ab4d-b141de9daeaa","system_id":"levelo_inurba_marseille","lat":43.264907,"lon":5.395394,"is_reserved":false,"is_disabled":false,"rental_uris":{"android":"levelo://app?vid=2e28e98a-5eb3-4578-ab4d-b141de9daeaa","ios":"levelo://app?vid=2e28e98a-5eb3-4578-ab4d-b141de9daeaa"},"vehicle_type_id":"4","last_reported":1752035130,"current_range_meters":12000,"station_id":"","pricing_plan_id":"cebpf4jnsgd1na2vs0mg"},{"bike_id":"87c2d236-4978-4760-be77-27d7f5a212e4","system_id":"levelo_inurba_marseille","lat":43.29644,"lon":5.36205,"is_reserved":false,"is_disabled":false,"rental_uris":{"android":"levelo://app?vid=87c2d236-4978-4760-be77-27d7f5a212e4","ios":"levelo://app?vid=87c2d236-4978-4760-be77-27d7f5a212e4"},"vehicle_type_id":"4","last_reported":1752035130,"current_range_meters":12000,"station_id":"","pricing_plan_id":"cebpf4jnsgd1na2vs0mg"},{"bike_id":"f7cd5f0d-5ce5-4500-939e-17097e784d05","system_id":"levelo_inurba_marseille","lat":43.29639,"lon":5.40584,"is_reserved":false,"is_disabled":false,"rental_uris":{"android":"levelo://app?vid=f7cd5f0d-5ce5-4500-939e-17097e784d05","ios":"levelo://app?vid=f7cd5f0d-5ce5-4500-939e-17097e784d05"},"vehicle_type_id":"4","last_reported":1752035130,"current_range_meters":12400,"station_id":"ce4bh0h2rcd13ifvqd60","pricing_plan_id":"cebpf4jnsgd1na2vs0mg"},{"bike_id":"8935e67e-e377-4f20-b30d-fbcbd3d43af7","system_id":"levelo_inurba_marseille","lat":43.28627,"lon":5.35114,"is_reserved":false,"is_disabled":false,"rental_uris":{"android":"levelo://app?vid=8935e67e-e377-4f20-b30d-fbcbd3d43af7","ios":"levelo://app?vid=8935e67e-e377-4f20-b30d-fbcbd3d43af7"},"vehicle_type_id":"4","last_reported":1752035130,"current_range_meters":12400,"station_id":"ce4bhch2rcd13ifvqeug","pricing_plan_id":"cebpf4jnsgd1na2vs0mg"},{"bike_id":"3c78f3be-0595-4cde-ab3a-21eba194a66a","system_id":"levelo_inurba_marseille","lat":43.21746,"lon":5.346,"is_reserved":false,"is_disabled":false,"rental_uris":{"android":"levelo://app?vid=3c78f3be-0595-4cde-ab3a-21eba194a66a","ios":"levelo://app?vid=3c78f3be-0595-4cde-ab3a-21eba194a66a"},"vehicle_type_id":"4","last_reported":1752035130,"current_range_meters":12800,"station_id":"","pricing_plan_id":"cebpf4jnsgd1na2vs0mg"},{"bike_id":"dfed5170-dd30-4c34-b10d-0827cb5726cb","system_id":"levelo_inurba_marseille","lat":43.231833,"lon":5.399792,"is_reserved":false,"is_disabled":false,"rental_uris":{"android":"levelo://app?vid=dfed5170-dd30-4c34-b10d-0827cb5726cb","ios":"levelo://app?vid=dfed5170-dd30-4c34-b10d-0827cb5726cb"},"vehicle_type_id":"4","last_reported":1752035130,"current_range_meters":12800,"station_id":"ce4bhn12rcd13ifvqgqg","pricing_plan_id":"cebpf4jnsgd1na2vs0mg"},{"bike_id":"a74d1421-7a37-499b-b1c4-5e1394842b7e","system_id":"levelo_inurba_marseille","lat":43.33702,"lon":5.39179,"is_reserved":false,"is_disabled":false,"rental_uris":{"android":"levelo://app?vid=a74d1421-7a37-499b-b1c4-5e1394842b7e","ios":"levelo://app?vid=a74d1421-7a37-499b-b1c4-5e1394842b7e"},"vehicle_type_id":"4","last_reported":1752035130,"current_range_meters":12800,"station_id":"ce4bhr92rcd13ifvqhsg","pricing_plan_id":"cebpf4jnsgd1na2vs0mg"},{"bike_id":"fe732643-6705-4e38-869b-f6186f4d0d3d","system_id":"levelo_inurba_marseille","lat":43.309363,"lon":5.401676,"is_reserved":false,"is_disabled":false,"rental_uris":{"android":"levelo://app?vid=fe732643-6705-4e38-869b-f6186f4d0d3d","ios":"levelo://app?vid=fe732643-6705-4e38-869b-f6186f4d0d3d"},"vehicle_type_id":"4","last_reported":1752035130,"current_range_meters":13600,"station_id":"ce4bgvp2rcd13ifvqct0","pricing_plan_id":"cebpf4jnsgd1na2vs0mg"},{"bike_id":"ee3b268a-f5bf-413d-8421-48049331943d","system_id":"levelo_inurba_marseille","lat":43.24812,"lon":5.37448,"is_reserved":false,"is_disabled":false,"rental_uris":{"android":"levelo://app?vid=ee3b268a-f5bf-413d-8421-48049331943d","ios":"levelo://app?vid=ee3b268a-f5bf-413d-8421-48049331943d"},"vehicle_type_id":"4","last_reported":1752035130,"current_range_meters":13600,"station_id":"ce4bhgh2rcd13ifvqfb0","pricing_plan_id":"cebpf4jnsgd1na2vs0mg"},{"bike_id":"f919e3c6-7b66-42b9-bf37-89568feb5168","system_id":"levelo_inurba_marseille","lat":43.231499,"lon":5.437214,"is_reserved":false,"is_disabled":false,"rental_uris":{"android":"levelo://app?vid=f919e3c6-7b66-42b9-bf37-89568feb5168","ios":"levelo://app?vid=f919e3c6-7b66-42b9-bf37-89568feb5168"},"vehicle_type_id":"4","last_reported":1752035130,"current_range_meters":13600,"station_id":"ce4bhmp2rcd13ifvqgog","pricing_plan_id":"cebpf4jnsgd1na2vs0mg"},{"bike_id":"ca2bab86-416f-413e-81b0-5002099ee069","system_id":"levelo_inurba_marseille","lat":43.275714,"lon":5.420087,"is_reserved":false,"is_disabled":false,"rental_uris":{"android":"levelo://app?vid=ca2bab86-416f-413e-81b0-5002099ee069","ios":"levelo://app?vid=ca2bab86-416f-413e-81b0-5002099ee069"},"vehicle_type_id":"4","last_reported":1752035130,"current_range_meters":14000,"station_id":"","pricing_plan_id":"cebpf4jnsgd1na2vs0mg"},{"bike_id":"306ce1a6-757b-4897-8796-d879ee9a33eb","system_id":"levelo_inurba_marseille","lat":43.29329,"lon":5.40137,"is_reserved":false,"is_disabled":false,"rental_uris":{"android":"levelo://app?vid=306ce1a6-757b-4897-8796-d879ee9a33eb","ios":"levelo://app?vid=306ce1a6-757b-4897-8796-d879ee9a33eb"},"vehicle_type_id":"4","last_reported":1752035130,"current_range_meters":14000,"station_id":"","pricing_plan_id":"cebpf4jnsgd1na2vs0mg"},{"bike_id":"9959d7fa-4898-43a5-a1ec-b9fed544cad3","system_id":"levelo_inurba_marseille","lat":43.284247,"lon":5.349918,"is_reserved":false,"is_disabled":false,"rental_uris":{"android":"levelo://app?vid=9959d7fa-4898-43a5-a1ec-b9fed544cad3","ios":"levelo://app?vid=9959d7fa-4898-43a5-a1ec-b9fed544cad3"},"vehicle_type_id":"4","last_reported":1752035130,"current_range_meters":14000,"station_id":"ce4bhbh2rcd13ifvqepg","pricing_plan_id":"cebpf4jnsgd1na2vs0mg"},{"bike_id":"e300be26-88d2-4166-9ecf-8a2ee178bcb1","system_id":"levelo_inurba_marseille","lat":43.30797,"lon":5.43526,"is_reserved":false,"is_disabled":false,"rental_uris":{"android":"levelo://app?vid=e300be26-88d2-4166-9ecf-8a2ee178bcb1","ios":"levelo://app?vid=e300be26-88d2-4166-9ecf-8a2ee178bcb1"},"vehicle_type_id":"4","last_reported":1752035130,"current_range_meters":14000,"station_id":"ce4bhph2rcd13ifvqheg","pricing_plan_id":"cebpf4jnsgd1na2vs0mg"},{"bike_id":"84e7e709-4e4f-4764-818c-af719435bfca","system_id":"levelo_inurba_marseille","lat":43.316643,"lon":5.37348,"is_reserved":false,"is_disabled":false,"rental_uris":{"android":"levelo://app?vid=84e7e709-4e4f-4764-818c-af719435bfca","ios":"levelo://app?vid=84e7e709-4e4f-4764-818c-af719435bfca"},"vehicle_type_id":"4","last_reported":1752035130,"current_range_meters":14400,"station_id":"","pricing_plan_id":"cebpf4jnsgd1na2vs0mg"},{"bike_id":"ccaac857-5d62-4272-ae0d-f165af332526","system_id":"levelo_inurba_marseille","lat":43.264903,"lon":5.395449,"is_reserved":false,"is_disabled":false,"rental_uris":{"android":"levelo://app?vid=ccaac857-5d62-4272-ae0d-f165af332526","ios":"levelo://app?vid=ccaac857-5d62-4272-ae0d-f165af332526"},"vehicle_type_id":"4","last_reported":1752035130,"current_range_meters":14400,"station_id":"ce4bhi12rcd13ifvqfq0","pricing_plan_id":"cebpf4jnsgd1na2vs0mg"},{"bike_id":"79388ac0-2613-4db5-929b-88257132b4d6","system_id":"levelo_inurba_marseille","lat":43.31261,"lon":5.40142,"is_reserved":false,"is_disabled":false,"rental_uris":{"android":"levelo://app?vid=79388ac0-2613-4db5-929b-88257132b4d6","ios":"levelo://app?vid=79388ac0-2613-4db5-929b-88257132b4d6"},"vehicle_type_id":"4","last_reported":1752035130,"current_range_meters":14800,"station_id":"ce4bh092rcd13ifvqd30","pricing_plan_id":"cebpf4jnsgd1na2vs0mg"},{"bike_id":"3cf6f2b1-6c40-4c38-92e8-5f76dab34182","system_id":"levelo_inurba_marseille","lat":43.23169,"lon":5.39987,"is_reserved":false,"is_disabled":false,"rental_uris":{"android":"levelo://app?vid=3cf6f2b1-6c40-4c38-92e8-5f76dab34182","ios":"levelo://app?vid=3cf6f2b1-6c40-4c38-92e8-5f76dab34182"},"vehicle_type_id":"4","last_reported":1752035130,"current_range_meters":14800,"station_id":"ce4bhn12rcd13ifvqgqg","pricing_plan_id":"cebpf4jnsgd1na2vs0mg"},{"bike_id":"a5a1db4c-4dcc-46e5-a84f-c0fb8283b97a","system_id":"levelo_inurba_marseille","lat":43.240682,"lon":5.377474,"is_reserved":false,"is_disabled":false,"rental_uris":{"android":"levelo://app?vid=a5a1db4c-4dcc-46e5-a84f-c0fb8283b97a","ios":"levelo://app?vid=a5a1db4c-4dcc-46e5-a84f-c0fb8283b97a"},"vehicle_type_id":"4","last_reported":1752035130,"current_range_meters":14800,"station_id":"ce4bhnp2rcd13ifvqgvg","pricing_plan_id":"cebpf4jnsgd1na2vs0mg"},{"bike_id":"c95621d9-878a-48a5-a574-d23785ada91f","system_id":"levelo_inurba_marseille","lat":43.25159,"lon":5.40272,"is_reserved":false,"is_disabled":false,"rental_uris":{"android":"levelo://app?vid=c95621d9-878a-48a5-a574-d23785ada91f","ios":"levelo://app?vid=c95621d9-878a-48a5-a574-d23785ada91f"},"vehicle_type_id":"4","last_reported":1752035130,"current_range_meters":15200,"station_id":"","pricing_plan_id":"cebpf4jnsgd1na2vs0mg"},{"bike_id":"3aa21853-c52e-42a3-8eef-6018113597e0","system_id":"levelo_inurba_marseille","lat":43.30922,"lon":5.40145,"is_reserved":false,"is_disabled":false,"rental_uris":{"android":"levelo://app?vid=3aa21853-c52e-42a3-8eef-6018113597e0","ios":"levelo://app?vid=3aa21853-c52e-42a3-8eef-6018113597e0"},"vehicle_type_id":"4","last_reported":1752035130,"current_range_meters":15200,"station_id":"ce4bgvp2rcd13ifvqct0","pricing_plan_id":"cebpf4jnsgd1na2vs0mg"},{"bike_id":"a82ccd30-b106-4e38-9cef-c69ca13e523c","system_id":"levelo_inurba_marseille","lat":43.29004,"lon":5.35613,"is_reserved":false,"is_disabled":false,"rental_uris":{"android":"levelo://app?vid=a82ccd30-b106-4e38-9cef-c69ca13e523c","ios":"levelo://app?vid=a82ccd30-b106-4e38-9cef-c69ca13e523c"},"vehicle_type_id":"4","last_reported":1752035130,"current_range_meters":15200,"station_id":"ce4bhb92rcd13ifvqen0","pricing_plan_id":"cebpf4jnsgd1na2vs0mg"},{"bike_id":"f187bca7-730c-495f-b36c-b985f85f6d76","system_id":"levelo_inurba_marseille","lat":43.28617,"lon":5.35086,"is_reserved":false,"is_disabled":false,"rental_uris":{"android":"levelo://app?vid=f187bca7-730c-495f-b36c-b985f85f6d76","ios":"levelo://app?vid=f187bca7-730c-495f-b36c-b985f85f6d76"},"vehicle_type_id":"4","last_reported":1752035130,"current_range_meters":15200,"station_id":"ce4bhch2rcd13ifvqeug","pricing_plan_id":"cebpf4jnsgd1na2vs0mg"},{"bike_id":"e18f18b2-0af3-4980-9c0c-059142a618bf","system_id":"levelo_inurba_marseille","lat":43.2466,"lon":5.3816,"is_reserved":false,"is_disabled":false,"rental_uris":{"android":"levelo://app?vid=e18f18b2-0af3-4980-9c0c-059142a618bf","ios":"levelo://app?vid=e18f18b2-0af3-4980-9c0c-059142a618bf"},"vehicle_type_id":"4","last_reported":1752035130,"current_range_meters":15200,"station_id":"ce4bhih2rcd13ifvqfr0","pricing_plan_id":"cebpf4jnsgd1na2vs0mg"},{"bike_id":"cd812f06-3254-4dc4-bdab-94ecd7361d33","system_id":"levelo_inurba_marseille","lat":43.21748,"lon":5.34598,"is_reserved":false,"is_disabled":false,"rental_uris":{"android":"levelo://app?vid=cd812f06-3254-4dc4-bdab-94ecd7361d33","ios":"levelo://app?vid=cd812f06-3254-4dc4-bdab-94ecd7361d33"},"vehicle_type_id":"4","last_reported":1752035130,"current_range_meters":15200,"station_id":"st_cvj6r9ubvosntc0bgbag","pricing_plan_id":"cebpf4jnsgd1na2vs0mg"},{"bike_id":"d0f90c24-dd03-411b-9731-55305f76b7c8","system_id":"levelo_inurba_marseille","lat":43.211924,"lon":5.350727,"is_reserved":false,"is_disabled":false,"rental_uris":{"android":"levelo://app?vid=d0f90c24-dd03-411b-9731-55305f76b7c8","ios":"levelo://app?vid=d0f90c24-dd03-411b-9731-55305f76b7c8"},"vehicle_type_id":"4","last_reported":1752035130,"current_range_meters":15200,"station_id":"st_cvj6sg6p6f1abm77japg","pricing_plan_id":"cebpf4jnsgd1na2vs0mg"},{"bike_id":"4975b22d-8c48-452f-bd19-7a9d3ed7c378","system_id":"levelo_inurba_marseille","lat":43.29676,"lon":5.37424,"is_reserved":false,"is_disabled":false,"rental_uris":{"android":"levelo://app?vid=4975b22d-8c48-452f-bd19-7a9d3ed7c378","ios":"levelo://app?vid=4975b22d-8c48-452f-bd19-7a9d3ed7c378"},"vehicle_type_id":"4","last_reported":1752035130,"current_range_meters":16000,"station_id":"","pricing_plan_id":"cebpf4jnsgd1na2vs0mg"},{"bike_id":"82e934ba-a598-4bcc-85ae-7c81e56a3ff1","system_id":"levelo_inurba_marseille","lat":43.31576,"lon":5.38879,"is_reserved":false,"is_disabled":false,"rental_uris":{"android":"levelo://app?vid=82e934ba-a598-4bcc-85ae-7c81e56a3ff1","ios":"levelo://app?vid=82e934ba-a598-4bcc-85ae-7c81e56a3ff1"},"vehicle_type_id":"4","last_reported":1752035130,"current_range_meters":16000,"station_id":"","pricing_plan_id":"cebpf4jnsgd1na2vs0mg"},{"bike_id":"c2b72fe0-bae6-4c7b-ad48-9e771b203dc8","system_id":"levelo_inurba_marseille","lat":43.31343,"lon":5.38482,"is_reserved":false,"is_disabled":false,"rental_uris":{"android":"levelo://app?vid=c2b72fe0-bae6-4c7b-ad48-9e771b203dc8","ios":"levelo://app?vid=c2b72fe0-bae6-4c7b-ad48-9e771b203dc8"},"vehicle_type_id":"4","last_reported":1752035130,"current_range_meters":16000,"station_id":"ce4bgt92rcd13ifvqcf0","pricing_plan_id":"cebpf4jnsgd1na2vs0mg"},{"bike_id":"72bcd877-c3e4-4392-b537-46ac61621dc3","system_id":"levelo_inurba_marseille","lat":43.29624,"lon":5.40594,"is_reserved":false,"is_disabled":false,"rental_uris":{"android":"levelo://app?vid=72bcd877-c3e4-4392-b537-46ac61621dc3","ios":"levelo://app?vid=72bcd877-c3e4-4392-b537-46ac61621dc3"},"vehicle_type_id":"4","last_reported":1752035130,"current_range_meters":16000,"station_id":"ce4bh0h2rcd13ifvqd60","pricing_plan_id":"cebpf4jnsgd1na2vs0mg"},{"bike_id":"d6543ad0-16d4-4793-8970-3736097362b9","system_id":"levelo_inurba_marseille","lat":43.28618,"lon":5.35103,"is_reserved":false,"is_disabled":false,"rental_uris":{"android":"levelo://app?vid=d6543ad0-16d4-4793-8970-3736097362b9","ios":"levelo://app?vid=d6543ad0-16d4-4793-8970-3736097362b9"},"vehicle_type_id":"4","last_reported":1752035130,"current_range_meters":16000,"station_id":"ce4bhch2rcd13ifvqeug","pricing_plan_id":"cebpf4jnsgd1na2vs0mg"},{"bike_id":"903fc9f1-ca63-4094-a8f9-ca2339e8e987","system_id":"levelo_inurba_marseille","lat":43.27833,"lon":5.39211,"is_reserved":false,"is_disabled":false,"rental_uris":{"android":"levelo://app?vid=903fc9f1-ca63-4094-a8f9-ca2339e8e987","ios":"levelo://app?vid=903fc9f1-ca63-4094-a8f9-ca2339e8e987"},"vehicle_type_id":"4","last_reported":1752035130,"current_range_meters":16000,"station_id":"ce4bhjp2rcd13ifvqga0","pricing_plan_id":"cebpf4jnsgd1na2vs0mg"},{"bike_id":"198f03ff-ec33-4122-a966-777b524621d2","system_id":"levelo_inurba_marseille","lat":43.262253,"lon":5.404528,"is_reserved":false,"is_disabled":false,"rental_uris":{"android":"levelo://app?vid=198f03ff-ec33-4122-a966-777b524621d2","ios":"levelo://app?vid=198f03ff-ec33-4122-a966-777b524621d2"},"vehicle_type_id":"4","last_reported":1752035130,"current_range_meters":16000,"station_id":"ce4bhmh2rcd13ifvqgmg","pricing_plan_id":"cebpf4jnsgd1na2vs0mg"},{"bike_id":"4cd43d50-e63a-4436-aa3b-34af3b42d7be","system_id":"levelo_inurba_marseille","lat":43.31889,"lon":5.40726,"is_reserved":false,"is_disabled":false,"rental_uris":{"android":"levelo://app?vid=4cd43d50-e63a-4436-aa3b-34af3b42d7be","ios":"levelo://app?vid=4cd43d50-e63a-4436-aa3b-34af3b42d7be"},"vehicle_type_id":"4","last_reported":1752035130,"current_range_meters":16000,"station_id":"ce4bhq12rcd13ifvqhig","pricing_plan_id":"cebpf4jnsgd1na2vs0mg"},{"bike_id":"ac39d365-5643-4610-bf4b-0e5167a77f88","system_id":"levelo_inurba_marseille","lat":43.33719,"lon":5.39176,"is_reserved":false,"is_disabled":false,"rental_uris":{"android":"levelo://app?vid=ac39d365-5643-4610-bf4b-0e5167a77f88","ios":"levelo://app?vid=ac39d365-5643-4610-bf4b-0e5167a77f88"},"vehicle_type_id":"4","last_reported":1752035130,"current_range_meters":16000,"station_id":"ce4bhr92rcd13ifvqhsg","pricing_plan_id":"cebpf4jnsgd1na2vs0mg"},{"bike_id":"845fad86-fa2a-47ed-88d7-6e6d7bb18fb0","system_id":"levelo_inurba_marseille","lat":43.30732,"lon":5.42448,"is_reserved":false,"is_disabled":false,"rental_uris":{"android":"levelo://app?vid=845fad86-fa2a-47ed-88d7-6e6d7bb18fb0","ios":"levelo://app?vid=845fad86-fa2a-47ed-88d7-6e6d7bb18fb0"},"vehicle_type_id":"4","last_reported":1752035130,"current_range_meters":16000,"station_id":"st_cvj6ca6bvosntc0bfgr0","pricing_plan_id":"cebpf4jnsgd1na2vs0mg"},{"bike_id":"3c23990b-201a-4fe3-b425-099d499634bf","system_id":"levelo_inurba_marseille","lat":43.30154,"lon":5.38075,"is_reserved":false,"is_disabled":false,"rental_uris":{"android":"levelo://app?vid=3c23990b-201a-4fe3-b425-099d499634bf","ios":"levelo://app?vid=3c23990b-201a-4fe3-b425-099d499634bf"},"vehicle_type_id":"4","last_reported":1752035130,"current_range_meters":16400,"station_id":"ce4bgjp2rcd13ifvqbh0","pricing_plan_id":"cebpf4jnsgd1na2vs0mg"},{"bike_id":"d1c23156-62ad-45a2-8801-392b1f360ade","system_id":"levelo_inurba_marseille","lat":43.302494,"lon":5.400771,"is_reserved":false,"is_disabled":false,"rental_uris":{"android":"levelo://app?vid=d1c23156-62ad-45a2-8801-392b1f360ade","ios":"levelo://app?vid=d1c23156-62ad-45a2-8801-392b1f360ade"},"vehicle_type_id":"4","last_reported":1752035130,"current_range_meters":16400,"station_id":"ce4bgvh2rcd13ifvqcs0","pricing_plan_id":"cebpf4jnsgd1na2vs0mg"},{"bike_id":"56eb3fdf-ea87-4fcf-85df-3680fa66363e","system_id":"levelo_inurba_marseille","lat":43.22509,"lon":5.34758,"is_reserved":false,"is_disabled":false,"rental_uris":{"android":"levelo://app?vid=56eb3fdf-ea87-4fcf-85df-3680fa66363e","ios":"levelo://app?vid=56eb3fdf-ea87-4fcf-85df-3680fa66363e"},"vehicle_type_id":"4","last_reported":1752035130,"current_range_meters":16400,"station_id":"st_cvj5dfep6f1abm77gieg","pricing_plan_id":"cebpf4jnsgd1na2vs0mg"},{"bike_id":"f5c16f07-bc6f-4121-91a7-5ad90eec4f34","system_id":"levelo_inurba_marseille","lat":43.31204,"lon":5.37311,"is_reserved":false,"is_disabled":false,"rental_uris":{"android":"levelo://app?vid=f5c16f07-bc6f-4121-91a7-5ad90eec4f34","ios":"levelo://app?vid=f5c16f07-bc6f-4121-91a7-5ad90eec4f34"},"vehicle_type_id":"4","last_reported":1752035130,"current_range_meters":16800,"station_id":"","pricing_plan_id":"cebpf4jnsgd1na2vs0mg"},{"bike_id":"0f562908-9d8a-497c-b2bd-20eaf3e93529","system_id":"levelo_inurba_marseille","lat":43.29265,"lon":5.40121,"is_reserved":false,"is_disabled":false,"rental_uris":{"android":"levelo://app?vid=0f562908-9d8a-497c-b2bd-20eaf3e93529","ios":"levelo://app?vid=0f562908-9d8a-497c-b2bd-20eaf3e93529"},"vehicle_type_id":"4","last_reported":1752035130,"current_range_meters":16800,"station_id":"ce4bh312rcd13ifvqdk0","pricing_plan_id":"cebpf4jnsgd1na2vs0mg"},{"bike_id":"ea68ec2a-f366-4375-bc73-49130289492b","system_id":"levelo_inurba_marseille","lat":43.28411,"lon":5.37508,"is_reserved":false,"is_disabled":false,"rental_uris":{"android":"levelo://app?vid=ea68ec2a-f366-4375-bc73-49130289492b","ios":"levelo://app?vid=ea68ec2a-f366-4375-bc73-49130289492b"},"vehicle_type_id":"4","last_reported":1752035130,"current_range_meters":16800,"station_id":"ce4bh412rcd13ifvqds0","pricing_plan_id":"cebpf4jnsgd1na2vs0mg"},{"bike_id":"3bd8b8a3-512e-4c45-8839-c2f9349ff4ec","system_id":"levelo_inurba_marseille","lat":43.21755,"lon":5.34619,"is_reserved":false,"is_disabled":false,"rental_uris":{"android":"levelo://app?vid=3bd8b8a3-512e-4c45-8839-c2f9349ff4ec","ios":"levelo://app?vid=3bd8b8a3-512e-4c45-8839-c2f9349ff4ec"},"vehicle_type_id":"4","last_reported":1752035130,"current_range_meters":16800,"station_id":"st_cvj6r9ubvosntc0bgbag","pricing_plan_id":"cebpf4jnsgd1na2vs0mg"},{"bike_id":"697d5fc4-b988-4a4e-8323-c1ce5ed61a61","system_id":"levelo_inurba_marseille","lat":43.21178,"lon":5.35061,"is_reserved":false,"is_disabled":false,"rental_uris":{"android":"levelo://app?vid=697d5fc4-b988-4a4e-8323-c1ce5ed61a61","ios":"levelo://app?vid=697d5fc4-b988-4a4e-8323-c1ce5ed61a61"},"vehicle_type_id":"4","last_reported":1752035130,"current_range_meters":16800,"station_id":"st_cvj6sg6p6f1abm77japg","pricing_plan_id":"cebpf4jnsgd1na2vs0mg"},{"bike_id":"b6d9b946-f66a-4c6f-96e5-5d23e176360c","system_id":"levelo_inurba_marseille","lat":43.31315,"lon":5.38172,"is_reserved":false,"is_disabled":false,"rental_uris":{"android":"levelo://app?vid=b6d9b946-f66a-4c6f-96e5-5d23e176360c","ios":"levelo://app?vid=b6d9b946-f66a-4c6f-96e5-5d23e176360c"},"vehicle_type_id":"4","last_reported":1752035130,"current_range_meters":17200,"station_id":"","pricing_plan_id":"cebpf4jnsgd1na2vs0mg"},{"bike_id":"b757ffbb-2b71-4330-9f60-5f8a9d46d16e","system_id":"levelo_inurba_marseille","lat":43.29651,"lon":5.37092,"is_reserved":false,"is_disabled":false,"rental_uris":{"android":"levelo://app?vid=b757ffbb-2b71-4330-9f60-5f8a9d46d16e","ios":"levelo://app?vid=b757ffbb-2b71-4330-9f60-5f8a9d46d16e"},"vehicle_type_id":"4","last_reported":1752035130,"current_range_meters":17200,"station_id":"","pricing_plan_id":"cebpf4jnsgd1na2vs0mg"},{"bike_id":"b2caa530-bb19-4cc6-a6bd-61e3e1d7432e","system_id":"levelo_inurba_marseille","lat":43.33763,"lon":5.37461,"is_reserved":false,"is_disabled":false,"rental_uris":{"android":"levelo://app?vid=b2caa530-bb19-4cc6-a6bd-61e3e1d7432e","ios":"levelo://app?vid=b2caa530-bb19-4cc6-a6bd-61e3e1d7432e"},"vehicle_type_id":"4","last_reported":1752035130,"current_range_meters":17200,"station_id":"","pricing_plan_id":"cebpf4jnsgd1na2vs0mg"},{"bike_id":"c65bb56a-21f1-4676-bde0-3122778b5462","system_id":"levelo_inurba_marseille","lat":43.298984,"lon":5.403828,"is_reserved":false,"is_disabled":false,"rental_uris":{"android":"levelo://app?vid=c65bb56a-21f1-4676-bde0-3122778b5462","ios":"levelo://app?vid=c65bb56a-21f1-4676-bde0-3122778b5462"},"vehicle_type_id":"4","last_reported":1752035130,"current_range_meters":17200,"station_id":"","pricing_plan_id":"cebpf4jnsgd1na2vs0mg"},{"bike_id":"0200f227-0636-4df7-8acb-8396acc54756","system_id":"levelo_inurba_marseille","lat":43.310729,"lon":5.383541,"is_reserved":false,"is_disabled":false,"rental_uris":{"android":"levelo://app?vid=0200f227-0636-4df7-8acb-8396acc54756","ios":"levelo://app?vid=0200f227-0636-4df7-8acb-8396acc54756"},"vehicle_type_id":"4","last_reported":1752035130,"current_range_meters":17200,"station_id":"ce4bgv92rcd13ifvqcr0","pricing_plan_id":"cebpf4jnsgd1na2vs0mg"},{"bike_id":"c7f2cf9c-6e87-4697-94ad-78f2cdc1ae17","system_id":"levelo_inurba_marseille","lat":43.30892,"lon":5.39659,"is_reserved":false,"is_disabled":false,"rental_uris":{"android":"levelo://app?vid=c7f2cf9c-6e87-4697-94ad-78f2cdc1ae17","ios":"levelo://app?vid=c7f2cf9c-6e87-4697-94ad-78f2cdc1ae17"},"vehicle_type_id":"4","last_reported":1752035130,"current_range_meters":17200,"station_id":"ce4bh012rcd13ifvqcv0","pricing_plan_id":"cebpf4jnsgd1na2vs0mg"},{"bike_id":"d3e7d1c8-619e-4d4a-b509-cb0804216e13","system_id":"levelo_inurba_marseille","lat":43.30646,"lon":5.40053,"is_reserved":false,"is_disabled":false,"rental_uris":{"android":"levelo://app?vid=d3e7d1c8-619e-4d4a-b509-cb0804216e13","ios":"levelo://app?vid=d3e7d1c8-619e-4d4a-b509-cb0804216e13"},"vehicle_type_id":"4","last_reported":1752035130,"current_range_meters":17200,"station_id":"ce4bh112rcd13ifvqda0","pricing_plan_id":"cebpf4jnsgd1na2vs0mg"},{"bike_id":"2cc5fa8b-8f10-4e35-822d-01d76697906e","system_id":"levelo_inurba_marseille","lat":43.319962,"lon":5.381503,"is_reserved":false,"is_disabled":false,"rental_uris":{"android":"levelo://app?vid=2cc5fa8b-8f10-4e35-822d-01d76697906e","ios":"levelo://app?vid=2cc5fa8b-8f10-4e35-822d-01d76697906e"},"vehicle_type_id":"4","last_reported":1752035130,"current_range_meters":17200,"station_id":"ce4bhr12rcd13ifvqhpg","pricing_plan_id":"cebpf4jnsgd1na2vs0mg"},{"bike_id":"b28aa0a0-791c-4a08-9a16-c7bf6ea0ed5a","system_id":"levelo_inurba_marseille","lat":43.22497,"lon":5.34786,"is_reserved":false,"is_disabled":false,"rental_uris":{"android":"levelo://app?vid=b28aa0a0-791c-4a08-9a16-c7bf6ea0ed5a","ios":"levelo://app?vid=b28aa0a0-791c-4a08-9a16-c7bf6ea0ed5a"},"vehicle_type_id":"4","last_reported":1752035130,"current_range_meters":17200,"station_id":"st_cvj5dfep6f1abm77gieg","pricing_plan_id":"cebpf4jnsgd1na2vs0mg"},{"bike_id":"93d6be08-2471-48d7-9948-c35dc9626201","system_id":"levelo_inurba_marseille","lat":43.31714,"lon":5.37647,"is_reserved":false,"is_disabled":false,"rental_uris":{"android":"levelo://app?vid=93d6be08-2471-48d7-9948-c35dc9626201","ios":"levelo://app?vid=93d6be08-2471-48d7-9948-c35dc9626201"},"vehicle_type_id":"4","last_reported":1752035130,"current_range_meters":17600,"station_id":"","pricing_plan_id":"cebpf4jnsgd1na2vs0mg"},{"bike_id":"09336cd1-7b2f-46b8-ac6e-85b310d42b0a","system_id":"levelo_inurba_marseille","lat":43.29347,"lon":5.42829,"is_reserved":false,"is_disabled":false,"rental_uris":{"android":"levelo://app?vid=09336cd1-7b2f-46b8-ac6e-85b310d42b0a","ios":"levelo://app?vid=09336cd1-7b2f-46b8-ac6e-85b310d42b0a"},"vehicle_type_id":"4","last_reported":1752035130,"current_range_meters":17600,"station_id":"","pricing_plan_id":"cebpf4jnsgd1na2vs0mg"},{"bike_id":"adb4acb0-9f9f-4801-b3fa-444321509f1d","system_id":"levelo_inurba_marseille","lat":43.30307,"lon":5.40453,"is_reserved":false,"is_disabled":false,"rental_uris":{"android":"levelo://app?vid=adb4acb0-9f9f-4801-b3fa-444321509f1d","ios":"levelo://app?vid=adb4acb0-9f9f-4801-b3fa-444321509f1d"},"vehicle_type_id":"4","last_reported":1752035130,"current_range_meters":17600,"station_id":"ce4bh012rcd13ifvqd10","pricing_plan_id":"cebpf4jnsgd1na2vs0mg"},{"bike_id":"651ffb58-679e-4588-a8db-e7bdfc6cd3da","system_id":"levelo_inurba_marseille","lat":43.262239,"lon":5.404544,"is_reserved":false,"is_disabled":false,"rental_uris":{"android":"levelo://app?vid=651ffb58-679e-4588-a8db-e7bdfc6cd3da","ios":"levelo://app?vid=651ffb58-679e-4588-a8db-e7bdfc6cd3da"},"vehicle_type_id":"4","last_reported":1752035130,"current_range_meters":17600,"station_id":"ce4bhmh2rcd13ifvqgmg","pricing_plan_id":"cebpf4jnsgd1na2vs0mg"},{"bike_id":"6e5c2657-ccb8-4153-8b94-2143bc427a03","system_id":"levelo_inurba_marseille","lat":43.22505,"lon":5.34773,"is_reserved":false,"is_disabled":false,"rental_uris":{"android":"levelo://app?vid=6e5c2657-ccb8-4153-8b94-2143bc427a03","ios":"levelo://app?vid=6e5c2657-ccb8-4153-8b94-2143bc427a03"},"vehicle_type_id":"4","last_reported":1752035130,"current_range_meters":17600,"station_id":"st_cvj5dfep6f1abm77gieg","pricing_plan_id":"cebpf4jnsgd1na2vs0mg"},{"bike_id":"1be39311-cfa5-4cbb-b93d-fb0870d6e611","system_id":"levelo_inurba_marseille","lat":43.21167,"lon":5.35079,"is_reserved":false,"is_disabled":false,"rental_uris":{"android":"levelo://app?vid=1be39311-cfa5-4cbb-b93d-fb0870d6e611","ios":"levelo://app?vid=1be39311-cfa5-4cbb-b93d-fb0870d6e611"},"vehicle_type_id":"4","last_reported":1752035130,"current_range_meters":17600,"station_id":"st_cvj6sg6p6f1abm77japg","pricing_plan_id":"cebpf4jnsgd1na2vs0mg"},{"bike_id":"999f2a33-af15-4ca0-853a-d2550f2d6574","system_id":"levelo_inurba_marseille","lat":43.23467,"lon":5.35892,"is_reserved":false,"is_disabled":false,"rental_uris":{"android":"levelo://app?vid=999f2a33-af15-4ca0-853a-d2550f2d6574","ios":"levelo://app?vid=999f2a33-af15-4ca0-853a-d2550f2d6574"},"vehicle_type_id":"4","last_reported":1752035130,"current_range_meters":18000,"station_id":"","pricing_plan_id":"cebpf4jnsgd1na2vs0mg"},{"bike_id":"320f2a33-deaa-4e0a-a3d5-c39ce8ad680a","system_id":"levelo_inurba_marseille","lat":43.31565,"lon":5.37427,"is_reserved":false,"is_disabled":false,"rental_uris":{"android":"levelo://app?vid=320f2a33-deaa-4e0a-a3d5-c39ce8ad680a","ios":"levelo://app?vid=320f2a33-deaa-4e0a-a3d5-c39ce8ad680a"},"vehicle_type_id":"4","last_reported":1752035130,"current_range_meters":18000,"station_id":"","pricing_plan_id":"cebpf4jnsgd1na2vs0mg"},{"bike_id":"db30ce8a-ec57-4542-a666-330e352bf662","system_id":"levelo_inurba_marseille","lat":43.313592,"lon":5.38507,"is_reserved":false,"is_disabled":false,"rental_uris":{"android":"levelo://app?vid=db30ce8a-ec57-4542-a666-330e352bf662","ios":"levelo://app?vid=db30ce8a-ec57-4542-a666-330e352bf662"},"vehicle_type_id":"4","last_reported":1752035130,"current_range_meters":18000,"station_id":"ce4bgt92rcd13ifvqcf0","pricing_plan_id":"cebpf4jnsgd1na2vs0mg"},{"bike_id":"eef00c91-8af9-4792-820d-391370191427","system_id":"levelo_inurba_marseille","lat":43.30521,"lon":5.36546,"is_reserved":false,"is_disabled":false,"rental_uris":{"android":"levelo://app?vid=eef00c91-8af9-4792-820d-391370191427","ios":"levelo://app?vid=eef00c91-8af9-4792-820d-391370191427"},"vehicle_type_id":"4","last_reported":1752035130,"current_range_meters":18800,"station_id":"","pricing_plan_id":"cebpf4jnsgd1na2vs0mg"},{"bike_id":"a8bd0486-d119-4b8a-9ced-e3e851a0c67f","system_id":"levelo_inurba_marseille","lat":43.30778,"lon":5.37638,"is_reserved":false,"is_disabled":false,"rental_uris":{"android":"levelo://app?vid=a8bd0486-d119-4b8a-9ced-e3e851a0c67f","ios":"levelo://app?vid=a8bd0486-d119-4b8a-9ced-e3e851a0c67f"},"vehicle_type_id":"4","last_reported":1752035130,"current_range_meters":18800,"station_id":"ce4bgv92rcd13ifvqcq0","pricing_plan_id":"cebpf4jnsgd1na2vs0mg"},{"bike_id":"2b459895-8084-4ac8-a9da-9da0a88d4d3e","system_id":"levelo_inurba_marseille","lat":43.2892,"lon":5.364095,"is_reserved":false,"is_disabled":false,"rental_uris":{"android":"levelo://app?vid=2b459895-8084-4ac8-a9da-9da0a88d4d3e","ios":"levelo://app?vid=2b459895-8084-4ac8-a9da-9da0a88d4d3e"},"vehicle_type_id":"4","last_reported":1752035130,"current_range_meters":18800,"station_id":"ce4bhc92rcd13ifvqetg","pricing_plan_id":"cebpf4jnsgd1na2vs0mg"},{"bike_id":"b7bd0a60-0d63-49eb-b04b-3c6e4ea787e2","system_id":"levelo_inurba_marseille","lat":43.28629,"lon":5.35097,"is_reserved":false,"is_disabled":false,"rental_uris":{"android":"levelo://app?vid=b7bd0a60-0d63-49eb-b04b-3c6e4ea787e2","ios":"levelo://app?vid=b7bd0a60-0d63-49eb-b04b-3c6e4ea787e2"},"vehicle_type_id":"4","last_reported":1752035130,"current_range_meters":18800,"station_id":"ce4bhch2rcd13ifvqeug","pricing_plan_id":"cebpf4jnsgd1na2vs0mg"},{"bike_id":"0cc5508b-60e3-493b-a3ef-8b047878455f","system_id":"levelo_inurba_marseille","lat":43.27899,"lon":5.38015,"is_reserved":false,"is_disabled":false,"rental_uris":{"android":"levelo://app?vid=0cc5508b-60e3-493b-a3ef-8b047878455f","ios":"levelo://app?vid=0cc5508b-60e3-493b-a3ef-8b047878455f"},"vehicle_type_id":"4","last_reported":1752035130,"current_range_meters":18800,"station_id":"ce4bhf92rcd13ifvqf50","pricing_plan_id":"cebpf4jnsgd1na2vs0mg"},{"bike_id":"7a305d51-5742-4308-b8f1-f89a7aed6968","system_id":"levelo_inurba_marseille","lat":43.32358,"lon":5.36749,"is_reserved":false,"is_disabled":false,"rental_uris":{"android":"levelo://app?vid=7a305d51-5742-4308-b8f1-f89a7aed6968","ios":"levelo://app?vid=7a305d51-5742-4308-b8f1-f89a7aed6968"},"vehicle_type_id":"4","last_reported":1752035130,"current_range_meters":18800,"station_id":"ce4bhsh2rcd13ifvqi2g","pricing_plan_id":"cebpf4jnsgd1na2vs0mg"},{"bike_id":"40fa92fc-f934-431e-b290-17833f63b829","system_id":"levelo_inurba_marseille","lat":43.23192,"lon":5.3553,"is_reserved":false,"is_disabled":false,"rental_uris":{"android":"levelo://app?vid=40fa92fc-f934-431e-b290-17833f63b829","ios":"levelo://app?vid=40fa92fc-f934-431e-b290-17833f63b829"},"vehicle_type_id":"4","last_reported":1752035130,"current_range_meters":18800,"station_id":"ce4bhu92rcd13ifvqi70","pricing_plan_id":"cebpf4jnsgd1na2vs0mg"},{"bike_id":"c0735136-e0f1-410b-b7bc-03f3deffba27","system_id":"levelo_inurba_marseille","lat":43.217406,"lon":5.346073,"is_reserved":false,"is_disabled":false,"rental_uris":{"android":"levelo://app?vid=c0735136-e0f1-410b-b7bc-03f3deffba27","ios":"levelo://app?vid=c0735136-e0f1-410b-b7bc-03f3deffba27"},"vehicle_type_id":"4","last_reported":1752035130,"current_range_meters":18800,"station_id":"st_cvj6r9ubvosntc0bgbag","pricing_plan_id":"cebpf4jnsgd1na2vs0mg"},{"bike_id":"a61aa1db-999e-4f11-85fc-d60f287af5d4","system_id":"levelo_inurba_marseille","lat":43.282705,"lon":5.350749,"is_reserved":false,"is_disabled":false,"rental_uris":{"android":"levelo://app?vid=a61aa1db-999e-4f11-85fc-d60f287af5d4","ios":"levelo://app?vid=a61aa1db-999e-4f11-85fc-d60f287af5d4"},"vehicle_type_id":"4","last_reported":1752035130,"current_range_meters":19200,"station_id":"ce4bhbp2rcd13ifvqerg","pricing_plan_id":"cebpf4jnsgd1na2vs0mg"},{"bike_id":"91a13a8b-8c2b-4511-af53-28f18f0af720","system_id":"levelo_inurba_marseille","lat":43.27046,"lon":5.40285,"is_reserved":false,"is_disabled":false,"rental_uris":{"android":"levelo://app?vid=91a13a8b-8c2b-4511-af53-28f18f0af720","ios":"levelo://app?vid=91a13a8b-8c2b-4511-af53-28f18f0af720"},"vehicle_type_id":"4","last_reported":1752035130,"current_range_meters":19200,"station_id":"ce4bhk92rcd13ifvqgc0","pricing_plan_id":"cebpf4jnsgd1na2vs0mg"},{"bike_id":"0dde599a-9e49-4424-bf17-46b64f156432","system_id":"levelo_inurba_marseille","lat":43.24067,"lon":5.37759,"is_reserved":false,"is_disabled":false,"rental_uris":{"android":"levelo://app?vid=0dde599a-9e49-4424-bf17-46b64f156432","ios":"levelo://app?vid=0dde599a-9e49-4424-bf17-46b64f156432"},"vehicle_type_id":"4","last_reported":1752035130,"current_range_meters":19200,"station_id":"ce4bhnp2rcd13ifvqgvg","pricing_plan_id":"cebpf4jnsgd1na2vs0mg"},{"bike_id":"b189459c-f21e-4428-a78c-19981ce9bbf6","system_id":"levelo_inurba_marseille","lat":43.231981,"lon":5.355554,"is_reserved":false,"is_disabled":false,"rental_uris":{"android":"levelo://app?vid=b189459c-f21e-4428-a78c-19981ce9bbf6","ios":"levelo://app?vid=b189459c-f21e-4428-a78c-19981ce9bbf6"},"vehicle_type_id":"4","last_reported":1752035130,"current_range_meters":19200,"station_id":"ce4bhu92rcd13ifvqi70","pricing_plan_id":"cebpf4jnsgd1na2vs0mg"},{"bike_id":"ca4eb680-ad44-4455-a4fb-d0819fdd23b3","system_id":"levelo_inurba_marseille","lat":43.28468,"lon":5.38542,"is_reserved":false,"is_disabled":false,"rental_uris":{"android":"levelo://app?vid=ca4eb680-ad44-4455-a4fb-d0819fdd23b3","ios":"levelo://app?vid=ca4eb680-ad44-4455-a4fb-d0819fdd23b3"},"vehicle_type_id":"4","last_reported":1752035130,"current_range_meters":19600,"station_id":"ce4bh8p2rcd13ifvqeb0","pricing_plan_id":"cebpf4jnsgd1na2vs0mg"},{"bike_id":"0fa430a1-e796-45c1-8219-0f46c66cd099","system_id":"levelo_inurba_marseille","lat":43.32345,"lon":5.40604,"is_reserved":false,"is_disabled":false,"rental_uris":{"android":"levelo://app?vid=0fa430a1-e796-45c1-8219-0f46c66cd099","ios":"levelo://app?vid=0fa430a1-e796-45c1-8219-0f46c66cd099"},"vehicle_type_id":"4","last_reported":1752035130,"current_range_meters":19600,"station_id":"ce4bhq92rcd13ifvqhjg","pricing_plan_id":"cebpf4jnsgd1na2vs0mg"},{"bike_id":"61b49061-a0e2-4b82-9b22-b2936d2b6312","system_id":"levelo_inurba_marseille","lat":43.32475,"lon":5.36552,"is_reserved":false,"is_disabled":false,"rental_uris":{"android":"levelo://app?vid=61b49061-a0e2-4b82-9b22-b2936d2b6312","ios":"levelo://app?vid=61b49061-a0e2-4b82-9b22-b2936d2b6312"},"vehicle_type_id":"4","last_reported":1752035130,"current_range_meters":19600,"station_id":"ce4bhs12rcd13ifvqhvg","pricing_plan_id":"cebpf4jnsgd1na2vs0mg"},{"bike_id":"feaa7e3a-cbe4-4489-be11-8a12d7eec173","system_id":"levelo_inurba_marseille","lat":43.251758,"lon":5.424889,"is_reserved":false,"is_disabled":false,"rental_uris":{"android":"levelo://app?vid=feaa7e3a-cbe4-4489-be11-8a12d7eec173","ios":"levelo://app?vid=feaa7e3a-cbe4-4489-be11-8a12d7eec173"},"vehicle_type_id":"4","last_reported":1752035130,"current_range_meters":20000,"station_id":"","pricing_plan_id":"cebpf4jnsgd1na2vs0mg"},{"bike_id":"d9390726-87c1-431b-aba3-abc9e80f827d","system_id":"levelo_inurba_marseille","lat":43.311178,"lon":5.377657,"is_reserved":false,"is_disabled":false,"rental_uris":{"android":"levelo://app?vid=d9390726-87c1-431b-aba3-abc9e80f827d","ios":"levelo://app?vid=d9390726-87c1-431b-aba3-abc9e80f827d"},"vehicle_type_id":"4","last_reported":1752035130,"current_range_meters":20000,"station_id":"ce4bgt92rcd13ifvqcg0","pricing_plan_id":"cebpf4jnsgd1na2vs0mg"},{"bike_id":"56719e97-7c9e-4080-a4a3-5f949589c7df","system_id":"levelo_inurba_marseille","lat":43.30763,"lon":5.37649,"is_reserved":false,"is_disabled":false,"rental_uris":{"android":"levelo://app?vid=56719e97-7c9e-4080-a4a3-5f949589c7df","ios":"levelo://app?vid=56719e97-7c9e-4080-a4a3-5f949589c7df"},"vehicle_type_id":"4","last_reported":1752035130,"current_range_meters":20000,"station_id":"ce4bgv92rcd13ifvqcq0","pricing_plan_id":"cebpf4jnsgd1na2vs0mg"},{"bike_id":"e178deb3-9bd6-476e-8508-cccad1dbf1dc","system_id":"levelo_inurba_marseille","lat":43.24669,"lon":5.38135,"is_reserved":false,"is_disabled":false,"rental_uris":{"android":"levelo://app?vid=e178deb3-9bd6-476e-8508-cccad1dbf1dc","ios":"levelo://app?vid=e178deb3-9bd6-476e-8508-cccad1dbf1dc"},"vehicle_type_id":"4","last_reported":1752035130,"current_range_meters":20000,"station_id":"ce4bhih2rcd13ifvqfr0","pricing_plan_id":"cebpf4jnsgd1na2vs0mg"},{"bike_id":"e52ff42a-20e1-4507-ad78-63f6f5f1eea1","system_id":"levelo_inurba_marseille","lat":43.28001,"lon":5.39994,"is_reserved":false,"is_disabled":false,"rental_uris":{"android":"levelo://app?vid=e52ff42a-20e1-4507-ad78-63f6f5f1eea1","ios":"levelo://app?vid=e52ff42a-20e1-4507-ad78-63f6f5f1eea1"},"vehicle_type_id":"4","last_reported":1752035130,"current_range_meters":20000,"station_id":"ce4bho92rcd13ifvqh4g","pricing_plan_id":"cebpf4jnsgd1na2vs0mg"},{"bike_id":"36c387ea-be50-4028-8ecc-21605fe3e879","system_id":"levelo_inurba_marseille","lat":43.29362,"lon":5.42813,"is_reserved":false,"is_disabled":false,"rental_uris":{"android":"levelo://app?vid=36c387ea-be50-4028-8ecc-21605fe3e879","ios":"levelo://app?vid=36c387ea-be50-4028-8ecc-21605fe3e879"},"vehicle_type_id":"4","last_reported":1752035130,"current_range_meters":20400,"station_id":"","pricing_plan_id":"cebpf4jnsgd1na2vs0mg"},{"bike_id":"87d13c3c-9453-4492-8a8f-f2b4c8e828c6","system_id":"levelo_inurba_marseille","lat":43.26177,"lon":5.37049,"is_reserved":false,"is_disabled":false,"rental_uris":{"android":"levelo://app?vid=87d13c3c-9453-4492-8a8f-f2b4c8e828c6","ios":"levelo://app?vid=87d13c3c-9453-4492-8a8f-f2b4c8e828c6"},"vehicle_type_id":"4","last_reported":1752035130,"current_range_meters":20400,"station_id":"","pricing_plan_id":"cebpf4jnsgd1na2vs0mg"},{"bike_id":"ef6311b9-c394-4e85-b3f2-bf62d7fa6877","system_id":"levelo_inurba_marseille","lat":43.245477,"lon":5.395235,"is_reserved":false,"is_disabled":false,"rental_uris":{"android":"levelo://app?vid=ef6311b9-c394-4e85-b3f2-bf62d7fa6877","ios":"levelo://app?vid=ef6311b9-c394-4e85-b3f2-bf62d7fa6877"},"vehicle_type_id":"4","last_reported":1752035130,"current_range_meters":20400,"station_id":"ce4bhlp2rcd13ifvqgjg","pricing_plan_id":"cebpf4jnsgd1na2vs0mg"},{"bike_id":"1c843fea-9154-4ab5-a997-10f28de62d5c","system_id":"levelo_inurba_marseille","lat":43.26547,"lon":5.37383,"is_reserved":false,"is_disabled":false,"rental_uris":{"android":"levelo://app?vid=1c843fea-9154-4ab5-a997-10f28de62d5c","ios":"levelo://app?vid=1c843fea-9154-4ab5-a997-10f28de62d5c"},"vehicle_type_id":"4","last_reported":1752035130,"current_range_meters":20800,"station_id":"","pricing_plan_id":"cebpf4jnsgd1na2vs0mg"},{"bike_id":"9f5e74ce-2459-4c6f-a171-f6d1e8a1ed83","system_id":"levelo_inurba_marseille","lat":43.3186,"lon":5.37546,"is_reserved":false,"is_disabled":false,"rental_uris":{"android":"levelo://app?vid=9f5e74ce-2459-4c6f-a171-f6d1e8a1ed83","ios":"levelo://app?vid=9f5e74ce-2459-4c6f-a171-f6d1e8a1ed83"},"vehicle_type_id":"4","last_reported":1752035130,"current_range_meters":20800,"station_id":"","pricing_plan_id":"cebpf4jnsgd1na2vs0mg"},{"bike_id":"50a7658a-d4b7-4a9f-94be-c4ee3dd322ad","system_id":"levelo_inurba_marseille","lat":43.284154,"lon":5.349846,"is_reserved":false,"is_disabled":false,"rental_uris":{"android":"levelo://app?vid=50a7658a-d4b7-4a9f-94be-c4ee3dd322ad","ios":"levelo://app?vid=50a7658a-d4b7-4a9f-94be-c4ee3dd322ad"},"vehicle_type_id":"4","last_reported":1752035130,"current_range_meters":20800,"station_id":"ce4bhbh2rcd13ifvqepg","pricing_plan_id":"cebpf4jnsgd1na2vs0mg"},{"bike_id":"29cf18ad-a40a-4e97-8971-d05e7295084c","system_id":"levelo_inurba_marseille","lat":43.2572,"lon":5.41112,"is_reserved":false,"is_disabled":false,"rental_uris":{"android":"levelo://app?vid=29cf18ad-a40a-4e97-8971-d05e7295084c","ios":"levelo://app?vid=29cf18ad-a40a-4e97-8971-d05e7295084c"},"vehicle_type_id":"4","last_reported":1752035130,"current_range_meters":20800,"station_id":"ce4bhkp2rcd13ifvqgd0","pricing_plan_id":"cebpf4jnsgd1na2vs0mg"},{"bike_id":"515fac28-6a15-4c66-bf42-d8c0fe366af5","system_id":"levelo_inurba_marseille","lat":43.28077,"lon":5.39647,"is_reserved":false,"is_disabled":false,"rental_uris":{"android":"levelo://app?vid=515fac28-6a15-4c66-bf42-d8c0fe366af5","ios":"levelo://app?vid=515fac28-6a15-4c66-bf42-d8c0fe366af5"},"vehicle_type_id":"4","last_reported":1752035130,"current_range_meters":20800,"station_id":"ce4bho12rcd13ifvqh2g","pricing_plan_id":"cebpf4jnsgd1na2vs0mg"},{"bike_id":"aca47642-4ceb-4a40-bae0-66b7f0d6dee2","system_id":"levelo_inurba_marseille","lat":43.22499,"lon":5.34791,"is_reserved":false,"is_disabled":false,"rental_uris":{"android":"levelo://app?vid=aca47642-4ceb-4a40-bae0-66b7f0d6dee2","ios":"levelo://app?vid=aca47642-4ceb-4a40-bae0-66b7f0d6dee2"},"vehicle_type_id":"4","last_reported":1752035130,"current_range_meters":20800,"station_id":"st_cvj5dfep6f1abm77gieg","pricing_plan_id":"cebpf4jnsgd1na2vs0mg"},{"bike_id":"f4ee1cb0-dbea-484e-96a3-3719ce93782f","system_id":"levelo_inurba_marseille","lat":43.289393,"lon":5.363979,"is_reserved":false,"is_disabled":false,"rental_uris":{"android":"levelo://app?vid=f4ee1cb0-dbea-484e-96a3-3719ce93782f","ios":"levelo://app?vid=f4ee1cb0-dbea-484e-96a3-3719ce93782f"},"vehicle_type_id":"4","last_reported":1752035130,"current_range_meters":21600,"station_id":"ce4bhc92rcd13ifvqetg","pricing_plan_id":"cebpf4jnsgd1na2vs0mg"},{"bike_id":"fe393e70-3017-4f74-9643-ce2ab31a2adc","system_id":"levelo_inurba_marseille","lat":43.2862,"lon":5.35097,"is_reserved":false,"is_disabled":false,"rental_uris":{"android":"levelo://app?vid=fe393e70-3017-4f74-9643-ce2ab31a2adc","ios":"levelo://app?vid=fe393e70-3017-4f74-9643-ce2ab31a2adc"},"vehicle_type_id":"4","last_reported":1752035130,"current_range_meters":21600,"station_id":"ce4bhch2rcd13ifvqeug","pricing_plan_id":"cebpf4jnsgd1na2vs0mg"},{"bike_id":"f851f41c-853b-42a0-a3c5-72fea8cb411f","system_id":"levelo_inurba_marseille","lat":43.279911,"lon":5.400158,"is_reserved":false,"is_disabled":false,"rental_uris":{"android":"levelo://app?vid=f851f41c-853b-42a0-a3c5-72fea8cb411f","ios":"levelo://app?vid=f851f41c-853b-42a0-a3c5-72fea8cb411f"},"vehicle_type_id":"4","last_reported":1752035130,"current_range_meters":21600,"station_id":"ce4bho92rcd13ifvqh4g","pricing_plan_id":"cebpf4jnsgd1na2vs0mg"},{"bike_id":"a2bd025b-f0e6-4a3d-b3d9-ebfa621fa75c","system_id":"levelo_inurba_marseille","lat":43.229329,"lon":5.353789,"is_reserved":false,"is_disabled":false,"rental_uris":{"android":"levelo://app?vid=a2bd025b-f0e6-4a3d-b3d9-ebfa621fa75c","ios":"levelo://app?vid=a2bd025b-f0e6-4a3d-b3d9-ebfa621fa75c"},"vehicle_type_id":"4","last_reported":1752035130,"current_range_meters":21600,"station_id":"cpo3532slgdg3j2ikp40","pricing_plan_id":"cebpf4jnsgd1na2vs0mg"},{"bike_id":"fde530d0-eeed-4692-bb9c-2c65ba0cdd9f","system_id":"levelo_inurba_marseille","lat":43.30847,"lon":5.425767,"is_reserved":false,"is_disabled":false,"rental_uris":{"android":"levelo://app?vid=fde530d0-eeed-4692-bb9c-2c65ba0cdd9f","ios":"levelo://app?vid=fde530d0-eeed-4692-bb9c-2c65ba0cdd9f"},"vehicle_type_id":"4","last_reported":1752035130,"current_range_meters":22000,"station_id":"","pricing_plan_id":"cebpf4jnsgd1na2vs0mg"},{"bike_id":"44f45306-68ce-4555-88f8-434981cfa865","system_id":"levelo_inurba_marseille","lat":43.302473,"lon":5.400523,"is_reserved":false,"is_disabled":false,"rental_uris":{"android":"levelo://app?vid=44f45306-68ce-4555-88f8-434981cfa865","ios":"levelo://app?vid=44f45306-68ce-4555-88f8-434981cfa865"},"vehicle_type_id":"4","last_reported":1752035130,"current_range_meters":22000,"station_id":"ce4bgvh2rcd13ifvqcs0","pricing_plan_id":"cebpf4jnsgd1na2vs0mg"},{"bike_id":"32a62487-ecbb-4881-8526-16ca13257b4f","system_id":"levelo_inurba_marseille","lat":43.26482,"lon":5.39544,"is_reserved":false,"is_disabled":false,"rental_uris":{"android":"levelo://app?vid=32a62487-ecbb-4881-8526-16ca13257b4f","ios":"levelo://app?vid=32a62487-ecbb-4881-8526-16ca13257b4f"},"vehicle_type_id":"4","last_reported":1752035130,"current_range_meters":22000,"station_id":"ce4bhi12rcd13ifvqfq0","pricing_plan_id":"cebpf4jnsgd1na2vs0mg"},{"bike_id":"d6d26929-12fc-4149-bc76-ecd84119e237","system_id":"levelo_inurba_marseille","lat":43.2705,"lon":5.40283,"is_reserved":false,"is_disabled":false,"rental_uris":{"android":"levelo://app?vid=d6d26929-12fc-4149-bc76-ecd84119e237","ios":"levelo://app?vid=d6d26929-12fc-4149-bc76-ecd84119e237"},"vehicle_type_id":"4","last_reported":1752035130,"current_range_meters":22000,"station_id":"ce4bhk92rcd13ifvqgc0","pricing_plan_id":"cebpf4jnsgd1na2vs0mg"},{"bike_id":"51d3cab3-3bb3-4357-a3a5-f7dd39edc0c5","system_id":"levelo_inurba_marseille","lat":43.25451,"lon":5.37946,"is_reserved":false,"is_disabled":false,"rental_uris":{"android":"levelo://app?vid=51d3cab3-3bb3-4357-a3a5-f7dd39edc0c5","ios":"levelo://app?vid=51d3cab3-3bb3-4357-a3a5-f7dd39edc0c5"},"vehicle_type_id":"4","last_reported":1752035130,"current_range_meters":22400,"station_id":"","pricing_plan_id":"cebpf4jnsgd1na2vs0mg"},{"bike_id":"fa87fcb5-aacb-41a1-a789-0296bbd02085","system_id":"levelo_inurba_marseille","lat":43.2456,"lon":5.37366,"is_reserved":false,"is_disabled":false,"rental_uris":{"android":"levelo://app?vid=fa87fcb5-aacb-41a1-a789-0296bbd02085","ios":"levelo://app?vid=fa87fcb5-aacb-41a1-a789-0296bbd02085"},"vehicle_type_id":"4","last_reported":1752035130,"current_range_meters":22400,"station_id":"","pricing_plan_id":"cebpf4jnsgd1na2vs0mg"},{"bike_id":"58786288-b720-496b-971b-7365716623af","system_id":"levelo_inurba_marseille","lat":43.30148,"lon":5.38076,"is_reserved":false,"is_disabled":false,"rental_uris":{"android":"levelo://app?vid=58786288-b720-496b-971b-7365716623af","ios":"levelo://app?vid=58786288-b720-496b-971b-7365716623af"},"vehicle_type_id":"4","last_reported":1752035130,"current_range_meters":22400,"station_id":"ce4bgjp2rcd13ifvqbh0","pricing_plan_id":"cebpf4jnsgd1na2vs0mg"},{"bike_id":"f1911d33-4ce3-480c-b20d-7097badfb080","system_id":"levelo_inurba_marseille","lat":43.30928,"lon":5.40152,"is_reserved":false,"is_disabled":false,"rental_uris":{"android":"levelo://app?vid=f1911d33-4ce3-480c-b20d-7097badfb080","ios":"levelo://app?vid=f1911d33-4ce3-480c-b20d-7097badfb080"},"vehicle_type_id":"4","last_reported":1752035130,"current_range_meters":22400,"station_id":"ce4bgvp2rcd13ifvqct0","pricing_plan_id":"cebpf4jnsgd1na2vs0mg"},{"bike_id":"146fa3fb-6992-4d74-99df-a2a0d7805793","system_id":"levelo_inurba_marseille","lat":43.306,"lon":5.3933,"is_reserved":false,"is_disabled":false,"rental_uris":{"android":"levelo://app?vid=146fa3fb-6992-4d74-99df-a2a0d7805793","ios":"levelo://app?vid=146fa3fb-6992-4d74-99df-a2a0d7805793"},"vehicle_type_id":"4","last_reported":1752035130,"current_range_meters":22400,"station_id":"ce4bh0p2rcd13ifvqd80","pricing_plan_id":"cebpf4jnsgd1na2vs0mg"},{"bike_id":"a1790ffb-7156-4a05-935e-ed5772513479","system_id":"levelo_inurba_marseille","lat":43.28099,"lon":5.3783,"is_reserved":false,"is_disabled":false,"rental_uris":{"android":"levelo://app?vid=a1790ffb-7156-4a05-935e-ed5772513479","ios":"levelo://app?vid=a1790ffb-7156-4a05-935e-ed5772513479"},"vehicle_type_id":"4","last_reported":1752035130,"current_range_meters":22400,"station_id":"ce4bha12rcd13ifvqee0","pricing_plan_id":"cebpf4jnsgd1na2vs0mg"},{"bike_id":"3f6c8592-d72a-4bd1-b6cd-450a278e727e","system_id":"levelo_inurba_marseille","lat":43.246732,"lon":5.381631,"is_reserved":false,"is_disabled":false,"rental_uris":{"android":"levelo://app?vid=3f6c8592-d72a-4bd1-b6cd-450a278e727e","ios":"levelo://app?vid=3f6c8592-d72a-4bd1-b6cd-450a278e727e"},"vehicle_type_id":"4","last_reported":1752035130,"current_range_meters":22400,"station_id":"ce4bhih2rcd13ifvqfr0","pricing_plan_id":"cebpf4jnsgd1na2vs0mg"},{"bike_id":"b0bf01a1-6ffc-4948-a8f4-566c17b0eaee","system_id":"levelo_inurba_marseille","lat":43.231854,"lon":5.399813,"is_reserved":false,"is_disabled":false,"rental_uris":{"android":"levelo://app?vid=b0bf01a1-6ffc-4948-a8f4-566c17b0eaee","ios":"levelo://app?vid=b0bf01a1-6ffc-4948-a8f4-566c17b0eaee"},"vehicle_type_id":"4","last_reported":1752035130,"current_range_meters":22400,"station_id":"ce4bhn12rcd13ifvqgqg","pricing_plan_id":"cebpf4jnsgd1na2vs0mg"},{"bike_id":"c98d8ff4-5b41-47ae-a4f6-b8f95b4fd8a7","system_id":"levelo_inurba_marseille","lat":43.23064,"lon":5.35487,"is_reserved":false,"is_disabled":false,"rental_uris":{"android":"levelo://app?vid=c98d8ff4-5b41-47ae-a4f6-b8f95b4fd8a7","ios":"levelo://app?vid=c98d8ff4-5b41-47ae-a4f6-b8f95b4fd8a7"},"vehicle_type_id":"4","last_reported":1752035130,"current_range_meters":22400,"station_id":"cpo3342slgdg3j2ifvpg","pricing_plan_id":"cebpf4jnsgd1na2vs0mg"},{"bike_id":"4e209b0c-855f-4b51-8120-2faef8673853","system_id":"levelo_inurba_marseille","lat":43.305997,"lon":5.369205,"is_reserved":false,"is_disabled":false,"rental_uris":{"android":"levelo://app?vid=4e209b0c-855f-4b51-8120-2faef8673853","ios":"levelo://app?vid=4e209b0c-855f-4b51-8120-2faef8673853"},"vehicle_type_id":"4","last_reported":1752035130,"current_range_meters":22800,"station_id":"","pricing_plan_id":"cebpf4jnsgd1na2vs0mg"},{"bike_id":"b04f5070-64eb-409c-ae19-d906b9a19284","system_id":"levelo_inurba_marseille","lat":43.258496,"lon":5.399421,"is_reserved":false,"is_disabled":false,"rental_uris":{"android":"levelo://app?vid=b04f5070-64eb-409c-ae19-d906b9a19284","ios":"levelo://app?vid=b04f5070-64eb-409c-ae19-d906b9a19284"},"vehicle_type_id":"4","last_reported":1752035130,"current_range_meters":22800,"station_id":"ce4bhl92rcd13ifvqghg","pricing_plan_id":"cebpf4jnsgd1na2vs0mg"},{"bike_id":"e383fecb-f0d2-4c12-b845-5fd5d05b6a9f","system_id":"levelo_inurba_marseille","lat":43.30794,"lon":5.4355,"is_reserved":false,"is_disabled":false,"rental_uris":{"android":"levelo://app?vid=e383fecb-f0d2-4c12-b845-5fd5d05b6a9f","ios":"levelo://app?vid=e383fecb-f0d2-4c12-b845-5fd5d05b6a9f"},"vehicle_type_id":"4","last_reported":1752035130,"current_range_meters":22800,"station_id":"ce4bhph2rcd13ifvqheg","pricing_plan_id":"cebpf4jnsgd1na2vs0mg"},{"bike_id":"c09c93e9-32b3-496d-b629-f018509092cb","system_id":"levelo_inurba_marseille","lat":43.32324,"lon":5.40642,"is_reserved":false,"is_disabled":false,"rental_uris":{"android":"levelo://app?vid=c09c93e9-32b3-496d-b629-f018509092cb","ios":"levelo://app?vid=c09c93e9-32b3-496d-b629-f018509092cb"},"vehicle_type_id":"4","last_reported":1752035130,"current_range_meters":22800,"station_id":"ce4bhq92rcd13ifvqhjg","pricing_plan_id":"cebpf4jnsgd1na2vs0mg"},{"bike_id":"6a895138-a317-47f5-ae13-2a47a56c45de","system_id":"levelo_inurba_marseille","lat":43.302522,"lon":5.400713,"is_reserved":false,"is_disabled":false,"rental_uris":{"android":"levelo://app?vid=6a895138-a317-47f5-ae13-2a47a56c45de","ios":"levelo://app?vid=6a895138-a317-47f5-ae13-2a47a56c45de"},"vehicle_type_id":"4","last_reported":1752035130,"current_range_meters":23200,"station_id":"ce4bgvh2rcd13ifvqcs0","pricing_plan_id":"cebpf4jnsgd1na2vs0mg"},{"bike_id":"55eb3ee3-207d-45c9-a356-7e275a6ee08e","system_id":"levelo_inurba_marseille","lat":43.322208,"lon":5.407363,"is_reserved":false,"is_disabled":false,"rental_uris":{"android":"levelo://app?vid=55eb3ee3-207d-45c9-a356-7e275a6ee08e","ios":"levelo://app?vid=55eb3ee3-207d-45c9-a356-7e275a6ee08e"},"vehicle_type_id":"4","last_reported":1752035130,"current_range_meters":23200,"station_id":"ce4bh092rcd13ifvqd30","pricing_plan_id":"cebpf4jnsgd1na2vs0mg"},{"bike_id":"7ec097f8-b705-410f-8d6e-2c70ea5a9d60","system_id":"levelo_inurba_marseille","lat":43.30587,"lon":5.39354,"is_reserved":false,"is_disabled":false,"rental_uris":{"android":"levelo://app?vid=7ec097f8-b705-410f-8d6e-2c70ea5a9d60","ios":"levelo://app?vid=7ec097f8-b705-410f-8d6e-2c70ea5a9d60"},"vehicle_type_id":"4","last_reported":1752035130,"current_range_meters":23200,"station_id":"ce4bh0p2rcd13ifvqd80","pricing_plan_id":"cebpf4jnsgd1na2vs0mg"},{"bike_id":"1a7cd2ab-578a-4672-b275-928f8eb46eb0","system_id":"levelo_inurba_marseille","lat":43.28559,"lon":5.39481,"is_reserved":false,"is_disabled":false,"rental_uris":{"android":"levelo://app?vid=1a7cd2ab-578a-4672-b275-928f8eb46eb0","ios":"levelo://app?vid=1a7cd2ab-578a-4672-b275-928f8eb46eb0"},"vehicle_type_id":"4","last_reported":1752035130,"current_range_meters":23200,"station_id":"ce4bh292rcd13ifvqdg0","pricing_plan_id":"cebpf4jnsgd1na2vs0mg"},{"bike_id":"13633c27-0b2e-4abf-9090-f938e89feb6a","system_id":"levelo_inurba_marseille","lat":43.28425,"lon":5.34984,"is_reserved":false,"is_disabled":false,"rental_uris":{"android":"levelo://app?vid=13633c27-0b2e-4abf-9090-f938e89feb6a","ios":"levelo://app?vid=13633c27-0b2e-4abf-9090-f938e89feb6a"},"vehicle_type_id":"4","last_reported":1752035130,"current_range_meters":23200,"station_id":"ce4bhbh2rcd13ifvqepg","pricing_plan_id":"cebpf4jnsgd1na2vs0mg"},{"bike_id":"fd57f382-2f68-48a5-8520-2afe37014ce0","system_id":"levelo_inurba_marseille","lat":43.26547,"lon":5.37288,"is_reserved":false,"is_disabled":false,"rental_uris":{"android":"levelo://app?vid=fd57f382-2f68-48a5-8520-2afe37014ce0","ios":"levelo://app?vid=fd57f382-2f68-48a5-8520-2afe37014ce0"},"vehicle_type_id":"4","last_reported":1752035130,"current_range_meters":23200,"station_id":"ce4bhg12rcd13ifvqf70","pricing_plan_id":"cebpf4jnsgd1na2vs0mg"},{"bike_id":"ee1ac907-8623-4d00-ac01-d41dd90be9fe","system_id":"levelo_inurba_marseille","lat":43.211889,"lon":5.35076,"is_reserved":false,"is_disabled":false,"rental_uris":{"android":"levelo://app?vid=ee1ac907-8623-4d00-ac01-d41dd90be9fe","ios":"levelo://app?vid=ee1ac907-8623-4d00-ac01-d41dd90be9fe"},"vehicle_type_id":"4","last_reported":1752035130,"current_range_meters":23200,"station_id":"st_cvj6sg6p6f1abm77japg","pricing_plan_id":"cebpf4jnsgd1na2vs0mg"},{"bike_id":"12671aaf-df30-48df-969a-0e8ba311c0d9","system_id":"levelo_inurba_marseille","lat":43.299257,"lon":5.374755,"is_reserved":false,"is_disabled":false,"rental_uris":{"android":"levelo://app?vid=12671aaf-df30-48df-969a-0e8ba311c0d9","ios":"levelo://app?vid=12671aaf-df30-48df-969a-0e8ba311c0d9"},"vehicle_type_id":"4","last_reported":1752035130,"current_range_meters":24000,"station_id":"","pricing_plan_id":"cebpf4jnsgd1na2vs0mg"},{"bike_id":"e5c4a51d-0e49-4860-8ddf-8a5e1aa16788","system_id":"levelo_inurba_marseille","lat":43.28427,"lon":5.35034,"is_reserved":false,"is_disabled":false,"rental_uris":{"android":"levelo://app?vid=e5c4a51d-0e49-4860-8ddf-8a5e1aa16788","ios":"levelo://app?vid=e5c4a51d-0e49-4860-8ddf-8a5e1aa16788"},"vehicle_type_id":"4","last_reported":1752035130,"current_range_meters":24000,"station_id":"","pricing_plan_id":"cebpf4jnsgd1na2vs0mg"},{"bike_id":"24b17f7b-dff1-4936-b27a-7c2c6813a894","system_id":"levelo_inurba_marseille","lat":43.24563,"lon":5.37396,"is_reserved":false,"is_disabled":false,"rental_uris":{"android":"levelo://app?vid=24b17f7b-dff1-4936-b27a-7c2c6813a894","ios":"levelo://app?vid=24b17f7b-dff1-4936-b27a-7c2c6813a894"},"vehicle_type_id":"4","last_reported":1752035130,"current_range_meters":24000,"station_id":"","pricing_plan_id":"cebpf4jnsgd1na2vs0mg"},{"bike_id":"1aff8903-073a-4135-855c-c9944154b390","system_id":"levelo_inurba_marseille","lat":43.28018,"lon":5.36946,"is_reserved":false,"is_disabled":false,"rental_uris":{"android":"levelo://app?vid=1aff8903-073a-4135-855c-c9944154b390","ios":"levelo://app?vid=1aff8903-073a-4135-855c-c9944154b390"},"vehicle_type_id":"4","last_reported":1752035130,"current_range_meters":24000,"station_id":"ce4bha12rcd13ifvqef0","pricing_plan_id":"cebpf4jnsgd1na2vs0mg"},{"bike_id":"776575d4-25a0-4abe-8756-f116e6bfc00f","system_id":"levelo_inurba_marseille","lat":43.28841,"lon":5.35844,"is_reserved":false,"is_disabled":false,"rental_uris":{"android":"levelo://app?vid=776575d4-25a0-4abe-8756-f116e6bfc00f","ios":"levelo://app?vid=776575d4-25a0-4abe-8756-f116e6bfc00f"},"vehicle_type_id":"4","last_reported":1752035130,"current_range_meters":24000,"station_id":"ce4bhb12rcd13ifvqem0","pricing_plan_id":"cebpf4jnsgd1na2vs0mg"},{"bike_id":"6006a9aa-40e9-4dd0-9916-778076e2eaee","system_id":"levelo_inurba_marseille","lat":43.28421,"lon":5.34976,"is_reserved":false,"is_disabled":false,"rental_uris":{"android":"levelo://app?vid=6006a9aa-40e9-4dd0-9916-778076e2eaee","ios":"levelo://app?vid=6006a9aa-40e9-4dd0-9916-778076e2eaee"},"vehicle_type_id":"4","last_reported":1752035130,"current_range_meters":24000,"station_id":"ce4bhbh2rcd13ifvqepg","pricing_plan_id":"cebpf4jnsgd1na2vs0mg"},{"bike_id":"e93d29dc-afca-4759-bf3b-129e74fd70a7","system_id":"levelo_inurba_marseille","lat":43.279176,"lon":5.395794,"is_reserved":false,"is_disabled":false,"rental_uris":{"android":"levelo://app?vid=e93d29dc-afca-4759-bf3b-129e74fd70a7","ios":"levelo://app?vid=e93d29dc-afca-4759-bf3b-129e74fd70a7"},"vehicle_type_id":"4","last_reported":1752035130,"current_range_meters":24000,"station_id":"ce4bhf92rcd13ifvqf40","pricing_plan_id":"cebpf4jnsgd1na2vs0mg"},{"bike_id":"b0fa4432-fffc-4d97-a87a-ccf7c21b3241","system_id":"levelo_inurba_marseille","lat":43.24674,"lon":5.381578,"is_reserved":false,"is_disabled":false,"rental_uris":{"android":"levelo://app?vid=b0fa4432-fffc-4d97-a87a-ccf7c21b3241","ios":"levelo://app?vid=b0fa4432-fffc-4d97-a87a-ccf7c21b3241"},"vehicle_type_id":"4","last_reported":1752035130,"current_range_meters":24000,"station_id":"ce4bhih2rcd13ifvqfr0","pricing_plan_id":"cebpf4jnsgd1na2vs0mg"},{"bike_id":"8f89e4f3-495a-4317-bd6d-37a19186d65b","system_id":"levelo_inurba_marseille","lat":43.33723,"lon":5.39189,"is_reserved":false,"is_disabled":false,"rental_uris":{"android":"levelo://app?vid=8f89e4f3-495a-4317-bd6d-37a19186d65b","ios":"levelo://app?vid=8f89e4f3-495a-4317-bd6d-37a19186d65b"},"vehicle_type_id":"4","last_reported":1752035130,"current_range_meters":24000,"station_id":"ce4bhr92rcd13ifvqhsg","pricing_plan_id":"cebpf4jnsgd1na2vs0mg"},{"bike_id":"885972b8-4567-4aaf-b4e4-856d8cdac90f","system_id":"levelo_inurba_marseille","lat":43.26926,"lon":5.40259,"is_reserved":false,"is_disabled":false,"rental_uris":{"android":"levelo://app?vid=885972b8-4567-4aaf-b4e4-856d8cdac90f","ios":"levelo://app?vid=885972b8-4567-4aaf-b4e4-856d8cdac90f"},"vehicle_type_id":"4","last_reported":1752035130,"current_range_meters":24000,"station_id":"cjm6bp8fraef2m0cb0m0","pricing_plan_id":"cebpf4jnsgd1na2vs0mg"},{"bike_id":"59ffcca6-ef42-4099-838a-b0c1fd275a2c","system_id":"levelo_inurba_marseille","lat":43.25661,"lon":5.41898,"is_reserved":false,"is_disabled":false,"rental_uris":{"android":"levelo://app?vid=59ffcca6-ef42-4099-838a-b0c1fd275a2c","ios":"levelo://app?vid=59ffcca6-ef42-4099-838a-b0c1fd275a2c"},"vehicle_type_id":"4","last_reported":1752035130,"current_range_meters":24400,"station_id":"","pricing_plan_id":"cebpf4jnsgd1na2vs0mg"},{"bike_id":"24f7c27d-48ec-4469-9c0c-f685c07a7885","system_id":"levelo_inurba_marseille","lat":43.29965,"lon":5.38491,"is_reserved":false,"is_disabled":false,"rental_uris":{"android":"levelo://app?vid=24f7c27d-48ec-4469-9c0c-f685c07a7885","ios":"levelo://app?vid=24f7c27d-48ec-4469-9c0c-f685c07a7885"},"vehicle_type_id":"4","last_reported":1752035130,"current_range_meters":24400,"station_id":"ce4bgj92rcd13ifvqbd0","pricing_plan_id":"cebpf4jnsgd1na2vs0mg"},{"bike_id":"429c5c8a-c812-4f59-9c4d-88d1b1c8a29a","system_id":"levelo_inurba_marseille","lat":43.28713,"lon":5.37389,"is_reserved":false,"is_disabled":false,"rental_uris":{"android":"levelo://app?vid=429c5c8a-c812-4f59-9c4d-88d1b1c8a29a","ios":"levelo://app?vid=429c5c8a-c812-4f59-9c4d-88d1b1c8a29a"},"vehicle_type_id":"4","last_reported":1752035130,"current_range_meters":24400,"station_id":"ce4bh3p2rcd13ifvqdq0","pricing_plan_id":"cebpf4jnsgd1na2vs0mg"},{"bike_id":"ebb206e6-2ba4-4a63-9811-7266c1c35fe8","system_id":"levelo_inurba_marseille","lat":43.28457,"lon":5.35895,"is_reserved":false,"is_disabled":false,"rental_uris":{"android":"levelo://app?vid=ebb206e6-2ba4-4a63-9811-7266c1c35fe8","ios":"levelo://app?vid=ebb206e6-2ba4-4a63-9811-7266c1c35fe8"},"vehicle_type_id":"4","last_reported":1752035130,"current_range_meters":24400,"station_id":"ce4bhah2rcd13ifvqei0","pricing_plan_id":"cebpf4jnsgd1na2vs0mg"},{"bike_id":"d5bc4049-7927-4d0c-bfe2-3edd7a5e0a25","system_id":"levelo_inurba_marseille","lat":43.28423,"lon":5.34989,"is_reserved":false,"is_disabled":false,"rental_uris":{"android":"levelo://app?vid=d5bc4049-7927-4d0c-bfe2-3edd7a5e0a25","ios":"levelo://app?vid=d5bc4049-7927-4d0c-bfe2-3edd7a5e0a25"},"vehicle_type_id":"4","last_reported":1752035130,"current_range_meters":24400,"station_id":"ce4bhbh2rcd13ifvqepg","pricing_plan_id":"cebpf4jnsgd1na2vs0mg"},{"bike_id":"e510ade2-3bf1-4e76-bfa8-7ebe6d4288a2","system_id":"levelo_inurba_marseille","lat":43.284203,"lon":5.349866,"is_reserved":false,"is_disabled":false,"rental_uris":{"android":"levelo://app?vid=e510ade2-3bf1-4e76-bfa8-7ebe6d4288a2","ios":"levelo://app?vid=e510ade2-3bf1-4e76-bfa8-7ebe6d4288a2"},"vehicle_type_id":"4","last_reported":1752035130,"current_range_meters":24400,"station_id":"ce4bhbh2rcd13ifvqepg","pricing_plan_id":"cebpf4jnsgd1na2vs0mg"},{"bike_id":"0e374bd0-694e-4bbe-b0e9-e61ea8f99021","system_id":"levelo_inurba_marseille","lat":43.24066,"lon":5.37758,"is_reserved":false,"is_disabled":false,"rental_uris":{"android":"levelo://app?vid=0e374bd0-694e-4bbe-b0e9-e61ea8f99021","ios":"levelo://app?vid=0e374bd0-694e-4bbe-b0e9-e61ea8f99021"},"vehicle_type_id":"4","last_reported":1752035130,"current_range_meters":24400,"station_id":"ce4bhnp2rcd13ifvqgvg","pricing_plan_id":"cebpf4jnsgd1na2vs0mg"},{"bike_id":"2ec11ccc-3027-480d-bd93-2d90ea9776fc","system_id":"levelo_inurba_marseille","lat":43.24081,"lon":5.37756,"is_reserved":false,"is_disabled":false,"rental_uris":{"android":"levelo://app?vid=2ec11ccc-3027-480d-bd93-2d90ea9776fc","ios":"levelo://app?vid=2ec11ccc-3027-480d-bd93-2d90ea9776fc"},"vehicle_type_id":"4","last_reported":1752035130,"current_range_meters":24400,"station_id":"ce4bhnp2rcd13ifvqgvg","pricing_plan_id":"cebpf4jnsgd1na2vs0mg"},{"bike_id":"99b4e7ef-fda4-4c04-9ccb-cb561417fed0","system_id":"levelo_inurba_marseille","lat":43.28715,"lon":5.39958,"is_reserved":false,"is_disabled":false,"rental_uris":{"android":"levelo://app?vid=99b4e7ef-fda4-4c04-9ccb-cb561417fed0","ios":"levelo://app?vid=99b4e7ef-fda4-4c04-9ccb-cb561417fed0"},"vehicle_type_id":"4","last_reported":1752035130,"current_range_meters":24400,"station_id":"ce4bho92rcd13ifvqh3g","pricing_plan_id":"cebpf4jnsgd1na2vs0mg"},{"bike_id":"45deae69-8509-47da-92e7-d2015ece9693","system_id":"levelo_inurba_marseille","lat":43.319921,"lon":5.381611,"is_reserved":false,"is_disabled":false,"rental_uris":{"android":"levelo://app?vid=45deae69-8509-47da-92e7-d2015ece9693","ios":"levelo://app?vid=45deae69-8509-47da-92e7-d2015ece9693"},"vehicle_type_id":"4","last_reported":1752035130,"current_range_meters":24400,"station_id":"ce4bhr12rcd13ifvqhpg","pricing_plan_id":"cebpf4jnsgd1na2vs0mg"},{"bike_id":"a5a6c2c1-2d48-4581-8647-6eab6c0bbb54","system_id":"levelo_inurba_marseille","lat":43.269,"lon":5.36914,"is_reserved":false,"is_disabled":false,"rental_uris":{"android":"levelo://app?vid=a5a6c2c1-2d48-4581-8647-6eab6c0bbb54","ios":"levelo://app?vid=a5a6c2c1-2d48-4581-8647-6eab6c0bbb54"},"vehicle_type_id":"4","last_reported":1752035130,"current_range_meters":24800,"station_id":"","pricing_plan_id":"cebpf4jnsgd1na2vs0mg"},{"bike_id":"79db6983-4d64-4873-857e-f0623a84a3ca","system_id":"levelo_inurba_marseille","lat":43.30148,"lon":5.38087,"is_reserved":false,"is_disabled":false,"rental_uris":{"android":"levelo://app?vid=79db6983-4d64-4873-857e-f0623a84a3ca","ios":"levelo://app?vid=79db6983-4d64-4873-857e-f0623a84a3ca"},"vehicle_type_id":"4","last_reported":1752035130,"current_range_meters":24800,"station_id":"ce4bgjp2rcd13ifvqbh0","pricing_plan_id":"cebpf4jnsgd1na2vs0mg"},{"bike_id":"6d7689c3-1ab6-417d-a767-d73d37ea944b","system_id":"levelo_inurba_marseille","lat":43.30488,"lon":5.37883,"is_reserved":false,"is_disabled":false,"rental_uris":{"android":"levelo://app?vid=6d7689c3-1ab6-417d-a767-d73d37ea944b","ios":"levelo://app?vid=6d7689c3-1ab6-417d-a767-d73d37ea944b"},"vehicle_type_id":"4","last_reported":1752035130,"current_range_meters":24800,"station_id":"ce4bgup2rcd13ifvqcn0","pricing_plan_id":"cebpf4jnsgd1na2vs0mg"},{"bike_id":"5a73aab1-301d-4828-aab0-62221aa470db","system_id":"levelo_inurba_marseille","lat":43.28457,"lon":5.35887,"is_reserved":false,"is_disabled":false,"rental_uris":{"android":"levelo://app?vid=5a73aab1-301d-4828-aab0-62221aa470db","ios":"levelo://app?vid=5a73aab1-301d-4828-aab0-62221aa470db"},"vehicle_type_id":"4","last_reported":1752035130,"current_range_meters":24800,"station_id":"ce4bhah2rcd13ifvqei0","pricing_plan_id":"cebpf4jnsgd1na2vs0mg"},{"bike_id":"0a225275-cd83-4669-b5bb-3c64d6a04caf","system_id":"levelo_inurba_marseille","lat":43.284093,"lon":5.3499,"is_reserved":false,"is_disabled":false,"rental_uris":{"android":"levelo://app?vid=0a225275-cd83-4669-b5bb-3c64d6a04caf","ios":"levelo://app?vid=0a225275-cd83-4669-b5bb-3c64d6a04caf"},"vehicle_type_id":"4","last_reported":1752035130,"current_range_meters":24800,"station_id":"ce4bhbh2rcd13ifvqepg","pricing_plan_id":"cebpf4jnsgd1na2vs0mg"},{"bike_id":"a87d31b4-ab04-46ec-8f36-a164498b6257","system_id":"levelo_inurba_marseille","lat":43.23969,"lon":5.36628,"is_reserved":false,"is_disabled":false,"rental_uris":{"android":"levelo://app?vid=a87d31b4-ab04-46ec-8f36-a164498b6257","ios":"levelo://app?vid=a87d31b4-ab04-46ec-8f36-a164498b6257"},"vehicle_type_id":"4","last_reported":1752035130,"current_range_meters":24800,"station_id":"ce4bhi12rcd13ifvqfp0","pricing_plan_id":"cebpf4jnsgd1na2vs0mg"},{"bike_id":"8189321c-214b-42f6-ba07-62ddacc8857e","system_id":"levelo_inurba_marseille","lat":43.251077,"lon":5.403442,"is_reserved":false,"is_disabled":false,"rental_uris":{"android":"levelo://app?vid=8189321c-214b-42f6-ba07-62ddacc8857e","ios":"levelo://app?vid=8189321c-214b-42f6-ba07-62ddacc8857e"},"vehicle_type_id":"4","last_reported":1752035130,"current_range_meters":24800,"station_id":"ce4bhlh2rcd13ifvqgig","pricing_plan_id":"cebpf4jnsgd1na2vs0mg"},{"bike_id":"7c89f401-3f7e-4e8d-81f9-da3a8c552f24","system_id":"levelo_inurba_marseille","lat":43.287136,"lon":5.399926,"is_reserved":false,"is_disabled":false,"rental_uris":{"android":"levelo://app?vid=7c89f401-3f7e-4e8d-81f9-da3a8c552f24","ios":"levelo://app?vid=7c89f401-3f7e-4e8d-81f9-da3a8c552f24"},"vehicle_type_id":"4","last_reported":1752035130,"current_range_meters":24800,"station_id":"ce4bho92rcd13ifvqh3g","pricing_plan_id":"cebpf4jnsgd1na2vs0mg"},{"bike_id":"6a3704ac-19c4-46e3-8c3c-550faad28cd0","system_id":"levelo_inurba_marseille","lat":43.27991,"lon":5.40004,"is_reserved":false,"is_disabled":false,"rental_uris":{"android":"levelo://app?vid=6a3704ac-19c4-46e3-8c3c-550faad28cd0","ios":"levelo://app?vid=6a3704ac-19c4-46e3-8c3c-550faad28cd0"},"vehicle_type_id":"4","last_reported":1752035130,"current_range_meters":24800,"station_id":"ce4bho92rcd13ifvqh4g","pricing_plan_id":"cebpf4jnsgd1na2vs0mg"},{"bike_id":"4d8942c7-0e64-4b67-b6b6-d1a5c3d08cfb","system_id":"levelo_inurba_marseille","lat":43.22495,"lon":5.3479,"is_reserved":false,"is_disabled":false,"rental_uris":{"android":"levelo://app?vid=4d8942c7-0e64-4b67-b6b6-d1a5c3d08cfb","ios":"levelo://app?vid=4d8942c7-0e64-4b67-b6b6-d1a5c3d08cfb"},"vehicle_type_id":"4","last_reported":1752035130,"current_range_meters":24800,"station_id":"st_cvj5dfep6f1abm77gieg","pricing_plan_id":"cebpf4jnsgd1na2vs0mg"},{"bike_id":"5c64baef-46f4-4aff-b0c4-ad3a98df0f0b","system_id":"levelo_inurba_marseille","lat":43.270634,"lon":5.398649,"is_reserved":false,"is_disabled":false,"rental_uris":{"android":"levelo://app?vid=5c64baef-46f4-4aff-b0c4-ad3a98df0f0b","ios":"levelo://app?vid=5c64baef-46f4-4aff-b0c4-ad3a98df0f0b"},"vehicle_type_id":"4","last_reported":1752035130,"current_range_meters":25200,"station_id":"","pricing_plan_id":"cebpf4jnsgd1na2vs0mg"},{"bike_id":"ca82af78-77e6-4092-9d8e-80a6b4175624","system_id":"levelo_inurba_marseille","lat":43.2976,"lon":5.45997,"is_reserved":false,"is_disabled":false,"rental_uris":{"android":"levelo://app?vid=ca82af78-77e6-4092-9d8e-80a6b4175624","ios":"levelo://app?vid=ca82af78-77e6-4092-9d8e-80a6b4175624"},"vehicle_type_id":"4","last_reported":1752035130,"current_range_meters":25200,"station_id":"","pricing_plan_id":"cebpf4jnsgd1na2vs0mg"},{"bike_id":"3e017a38-9a20-4013-9bac-ee785f5060be","system_id":"levelo_inurba_marseille","lat":43.28421,"lon":5.34977,"is_reserved":false,"is_disabled":false,"rental_uris":{"android":"levelo://app?vid=3e017a38-9a20-4013-9bac-ee785f5060be","ios":"levelo://app?vid=3e017a38-9a20-4013-9bac-ee785f5060be"},"vehicle_type_id":"4","last_reported":1752035130,"current_range_meters":25200,"station_id":"ce4bhbh2rcd13ifvqepg","pricing_plan_id":"cebpf4jnsgd1na2vs0mg"},{"bike_id":"e3a75ee9-c614-467b-8cc2-f813bcef2ab1","system_id":"levelo_inurba_marseille","lat":43.33743,"lon":5.3919,"is_reserved":false,"is_disabled":false,"rental_uris":{"android":"levelo://app?vid=e3a75ee9-c614-467b-8cc2-f813bcef2ab1","ios":"levelo://app?vid=e3a75ee9-c614-467b-8cc2-f813bcef2ab1"},"vehicle_type_id":"4","last_reported":1752035130,"current_range_meters":25200,"station_id":"ce4bhr92rcd13ifvqhsg","pricing_plan_id":"cebpf4jnsgd1na2vs0mg"},{"bike_id":"28aa341b-d775-4bdf-a8b4-820e8ea6e66f","system_id":"levelo_inurba_marseille","lat":43.312734,"lon":5.374003,"is_reserved":false,"is_disabled":false,"rental_uris":{"android":"levelo://app?vid=28aa341b-d775-4bdf-a8b4-820e8ea6e66f","ios":"levelo://app?vid=28aa341b-d775-4bdf-a8b4-820e8ea6e66f"},"vehicle_type_id":"4","last_reported":1752035130,"current_range_meters":25600,"station_id":"","pricing_plan_id":"cebpf4jnsgd1na2vs0mg"},