{"last_updated":1738609621,"ttl":60,"version":"2.2","data":{"bikes":[{"bike_id":"c89b00a2-c1ea-4535-8361-b2ae5d47251e","system_id":"levelo_inurba_marseille","lat":43.27559,"lon":5.38431,"is_reserved":false,"is_disabled":false,"rental_uris":{"android":"levelo://app?vid=c89b00a2-c1ea-4535-8361-b2ae5d47251e","ios":"levelo://app?vid=c89b00a2-c1ea-4535-8361-b2ae5d47251e"},"vehicle_type_id":"4","last_reported":1738609622,"current_range_meters":38800,"station_id":"ce4bhh92rcd13ifvqfi0","pricing_plan_id":"cebpf4jnsgd1na2vs0mg"},{"bike_id":"5f1674f9-cf20-4994-a98d-ae716db91b25","system_id":"levelo_inurba_marseille","lat":43.25066,"lon":5.39536,"is_reserved":false,"is_disabled":false,"rental_uris":{"android":"levelo://app?vid=5f1674f9-cf20-4994-a98d-ae716db91b25","ios":"levelo://app?vid=5f1674f9-cf20-4994-a98d-ae716db91b25"},"vehicle_type_id":"4","last_reported":1738609622,"current_range_meters":24000,"station_id":"ce4bhm12rcd13ifvqgkg","pricing_plan_id":"cebpf4jnsgd1na2vs0mg"},{"bike_id":"59c830b9-d6f0-49df-91e9-084aeda66649","system_id":"levelo_inurba_marseille","lat":43.29171,"lon":5.35803,"is_reserved":false,"is_disabled":false,"rental_uris":{"android":"levelo://app?vid=59c830b9-d6f0-49df-91e9-084aeda66649","ios":"levelo://app?vid=59c830b9-d6f0-49df-91e9-084aeda66649"},"vehicle_type_id":"4","last_reported":1738609622,"current_range_meters":30800,"station_id":"ce4bhb12rcd13ifvqel0","pricing_plan_id":"cebpf4jnsgd1na2vs0mg"},{"bike_id":"176cb06f-f5e2-40ce-a5f0-b94c8af2011d","system_id":"levelo_inurba_marseille","lat":43.30956,"lon":5.36778,"is_reserved":false,"is_disabled":true,"rental_uris":{"android":"levelo://app?vid=176cb06f-f5e2-40ce-a5f0-b94c8af2011d","ios":"levelo://app?vid=176cb06f-f5e2-40ce-a5f0-b94c8af2011d"},"vehicle_type_id":"4","last_reported":1738609622,"current_range_meters":28400,"station_id":"","pricing_plan_id":"cebpf4jnsgd1na2vs0mg"},{"bike_id":"3623d7c5-0c4c-487e-8771-ef60e9a137c4","system_id":"levelo_inurba_marseille","lat":43.28402,"lon":5.37513,"is_reserved":false,"is_disabled":false,"rental_uris":{"android":"levelo://app?vid=3623d7c5-0c4c-487e-8771-ef60e9a137c4","ios":"levelo://app?vid=3623d7c5-0c4c-487e-8771-ef60e9a137c4"},"vehicle_type_id":"4","last_reported":1738609622,"current_range_meters":36000,"station_id":"ce4bh412rcd13ifvqds0","pricing_plan_id":"cebpf4jnsgd1na2vs0mg"},{"bike_id":"2c0fd0bc-479b-4f6d-83f1-c9e27a5ba212","system_id":"levelo_inurba_marseille","lat":43.28853,"lon":5.39302,"is_reserved":false,"is_disabled":false,"rental_uris":{"android":"levelo://app?vid=2c0fd0bc-479b-4f6d-83f1-c9e27a5ba212","ios":"levelo://app?vid=2c0fd0bc-479b-4f6d-83f1-c9e27a5ba212"},"vehicle_type_id":"4","last_reported":1738609622,"current_range_meters":22000,"station_id":"ce4bh2p2rcd13ifvqdi0","pricing_plan_id":"cebpf4jnsgd1na2vs0mg"},{"bike_id":"3fcbe704-2a45-42a6-809b-3a0f05e03754","system_id":"levelo_inurba_marseille","lat":43.29164,"lon":5.37156,"is_reserved":false,"is_disabled":false,"rental_uris":{"android":"levelo://app?vid=3fcbe704-2a45-42a6-809b-3a0f05e03754","ios":"levelo://app?vid=3fcbe704-2a45-42a6-809b-3a0f05e03754"},"vehicle_type_id":"4","last_reported":1738609622,"current_range_meters":24800,"station_id":"ce4bha92rcd13ifvqeh0","pricing_plan_id":"cebpf4jnsgd1na2vs0mg"},{"bike_id":"400b49eb-31e3-4f33-8974-ed282435a9dd","system_id":"levelo_inurba_marseille","lat":43.28935,"lon":5.36639,"is_reserved":false,"is_disabled":false,"rental_uris":{"android":"levelo://app?vid=400b49eb-31e3-4f33-8974-ed282435a9dd","ios":"levelo://app?vid=400b49eb-31e3-4f33-8974-ed282435a9dd"},"vehicle_type_id":"4","last_reported":1738609622,"current_range_meters":18800,"station_id":"ce4bhap2rcd13ifvqek0","pricing_plan_id":"cebpf4jnsgd1na2vs0mg"},{"bike_id":"7ad543c6-fb45-451c-add8-0b23712390bd","system_id":"levelo_inurba_marseille","lat":43.26937,"lon":5.40247,"is_reserved":false,"is_disabled":false,"rental_uris":{"android":"levelo://app?vid=7ad543c6-fb45-451c-add8-0b23712390bd","ios":"levelo://app?vid=7ad543c6-fb45-451c-add8-0b23712390bd"},"vehicle_type_id":"4","last_reported":1738609622,"current_range_meters":20400,"station_id":"cjm6bp8fraef2m0cb0m0","pricing_plan_id":"cebpf4jnsgd1na2vs0mg"},{"bike_id":"aaec025e-a6a3-491c-a66e-f2d818a608be","system_id":"levelo_inurba_marseille","lat":43.30946,"lon":5.3903,"is_reserved":false,"is_disabled":false,"rental_uris":{"android":"levelo://app?vid=aaec025e-a6a3-491c-a66e-f2d818a608be","ios":"levelo://app?vid=aaec025e-a6a3-491c-a66e-f2d818a608be"},"vehicle_type_id":"4","last_reported":1738609622,"current_range_meters":20800,"station_id":"ce4bgup2rcd13ifvqco0","pricing_plan_id":"cebpf4jnsgd1na2vs0mg"},{"bike_id":"d4adb474-fb27-4e54-8ba6-8a2753b906bd","system_id":"levelo_inurba_marseille","lat":43.24996,"lon":5.3893,"is_reserved":false,"is_disabled":false,"rental_uris":{"android":"levelo://app?vid=d4adb474-fb27-4e54-8ba6-8a2753b906bd","ios":"levelo://app?vid=d4adb474-fb27-4e54-8ba6-8a2753b906bd"},"vehicle_type_id":"4","last_reported":1738609622,"current_range_meters":28400,"station_id":"ce4bhgp2rcd13ifvqfd0","pricing_plan_id":"cebpf4jnsgd1na2vs0mg"},{"bike_id":"653e04d9-d32c-45f5-a9b0-a056ff2ec984","system_id":"levelo_inurba_marseille","lat":43.28983,"lon":5.37165,"is_reserved":false,"is_disabled":false,"rental_uris":{"android":"levelo://app?vid=653e04d9-d32c-45f5-a9b0-a056ff2ec984","ios":"levelo://app?vid=653e04d9-d32c-45f5-a9b0-a056ff2ec984"},"vehicle_type_id":"4","last_reported":1738609622,"current_range_meters":38800,"station_id":"","pricing_plan_id":"cebpf4jnsgd1na2vs0mg"},{"bike_id":"81fc2b49-7d41-4bc4-9c6c-fc4ded896c4f","system_id":"levelo_inurba_marseille","lat":43.299193,"lon":5.374553,"is_reserved":false,"is_disabled":true,"rental_uris":{"android":"levelo://app?vid=81fc2b49-7d41-4bc4-9c6c-fc4ded896c4f","ios":"levelo://app?vid=81fc2b49-7d41-4bc4-9c6c-fc4ded896c4f"},"vehicle_type_id":"4","last_reported":1738609622,"current_range_meters":36800,"station_id":"ce4bgjh2rcd13ifvqbg0","pricing_plan_id":"cebpf4jnsgd1na2vs0mg"},{"bike_id":"b2f5ad0b-e859-4a5a-afe6-19f2444b14ba","system_id":"levelo_inurba_marseille","lat":43.31998,"lon":5.38158,"is_reserved":false,"is_disabled":false,"rental_uris":{"android":"levelo://app?vid=b2f5ad0b-e859-4a5a-afe6-19f2444b14ba","ios":"levelo://app?vid=b2f5ad0b-e859-4a5a-afe6-19f2444b14ba"},"vehicle_type_id":"4","last_reported":1738609622,"current_range_meters":38800,"station_id":"ce4bhr12rcd13ifvqhpg","pricing_plan_id":"cebpf4jnsgd1na2vs0mg"},{"bike_id":"84e53465-926b-43ef-956d-fb0614e2633b","system_id":"levelo_inurba_marseille","lat":43.30419,"lon":5.41279,"is_reserved":false,"is_disabled":true,"rental_uris":{"android":"levelo://app?vid=84e53465-926b-43ef-956d-fb0614e2633b","ios":"levelo://app?vid=84e53465-926b-43ef-956d-fb0614e2633b"},"vehicle_type_id":"4","last_reported":1738609622,"current_range_meters":0,"station_id":"ce4bhop2rcd13ifvqh8g","pricing_plan_id":"cebpf4jnsgd1na2vs0mg"},{"bike_id":"25c854b7-f50f-4e66-856b-6f763a4fc570","system_id":"levelo_inurba_marseille","lat":43.27797,"lon":5.40714,"is_reserved":false,"is_disabled":false,"rental_uris":{"android":"levelo://app?vid=25c854b7-f50f-4e66-856b-6f763a4fc570","ios":"levelo://app?vid=25c854b7-f50f-4e66-856b-6f763a4fc570"},"vehicle_type_id":"4","last_reported":1738609622,"current_range_meters":33200,"station_id":"ce4bhnh2rcd13ifvqgtg","pricing_plan_id":"cebpf4jnsgd1na2vs0mg"},{"bike_id":"777596e0-4eeb-4015-94df-20ea73ea8d63","system_id":"levelo_inurba_marseille","lat":43.26059,"lon":5.39396,"is_reserved":false,"is_disabled":false,"rental_uris":{"android":"levelo://app?vid=777596e0-4eeb-4015-94df-20ea73ea8d63","ios":"levelo://app?vid=777596e0-4eeb-4015-94df-20ea73ea8d63"},"vehicle_type_id":"4","last_reported":1738609622,"current_range_meters":32800,"station_id":"ce4bhh92rcd13ifvqfj0","pricing_plan_id":"cebpf4jnsgd1na2vs0mg"},{"bike_id":"b04af40c-403c-4407-9e42-e0557c0b9076","system_id":"levelo_inurba_marseille","lat":43.30912,"lon":5.39622,"is_reserved":false,"is_disabled":false,"rental_uris":{"android":"levelo://app?vid=b04af40c-403c-4407-9e42-e0557c0b9076","ios":"levelo://app?vid=b04af40c-403c-4407-9e42-e0557c0b9076"},"vehicle_type_id":"4","last_reported":1738609622,"current_range_meters":34000,"station_id":"ce4bh012rcd13ifvqcv0","pricing_plan_id":"cebpf4jnsgd1na2vs0mg"},{"bike_id":"3bd20c2a-dc51-4f5a-b9cb-8164f7ded900","system_id":"levelo_inurba_marseille","lat":43.29619,"lon":5.37167,"is_reserved":false,"is_disabled":false,"rental_uris":{"android":"levelo://app?vid=3bd20c2a-dc51-4f5a-b9cb-8164f7ded900","ios":"levelo://app?vid=3bd20c2a-dc51-4f5a-b9cb-8164f7ded900"},"vehicle_type_id":"4","last_reported":1738609622,"current_range_meters":38800,"station_id":"ce4bgnh2rcd13ifvqc0g","pricing_plan_id":"cebpf4jnsgd1na2vs0mg"},{"bike_id":"3ebc965d-e4ab-4de9-812c-56981d0cd4f9","system_id":"levelo_inurba_marseille","lat":43.29851,"lon":5.36275,"is_reserved":false,"is_disabled":false,"rental_uris":{"android":"levelo://app?vid=3ebc965d-e4ab-4de9-812c-56981d0cd4f9","ios":"levelo://app?vid=3ebc965d-e4ab-4de9-812c-56981d0cd4f9"},"vehicle_type_id":"4","last_reported":1738609622,"current_range_meters":24400,"station_id":"ce4bgpp2rcd13ifvqc3g","pricing_plan_id":"cebpf4jnsgd1na2vs0mg"},{"bike_id":"93fde9fc-f22c-4f31-998b-f06744053593","system_id":"levelo_inurba_marseille","lat":43.28362,"lon":5.38635,"is_reserved":false,"is_disabled":false,"rental_uris":{"android":"levelo://app?vid=93fde9fc-f22c-4f31-998b-f06744053593","ios":"levelo://app?vid=93fde9fc-f22c-4f31-998b-f06744053593"},"vehicle_type_id":"4","last_reported":1738609622,"current_range_meters":24800,"station_id":"ce4bh492rcd13ifvqdvg","pricing_plan_id":"cebpf4jnsgd1na2vs0mg"},{"bike_id":"3e574816-3754-460d-8072-f6ebe3757ea0","system_id":"levelo_inurba_marseille","lat":43.32371,"lon":5.36764,"is_reserved":false,"is_disabled":false,"rental_uris":{"android":"levelo://app?vid=3e574816-3754-460d-8072-f6ebe3757ea0","ios":"levelo://app?vid=3e574816-3754-460d-8072-f6ebe3757ea0"},"vehicle_type_id":"4","last_reported":1738609622,"current_range_meters":21600,"station_id":"ce4bhsh2rcd13ifvqi2g","pricing_plan_id":"cebpf4jnsgd1na2vs0mg"},{"bike_id":"fb19fc7f-8e67-4687-83c5-9f0c76f48a8d","system_id":"levelo_inurba_marseille","lat":43.28942,"lon":5.36632,"is_reserved":false,"is_disabled":false,"rental_uris":{"android":"levelo://app?vid=fb19fc7f-8e67-4687-83c5-9f0c76f48a8d","ios":"levelo://app?vid=fb19fc7f-8e67-4687-83c5-9f0c76f48a8d"},"vehicle_type_id":"4","last_reported":1738609622,"current_range_meters":36400,"station_id":"ce4bhap2rcd13ifvqek0","pricing_plan_id":"cebpf4jnsgd1na2vs0mg"},{"bike_id":"a1a7079b-68b5-45ca-9af8-b6bc9f7cd559","system_id":"levelo_inurba_marseille","lat":43.22921,"lon":5.35377,"is_reserved":false,"is_disabled":false,"rental_uris":{"android":"levelo://app?vid=a1a7079b-68b5-45ca-9af8-b6bc9f7cd559","ios":"levelo://app?vid=a1a7079b-68b5-45ca-9af8-b6bc9f7cd559"},"vehicle_type_id":"4","last_reported":1738609622,"current_range_meters":38800,"station_id":"cpo3532slgdg3j2ikp40","pricing_plan_id":"cebpf4jnsgd1na2vs0mg"},{"bike_id":"391156ab-23e6-4087-9fff-4d00554806c8","system_id":"levelo_inurba_marseille","lat":43.27549,"lon":5.38429,"is_reserved":false,"is_disabled":false,"rental_uris":{"android":"levelo://app?vid=391156ab-23e6-4087-9fff-4d00554806c8","ios":"levelo://app?vid=391156ab-23e6-4087-9fff-4d00554806c8"},"vehicle_type_id":"4","last_reported":1738609622,"current_range_meters":36400,"station_id":"ce4bhh92rcd13ifvqfi0","pricing_plan_id":"cebpf4jnsgd1na2vs0mg"},{"bike_id":"8f2ad553-2a76-4e20-ac50-5590e88e80be","system_id":"levelo_inurba_marseille","lat":43.2848,"lon":5.3842,"is_reserved":false,"is_disabled":true,"rental_uris":{"android":"levelo://app?vid=8f2ad553-2a76-4e20-ac50-5590e88e80be","ios":"levelo://app?vid=8f2ad553-2a76-4e20-ac50-5590e88e80be"},"vehicle_type_id":"4","last_reported":1738609622,"current_range_meters":0,"station_id":"ce4bh512rcd13ifvqe3g","pricing_plan_id":"cebpf4jnsgd1na2vs0mg"},{"bike_id":"03c58b86-6f9e-4876-a067-63e726c4181d","system_id":"levelo_inurba_marseille","lat":43.29789,"lon":5.39345,"is_reserved":false,"is_disabled":false,"rental_uris":{"android":"levelo://app?vid=03c58b86-6f9e-4876-a067-63e726c4181d","ios":"levelo://app?vid=03c58b86-6f9e-4876-a067-63e726c4181d"},"vehicle_type_id":"4","last_reported":1738609622,"current_range_meters":38800,"station_id":"chh1huq6cuj3fo74tm60","pricing_plan_id":"cebpf4jnsgd1na2vs0mg"},{"bike_id":"8b7cdb48-c19b-44dd-8859-dc2aba3e48ea","system_id":"levelo_inurba_marseille","lat":43.25585,"lon":5.38227,"is_reserved":false,"is_disabled":false,"rental_uris":{"android":"levelo://app?vid=8b7cdb48-c19b-44dd-8859-dc2aba3e48ea","ios":"levelo://app?vid=8b7cdb48-c19b-44dd-8859-dc2aba3e48ea"},"vehicle_type_id":"4","last_reported":1738609622,"current_range_meters":10000,"station_id":"ce4bhih2rcd13ifvqfs0","pricing_plan_id":"cebpf4jnsgd1na2vs0mg"},{"bike_id":"1e80229c-3730-4f6a-ad92-db35f7d75e3d","system_id":"levelo_inurba_marseille","lat":43.27197,"lon":5.40975,"is_reserved":false,"is_disabled":false,"rental_uris":{"android":"levelo://app?vid=1e80229c-3730-4f6a-ad92-db35f7d75e3d","ios":"levelo://app?vid=1e80229c-3730-4f6a-ad92-db35f7d75e3d"},"vehicle_type_id":"4","last_reported":1738609622,"current_range_meters":38800,"station_id":"ce4bhl12rcd13ifvqgf0","pricing_plan_id":"cebpf4jnsgd1na2vs0mg"},{"bike_id":"b2a6436f-4c95-46dd-a3bd-6af91e9591d2","system_id":"levelo_inurba_marseille","lat":43.25615,"lon":5.38271,"is_reserved":false,"is_disabled":false,"rental_uris":{"android":"levelo://app?vid=b2a6436f-4c95-46dd-a3bd-6af91e9591d2","ios":"levelo://app?vid=b2a6436f-4c95-46dd-a3bd-6af91e9591d2"},"vehicle_type_id":"4","last_reported":1738609622,"current_range_meters":23200,"station_id":"","pricing_plan_id":"cebpf4jnsgd1na2vs0mg"},{"bike_id":"7b5e9fe8-7392-446f-9ce8-2e7f09cbe0f1","system_id":"levelo_inurba_marseille","lat":43.2903,"lon":5.38642,"is_reserved":false,"is_disabled":false,"rental_uris":{"android":"levelo://app?vid=7b5e9fe8-7392-446f-9ce8-2e7f09cbe0f1","ios":"levelo://app?vid=7b5e9fe8-7392-446f-9ce8-2e7f09cbe0f1"},"vehicle_type_id":"4","last_reported":1738609622,"current_range_meters":9600,"station_id":"ce4bh4p2rcd13ifvqe0g","pricing_plan_id":"cebpf4jnsgd1na2vs0mg"},{"bike_id":"0ded5e0f-fa22-4c94-8cea-93dd5234c044","system_id":"levelo_inurba_marseille","lat":43.26229,"lon":5.40437,"is_reserved":false,"is_disabled":true,"rental_uris":{"android":"levelo://app?vid=0ded5e0f-fa22-4c94-8cea-93dd5234c044","ios":"levelo://app?vid=0ded5e0f-fa22-4c94-8cea-93dd5234c044"},"vehicle_type_id":"4","last_reported":1738609622,"current_range_meters":800,"station_id":"ce4bhmh2rcd13ifvqgmg","pricing_plan_id":"cebpf4jnsgd1na2vs0mg"},{"bike_id":"1a794636-1de8-48ff-a1bf-f41557cb147d","system_id":"levelo_inurba_marseille","lat":43.34608,"lon":5.38074,"is_reserved":false,"is_disabled":false,"rental_uris":{"android":"levelo://app?vid=1a794636-1de8-48ff-a1bf-f41557cb147d","ios":"levelo://app?vid=1a794636-1de8-48ff-a1bf-f41557cb147d"},"vehicle_type_id":"4","last_reported":1738609622,"current_range_meters":17200,"station_id":"","pricing_plan_id":"cebpf4jnsgd1na2vs0mg"},{"bike_id":"3c8e5445-cf86-469e-9c11-4a5caaef9b7e","system_id":"levelo_inurba_marseille","lat":43.24648,"lon":5.38897,"is_reserved":false,"is_disabled":false,"rental_uris":{"android":"levelo://app?vid=3c8e5445-cf86-469e-9c11-4a5caaef9b7e","ios":"levelo://app?vid=3c8e5445-cf86-469e-9c11-4a5caaef9b7e"},"vehicle_type_id":"4","last_reported":1738609622,"current_range_meters":38800,"station_id":"ce4bhg12rcd13ifvqf60","pricing_plan_id":"cebpf4jnsgd1na2vs0mg"},{"bike_id":"9f236d9f-a2ab-4b43-9d96-95758e238edd","system_id":"levelo_inurba_marseille","lat":43.29229,"lon":5.36048,"is_reserved":false,"is_disabled":false,"rental_uris":{"android":"levelo://app?vid=9f236d9f-a2ab-4b43-9d96-95758e238edd","ios":"levelo://app?vid=9f236d9f-a2ab-4b43-9d96-95758e238edd"},"vehicle_type_id":"4","last_reported":1738609622,"current_range_meters":38000,"station_id":"ce4bhbh2rcd13ifvqeqg","pricing_plan_id":"cebpf4jnsgd1na2vs0mg"},{"bike_id":"66a9791c-87be-444c-957b-d4ba07766d6b","system_id":"levelo_inurba_marseille","lat":43.27994,"lon":5.41667,"is_reserved":false,"is_disabled":false,"rental_uris":{"android":"levelo://app?vid=66a9791c-87be-444c-957b-d4ba07766d6b","ios":"levelo://app?vid=66a9791c-87be-444c-957b-d4ba07766d6b"},"vehicle_type_id":"4","last_reported":1738609622,"current_range_meters":21600,"station_id":"ce4bho12rcd13ifvqh1g","pricing_plan_id":"cebpf4jnsgd1na2vs0mg"},{"bike_id":"0f7fcc58-83da-479a-99ff-138d88990004","system_id":"levelo_inurba_marseille","lat":43.30424,"lon":5.413,"is_reserved":false,"is_disabled":false,"rental_uris":{"android":"levelo://app?vid=0f7fcc58-83da-479a-99ff-138d88990004","ios":"levelo://app?vid=0f7fcc58-83da-479a-99ff-138d88990004"},"vehicle_type_id":"4","last_reported":1738609622,"current_range_meters":25200,"station_id":"ce4bhop2rcd13ifvqh8g","pricing_plan_id":"cebpf4jnsgd1na2vs0mg"},{"bike_id":"ad5c03f5-360f-4095-a93e-45b63bb09bc8","system_id":"levelo_inurba_marseille","lat":43.27892,"lon":5.3802,"is_reserved":false,"is_disabled":false,"rental_uris":{"android":"levelo://app?vid=ad5c03f5-360f-4095-a93e-45b63bb09bc8","ios":"levelo://app?vid=ad5c03f5-360f-4095-a93e-45b63bb09bc8"},"vehicle_type_id":"4","last_reported":1738609622,"current_range_meters":38400,"station_id":"ce4bhf92rcd13ifvqf50","pricing_plan_id":"cebpf4jnsgd1na2vs0mg"},{"bike_id":"30d68ac6-7ba6-4749-8154-bf914e372a6a","system_id":"levelo_inurba_marseille","lat":43.32305,"lon":5.38871,"is_reserved":false,"is_disabled":false,"rental_uris":{"android":"levelo://app?vid=30d68ac6-7ba6-4749-8154-bf914e372a6a","ios":"levelo://app?vid=30d68ac6-7ba6-4749-8154-bf914e372a6a"},"vehicle_type_id":"4","last_reported":1738609622,"current_range_meters":38800,"station_id":"ce4bhqp2rcd13ifvqhog","pricing_plan_id":"cebpf4jnsgd1na2vs0mg"},{"bike_id":"70db77fa-5101-4cc3-b5ef-7ecd27e20697","system_id":"levelo_inurba_marseille","lat":43.23056,"lon":5.35494,"is_reserved":false,"is_disabled":false,"rental_uris":{"android":"levelo://app?vid=70db77fa-5101-4cc3-b5ef-7ecd27e20697","ios":"levelo://app?vid=70db77fa-5101-4cc3-b5ef-7ecd27e20697"},"vehicle_type_id":"4","last_reported":1738609622,"current_range_meters":27200,"station_id":"cpo3342slgdg3j2ifvpg","pricing_plan_id":"cebpf4jnsgd1na2vs0mg"},{"bike_id":"f6dacf6b-80aa-4ed3-b60f-a447a5860aff","system_id":"levelo_inurba_marseille","lat":43.29225,"lon":5.36069,"is_reserved":false,"is_disabled":false,"rental_uris":{"android":"levelo://app?vid=f6dacf6b-80aa-4ed3-b60f-a447a5860aff","ios":"levelo://app?vid=f6dacf6b-80aa-4ed3-b60f-a447a5860aff"},"vehicle_type_id":"4","last_reported":1738609622,"current_range_meters":17200,"station_id":"ce4bhbh2rcd13ifvqeqg","pricing_plan_id":"cebpf4jnsgd1na2vs0mg"},{"bike_id":"e33c097b-83d0-40ec-9fbf-364e5b0a9ef8","system_id":"levelo_inurba_marseille","lat":43.23186,"lon":5.35546,"is_reserved":false,"is_disabled":false,"rental_uris":{"android":"levelo://app?vid=e33c097b-83d0-40ec-9fbf-364e5b0a9ef8","ios":"levelo://app?vid=e33c097b-83d0-40ec-9fbf-364e5b0a9ef8"},"vehicle_type_id":"4","last_reported":1738609622,"current_range_meters":39200,"station_id":"ce4bhu92rcd13ifvqi70","pricing_plan_id":"cebpf4jnsgd1na2vs0mg"},{"bike_id":"1c76b995-c945-44fc-a497-fc47eb597fd6","system_id":"levelo_inurba_marseille","lat":43.28864,"lon":5.35839,"is_reserved":false,"is_disabled":false,"rental_uris":{"android":"levelo://app?vid=1c76b995-c945-44fc-a497-fc47eb597fd6","ios":"levelo://app?vid=1c76b995-c945-44fc-a497-fc47eb597fd6"},"vehicle_type_id":"4","last_reported":1738609622,"current_range_meters":38400,"station_id":"ce4bhb12rcd13ifvqem0","pricing_plan_id":"cebpf4jnsgd1na2vs0mg"},{"bike_id":"272a6181-bfe1-4f12-b3df-d057573256ce","system_id":"levelo_inurba_marseille","lat":43.284659,"lon":5.35887,"is_reserved":false,"is_disabled":false,"rental_uris":{"android":"levelo://app?vid=272a6181-bfe1-4f12-b3df-d057573256ce","ios":"levelo://app?vid=272a6181-bfe1-4f12-b3df-d057573256ce"},"vehicle_type_id":"4","last_reported":1738609622,"current_range_meters":38800,"station_id":"ce4bhah2rcd13ifvqei0","pricing_plan_id":"cebpf4jnsgd1na2vs0mg"},{"bike_id":"d853478e-37e3-4ae0-b7f6-0140709d4e58","system_id":"levelo_inurba_marseille","lat":43.28357,"lon":5.38102,"is_reserved":false,"is_disabled":false,"rental_uris":{"android":"levelo://app?vid=d853478e-37e3-4ae0-b7f6-0140709d4e58","ios":"levelo://app?vid=d853478e-37e3-4ae0-b7f6-0140709d4e58"},"vehicle_type_id":"4","last_reported":1738609622,"current_range_meters":24400,"station_id":"ce4bh412rcd13ifvqdr0","pricing_plan_id":"cebpf4jnsgd1na2vs0mg"},{"bike_id":"66ca8070-3849-454b-91b6-e7132cbb42c0","system_id":"levelo_inurba_marseille","lat":43.288554,"lon":5.393229,"is_reserved":false,"is_disabled":false,"rental_uris":{"android":"levelo://app?vid=66ca8070-3849-454b-91b6-e7132cbb42c0","ios":"levelo://app?vid=66ca8070-3849-454b-91b6-e7132cbb42c0"},"vehicle_type_id":"4","last_reported":1738609622,"current_range_meters":6400,"station_id":"ce4bh2p2rcd13ifvqdi0","pricing_plan_id":"cebpf4jnsgd1na2vs0mg"},{"bike_id":"36c59cc3-cea9-47a3-a8cf-c96b91c44490","system_id":"levelo_inurba_marseille","lat":43.27995,"lon":5.40025,"is_reserved":false,"is_disabled":false,"rental_uris":{"android":"levelo://app?vid=36c59cc3-cea9-47a3-a8cf-c96b91c44490","ios":"levelo://app?vid=36c59cc3-cea9-47a3-a8cf-c96b91c44490"},"vehicle_type_id":"4","last_reported":1738609622,"current_range_meters":31200,"station_id":"ce4bho92rcd13ifvqh4g","pricing_plan_id":"cebpf4jnsgd1na2vs0mg"},{"bike_id":"89e0fb27-5f26-4cfe-9f61-e8651117733f","system_id":"levelo_inurba_marseille","lat":43.22914,"lon":5.35383,"is_reserved":false,"is_disabled":false,"rental_uris":{"android":"levelo://app?vid=89e0fb27-5f26-4cfe-9f61-e8651117733f","ios":"levelo://app?vid=89e0fb27-5f26-4cfe-9f61-e8651117733f"},"vehicle_type_id":"4","last_reported":1738609622,"current_range_meters":38800,"station_id":"cpo3532slgdg3j2ikp40","pricing_plan_id":"cebpf4jnsgd1na2vs0mg"},{"bike_id":"2e1bf151-54e7-415a-afa8-51b1e0ffda74","system_id":"levelo_inurba_marseille","lat":43.29167,"lon":5.37153,"is_reserved":false,"is_disabled":false,"rental_uris":{"android":"levelo://app?vid=2e1bf151-54e7-415a-afa8-51b1e0ffda74","ios":"levelo://app?vid=2e1bf151-54e7-415a-afa8-51b1e0ffda74"},"vehicle_type_id":"4","last_reported":1738609622,"current_range_meters":38400,"station_id":"ce4bha92rcd13ifvqeh0","pricing_plan_id":"cebpf4jnsgd1na2vs0mg"},{"bike_id":"cfdf0950-ea3c-4b92-804b-57a6b13d3e7a","system_id":"levelo_inurba_marseille","lat":43.27494,"lon":5.42452,"is_reserved":false,"is_disabled":false,"rental_uris":{"android":"levelo://app?vid=cfdf0950-ea3c-4b92-804b-57a6b13d3e7a","ios":"levelo://app?vid=cfdf0950-ea3c-4b92-804b-57a6b13d3e7a"},"vehicle_type_id":"4","last_reported":1738609622,"current_range_meters":25200,"station_id":"ce4bhn92rcd13ifvqgrg","pricing_plan_id":"cebpf4jnsgd1na2vs0mg"},{"bike_id":"d9a0037b-ea73-422f-86c2-72b990424241","system_id":"levelo_inurba_marseille","lat":43.23968,"lon":5.36629,"is_reserved":false,"is_disabled":false,"rental_uris":{"android":"levelo://app?vid=d9a0037b-ea73-422f-86c2-72b990424241","ios":"levelo://app?vid=d9a0037b-ea73-422f-86c2-72b990424241"},"vehicle_type_id":"4","last_reported":1738609622,"current_range_meters":16800,"station_id":"ce4bhi12rcd13ifvqfp0","pricing_plan_id":"cebpf4jnsgd1na2vs0mg"},{"bike_id":"de27dfc9-f2fb-4778-8226-69a993c0eb2e","system_id":"levelo_inurba_marseille","lat":43.24539,"lon":5.39519,"is_reserved":false,"is_disabled":false,"rental_uris":{"android":"levelo://app?vid=de27dfc9-f2fb-4778-8226-69a993c0eb2e","ios":"levelo://app?vid=de27dfc9-f2fb-4778-8226-69a993c0eb2e"},"vehicle_type_id":"4","last_reported":1738609622,"current_range_meters":38400,"station_id":"ce4bhlp2rcd13ifvqgjg","pricing_plan_id":"cebpf4jnsgd1na2vs0mg"},{"bike_id":"bbacedf1-5d29-49eb-aad8-970862565212","system_id":"levelo_inurba_marseille","lat":43.31121,"lon":5.3776,"is_reserved":false,"is_disabled":true,"rental_uris":{"android":"levelo://app?vid=bbacedf1-5d29-49eb-aad8-970862565212","ios":"levelo://app?vid=bbacedf1-5d29-49eb-aad8-970862565212"},"vehicle_type_id":"4","last_reported":1738609622,"current_range_meters":800,"station_id":"ce4bgt92rcd13ifvqcg0","pricing_plan_id":"cebpf4jnsgd1na2vs0mg"},{"bike_id":"3e92e2d8-7c23-4a21-a753-85318379f30c","system_id":"levelo_inurba_marseille","lat":43.29271,"lon":5.36841,"is_reserved":false,"is_disabled":false,"rental_uris":{"android":"levelo://app?vid=3e92e2d8-7c23-4a21-a753-85318379f30c","ios":"levelo://app?vid=3e92e2d8-7c23-4a21-a753-85318379f30c"},"vehicle_type_id":"4","last_reported":1738609622,"current_range_meters":28400,"station_id":"ce4bhbp2rcd13ifvqesg","pricing_plan_id":"cebpf4jnsgd1na2vs0mg"},{"bike_id":"f15d8bba-7379-40a8-b1fd-ac563c3c8549","system_id":"levelo_inurba_marseille","lat":43.24543,"lon":5.39509,"is_reserved":false,"is_disabled":false,"rental_uris":{"android":"levelo://app?vid=f15d8bba-7379-40a8-b1fd-ac563c3c8549","ios":"levelo://app?vid=f15d8bba-7379-40a8-b1fd-ac563c3c8549"},"vehicle_type_id":"4","last_reported":1738609622,"current_range_meters":20400,"station_id":"ce4bhlp2rcd13ifvqgjg","pricing_plan_id":"cebpf4jnsgd1na2vs0mg"},{"bike_id":"8800dd5a-d74f-4ee5-bc96-f6630250f422","system_id":"levelo_inurba_marseille","lat":43.23969,"lon":5.3664,"is_reserved":false,"is_disabled":false,"rental_uris":{"android":"levelo://app?vid=8800dd5a-d74f-4ee5-bc96-f6630250f422","ios":"levelo://app?vid=8800dd5a-d74f-4ee5-bc96-f6630250f422"},"vehicle_type_id":"4","last_reported":1738609622,"current_range_meters":36000,"station_id":"ce4bhi12rcd13ifvqfp0","pricing_plan_id":"cebpf4jnsgd1na2vs0mg"},{"bike_id":"8270da70-a2d5-49f3-9df0-efc0215a4d15","system_id":"levelo_inurba_marseille","lat":43.32347,"lon":5.40612,"is_reserved":false,"is_disabled":false,"rental_uris":{"android":"levelo://app?vid=8270da70-a2d5-49f3-9df0-efc0215a4d15","ios":"levelo://app?vid=8270da70-a2d5-49f3-9df0-efc0215a4d15"},"vehicle_type_id":"4","last_reported":1738609622,"current_range_meters":39200,"station_id":"ce4bhq92rcd13ifvqhjg","pricing_plan_id":"cebpf4jnsgd1na2vs0mg"},{"bike_id":"f793b0f1-dc3d-4665-8119-792bda6e89e8","system_id":"levelo_inurba_marseille","lat":43.23187,"lon":5.39974,"is_reserved":false,"is_disabled":false,"rental_uris":{"android":"levelo://app?vid=f793b0f1-dc3d-4665-8119-792bda6e89e8","ios":"levelo://app?vid=f793b0f1-dc3d-4665-8119-792bda6e89e8"},"vehicle_type_id":"4","last_reported":1738609622,"current_range_meters":6400,"station_id":"ce4bhn12rcd13ifvqgqg","pricing_plan_id":"cebpf4jnsgd1na2vs0mg"},{"bike_id":"9a246337-8b93-40ac-8041-a37c41945aaf","system_id":"levelo_inurba_marseille","lat":43.26942,"lon":5.40246,"is_reserved":false,"is_disabled":false,"rental_uris":{"android":"levelo://app?vid=9a246337-8b93-40ac-8041-a37c41945aaf","ios":"levelo://app?vid=9a246337-8b93-40ac-8041-a37c41945aaf"},"vehicle_type_id":"4","last_reported":1738609622,"current_range_meters":9600,"station_id":"cjm6bp8fraef2m0cb0m0","pricing_plan_id":"cebpf4jnsgd1na2vs0mg"},{"bike_id":"3bee43d5-e27e-4692-8630-5bfa4bfc3f39","system_id":"levelo_inurba_marseille","lat":43.32309,"lon":5.38252,"is_reserved":false,"is_disabled":false,"rental_uris":{"android":"levelo://app?vid=3bee43d5-e27e-4692-8630-5bfa4bfc3f39","ios":"levelo://app?vid=3bee43d5-e27e-4692-8630-5bfa4bfc3f39"},"vehicle_type_id":"4","last_reported":1738609622,"current_range_meters":27600,"station_id":"ce4bhr12rcd13ifvqhqg","pricing_plan_id":"cebpf4jnsgd1na2vs0mg"},{"bike_id":"dff19049-5568-464f-8195-da5ffd56d6e5","system_id":"levelo_inurba_marseille","lat":43.29686,"lon":5.36603,"is_reserved":false,"is_disabled":false,"rental_uris":{"android":"levelo://app?vid=dff19049-5568-464f-8195-da5ffd56d6e5","ios":"levelo://app?vid=dff19049-5568-464f-8195-da5ffd56d6e5"},"vehicle_type_id":"4","last_reported":1738609622,"current_range_meters":39200,"station_id":"ce4bgn12rcd13ifvqbt0","pricing_plan_id":"cebpf4jnsgd1na2vs0mg"},{"bike_id":"cb9e092a-81a9-4536-b645-1d1f9d6be896","system_id":"levelo_inurba_marseille","lat":43.28423,"lon":5.37504,"is_reserved":false,"is_disabled":false,"rental_uris":{"android":"levelo://app?vid=cb9e092a-81a9-4536-b645-1d1f9d6be896","ios":"levelo://app?vid=cb9e092a-81a9-4536-b645-1d1f9d6be896"},"vehicle_type_id":"4","last_reported":1738609622,"current_range_meters":14400,"station_id":"ce4bh412rcd13ifvqds0","pricing_plan_id":"cebpf4jnsgd1na2vs0mg"},{"bike_id":"4a344fc5-5e31-41f4-b4e6-25afaabad9e0","system_id":"levelo_inurba_marseille","lat":43.28849,"lon":5.39335,"is_reserved":false,"is_disabled":false,"rental_uris":{"android":"levelo://app?vid=4a344fc5-5e31-41f4-b4e6-25afaabad9e0","ios":"levelo://app?vid=4a344fc5-5e31-41f4-b4e6-25afaabad9e0"},"vehicle_type_id":"4","last_reported":1738609622,"current_range_meters":32800,"station_id":"ce4bh2p2rcd13ifvqdi0","pricing_plan_id":"cebpf4jnsgd1na2vs0mg"},{"bike_id":"190f01fd-2b34-4b4c-90cd-f2f9af442a24","system_id":"levelo_inurba_marseille","lat":43.30648,"lon":5.40088,"is_reserved":false,"is_disabled":false,"rental_uris":{"android":"levelo://app?vid=190f01fd-2b34-4b4c-90cd-f2f9af442a24","ios":"levelo://app?vid=190f01fd-2b34-4b4c-90cd-f2f9af442a24"},"vehicle_type_id":"4","last_reported":1738609622,"current_range_meters":21600,"station_id":"ce4bh112rcd13ifvqda0","pricing_plan_id":"cebpf4jnsgd1na2vs0mg"},{"bike_id":"3ab0ceb6-cd89-477f-8038-1be761eb4bda","system_id":"levelo_inurba_marseille","lat":43.29217,"lon":5.36044,"is_reserved":false,"is_disabled":false,"rental_uris":{"android":"levelo://app?vid=3ab0ceb6-cd89-477f-8038-1be761eb4bda","ios":"levelo://app?vid=3ab0ceb6-cd89-477f-8038-1be761eb4bda"},"vehicle_type_id":"4","last_reported":1738609622,"current_range_meters":17200,"station_id":"ce4bhbh2rcd13ifvqeqg","pricing_plan_id":"cebpf4jnsgd1na2vs0mg"},{"bike_id":"9b862af0-9dd8-4300-8a09-dc7b0983d0df","system_id":"levelo_inurba_marseille","lat":43.28436,"lon":5.392,"is_reserved":false,"is_disabled":false,"rental_uris":{"android":"levelo://app?vid=9b862af0-9dd8-4300-8a09-dc7b0983d0df","ios":"levelo://app?vid=9b862af0-9dd8-4300-8a09-dc7b0983d0df"},"vehicle_type_id":"4","last_reported":1738609622,"current_range_meters":14400,"station_id":"ce4bhoh2rcd13ifvqh5g","pricing_plan_id":"cebpf4jnsgd1na2vs0mg"},{"bike_id":"8e599b88-5a17-40c8-a99e-aa5dfac0c156","system_id":"levelo_inurba_marseille","lat":43.24811,"lon":5.37464,"is_reserved":false,"is_disabled":false,"rental_uris":{"android":"levelo://app?vid=8e599b88-5a17-40c8-a99e-aa5dfac0c156","ios":"levelo://app?vid=8e599b88-5a17-40c8-a99e-aa5dfac0c156"},"vehicle_type_id":"4","last_reported":1738609622,"current_range_meters":28800,"station_id":"ce4bhgh2rcd13ifvqfb0","pricing_plan_id":"cebpf4jnsgd1na2vs0mg"},{"bike_id":"e0d17065-53d8-4378-bcfe-38f76c6ed5ec","system_id":"levelo_inurba_marseille","lat":43.23962,"lon":5.36633,"is_reserved":false,"is_disabled":false,"rental_uris":{"android":"levelo://app?vid=e0d17065-53d8-4378-bcfe-38f76c6ed5ec","ios":"levelo://app?vid=e0d17065-53d8-4378-bcfe-38f76c6ed5ec"},"vehicle_type_id":"4","last_reported":1738609622,"current_range_meters":26000,"station_id":"ce4bhi12rcd13ifvqfp0","pricing_plan_id":"cebpf4jnsgd1na2vs0mg"},{"bike_id":"a7707bf1-29c6-4f48-976f-2880303742fc","system_id":"levelo_inurba_marseille","lat":43.29521,"lon":5.39034,"is_reserved":false,"is_disabled":true,"rental_uris":{"android":"levelo://app?vid=a7707bf1-29c6-4f48-976f-2880303742fc","ios":"levelo://app?vid=a7707bf1-29c6-4f48-976f-2880303742fc"},"vehicle_type_id":"4","last_reported":1738609622,"current_range_meters":17600,"station_id":"ce4bh3p2rcd13ifvqdp0","pricing_plan_id":"cebpf4jnsgd1na2vs0mg"},{"bike_id":"fe7841ee-6c3b-41b6-ba59-419273b65ba5","system_id":"levelo_inurba_marseille","lat":43.29252,"lon":5.40913,"is_reserved":false,"is_disabled":false,"rental_uris":{"android":"levelo://app?vid=fe7841ee-6c3b-41b6-ba59-419273b65ba5","ios":"levelo://app?vid=fe7841ee-6c3b-41b6-ba59-419273b65ba5"},"vehicle_type_id":"4","last_reported":1738609622,"current_range_meters":39200,"station_id":"ce4bh192rcd13ifvqdc0","pricing_plan_id":"cebpf4jnsgd1na2vs0mg"},{"bike_id":"b9687930-f2fe-4cdc-aefe-cf832adcf3ee","system_id":"levelo_inurba_marseille","lat":43.25576,"lon":5.38244,"is_reserved":false,"is_disabled":false,"rental_uris":{"android":"levelo://app?vid=b9687930-f2fe-4cdc-aefe-cf832adcf3ee","ios":"levelo://app?vid=b9687930-f2fe-4cdc-aefe-cf832adcf3ee"},"vehicle_type_id":"4","last_reported":1738609622,"current_range_meters":8800,"station_id":"ce4bhih2rcd13ifvqfs0","pricing_plan_id":"cebpf4jnsgd1na2vs0mg"},{"bike_id":"e82ea432-d4d5-4e49-a203-75824a010ee9","system_id":"levelo_inurba_marseille","lat":43.28849,"lon":5.39342,"is_reserved":false,"is_disabled":false,"rental_uris":{"android":"levelo://app?vid=e82ea432-d4d5-4e49-a203-75824a010ee9","ios":"levelo://app?vid=e82ea432-d4d5-4e49-a203-75824a010ee9"},"vehicle_type_id":"4","last_reported":1738609622,"current_range_meters":18800,"station_id":"ce4bh2p2rcd13ifvqdi0","pricing_plan_id":"cebpf4jnsgd1na2vs0mg"},{"bike_id":"ea0afcf9-5132-45fb-99e4-e388ec64503c","system_id":"levelo_inurba_marseille","lat":43.25569,"lon":5.38246,"is_reserved":false,"is_disabled":false,"rental_uris":{"android":"levelo://app?vid=ea0afcf9-5132-45fb-99e4-e388ec64503c","ios":"levelo://app?vid=ea0afcf9-5132-45fb-99e4-e388ec64503c"},"vehicle_type_id":"4","last_reported":1738609622,"current_range_meters":38800,"station_id":"ce4bhih2rcd13ifvqfs0","pricing_plan_id":"cebpf4jnsgd1na2vs0mg"},{"bike_id":"1c8295cc-00f4-4fa5-9c0e-12c58945305e","system_id":"levelo_inurba_marseille","lat":43.29151,"lon":5.37167,"is_reserved":false,"is_disabled":false,"rental_uris":{"android":"levelo://app?vid=1c8295cc-00f4-4fa5-9c0e-12c58945305e","ios":"levelo://app?vid=1c8295cc-00f4-4fa5-9c0e-12c58945305e"},"vehicle_type_id":"4","last_reported":1738609622,"current_range_meters":25200,"station_id":"ce4bha92rcd13ifvqeh0","pricing_plan_id":"cebpf4jnsgd1na2vs0mg"},{"bike_id":"7dd68174-1d38-48a0-87e4-e5911f1e11f7","system_id":"levelo_inurba_marseille","lat":43.28859,"lon":5.35867,"is_reserved":false,"is_disabled":false,"rental_uris":{"android":"levelo://app?vid=7dd68174-1d38-48a0-87e4-e5911f1e11f7","ios":"levelo://app?vid=7dd68174-1d38-48a0-87e4-e5911f1e11f7"},"vehicle_type_id":"4","last_reported":1738609622,"current_range_meters":38800,"station_id":"ce4bhb12rcd13ifvqem0","pricing_plan_id":"cebpf4jnsgd1na2vs0mg"},{"bike_id":"61245831-2a5b-499b-a7bd-326ecf7b0019","system_id":"levelo_inurba_marseille","lat":43.28412,"lon":5.37526,"is_reserved":false,"is_disabled":false,"rental_uris":{"android":"levelo://app?vid=61245831-2a5b-499b-a7bd-326ecf7b0019","ios":"levelo://app?vid=61245831-2a5b-499b-a7bd-326ecf7b0019"},"vehicle_type_id":"4","last_reported":1738609622,"current_range_meters":24400,"station_id":"ce4bh412rcd13ifvqds0","pricing_plan_id":"cebpf4jnsgd1na2vs0mg"},{"bike_id":"41455982-c1ca-4442-9c85-20052a9e11ce","system_id":"levelo_inurba_marseille","lat":43.29512,"lon":5.39409,"is_reserved":false,"is_disabled":false,"rental_uris":{"android":"levelo://app?vid=41455982-c1ca-4442-9c85-20052a9e11ce","ios":"levelo://app?vid=41455982-c1ca-4442-9c85-20052a9e11ce"},"vehicle_type_id":"4","last_reported":1738609622,"current_range_meters":39200,"station_id":"ce4bh292rcd13ifvqdf0","pricing_plan_id":"cebpf4jnsgd1na2vs0mg"},{"bike_id":"fe7861bf-ef6a-4798-aee8-66900408d03a","system_id":"levelo_inurba_marseille","lat":43.29771,"lon":5.371,"is_reserved":false,"is_disabled":false,"rental_uris":{"android":"levelo://app?vid=fe7861bf-ef6a-4798-aee8-66900408d03a","ios":"levelo://app?vid=fe7861bf-ef6a-4798-aee8-66900408d03a"},"vehicle_type_id":"4","last_reported":1738609622,"current_range_meters":16400,"station_id":"ce4bgop2rcd13ifvqc1g","pricing_plan_id":"cebpf4jnsgd1na2vs0mg"},{"bike_id":"0416cf78-7863-4eec-b5e5-3557e2310ee1","system_id":"levelo_inurba_marseille","lat":43.26766,"lon":5.39412,"is_reserved":false,"is_disabled":true,"rental_uris":{"android":"levelo://app?vid=0416cf78-7863-4eec-b5e5-3557e2310ee1","ios":"levelo://app?vid=0416cf78-7863-4eec-b5e5-3557e2310ee1"},"vehicle_type_id":"4","last_reported":1738609622,"current_range_meters":800,"station_id":"ce4bhh12rcd13ifvqfg0","pricing_plan_id":"cebpf4jnsgd1na2vs0mg"},{"bike_id":"b93236d3-7c1f-462b-b052-ef803b0d1060","system_id":"levelo_inurba_marseille","lat":43.29548,"lon":5.3751,"is_reserved":false,"is_disabled":true,"rental_uris":{"android":"levelo://app?vid=b93236d3-7c1f-462b-b052-ef803b0d1060","ios":"levelo://app?vid=b93236d3-7c1f-462b-b052-ef803b0d1060"},"vehicle_type_id":"4","last_reported":1738609622,"current_range_meters":400,"station_id":"ce4bgkp2rcd13ifvqbmg","pricing_plan_id":"cebpf4jnsgd1na2vs0mg"},{"bike_id":"d956c0fa-8e81-4a5c-a819-66560ebeacd2","system_id":"levelo_inurba_marseille","lat":43.28154,"lon":5.42647,"is_reserved":false,"is_disabled":false,"rental_uris":{"android":"levelo://app?vid=d956c0fa-8e81-4a5c-a819-66560ebeacd2","ios":"levelo://app?vid=d956c0fa-8e81-4a5c-a819-66560ebeacd2"},"vehicle_type_id":"4","last_reported":1738609622,"current_range_meters":9200,"station_id":"ce4bhnh2rcd13ifvqgug","pricing_plan_id":"cebpf4jnsgd1na2vs0mg"},{"bike_id":"da34d4f8-fcc3-4716-a4b5-ebb5e90aeefc","system_id":"levelo_inurba_marseille","lat":43.31331,"lon":5.39695,"is_reserved":false,"is_disabled":false,"rental_uris":{"android":"levelo://app?vid=da34d4f8-fcc3-4716-a4b5-ebb5e90aeefc","ios":"levelo://app?vid=da34d4f8-fcc3-4716-a4b5-ebb5e90aeefc"},"vehicle_type_id":"4","last_reported":1738609622,"current_range_meters":38800,"station_id":"ce4bgvp2rcd13ifvqcu0","pricing_plan_id":"cebpf4jnsgd1na2vs0mg"},{"bike_id":"21c89297-c791-4464-9214-e643c17f7aa6","system_id":"levelo_inurba_marseille","lat":43.313318,"lon":5.396875,"is_reserved":false,"is_disabled":false,"rental_uris":{"android":"levelo://app?vid=21c89297-c791-4464-9214-e643c17f7aa6","ios":"levelo://app?vid=21c89297-c791-4464-9214-e643c17f7aa6"},"vehicle_type_id":"4","last_reported":1738609622,"current_range_meters":38400,"station_id":"ce4bgvp2rcd13ifvqcu0","pricing_plan_id":"cebpf4jnsgd1na2vs0mg"},{"bike_id":"a7b47474-d052-424a-a059-dfadefba450d","system_id":"levelo_inurba_marseille","lat":43.31275,"lon":5.40169,"is_reserved":false,"is_disabled":false,"rental_uris":{"android":"levelo://app?vid=a7b47474-d052-424a-a059-dfadefba450d","ios":"levelo://app?vid=a7b47474-d052-424a-a059-dfadefba450d"},"vehicle_type_id":"4","last_reported":1738609622,"current_range_meters":38800,"station_id":"ce4bh092rcd13ifvqd30","pricing_plan_id":"cebpf4jnsgd1na2vs0mg"},{"bike_id":"ea790d70-597c-4d4a-8ead-75aafe1605d1","system_id":"levelo_inurba_marseille","lat":43.26059,"lon":5.39391,"is_reserved":false,"is_disabled":false,"rental_uris":{"android":"levelo://app?vid=ea790d70-597c-4d4a-8ead-75aafe1605d1","ios":"levelo://app?vid=ea790d70-597c-4d4a-8ead-75aafe1605d1"},"vehicle_type_id":"4","last_reported":1738609622,"current_range_meters":38800,"station_id":"ce4bhh92rcd13ifvqfj0","pricing_plan_id":"cebpf4jnsgd1na2vs0mg"},{"bike_id":"71ec8193-f671-4e06-9ff4-9da8f309a0bc","system_id":"levelo_inurba_marseille","lat":43.2848,"lon":5.38447,"is_reserved":false,"is_disabled":true,"rental_uris":{"android":"levelo://app?vid=71ec8193-f671-4e06-9ff4-9da8f309a0bc","ios":"levelo://app?vid=71ec8193-f671-4e06-9ff4-9da8f309a0bc"},"vehicle_type_id":"4","last_reported":1738609622,"current_range_meters":22800,"station_id":"ce4bh512rcd13ifvqe3g","pricing_plan_id":"cebpf4jnsgd1na2vs0mg"},{"bike_id":"9a153ca3-9d91-4203-b42e-9c96ff5dd69d","system_id":"levelo_inurba_marseille","lat":43.28924,"lon":5.36377,"is_reserved":false,"is_disabled":false,"rental_uris":{"android":"levelo://app?vid=9a153ca3-9d91-4203-b42e-9c96ff5dd69d","ios":"levelo://app?vid=9a153ca3-9d91-4203-b42e-9c96ff5dd69d"},"vehicle_type_id":"4","last_reported":1738609622,"current_range_meters":39200,"station_id":"ce4bhc92rcd13ifvqetg","pricing_plan_id":"cebpf4jnsgd1na2vs0mg"},{"bike_id":"48c23db0-b5b4-47ef-bf29-862bb3b67da5","system_id":"levelo_inurba_marseille","lat":43.29932,"lon":5.36546,"is_reserved":false,"is_disabled":false,"rental_uris":{"android":"levelo://app?vid=48c23db0-b5b4-47ef-bf29-862bb3b67da5","ios":"levelo://app?vid=48c23db0-b5b4-47ef-bf29-862bb3b67da5"},"vehicle_type_id":"4","last_reported":1738609622,"current_range_meters":29600,"station_id":"ce4bgm92rcd13ifvqbr0","pricing_plan_id":"cebpf4jnsgd1na2vs0mg"},{"bike_id":"0b605bcd-f241-4c0b-8755-679df0d117ea","system_id":"levelo_inurba_marseille","lat":43.26093,"lon":5.39314,"is_reserved":false,"is_disabled":false,"rental_uris":{"android":"levelo://app?vid=0b605bcd-f241-4c0b-8755-679df0d117ea","ios":"levelo://app?vid=0b605bcd-f241-4c0b-8755-679df0d117ea"},"vehicle_type_id":"4","last_reported":1738609622,"current_range_meters":38000,"station_id":"ce4bhh92rcd13ifvqfj0","pricing_plan_id":"cebpf4jnsgd1na2vs0mg"},{"bike_id":"80311a3b-1f4d-45ed-8689-dc85f48b9dea","system_id":"levelo_inurba_marseille","lat":43.31367,"lon":5.38485,"is_reserved":false,"is_disabled":false,"rental_uris":{"android":"levelo://app?vid=80311a3b-1f4d-45ed-8689-dc85f48b9dea","ios":"levelo://app?vid=80311a3b-1f4d-45ed-8689-dc85f48b9dea"},"vehicle_type_id":"4","last_reported":1738609622,"current_range_meters":25200,"station_id":"ce4bgt92rcd13ifvqcf0","pricing_plan_id":"cebpf4jnsgd1na2vs0mg"},{"bike_id":"eca23ebc-b032-4a35-b439-b8b0bf98f275","system_id":"levelo_inurba_marseille","lat":43.28849,"lon":5.39307,"is_reserved":false,"is_disabled":false,"rental_uris":{"android":"levelo://app?vid=eca23ebc-b032-4a35-b439-b8b0bf98f275","ios":"levelo://app?vid=eca23ebc-b032-4a35-b439-b8b0bf98f275"},"vehicle_type_id":"4","last_reported":1738609622,"current_range_meters":4400,"station_id":"ce4bh2p2rcd13ifvqdi0","pricing_plan_id":"cebpf4jnsgd1na2vs0mg"},{"bike_id":"88f6ec14-1047-428a-bfc8-ed7564b679d3","system_id":"levelo_inurba_marseille","lat":43.243908,"lon":5.370661,"is_reserved":false,"is_disabled":false,"rental_uris":{"android":"levelo://app?vid=88f6ec14-1047-428a-bfc8-ed7564b679d3","ios":"levelo://app?vid=88f6ec14-1047-428a-bfc8-ed7564b679d3"},"vehicle_type_id":"4","last_reported":1738609622,"current_range_meters":7200,"station_id":"ce4bhhh2rcd13ifvqfk0","pricing_plan_id":"cebpf4jnsgd1na2vs0mg"},{"bike_id":"918c21b8-2ea7-4145-af41-43319b64c3cf","system_id":"levelo_inurba_marseille","lat":43.30218,"lon":5.39466,"is_reserved":false,"is_disabled":false,"rental_uris":{"android":"levelo://app?vid=918c21b8-2ea7-4145-af41-43319b64c3cf","ios":"levelo://app?vid=918c21b8-2ea7-4145-af41-43319b64c3cf"},"vehicle_type_id":"4","last_reported":1738609622,"current_range_meters":37600,"station_id":"ce4bh0p2rcd13ifvqd70","pricing_plan_id":"cebpf4jnsgd1na2vs0mg"},{"bike_id":"8536cca2-cfff-45e8-965b-a66dbc6d72fe","system_id":"levelo_inurba_marseille","lat":43.307987,"lon":5.38148,"is_reserved":false,"is_disabled":false,"rental_uris":{"android":"levelo://app?vid=8536cca2-cfff-45e8-965b-a66dbc6d72fe","ios":"levelo://app?vid=8536cca2-cfff-45e8-965b-a66dbc6d72fe"},"vehicle_type_id":"4","last_reported":1738609622,"current_range_meters":20400,"station_id":"ce4bgt12rcd13ifvqce0","pricing_plan_id":"cebpf4jnsgd1na2vs0mg"},{"bike_id":"fad26299-4859-48d9-af16-461be31a4018","system_id":"levelo_inurba_marseille","lat":43.23222,"lon":5.3998,"is_reserved":false,"is_disabled":true,"rental_uris":{"android":"levelo://app?vid=fad26299-4859-48d9-af16-461be31a4018","ios":"levelo://app?vid=fad26299-4859-48d9-af16-461be31a4018"},"vehicle_type_id":"4","last_reported":1738609622,"current_range_meters":400,"station_id":"","pricing_plan_id":"cebpf4jnsgd1na2vs0mg"},{"bike_id":"eb9678ac-d5de-4c25-a636-67ea5b7d9c94","system_id":"levelo_inurba_marseille","lat":43.29196,"lon":5.39315,"is_reserved":false,"is_disabled":false,"rental_uris":{"android":"levelo://app?vid=eb9678ac-d5de-4c25-a636-67ea5b7d9c94","ios":"levelo://app?vid=eb9678ac-d5de-4c25-a636-67ea5b7d9c94"},"vehicle_type_id":"4","last_reported":1738609622,"current_range_meters":17200,"station_id":"ce4bh192rcd13ifvqdd0","pricing_plan_id":"cebpf4jnsgd1na2vs0mg"},{"bike_id":"02a327d4-aeb2-474a-a95e-ab3e866b9ea7","system_id":"levelo_inurba_marseille","lat":43.24077,"lon":5.37755,"is_reserved":false,"is_disabled":false,"rental_uris":{"android":"levelo://app?vid=02a327d4-aeb2-474a-a95e-ab3e866b9ea7","ios":"levelo://app?vid=02a327d4-aeb2-474a-a95e-ab3e866b9ea7"},"vehicle_type_id":"4","last_reported":1738609622,"current_range_meters":14000,"station_id":"ce4bhnp2rcd13ifvqgvg","pricing_plan_id":"cebpf4jnsgd1na2vs0mg"},{"bike_id":"9e091015-1e8f-482e-a463-a2209bd4ab0e","system_id":"levelo_inurba_marseille","lat":43.31325,"lon":5.39692,"is_reserved":false,"is_disabled":false,"rental_uris":{"android":"levelo://app?vid=9e091015-1e8f-482e-a463-a2209bd4ab0e","ios":"levelo://app?vid=9e091015-1e8f-482e-a463-a2209bd4ab0e"},"vehicle_type_id":"4","last_reported":1738609622,"current_range_meters":38800,"station_id":"ce4bgvp2rcd13ifvqcu0","pricing_plan_id":"cebpf4jnsgd1na2vs0mg"},{"bike_id":"9d509fb2-a9b9-4077-acaf-09c2f04b9827","system_id":"levelo_inurba_marseille","lat":43.292147,"lon":5.360725,"is_reserved":false,"is_disabled":false,"rental_uris":{"android":"levelo://app?vid=9d509fb2-a9b9-4077-acaf-09c2f04b9827","ios":"levelo://app?vid=9d509fb2-a9b9-4077-acaf-09c2f04b9827"},"vehicle_type_id":"4","last_reported":1738609622,"current_range_meters":38800,"station_id":"ce4bhbh2rcd13ifvqeqg","pricing_plan_id":"cebpf4jnsgd1na2vs0mg"},{"bike_id":"28c9d123-ea6f-4075-86e6-2e2e8404039d","system_id":"levelo_inurba_marseille","lat":43.31534,"lon":5.38022,"is_reserved":false,"is_disabled":false,"rental_uris":{"android":"levelo://app?vid=28c9d123-ea6f-4075-86e6-2e2e8404039d","ios":"levelo://app?vid=28c9d123-ea6f-4075-86e6-2e2e8404039d"},"vehicle_type_id":"4","last_reported":1738609622,"current_range_meters":39200,"station_id":"ce4bhsp2rcd13ifvqi50","pricing_plan_id":"cebpf4jnsgd1na2vs0mg"},{"bike_id":"0d07871e-ead6-4c90-9749-bbf5cf823cef","system_id":"levelo_inurba_marseille","lat":43.25502,"lon":5.3765,"is_reserved":false,"is_disabled":false,"rental_uris":{"android":"levelo://app?vid=0d07871e-ead6-4c90-9749-bbf5cf823cef","ios":"levelo://app?vid=0d07871e-ead6-4c90-9749-bbf5cf823cef"},"vehicle_type_id":"4","last_reported":1738609622,"current_range_meters":15200,"station_id":"ce4bhh12rcd13ifvqff0","pricing_plan_id":"cebpf4jnsgd1na2vs0mg"},{"bike_id":"2509f9f2-7eec-4e24-bb35-90e3c0fac945","system_id":"levelo_inurba_marseille","lat":43.28463,"lon":5.35874,"is_reserved":false,"is_disabled":false,"rental_uris":{"android":"levelo://app?vid=2509f9f2-7eec-4e24-bb35-90e3c0fac945","ios":"levelo://app?vid=2509f9f2-7eec-4e24-bb35-90e3c0fac945"},"vehicle_type_id":"4","last_reported":1738609622,"current_range_meters":18000,"station_id":"ce4bhah2rcd13ifvqei0","pricing_plan_id":"cebpf4jnsgd1na2vs0mg"},{"bike_id":"d1d51ec2-e1ab-4b92-9a4b-f935b04ef436","system_id":"levelo_inurba_marseille","lat":43.24995,"lon":5.38953,"is_reserved":false,"is_disabled":false,"rental_uris":{"android":"levelo://app?vid=d1d51ec2-e1ab-4b92-9a4b-f935b04ef436","ios":"levelo://app?vid=d1d51ec2-e1ab-4b92-9a4b-f935b04ef436"},"vehicle_type_id":"4","last_reported":1738609622,"current_range_meters":27600,"station_id":"ce4bhgp2rcd13ifvqfd0","pricing_plan_id":"cebpf4jnsgd1na2vs0mg"},{"bike_id":"30e962a5-ed17-4781-966d-335d338660e0","system_id":"levelo_inurba_marseille","lat":43.323651,"lon":5.388902,"is_reserved":false,"is_disabled":false,"rental_uris":{"android":"levelo://app?vid=30e962a5-ed17-4781-966d-335d338660e0","ios":"levelo://app?vid=30e962a5-ed17-4781-966d-335d338660e0"},"vehicle_type_id":"4","last_reported":1738609622,"current_range_meters":16000,"station_id":"ce4bhqp2rcd13ifvqhog","pricing_plan_id":"cebpf4jnsgd1na2vs0mg"},{"bike_id":"7a2080c9-d44a-471c-9acd-526428e8e5dc","system_id":"levelo_inurba_marseille","lat":43.22933,"lon":5.35375,"is_reserved":false,"is_disabled":false,"rental_uris":{"android":"levelo://app?vid=7a2080c9-d44a-471c-9acd-526428e8e5dc","ios":"levelo://app?vid=7a2080c9-d44a-471c-9acd-526428e8e5dc"},"vehicle_type_id":"4","last_reported":1738609622,"current_range_meters":19200,"station_id":"cpo3532slgdg3j2ikp40","pricing_plan_id":"cebpf4jnsgd1na2vs0mg"},{"bike_id":"ae53fffe-5206-4774-8a89-5de1c5778f41","system_id":"levelo_inurba_marseille","lat":43.29005,"lon":5.35607,"is_reserved":false,"is_disabled":false,"rental_uris":{"android":"levelo://app?vid=ae53fffe-5206-4774-8a89-5de1c5778f41","ios":"levelo://app?vid=ae53fffe-5206-4774-8a89-5de1c5778f41"},"vehicle_type_id":"4","last_reported":1738609622,"current_range_meters":19200,"station_id":"ce4bhb92rcd13ifvqen0","pricing_plan_id":"cebpf4jnsgd1na2vs0mg"},{"bike_id":"c7ffedac-349c-4fc0-8875-a3ceaf85f7b5","system_id":"levelo_inurba_marseille","lat":43.2417,"lon":5.3639,"is_reserved":false,"is_disabled":false,"rental_uris":{"android":"levelo://app?vid=c7ffedac-349c-4fc0-8875-a3ceaf85f7b5","ios":"levelo://app?vid=c7ffedac-349c-4fc0-8875-a3ceaf85f7b5"},"vehicle_type_id":"4","last_reported":1738609622,"current_range_meters":6800,"station_id":"cpo36qri1sfpv3e86is0","pricing_plan_id":"cebpf4jnsgd1na2vs0mg"},{"bike_id":"2e5835b9-23c7-44ad-89d3-6fb8e82a1826","system_id":"levelo_inurba_marseille","lat":43.30131,"lon":5.39883,"is_reserved":false,"is_disabled":false,"rental_uris":{"android":"levelo://app?vid=2e5835b9-23c7-44ad-89d3-6fb8e82a1826","ios":"levelo://app?vid=2e5835b9-23c7-44ad-89d3-6fb8e82a1826"},"vehicle_type_id":"4","last_reported":1738609622,"current_range_meters":38400,"station_id":"ce4bh0h2rcd13ifvqd40","pricing_plan_id":"cebpf4jnsgd1na2vs0mg"},{"bike_id":"9764552c-f76f-4819-b463-87d03822a865","system_id":"levelo_inurba_marseille","lat":43.29032,"lon":5.35921,"is_reserved":false,"is_disabled":false,"rental_uris":{"android":"levelo://app?vid=9764552c-f76f-4819-b463-87d03822a865","ios":"levelo://app?vid=9764552c-f76f-4819-b463-87d03822a865"},"vehicle_type_id":"4","last_reported":1738609622,"current_range_meters":30400,"station_id":"ce4bha92rcd13ifvqeg0","pricing_plan_id":"cebpf4jnsgd1na2vs0mg"},{"bike_id":"a3703f39-482f-49fe-9198-711ca2aca3ae","system_id":"levelo_inurba_marseille","lat":43.2942,"lon":5.38621,"is_reserved":false,"is_disabled":false,"rental_uris":{"android":"levelo://app?vid=a3703f39-482f-49fe-9198-711ca2aca3ae","ios":"levelo://app?vid=a3703f39-482f-49fe-9198-711ca2aca3ae"},"vehicle_type_id":"4","last_reported":1738609622,"current_range_meters":14000,"station_id":"ce4bh2h2rcd13ifvqdh0","pricing_plan_id":"cebpf4jnsgd1na2vs0mg"},{"bike_id":"0bb638d0-2838-47fa-8a2d-f175e9aec41a","system_id":"levelo_inurba_marseille","lat":43.23953,"lon":5.36651,"is_reserved":false,"is_disabled":false,"rental_uris":{"android":"levelo://app?vid=0bb638d0-2838-47fa-8a2d-f175e9aec41a","ios":"levelo://app?vid=0bb638d0-2838-47fa-8a2d-f175e9aec41a"},"vehicle_type_id":"4","last_reported":1738609622,"current_range_meters":18000,"station_id":"ce4bhi12rcd13ifvqfp0","pricing_plan_id":"cebpf4jnsgd1na2vs0mg"},{"bike_id":"2cbd5193-ddde-4715-a2bf-e1cb8bb201c9","system_id":"levelo_inurba_marseille","lat":43.2849,"lon":5.38432,"is_reserved":false,"is_disabled":true,"rental_uris":{"android":"levelo://app?vid=2cbd5193-ddde-4715-a2bf-e1cb8bb201c9","ios":"levelo://app?vid=2cbd5193-ddde-4715-a2bf-e1cb8bb201c9"},"vehicle_type_id":"4","last_reported":1738609622,"current_range_meters":0,"station_id":"ce4bh512rcd13ifvqe3g","pricing_plan_id":"cebpf4jnsgd1na2vs0mg"},{"bike_id":"4a18fa25-a72b-4cad-ab40-77dc9d93d71e","system_id":"levelo_inurba_marseille","lat":43.28419,"lon":5.37499,"is_reserved":false,"is_disabled":true,"rental_uris":{"android":"levelo://app?vid=4a18fa25-a72b-4cad-ab40-77dc9d93d71e","ios":"levelo://app?vid=4a18fa25-a72b-4cad-ab40-77dc9d93d71e"},"vehicle_type_id":"4","last_reported":1738609622,"current_range_meters":0,"station_id":"ce4bh412rcd13ifvqds0","pricing_plan_id":"cebpf4jnsgd1na2vs0mg"},{"bike_id":"2fed9ba3-3909-423b-8e60-69abd9978d73","system_id":"levelo_inurba_marseille","lat":43.26812,"lon":5.40269,"is_reserved":false,"is_disabled":false,"rental_uris":{"android":"levelo://app?vid=2fed9ba3-3909-423b-8e60-69abd9978d73","ios":"levelo://app?vid=2fed9ba3-3909-423b-8e60-69abd9978d73"},"vehicle_type_id":"4","last_reported":1738609622,"current_range_meters":38400,"station_id":"ce501612rcd8frsf0b60","pricing_plan_id":"cebpf4jnsgd1na2vs0mg"},{"bike_id":"831f1a08-82a9-45f1-a6b2-a6fc207835be","system_id":"levelo_inurba_marseille","lat":43.30307,"lon":5.39213,"is_reserved":false,"is_disabled":false,"rental_uris":{"android":"levelo://app?vid=831f1a08-82a9-45f1-a6b2-a6fc207835be","ios":"levelo://app?vid=831f1a08-82a9-45f1-a6b2-a6fc207835be"},"vehicle_type_id":"4","last_reported":1738609622,"current_range_meters":4800,"station_id":"ce4bgkh2rcd13ifvqbk0","pricing_plan_id":"cebpf4jnsgd1na2vs0mg"},{"bike_id":"2c2fcd8d-3cca-4733-af9e-8580c61e150c","system_id":"levelo_inurba_marseille","lat":43.29008,"lon":5.35614,"is_reserved":false,"is_disabled":false,"rental_uris":{"android":"levelo://app?vid=2c2fcd8d-3cca-4733-af9e-8580c61e150c","ios":"levelo://app?vid=2c2fcd8d-3cca-4733-af9e-8580c61e150c"},"vehicle_type_id":"4","last_reported":1738609622,"current_range_meters":12800,"station_id":"ce4bhb92rcd13ifvqen0","pricing_plan_id":"cebpf4jnsgd1na2vs0mg"},{"bike_id":"c9a53036-fdd2-406b-9e70-c17f21e2eb93","system_id":"levelo_inurba_marseille","lat":43.28407,"lon":5.37525,"is_reserved":false,"is_disabled":false,"rental_uris":{"android":"levelo://app?vid=c9a53036-fdd2-406b-9e70-c17f21e2eb93","ios":"levelo://app?vid=c9a53036-fdd2-406b-9e70-c17f21e2eb93"},"vehicle_type_id":"4","last_reported":1738609622,"current_range_meters":17200,"station_id":"ce4bh412rcd13ifvqds0","pricing_plan_id":"cebpf4jnsgd1na2vs0mg"},{"bike_id":"8274d570-94cc-44d0-8f24-915bbe768e9d","system_id":"levelo_inurba_marseille","lat":43.32893,"lon":5.39152,"is_reserved":false,"is_disabled":false,"rental_uris":{"android":"levelo://app?vid=8274d570-94cc-44d0-8f24-915bbe768e9d","ios":"levelo://app?vid=8274d570-94cc-44d0-8f24-915bbe768e9d"},"vehicle_type_id":"4","last_reported":1738609622,"current_range_meters":19600,"station_id":"","pricing_plan_id":"cebpf4jnsgd1na2vs0mg"},{"bike_id":"f80d228f-4730-4cc0-aa2d-1ffcf9af894f","system_id":"levelo_inurba_marseille","lat":43.28613,"lon":5.35101,"is_reserved":false,"is_disabled":false,"rental_uris":{"android":"levelo://app?vid=f80d228f-4730-4cc0-aa2d-1ffcf9af894f","ios":"levelo://app?vid=f80d228f-4730-4cc0-aa2d-1ffcf9af894f"},"vehicle_type_id":"4","last_reported":1738609622,"current_range_meters":28400,"station_id":"ce4bhch2rcd13ifvqeug","pricing_plan_id":"cebpf4jnsgd1na2vs0mg"},{"bike_id":"1b46daa4-ff22-40c1-96e0-6e19e1bb0d1f","system_id":"levelo_inurba_marseille","lat":43.24797,"lon":5.3746,"is_reserved":false,"is_disabled":false,"rental_uris":{"android":"levelo://app?vid=1b46daa4-ff22-40c1-96e0-6e19e1bb0d1f","ios":"levelo://app?vid=1b46daa4-ff22-40c1-96e0-6e19e1bb0d1f"},"vehicle_type_id":"4","last_reported":1738609622,"current_range_meters":15200,"station_id":"ce4bhgh2rcd13ifvqfb0","pricing_plan_id":"cebpf4jnsgd1na2vs0mg"},{"bike_id":"62262bbb-a9ca-4009-b352-a9744841470b","system_id":"levelo_inurba_marseille","lat":43.26228,"lon":5.40443,"is_reserved":false,"is_disabled":false,"rental_uris":{"android":"levelo://app?vid=62262bbb-a9ca-4009-b352-a9744841470b","ios":"levelo://app?vid=62262bbb-a9ca-4009-b352-a9744841470b"},"vehicle_type_id":"4","last_reported":1738609622,"current_range_meters":30400,"station_id":"ce4bhmh2rcd13ifvqgmg","pricing_plan_id":"cebpf4jnsgd1na2vs0mg"},{"bike_id":"77702765-50a2-4773-818f-79c7794c3db4","system_id":"levelo_inurba_marseille","lat":43.27362,"lon":5.36267,"is_reserved":false,"is_disabled":false,"rental_uris":{"android":"levelo://app?vid=77702765-50a2-4773-818f-79c7794c3db4","ios":"levelo://app?vid=77702765-50a2-4773-818f-79c7794c3db4"},"vehicle_type_id":"4","last_reported":1738609622,"current_range_meters":38800,"station_id":"ce4bhbh2rcd13ifvqeo0","pricing_plan_id":"cebpf4jnsgd1na2vs0mg"},{"bike_id":"895b886d-f041-450f-bbc7-c95d89abf42f","system_id":"levelo_inurba_marseille","lat":43.31108,"lon":5.37992,"is_reserved":false,"is_disabled":false,"rental_uris":{"android":"levelo://app?vid=895b886d-f041-450f-bbc7-c95d89abf42f","ios":"levelo://app?vid=895b886d-f041-450f-bbc7-c95d89abf42f"},"vehicle_type_id":"4","last_reported":1738609622,"current_range_meters":29600,"station_id":"","pricing_plan_id":"cebpf4jnsgd1na2vs0mg"},{"bike_id":"5d3a3d1f-369e-4691-8162-b317bf97f636","system_id":"levelo_inurba_marseille","lat":43.3065,"lon":5.40097,"is_reserved":false,"is_disabled":false,"rental_uris":{"android":"levelo://app?vid=5d3a3d1f-369e-4691-8162-b317bf97f636","ios":"levelo://app?vid=5d3a3d1f-369e-4691-8162-b317bf97f636"},"vehicle_type_id":"4","last_reported":1738609622,"current_range_meters":4400,"station_id":"ce4bh112rcd13ifvqda0","pricing_plan_id":"cebpf4jnsgd1na2vs0mg"},{"bike_id":"9912a023-1392-44b1-838d-79029cefb35e","system_id":"levelo_inurba_marseille","lat":43.27898,"lon":5.38006,"is_reserved":false,"is_disabled":false,"rental_uris":{"android":"levelo://app?vid=9912a023-1392-44b1-838d-79029cefb35e","ios":"levelo://app?vid=9912a023-1392-44b1-838d-79029cefb35e"},"vehicle_type_id":"4","last_reported":1738609622,"current_range_meters":38800,"station_id":"ce4bhf92rcd13ifvqf50","pricing_plan_id":"cebpf4jnsgd1na2vs0mg"},{"bike_id":"99630b4f-d397-4cd1-b643-a51d074b76bb","system_id":"levelo_inurba_marseille","lat":43.28467,"lon":5.35883,"is_reserved":false,"is_disabled":false,"rental_uris":{"android":"levelo://app?vid=99630b4f-d397-4cd1-b643-a51d074b76bb","ios":"levelo://app?vid=99630b4f-d397-4cd1-b643-a51d074b76bb"},"vehicle_type_id":"4","last_reported":1738609622,"current_range_meters":38800,"station_id":"ce4bhah2rcd13ifvqei0","pricing_plan_id":"cebpf4jnsgd1na2vs0mg"},{"bike_id":"8287c050-ed39-4c6c-ab1a-058823500666","system_id":"levelo_inurba_marseille","lat":43.2465,"lon":5.38898,"is_reserved":false,"is_disabled":false,"rental_uris":{"android":"levelo://app?vid=8287c050-ed39-4c6c-ab1a-058823500666","ios":"levelo://app?vid=8287c050-ed39-4c6c-ab1a-058823500666"},"vehicle_type_id":"4","last_reported":1738609622,"current_range_meters":32000,"station_id":"ce4bhg12rcd13ifvqf60","pricing_plan_id":"cebpf4jnsgd1na2vs0mg"},{"bike_id":"67461486-f190-4d49-a585-b42010d723a2","system_id":"levelo_inurba_marseille","lat":43.30598,"lon":5.3936,"is_reserved":false,"is_disabled":false,"rental_uris":{"android":"levelo://app?vid=67461486-f190-4d49-a585-b42010d723a2","ios":"levelo://app?vid=67461486-f190-4d49-a585-b42010d723a2"},"vehicle_type_id":"4","last_reported":1738609622,"current_range_meters":34800,"station_id":"ce4bh0p2rcd13ifvqd80","pricing_plan_id":"cebpf4jnsgd1na2vs0mg"},{"bike_id":"115e302a-af5d-408a-980b-094c657f62a3","system_id":"levelo_inurba_marseille","lat":43.27548,"lon":5.38428,"is_reserved":false,"is_disabled":false,"rental_uris":{"android":"levelo://app?vid=115e302a-af5d-408a-980b-094c657f62a3","ios":"levelo://app?vid=115e302a-af5d-408a-980b-094c657f62a3"},"vehicle_type_id":"4","last_reported":1738609622,"current_range_meters":9200,"station_id":"ce4bhh92rcd13ifvqfi0","pricing_plan_id":"cebpf4jnsgd1na2vs0mg"},{"bike_id":"52a36b22-dcd8-4f7c-8f98-8f6d79fa2ad0","system_id":"levelo_inurba_marseille","lat":43.2895,"lon":5.36619,"is_reserved":false,"is_disabled":false,"rental_uris":{"android":"levelo://app?vid=52a36b22-dcd8-4f7c-8f98-8f6d79fa2ad0","ios":"levelo://app?vid=52a36b22-dcd8-4f7c-8f98-8f6d79fa2ad0"},"vehicle_type_id":"4","last_reported":1738609622,"current_range_meters":11200,"station_id":"ce4bhap2rcd13ifvqek0","pricing_plan_id":"cebpf4jnsgd1na2vs0mg"},{"bike_id":"4dc59cb0-5a34-4ff8-9304-5eee2989283e","system_id":"levelo_inurba_marseille","lat":43.31321,"lon":5.39697,"is_reserved":false,"is_disabled":false,"rental_uris":{"android":"levelo://app?vid=4dc59cb0-5a34-4ff8-9304-5eee2989283e","ios":"levelo://app?vid=4dc59cb0-5a34-4ff8-9304-5eee2989283e"},"vehicle_type_id":"4","last_reported":1738609622,"current_range_meters":36400,"station_id":"ce4bgvp2rcd13ifvqcu0","pricing_plan_id":"cebpf4jnsgd1na2vs0mg"},{"bike_id":"d992c199-35ce-45f9-be6c-bc82fb359710","system_id":"levelo_inurba_marseille","lat":43.23064,"lon":5.35491,"is_reserved":false,"is_disabled":false,"rental_uris":{"android":"levelo://app?vid=d992c199-35ce-45f9-be6c-bc82fb359710","ios":"levelo://app?vid=d992c199-35ce-45f9-be6c-bc82fb359710"},"vehicle_type_id":"4","last_reported":1738609622,"current_range_meters":38800,"station_id":"cpo3342slgdg3j2ifvpg","pricing_plan_id":"cebpf4jnsgd1na2vs0mg"},{"bike_id":"df721def-598a-4e24-a89a-4771bf19c6fb","system_id":"levelo_inurba_marseille","lat":43.27811,"lon":5.40705,"is_reserved":false,"is_disabled":false,"rental_uris":{"android":"levelo://app?vid=df721def-598a-4e24-a89a-4771bf19c6fb","ios":"levelo://app?vid=df721def-598a-4e24-a89a-4771bf19c6fb"},"vehicle_type_id":"4","last_reported":1738609622,"current_range_meters":39200,"station_id":"ce4bhnh2rcd13ifvqgtg","pricing_plan_id":"cebpf4jnsgd1na2vs0mg"},{"bike_id":"905522ef-d4d4-4a33-8994-defbf52775ca","system_id":"levelo_inurba_marseille","lat":43.26223,"lon":5.40442,"is_reserved":false,"is_disabled":true,"rental_uris":{"android":"levelo://app?vid=905522ef-d4d4-4a33-8994-defbf52775ca","ios":"levelo://app?vid=905522ef-d4d4-4a33-8994-defbf52775ca"},"vehicle_type_id":"4","last_reported":1738609622,"current_range_meters":0,"station_id":"ce4bhmh2rcd13ifvqgmg","pricing_plan_id":"cebpf4jnsgd1na2vs0mg"},{"bike_id":"5df9bf08-43fe-4acc-898a-9db2002f38bc","system_id":"levelo_inurba_marseille","lat":43.258673,"lon":5.399016,"is_reserved":false,"is_disabled":false,"rental_uris":{"android":"levelo://app?vid=5df9bf08-43fe-4acc-898a-9db2002f38bc","ios":"levelo://app?vid=5df9bf08-43fe-4acc-898a-9db2002f38bc"},"vehicle_type_id":"4","last_reported":1738609622,"current_range_meters":19200,"station_id":"ce4bhl92rcd13ifvqghg","pricing_plan_id":"cebpf4jnsgd1na2vs0mg"},{"bike_id":"d9c614f7-8968-45e8-82a0-4ae06e41b32a","system_id":"levelo_inurba_marseille","lat":43.29225,"lon":5.36028,"is_reserved":false,"is_disabled":false,"rental_uris":{"android":"levelo://app?vid=d9c614f7-8968-45e8-82a0-4ae06e41b32a","ios":"levelo://app?vid=d9c614f7-8968-45e8-82a0-4ae06e41b32a"},"vehicle_type_id":"4","last_reported":1738609622,"current_range_meters":13600,"station_id":"ce4bhbh2rcd13ifvqeqg","pricing_plan_id":"cebpf4jnsgd1na2vs0mg"},{"bike_id":"d4bce66a-d65b-4b47-9794-541ff89c1546","system_id":"levelo_inurba_marseille","lat":43.27554,"lon":5.3843,"is_reserved":false,"is_disabled":false,"rental_uris":{"android":"levelo://app?vid=d4bce66a-d65b-4b47-9794-541ff89c1546","ios":"levelo://app?vid=d4bce66a-d65b-4b47-9794-541ff89c1546"},"vehicle_type_id":"4","last_reported":1738609622,"current_range_meters":10800,"station_id":"ce4bhh92rcd13ifvqfi0","pricing_plan_id":"cebpf4jnsgd1na2vs0mg"},{"bike_id":"3034d64e-f78e-468c-b4d6-2520a053438f","system_id":"levelo_inurba_marseille","lat":43.23186,"lon":5.39993,"is_reserved":false,"is_disabled":true,"rental_uris":{"android":"levelo://app?vid=3034d64e-f78e-468c-b4d6-2520a053438f","ios":"levelo://app?vid=3034d64e-f78e-468c-b4d6-2520a053438f"},"vehicle_type_id":"4","last_reported":1738609622,"current_range_meters":14800,"station_id":"ce4bhn12rcd13ifvqgqg","pricing_plan_id":"cebpf4jnsgd1na2vs0mg"},{"bike_id":"4d56843c-838b-4099-80e1-081325709750","system_id":"levelo_inurba_marseille","lat":43.29193,"lon":5.35792,"is_reserved":false,"is_disabled":false,"rental_uris":{"android":"levelo://app?vid=4d56843c-838b-4099-80e1-081325709750","ios":"levelo://app?vid=4d56843c-838b-4099-80e1-081325709750"},"vehicle_type_id":"4","last_reported":1738609622,"current_range_meters":38800,"station_id":"ce4bhb12rcd13ifvqel0","pricing_plan_id":"cebpf4jnsgd1na2vs0mg"},{"bike_id":"a4c4ebb2-cefe-4dcc-946d-015041d50caa","system_id":"levelo_inurba_marseille","lat":43.29018,"lon":5.37563,"is_reserved":false,"is_disabled":true,"rental_uris":{"android":"levelo://app?vid=a4c4ebb2-cefe-4dcc-946d-015041d50caa","ios":"levelo://app?vid=a4c4ebb2-cefe-4dcc-946d-015041d50caa"},"vehicle_type_id":"4","last_reported":1738609622,"current_range_meters":800,"station_id":"ce4bh692rcd13ifvqe90","pricing_plan_id":"cebpf4jnsgd1na2vs0mg"},{"bike_id":"7f87d5fc-9445-41df-bd3e-5287cb6adb70","system_id":"levelo_inurba_marseille","lat":43.26815,"lon":5.40245,"is_reserved":false,"is_disabled":false,"rental_uris":{"android":"levelo://app?vid=7f87d5fc-9445-41df-bd3e-5287cb6adb70","ios":"levelo://app?vid=7f87d5fc-9445-41df-bd3e-5287cb6adb70"},"vehicle_type_id":"4","last_reported":1738609622,"current_range_meters":12800,"station_id":"ce501612rcd8frsf0b60","pricing_plan_id":"cebpf4jnsgd1na2vs0mg"},{"bike_id":"9e768907-2758-4663-849c-1bfedc158f31","system_id":"levelo_inurba_marseille","lat":43.279114,"lon":5.395864,"is_reserved":false,"is_disabled":true,"rental_uris":{"android":"levelo://app?vid=9e768907-2758-4663-849c-1bfedc158f31","ios":"levelo://app?vid=9e768907-2758-4663-849c-1bfedc158f31"},"vehicle_type_id":"4","last_reported":1738609622,"current_range_meters":0,"station_id":"ce4bhf92rcd13ifvqf40","pricing_plan_id":"cebpf4jnsgd1na2vs0mg"},{"bike_id":"9da2e432-4f65-47d9-bc81-2fec1d9802eb","system_id":"levelo_inurba_marseille","lat":43.24646,"lon":5.38887,"is_reserved":false,"is_disabled":false,"rental_uris":{"android":"levelo://app?vid=9da2e432-4f65-47d9-bc81-2fec1d9802eb","ios":"levelo://app?vid=9da2e432-4f65-47d9-bc81-2fec1d9802eb"},"vehicle_type_id":"4","last_reported":1738609622,"current_range_meters":33200,"station_id":"ce4bhg12rcd13ifvqf60","pricing_plan_id":"cebpf4jnsgd1na2vs0mg"},{"bike_id":"396dd8c6-4515-4ec4-b399-01db7c90b287","system_id":"levelo_inurba_marseille","lat":43.28852,"lon":5.39321,"is_reserved":false,"is_disabled":false,"rental_uris":{"android":"levelo://app?vid=396dd8c6-4515-4ec4-b399-01db7c90b287","ios":"levelo://app?vid=396dd8c6-4515-4ec4-b399-01db7c90b287"},"vehicle_type_id":"4","last_reported":1738609622,"current_range_meters":38800,"station_id":"ce4bh2p2rcd13ifvqdi0","pricing_plan_id":"cebpf4jnsgd1na2vs0mg"},{"bike_id":"942ee348-f601-4816-a32c-40a8d55d3f6b","system_id":"levelo_inurba_marseille","lat":43.337444,"lon":5.374475,"is_reserved":false,"is_disabled":true,"rental_uris":{"android":"levelo://app?vid=942ee348-f601-4816-a32c-40a8d55d3f6b","ios":"levelo://app?vid=942ee348-f601-4816-a32c-40a8d55d3f6b"},"vehicle_type_id":"4","last_reported":1738609622,"current_range_meters":0,"station_id":"","pricing_plan_id":"cebpf4jnsgd1na2vs0mg"},{"bike_id":"a7dc0848-081a-4438-bce6-7e161a91f066","system_id":"levelo_inurba_marseille","lat":43.28153,"lon":5.42665,"is_reserved":false,"is_disabled":false,"rental_uris":{"android":"levelo://app?vid=a7dc0848-081a-4438-bce6-7e161a91f066","ios":"levelo://app?vid=a7dc0848-081a-4438-bce6-7e161a91f066"},"vehicle_type_id":"4","last_reported":1738609622,"current_range_meters":38000,"station_id":"ce4bhnh2rcd13ifvqgug","pricing_plan_id":"cebpf4jnsgd1na2vs0mg"},{"bike_id":"d5d6e7f4-4e55-4592-b55b-2e87bf63c2f6","system_id":"levelo_inurba_marseille","lat":43.285641,"lon":5.394983,"is_reserved":false,"is_disabled":false,"rental_uris":{"android":"levelo://app?vid=d5d6e7f4-4e55-4592-b55b-2e87bf63c2f6","ios":"levelo://app?vid=d5d6e7f4-4e55-4592-b55b-2e87bf63c2f6"},"vehicle_type_id":"4","last_reported":1738609622,"current_range_meters":8800,"station_id":"ce4bh292rcd13ifvqdg0","pricing_plan_id":"cebpf4jnsgd1na2vs0mg"},{"bike_id":"b9906d61-d04c-4b72-aa97-3e2d58865cc7","system_id":"levelo_inurba_marseille","lat":43.30323,"lon":5.40439,"is_reserved":false,"is_disabled":false,"rental_uris":{"android":"levelo://app?vid=b9906d61-d04c-4b72-aa97-3e2d58865cc7","ios":"levelo://app?vid=b9906d61-d04c-4b72-aa97-3e2d58865cc7"},"vehicle_type_id":"4","last_reported":1738609622,"current_range_meters":37600,"station_id":"ce4bh012rcd13ifvqd10","pricing_plan_id":"cebpf4jnsgd1na2vs0mg"},{"bike_id":"f0b53076-d51d-4c78-be73-c20056d1b4ad","system_id":"levelo_inurba_marseille","lat":43.299779,"lon":5.384802,"is_reserved":false,"is_disabled":true,"rental_uris":{"android":"levelo://app?vid=f0b53076-d51d-4c78-be73-c20056d1b4ad","ios":"levelo://app?vid=f0b53076-d51d-4c78-be73-c20056d1b4ad"},"vehicle_type_id":"4","last_reported":1738609622,"current_range_meters":38000,"station_id":"ce4bgj92rcd13ifvqbd0","pricing_plan_id":"cebpf4jnsgd1na2vs0mg"},{"bike_id":"c8bd1d84-2291-473f-ab82-361f165fe1db","system_id":"levelo_inurba_marseille","lat":43.24175,"lon":5.36393,"is_reserved":false,"is_disabled":false,"rental_uris":{"android":"levelo://app?vid=c8bd1d84-2291-473f-ab82-361f165fe1db","ios":"levelo://app?vid=c8bd1d84-2291-473f-ab82-361f165fe1db"},"vehicle_type_id":"4","last_reported":1738609622,"current_range_meters":24000,"station_id":"cpo36qri1sfpv3e86is0","pricing_plan_id":"cebpf4jnsgd1na2vs0mg"},{"bike_id":"e4c0a2aa-ca08-481e-ad49-bfc4a753b046","system_id":"levelo_inurba_marseille","lat":43.29016,"lon":5.38629,"is_reserved":false,"is_disabled":false,"rental_uris":{"android":"levelo://app?vid=e4c0a2aa-ca08-481e-ad49-bfc4a753b046","ios":"levelo://app?vid=e4c0a2aa-ca08-481e-ad49-bfc4a753b046"},"vehicle_type_id":"4","last_reported":1738609622,"current_range_meters":32800,"station_id":"ce4bh4p2rcd13ifvqe0g","pricing_plan_id":"cebpf4jnsgd1na2vs0mg"},{"bike_id":"bb846df9-2969-480a-aed6-edbcf9c326fb","system_id":"levelo_inurba_marseille","lat":43.248176,"lon":5.37459,"is_reserved":false,"is_disabled":false,"rental_uris":{"android":"levelo://app?vid=bb846df9-2969-480a-aed6-edbcf9c326fb","ios":"levelo://app?vid=bb846df9-2969-480a-aed6-edbcf9c326fb"},"vehicle_type_id":"4","last_reported":1738609622,"current_range_meters":28400,"station_id":"ce4bhgh2rcd13ifvqfb0","pricing_plan_id":"cebpf4jnsgd1na2vs0mg"},{"bike_id":"48ebfd2e-3b3a-4da2-a76d-11ff63396ffb","system_id":"levelo_inurba_marseille","lat":43.28005,"lon":5.39989,"is_reserved":false,"is_disabled":true,"rental_uris":{"android":"levelo://app?vid=48ebfd2e-3b3a-4da2-a76d-11ff63396ffb","ios":"levelo://app?vid=48ebfd2e-3b3a-4da2-a76d-11ff63396ffb"},"vehicle_type_id":"4","last_reported":1738609622,"current_range_meters":19600,"station_id":"ce4bho92rcd13ifvqh4g","pricing_plan_id":"cebpf4jnsgd1na2vs0mg"},{"bike_id":"85e0a930-26fd-4edc-a536-795827c6b8db","system_id":"levelo_inurba_marseille","lat":43.287006,"lon":5.374009,"is_reserved":false,"is_disabled":false,"rental_uris":{"android":"levelo://app?vid=85e0a930-26fd-4edc-a536-795827c6b8db","ios":"levelo://app?vid=85e0a930-26fd-4edc-a536-795827c6b8db"},"vehicle_type_id":"4","last_reported":1738609622,"current_range_meters":17200,"station_id":"ce4bh3p2rcd13ifvqdq0","pricing_plan_id":"cebpf4jnsgd1na2vs0mg"},{"bike_id":"cd07e062-2af1-406e-bcb9-5f1ec4730937","system_id":"levelo_inurba_marseille","lat":43.23047,"lon":5.35486,"is_reserved":false,"is_disabled":false,"rental_uris":{"android":"levelo://app?vid=cd07e062-2af1-406e-bcb9-5f1ec4730937","ios":"levelo://app?vid=cd07e062-2af1-406e-bcb9-5f1ec4730937"},"vehicle_type_id":"4","last_reported":1738609622,"current_range_meters":11600,"station_id":"cpo3342slgdg3j2ifvpg","pricing_plan_id":"cebpf4jnsgd1na2vs0mg"},{"bike_id":"03d4e594-109a-4c54-9f3a-237df28779be","system_id":"levelo_inurba_marseille","lat":43.279324,"lon":5.410458,"is_reserved":false,"is_disabled":false,"rental_uris":{"android":"levelo://app?vid=03d4e594-109a-4c54-9f3a-237df28779be","ios":"levelo://app?vid=03d4e594-109a-4c54-9f3a-237df28779be"},"vehicle_type_id":"4","last_reported":1738609622,"current_range_meters":9600,"station_id":"ce4bhnp2rcd13ifvqh0g","pricing_plan_id":"cebpf4jnsgd1na2vs0mg"},{"bike_id":"516f2549-79cf-4297-a0ad-3d3f06a71f80","system_id":"levelo_inurba_marseille","lat":43.31711,"lon":5.42383,"is_reserved":false,"is_disabled":true,"rental_uris":{"android":"levelo://app?vid=516f2549-79cf-4297-a0ad-3d3f06a71f80","ios":"levelo://app?vid=516f2549-79cf-4297-a0ad-3d3f06a71f80"},"vehicle_type_id":"4","last_reported":1738609622,"current_range_meters":7200,"station_id":"ce4bhp92rcd13ifvqhbg","pricing_plan_id":"cebpf4jnsgd1na2vs0mg"},{"bike_id":"2560298a-7b73-4b42-b024-41069cd9db21","system_id":"levelo_inurba_marseille","lat":43.27055,"lon":5.40264,"is_reserved":false,"is_disabled":true,"rental_uris":{"android":"levelo://app?vid=2560298a-7b73-4b42-b024-41069cd9db21","ios":"levelo://app?vid=2560298a-7b73-4b42-b024-41069cd9db21"},"vehicle_type_id":"4","last_reported":1738609622,"current_range_meters":800,"station_id":"ce4bhk92rcd13ifvqgc0","pricing_plan_id":"cebpf4jnsgd1na2vs0mg"},{"bike_id":"f4e57905-5728-44ca-8d26-9181dbb90a42","system_id":"levelo_inurba_marseille","lat":43.280036,"lon":5.416652,"is_reserved":false,"is_disabled":false,"rental_uris":{"android":"levelo://app?vid=f4e57905-5728-44ca-8d26-9181dbb90a42","ios":"levelo://app?vid=f4e57905-5728-44ca-8d26-9181dbb90a42"},"vehicle_type_id":"4","last_reported":1738609622,"current_range_meters":38800,"station_id":"ce4bho12rcd13ifvqh1g","pricing_plan_id":"cebpf4jnsgd1na2vs0mg"},{"bike_id":"33ca5069-56d2-4325-a267-3e105def93f9","system_id":"levelo_inurba_marseille","lat":43.30408,"lon":5.41295,"is_reserved":false,"is_disabled":false,"rental_uris":{"android":"levelo://app?vid=33ca5069-56d2-4325-a267-3e105def93f9","ios":"levelo://app?vid=33ca5069-56d2-4325-a267-3e105def93f9"},"vehicle_type_id":"4","last_reported":1738609622,"current_range_meters":36800,"station_id":"ce4bhop2rcd13ifvqh8g","pricing_plan_id":"cebpf4jnsgd1na2vs0mg"},{"bike_id":"2e000050-3e54-4f5a-9a94-7b366c1367e2","system_id":"levelo_inurba_marseille","lat":43.28406,"lon":5.3751,"is_reserved":false,"is_disabled":false,"rental_uris":{"android":"levelo://app?vid=2e000050-3e54-4f5a-9a94-7b366c1367e2","ios":"levelo://app?vid=2e000050-3e54-4f5a-9a94-7b366c1367e2"},"vehicle_type_id":"4","last_reported":1738609622,"current_range_meters":26800,"station_id":"ce4bh412rcd13ifvqds0","pricing_plan_id":"cebpf4jnsgd1na2vs0mg"},{"bike_id":"82b96249-9f3e-451b-ae28-0614063677c1","system_id":"levelo_inurba_marseille","lat":43.2319,"lon":5.39969,"is_reserved":false,"is_disabled":false,"rental_uris":{"android":"levelo://app?vid=82b96249-9f3e-451b-ae28-0614063677c1","ios":"levelo://app?vid=82b96249-9f3e-451b-ae28-0614063677c1"},"vehicle_type_id":"4","last_reported":1738609622,"current_range_meters":24000,"station_id":"ce4bhn12rcd13ifvqgqg","pricing_plan_id":"cebpf4jnsgd1na2vs0mg"},{"bike_id":"e8167c1a-a29d-4dbf-baa7-ebdcf27060a7","system_id":"levelo_inurba_marseille","lat":43.27561,"lon":5.38411,"is_reserved":false,"is_disabled":false,"rental_uris":{"android":"levelo://app?vid=e8167c1a-a29d-4dbf-baa7-ebdcf27060a7","ios":"levelo://app?vid=e8167c1a-a29d-4dbf-baa7-ebdcf27060a7"},"vehicle_type_id":"4","last_reported":1738609622,"current_range_meters":16400,"station_id":"ce4bhh92rcd13ifvqfi0","pricing_plan_id":"cebpf4jnsgd1na2vs0mg"},{"bike_id":"eac34af4-91d0-4f39-bf69-b31def31523c","system_id":"levelo_inurba_marseille","lat":43.30354,"lon":5.41869,"is_reserved":false,"is_disabled":false,"rental_uris":{"android":"levelo://app?vid=eac34af4-91d0-4f39-bf69-b31def31523c","ios":"levelo://app?vid=eac34af4-91d0-4f39-bf69-b31def31523c"},"vehicle_type_id":"4","last_reported":1738609622,"current_range_meters":24000,"station_id":"ce4bhop2rcd13ifvqh7g","pricing_plan_id":"cebpf4jnsgd1na2vs0mg"},{"bike_id":"08691341-08de-4814-8055-e780af04f89c","system_id":"levelo_inurba_marseille","lat":43.2499,"lon":5.38915,"is_reserved":false,"is_disabled":false,"rental_uris":{"android":"levelo://app?vid=08691341-08de-4814-8055-e780af04f89c","ios":"levelo://app?vid=08691341-08de-4814-8055-e780af04f89c"},"vehicle_type_id":"4","last_reported":1738609622,"current_range_meters":38800,"station_id":"ce4bhgp2rcd13ifvqfd0","pricing_plan_id":"cebpf4jnsgd1na2vs0mg"},{"bike_id":"8ec883eb-b186-42b1-a898-c67e51940610","system_id":"levelo_inurba_marseille","lat":43.31166,"lon":5.38713,"is_reserved":false,"is_disabled":false,"rental_uris":{"android":"levelo://app?vid=8ec883eb-b186-42b1-a898-c67e51940610","ios":"levelo://app?vid=8ec883eb-b186-42b1-a898-c67e51940610"},"vehicle_type_id":"4","last_reported":1738609622,"current_range_meters":29600,"station_id":"ce4bgv12rcd13ifvqcp0","pricing_plan_id":"cebpf4jnsgd1na2vs0mg"},{"bike_id":"3eeff02b-8268-4022-b26d-26bab769f3f5","system_id":"levelo_inurba_marseille","lat":43.28375,"lon":5.37528,"is_reserved":false,"is_disabled":false,"rental_uris":{"android":"levelo://app?vid=3eeff02b-8268-4022-b26d-26bab769f3f5","ios":"levelo://app?vid=3eeff02b-8268-4022-b26d-26bab769f3f5"},"vehicle_type_id":"4","last_reported":1738609622,"current_range_meters":26800,"station_id":"ce4bh412rcd13ifvqds0","pricing_plan_id":"cebpf4jnsgd1na2vs0mg"},{"bike_id":"a659468e-92fb-408c-b224-7b187ed486c6","system_id":"levelo_inurba_marseille","lat":43.24065,"lon":5.37747,"is_reserved":false,"is_disabled":false,"rental_uris":{"android":"levelo://app?vid=a659468e-92fb-408c-b224-7b187ed486c6","ios":"levelo://app?vid=a659468e-92fb-408c-b224-7b187ed486c6"},"vehicle_type_id":"4","last_reported":1738609622,"current_range_meters":38800,"station_id":"ce4bhnp2rcd13ifvqgvg","pricing_plan_id":"cebpf4jnsgd1na2vs0mg"},{"bike_id":"c3066916-eed2-4635-b496-6709235f4164","system_id":"levelo_inurba_marseille","lat":43.24999,"lon":5.38934,"is_reserved":false,"is_disabled":false,"rental_uris":{"android":"levelo://app?vid=c3066916-eed2-4635-b496-6709235f4164","ios":"levelo://app?vid=c3066916-eed2-4635-b496-6709235f4164"},"vehicle_type_id":"4","last_reported":1738609622,"current_range_meters":17200,"station_id":"ce4bhgp2rcd13ifvqfd0","pricing_plan_id":"cebpf4jnsgd1na2vs0mg"},{"bike_id":"00bf7b70-ffcd-45a6-bdde-0e597acac323","system_id":"levelo_inurba_marseille","lat":43.30135,"lon":5.3987,"is_reserved":false,"is_disabled":false,"rental_uris":{"android":"levelo://app?vid=00bf7b70-ffcd-45a6-bdde-0e597acac323","ios":"levelo://app?vid=00bf7b70-ffcd-45a6-bdde-0e597acac323"},"vehicle_type_id":"4","last_reported":1738609622,"current_range_meters":36000,"station_id":"ce4bh0h2rcd13ifvqd40","pricing_plan_id":"cebpf4jnsgd1na2vs0mg"},{"bike_id":"5718481c-817c-4453-ad50-860ac1fd6949","system_id":"levelo_inurba_marseille","lat":43.26502,"lon":5.39543,"is_reserved":false,"is_disabled":false,"rental_uris":{"android":"levelo://app?vid=5718481c-817c-4453-ad50-860ac1fd6949","ios":"levelo://app?vid=5718481c-817c-4453-ad50-860ac1fd6949"},"vehicle_type_id":"4","last_reported":1738609622,"current_range_meters":38800,"station_id":"ce4bhi12rcd13ifvqfq0","pricing_plan_id":"cebpf4jnsgd1na2vs0mg"},{"bike_id":"fa48af50-f7f8-463b-8073-011bea7848cf","system_id":"levelo_inurba_marseille","lat":43.26956,"lon":5.40224,"is_reserved":false,"is_disabled":false,"rental_uris":{"android":"levelo://app?vid=fa48af50-f7f8-463b-8073-011bea7848cf","ios":"levelo://app?vid=fa48af50-f7f8-463b-8073-011bea7848cf"},"vehicle_type_id":"4","last_reported":1738609622,"current_range_meters":36000,"station_id":"cjm6bp8fraef2m0cb0m0","pricing_plan_id":"cebpf4jnsgd1na2vs0mg"},{"bike_id":"bb167293-f547-489c-b779-b5a671a3231f","system_id":"levelo_inurba_marseille","lat":43.30803,"lon":5.38155,"is_reserved":false,"is_disabled":false,"rental_uris":{"android":"levelo://app?vid=bb167293-f547-489c-b779-b5a671a3231f","ios":"levelo://app?vid=bb167293-f547-489c-b779-b5a671a3231f"},"vehicle_type_id":"4","last_reported":1738609622,"current_range_meters":24400,"station_id":"ce4bgt12rcd13ifvqce0","pricing_plan_id":"cebpf4jnsgd1na2vs0mg"},{"bike_id":"1d887e37-d078-4c40-83a3-0f10515eebf1","system_id":"levelo_inurba_marseille","lat":43.29849,"lon":5.3628,"is_reserved":false,"is_disabled":false,"rental_uris":{"android":"levelo://app?vid=1d887e37-d078-4c40-83a3-0f10515eebf1","ios":"levelo://app?vid=1d887e37-d078-4c40-83a3-0f10515eebf1"},"vehicle_type_id":"4","last_reported":1738609622,"current_range_meters":18800,"station_id":"ce4bgpp2rcd13ifvqc3g","pricing_plan_id":"cebpf4jnsgd1na2vs0mg"},{"bike_id":"c3bc8cdb-5438-4db8-9e55-d4765b47f137","system_id":"levelo_inurba_marseille","lat":43.2956,"lon":5.39974,"is_reserved":false,"is_disabled":false,"rental_uris":{"android":"levelo://app?vid=c3bc8cdb-5438-4db8-9e55-d4765b47f137","ios":"levelo://app?vid=c3bc8cdb-5438-4db8-9e55-d4765b47f137"},"vehicle_type_id":"4","last_reported":1738609622,"current_range_meters":20000,"station_id":"ce4bh312rcd13ifvqdj0","pricing_plan_id":"cebpf4jnsgd1na2vs0mg"},{"bike_id":"7bbd1ca9-5cb4-4750-a3f0-60560373cbff","system_id":"levelo_inurba_marseille","lat":43.25507,"lon":5.37651,"is_reserved":false,"is_disabled":false,"rental_uris":{"android":"levelo://app?vid=7bbd1ca9-5cb4-4750-a3f0-60560373cbff","ios":"levelo://app?vid=7bbd1ca9-5cb4-4750-a3f0-60560373cbff"},"vehicle_type_id":"4","last_reported":1738609622,"current_range_meters":38800,"station_id":"ce4bhh12rcd13ifvqff0","pricing_plan_id":"cebpf4jnsgd1na2vs0mg"},{"bike_id":"90c58d2a-c970-4b22-aade-f4adad3f7a08","system_id":"levelo_inurba_marseille","lat":43.28154,"lon":5.42639,"is_reserved":false,"is_disabled":false,"rental_uris":{"android":"levelo://app?vid=90c58d2a-c970-4b22-aade-f4adad3f7a08","ios":"levelo://app?vid=90c58d2a-c970-4b22-aade-f4adad3f7a08"},"vehicle_type_id":"4","last_reported":1738609622,"current_range_meters":13600,"station_id":"ce4bhnh2rcd13ifvqgug","pricing_plan_id":"cebpf4jnsgd1na2vs0mg"},{"bike_id":"506a5841-1d0a-4e9a-bf75-c549116e09f0","system_id":"levelo_inurba_marseille","lat":43.27792,"lon":5.40755,"is_reserved":false,"is_disabled":false,"rental_uris":{"android":"levelo://app?vid=506a5841-1d0a-4e9a-bf75-c549116e09f0","ios":"levelo://app?vid=506a5841-1d0a-4e9a-bf75-c549116e09f0"},"vehicle_type_id":"4","last_reported":1738609622,"current_range_meters":32800,"station_id":"ce4bhnh2rcd13ifvqgtg","pricing_plan_id":"cebpf4jnsgd1na2vs0mg"},{"bike_id":"0894c882-e08b-4078-a8e2-e0c60773828f","system_id":"levelo_inurba_marseille","lat":43.28931,"lon":5.38379,"is_reserved":false,"is_disabled":false,"rental_uris":{"android":"levelo://app?vid=0894c882-e08b-4078-a8e2-e0c60773828f","ios":"levelo://app?vid=0894c882-e08b-4078-a8e2-e0c60773828f"},"vehicle_type_id":"4","last_reported":1738609622,"current_range_meters":19600,"station_id":"ce4bh612rcd13ifvqe6g","pricing_plan_id":"cebpf4jnsgd1na2vs0mg"},{"bike_id":"dd46f1bc-9af9-4edc-9f8c-bb448f9fbea2","system_id":"levelo_inurba_marseille","lat":43.26569,"lon":5.39003,"is_reserved":false,"is_disabled":false,"rental_uris":{"android":"levelo://app?vid=dd46f1bc-9af9-4edc-9f8c-bb448f9fbea2","ios":"levelo://app?vid=dd46f1bc-9af9-4edc-9f8c-bb448f9fbea2"},"vehicle_type_id":"4","last_reported":1738609622,"current_range_meters":4000,"station_id":"ce4bhe12rcd13ifvqf30","pricing_plan_id":"cebpf4jnsgd1na2vs0mg"},{"bike_id":"ae50caec-5ecb-4a77-8148-ffb9866043e3","system_id":"levelo_inurba_marseille","lat":43.3234,"lon":5.389,"is_reserved":false,"is_disabled":false,"rental_uris":{"android":"levelo://app?vid=ae50caec-5ecb-4a77-8148-ffb9866043e3","ios":"levelo://app?vid=ae50caec-5ecb-4a77-8148-ffb9866043e3"},"vehicle_type_id":"4","last_reported":1738609622,"current_range_meters":28000,"station_id":"ce4bhqp2rcd13ifvqhog","pricing_plan_id":"cebpf4jnsgd1na2vs0mg"},{"bike_id":"6bb18b6b-35db-4080-8375-2a2e83c6fc4b","system_id":"levelo_inurba_marseille","lat":43.23161,"lon":5.43696,"is_reserved":false,"is_disabled":true,"rental_uris":{"android":"levelo://app?vid=6bb18b6b-35db-4080-8375-2a2e83c6fc4b","ios":"levelo://app?vid=6bb18b6b-35db-4080-8375-2a2e83c6fc4b"},"vehicle_type_id":"4","last_reported":1738609622,"current_range_meters":38800,"station_id":"ce4bhmp2rcd13ifvqgog","pricing_plan_id":"cebpf4jnsgd1na2vs0mg"},{"bike_id":"9941cd6a-34cf-406a-8e90-7a8373d985f3","system_id":"levelo_inurba_marseille","lat":43.25581,"lon":5.38252,"is_reserved":false,"is_disabled":false,"rental_uris":{"android":"levelo://app?vid=9941cd6a-34cf-406a-8e90-7a8373d985f3","ios":"levelo://app?vid=9941cd6a-34cf-406a-8e90-7a8373d985f3"},"vehicle_type_id":"4","last_reported":1738609622,"current_range_meters":29600,"station_id":"ce4bhih2rcd13ifvqfs0","pricing_plan_id":"cebpf4jnsgd1na2vs0mg"},{"bike_id":"d0a22736-09d6-46db-a1a2-d82c990ae0d9","system_id":"levelo_inurba_marseille","lat":43.30316,"lon":5.40434,"is_reserved":false,"is_disabled":false,"rental_uris":{"android":"levelo://app?vid=d0a22736-09d6-46db-a1a2-d82c990ae0d9","ios":"levelo://app?vid=d0a22736-09d6-46db-a1a2-d82c990ae0d9"},"vehicle_type_id":"4","last_reported":1738609622,"current_range_meters":38400,"station_id":"ce4bh012rcd13ifvqd10","pricing_plan_id":"cebpf4jnsgd1na2vs0mg"},{"bike_id":"787b7837-f258-4886-bbf5-841ee39c0166","system_id":"levelo_inurba_marseille","lat":43.28286,"lon":5.35094,"is_reserved":false,"is_disabled":true,"rental_uris":{"android":"levelo://app?vid=787b7837-f258-4886-bbf5-841ee39c0166","ios":"levelo://app?vid=787b7837-f258-4886-bbf5-841ee39c0166"},"vehicle_type_id":"4","last_reported":1738609622,"current_range_meters":38800,"station_id":"ce4bhbp2rcd13ifvqerg","pricing_plan_id":"cebpf4jnsgd1na2vs0mg"},{"bike_id":"35e9be92-813b-4a24-804a-34341a2b466d","system_id":"levelo_inurba_marseille","lat":43.26488,"lon":5.39546,"is_reserved":false,"is_disabled":false,"rental_uris":{"android":"levelo://app?vid=35e9be92-813b-4a24-804a-34341a2b466d","ios":"levelo://app?vid=35e9be92-813b-4a24-804a-34341a2b466d"},"vehicle_type_id":"4","last_reported":1738609622,"current_range_meters":11200,"station_id":"ce4bhi12rcd13ifvqfq0","pricing_plan_id":"cebpf4jnsgd1na2vs0mg"},{"bike_id":"a900de3e-9b85-4eee-8886-aef2be1bd40e","system_id":"levelo_inurba_marseille","lat":43.31341,"lon":5.39709,"is_reserved":false,"is_disabled":false,"rental_uris":{"android":"levelo://app?vid=a900de3e-9b85-4eee-8886-aef2be1bd40e","ios":"levelo://app?vid=a900de3e-9b85-4eee-8886-aef2be1bd40e"},"vehicle_type_id":"4","last_reported":1738609622,"current_range_meters":38800,"station_id":"ce4bgvp2rcd13ifvqcu0","pricing_plan_id":"cebpf4jnsgd1na2vs0mg"},{"bike_id":"0528f9ab-be73-41ad-8b7e-16602f461a4e","system_id":"levelo_inurba_marseille","lat":43.28705,"lon":5.37389,"is_reserved":false,"is_disabled":false,"rental_uris":{"android":"levelo://app?vid=0528f9ab-be73-41ad-8b7e-16602f461a4e","ios":"levelo://app?vid=0528f9ab-be73-41ad-8b7e-16602f461a4e"},"vehicle_type_id":"4","last_reported":1738609622,"current_range_meters":37600,"station_id":"ce4bh3p2rcd13ifvqdq0","pricing_plan_id":"cebpf4jnsgd1na2vs0mg"},{"bike_id":"7d17c2ea-93c1-4b27-b7bc-57ccea4f34fb","system_id":"levelo_inurba_marseille","lat":43.31287,"lon":5.40158,"is_reserved":false,"is_disabled":false,"rental_uris":{"android":"levelo://app?vid=7d17c2ea-93c1-4b27-b7bc-57ccea4f34fb","ios":"levelo://app?vid=7d17c2ea-93c1-4b27-b7bc-57ccea4f34fb"},"vehicle_type_id":"4","last_reported":1738609622,"current_range_meters":38800,"station_id":"ce4bh092rcd13ifvqd30","pricing_plan_id":"cebpf4jnsgd1na2vs0mg"},{"bike_id":"eac8e106-76e0-4f1b-81af-4eaefecd2501","system_id":"levelo_inurba_marseille","lat":43.25,"lon":5.38932,"is_reserved":false,"is_disabled":false,"rental_uris":{"android":"levelo://app?vid=eac8e106-76e0-4f1b-81af-4eaefecd2501","ios":"levelo://app?vid=eac8e106-76e0-4f1b-81af-4eaefecd2501"},"vehicle_type_id":"4","last_reported":1738609622,"current_range_meters":19200,"station_id":"ce4bhgp2rcd13ifvqfd0","pricing_plan_id":"cebpf4jnsgd1na2vs0mg"},{"bike_id":"ec1ec617-9d93-4d66-a5d8-531cf4c0e604","system_id":"levelo_inurba_marseille","lat":43.2587,"lon":5.39889,"is_reserved":false,"is_disabled":false,"rental_uris":{"android":"levelo://app?vid=ec1ec617-9d93-4d66-a5d8-531cf4c0e604","ios":"levelo://app?vid=ec1ec617-9d93-4d66-a5d8-531cf4c0e604"},"vehicle_type_id":"4","last_reported":1738609622,"current_range_meters":7200,"station_id":"ce4bhl92rcd13ifvqghg","pricing_plan_id":"cebpf4jnsgd1na2vs0mg"},{"bike_id":"8654b126-eecc-48d2-96fd-5d032bef9699","system_id":"levelo_inurba_marseille","lat":43.29954,"lon":5.36513,"is_reserved":false,"is_disabled":false,"rental_uris":{"android":"levelo://app?vid=8654b126-eecc-48d2-96fd-5d032bef9699","ios":"levelo://app?vid=8654b126-eecc-48d2-96fd-5d032bef9699"},"vehicle_type_id":"4","last_reported":1738609622,"current_range_meters":30400,"station_id":"ce4bgm92rcd13ifvqbr0","pricing_plan_id":"cebpf4jnsgd1na2vs0mg"},{"bike_id":"fe17d549-c68a-4c68-8652-263788d853da","system_id":"levelo_inurba_marseille","lat":43.27819,"lon":5.40735,"is_reserved":false,"is_disabled":false,"rental_uris":{"android":"levelo://app?vid=fe17d549-c68a-4c68-8652-263788d853da","ios":"levelo://app?vid=fe17d549-c68a-4c68-8652-263788d853da"},"vehicle_type_id":"4","last_reported":1738609622,"current_range_meters":7200,"station_id":"ce4bhnh2rcd13ifvqgtg","pricing_plan_id":"cebpf4jnsgd1na2vs0mg"},{"bike_id":"43baf599-3326-49ae-98c3-8c0ce9f0bfb4","system_id":"levelo_inurba_marseille","lat":43.292749,"lon":5.368387,"is_reserved":false,"is_disabled":false,"rental_uris":{"android":"levelo://app?vid=43baf599-3326-49ae-98c3-8c0ce9f0bfb4","ios":"levelo://app?vid=43baf599-3326-49ae-98c3-8c0ce9f0bfb4"},"vehicle_type_id":"4","last_reported":1738609622,"current_range_meters":38800,"station_id":"ce4bhbp2rcd13ifvqesg","pricing_plan_id":"cebpf4jnsgd1na2vs0mg"},{"bike_id":"13b6f55e-9871-4418-9dd8-a8d514106ce3","system_id":"levelo_inurba_marseille","lat":43.28924,"lon":5.36628,"is_reserved":false,"is_disabled":false,"rental_uris":{"android":"levelo://app?vid=13b6f55e-9871-4418-9dd8-a8d514106ce3","ios":"levelo://app?vid=13b6f55e-9871-4418-9dd8-a8d514106ce3"},"vehicle_type_id":"4","last_reported":1738609622,"current_range_meters":10000,"station_id":"ce4bhap2rcd13ifvqek0","pricing_plan_id":"cebpf4jnsgd1na2vs0mg"},{"bike_id":"eb9c859e-ef39-446e-afa7-9063d5540a2c","system_id":"levelo_inurba_marseille","lat":43.32932,"lon":5.36674,"is_reserved":false,"is_disabled":false,"rental_uris":{"android":"levelo://app?vid=eb9c859e-ef39-446e-afa7-9063d5540a2c","ios":"levelo://app?vid=eb9c859e-ef39-446e-afa7-9063d5540a2c"},"vehicle_type_id":"4","last_reported":1738609622,"current_range_meters":32000,"station_id":"","pricing_plan_id":"cebpf4jnsgd1na2vs0mg"},{"bike_id":"9c42114e-ea61-4c3d-98b3-5089f1e0e4ce","system_id":"levelo_inurba_marseille","lat":43.29273,"lon":5.40887,"is_reserved":false,"is_disabled":false,"rental_uris":{"android":"levelo://app?vid=9c42114e-ea61-4c3d-98b3-5089f1e0e4ce","ios":"levelo://app?vid=9c42114e-ea61-4c3d-98b3-5089f1e0e4ce"},"vehicle_type_id":"4","last_reported":1738609622,"current_range_meters":38800,"station_id":"ce4bh192rcd13ifvqdc0","pricing_plan_id":"cebpf4jnsgd1na2vs0mg"},{"bike_id":"b69d0c13-1b50-4c4d-a3a2-1d795cf04ef1","system_id":"levelo_inurba_marseille","lat":43.30142,"lon":5.38803,"is_reserved":false,"is_disabled":true,"rental_uris":{"android":"levelo://app?vid=b69d0c13-1b50-4c4d-a3a2-1d795cf04ef1","ios":"levelo://app?vid=b69d0c13-1b50-4c4d-a3a2-1d795cf04ef1"},"vehicle_type_id":"4","last_reported":1738609622,"current_range_meters":30800,"station_id":"ce4bghh2rcd13ifvqb60","pricing_plan_id":"cebpf4jnsgd1na2vs0mg"},{"bike_id":"5556fc6e-2780-4a93-b456-cd5befd2783d","system_id":"levelo_inurba_marseille","lat":43.28478,"lon":5.35858,"is_reserved":false,"is_disabled":true,"rental_uris":{"android":"levelo://app?vid=5556fc6e-2780-4a93-b456-cd5befd2783d","ios":"levelo://app?vid=5556fc6e-2780-4a93-b456-cd5befd2783d"},"vehicle_type_id":"4","last_reported":1738609622,"current_range_meters":800,"station_id":"ce4bhah2rcd13ifvqei0","pricing_plan_id":"cebpf4jnsgd1na2vs0mg"},{"bike_id":"bd8fce10-db60-4637-88ad-07a5a938f039","system_id":"levelo_inurba_marseille","lat":43.28613,"lon":5.37065,"is_reserved":false,"is_disabled":true,"rental_uris":{"android":"levelo://app?vid=bd8fce10-db60-4637-88ad-07a5a938f039","ios":"levelo://app?vid=bd8fce10-db60-4637-88ad-07a5a938f039"},"vehicle_type_id":"4","last_reported":1738609622,"current_range_meters":38000,"station_id":"ce4bht12rcd13ifvqi60","pricing_plan_id":"cebpf4jnsgd1na2vs0mg"},{"bike_id":"aca7f856-95b0-4e97-8a0a-cf9d567272bd","system_id":"levelo_inurba_marseille","lat":43.2306,"lon":5.35494,"is_reserved":false,"is_disabled":false,"rental_uris":{"android":"levelo://app?vid=aca7f856-95b0-4e97-8a0a-cf9d567272bd","ios":"levelo://app?vid=aca7f856-95b0-4e97-8a0a-cf9d567272bd"},"vehicle_type_id":"4","last_reported":1738609622,"current_range_meters":36400,"station_id":"cpo3342slgdg3j2ifvpg","pricing_plan_id":"cebpf4jnsgd1na2vs0mg"},{"bike_id":"d5fdd631-4613-47d3-957c-71490edf7eff","system_id":"levelo_inurba_marseille","lat":43.29581,"lon":5.36747,"is_reserved":false,"is_disabled":false,"rental_uris":{"android":"levelo://app?vid=d5fdd631-4613-47d3-957c-71490edf7eff","ios":"levelo://app?vid=d5fdd631-4613-47d3-957c-71490edf7eff"},"vehicle_type_id":"4","last_reported":1738609622,"current_range_meters":39200,"station_id":"ce4bgph2rcd13ifvqc2g","pricing_plan_id":"cebpf4jnsgd1na2vs0mg"},{"bike_id":"9d9e6714-036c-4151-8a5d-515ad00cd54b","system_id":"levelo_inurba_marseille","lat":43.231961,"lon":5.355496,"is_reserved":false,"is_disabled":false,"rental_uris":{"android":"levelo://app?vid=9d9e6714-036c-4151-8a5d-515ad00cd54b","ios":"levelo://app?vid=9d9e6714-036c-4151-8a5d-515ad00cd54b"},"vehicle_type_id":"4","last_reported":1738609622,"current_range_meters":20800,"station_id":"ce4bhu92rcd13ifvqi70","pricing_plan_id":"cebpf4jnsgd1na2vs0mg"},{"bike_id":"14e2fc21-d39b-4ddb-a460-c25aa10e3737","system_id":"levelo_inurba_marseille","lat":43.2848,"lon":5.38423,"is_reserved":false,"is_disabled":false,"rental_uris":{"android":"levelo://app?vid=14e2fc21-d39b-4ddb-a460-c25aa10e3737","ios":"levelo://app?vid=14e2fc21-d39b-4ddb-a460-c25aa10e3737"},"vehicle_type_id":"4","last_reported":1738609622,"current_range_meters":14800,"station_id":"ce4bh512rcd13ifvqe3g","pricing_plan_id":"cebpf4jnsgd1na2vs0mg"},{"bike_id":"6f47217d-29d2-49bc-b01f-b8375fd47483","system_id":"levelo_inurba_marseille","lat":43.32367,"lon":5.38878,"is_reserved":false,"is_disabled":false,"rental_uris":{"android":"levelo://app?vid=6f47217d-29d2-49bc-b01f-b8375fd47483","ios":"levelo://app?vid=6f47217d-29d2-49bc-b01f-b8375fd47483"},"vehicle_type_id":"4","last_reported":1738609622,"current_range_meters":12000,"station_id":"ce4bhqp2rcd13ifvqhog","pricing_plan_id":"cebpf4jnsgd1na2vs0mg"},{"bike_id":"40bdcfb2-751b-4558-b6d4-3ac74ace0aab","system_id":"levelo_inurba_marseille","lat":43.32098,"lon":5.36774,"is_reserved":false,"is_disabled":false,"rental_uris":{"android":"levelo://app?vid=40bdcfb2-751b-4558-b6d4-3ac74ace0aab","ios":"levelo://app?vid=40bdcfb2-751b-4558-b6d4-3ac74ace0aab"},"vehicle_type_id":"4","last_reported":1738609622,"current_range_meters":36800,"station_id":"ce4bhrh2rcd13ifvqhug","pricing_plan_id":"cebpf4jnsgd1na2vs0mg"},{"bike_id":"b39173c5-b93d-42e7-aa9f-ef1b710f7b45","system_id":"levelo_inurba_marseille","lat":43.30139,"lon":5.39885,"is_reserved":false,"is_disabled":true,"rental_uris":{"android":"levelo://app?vid=b39173c5-b93d-42e7-aa9f-ef1b710f7b45","ios":"levelo://app?vid=b39173c5-b93d-42e7-aa9f-ef1b710f7b45"},"vehicle_type_id":"4","last_reported":1738609622,"current_range_meters":38800,"station_id":"ce4bh0h2rcd13ifvqd40","pricing_plan_id":"cebpf4jnsgd1na2vs0mg"},{"bike_id":"d1f73a6e-4a72-4ba1-ace0-3d4a39f9f484","system_id":"levelo_inurba_marseille","lat":43.30363,"lon":5.41897,"is_reserved":false,"is_disabled":true,"rental_uris":{"android":"levelo://app?vid=d1f73a6e-4a72-4ba1-ace0-3d4a39f9f484","ios":"levelo://app?vid=d1f73a6e-4a72-4ba1-ace0-3d4a39f9f484"},"vehicle_type_id":"4","last_reported":1738609622,"current_range_meters":36800,"station_id":"ce4bhop2rcd13ifvqh7g","pricing_plan_id":"cebpf4jnsgd1na2vs0mg"},{"bike_id":"86bd7825-7c57-4161-8bf0-a0b61958c09c","system_id":"levelo_inurba_marseille","lat":43.29592,"lon":5.38098,"is_reserved":false,"is_disabled":false,"rental_uris":{"android":"levelo://app?vid=86bd7825-7c57-4161-8bf0-a0b61958c09c","ios":"levelo://app?vid=86bd7825-7c57-4161-8bf0-a0b61958c09c"},"vehicle_type_id":"4","last_reported":1738609622,"current_range_meters":38000,"station_id":"ce4bgl12rcd13ifvqbo0","pricing_plan_id":"cebpf4jnsgd1na2vs0mg"},{"bike_id":"f1e9d5a0-ac32-431c-8224-0d167a7dd49f","system_id":"levelo_inurba_marseille","lat":43.30602,"lon":5.37229,"is_reserved":false,"is_disabled":false,"rental_uris":{"android":"levelo://app?vid=f1e9d5a0-ac32-431c-8224-0d167a7dd49f","ios":"levelo://app?vid=f1e9d5a0-ac32-431c-8224-0d167a7dd49f"},"vehicle_type_id":"4","last_reported":1738609622,"current_range_meters":36400,"station_id":"ce4bgqh2rcd13ifvqc4g","pricing_plan_id":"cebpf4jnsgd1na2vs0mg"},{"bike_id":"b91ffbc4-acdc-4860-898c-1b8a478577d5","system_id":"levelo_inurba_marseille","lat":43.29029,"lon":5.35911,"is_reserved":false,"is_disabled":false,"rental_uris":{"android":"levelo://app?vid=b91ffbc4-acdc-4860-898c-1b8a478577d5","ios":"levelo://app?vid=b91ffbc4-acdc-4860-898c-1b8a478577d5"},"vehicle_type_id":"4","last_reported":1738609622,"current_range_meters":5600,"station_id":"ce4bha92rcd13ifvqeg0","pricing_plan_id":"cebpf4jnsgd1na2vs0mg"},{"bike_id":"4f0d7afb-7919-4d92-a699-5b52ab930452","system_id":"levelo_inurba_marseille","lat":43.25835,"lon":5.39433,"is_reserved":false,"is_disabled":false,"rental_uris":{"android":"levelo://app?vid=4f0d7afb-7919-4d92-a699-5b52ab930452","ios":"levelo://app?vid=4f0d7afb-7919-4d92-a699-5b52ab930452"},"vehicle_type_id":"4","last_reported":1738609622,"current_range_meters":38800,"station_id":"ce4bhip2rcd13ifvqft0","pricing_plan_id":"cebpf4jnsgd1na2vs0mg"},{"bike_id":"1f7e6434-a3ad-4e03-907e-63af1050cf22","system_id":"levelo_inurba_marseille","lat":43.2841,"lon":5.37512,"is_reserved":false,"is_disabled":false,"rental_uris":{"android":"levelo://app?vid=1f7e6434-a3ad-4e03-907e-63af1050cf22","ios":"levelo://app?vid=1f7e6434-a3ad-4e03-907e-63af1050cf22"},"vehicle_type_id":"4","last_reported":1738609622,"current_range_meters":18000,"station_id":"ce4bh412rcd13ifvqds0","pricing_plan_id":"cebpf4jnsgd1na2vs0mg"},{"bike_id":"7b39ed00-86df-4303-bda1-bfc0fee1e7e2","system_id":"levelo_inurba_marseille","lat":43.32454,"lon":5.45532,"is_reserved":false,"is_disabled":false,"rental_uris":{"android":"levelo://app?vid=7b39ed00-86df-4303-bda1-bfc0fee1e7e2","ios":"levelo://app?vid=7b39ed00-86df-4303-bda1-bfc0fee1e7e2"},"vehicle_type_id":"4","last_reported":1738609622,"current_range_meters":27600,"station_id":"","pricing_plan_id":"cebpf4jnsgd1na2vs0mg"},{"bike_id":"a8fc6d4c-d423-4dea-9b9c-3a02b85df355","system_id":"levelo_inurba_marseille","lat":43.26917,"lon":5.3892,"is_reserved":false,"is_disabled":true,"rental_uris":{"android":"levelo://app?vid=a8fc6d4c-d423-4dea-9b9c-3a02b85df355","ios":"levelo://app?vid=a8fc6d4c-d423-4dea-9b9c-3a02b85df355"},"vehicle_type_id":"4","last_reported":1738609622,"current_range_meters":0,"station_id":"ce4bhhh2rcd13ifvqfl0","pricing_plan_id":"cebpf4jnsgd1na2vs0mg"},{"bike_id":"27965b13-db93-44ae-be4a-77a8d97c3b7e","system_id":"levelo_inurba_marseille","lat":43.26982,"lon":5.40293,"is_reserved":false,"is_disabled":false,"rental_uris":{"android":"levelo://app?vid=27965b13-db93-44ae-be4a-77a8d97c3b7e","ios":"levelo://app?vid=27965b13-db93-44ae-be4a-77a8d97c3b7e"},"vehicle_type_id":"4","last_reported":1738609622,"current_range_meters":38800,"station_id":"cjm6bp8fraef2m0cb0m0","pricing_plan_id":"cebpf4jnsgd1na2vs0mg"},{"bike_id":"edefd2d1-b181-4061-9146-8ae7f27496b1","system_id":"levelo_inurba_marseille","lat":43.29035,"lon":5.3592,"is_reserved":false,"is_disabled":false,"rental_uris":{"android":"levelo://app?vid=edefd2d1-b181-4061-9146-8ae7f27496b1","ios":"levelo://app?vid=edefd2d1-b181-4061-9146-8ae7f27496b1"},"vehicle_type_id":"4","last_reported":1738609622,"current_range_meters":34800,"station_id":"ce4bha92rcd13ifvqeg0","pricing_plan_id":"cebpf4jnsgd1na2vs0mg"},{"bike_id":"d215c4a2-3af2-4e5d-8704-66bbf4080aad","system_id":"levelo_inurba_marseille","lat":43.25502,"lon":5.37646,"is_reserved":false,"is_disabled":false,"rental_uris":{"android":"levelo://app?vid=d215c4a2-3af2-4e5d-8704-66bbf4080aad","ios":"levelo://app?vid=d215c4a2-3af2-4e5d-8704-66bbf4080aad"},"vehicle_type_id":"4","last_reported":1738609622,"current_range_meters":39200,"station_id":"ce4bhh12rcd13ifvqff0","pricing_plan_id":"cebpf4jnsgd1na2vs0mg"},{"bike_id":"5ce1b67d-353c-42da-adb1-630c9c701dec","system_id":"levelo_inurba_marseille","lat":43.2559,"lon":5.38203,"is_reserved":false,"is_disabled":false,"rental_uris":{"android":"levelo://app?vid=5ce1b67d-353c-42da-adb1-630c9c701dec","ios":"levelo://app?vid=5ce1b67d-353c-42da-adb1-630c9c701dec"},"vehicle_type_id":"4","last_reported":1738609622,"current_range_meters":7200,"station_id":"ce4bhih2rcd13ifvqfs0","pricing_plan_id":"cebpf4jnsgd1na2vs0mg"},