{"last_updated":1776797801,"ttl":60,"version":"2.2","data":{"bikes":[{"bike_id":"1237ab2b-a5c3-4f0d-a449-5bcb9fab4335","system_id":"levelo_inurba_marseille","lat":43.26937,"lon":5.38917,"is_reserved":false,"is_disabled":false,"rental_uris":{"android":"levelo://app?vid=1237ab2b-a5c3-4f0d-a449-5bcb9fab4335","ios":"levelo://app?vid=1237ab2b-a5c3-4f0d-a449-5bcb9fab4335"},"vehicle_type_id":"4","last_reported":1776797802,"current_range_meters":2800,"station_id":"ce4bhhh2rcd13ifvqfl0","pricing_plan_id":"cebpf4jnsgd1na2vs0mg"},{"bike_id":"48713af2-72c3-4ac6-97df-5f2e919c9f23","system_id":"levelo_inurba_marseille","lat":43.29051,"lon":5.4271,"is_reserved":false,"is_disabled":false,"rental_uris":{"android":"levelo://app?vid=48713af2-72c3-4ac6-97df-5f2e919c9f23","ios":"levelo://app?vid=48713af2-72c3-4ac6-97df-5f2e919c9f23"},"vehicle_type_id":"4","last_reported":1776797802,"current_range_meters":2800,"station_id":"","pricing_plan_id":"cebpf4jnsgd1na2vs0mg"},{"bike_id":"ae327807-d8ff-45af-b8c4-c90d3303c082","system_id":"levelo_inurba_marseille","lat":43.2847,"lon":5.48381,"is_reserved":false,"is_disabled":false,"rental_uris":{"android":"levelo://app?vid=ae327807-d8ff-45af-b8c4-c90d3303c082","ios":"levelo://app?vid=ae327807-d8ff-45af-b8c4-c90d3303c082"},"vehicle_type_id":"4","last_reported":1776797802,"current_range_meters":2800,"station_id":"","pricing_plan_id":"cebpf4jnsgd1na2vs0mg"},{"bike_id":"372fb1c1-e570-467d-b605-01b7507acee8","system_id":"levelo_inurba_marseille","lat":43.26957,"lon":5.38902,"is_reserved":false,"is_disabled":false,"rental_uris":{"android":"levelo://app?vid=372fb1c1-e570-467d-b605-01b7507acee8","ios":"levelo://app?vid=372fb1c1-e570-467d-b605-01b7507acee8"},"vehicle_type_id":"4","last_reported":1776797802,"current_range_meters":2800,"station_id":"ce4bhhh2rcd13ifvqfl0","pricing_plan_id":"cebpf4jnsgd1na2vs0mg"},{"bike_id":"a889fb47-aeb5-4d7e-9b67-e6388156f5bb","system_id":"levelo_inurba_marseille","lat":43.32039,"lon":5.4156,"is_reserved":false,"is_disabled":false,"rental_uris":{"android":"levelo://app?vid=a889fb47-aeb5-4d7e-9b67-e6388156f5bb","ios":"levelo://app?vid=a889fb47-aeb5-4d7e-9b67-e6388156f5bb"},"vehicle_type_id":"4","last_reported":1776797802,"current_range_meters":2800,"station_id":"ce4bhq92rcd13ifvqhkg","pricing_plan_id":"cebpf4jnsgd1na2vs0mg"},{"bike_id":"a2f16209-a68b-401b-91f8-28a5abbac2b6","system_id":"levelo_inurba_marseille","lat":43.29426,"lon":5.37384,"is_reserved":false,"is_disabled":false,"rental_uris":{"android":"levelo://app?vid=a2f16209-a68b-401b-91f8-28a5abbac2b6","ios":"levelo://app?vid=a2f16209-a68b-401b-91f8-28a5abbac2b6"},"vehicle_type_id":"4","last_reported":1776797802,"current_range_meters":2800,"station_id":"","pricing_plan_id":"cebpf4jnsgd1na2vs0mg"},{"bike_id":"c9cf7bd0-635c-4297-8c37-24559d945282","system_id":"levelo_inurba_marseille","lat":43.27623,"lon":5.36098,"is_reserved":false,"is_disabled":false,"rental_uris":{"android":"levelo://app?vid=c9cf7bd0-635c-4297-8c37-24559d945282","ios":"levelo://app?vid=c9cf7bd0-635c-4297-8c37-24559d945282"},"vehicle_type_id":"4","last_reported":1776797802,"current_range_meters":2800,"station_id":"ce4bgj92rcd13ifvqbe0","pricing_plan_id":"cebpf4jnsgd1na2vs0mg"},{"bike_id":"80ebcc2f-0aca-4101-bd24-8004dcefdae4","system_id":"levelo_inurba_marseille","lat":43.29536,"lon":5.39025,"is_reserved":false,"is_disabled":false,"rental_uris":{"android":"levelo://app?vid=80ebcc2f-0aca-4101-bd24-8004dcefdae4","ios":"levelo://app?vid=80ebcc2f-0aca-4101-bd24-8004dcefdae4"},"vehicle_type_id":"4","last_reported":1776797802,"current_range_meters":2800,"station_id":"ce4bh3p2rcd13ifvqdp0","pricing_plan_id":"cebpf4jnsgd1na2vs0mg"},{"bike_id":"5304327f-d536-4f4f-9472-0475fcb17d9f","system_id":"levelo_inurba_marseille","lat":43.2853,"lon":5.44094,"is_reserved":false,"is_disabled":false,"rental_uris":{"android":"levelo://app?vid=5304327f-d536-4f4f-9472-0475fcb17d9f","ios":"levelo://app?vid=5304327f-d536-4f4f-9472-0475fcb17d9f"},"vehicle_type_id":"4","last_reported":1776797802,"current_range_meters":2800,"station_id":"st_d3j3df2ikq2c7380ej80","pricing_plan_id":"cebpf4jnsgd1na2vs0mg"},{"bike_id":"2b1ab602-0a38-4f44-b314-1a6df8dee1a5","system_id":"levelo_inurba_marseille","lat":43.30092,"lon":5.39074,"is_reserved":false,"is_disabled":false,"rental_uris":{"android":"levelo://app?vid=2b1ab602-0a38-4f44-b314-1a6df8dee1a5","ios":"levelo://app?vid=2b1ab602-0a38-4f44-b314-1a6df8dee1a5"},"vehicle_type_id":"4","last_reported":1776797802,"current_range_meters":2800,"station_id":"ce4bh192rcd13ifvqdb0","pricing_plan_id":"cebpf4jnsgd1na2vs0mg"},{"bike_id":"82e4a329-5952-4081-9814-b1ad72240a02","system_id":"levelo_inurba_marseille","lat":43.26069,"lon":5.39922,"is_reserved":false,"is_disabled":false,"rental_uris":{"android":"levelo://app?vid=82e4a329-5952-4081-9814-b1ad72240a02","ios":"levelo://app?vid=82e4a329-5952-4081-9814-b1ad72240a02"},"vehicle_type_id":"4","last_reported":1776797802,"current_range_meters":2800,"station_id":"","pricing_plan_id":"cebpf4jnsgd1na2vs0mg"},{"bike_id":"2f200850-43b1-4f59-8bd5-10dea7eed83a","system_id":"levelo_inurba_marseille","lat":43.28232,"lon":5.39068,"is_reserved":false,"is_disabled":false,"rental_uris":{"android":"levelo://app?vid=2f200850-43b1-4f59-8bd5-10dea7eed83a","ios":"levelo://app?vid=2f200850-43b1-4f59-8bd5-10dea7eed83a"},"vehicle_type_id":"4","last_reported":1776797802,"current_range_meters":2800,"station_id":"ce4bhn92rcd13ifvqgsg","pricing_plan_id":"cebpf4jnsgd1na2vs0mg"},{"bike_id":"9fe1f1cb-3784-43b4-9995-d8dd16037f2f","system_id":"levelo_inurba_marseille","lat":43.30202,"lon":5.39478,"is_reserved":false,"is_disabled":false,"rental_uris":{"android":"levelo://app?vid=9fe1f1cb-3784-43b4-9995-d8dd16037f2f","ios":"levelo://app?vid=9fe1f1cb-3784-43b4-9995-d8dd16037f2f"},"vehicle_type_id":"4","last_reported":1776797802,"current_range_meters":3200,"station_id":"ce4bh0p2rcd13ifvqd70","pricing_plan_id":"cebpf4jnsgd1na2vs0mg"},{"bike_id":"c78e2a02-4f7b-488a-bedd-fc885867bfaf","system_id":"levelo_inurba_marseille","lat":43.27615,"lon":5.36111,"is_reserved":false,"is_disabled":false,"rental_uris":{"android":"levelo://app?vid=c78e2a02-4f7b-488a-bedd-fc885867bfaf","ios":"levelo://app?vid=c78e2a02-4f7b-488a-bedd-fc885867bfaf"},"vehicle_type_id":"4","last_reported":1776797802,"current_range_meters":3200,"station_id":"ce4bgj92rcd13ifvqbe0","pricing_plan_id":"cebpf4jnsgd1na2vs0mg"},{"bike_id":"30d87ff1-3522-4098-a0b4-a7d36c1bced3","system_id":"levelo_inurba_marseille","lat":43.2762,"lon":5.36109,"is_reserved":false,"is_disabled":false,"rental_uris":{"android":"levelo://app?vid=30d87ff1-3522-4098-a0b4-a7d36c1bced3","ios":"levelo://app?vid=30d87ff1-3522-4098-a0b4-a7d36c1bced3"},"vehicle_type_id":"4","last_reported":1776797802,"current_range_meters":3200,"station_id":"ce4bgj92rcd13ifvqbe0","pricing_plan_id":"cebpf4jnsgd1na2vs0mg"},{"bike_id":"81494501-cf66-4ccf-9591-36a559c84642","system_id":"levelo_inurba_marseille","lat":43.30199,"lon":5.39466,"is_reserved":false,"is_disabled":false,"rental_uris":{"android":"levelo://app?vid=81494501-cf66-4ccf-9591-36a559c84642","ios":"levelo://app?vid=81494501-cf66-4ccf-9591-36a559c84642"},"vehicle_type_id":"4","last_reported":1776797802,"current_range_meters":3200,"station_id":"ce4bh0p2rcd13ifvqd70","pricing_plan_id":"cebpf4jnsgd1na2vs0mg"},{"bike_id":"b2011645-cbc6-44f3-8c33-1aca90ae2d9e","system_id":"levelo_inurba_marseille","lat":43.23209,"lon":5.35135,"is_reserved":false,"is_disabled":false,"rental_uris":{"android":"levelo://app?vid=b2011645-cbc6-44f3-8c33-1aca90ae2d9e","ios":"levelo://app?vid=b2011645-cbc6-44f3-8c33-1aca90ae2d9e"},"vehicle_type_id":"4","last_reported":1776797802,"current_range_meters":3200,"station_id":"","pricing_plan_id":"cebpf4jnsgd1na2vs0mg"},{"bike_id":"f40c5ace-016c-4cc6-bad0-4ce61b5af209","system_id":"levelo_inurba_marseille","lat":43.27821,"lon":5.4074,"is_reserved":false,"is_disabled":false,"rental_uris":{"android":"levelo://app?vid=f40c5ace-016c-4cc6-bad0-4ce61b5af209","ios":"levelo://app?vid=f40c5ace-016c-4cc6-bad0-4ce61b5af209"},"vehicle_type_id":"4","last_reported":1776797802,"current_range_meters":3200,"station_id":"ce4bhnh2rcd13ifvqgtg","pricing_plan_id":"cebpf4jnsgd1na2vs0mg"},{"bike_id":"03e7b086-1915-426e-a94b-5b4f489bb165","system_id":"levelo_inurba_marseille","lat":43.30925,"lon":5.40144,"is_reserved":false,"is_disabled":false,"rental_uris":{"android":"levelo://app?vid=03e7b086-1915-426e-a94b-5b4f489bb165","ios":"levelo://app?vid=03e7b086-1915-426e-a94b-5b4f489bb165"},"vehicle_type_id":"4","last_reported":1776797802,"current_range_meters":3200,"station_id":"ce4bgvp2rcd13ifvqct0","pricing_plan_id":"cebpf4jnsgd1na2vs0mg"},{"bike_id":"f3c07bb4-0997-453e-9611-e4823f4278d9","system_id":"levelo_inurba_marseille","lat":43.289399,"lon":5.366374,"is_reserved":false,"is_disabled":false,"rental_uris":{"android":"levelo://app?vid=f3c07bb4-0997-453e-9611-e4823f4278d9","ios":"levelo://app?vid=f3c07bb4-0997-453e-9611-e4823f4278d9"},"vehicle_type_id":"4","last_reported":1776797802,"current_range_meters":3200,"station_id":"ce4bhap2rcd13ifvqek0","pricing_plan_id":"cebpf4jnsgd1na2vs0mg"},{"bike_id":"a4e0f64d-01c4-4b0d-9de4-db9e20bfbea8","system_id":"levelo_inurba_marseille","lat":43.23194,"lon":5.35563,"is_reserved":false,"is_disabled":false,"rental_uris":{"android":"levelo://app?vid=a4e0f64d-01c4-4b0d-9de4-db9e20bfbea8","ios":"levelo://app?vid=a4e0f64d-01c4-4b0d-9de4-db9e20bfbea8"},"vehicle_type_id":"4","last_reported":1776797802,"current_range_meters":3200,"station_id":"ce4bhu92rcd13ifvqi70","pricing_plan_id":"cebpf4jnsgd1na2vs0mg"},{"bike_id":"1f7a2d29-0ba7-4b8b-9cac-6ff894aac21f","system_id":"levelo_inurba_marseille","lat":43.32873,"lon":5.38962,"is_reserved":false,"is_disabled":false,"rental_uris":{"android":"levelo://app?vid=1f7a2d29-0ba7-4b8b-9cac-6ff894aac21f","ios":"levelo://app?vid=1f7a2d29-0ba7-4b8b-9cac-6ff894aac21f"},"vehicle_type_id":"4","last_reported":1776797802,"current_range_meters":3600,"station_id":"","pricing_plan_id":"cebpf4jnsgd1na2vs0mg"},{"bike_id":"bdc58e6d-a406-4b5d-9a93-1fd40348fcb8","system_id":"levelo_inurba_marseille","lat":43.298,"lon":5.38084,"is_reserved":false,"is_disabled":false,"rental_uris":{"android":"levelo://app?vid=bdc58e6d-a406-4b5d-9a93-1fd40348fcb8","ios":"levelo://app?vid=bdc58e6d-a406-4b5d-9a93-1fd40348fcb8"},"vehicle_type_id":"4","last_reported":1776797802,"current_range_meters":3600,"station_id":"ce4bgip2rcd13ifvqbb0","pricing_plan_id":"cebpf4jnsgd1na2vs0mg"},{"bike_id":"f8d03333-9381-4e1b-8eea-986ea33f897c","system_id":"levelo_inurba_marseille","lat":43.3054,"lon":5.36556,"is_reserved":false,"is_disabled":false,"rental_uris":{"android":"levelo://app?vid=f8d03333-9381-4e1b-8eea-986ea33f897c","ios":"levelo://app?vid=f8d03333-9381-4e1b-8eea-986ea33f897c"},"vehicle_type_id":"4","last_reported":1776797802,"current_range_meters":3600,"station_id":"ce4bgs12rcd13ifvqcag","pricing_plan_id":"cebpf4jnsgd1na2vs0mg"},{"bike_id":"72ce5c7b-f90a-4320-83e6-79770c82c65e","system_id":"levelo_inurba_marseille","lat":43.27407,"lon":5.38424,"is_reserved":false,"is_disabled":false,"rental_uris":{"android":"levelo://app?vid=72ce5c7b-f90a-4320-83e6-79770c82c65e","ios":"levelo://app?vid=72ce5c7b-f90a-4320-83e6-79770c82c65e"},"vehicle_type_id":"4","last_reported":1776797802,"current_range_meters":3600,"station_id":"","pricing_plan_id":"cebpf4jnsgd1na2vs0mg"},{"bike_id":"21b6c207-af00-491c-87ab-988767dd7fbc","system_id":"levelo_inurba_marseille","lat":43.29912,"lon":5.38159,"is_reserved":false,"is_disabled":false,"rental_uris":{"android":"levelo://app?vid=21b6c207-af00-491c-87ab-988767dd7fbc","ios":"levelo://app?vid=21b6c207-af00-491c-87ab-988767dd7fbc"},"vehicle_type_id":"4","last_reported":1776797802,"current_range_meters":3600,"station_id":"ce4bgj12rcd13ifvqbc0","pricing_plan_id":"cebpf4jnsgd1na2vs0mg"},{"bike_id":"ca3d53dd-7243-4f63-b3c1-f60598f269f1","system_id":"levelo_inurba_marseille","lat":43.25087,"lon":5.3952,"is_reserved":false,"is_disabled":false,"rental_uris":{"android":"levelo://app?vid=ca3d53dd-7243-4f63-b3c1-f60598f269f1","ios":"levelo://app?vid=ca3d53dd-7243-4f63-b3c1-f60598f269f1"},"vehicle_type_id":"4","last_reported":1776797802,"current_range_meters":3600,"station_id":"ce4bhm12rcd13ifvqgkg","pricing_plan_id":"cebpf4jnsgd1na2vs0mg"},{"bike_id":"e5492a05-25fd-43f3-9e22-83a184ca839c","system_id":"levelo_inurba_marseille","lat":43.2495,"lon":5.40489,"is_reserved":false,"is_disabled":false,"rental_uris":{"android":"levelo://app?vid=e5492a05-25fd-43f3-9e22-83a184ca839c","ios":"levelo://app?vid=e5492a05-25fd-43f3-9e22-83a184ca839c"},"vehicle_type_id":"4","last_reported":1776797802,"current_range_meters":3600,"station_id":"st_d2ngiaodas8pm72gd1h0","pricing_plan_id":"cebpf4jnsgd1na2vs0mg"},{"bike_id":"22033817-0b57-4aac-b4c2-cb663c9a4002","system_id":"levelo_inurba_marseille","lat":43.31132,"lon":5.38995,"is_reserved":false,"is_disabled":false,"rental_uris":{"android":"levelo://app?vid=22033817-0b57-4aac-b4c2-cb663c9a4002","ios":"levelo://app?vid=22033817-0b57-4aac-b4c2-cb663c9a4002"},"vehicle_type_id":"4","last_reported":1776797802,"current_range_meters":3600,"station_id":"","pricing_plan_id":"cebpf4jnsgd1na2vs0mg"},{"bike_id":"0fdc542d-acd2-4025-8d63-512d2f4432f7","system_id":"levelo_inurba_marseille","lat":43.292316,"lon":5.360695,"is_reserved":false,"is_disabled":false,"rental_uris":{"android":"levelo://app?vid=0fdc542d-acd2-4025-8d63-512d2f4432f7","ios":"levelo://app?vid=0fdc542d-acd2-4025-8d63-512d2f4432f7"},"vehicle_type_id":"4","last_reported":1776797802,"current_range_meters":3600,"station_id":"ce4bh192rcd13ifvqdd0","pricing_plan_id":"cebpf4jnsgd1na2vs0mg"},{"bike_id":"678be1e3-7bf2-4e61-8458-42d5abd6c5bd","system_id":"levelo_inurba_marseille","lat":43.33758,"lon":5.37483,"is_reserved":false,"is_disabled":false,"rental_uris":{"android":"levelo://app?vid=678be1e3-7bf2-4e61-8458-42d5abd6c5bd","ios":"levelo://app?vid=678be1e3-7bf2-4e61-8458-42d5abd6c5bd"},"vehicle_type_id":"4","last_reported":1776797802,"current_range_meters":4000,"station_id":"","pricing_plan_id":"cebpf4jnsgd1na2vs0mg"},{"bike_id":"2ef9b6ee-1669-49db-a422-18f980861580","system_id":"levelo_inurba_marseille","lat":43.28334,"lon":5.38123,"is_reserved":false,"is_disabled":false,"rental_uris":{"android":"levelo://app?vid=2ef9b6ee-1669-49db-a422-18f980861580","ios":"levelo://app?vid=2ef9b6ee-1669-49db-a422-18f980861580"},"vehicle_type_id":"4","last_reported":1776797802,"current_range_meters":4000,"station_id":"ce4bh412rcd13ifvqdr0","pricing_plan_id":"cebpf4jnsgd1na2vs0mg"},{"bike_id":"3d911746-71a0-4e47-b93e-0ea6d9c91f25","system_id":"levelo_inurba_marseille","lat":43.2801,"lon":5.36959,"is_reserved":false,"is_disabled":false,"rental_uris":{"android":"levelo://app?vid=3d911746-71a0-4e47-b93e-0ea6d9c91f25","ios":"levelo://app?vid=3d911746-71a0-4e47-b93e-0ea6d9c91f25"},"vehicle_type_id":"4","last_reported":1776797802,"current_range_meters":4000,"station_id":"ce4bha12rcd13ifvqef0","pricing_plan_id":"cebpf4jnsgd1na2vs0mg"},{"bike_id":"a6fb96ab-d466-4abd-9d6d-58e578569bd4","system_id":"levelo_inurba_marseille","lat":43.29517,"lon":5.38549,"is_reserved":false,"is_disabled":false,"rental_uris":{"android":"levelo://app?vid=a6fb96ab-d466-4abd-9d6d-58e578569bd4","ios":"levelo://app?vid=a6fb96ab-d466-4abd-9d6d-58e578569bd4"},"vehicle_type_id":"4","last_reported":1776797802,"current_range_meters":4000,"station_id":"ce4bgih2rcd13ifvqba0","pricing_plan_id":"cebpf4jnsgd1na2vs0mg"},{"bike_id":"21d03c10-c14d-4b84-ac83-dab76914fcd0","system_id":"levelo_inurba_marseille","lat":43.31169,"lon":5.38695,"is_reserved":false,"is_disabled":false,"rental_uris":{"android":"levelo://app?vid=21d03c10-c14d-4b84-ac83-dab76914fcd0","ios":"levelo://app?vid=21d03c10-c14d-4b84-ac83-dab76914fcd0"},"vehicle_type_id":"4","last_reported":1776797802,"current_range_meters":4000,"station_id":"ce4bgv12rcd13ifvqcp0","pricing_plan_id":"cebpf4jnsgd1na2vs0mg"},{"bike_id":"fc65a632-bd3b-4cc7-8723-5cc6caf0ef89","system_id":"levelo_inurba_marseille","lat":43.2951,"lon":5.394,"is_reserved":false,"is_disabled":false,"rental_uris":{"android":"levelo://app?vid=fc65a632-bd3b-4cc7-8723-5cc6caf0ef89","ios":"levelo://app?vid=fc65a632-bd3b-4cc7-8723-5cc6caf0ef89"},"vehicle_type_id":"4","last_reported":1776797802,"current_range_meters":4000,"station_id":"ce4bh292rcd13ifvqdf0","pricing_plan_id":"cebpf4jnsgd1na2vs0mg"},{"bike_id":"6cb77786-5dff-4b6b-b399-83a9c40b38d5","system_id":"levelo_inurba_marseille","lat":43.21202,"lon":5.35066,"is_reserved":false,"is_disabled":false,"rental_uris":{"android":"levelo://app?vid=6cb77786-5dff-4b6b-b399-83a9c40b38d5","ios":"levelo://app?vid=6cb77786-5dff-4b6b-b399-83a9c40b38d5"},"vehicle_type_id":"4","last_reported":1776797802,"current_range_meters":4000,"station_id":"st_cvj6sg6p6f1abm77japg","pricing_plan_id":"cebpf4jnsgd1na2vs0mg"},{"bike_id":"a64a8837-01d8-4ea2-a5c4-3f6c918851d6","system_id":"levelo_inurba_marseille","lat":43.2955,"lon":5.42295,"is_reserved":false,"is_disabled":false,"rental_uris":{"android":"levelo://app?vid=a64a8837-01d8-4ea2-a5c4-3f6c918851d6","ios":"levelo://app?vid=a64a8837-01d8-4ea2-a5c4-3f6c918851d6"},"vehicle_type_id":"4","last_reported":1776797802,"current_range_meters":4000,"station_id":"ce4bhph2rcd13ifvqhdg","pricing_plan_id":"cebpf4jnsgd1na2vs0mg"},{"bike_id":"5b498b90-146b-4b24-a4d8-90bb78ffa631","system_id":"levelo_inurba_marseille","lat":43.28413,"lon":5.34991,"is_reserved":false,"is_disabled":false,"rental_uris":{"android":"levelo://app?vid=5b498b90-146b-4b24-a4d8-90bb78ffa631","ios":"levelo://app?vid=5b498b90-146b-4b24-a4d8-90bb78ffa631"},"vehicle_type_id":"4","last_reported":1776797802,"current_range_meters":4000,"station_id":"ce4bhbh2rcd13ifvqepg","pricing_plan_id":"cebpf4jnsgd1na2vs0mg"},{"bike_id":"cd1f3ea7-2505-461d-b68a-23023e8ad292","system_id":"levelo_inurba_marseille","lat":43.30306,"lon":5.40436,"is_reserved":false,"is_disabled":false,"rental_uris":{"android":"levelo://app?vid=cd1f3ea7-2505-461d-b68a-23023e8ad292","ios":"levelo://app?vid=cd1f3ea7-2505-461d-b68a-23023e8ad292"},"vehicle_type_id":"4","last_reported":1776797802,"current_range_meters":4000,"station_id":"ce4bh012rcd13ifvqd10","pricing_plan_id":"cebpf4jnsgd1na2vs0mg"},{"bike_id":"fdde59fb-e056-425c-9fdc-14b94359e5a7","system_id":"levelo_inurba_marseille","lat":43.31772,"lon":5.38451,"is_reserved":false,"is_disabled":false,"rental_uris":{"android":"levelo://app?vid=fdde59fb-e056-425c-9fdc-14b94359e5a7","ios":"levelo://app?vid=fdde59fb-e056-425c-9fdc-14b94359e5a7"},"vehicle_type_id":"4","last_reported":1776797802,"current_range_meters":4000,"station_id":"","pricing_plan_id":"cebpf4jnsgd1na2vs0mg"},{"bike_id":"f1dc6c9c-e9a3-4937-b042-bcfba714f415","system_id":"levelo_inurba_marseille","lat":43.2962,"lon":5.37384,"is_reserved":false,"is_disabled":false,"rental_uris":{"android":"levelo://app?vid=f1dc6c9c-e9a3-4937-b042-bcfba714f415","ios":"levelo://app?vid=f1dc6c9c-e9a3-4937-b042-bcfba714f415"},"vehicle_type_id":"4","last_reported":1776797802,"current_range_meters":4000,"station_id":"","pricing_plan_id":"cebpf4jnsgd1na2vs0mg"},{"bike_id":"ab1f99ae-4f83-4e47-8e84-c2cf195f4bb7","system_id":"levelo_inurba_marseille","lat":43.31175,"lon":5.38718,"is_reserved":false,"is_disabled":false,"rental_uris":{"android":"levelo://app?vid=ab1f99ae-4f83-4e47-8e84-c2cf195f4bb7","ios":"levelo://app?vid=ab1f99ae-4f83-4e47-8e84-c2cf195f4bb7"},"vehicle_type_id":"4","last_reported":1776797802,"current_range_meters":4000,"station_id":"ce4bgv12rcd13ifvqcp0","pricing_plan_id":"cebpf4jnsgd1na2vs0mg"},{"bike_id":"21298c5a-eda3-4af3-a524-0558894f8b98","system_id":"levelo_inurba_marseille","lat":43.3036,"lon":5.47298,"is_reserved":false,"is_disabled":false,"rental_uris":{"android":"levelo://app?vid=21298c5a-eda3-4af3-a524-0558894f8b98","ios":"levelo://app?vid=21298c5a-eda3-4af3-a524-0558894f8b98"},"vehicle_type_id":"4","last_reported":1776797802,"current_range_meters":4000,"station_id":"","pricing_plan_id":"cebpf4jnsgd1na2vs0mg"},{"bike_id":"8a7f64b1-3554-47ae-aa65-9faf1b37cc44","system_id":"levelo_inurba_marseille","lat":43.29874,"lon":5.38908,"is_reserved":false,"is_disabled":false,"rental_uris":{"android":"levelo://app?vid=8a7f64b1-3554-47ae-aa65-9faf1b37cc44","ios":"levelo://app?vid=8a7f64b1-3554-47ae-aa65-9faf1b37cc44"},"vehicle_type_id":"4","last_reported":1776797802,"current_range_meters":4000,"station_id":"ce4bh392rcd13ifvqdl0","pricing_plan_id":"cebpf4jnsgd1na2vs0mg"},{"bike_id":"e80f3e78-fa73-49ee-aa7f-012638831694","system_id":"levelo_inurba_marseille","lat":43.31322,"lon":5.39698,"is_reserved":false,"is_disabled":false,"rental_uris":{"android":"levelo://app?vid=e80f3e78-fa73-49ee-aa7f-012638831694","ios":"levelo://app?vid=e80f3e78-fa73-49ee-aa7f-012638831694"},"vehicle_type_id":"4","last_reported":1776797802,"current_range_meters":4400,"station_id":"ce4bgvp2rcd13ifvqcu0","pricing_plan_id":"cebpf4jnsgd1na2vs0mg"},{"bike_id":"14c96f2b-5bfd-4acb-affb-34747bb616ea","system_id":"levelo_inurba_marseille","lat":43.29783,"lon":5.39335,"is_reserved":false,"is_disabled":false,"rental_uris":{"android":"levelo://app?vid=14c96f2b-5bfd-4acb-affb-34747bb616ea","ios":"levelo://app?vid=14c96f2b-5bfd-4acb-affb-34747bb616ea"},"vehicle_type_id":"4","last_reported":1776797802,"current_range_meters":4400,"station_id":"chh1huq6cuj3fo74tm60","pricing_plan_id":"cebpf4jnsgd1na2vs0mg"},{"bike_id":"d1ca5272-c456-4e37-bca0-0a0d26834285","system_id":"levelo_inurba_marseille","lat":43.29293,"lon":5.37467,"is_reserved":false,"is_disabled":false,"rental_uris":{"android":"levelo://app?vid=d1ca5272-c456-4e37-bca0-0a0d26834285","ios":"levelo://app?vid=d1ca5272-c456-4e37-bca0-0a0d26834285"},"vehicle_type_id":"4","last_reported":1776797802,"current_range_meters":4400,"station_id":"ce4bgi12rcd13ifvqb70","pricing_plan_id":"cebpf4jnsgd1na2vs0mg"},{"bike_id":"4a049369-7aae-4493-aa1e-991c52515875","system_id":"levelo_inurba_marseille","lat":43.29196,"lon":5.35805,"is_reserved":false,"is_disabled":true,"rental_uris":{"android":"levelo://app?vid=4a049369-7aae-4493-aa1e-991c52515875","ios":"levelo://app?vid=4a049369-7aae-4493-aa1e-991c52515875"},"vehicle_type_id":"4","last_reported":1776797802,"current_range_meters":4400,"station_id":"ce4bhb12rcd13ifvqel0","pricing_plan_id":"cebpf4jnsgd1na2vs0mg"},{"bike_id":"428a3e1f-0c14-4644-9951-f64ac1c47a29","system_id":"levelo_inurba_marseille","lat":43.33537,"lon":5.37467,"is_reserved":false,"is_disabled":false,"rental_uris":{"android":"levelo://app?vid=428a3e1f-0c14-4644-9951-f64ac1c47a29","ios":"levelo://app?vid=428a3e1f-0c14-4644-9951-f64ac1c47a29"},"vehicle_type_id":"4","last_reported":1776797802,"current_range_meters":4400,"station_id":"st_d46tts09ee8s73dlu43g","pricing_plan_id":"cebpf4jnsgd1na2vs0mg"},{"bike_id":"98ede0a1-639c-4047-b237-25b47cb74464","system_id":"levelo_inurba_marseille","lat":43.28336,"lon":5.38116,"is_reserved":false,"is_disabled":false,"rental_uris":{"android":"levelo://app?vid=98ede0a1-639c-4047-b237-25b47cb74464","ios":"levelo://app?vid=98ede0a1-639c-4047-b237-25b47cb74464"},"vehicle_type_id":"4","last_reported":1776797802,"current_range_meters":4400,"station_id":"ce4bh412rcd13ifvqdr0","pricing_plan_id":"cebpf4jnsgd1na2vs0mg"},{"bike_id":"2d43b0c4-097c-4591-b60c-5a5feba5dc3d","system_id":"levelo_inurba_marseille","lat":43.295196,"lon":5.390242,"is_reserved":false,"is_disabled":false,"rental_uris":{"android":"levelo://app?vid=2d43b0c4-097c-4591-b60c-5a5feba5dc3d","ios":"levelo://app?vid=2d43b0c4-097c-4591-b60c-5a5feba5dc3d"},"vehicle_type_id":"4","last_reported":1776797802,"current_range_meters":4400,"station_id":"ce4bh3p2rcd13ifvqdp0","pricing_plan_id":"cebpf4jnsgd1na2vs0mg"},{"bike_id":"65c36df8-a7fe-4010-8370-f48b0c45f206","system_id":"levelo_inurba_marseille","lat":43.33542,"lon":5.37457,"is_reserved":false,"is_disabled":false,"rental_uris":{"android":"levelo://app?vid=65c36df8-a7fe-4010-8370-f48b0c45f206","ios":"levelo://app?vid=65c36df8-a7fe-4010-8370-f48b0c45f206"},"vehicle_type_id":"4","last_reported":1776797802,"current_range_meters":4400,"station_id":"st_d46tts09ee8s73dlu43g","pricing_plan_id":"cebpf4jnsgd1na2vs0mg"},{"bike_id":"eb0dd92c-7777-4aff-ab88-96a22419386b","system_id":"levelo_inurba_marseille","lat":43.30238,"lon":5.38061,"is_reserved":false,"is_disabled":true,"rental_uris":{"android":"levelo://app?vid=eb0dd92c-7777-4aff-ab88-96a22419386b","ios":"levelo://app?vid=eb0dd92c-7777-4aff-ab88-96a22419386b"},"vehicle_type_id":"4","last_reported":1776797802,"current_range_meters":4400,"station_id":"","pricing_plan_id":"cebpf4jnsgd1na2vs0mg"},{"bike_id":"2b91d518-5095-4415-99e4-124095a25fff","system_id":"levelo_inurba_marseille","lat":43.33692,"lon":5.39839,"is_reserved":false,"is_disabled":false,"rental_uris":{"android":"levelo://app?vid=2b91d518-5095-4415-99e4-124095a25fff","ios":"levelo://app?vid=2b91d518-5095-4415-99e4-124095a25fff"},"vehicle_type_id":"4","last_reported":1776797802,"current_range_meters":4400,"station_id":"","pricing_plan_id":"cebpf4jnsgd1na2vs0mg"},{"bike_id":"8a8af354-0c90-4b6d-bcd2-ea2c706301dc","system_id":"levelo_inurba_marseille","lat":43.30202,"lon":5.39465,"is_reserved":false,"is_disabled":false,"rental_uris":{"android":"levelo://app?vid=8a8af354-0c90-4b6d-bcd2-ea2c706301dc","ios":"levelo://app?vid=8a8af354-0c90-4b6d-bcd2-ea2c706301dc"},"vehicle_type_id":"4","last_reported":1776797802,"current_range_meters":4400,"station_id":"ce4bh0p2rcd13ifvqd70","pricing_plan_id":"cebpf4jnsgd1na2vs0mg"},{"bike_id":"430023e6-2f2c-4428-859c-95d9aae35673","system_id":"levelo_inurba_marseille","lat":43.28502,"lon":5.44111,"is_reserved":false,"is_disabled":false,"rental_uris":{"android":"levelo://app?vid=430023e6-2f2c-4428-859c-95d9aae35673","ios":"levelo://app?vid=430023e6-2f2c-4428-859c-95d9aae35673"},"vehicle_type_id":"4","last_reported":1776797802,"current_range_meters":4400,"station_id":"st_d3j3df2ikq2c7380ej80","pricing_plan_id":"cebpf4jnsgd1na2vs0mg"},{"bike_id":"4ffea8b6-a202-4fec-8a5c-97b53986684b","system_id":"levelo_inurba_marseille","lat":43.29376,"lon":5.37831,"is_reserved":false,"is_disabled":false,"rental_uris":{"android":"levelo://app?vid=4ffea8b6-a202-4fec-8a5c-97b53986684b","ios":"levelo://app?vid=4ffea8b6-a202-4fec-8a5c-97b53986684b"},"vehicle_type_id":"4","last_reported":1776797802,"current_range_meters":4400,"station_id":"ce4bgjh2rcd13ifvqbf0","pricing_plan_id":"cebpf4jnsgd1na2vs0mg"},{"bike_id":"53c700b8-845b-473e-b238-598a75d59a87","system_id":"levelo_inurba_marseille","lat":43.308004,"lon":5.381417,"is_reserved":false,"is_disabled":false,"rental_uris":{"android":"levelo://app?vid=53c700b8-845b-473e-b238-598a75d59a87","ios":"levelo://app?vid=53c700b8-845b-473e-b238-598a75d59a87"},"vehicle_type_id":"4","last_reported":1776797802,"current_range_meters":4400,"station_id":"ce4bgt12rcd13ifvqce0","pricing_plan_id":"cebpf4jnsgd1na2vs0mg"},{"bike_id":"392f0c43-52c1-425b-8e1a-5dd28aaf6398","system_id":"levelo_inurba_marseille","lat":43.24804,"lon":5.3746,"is_reserved":false,"is_disabled":false,"rental_uris":{"android":"levelo://app?vid=392f0c43-52c1-425b-8e1a-5dd28aaf6398","ios":"levelo://app?vid=392f0c43-52c1-425b-8e1a-5dd28aaf6398"},"vehicle_type_id":"4","last_reported":1776797802,"current_range_meters":4800,"station_id":"ce4bhgh2rcd13ifvqfb0","pricing_plan_id":"cebpf4jnsgd1na2vs0mg"},{"bike_id":"685942dc-6a9b-4b49-b452-b6620f26b3ab","system_id":"levelo_inurba_marseille","lat":43.29787,"lon":5.38069,"is_reserved":false,"is_disabled":false,"rental_uris":{"android":"levelo://app?vid=685942dc-6a9b-4b49-b452-b6620f26b3ab","ios":"levelo://app?vid=685942dc-6a9b-4b49-b452-b6620f26b3ab"},"vehicle_type_id":"4","last_reported":1776797802,"current_range_meters":4800,"station_id":"ce4bgip2rcd13ifvqbb0","pricing_plan_id":"cebpf4jnsgd1na2vs0mg"},{"bike_id":"64d94556-6834-4dbf-9283-c66d7f63f63b","system_id":"levelo_inurba_marseille","lat":43.29495,"lon":5.43291,"is_reserved":false,"is_disabled":false,"rental_uris":{"android":"levelo://app?vid=64d94556-6834-4dbf-9283-c66d7f63f63b","ios":"levelo://app?vid=64d94556-6834-4dbf-9283-c66d7f63f63b"},"vehicle_type_id":"4","last_reported":1776797802,"current_range_meters":4800,"station_id":"st_d3j5ugp08ojc73fj9d10","pricing_plan_id":"cebpf4jnsgd1na2vs0mg"},{"bike_id":"5a9c6c33-a4eb-4794-8ad2-142150621c6b","system_id":"levelo_inurba_marseille","lat":43.29277,"lon":5.4012,"is_reserved":false,"is_disabled":false,"rental_uris":{"android":"levelo://app?vid=5a9c6c33-a4eb-4794-8ad2-142150621c6b","ios":"levelo://app?vid=5a9c6c33-a4eb-4794-8ad2-142150621c6b"},"vehicle_type_id":"4","last_reported":1776797802,"current_range_meters":4800,"station_id":"ce4bh312rcd13ifvqdk0","pricing_plan_id":"cebpf4jnsgd1na2vs0mg"},{"bike_id":"714dcc00-e1f0-496e-b551-da2d0ef32618","system_id":"levelo_inurba_marseille","lat":43.284212,"lon":5.349891,"is_reserved":false,"is_disabled":false,"rental_uris":{"android":"levelo://app?vid=714dcc00-e1f0-496e-b551-da2d0ef32618","ios":"levelo://app?vid=714dcc00-e1f0-496e-b551-da2d0ef32618"},"vehicle_type_id":"4","last_reported":1776797802,"current_range_meters":4800,"station_id":"ce4bhbh2rcd13ifvqepg","pricing_plan_id":"cebpf4jnsgd1na2vs0mg"},{"bike_id":"e9c2f297-4723-455f-9e1e-5cd936a34bfa","system_id":"levelo_inurba_marseille","lat":43.2839,"lon":5.34996,"is_reserved":false,"is_disabled":false,"rental_uris":{"android":"levelo://app?vid=e9c2f297-4723-455f-9e1e-5cd936a34bfa","ios":"levelo://app?vid=e9c2f297-4723-455f-9e1e-5cd936a34bfa"},"vehicle_type_id":"4","last_reported":1776797802,"current_range_meters":4800,"station_id":"ce4bhbh2rcd13ifvqepg","pricing_plan_id":"cebpf4jnsgd1na2vs0mg"},{"bike_id":"ec69f4d9-c069-420b-997b-fdd74d56d6db","system_id":"levelo_inurba_marseille","lat":43.2465,"lon":5.38161,"is_reserved":false,"is_disabled":false,"rental_uris":{"android":"levelo://app?vid=ec69f4d9-c069-420b-997b-fdd74d56d6db","ios":"levelo://app?vid=ec69f4d9-c069-420b-997b-fdd74d56d6db"},"vehicle_type_id":"4","last_reported":1776797802,"current_range_meters":4800,"station_id":"ce4bhih2rcd13ifvqfr0","pricing_plan_id":"cebpf4jnsgd1na2vs0mg"},{"bike_id":"9990d86e-b67a-4df5-a750-4383b9979214","system_id":"levelo_inurba_marseille","lat":43.29529,"lon":5.38548,"is_reserved":false,"is_disabled":false,"rental_uris":{"android":"levelo://app?vid=9990d86e-b67a-4df5-a750-4383b9979214","ios":"levelo://app?vid=9990d86e-b67a-4df5-a750-4383b9979214"},"vehicle_type_id":"4","last_reported":1776797802,"current_range_meters":4800,"station_id":"ce4bgih2rcd13ifvqba0","pricing_plan_id":"cebpf4jnsgd1na2vs0mg"},{"bike_id":"9f42f156-c749-4c86-a8ec-b3fabe5a418e","system_id":"levelo_inurba_marseille","lat":43.31161,"lon":5.38717,"is_reserved":false,"is_disabled":false,"rental_uris":{"android":"levelo://app?vid=9f42f156-c749-4c86-a8ec-b3fabe5a418e","ios":"levelo://app?vid=9f42f156-c749-4c86-a8ec-b3fabe5a418e"},"vehicle_type_id":"4","last_reported":1776797802,"current_range_meters":4800,"station_id":"ce4bgv12rcd13ifvqcp0","pricing_plan_id":"cebpf4jnsgd1na2vs0mg"},{"bike_id":"be5348a3-1499-4f44-9d7a-d050ef9268e8","system_id":"levelo_inurba_marseille","lat":43.32699,"lon":5.38328,"is_reserved":false,"is_disabled":false,"rental_uris":{"android":"levelo://app?vid=be5348a3-1499-4f44-9d7a-d050ef9268e8","ios":"levelo://app?vid=be5348a3-1499-4f44-9d7a-d050ef9268e8"},"vehicle_type_id":"4","last_reported":1776797802,"current_range_meters":4800,"station_id":"","pricing_plan_id":"cebpf4jnsgd1na2vs0mg"},{"bike_id":"032aadbc-bf18-4be0-887f-decf5b2cc280","system_id":"levelo_inurba_marseille","lat":43.31892,"lon":5.40724,"is_reserved":false,"is_disabled":false,"rental_uris":{"android":"levelo://app?vid=032aadbc-bf18-4be0-887f-decf5b2cc280","ios":"levelo://app?vid=032aadbc-bf18-4be0-887f-decf5b2cc280"},"vehicle_type_id":"4","last_reported":1776797802,"current_range_meters":4800,"station_id":"ce4bhq12rcd13ifvqhig","pricing_plan_id":"cebpf4jnsgd1na2vs0mg"},{"bike_id":"624daf69-f815-4f9b-8f7c-0a5468b5d0f6","system_id":"levelo_inurba_marseille","lat":43.26195,"lon":5.37046,"is_reserved":false,"is_disabled":false,"rental_uris":{"android":"levelo://app?vid=624daf69-f815-4f9b-8f7c-0a5468b5d0f6","ios":"levelo://app?vid=624daf69-f815-4f9b-8f7c-0a5468b5d0f6"},"vehicle_type_id":"4","last_reported":1776797802,"current_range_meters":4800,"station_id":"","pricing_plan_id":"cebpf4jnsgd1na2vs0mg"},{"bike_id":"a32d00a1-cee4-4e52-bcb8-70d2dac74824","system_id":"levelo_inurba_marseille","lat":43.30921,"lon":5.3684,"is_reserved":false,"is_disabled":false,"rental_uris":{"android":"levelo://app?vid=a32d00a1-cee4-4e52-bcb8-70d2dac74824","ios":"levelo://app?vid=a32d00a1-cee4-4e52-bcb8-70d2dac74824"},"vehicle_type_id":"4","last_reported":1776797802,"current_range_meters":4800,"station_id":"ce4bgn92rcd13ifvqbvg","pricing_plan_id":"cebpf4jnsgd1na2vs0mg"},{"bike_id":"58ed09d9-0aa1-471f-818a-54c432b83970","system_id":"levelo_inurba_marseille","lat":43.26611,"lon":5.42829,"is_reserved":false,"is_disabled":false,"rental_uris":{"android":"levelo://app?vid=58ed09d9-0aa1-471f-818a-54c432b83970","ios":"levelo://app?vid=58ed09d9-0aa1-471f-818a-54c432b83970"},"vehicle_type_id":"4","last_reported":1776797802,"current_range_meters":5600,"station_id":"","pricing_plan_id":"cebpf4jnsgd1na2vs0mg"},{"bike_id":"ae3cdbc1-046c-42e5-b909-29c9e0bcb254","system_id":"levelo_inurba_marseille","lat":43.33175,"lon":5.37673,"is_reserved":false,"is_disabled":false,"rental_uris":{"android":"levelo://app?vid=ae3cdbc1-046c-42e5-b909-29c9e0bcb254","ios":"levelo://app?vid=ae3cdbc1-046c-42e5-b909-29c9e0bcb254"},"vehicle_type_id":"4","last_reported":1776797802,"current_range_meters":5600,"station_id":"st_d46cu089ee8s73dldbu0","pricing_plan_id":"cebpf4jnsgd1na2vs0mg"},{"bike_id":"55b9e363-aef1-4e55-a55c-7c19ee416703","system_id":"levelo_inurba_marseille","lat":43.31845,"lon":5.3729,"is_reserved":false,"is_disabled":false,"rental_uris":{"android":"levelo://app?vid=55b9e363-aef1-4e55-a55c-7c19ee416703","ios":"levelo://app?vid=55b9e363-aef1-4e55-a55c-7c19ee416703"},"vehicle_type_id":"4","last_reported":1776797802,"current_range_meters":5600,"station_id":"","pricing_plan_id":"cebpf4jnsgd1na2vs0mg"},{"bike_id":"e58670e4-9522-4521-ae5b-11255a5eb992","system_id":"levelo_inurba_marseille","lat":43.29239,"lon":5.36039,"is_reserved":false,"is_disabled":false,"rental_uris":{"android":"levelo://app?vid=e58670e4-9522-4521-ae5b-11255a5eb992","ios":"levelo://app?vid=e58670e4-9522-4521-ae5b-11255a5eb992"},"vehicle_type_id":"4","last_reported":1776797802,"current_range_meters":5600,"station_id":"ce4bhbh2rcd13ifvqeqg","pricing_plan_id":"cebpf4jnsgd1na2vs0mg"},{"bike_id":"b107e67d-917d-424d-bfb2-57638fff8666","system_id":"levelo_inurba_marseille","lat":43.25509,"lon":5.37649,"is_reserved":false,"is_disabled":false,"rental_uris":{"android":"levelo://app?vid=b107e67d-917d-424d-bfb2-57638fff8666","ios":"levelo://app?vid=b107e67d-917d-424d-bfb2-57638fff8666"},"vehicle_type_id":"4","last_reported":1776797802,"current_range_meters":5600,"station_id":"ce4bhh12rcd13ifvqff0","pricing_plan_id":"cebpf4jnsgd1na2vs0mg"},{"bike_id":"377e474f-c237-483e-b0c8-ff00e3d0a440","system_id":"levelo_inurba_marseille","lat":43.25088,"lon":5.39501,"is_reserved":false,"is_disabled":false,"rental_uris":{"android":"levelo://app?vid=377e474f-c237-483e-b0c8-ff00e3d0a440","ios":"levelo://app?vid=377e474f-c237-483e-b0c8-ff00e3d0a440"},"vehicle_type_id":"4","last_reported":1776797802,"current_range_meters":5600,"station_id":"ce4bhm12rcd13ifvqgkg","pricing_plan_id":"cebpf4jnsgd1na2vs0mg"},{"bike_id":"a75af894-b890-4397-8c92-b7b0462d89ad","system_id":"levelo_inurba_marseille","lat":43.28339,"lon":5.38107,"is_reserved":false,"is_disabled":false,"rental_uris":{"android":"levelo://app?vid=a75af894-b890-4397-8c92-b7b0462d89ad","ios":"levelo://app?vid=a75af894-b890-4397-8c92-b7b0462d89ad"},"vehicle_type_id":"4","last_reported":1776797802,"current_range_meters":5600,"station_id":"ce4bh412rcd13ifvqdr0","pricing_plan_id":"cebpf4jnsgd1na2vs0mg"},{"bike_id":"b785f7ea-cfcc-407f-b48a-6739a001a77c","system_id":"levelo_inurba_marseille","lat":43.33146,"lon":5.37708,"is_reserved":false,"is_disabled":false,"rental_uris":{"android":"levelo://app?vid=b785f7ea-cfcc-407f-b48a-6739a001a77c","ios":"levelo://app?vid=b785f7ea-cfcc-407f-b48a-6739a001a77c"},"vehicle_type_id":"4","last_reported":1776797802,"current_range_meters":5600,"station_id":"st_d46cu089ee8s73dldbu0","pricing_plan_id":"cebpf4jnsgd1na2vs0mg"},{"bike_id":"f1ed1b8e-50e7-434a-8303-49d6f5739dca","system_id":"levelo_inurba_marseille","lat":43.30299,"lon":5.40446,"is_reserved":false,"is_disabled":false,"rental_uris":{"android":"levelo://app?vid=f1ed1b8e-50e7-434a-8303-49d6f5739dca","ios":"levelo://app?vid=f1ed1b8e-50e7-434a-8303-49d6f5739dca"},"vehicle_type_id":"4","last_reported":1776797802,"current_range_meters":5600,"station_id":"ce4bh012rcd13ifvqd10","pricing_plan_id":"cebpf4jnsgd1na2vs0mg"},{"bike_id":"a5adfe07-d53d-428b-a39e-c4b14d135656","system_id":"levelo_inurba_marseille","lat":43.29541,"lon":5.38555,"is_reserved":false,"is_disabled":false,"rental_uris":{"android":"levelo://app?vid=a5adfe07-d53d-428b-a39e-c4b14d135656","ios":"levelo://app?vid=a5adfe07-d53d-428b-a39e-c4b14d135656"},"vehicle_type_id":"4","last_reported":1776797802,"current_range_meters":6000,"station_id":"ce4bgih2rcd13ifvqba0","pricing_plan_id":"cebpf4jnsgd1na2vs0mg"},{"bike_id":"b1825e17-c86a-4867-83b0-b5fcfd88ca26","system_id":"levelo_inurba_marseille","lat":43.29223,"lon":5.38787,"is_reserved":false,"is_disabled":false,"rental_uris":{"android":"levelo://app?vid=b1825e17-c86a-4867-83b0-b5fcfd88ca26","ios":"levelo://app?vid=b1825e17-c86a-4867-83b0-b5fcfd88ca26"},"vehicle_type_id":"4","last_reported":1776797802,"current_range_meters":6000,"station_id":"","pricing_plan_id":"cebpf4jnsgd1na2vs0mg"},{"bike_id":"72cbc3d1-cb88-4c89-b50f-4d95e37ef423","system_id":"levelo_inurba_marseille","lat":43.284613,"lon":5.358814,"is_reserved":false,"is_disabled":false,"rental_uris":{"android":"levelo://app?vid=72cbc3d1-cb88-4c89-b50f-4d95e37ef423","ios":"levelo://app?vid=72cbc3d1-cb88-4c89-b50f-4d95e37ef423"},"vehicle_type_id":"4","last_reported":1776797802,"current_range_meters":6000,"station_id":"ce4bhah2rcd13ifvqei0","pricing_plan_id":"cebpf4jnsgd1na2vs0mg"},{"bike_id":"33ff819f-543e-4962-b40d-8a18da3bd5a5","system_id":"levelo_inurba_marseille","lat":43.29543,"lon":5.38545,"is_reserved":false,"is_disabled":false,"rental_uris":{"android":"levelo://app?vid=33ff819f-543e-4962-b40d-8a18da3bd5a5","ios":"levelo://app?vid=33ff819f-543e-4962-b40d-8a18da3bd5a5"},"vehicle_type_id":"4","last_reported":1776797802,"current_range_meters":6000,"station_id":"ce4bgih2rcd13ifvqba0","pricing_plan_id":"cebpf4jnsgd1na2vs0mg"},{"bike_id":"ce4f7ebb-425f-47f9-bd03-7a83850a37bd","system_id":"levelo_inurba_marseille","lat":43.27638,"lon":5.38937,"is_reserved":false,"is_disabled":false,"rental_uris":{"android":"levelo://app?vid=ce4f7ebb-425f-47f9-bd03-7a83850a37bd","ios":"levelo://app?vid=ce4f7ebb-425f-47f9-bd03-7a83850a37bd"},"vehicle_type_id":"4","last_reported":1776797802,"current_range_meters":6000,"station_id":"","pricing_plan_id":"cebpf4jnsgd1na2vs0mg"},{"bike_id":"c4e93ff0-02a4-4886-9bdc-0144cc9e6e06","system_id":"levelo_inurba_marseille","lat":43.30326,"lon":5.40431,"is_reserved":false,"is_disabled":false,"rental_uris":{"android":"levelo://app?vid=c4e93ff0-02a4-4886-9bdc-0144cc9e6e06","ios":"levelo://app?vid=c4e93ff0-02a4-4886-9bdc-0144cc9e6e06"},"vehicle_type_id":"4","last_reported":1776797802,"current_range_meters":6000,"station_id":"ce4bh012rcd13ifvqd10","pricing_plan_id":"cebpf4jnsgd1na2vs0mg"},{"bike_id":"1f6ee450-55e9-4c34-9527-83323279630b","system_id":"levelo_inurba_marseille","lat":43.33588,"lon":5.41023,"is_reserved":false,"is_disabled":false,"rental_uris":{"android":"levelo://app?vid=1f6ee450-55e9-4c34-9527-83323279630b","ios":"levelo://app?vid=1f6ee450-55e9-4c34-9527-83323279630b"},"vehicle_type_id":"4","last_reported":1776797802,"current_range_meters":6000,"station_id":"ce4bhqh2rcd13ifvqhmg","pricing_plan_id":"cebpf4jnsgd1na2vs0mg"},{"bike_id":"496ff36b-a971-41d6-94ec-89b74a099bec","system_id":"levelo_inurba_marseille","lat":43.30668,"lon":5.3705,"is_reserved":false,"is_disabled":false,"rental_uris":{"android":"levelo://app?vid=496ff36b-a971-41d6-94ec-89b74a099bec","ios":"levelo://app?vid=496ff36b-a971-41d6-94ec-89b74a099bec"},"vehicle_type_id":"4","last_reported":1776797802,"current_range_meters":6000,"station_id":"","pricing_plan_id":"cebpf4jnsgd1na2vs0mg"},{"bike_id":"2923d899-e487-4cd1-8eb4-a2f0428efa22","system_id":"levelo_inurba_marseille","lat":43.33142,"lon":5.37707,"is_reserved":false,"is_disabled":false,"rental_uris":{"android":"levelo://app?vid=2923d899-e487-4cd1-8eb4-a2f0428efa22","ios":"levelo://app?vid=2923d899-e487-4cd1-8eb4-a2f0428efa22"},"vehicle_type_id":"4","last_reported":1776797802,"current_range_meters":6000,"station_id":"st_d46cu089ee8s73dldbu0","pricing_plan_id":"cebpf4jnsgd1na2vs0mg"},{"bike_id":"dd8d4df4-895e-4db8-b1cd-223e7e4d3814","system_id":"levelo_inurba_marseille","lat":43.31164,"lon":5.38722,"is_reserved":false,"is_disabled":false,"rental_uris":{"android":"levelo://app?vid=dd8d4df4-895e-4db8-b1cd-223e7e4d3814","ios":"levelo://app?vid=dd8d4df4-895e-4db8-b1cd-223e7e4d3814"},"vehicle_type_id":"4","last_reported":1776797802,"current_range_meters":6000,"station_id":"ce4bgv12rcd13ifvqcp0","pricing_plan_id":"cebpf4jnsgd1na2vs0mg"},{"bike_id":"85d008d7-db23-4109-8c7e-d94d301d8f6b","system_id":"levelo_inurba_marseille","lat":43.26301,"lon":5.37359,"is_reserved":false,"is_disabled":false,"rental_uris":{"android":"levelo://app?vid=85d008d7-db23-4109-8c7e-d94d301d8f6b","ios":"levelo://app?vid=85d008d7-db23-4109-8c7e-d94d301d8f6b"},"vehicle_type_id":"4","last_reported":1776797802,"current_range_meters":6000,"station_id":"","pricing_plan_id":"cebpf4jnsgd1na2vs0mg"},{"bike_id":"5d766157-c28a-41bc-943b-a5906bd66ac2","system_id":"levelo_inurba_marseille","lat":43.281376,"lon":5.378607,"is_reserved":false,"is_disabled":false,"rental_uris":{"android":"levelo://app?vid=5d766157-c28a-41bc-943b-a5906bd66ac2","ios":"levelo://app?vid=5d766157-c28a-41bc-943b-a5906bd66ac2"},"vehicle_type_id":"4","last_reported":1776797802,"current_range_meters":6000,"station_id":"ce4bha12rcd13ifvqee0","pricing_plan_id":"cebpf4jnsgd1na2vs0mg"},{"bike_id":"f27eb424-5b95-4293-b6fc-67955ab5fbc1","system_id":"levelo_inurba_marseille","lat":43.31679,"lon":5.40473,"is_reserved":false,"is_disabled":false,"rental_uris":{"android":"levelo://app?vid=f27eb424-5b95-4293-b6fc-67955ab5fbc1","ios":"levelo://app?vid=f27eb424-5b95-4293-b6fc-67955ab5fbc1"},"vehicle_type_id":"4","last_reported":1776797802,"current_range_meters":6400,"station_id":"ce4bh012rcd13ifvqd00","pricing_plan_id":"cebpf4jnsgd1na2vs0mg"},{"bike_id":"f0560ebd-54f4-470b-b211-8f235f923412","system_id":"levelo_inurba_marseille","lat":43.31342,"lon":5.37634,"is_reserved":false,"is_disabled":false,"rental_uris":{"android":"levelo://app?vid=f0560ebd-54f4-470b-b211-8f235f923412","ios":"levelo://app?vid=f0560ebd-54f4-470b-b211-8f235f923412"},"vehicle_type_id":"4","last_reported":1776797802,"current_range_meters":6400,"station_id":"","pricing_plan_id":"cebpf4jnsgd1na2vs0mg"},{"bike_id":"2bf658ef-a912-4563-9f63-3110eb25e849","system_id":"levelo_inurba_marseille","lat":43.29726,"lon":5.35986,"is_reserved":false,"is_disabled":false,"rental_uris":{"android":"levelo://app?vid=2bf658ef-a912-4563-9f63-3110eb25e849","ios":"levelo://app?vid=2bf658ef-a912-4563-9f63-3110eb25e849"},"vehicle_type_id":"4","last_reported":1776797802,"current_range_meters":6400,"station_id":"","pricing_plan_id":"cebpf4jnsgd1na2vs0mg"},{"bike_id":"fc23d143-28ed-4c33-8f63-5edf8cb2b527","system_id":"levelo_inurba_marseille","lat":43.29028,"lon":5.38646,"is_reserved":false,"is_disabled":false,"rental_uris":{"android":"levelo://app?vid=fc23d143-28ed-4c33-8f63-5edf8cb2b527","ios":"levelo://app?vid=fc23d143-28ed-4c33-8f63-5edf8cb2b527"},"vehicle_type_id":"4","last_reported":1776797802,"current_range_meters":6400,"station_id":"ce4bh4p2rcd13ifvqe0g","pricing_plan_id":"cebpf4jnsgd1na2vs0mg"},{"bike_id":"0b8821b9-e977-49db-8cfc-415f2e3e0898","system_id":"levelo_inurba_marseille","lat":43.29528,"lon":5.39043,"is_reserved":false,"is_disabled":false,"rental_uris":{"android":"levelo://app?vid=0b8821b9-e977-49db-8cfc-415f2e3e0898","ios":"levelo://app?vid=0b8821b9-e977-49db-8cfc-415f2e3e0898"},"vehicle_type_id":"4","last_reported":1776797802,"current_range_meters":6400,"station_id":"ce4bh3p2rcd13ifvqdp0","pricing_plan_id":"cebpf4jnsgd1na2vs0mg"},{"bike_id":"bbf3da38-7b45-43ac-8ebf-5002e0aa1af7","system_id":"levelo_inurba_marseille","lat":43.29531,"lon":5.38538,"is_reserved":false,"is_disabled":false,"rental_uris":{"android":"levelo://app?vid=bbf3da38-7b45-43ac-8ebf-5002e0aa1af7","ios":"levelo://app?vid=bbf3da38-7b45-43ac-8ebf-5002e0aa1af7"},"vehicle_type_id":"4","last_reported":1776797802,"current_range_meters":6400,"station_id":"ce4bgih2rcd13ifvqba0","pricing_plan_id":"cebpf4jnsgd1na2vs0mg"},{"bike_id":"c4788050-b849-4e97-8b93-5d92ef7d02d0","system_id":"levelo_inurba_marseille","lat":43.29926,"lon":5.37486,"is_reserved":false,"is_disabled":false,"rental_uris":{"android":"levelo://app?vid=c4788050-b849-4e97-8b93-5d92ef7d02d0","ios":"levelo://app?vid=c4788050-b849-4e97-8b93-5d92ef7d02d0"},"vehicle_type_id":"4","last_reported":1776797802,"current_range_meters":6400,"station_id":"","pricing_plan_id":"cebpf4jnsgd1na2vs0mg"},{"bike_id":"ceacc663-0c06-4c34-9626-ec0263eb9268","system_id":"levelo_inurba_marseille","lat":43.3104,"lon":5.37172,"is_reserved":false,"is_disabled":false,"rental_uris":{"android":"levelo://app?vid=ceacc663-0c06-4c34-9626-ec0263eb9268","ios":"levelo://app?vid=ceacc663-0c06-4c34-9626-ec0263eb9268"},"vehicle_type_id":"4","last_reported":1776797802,"current_range_meters":6400,"station_id":"st_d4kl2rp97mjs73e7tdfg","pricing_plan_id":"cebpf4jnsgd1na2vs0mg"},{"bike_id":"14290775-1809-431a-89de-994574cdc895","system_id":"levelo_inurba_marseille","lat":43.2758,"lon":5.38616,"is_reserved":false,"is_disabled":false,"rental_uris":{"android":"levelo://app?vid=14290775-1809-431a-89de-994574cdc895","ios":"levelo://app?vid=14290775-1809-431a-89de-994574cdc895"},"vehicle_type_id":"4","last_reported":1776797802,"current_range_meters":6400,"station_id":"","pricing_plan_id":"cebpf4jnsgd1na2vs0mg"},{"bike_id":"c224c9cf-d497-4bf6-82cd-eee25423f927","system_id":"levelo_inurba_marseille","lat":43.29691,"lon":5.37283,"is_reserved":false,"is_disabled":true,"rental_uris":{"android":"levelo://app?vid=c224c9cf-d497-4bf6-82cd-eee25423f927","ios":"levelo://app?vid=c224c9cf-d497-4bf6-82cd-eee25423f927"},"vehicle_type_id":"4","last_reported":1776797802,"current_range_meters":6400,"station_id":"ce4bgk12rcd13ifvqbj0","pricing_plan_id":"cebpf4jnsgd1na2vs0mg"},{"bike_id":"c5bb4fbc-c77d-476d-9a0d-99531c455d27","system_id":"levelo_inurba_marseille","lat":43.28906,"lon":5.36636,"is_reserved":false,"is_disabled":false,"rental_uris":{"android":"levelo://app?vid=c5bb4fbc-c77d-476d-9a0d-99531c455d27","ios":"levelo://app?vid=c5bb4fbc-c77d-476d-9a0d-99531c455d27"},"vehicle_type_id":"4","last_reported":1776797802,"current_range_meters":6400,"station_id":"ce4bhap2rcd13ifvqek0","pricing_plan_id":"cebpf4jnsgd1na2vs0mg"},{"bike_id":"f1974a7a-bbfd-4140-91fe-2b8d1ac228c6","system_id":"levelo_inurba_marseille","lat":43.29524,"lon":5.39053,"is_reserved":false,"is_disabled":false,"rental_uris":{"android":"levelo://app?vid=f1974a7a-bbfd-4140-91fe-2b8d1ac228c6","ios":"levelo://app?vid=f1974a7a-bbfd-4140-91fe-2b8d1ac228c6"},"vehicle_type_id":"4","last_reported":1776797802,"current_range_meters":6400,"station_id":"ce4bh3p2rcd13ifvqdp0","pricing_plan_id":"cebpf4jnsgd1na2vs0mg"},{"bike_id":"513b0d35-c7fa-4c95-9dd5-0893b2c6e366","system_id":"levelo_inurba_marseille","lat":43.21756,"lon":5.34594,"is_reserved":false,"is_disabled":false,"rental_uris":{"android":"levelo://app?vid=513b0d35-c7fa-4c95-9dd5-0893b2c6e366","ios":"levelo://app?vid=513b0d35-c7fa-4c95-9dd5-0893b2c6e366"},"vehicle_type_id":"4","last_reported":1776797802,"current_range_meters":6800,"station_id":"st_cvj6r9ubvosntc0bgbag","pricing_plan_id":"cebpf4jnsgd1na2vs0mg"},{"bike_id":"38a0c1fe-c793-4677-abc9-44884653b8c5","system_id":"levelo_inurba_marseille","lat":43.29593,"lon":5.37776,"is_reserved":false,"is_disabled":false,"rental_uris":{"android":"levelo://app?vid=38a0c1fe-c793-4677-abc9-44884653b8c5","ios":"levelo://app?vid=38a0c1fe-c793-4677-abc9-44884653b8c5"},"vehicle_type_id":"4","last_reported":1776797802,"current_range_meters":6800,"station_id":"","pricing_plan_id":"cebpf4jnsgd1na2vs0mg"},{"bike_id":"6752d7ed-9b6b-4d1a-b80c-c596f7ae85f7","system_id":"levelo_inurba_marseille","lat":43.28617,"lon":5.35094,"is_reserved":false,"is_disabled":false,"rental_uris":{"android":"levelo://app?vid=6752d7ed-9b6b-4d1a-b80c-c596f7ae85f7","ios":"levelo://app?vid=6752d7ed-9b6b-4d1a-b80c-c596f7ae85f7"},"vehicle_type_id":"4","last_reported":1776797802,"current_range_meters":6800,"station_id":"ce4bhch2rcd13ifvqeug","pricing_plan_id":"cebpf4jnsgd1na2vs0mg"},{"bike_id":"1fd10be9-0a9a-46a4-9d74-69cc8527ad5b","system_id":"levelo_inurba_marseille","lat":43.2848,"lon":5.484,"is_reserved":false,"is_disabled":false,"rental_uris":{"android":"levelo://app?vid=1fd10be9-0a9a-46a4-9d74-69cc8527ad5b","ios":"levelo://app?vid=1fd10be9-0a9a-46a4-9d74-69cc8527ad5b"},"vehicle_type_id":"4","last_reported":1776797802,"current_range_meters":6800,"station_id":"","pricing_plan_id":"cebpf4jnsgd1na2vs0mg"},{"bike_id":"af8a1ef7-3bce-462c-8983-73c0060888a3","system_id":"levelo_inurba_marseille","lat":43.29023,"lon":5.38144,"is_reserved":false,"is_disabled":true,"rental_uris":{"android":"levelo://app?vid=af8a1ef7-3bce-462c-8983-73c0060888a3","ios":"levelo://app?vid=af8a1ef7-3bce-462c-8983-73c0060888a3"},"vehicle_type_id":"4","last_reported":1776797802,"current_range_meters":6800,"station_id":"ce4bh4p2rcd13ifvqe1g","pricing_plan_id":"cebpf4jnsgd1na2vs0mg"},{"bike_id":"0fdadf1c-e50a-4100-b810-ca3c785927db","system_id":"levelo_inurba_marseille","lat":43.2979,"lon":5.38089,"is_reserved":false,"is_disabled":false,"rental_uris":{"android":"levelo://app?vid=0fdadf1c-e50a-4100-b810-ca3c785927db","ios":"levelo://app?vid=0fdadf1c-e50a-4100-b810-ca3c785927db"},"vehicle_type_id":"4","last_reported":1776797802,"current_range_meters":6800,"station_id":"ce4bgip2rcd13ifvqbb0","pricing_plan_id":"cebpf4jnsgd1na2vs0mg"},{"bike_id":"9537ab1a-5c64-472d-88a3-b20baa240d63","system_id":"levelo_inurba_marseille","lat":43.29277,"lon":5.40119,"is_reserved":false,"is_disabled":false,"rental_uris":{"android":"levelo://app?vid=9537ab1a-5c64-472d-88a3-b20baa240d63","ios":"levelo://app?vid=9537ab1a-5c64-472d-88a3-b20baa240d63"},"vehicle_type_id":"4","last_reported":1776797802,"current_range_meters":6800,"station_id":"ce4bh312rcd13ifvqdk0","pricing_plan_id":"cebpf4jnsgd1na2vs0mg"},{"bike_id":"1d70c6b4-5412-4cc3-ac3a-51c6f51ff5a1","system_id":"levelo_inurba_marseille","lat":43.308037,"lon":5.381495,"is_reserved":false,"is_disabled":false,"rental_uris":{"android":"levelo://app?vid=1d70c6b4-5412-4cc3-ac3a-51c6f51ff5a1","ios":"levelo://app?vid=1d70c6b4-5412-4cc3-ac3a-51c6f51ff5a1"},"vehicle_type_id":"4","last_reported":1776797802,"current_range_meters":6800,"station_id":"ce4bgt12rcd13ifvqce0","pricing_plan_id":"cebpf4jnsgd1na2vs0mg"},{"bike_id":"e9c1c731-1912-4153-abf3-120b800b8c67","system_id":"levelo_inurba_marseille","lat":43.27228,"lon":5.3918,"is_reserved":false,"is_disabled":true,"rental_uris":{"android":"levelo://app?vid=e9c1c731-1912-4153-abf3-120b800b8c67","ios":"levelo://app?vid=e9c1c731-1912-4153-abf3-120b800b8c67"},"vehicle_type_id":"4","last_reported":1776797802,"current_range_meters":6800,"station_id":"ce4bhhp2rcd13ifvqfm0","pricing_plan_id":"cebpf4jnsgd1na2vs0mg"},{"bike_id":"fec54d59-47d4-4ddb-8655-648e0f95cb70","system_id":"levelo_inurba_marseille","lat":43.23191,"lon":5.35564,"is_reserved":false,"is_disabled":false,"rental_uris":{"android":"levelo://app?vid=fec54d59-47d4-4ddb-8655-648e0f95cb70","ios":"levelo://app?vid=fec54d59-47d4-4ddb-8655-648e0f95cb70"},"vehicle_type_id":"4","last_reported":1776797802,"current_range_meters":6800,"station_id":"ce4bhu92rcd13ifvqi70","pricing_plan_id":"cebpf4jnsgd1na2vs0mg"},{"bike_id":"2d40a836-133e-4df4-8e94-64278280c4e2","system_id":"levelo_inurba_marseille","lat":43.28485,"lon":5.48387,"is_reserved":false,"is_disabled":false,"rental_uris":{"android":"levelo://app?vid=2d40a836-133e-4df4-8e94-64278280c4e2","ios":"levelo://app?vid=2d40a836-133e-4df4-8e94-64278280c4e2"},"vehicle_type_id":"4","last_reported":1776797802,"current_range_meters":6800,"station_id":"","pricing_plan_id":"cebpf4jnsgd1na2vs0mg"},{"bike_id":"4d7fde99-32b7-4f4e-bfeb-31d33fc69267","system_id":"levelo_inurba_marseille","lat":43.29265,"lon":5.36868,"is_reserved":false,"is_disabled":false,"rental_uris":{"android":"levelo://app?vid=4d7fde99-32b7-4f4e-bfeb-31d33fc69267","ios":"levelo://app?vid=4d7fde99-32b7-4f4e-bfeb-31d33fc69267"},"vehicle_type_id":"4","last_reported":1776797802,"current_range_meters":6800,"station_id":"ce4bhbp2rcd13ifvqesg","pricing_plan_id":"cebpf4jnsgd1na2vs0mg"},{"bike_id":"2bcb67aa-c714-4ae2-bc59-89125516e70d","system_id":"levelo_inurba_marseille","lat":43.28417,"lon":5.375032,"is_reserved":false,"is_disabled":false,"rental_uris":{"android":"levelo://app?vid=2bcb67aa-c714-4ae2-bc59-89125516e70d","ios":"levelo://app?vid=2bcb67aa-c714-4ae2-bc59-89125516e70d"},"vehicle_type_id":"4","last_reported":1776797802,"current_range_meters":6800,"station_id":"ce4bh412rcd13ifvqds0","pricing_plan_id":"cebpf4jnsgd1na2vs0mg"},{"bike_id":"3887a9d6-4069-4923-8506-8898186c9240","system_id":"levelo_inurba_marseille","lat":43.30327,"lon":5.40442,"is_reserved":false,"is_disabled":false,"rental_uris":{"android":"levelo://app?vid=3887a9d6-4069-4923-8506-8898186c9240","ios":"levelo://app?vid=3887a9d6-4069-4923-8506-8898186c9240"},"vehicle_type_id":"4","last_reported":1776797802,"current_range_meters":6800,"station_id":"ce4bh012rcd13ifvqd10","pricing_plan_id":"cebpf4jnsgd1na2vs0mg"},{"bike_id":"ca05ab80-c193-44b2-b0c5-102e65765f43","system_id":"levelo_inurba_marseille","lat":43.26548,"lon":5.37289,"is_reserved":false,"is_disabled":false,"rental_uris":{"android":"levelo://app?vid=ca05ab80-c193-44b2-b0c5-102e65765f43","ios":"levelo://app?vid=ca05ab80-c193-44b2-b0c5-102e65765f43"},"vehicle_type_id":"4","last_reported":1776797802,"current_range_meters":6800,"station_id":"ce4bhg12rcd13ifvqf70","pricing_plan_id":"cebpf4jnsgd1na2vs0mg"},{"bike_id":"2224c961-bce6-4c33-966e-f3361d1b2ab2","system_id":"levelo_inurba_marseille","lat":43.27505,"lon":5.41559,"is_reserved":false,"is_disabled":false,"rental_uris":{"android":"levelo://app?vid=2224c961-bce6-4c33-966e-f3361d1b2ab2","ios":"levelo://app?vid=2224c961-bce6-4c33-966e-f3361d1b2ab2"},"vehicle_type_id":"4","last_reported":1776797802,"current_range_meters":6800,"station_id":"st_d6im8g6chgec73a5pndg","pricing_plan_id":"cebpf4jnsgd1na2vs0mg"},{"bike_id":"f9e36f38-ef4d-44c9-9f31-a0f8b13d14ba","system_id":"levelo_inurba_marseille","lat":43.33151,"lon":5.37706,"is_reserved":false,"is_disabled":false,"rental_uris":{"android":"levelo://app?vid=f9e36f38-ef4d-44c9-9f31-a0f8b13d14ba","ios":"levelo://app?vid=f9e36f38-ef4d-44c9-9f31-a0f8b13d14ba"},"vehicle_type_id":"4","last_reported":1776797802,"current_range_meters":6800,"station_id":"st_d46cu089ee8s73dldbu0","pricing_plan_id":"cebpf4jnsgd1na2vs0mg"},{"bike_id":"1c4be4f7-0e02-4170-b75b-47a292a02690","system_id":"levelo_inurba_marseille","lat":43.2841,"lon":5.3499,"is_reserved":false,"is_disabled":false,"rental_uris":{"android":"levelo://app?vid=1c4be4f7-0e02-4170-b75b-47a292a02690","ios":"levelo://app?vid=1c4be4f7-0e02-4170-b75b-47a292a02690"},"vehicle_type_id":"4","last_reported":1776797802,"current_range_meters":6800,"station_id":"ce4bhbh2rcd13ifvqepg","pricing_plan_id":"cebpf4jnsgd1na2vs0mg"},{"bike_id":"7541d8f8-dbd4-4292-a385-5203cf740bd7","system_id":"levelo_inurba_marseille","lat":43.27088,"lon":5.36271,"is_reserved":false,"is_disabled":false,"rental_uris":{"android":"levelo://app?vid=7541d8f8-dbd4-4292-a385-5203cf740bd7","ios":"levelo://app?vid=7541d8f8-dbd4-4292-a385-5203cf740bd7"},"vehicle_type_id":"4","last_reported":1776797802,"current_range_meters":7200,"station_id":"","pricing_plan_id":"cebpf4jnsgd1na2vs0mg"},{"bike_id":"415e0658-223c-4fe0-abd1-f3287f2893c2","system_id":"levelo_inurba_marseille","lat":43.31913,"lon":5.36812,"is_reserved":false,"is_disabled":false,"rental_uris":{"android":"levelo://app?vid=415e0658-223c-4fe0-abd1-f3287f2893c2","ios":"levelo://app?vid=415e0658-223c-4fe0-abd1-f3287f2893c2"},"vehicle_type_id":"4","last_reported":1776797802,"current_range_meters":7200,"station_id":"st_d6o2h0d0559c73evc1b0","pricing_plan_id":"cebpf4jnsgd1na2vs0mg"},{"bike_id":"147ebe04-bf5f-4d97-a8ae-b04adf3d5699","system_id":"levelo_inurba_marseille","lat":43.29539,"lon":5.39018,"is_reserved":false,"is_disabled":false,"rental_uris":{"android":"levelo://app?vid=147ebe04-bf5f-4d97-a8ae-b04adf3d5699","ios":"levelo://app?vid=147ebe04-bf5f-4d97-a8ae-b04adf3d5699"},"vehicle_type_id":"4","last_reported":1776797802,"current_range_meters":7200,"station_id":"ce4bh3p2rcd13ifvqdp0","pricing_plan_id":"cebpf4jnsgd1na2vs0mg"},{"bike_id":"357c8a3f-22a7-437b-9400-0efde2fb9a38","system_id":"levelo_inurba_marseille","lat":43.27068,"lon":5.42292,"is_reserved":false,"is_disabled":false,"rental_uris":{"android":"levelo://app?vid=357c8a3f-22a7-437b-9400-0efde2fb9a38","ios":"levelo://app?vid=357c8a3f-22a7-437b-9400-0efde2fb9a38"},"vehicle_type_id":"4","last_reported":1776797802,"current_range_meters":7200,"station_id":"ce4bhk92rcd13ifvqgb0","pricing_plan_id":"cebpf4jnsgd1na2vs0mg"},{"bike_id":"4a4f8c1a-6cd1-40bb-813c-2cf949d2509e","system_id":"levelo_inurba_marseille","lat":43.29032,"lon":5.38635,"is_reserved":false,"is_disabled":false,"rental_uris":{"android":"levelo://app?vid=4a4f8c1a-6cd1-40bb-813c-2cf949d2509e","ios":"levelo://app?vid=4a4f8c1a-6cd1-40bb-813c-2cf949d2509e"},"vehicle_type_id":"4","last_reported":1776797802,"current_range_meters":7200,"station_id":"ce4bh4p2rcd13ifvqe0g","pricing_plan_id":"cebpf4jnsgd1na2vs0mg"},{"bike_id":"9fb54bca-ba88-4da0-9bed-a5b2efdfb47c","system_id":"levelo_inurba_marseille","lat":43.30307,"lon":5.36915,"is_reserved":false,"is_disabled":false,"rental_uris":{"android":"levelo://app?vid=9fb54bca-ba88-4da0-9bed-a5b2efdfb47c","ios":"levelo://app?vid=9fb54bca-ba88-4da0-9bed-a5b2efdfb47c"},"vehicle_type_id":"4","last_reported":1776797802,"current_range_meters":7200,"station_id":"ce4bgqh2rcd13ifvqc5g","pricing_plan_id":"cebpf4jnsgd1na2vs0mg"},{"bike_id":"afe6c9ff-8c7f-40d2-96bc-86354113b443","system_id":"levelo_inurba_marseille","lat":43.28481,"lon":5.48387,"is_reserved":false,"is_disabled":false,"rental_uris":{"android":"levelo://app?vid=afe6c9ff-8c7f-40d2-96bc-86354113b443","ios":"levelo://app?vid=afe6c9ff-8c7f-40d2-96bc-86354113b443"},"vehicle_type_id":"4","last_reported":1776797802,"current_range_meters":7200,"station_id":"","pricing_plan_id":"cebpf4jnsgd1na2vs0mg"},{"bike_id":"3f0206f9-78a3-4c84-a83e-b70637aac58e","system_id":"levelo_inurba_marseille","lat":43.28925,"lon":5.36668,"is_reserved":false,"is_disabled":false,"rental_uris":{"android":"levelo://app?vid=3f0206f9-78a3-4c84-a83e-b70637aac58e","ios":"levelo://app?vid=3f0206f9-78a3-4c84-a83e-b70637aac58e"},"vehicle_type_id":"4","last_reported":1776797802,"current_range_meters":7200,"station_id":"ce4bhap2rcd13ifvqek0","pricing_plan_id":"cebpf4jnsgd1na2vs0mg"},{"bike_id":"0e14c410-230c-415a-a4d6-6297dd0ac86f","system_id":"levelo_inurba_marseille","lat":43.29293,"lon":5.37466,"is_reserved":false,"is_disabled":false,"rental_uris":{"android":"levelo://app?vid=0e14c410-230c-415a-a4d6-6297dd0ac86f","ios":"levelo://app?vid=0e14c410-230c-415a-a4d6-6297dd0ac86f"},"vehicle_type_id":"4","last_reported":1776797802,"current_range_meters":7200,"station_id":"ce4bgi12rcd13ifvqb70","pricing_plan_id":"cebpf4jnsgd1na2vs0mg"},{"bike_id":"4dd90c3a-c53a-454b-ad3a-8e2561f63203","system_id":"levelo_inurba_marseille","lat":43.312301,"lon":5.36869,"is_reserved":false,"is_disabled":false,"rental_uris":{"android":"levelo://app?vid=4dd90c3a-c53a-454b-ad3a-8e2561f63203","ios":"levelo://app?vid=4dd90c3a-c53a-454b-ad3a-8e2561f63203"},"vehicle_type_id":"4","last_reported":1776797802,"current_range_meters":7200,"station_id":"","pricing_plan_id":"cebpf4jnsgd1na2vs0mg"},{"bike_id":"6941bf81-2b71-45da-86f8-ae002d5a69db","system_id":"levelo_inurba_marseille","lat":43.28064,"lon":5.36933,"is_reserved":false,"is_disabled":false,"rental_uris":{"android":"levelo://app?vid=6941bf81-2b71-45da-86f8-ae002d5a69db","ios":"levelo://app?vid=6941bf81-2b71-45da-86f8-ae002d5a69db"},"vehicle_type_id":"4","last_reported":1776797802,"current_range_meters":7200,"station_id":"ce4bha12rcd13ifvqef0","pricing_plan_id":"cebpf4jnsgd1na2vs0mg"},{"bike_id":"65dcfb8a-4c72-49de-a69e-9203c468c35c","system_id":"levelo_inurba_marseille","lat":43.29256,"lon":5.40904,"is_reserved":false,"is_disabled":false,"rental_uris":{"android":"levelo://app?vid=65dcfb8a-4c72-49de-a69e-9203c468c35c","ios":"levelo://app?vid=65dcfb8a-4c72-49de-a69e-9203c468c35c"},"vehicle_type_id":"4","last_reported":1776797802,"current_range_meters":7200,"station_id":"ce4bh192rcd13ifvqdc0","pricing_plan_id":"cebpf4jnsgd1na2vs0mg"},{"bike_id":"9972dd89-11d8-4025-b2cb-9379d0f72274","system_id":"levelo_inurba_marseille","lat":43.2835,"lon":5.38115,"is_reserved":false,"is_disabled":false,"rental_uris":{"android":"levelo://app?vid=9972dd89-11d8-4025-b2cb-9379d0f72274","ios":"levelo://app?vid=9972dd89-11d8-4025-b2cb-9379d0f72274"},"vehicle_type_id":"4","last_reported":1776797802,"current_range_meters":7200,"station_id":"ce4bh412rcd13ifvqdr0","pricing_plan_id":"cebpf4jnsgd1na2vs0mg"},{"bike_id":"26d1d059-a371-4f34-bdde-ff75ee859561","system_id":"levelo_inurba_marseille","lat":43.24396,"lon":5.37088,"is_reserved":false,"is_disabled":false,"rental_uris":{"android":"levelo://app?vid=26d1d059-a371-4f34-bdde-ff75ee859561","ios":"levelo://app?vid=26d1d059-a371-4f34-bdde-ff75ee859561"},"vehicle_type_id":"4","last_reported":1776797802,"current_range_meters":7200,"station_id":"ce4bhhh2rcd13ifvqfk0","pricing_plan_id":"cebpf4jnsgd1na2vs0mg"},{"bike_id":"17a218ae-0cbc-4023-80f0-9ffddf1324e3","system_id":"levelo_inurba_marseille","lat":43.260356,"lon":5.397998,"is_reserved":false,"is_disabled":false,"rental_uris":{"android":"levelo://app?vid=17a218ae-0cbc-4023-80f0-9ffddf1324e3","ios":"levelo://app?vid=17a218ae-0cbc-4023-80f0-9ffddf1324e3"},"vehicle_type_id":"4","last_reported":1776797802,"current_range_meters":8000,"station_id":"","pricing_plan_id":"cebpf4jnsgd1na2vs0mg"},{"bike_id":"44e696fa-fa54-42a6-be08-1bab5286dc01","system_id":"levelo_inurba_marseille","lat":43.28399,"lon":5.3501,"is_reserved":false,"is_disabled":false,"rental_uris":{"android":"levelo://app?vid=44e696fa-fa54-42a6-be08-1bab5286dc01","ios":"levelo://app?vid=44e696fa-fa54-42a6-be08-1bab5286dc01"},"vehicle_type_id":"4","last_reported":1776797802,"current_range_meters":8000,"station_id":"ce4bhbh2rcd13ifvqepg","pricing_plan_id":"cebpf4jnsgd1na2vs0mg"},{"bike_id":"909929ad-6150-4e90-9010-fc5021f6e58c","system_id":"levelo_inurba_marseille","lat":43.27212,"lon":5.40097,"is_reserved":false,"is_disabled":false,"rental_uris":{"android":"levelo://app?vid=909929ad-6150-4e90-9010-fc5021f6e58c","ios":"levelo://app?vid=909929ad-6150-4e90-9010-fc5021f6e58c"},"vehicle_type_id":"4","last_reported":1776797802,"current_range_meters":8000,"station_id":"","pricing_plan_id":"cebpf4jnsgd1na2vs0mg"},{"bike_id":"983191f1-3164-47ba-8628-38d887c1942f","system_id":"levelo_inurba_marseille","lat":43.29815,"lon":5.3806,"is_reserved":false,"is_disabled":false,"rental_uris":{"android":"levelo://app?vid=983191f1-3164-47ba-8628-38d887c1942f","ios":"levelo://app?vid=983191f1-3164-47ba-8628-38d887c1942f"},"vehicle_type_id":"4","last_reported":1776797802,"current_range_meters":8000,"station_id":"ce4bgip2rcd13ifvqbb0","pricing_plan_id":"cebpf4jnsgd1na2vs0mg"},{"bike_id":"d420143e-37e9-4bbd-a3bb-322c4c4ad02e","system_id":"levelo_inurba_marseille","lat":43.2795,"lon":5.38705,"is_reserved":false,"is_disabled":false,"rental_uris":{"android":"levelo://app?vid=d420143e-37e9-4bbd-a3bb-322c4c4ad02e","ios":"levelo://app?vid=d420143e-37e9-4bbd-a3bb-322c4c4ad02e"},"vehicle_type_id":"4","last_reported":1776797802,"current_range_meters":8000,"station_id":"ce4bhg12rcd13ifvqf80","pricing_plan_id":"cebpf4jnsgd1na2vs0mg"},{"bike_id":"53398df8-835b-4ed2-bf08-039bd71fda25","system_id":"levelo_inurba_marseille","lat":43.25928,"lon":5.38592,"is_reserved":false,"is_disabled":false,"rental_uris":{"android":"levelo://app?vid=53398df8-835b-4ed2-bf08-039bd71fda25","ios":"levelo://app?vid=53398df8-835b-4ed2-bf08-039bd71fda25"},"vehicle_type_id":"4","last_reported":1776797802,"current_range_meters":8000,"station_id":"","pricing_plan_id":"cebpf4jnsgd1na2vs0mg"},{"bike_id":"04d9f990-ead5-466c-adb0-472dbaea3d8d","system_id":"levelo_inurba_marseille","lat":43.26805,"lon":5.40267,"is_reserved":false,"is_disabled":false,"rental_uris":{"android":"levelo://app?vid=04d9f990-ead5-466c-adb0-472dbaea3d8d","ios":"levelo://app?vid=04d9f990-ead5-466c-adb0-472dbaea3d8d"},"vehicle_type_id":"4","last_reported":1776797802,"current_range_meters":8000,"station_id":"ce501612rcd8frsf0b60","pricing_plan_id":"cebpf4jnsgd1na2vs0mg"},{"bike_id":"7093217a-0ae5-456a-b1b2-3ed7943fc22c","system_id":"levelo_inurba_marseille","lat":43.2902,"lon":5.3815,"is_reserved":false,"is_disabled":false,"rental_uris":{"android":"levelo://app?vid=7093217a-0ae5-456a-b1b2-3ed7943fc22c","ios":"levelo://app?vid=7093217a-0ae5-456a-b1b2-3ed7943fc22c"},"vehicle_type_id":"4","last_reported":1776797802,"current_range_meters":8000,"station_id":"ce4bh4p2rcd13ifvqe1g","pricing_plan_id":"cebpf4jnsgd1na2vs0mg"},{"bike_id":"647e3e16-0339-48a9-95dc-d70980bb006a","system_id":"levelo_inurba_marseille","lat":43.30445,"lon":5.39737,"is_reserved":false,"is_disabled":false,"rental_uris":{"android":"levelo://app?vid=647e3e16-0339-48a9-95dc-d70980bb006a","ios":"levelo://app?vid=647e3e16-0339-48a9-95dc-d70980bb006a"},"vehicle_type_id":"4","last_reported":1776797802,"current_range_meters":8000,"station_id":"ce4bh092rcd13ifvqd20","pricing_plan_id":"cebpf4jnsgd1na2vs0mg"},{"bike_id":"0357d1c6-d080-4ed7-b154-319624c20433","system_id":"levelo_inurba_marseille","lat":43.23389,"lon":5.41253,"is_reserved":false,"is_disabled":false,"rental_uris":{"android":"levelo://app?vid=0357d1c6-d080-4ed7-b154-319624c20433","ios":"levelo://app?vid=0357d1c6-d080-4ed7-b154-319624c20433"},"vehicle_type_id":"4","last_reported":1776797802,"current_range_meters":8000,"station_id":"st_d75pvndhf9lc73cqq3eg","pricing_plan_id":"cebpf4jnsgd1na2vs0mg"},{"bike_id":"d9be86bb-6c4e-4c05-bc60-e02431cbb916","system_id":"levelo_inurba_marseille","lat":43.31904,"lon":5.36771,"is_reserved":false,"is_disabled":false,"rental_uris":{"android":"levelo://app?vid=d9be86bb-6c4e-4c05-bc60-e02431cbb916","ios":"levelo://app?vid=d9be86bb-6c4e-4c05-bc60-e02431cbb916"},"vehicle_type_id":"4","last_reported":1776797802,"current_range_meters":8000,"station_id":"st_d6o2h0d0559c73evc1b0","pricing_plan_id":"cebpf4jnsgd1na2vs0mg"},{"bike_id":"90cfbada-4951-4c08-955f-ef7b95781ecd","system_id":"levelo_inurba_marseille","lat":43.288023,"lon":5.376601,"is_reserved":false,"is_disabled":false,"rental_uris":{"android":"levelo://app?vid=90cfbada-4951-4c08-955f-ef7b95781ecd","ios":"levelo://app?vid=90cfbada-4951-4c08-955f-ef7b95781ecd"},"vehicle_type_id":"4","last_reported":1776797802,"current_range_meters":8000,"station_id":"ce4bh2p2rcd13ifvqdi0","pricing_plan_id":"cebpf4jnsgd1na2vs0mg"},{"bike_id":"477578aa-461b-42d7-a65f-a91e7dbe7434","system_id":"levelo_inurba_marseille","lat":43.28889,"lon":5.42519,"is_reserved":false,"is_disabled":false,"rental_uris":{"android":"levelo://app?vid=477578aa-461b-42d7-a65f-a91e7dbe7434","ios":"levelo://app?vid=477578aa-461b-42d7-a65f-a91e7dbe7434"},"vehicle_type_id":"4","last_reported":1776797802,"current_range_meters":8000,"station_id":"st_d3b462108ojc7389ooeg","pricing_plan_id":"cebpf4jnsgd1na2vs0mg"},{"bike_id":"a511edf3-b3d3-43e5-9e77-baa7c129208e","system_id":"levelo_inurba_marseille","lat":43.28412,"lon":5.34976,"is_reserved":false,"is_disabled":false,"rental_uris":{"android":"levelo://app?vid=a511edf3-b3d3-43e5-9e77-baa7c129208e","ios":"levelo://app?vid=a511edf3-b3d3-43e5-9e77-baa7c129208e"},"vehicle_type_id":"4","last_reported":1776797802,"current_range_meters":8000,"station_id":"ce4bhbh2rcd13ifvqepg","pricing_plan_id":"cebpf4jnsgd1na2vs0mg"},{"bike_id":"05c54d64-dd21-4f2a-8588-91ef66cf846d","system_id":"levelo_inurba_marseille","lat":43.25515,"lon":5.37658,"is_reserved":false,"is_disabled":false,"rental_uris":{"android":"levelo://app?vid=05c54d64-dd21-4f2a-8588-91ef66cf846d","ios":"levelo://app?vid=05c54d64-dd21-4f2a-8588-91ef66cf846d"},"vehicle_type_id":"4","last_reported":1776797802,"current_range_meters":8400,"station_id":"ce4bhh12rcd13ifvqff0","pricing_plan_id":"cebpf4jnsgd1na2vs0mg"},{"bike_id":"f36b765d-0d6f-4a5f-9f6c-3cb9e1935dc2","system_id":"levelo_inurba_marseille","lat":43.29822,"lon":5.37712,"is_reserved":false,"is_disabled":false,"rental_uris":{"android":"levelo://app?vid=f36b765d-0d6f-4a5f-9f6c-3cb9e1935dc2","ios":"levelo://app?vid=f36b765d-0d6f-4a5f-9f6c-3cb9e1935dc2"},"vehicle_type_id":"4","last_reported":1776797802,"current_range_meters":8400,"station_id":"","pricing_plan_id":"cebpf4jnsgd1na2vs0mg"},{"bike_id":"37eae820-b39c-4a10-b9f1-bbf6af567e33","system_id":"levelo_inurba_marseille","lat":43.29605,"lon":5.37722,"is_reserved":false,"is_disabled":false,"rental_uris":{"android":"levelo://app?vid=37eae820-b39c-4a10-b9f1-bbf6af567e33","ios":"levelo://app?vid=37eae820-b39c-4a10-b9f1-bbf6af567e33"},"vehicle_type_id":"4","last_reported":1776797802,"current_range_meters":8400,"station_id":"ce4bgi92rcd13ifvqb90","pricing_plan_id":"cebpf4jnsgd1na2vs0mg"},{"bike_id":"ae1a0ce0-3e2e-4cf2-b858-405a12aeabc1","system_id":"levelo_inurba_marseille","lat":43.27072,"lon":5.423,"is_reserved":false,"is_disabled":false,"rental_uris":{"android":"levelo://app?vid=ae1a0ce0-3e2e-4cf2-b858-405a12aeabc1","ios":"levelo://app?vid=ae1a0ce0-3e2e-4cf2-b858-405a12aeabc1"},"vehicle_type_id":"4","last_reported":1776797802,"current_range_meters":8400,"station_id":"ce4bhk92rcd13ifvqgb0","pricing_plan_id":"cebpf4jnsgd1na2vs0mg"},{"bike_id":"a17722a5-0933-4213-98dd-37d3e07432f2","system_id":"levelo_inurba_marseille","lat":43.28705,"lon":5.46678,"is_reserved":false,"is_disabled":false,"rental_uris":{"android":"levelo://app?vid=a17722a5-0933-4213-98dd-37d3e07432f2","ios":"levelo://app?vid=a17722a5-0933-4213-98dd-37d3e07432f2"},"vehicle_type_id":"4","last_reported":1776797802,"current_range_meters":8400,"station_id":"st_d6tc3vkotcvc738tfjhg","pricing_plan_id":"cebpf4jnsgd1na2vs0mg"},{"bike_id":"88548db5-31fa-4782-9b8b-637558fcc147","system_id":"levelo_inurba_marseille","lat":43.29517,"lon":5.39406,"is_reserved":false,"is_disabled":false,"rental_uris":{"android":"levelo://app?vid=88548db5-31fa-4782-9b8b-637558fcc147","ios":"levelo://app?vid=88548db5-31fa-4782-9b8b-637558fcc147"},"vehicle_type_id":"4","last_reported":1776797802,"current_range_meters":8400,"station_id":"ce4bh292rcd13ifvqdf0","pricing_plan_id":"cebpf4jnsgd1na2vs0mg"},{"bike_id":"0cf9c7d1-4ff6-4885-afdb-1945ed4e0993","system_id":"levelo_inurba_marseille","lat":43.29646,"lon":5.40617,"is_reserved":false,"is_disabled":true,"rental_uris":{"android":"levelo://app?vid=0cf9c7d1-4ff6-4885-afdb-1945ed4e0993","ios":"levelo://app?vid=0cf9c7d1-4ff6-4885-afdb-1945ed4e0993"},"vehicle_type_id":"4","last_reported":1776797802,"current_range_meters":8400,"station_id":"ce4bh0h2rcd13ifvqd60","pricing_plan_id":"cebpf4jnsgd1na2vs0mg"},{"bike_id":"350e7442-23d7-4e56-8901-abbc70fd101f","system_id":"levelo_inurba_marseille","lat":43.31162,"lon":5.38718,"is_reserved":false,"is_disabled":false,"rental_uris":{"android":"levelo://app?vid=350e7442-23d7-4e56-8901-abbc70fd101f","ios":"levelo://app?vid=350e7442-23d7-4e56-8901-abbc70fd101f"},"vehicle_type_id":"4","last_reported":1776797802,"current_range_meters":8400,"station_id":"ce4bgv12rcd13ifvqcp0","pricing_plan_id":"cebpf4jnsgd1na2vs0mg"},{"bike_id":"3448f0f4-d448-4b78-8559-0a980538ebbf","system_id":"levelo_inurba_marseille","lat":43.29524,"lon":5.43277,"is_reserved":false,"is_disabled":false,"rental_uris":{"android":"levelo://app?vid=3448f0f4-d448-4b78-8559-0a980538ebbf","ios":"levelo://app?vid=3448f0f4-d448-4b78-8559-0a980538ebbf"},"vehicle_type_id":"4","last_reported":1776797802,"current_range_meters":8400,"station_id":"st_d3j5ugp08ojc73fj9d10","pricing_plan_id":"cebpf4jnsgd1na2vs0mg"},{"bike_id":"a2e88054-dd45-471a-9705-a8a558e47e23","system_id":"levelo_inurba_marseille","lat":43.29288,"lon":5.37504,"is_reserved":false,"is_disabled":false,"rental_uris":{"android":"levelo://app?vid=a2e88054-dd45-471a-9705-a8a558e47e23","ios":"levelo://app?vid=a2e88054-dd45-471a-9705-a8a558e47e23"},"vehicle_type_id":"4","last_reported":1776797802,"current_range_meters":8400,"station_id":"ce4bgi12rcd13ifvqb70","pricing_plan_id":"cebpf4jnsgd1na2vs0mg"},{"bike_id":"5dca9a8e-83e7-4e4f-baef-b39340f4d785","system_id":"levelo_inurba_marseille","lat":43.29566,"lon":5.39971,"is_reserved":false,"is_disabled":true,"rental_uris":{"android":"levelo://app?vid=5dca9a8e-83e7-4e4f-baef-b39340f4d785","ios":"levelo://app?vid=5dca9a8e-83e7-4e4f-baef-b39340f4d785"},"vehicle_type_id":"4","last_reported":1776797802,"current_range_meters":8400,"station_id":"ce4bh312rcd13ifvqdj0","pricing_plan_id":"cebpf4jnsgd1na2vs0mg"},{"bike_id":"c1565614-8842-49d4-8c05-d8b5c7d3ca7b","system_id":"levelo_inurba_marseille","lat":43.29265,"lon":5.38459,"is_reserved":false,"is_disabled":false,"rental_uris":{"android":"levelo://app?vid=c1565614-8842-49d4-8c05-d8b5c7d3ca7b","ios":"levelo://app?vid=c1565614-8842-49d4-8c05-d8b5c7d3ca7b"},"vehicle_type_id":"4","last_reported":1776797802,"current_range_meters":8400,"station_id":"ce4bh692rcd13ifvqea0","pricing_plan_id":"cebpf4jnsgd1na2vs0mg"},{"bike_id":"5b31ba61-f229-47dd-99bf-d4aac0400a73","system_id":"levelo_inurba_marseille","lat":43.28407,"lon":5.35007,"is_reserved":false,"is_disabled":false,"rental_uris":{"android":"levelo://app?vid=5b31ba61-f229-47dd-99bf-d4aac0400a73","ios":"levelo://app?vid=5b31ba61-f229-47dd-99bf-d4aac0400a73"},"vehicle_type_id":"4","last_reported":1776797802,"current_range_meters":8400,"station_id":"ce4bhbh2rcd13ifvqepg","pricing_plan_id":"cebpf4jnsgd1na2vs0mg"},{"bike_id":"61b3aea9-0113-4ac0-b8e1-3dc8d194446c","system_id":"levelo_inurba_marseille","lat":43.30097,"lon":5.43115,"is_reserved":false,"is_disabled":true,"rental_uris":{"android":"levelo://app?vid=61b3aea9-0113-4ac0-b8e1-3dc8d194446c","ios":"levelo://app?vid=61b3aea9-0113-4ac0-b8e1-3dc8d194446c"},"vehicle_type_id":"4","last_reported":1776797802,"current_range_meters":8400,"station_id":"st_d3js3co5814s73ftftug","pricing_plan_id":"cebpf4jnsgd1na2vs0mg"},{"bike_id":"9e704501-726f-4e09-9d2c-e555c5b70ee5","system_id":"levelo_inurba_marseille","lat":43.23884,"lon":5.37457,"is_reserved":false,"is_disabled":false,"rental_uris":{"android":"levelo://app?vid=9e704501-726f-4e09-9d2c-e555c5b70ee5","ios":"levelo://app?vid=9e704501-726f-4e09-9d2c-e555c5b70ee5"},"vehicle_type_id":"4","last_reported":1776797802,"current_range_meters":8800,"station_id":"st_d6sm7csbq4hs73f8fpjg","pricing_plan_id":"cebpf4jnsgd1na2vs0mg"},{"bike_id":"b19ee41d-de0d-4da9-8417-c526d9f3dfa4","system_id":"levelo_inurba_marseille","lat":43.29242,"lon":5.40909,"is_reserved":false,"is_disabled":false,"rental_uris":{"android":"levelo://app?vid=b19ee41d-de0d-4da9-8417-c526d9f3dfa4","ios":"levelo://app?vid=b19ee41d-de0d-4da9-8417-c526d9f3dfa4"},"vehicle_type_id":"4","last_reported":1776797802,"current_range_meters":8800,"station_id":"ce4bh192rcd13ifvqdc0","pricing_plan_id":"cebpf4jnsgd1na2vs0mg"},{"bike_id":"8c1d5b50-b708-48b1-9c7f-3b31486b57b4","system_id":"levelo_inurba_marseille","lat":43.2926,"lon":5.38432,"is_reserved":false,"is_disabled":false,"rental_uris":{"android":"levelo://app?vid=8c1d5b50-b708-48b1-9c7f-3b31486b57b4","ios":"levelo://app?vid=8c1d5b50-b708-48b1-9c7f-3b31486b57b4"},"vehicle_type_id":"4","last_reported":1776797802,"current_range_meters":8800,"station_id":"ce4bh692rcd13ifvqea0","pricing_plan_id":"cebpf4jnsgd1na2vs0mg"},{"bike_id":"93ffcb54-2a39-4a97-ae96-eee3744a5267","system_id":"levelo_inurba_marseille","lat":43.30295,"lon":5.36912,"is_reserved":false,"is_disabled":false,"rental_uris":{"android":"levelo://app?vid=93ffcb54-2a39-4a97-ae96-eee3744a5267","ios":"levelo://app?vid=93ffcb54-2a39-4a97-ae96-eee3744a5267"},"vehicle_type_id":"4","last_reported":1776797802,"current_range_meters":8800,"station_id":"ce4bgqh2rcd13ifvqc5g","pricing_plan_id":"cebpf4jnsgd1na2vs0mg"},{"bike_id":"156a9278-c7f8-442d-9b54-2a52d275e0c5","system_id":"levelo_inurba_marseille","lat":43.28612,"lon":5.35079,"is_reserved":false,"is_disabled":true,"rental_uris":{"android":"levelo://app?vid=156a9278-c7f8-442d-9b54-2a52d275e0c5","ios":"levelo://app?vid=156a9278-c7f8-442d-9b54-2a52d275e0c5"},"vehicle_type_id":"4","last_reported":1776797802,"current_range_meters":8800,"station_id":"ce4bhch2rcd13ifvqeug","pricing_plan_id":"cebpf4jnsgd1na2vs0mg"},{"bike_id":"0cfb2b68-bee7-45a9-b197-4342c6f62233","system_id":"levelo_inurba_marseille","lat":43.28426,"lon":5.34929,"is_reserved":false,"is_disabled":false,"rental_uris":{"android":"levelo://app?vid=0cfb2b68-bee7-45a9-b197-4342c6f62233","ios":"levelo://app?vid=0cfb2b68-bee7-45a9-b197-4342c6f62233"},"vehicle_type_id":"4","last_reported":1776797802,"current_range_meters":8800,"station_id":"ce4bhbh2rcd13ifvqepg","pricing_plan_id":"cebpf4jnsgd1na2vs0mg"},{"bike_id":"ac881409-e7c1-4dc7-868f-5470aa726fd2","system_id":"levelo_inurba_marseille","lat":43.29839,"lon":5.44024,"is_reserved":false,"is_disabled":false,"rental_uris":{"android":"levelo://app?vid=ac881409-e7c1-4dc7-868f-5470aa726fd2","ios":"levelo://app?vid=ac881409-e7c1-4dc7-868f-5470aa726fd2"},"vehicle_type_id":"4","last_reported":1776797802,"current_range_meters":8800,"station_id":"","pricing_plan_id":"cebpf4jnsgd1na2vs0mg"},{"bike_id":"1bbae585-0df4-45af-a376-f51de330aec2","system_id":"levelo_inurba_marseille","lat":43.29781,"lon":5.38088,"is_reserved":false,"is_disabled":false,"rental_uris":{"android":"levelo://app?vid=1bbae585-0df4-45af-a376-f51de330aec2","ios":"levelo://app?vid=1bbae585-0df4-45af-a376-f51de330aec2"},"vehicle_type_id":"4","last_reported":1776797802,"current_range_meters":8800,"station_id":"ce4bgip2rcd13ifvqbb0","pricing_plan_id":"cebpf4jnsgd1na2vs0mg"},{"bike_id":"9b5f530a-feb3-40f8-b325-17ef686ceeee","system_id":"levelo_inurba_marseille","lat":43.29115,"lon":5.38549,"is_reserved":false,"is_disabled":false,"rental_uris":{"android":"levelo://app?vid=9b5f530a-feb3-40f8-b325-17ef686ceeee","ios":"levelo://app?vid=9b5f530a-feb3-40f8-b325-17ef686ceeee"},"vehicle_type_id":"4","last_reported":1776797802,"current_range_meters":8800,"station_id":"","pricing_plan_id":"cebpf4jnsgd1na2vs0mg"},{"bike_id":"d89766e2-040e-4a7d-8414-766bcdb241b5","system_id":"levelo_inurba_marseille","lat":43.29264,"lon":5.38438,"is_reserved":false,"is_disabled":false,"rental_uris":{"android":"levelo://app?vid=d89766e2-040e-4a7d-8414-766bcdb241b5","ios":"levelo://app?vid=d89766e2-040e-4a7d-8414-766bcdb241b5"},"vehicle_type_id":"4","last_reported":1776797802,"current_range_meters":8800,"station_id":"ce4bh692rcd13ifvqea0","pricing_plan_id":"cebpf4jnsgd1na2vs0mg"},{"bike_id":"eb1d624f-9b03-428e-8a8e-2ca83305645a","system_id":"levelo_inurba_marseille","lat":43.28947,"lon":5.39627,"is_reserved":false,"is_disabled":false,"rental_uris":{"android":"levelo://app?vid=eb1d624f-9b03-428e-8a8e-2ca83305645a","ios":"levelo://app?vid=eb1d624f-9b03-428e-8a8e-2ca83305645a"},"vehicle_type_id":"4","last_reported":1776797802,"current_range_meters":8800,"station_id":"ce4bh3h2rcd13ifvqdn0","pricing_plan_id":"cebpf4jnsgd1na2vs0mg"},{"bike_id":"089ce68d-5b80-4cb6-9164-e787cb376da9","system_id":"levelo_inurba_marseille","lat":43.24652,"lon":5.38178,"is_reserved":false,"is_disabled":false,"rental_uris":{"android":"levelo://app?vid=089ce68d-5b80-4cb6-9164-e787cb376da9","ios":"levelo://app?vid=089ce68d-5b80-4cb6-9164-e787cb376da9"},"vehicle_type_id":"4","last_reported":1776797802,"current_range_meters":8800,"station_id":"ce4bhih2rcd13ifvqfr0","pricing_plan_id":"cebpf4jnsgd1na2vs0mg"},{"bike_id":"d520ecbf-f752-4353-93a9-c32ae62ed880","system_id":"levelo_inurba_marseille","lat":43.28075,"lon":5.39664,"is_reserved":false,"is_disabled":false,"rental_uris":{"android":"levelo://app?vid=d520ecbf-f752-4353-93a9-c32ae62ed880","ios":"levelo://app?vid=d520ecbf-f752-4353-93a9-c32ae62ed880"},"vehicle_type_id":"4","last_reported":1776797802,"current_range_meters":8800,"station_id":"ce4bho12rcd13ifvqh2g","pricing_plan_id":"cebpf4jnsgd1na2vs0mg"},{"bike_id":"beafb519-18ba-43f5-901e-4d2a35f80af8","system_id":"levelo_inurba_marseille","lat":43.24398,"lon":5.37066,"is_reserved":false,"is_disabled":false,"rental_uris":{"android":"levelo://app?vid=beafb519-18ba-43f5-901e-4d2a35f80af8","ios":"levelo://app?vid=beafb519-18ba-43f5-901e-4d2a35f80af8"},"vehicle_type_id":"4","last_reported":1776797802,"current_range_meters":8800,"station_id":"ce4bhhh2rcd13ifvqfk0","pricing_plan_id":"cebpf4jnsgd1na2vs0mg"},{"bike_id":"92f0d726-8ad1-42c8-b7a0-ddde28d30f31","system_id":"levelo_inurba_marseille","lat":43.29519,"lon":5.38547,"is_reserved":false,"is_disabled":false,"rental_uris":{"android":"levelo://app?vid=92f0d726-8ad1-42c8-b7a0-ddde28d30f31","ios":"levelo://app?vid=92f0d726-8ad1-42c8-b7a0-ddde28d30f31"},"vehicle_type_id":"4","last_reported":1776797802,"current_range_meters":8800,"station_id":"ce4bgih2rcd13ifvqba0","pricing_plan_id":"cebpf4jnsgd1na2vs0mg"},{"bike_id":"61f8be5d-6036-479b-9399-7887b28b0a3d","system_id":"levelo_inurba_marseille","lat":43.31324,"lon":5.39693,"is_reserved":false,"is_disabled":false,"rental_uris":{"android":"levelo://app?vid=61f8be5d-6036-479b-9399-7887b28b0a3d","ios":"levelo://app?vid=61f8be5d-6036-479b-9399-7887b28b0a3d"},"vehicle_type_id":"4","last_reported":1776797802,"current_range_meters":8800,"station_id":"ce4bgvp2rcd13ifvqcu0","pricing_plan_id":"cebpf4jnsgd1na2vs0mg"},{"bike_id":"468b098b-8742-43b6-94e4-77df021ec20c","system_id":"levelo_inurba_marseille","lat":43.30732,"lon":5.42451,"is_reserved":false,"is_disabled":false,"rental_uris":{"android":"levelo://app?vid=468b098b-8742-43b6-94e4-77df021ec20c","ios":"levelo://app?vid=468b098b-8742-43b6-94e4-77df021ec20c"},"vehicle_type_id":"4","last_reported":1776797802,"current_range_meters":8800,"station_id":"st_cvj6ca6bvosntc0bfgr0","pricing_plan_id":"cebpf4jnsgd1na2vs0mg"},{"bike_id":"a5932d33-7fe4-4ab5-ab73-558a4a420627","system_id":"levelo_inurba_marseille","lat":43.24464,"lon":5.4006,"is_reserved":false,"is_disabled":false,"rental_uris":{"android":"levelo://app?vid=a5932d33-7fe4-4ab5-ab73-558a4a420627","ios":"levelo://app?vid=a5932d33-7fe4-4ab5-ab73-558a4a420627"},"vehicle_type_id":"4","last_reported":1776797802,"current_range_meters":8800,"station_id":"","pricing_plan_id":"cebpf4jnsgd1na2vs0mg"},{"bike_id":"a6f6cd1a-1b40-47f1-8749-4f4af08703bb","system_id":"levelo_inurba_marseille","lat":43.29369,"lon":5.37853,"is_reserved":false,"is_disabled":false,"rental_uris":{"android":"levelo://app?vid=a6f6cd1a-1b40-47f1-8749-4f4af08703bb","ios":"levelo://app?vid=a6f6cd1a-1b40-47f1-8749-4f4af08703bb"},"vehicle_type_id":"4","last_reported":1776797802,"current_range_meters":8800,"station_id":"ce4bgjh2rcd13ifvqbf0","pricing_plan_id":"cebpf4jnsgd1na2vs0mg"},{"bike_id":"1b1a72ca-91bc-4bc4-a003-afbb5b51ce50","system_id":"levelo_inurba_marseille","lat":43.31219,"lon":5.36859,"is_reserved":false,"is_disabled":false,"rental_uris":{"android":"levelo://app?vid=1b1a72ca-91bc-4bc4-a003-afbb5b51ce50","ios":"levelo://app?vid=1b1a72ca-91bc-4bc4-a003-afbb5b51ce50"},"vehicle_type_id":"4","last_reported":1776797802,"current_range_meters":8800,"station_id":"ce4bgl92rcd13ifvqbq0","pricing_plan_id":"cebpf4jnsgd1na2vs0mg"},{"bike_id":"5f8cac6a-cc5c-40e0-a63b-ce6c2fc4bbf4","system_id":"levelo_inurba_marseille","lat":43.26801,"lon":5.40282,"is_reserved":false,"is_disabled":false,"rental_uris":{"android":"levelo://app?vid=5f8cac6a-cc5c-40e0-a63b-ce6c2fc4bbf4","ios":"levelo://app?vid=5f8cac6a-cc5c-40e0-a63b-ce6c2fc4bbf4"},"vehicle_type_id":"4","last_reported":1776797802,"current_range_meters":8800,"station_id":"ce501612rcd8frsf0b60","pricing_plan_id":"cebpf4jnsgd1na2vs0mg"},{"bike_id":"1a223201-502c-4ebf-b329-9a8b77fd9946","system_id":"levelo_inurba_marseille","lat":43.279087,"lon":5.410258,"is_reserved":false,"is_disabled":false,"rental_uris":{"android":"levelo://app?vid=1a223201-502c-4ebf-b329-9a8b77fd9946","ios":"levelo://app?vid=1a223201-502c-4ebf-b329-9a8b77fd9946"},"vehicle_type_id":"4","last_reported":1776797802,"current_range_meters":9200,"station_id":"ce4bhnp2rcd13ifvqh0g","pricing_plan_id":"cebpf4jnsgd1na2vs0mg"},{"bike_id":"32023100-5ce8-4637-ad41-206e633c27ce","system_id":"levelo_inurba_marseille","lat":43.24796,"lon":5.37446,"is_reserved":false,"is_disabled":true,"rental_uris":{"android":"levelo://app?vid=32023100-5ce8-4637-ad41-206e633c27ce","ios":"levelo://app?vid=32023100-5ce8-4637-ad41-206e633c27ce"},"vehicle_type_id":"4","last_reported":1776797802,"current_range_meters":9200,"station_id":"ce4bhgh2rcd13ifvqfb0","pricing_plan_id":"cebpf4jnsgd1na2vs0mg"},{"bike_id":"a4da8b9d-c37b-4b17-b85e-0e587a2121b6","system_id":"levelo_inurba_marseille","lat":43.28072,"lon":5.39655,"is_reserved":false,"is_disabled":false,"rental_uris":{"android":"levelo://app?vid=a4da8b9d-c37b-4b17-b85e-0e587a2121b6","ios":"levelo://app?vid=a4da8b9d-c37b-4b17-b85e-0e587a2121b6"},"vehicle_type_id":"4","last_reported":1776797802,"current_range_meters":9200,"station_id":"ce4bho12rcd13ifvqh2g","pricing_plan_id":"cebpf4jnsgd1na2vs0mg"},{"bike_id":"fc83597b-c92a-4d6b-9ec3-85cccb5b70a7","system_id":"levelo_inurba_marseille","lat":43.31953,"lon":5.36809,"is_reserved":false,"is_disabled":false,"rental_uris":{"android":"levelo://app?vid=fc83597b-c92a-4d6b-9ec3-85cccb5b70a7","ios":"levelo://app?vid=fc83597b-c92a-4d6b-9ec3-85cccb5b70a7"},"vehicle_type_id":"4","last_reported":1776797802,"current_range_meters":9200,"station_id":"","pricing_plan_id":"cebpf4jnsgd1na2vs0mg"},{"bike_id":"04257b95-4499-46e1-a4e3-88ab526291ba","system_id":"levelo_inurba_marseille","lat":43.28477,"lon":5.48382,"is_reserved":false,"is_disabled":false,"rental_uris":{"android":"levelo://app?vid=04257b95-4499-46e1-a4e3-88ab526291ba","ios":"levelo://app?vid=04257b95-4499-46e1-a4e3-88ab526291ba"},"vehicle_type_id":"4","last_reported":1776797802,"current_range_meters":9200,"station_id":"st_d3svhcjqgbts73a3dn0g","pricing_plan_id":"cebpf4jnsgd1na2vs0mg"},{"bike_id":"5f2a025a-0e6c-4d03-8502-73ba5136b86b","system_id":"levelo_inurba_marseille","lat":43.28427,"lon":5.34975,"is_reserved":false,"is_disabled":false,"rental_uris":{"android":"levelo://app?vid=5f2a025a-0e6c-4d03-8502-73ba5136b86b","ios":"levelo://app?vid=5f2a025a-0e6c-4d03-8502-73ba5136b86b"},"vehicle_type_id":"4","last_reported":1776797802,"current_range_meters":9200,"station_id":"ce4bhbh2rcd13ifvqepg","pricing_plan_id":"cebpf4jnsgd1na2vs0mg"},{"bike_id":"3e44af47-15f1-4eab-8dc7-82170c179e57","system_id":"levelo_inurba_marseille","lat":43.28371,"lon":5.35006,"is_reserved":false,"is_disabled":false,"rental_uris":{"android":"levelo://app?vid=3e44af47-15f1-4eab-8dc7-82170c179e57","ios":"levelo://app?vid=3e44af47-15f1-4eab-8dc7-82170c179e57"},"vehicle_type_id":"4","last_reported":1776797802,"current_range_meters":9200,"station_id":"","pricing_plan_id":"cebpf4jnsgd1na2vs0mg"},{"bike_id":"bba82855-99f3-49b0-8a73-08ad478d314b","system_id":"levelo_inurba_marseille","lat":43.3054,"lon":5.38422,"is_reserved":false,"is_disabled":false,"rental_uris":{"android":"levelo://app?vid=bba82855-99f3-49b0-8a73-08ad478d314b","ios":"levelo://app?vid=bba82855-99f3-49b0-8a73-08ad478d314b"},"vehicle_type_id":"4","last_reported":1776797802,"current_range_meters":9200,"station_id":"ce4bgg92rcd13ifvqb30","pricing_plan_id":"cebpf4jnsgd1na2vs0mg"},{"bike_id":"3e12586c-4510-435d-a3e1-d5abeee11192","system_id":"levelo_inurba_marseille","lat":43.30281,"lon":5.37711,"is_reserved":false,"is_disabled":false,"rental_uris":{"android":"levelo://app?vid=3e12586c-4510-435d-a3e1-d5abeee11192","ios":"levelo://app?vid=3e12586c-4510-435d-a3e1-d5abeee11192"},"vehicle_type_id":"4","last_reported":1776797802,"current_range_meters":9200,"station_id":"ce4bguh2rcd13ifvqcj0","pricing_plan_id":"cebpf4jnsgd1na2vs0mg"},{"bike_id":"c56d95ac-7be3-43d2-91fa-5b7471873583","system_id":"levelo_inurba_marseille","lat":43.29798,"lon":5.39345,"is_reserved":false,"is_disabled":false,"rental_uris":{"android":"levelo://app?vid=c56d95ac-7be3-43d2-91fa-5b7471873583","ios":"levelo://app?vid=c56d95ac-7be3-43d2-91fa-5b7471873583"},"vehicle_type_id":"4","last_reported":1776797802,"current_range_meters":9200,"station_id":"chh1huq6cuj3fo74tm60","pricing_plan_id":"cebpf4jnsgd1na2vs0mg"},{"bike_id":"efafe04d-4c99-4008-b213-fd769bff4eb0","system_id":"levelo_inurba_marseille","lat":43.29522,"lon":5.39403,"is_reserved":false,"is_disabled":true,"rental_uris":{"android":"levelo://app?vid=efafe04d-4c99-4008-b213-fd769bff4eb0","ios":"levelo://app?vid=efafe04d-4c99-4008-b213-fd769bff4eb0"},"vehicle_type_id":"4","last_reported":1776797802,"current_range_meters":9200,"station_id":"ce4bh292rcd13ifvqdf0","pricing_plan_id":"cebpf4jnsgd1na2vs0mg"},{"bike_id":"9ba34653-680d-4fa1-b030-881456246f26","system_id":"levelo_inurba_marseille","lat":43.29967,"lon":5.3851,"is_reserved":false,"is_disabled":false,"rental_uris":{"android":"levelo://app?vid=9ba34653-680d-4fa1-b030-881456246f26","ios":"levelo://app?vid=9ba34653-680d-4fa1-b030-881456246f26"},"vehicle_type_id":"4","last_reported":1776797802,"current_range_meters":9200,"station_id":"ce4bgj92rcd13ifvqbd0","pricing_plan_id":"cebpf4jnsgd1na2vs0mg"},{"bike_id":"a253ee18-fe5a-4f08-85b9-e491f190d7d5","system_id":"levelo_inurba_marseille","lat":43.29541,"lon":5.37499,"is_reserved":false,"is_disabled":false,"rental_uris":{"android":"levelo://app?vid=a253ee18-fe5a-4f08-85b9-e491f190d7d5","ios":"levelo://app?vid=a253ee18-fe5a-4f08-85b9-e491f190d7d5"},"vehicle_type_id":"4","last_reported":1776797802,"current_range_meters":9200,"station_id":"ce4bgkp2rcd13ifvqbmg","pricing_plan_id":"cebpf4jnsgd1na2vs0mg"},{"bike_id":"0138ffd8-5b49-49e0-8897-04dba6dfadc2","system_id":"levelo_inurba_marseille","lat":43.29303,"lon":5.40149,"is_reserved":false,"is_disabled":false,"rental_uris":{"android":"levelo://app?vid=0138ffd8-5b49-49e0-8897-04dba6dfadc2","ios":"levelo://app?vid=0138ffd8-5b49-49e0-8897-04dba6dfadc2"},"vehicle_type_id":"4","last_reported":1776797802,"current_range_meters":9200,"station_id":"ce4bh312rcd13ifvqdk0","pricing_plan_id":"cebpf4jnsgd1na2vs0mg"},{"bike_id":"1c1d79d9-9f51-4cf2-b993-4173f889f663","system_id":"levelo_inurba_marseille","lat":43.30779,"lon":5.38189,"is_reserved":false,"is_disabled":false,"rental_uris":{"android":"levelo://app?vid=1c1d79d9-9f51-4cf2-b993-4173f889f663","ios":"levelo://app?vid=1c1d79d9-9f51-4cf2-b993-4173f889f663"},"vehicle_type_id":"4","last_reported":1776797802,"current_range_meters":9200,"station_id":"ce4bgt12rcd13ifvqce0","pricing_plan_id":"cebpf4jnsgd1na2vs0mg"},{"bike_id":"6d804725-3e06-48aa-bb02-3731fe39ff8c","system_id":"levelo_inurba_marseille","lat":43.29524,"lon":5.3853,"is_reserved":false,"is_disabled":false,"rental_uris":{"android":"levelo://app?vid=6d804725-3e06-48aa-bb02-3731fe39ff8c","ios":"levelo://app?vid=6d804725-3e06-48aa-bb02-3731fe39ff8c"},"vehicle_type_id":"4","last_reported":1776797802,"current_range_meters":9200,"station_id":"ce4bgih2rcd13ifvqba0","pricing_plan_id":"cebpf4jnsgd1na2vs0mg"},{"bike_id":"93d6ba77-36dd-4552-8973-f67ad68d223c","system_id":"levelo_inurba_marseille","lat":43.27811,"lon":5.39229,"is_reserved":false,"is_disabled":false,"rental_uris":{"android":"levelo://app?vid=93d6ba77-36dd-4552-8973-f67ad68d223c","ios":"levelo://app?vid=93d6ba77-36dd-4552-8973-f67ad68d223c"},"vehicle_type_id":"4","last_reported":1776797802,"current_range_meters":9200,"station_id":"ce4bhjp2rcd13ifvqga0","pricing_plan_id":"cebpf4jnsgd1na2vs0mg"},{"bike_id":"503413e1-3d98-46dc-ba54-652d93c9aebe","system_id":"levelo_inurba_marseille","lat":43.29265,"lon":5.3844,"is_reserved":false,"is_disabled":false,"rental_uris":{"android":"levelo://app?vid=503413e1-3d98-46dc-ba54-652d93c9aebe","ios":"levelo://app?vid=503413e1-3d98-46dc-ba54-652d93c9aebe"},"vehicle_type_id":"4","last_reported":1776797802,"current_range_meters":9200,"station_id":"ce4bh692rcd13ifvqea0","pricing_plan_id":"cebpf4jnsgd1na2vs0mg"},{"bike_id":"a302236e-8331-4aae-ad4b-bb1bfe74d37e","system_id":"levelo_inurba_marseille","lat":43.29521,"lon":5.39418,"is_reserved":false,"is_disabled":false,"rental_uris":{"android":"levelo://app?vid=a302236e-8331-4aae-ad4b-bb1bfe74d37e","ios":"levelo://app?vid=a302236e-8331-4aae-ad4b-bb1bfe74d37e"},"vehicle_type_id":"4","last_reported":1776797802,"current_range_meters":9200,"station_id":"ce4bh292rcd13ifvqdf0","pricing_plan_id":"cebpf4jnsgd1na2vs0mg"},{"bike_id":"353dbd75-4f34-4a0c-8a05-bb9d61e99cd2","system_id":"levelo_inurba_marseille","lat":43.30258,"lon":5.40079,"is_reserved":false,"is_disabled":false,"rental_uris":{"android":"levelo://app?vid=353dbd75-4f34-4a0c-8a05-bb9d61e99cd2","ios":"levelo://app?vid=353dbd75-4f34-4a0c-8a05-bb9d61e99cd2"},"vehicle_type_id":"4","last_reported":1776797802,"current_range_meters":9200,"station_id":"ce4bgvh2rcd13ifvqcs0","pricing_plan_id":"cebpf4jnsgd1na2vs0mg"},{"bike_id":"9add834d-c2c0-40af-8c30-a84c9d8af4a9","system_id":"levelo_inurba_marseille","lat":43.30185,"lon":5.36633,"is_reserved":false,"is_disabled":false,"rental_uris":{"android":"levelo://app?vid=9add834d-c2c0-40af-8c30-a84c9d8af4a9","ios":"levelo://app?vid=9add834d-c2c0-40af-8c30-a84c9d8af4a9"},"vehicle_type_id":"4","last_reported":1776797802,"current_range_meters":9200,"station_id":"ce4bgrh2rcd13ifvqc8g","pricing_plan_id":"cebpf4jnsgd1na2vs0mg"},{"bike_id":"059b4ad8-665d-46df-9a3f-e9b9a20a1c99","system_id":"levelo_inurba_marseille","lat":43.33538,"lon":5.37458,"is_reserved":false,"is_disabled":false,"rental_uris":{"android":"levelo://app?vid=059b4ad8-665d-46df-9a3f-e9b9a20a1c99","ios":"levelo://app?vid=059b4ad8-665d-46df-9a3f-e9b9a20a1c99"},"vehicle_type_id":"4","last_reported":1776797802,"current_range_meters":9200,"station_id":"st_d46tts09ee8s73dlu43g","pricing_plan_id":"cebpf4jnsgd1na2vs0mg"},{"bike_id":"42bc5912-9f51-49f0-a597-ebcfd7df5cbb","system_id":"levelo_inurba_marseille","lat":43.29713,"lon":5.36621,"is_reserved":false,"is_disabled":true,"rental_uris":{"android":"levelo://app?vid=42bc5912-9f51-49f0-a597-ebcfd7df5cbb","ios":"levelo://app?vid=42bc5912-9f51-49f0-a597-ebcfd7df5cbb"},"vehicle_type_id":"4","last_reported":1776797802,"current_range_meters":9600,"station_id":"ce4bgn12rcd13ifvqbt0","pricing_plan_id":"cebpf4jnsgd1na2vs0mg"},{"bike_id":"c7ff1d8c-9f80-4101-92ef-2f0b68fb525f","system_id":"levelo_inurba_marseille","lat":43.27602,"lon":5.39516,"is_reserved":false,"is_disabled":false,"rental_uris":{"android":"levelo://app?vid=c7ff1d8c-9f80-4101-92ef-2f0b68fb525f","ios":"levelo://app?vid=c7ff1d8c-9f80-4101-92ef-2f0b68fb525f"},"vehicle_type_id":"4","last_reported":1776797802,"current_range_meters":9600,"station_id":"","pricing_plan_id":"cebpf4jnsgd1na2vs0mg"},{"bike_id":"7abfa13b-45b6-4ceb-8f10-d0dc57ac70f9","system_id":"levelo_inurba_marseille","lat":43.28385,"lon":5.37534,"is_reserved":false,"is_disabled":false,"rental_uris":{"android":"levelo://app?vid=7abfa13b-45b6-4ceb-8f10-d0dc57ac70f9","ios":"levelo://app?vid=7abfa13b-45b6-4ceb-8f10-d0dc57ac70f9"},"vehicle_type_id":"4","last_reported":1776797802,"current_range_meters":9600,"station_id":"ce4bh412rcd13ifvqds0","pricing_plan_id":"cebpf4jnsgd1na2vs0mg"},{"bike_id":"d1fda486-70ba-4609-b998-7713b50defe1","system_id":"levelo_inurba_marseille","lat":43.27049,"lon":5.4005,"is_reserved":false,"is_disabled":false,"rental_uris":{"android":"levelo://app?vid=d1fda486-70ba-4609-b998-7713b50defe1","ios":"levelo://app?vid=d1fda486-70ba-4609-b998-7713b50defe1"},"vehicle_type_id":"4","last_reported":1776797802,"current_range_meters":9600,"station_id":"","pricing_plan_id":"cebpf4jnsgd1na2vs0mg"},{"bike_id":"ea54b7f9-00c6-43b1-9a5a-534a8cb9648e","system_id":"levelo_inurba_marseille","lat":43.29823,"lon":5.38535,"is_reserved":false,"is_disabled":false,"rental_uris":{"android":"levelo://app?vid=ea54b7f9-00c6-43b1-9a5a-534a8cb9648e","ios":"levelo://app?vid=ea54b7f9-00c6-43b1-9a5a-534a8cb9648e"},"vehicle_type_id":"4","last_reported":1776797802,"current_range_meters":9600,"station_id":"","pricing_plan_id":"cebpf4jnsgd1na2vs0mg"},{"bike_id":"53ac9b94-d2b8-401a-8133-9009372f217e","system_id":"levelo_inurba_marseille","lat":43.28457,"lon":5.48417,"is_reserved":false,"is_disabled":false,"rental_uris":{"android":"levelo://app?vid=53ac9b94-d2b8-401a-8133-9009372f217e","ios":"levelo://app?vid=53ac9b94-d2b8-401a-8133-9009372f217e"},"vehicle_type_id":"4","last_reported":1776797802,"current_range_meters":9600,"station_id":"","pricing_plan_id":"cebpf4jnsgd1na2vs0mg"},{"bike_id":"1de256b8-31ac-43f4-b3d6-a5702e36b707","system_id":"levelo_inurba_marseille","lat":43.29766,"lon":5.37113,"is_reserved":false,"is_disabled":false,"rental_uris":{"android":"levelo://app?vid=1de256b8-31ac-43f4-b3d6-a5702e36b707","ios":"levelo://app?vid=1de256b8-31ac-43f4-b3d6-a5702e36b707"},"vehicle_type_id":"4","last_reported":1776797802,"current_range_meters":9600,"station_id":"ce4bgop2rcd13ifvqc1g","pricing_plan_id":"cebpf4jnsgd1na2vs0mg"},{"bike_id":"c55bc805-daca-48cb-9fe9-cd83ae3ded6b","system_id":"levelo_inurba_marseille","lat":43.30326,"lon":5.40445,"is_reserved":false,"is_disabled":false,"rental_uris":{"android":"levelo://app?vid=c55bc805-daca-48cb-9fe9-cd83ae3ded6b","ios":"levelo://app?vid=c55bc805-daca-48cb-9fe9-cd83ae3ded6b"},"vehicle_type_id":"4","last_reported":1776797802,"current_range_meters":9600,"station_id":"ce4bh012rcd13ifvqd10","pricing_plan_id":"cebpf4jnsgd1na2vs0mg"},{"bike_id":"bb73f67e-03df-4173-804c-f7523c07e0c5","system_id":"levelo_inurba_marseille","lat":43.29951,"lon":5.380765,"is_reserved":false,"is_disabled":false,"rental_uris":{"android":"levelo://app?vid=bb73f67e-03df-4173-804c-f7523c07e0c5","ios":"levelo://app?vid=bb73f67e-03df-4173-804c-f7523c07e0c5"},"vehicle_type_id":"4","last_reported":1776797802,"current_range_meters":9600,"station_id":"","pricing_plan_id":"cebpf4jnsgd1na2vs0mg"},{"bike_id":"f19589cb-032e-4633-a8f7-a3f1edd606b6","system_id":"levelo_inurba_marseille","lat":43.29522,"lon":5.38548,"is_reserved":false,"is_disabled":false,"rental_uris":{"android":"levelo://app?vid=f19589cb-032e-4633-a8f7-a3f1edd606b6","ios":"levelo://app?vid=f19589cb-032e-4633-a8f7-a3f1edd606b6"},"vehicle_type_id":"4","last_reported":1776797802,"current_range_meters":9600,"station_id":"ce4bgih2rcd13ifvqba0","pricing_plan_id":"cebpf4jnsgd1na2vs0mg"},{"bike_id":"f6f3ee29-0ad2-449c-8433-ad3c1f5ff31d","system_id":"levelo_inurba_marseille","lat":43.31183,"lon":5.36862,"is_reserved":false,"is_disabled":false,"rental_uris":{"android":"levelo://app?vid=f6f3ee29-0ad2-449c-8433-ad3c1f5ff31d","ios":"levelo://app?vid=f6f3ee29-0ad2-449c-8433-ad3c1f5ff31d"},"vehicle_type_id":"4","last_reported":1776797802,"current_range_meters":10000,"station_id":"ce4bgl92rcd13ifvqbq0","pricing_plan_id":"cebpf4jnsgd1na2vs0mg"},{"bike_id":"1c4db81e-e54e-450a-b910-a202dc639503","system_id":"levelo_inurba_marseille","lat":43.28474,"lon":5.48408,"is_reserved":false,"is_disabled":false,"rental_uris":{"android":"levelo://app?vid=1c4db81e-e54e-450a-b910-a202dc639503","ios":"levelo://app?vid=1c4db81e-e54e-450a-b910-a202dc639503"},"vehicle_type_id":"4","last_reported":1776797802,"current_range_meters":10000,"station_id":"","pricing_plan_id":"cebpf4jnsgd1na2vs0mg"},{"bike_id":"54158463-085c-499f-9d12-01f94070f32c","system_id":"levelo_inurba_marseille","lat":43.23788,"lon":5.36621,"is_reserved":false,"is_disabled":false,"rental_uris":{"android":"levelo://app?vid=54158463-085c-499f-9d12-01f94070f32c","ios":"levelo://app?vid=54158463-085c-499f-9d12-01f94070f32c"},"vehicle_type_id":"4","last_reported":1776797802,"current_range_meters":10000,"station_id":"st_d3nk18o9ro0c73en2l3g","pricing_plan_id":"cebpf4jnsgd1na2vs0mg"},