{"last_updated":1733120106,"ttl":60,"version":"2.2","data":{"bikes":[{"bike_id":"92b23b60-0174-4ee0-926b-6c47f6ecf19c","system_id":"levelo_inurba_marseille","lat":43.28101,"lon":5.37844,"is_reserved":false,"is_disabled":false,"rental_uris":{"android":"levelo://app?vid=92b23b60-0174-4ee0-926b-6c47f6ecf19c","ios":"levelo://app?vid=92b23b60-0174-4ee0-926b-6c47f6ecf19c"},"vehicle_type_id":"4","last_reported":1733120106,"current_range_meters":10800,"station_id":"ce4bha12rcd13ifvqee0","pricing_plan_id":"cebpf4jnsgd1na2vs0mg"},{"bike_id":"9eb9ee9b-532a-4e66-9337-6742bfb3d802","system_id":"levelo_inurba_marseille","lat":43.27982,"lon":5.41659,"is_reserved":false,"is_disabled":true,"rental_uris":{"android":"levelo://app?vid=9eb9ee9b-532a-4e66-9337-6742bfb3d802","ios":"levelo://app?vid=9eb9ee9b-532a-4e66-9337-6742bfb3d802"},"vehicle_type_id":"4","last_reported":1733120106,"current_range_meters":27200,"station_id":"ce4bho12rcd13ifvqh1g","pricing_plan_id":"cebpf4jnsgd1na2vs0mg"},{"bike_id":"a8240cfa-6b36-44f3-899a-4807a01486bd","system_id":"levelo_inurba_marseille","lat":43.29551,"lon":5.42285,"is_reserved":false,"is_disabled":false,"rental_uris":{"android":"levelo://app?vid=a8240cfa-6b36-44f3-899a-4807a01486bd","ios":"levelo://app?vid=a8240cfa-6b36-44f3-899a-4807a01486bd"},"vehicle_type_id":"4","last_reported":1733120106,"current_range_meters":23200,"station_id":"ce4bhph2rcd13ifvqhdg","pricing_plan_id":"cebpf4jnsgd1na2vs0mg"},{"bike_id":"5d185ce1-f6f3-4450-a56d-622efc6c6751","system_id":"levelo_inurba_marseille","lat":43.30152,"lon":5.38102,"is_reserved":false,"is_disabled":true,"rental_uris":{"android":"levelo://app?vid=5d185ce1-f6f3-4450-a56d-622efc6c6751","ios":"levelo://app?vid=5d185ce1-f6f3-4450-a56d-622efc6c6751"},"vehicle_type_id":"4","last_reported":1733120106,"current_range_meters":0,"station_id":"ce4bgjp2rcd13ifvqbh0","pricing_plan_id":"cebpf4jnsgd1na2vs0mg"},{"bike_id":"36f80ea5-8062-4524-a4e5-be8cde6b930a","system_id":"levelo_inurba_marseille","lat":43.29696,"lon":5.37079,"is_reserved":false,"is_disabled":true,"rental_uris":{"android":"levelo://app?vid=36f80ea5-8062-4524-a4e5-be8cde6b930a","ios":"levelo://app?vid=36f80ea5-8062-4524-a4e5-be8cde6b930a"},"vehicle_type_id":"4","last_reported":1733120106,"current_range_meters":0,"station_id":"","pricing_plan_id":"cebpf4jnsgd1na2vs0mg"},{"bike_id":"7ff9ed7d-51d4-4c0b-aef0-61969fefb411","system_id":"levelo_inurba_marseille","lat":43.24156,"lon":5.36417,"is_reserved":false,"is_disabled":false,"rental_uris":{"android":"levelo://app?vid=7ff9ed7d-51d4-4c0b-aef0-61969fefb411","ios":"levelo://app?vid=7ff9ed7d-51d4-4c0b-aef0-61969fefb411"},"vehicle_type_id":"4","last_reported":1733120106,"current_range_meters":22400,"station_id":"cpo36qri1sfpv3e86is0","pricing_plan_id":"cebpf4jnsgd1na2vs0mg"},{"bike_id":"e91a1398-3011-4a7f-b373-34c834106a26","system_id":"levelo_inurba_marseille","lat":43.3015,"lon":5.38081,"is_reserved":false,"is_disabled":false,"rental_uris":{"android":"levelo://app?vid=e91a1398-3011-4a7f-b373-34c834106a26","ios":"levelo://app?vid=e91a1398-3011-4a7f-b373-34c834106a26"},"vehicle_type_id":"4","last_reported":1733120106,"current_range_meters":32400,"station_id":"ce4bgjp2rcd13ifvqbh0","pricing_plan_id":"cebpf4jnsgd1na2vs0mg"},{"bike_id":"304c3c23-006c-47a7-be41-53df15bd78fa","system_id":"levelo_inurba_marseille","lat":43.29416,"lon":5.386125,"is_reserved":false,"is_disabled":true,"rental_uris":{"android":"levelo://app?vid=304c3c23-006c-47a7-be41-53df15bd78fa","ios":"levelo://app?vid=304c3c23-006c-47a7-be41-53df15bd78fa"},"vehicle_type_id":"4","last_reported":1733120106,"current_range_meters":24800,"station_id":"ce4bh2h2rcd13ifvqdh0","pricing_plan_id":"cebpf4jnsgd1na2vs0mg"},{"bike_id":"3f3572f8-5522-43a7-8be3-c51500aeef11","system_id":"levelo_inurba_marseille","lat":43.27897,"lon":5.38014,"is_reserved":false,"is_disabled":false,"rental_uris":{"android":"levelo://app?vid=3f3572f8-5522-43a7-8be3-c51500aeef11","ios":"levelo://app?vid=3f3572f8-5522-43a7-8be3-c51500aeef11"},"vehicle_type_id":"4","last_reported":1733120106,"current_range_meters":39200,"station_id":"ce4bhf92rcd13ifvqf50","pricing_plan_id":"cebpf4jnsgd1na2vs0mg"},{"bike_id":"13d578ea-4641-468a-b3e8-68a33d2e687a","system_id":"levelo_inurba_marseille","lat":43.23178,"lon":5.3998,"is_reserved":false,"is_disabled":false,"rental_uris":{"android":"levelo://app?vid=13d578ea-4641-468a-b3e8-68a33d2e687a","ios":"levelo://app?vid=13d578ea-4641-468a-b3e8-68a33d2e687a"},"vehicle_type_id":"4","last_reported":1733120106,"current_range_meters":11200,"station_id":"ce4bhn12rcd13ifvqgqg","pricing_plan_id":"cebpf4jnsgd1na2vs0mg"},{"bike_id":"8cf454f7-82db-4d4e-b9b3-b60aacdaab9c","system_id":"levelo_inurba_marseille","lat":43.3111,"lon":5.37763,"is_reserved":false,"is_disabled":false,"rental_uris":{"android":"levelo://app?vid=8cf454f7-82db-4d4e-b9b3-b60aacdaab9c","ios":"levelo://app?vid=8cf454f7-82db-4d4e-b9b3-b60aacdaab9c"},"vehicle_type_id":"4","last_reported":1733120106,"current_range_meters":23200,"station_id":"ce4bgt92rcd13ifvqcg0","pricing_plan_id":"cebpf4jnsgd1na2vs0mg"},{"bike_id":"6c3702ca-81e8-4155-999e-4c84b14b6a45","system_id":"levelo_inurba_marseille","lat":43.28103,"lon":5.37838,"is_reserved":false,"is_disabled":false,"rental_uris":{"android":"levelo://app?vid=6c3702ca-81e8-4155-999e-4c84b14b6a45","ios":"levelo://app?vid=6c3702ca-81e8-4155-999e-4c84b14b6a45"},"vehicle_type_id":"4","last_reported":1733120106,"current_range_meters":14800,"station_id":"ce4bha12rcd13ifvqee0","pricing_plan_id":"cebpf4jnsgd1na2vs0mg"},{"bike_id":"b65688fa-b1c3-40d7-a238-e0b81dcc7be7","system_id":"levelo_inurba_marseille","lat":43.23177,"lon":5.39986,"is_reserved":false,"is_disabled":false,"rental_uris":{"android":"levelo://app?vid=b65688fa-b1c3-40d7-a238-e0b81dcc7be7","ios":"levelo://app?vid=b65688fa-b1c3-40d7-a238-e0b81dcc7be7"},"vehicle_type_id":"4","last_reported":1733120106,"current_range_meters":35600,"station_id":"ce4bhn12rcd13ifvqgqg","pricing_plan_id":"cebpf4jnsgd1na2vs0mg"},{"bike_id":"a8008d6f-6501-443d-8c90-0ec83d8001f7","system_id":"levelo_inurba_marseille","lat":43.29622,"lon":5.37722,"is_reserved":false,"is_disabled":false,"rental_uris":{"android":"levelo://app?vid=a8008d6f-6501-443d-8c90-0ec83d8001f7","ios":"levelo://app?vid=a8008d6f-6501-443d-8c90-0ec83d8001f7"},"vehicle_type_id":"4","last_reported":1733120106,"current_range_meters":37600,"station_id":"ce4bgi92rcd13ifvqb90","pricing_plan_id":"cebpf4jnsgd1na2vs0mg"},{"bike_id":"d666d7a0-17ef-4dbc-aa46-18e775c7457c","system_id":"levelo_inurba_marseille","lat":43.28944,"lon":5.36633,"is_reserved":false,"is_disabled":true,"rental_uris":{"android":"levelo://app?vid=d666d7a0-17ef-4dbc-aa46-18e775c7457c","ios":"levelo://app?vid=d666d7a0-17ef-4dbc-aa46-18e775c7457c"},"vehicle_type_id":"4","last_reported":1733120106,"current_range_meters":8800,"station_id":"ce4bhap2rcd13ifvqek0","pricing_plan_id":"cebpf4jnsgd1na2vs0mg"},{"bike_id":"966791e8-cdff-4838-a42b-c9b609a533a7","system_id":"levelo_inurba_marseille","lat":43.27455,"lon":5.40073,"is_reserved":false,"is_disabled":true,"rental_uris":{"android":"levelo://app?vid=966791e8-cdff-4838-a42b-c9b609a533a7","ios":"levelo://app?vid=966791e8-cdff-4838-a42b-c9b609a533a7"},"vehicle_type_id":"4","last_reported":1733120106,"current_range_meters":0,"station_id":"","pricing_plan_id":"cebpf4jnsgd1na2vs0mg"},{"bike_id":"edaa2690-e8bc-498d-ab5c-13269193fb53","system_id":"levelo_inurba_marseille","lat":43.30547,"lon":5.36704,"is_reserved":false,"is_disabled":false,"rental_uris":{"android":"levelo://app?vid=edaa2690-e8bc-498d-ab5c-13269193fb53","ios":"levelo://app?vid=edaa2690-e8bc-498d-ab5c-13269193fb53"},"vehicle_type_id":"4","last_reported":1733120106,"current_range_meters":38000,"station_id":"ce4bgrp2rcd13ifvqc9g","pricing_plan_id":"cebpf4jnsgd1na2vs0mg"},{"bike_id":"c25da0e4-80d1-4606-b978-694fe572d8c3","system_id":"levelo_inurba_marseille","lat":43.31531,"lon":5.3803,"is_reserved":false,"is_disabled":false,"rental_uris":{"android":"levelo://app?vid=c25da0e4-80d1-4606-b978-694fe572d8c3","ios":"levelo://app?vid=c25da0e4-80d1-4606-b978-694fe572d8c3"},"vehicle_type_id":"4","last_reported":1733120106,"current_range_meters":26000,"station_id":"ce4bhsp2rcd13ifvqi50","pricing_plan_id":"cebpf4jnsgd1na2vs0mg"},{"bike_id":"11b64c2b-04e5-4070-8a9b-abd68a21dd73","system_id":"levelo_inurba_marseille","lat":43.30153,"lon":5.3809,"is_reserved":false,"is_disabled":false,"rental_uris":{"android":"levelo://app?vid=11b64c2b-04e5-4070-8a9b-abd68a21dd73","ios":"levelo://app?vid=11b64c2b-04e5-4070-8a9b-abd68a21dd73"},"vehicle_type_id":"4","last_reported":1733120106,"current_range_meters":38800,"station_id":"ce4bgjp2rcd13ifvqbh0","pricing_plan_id":"cebpf4jnsgd1na2vs0mg"},{"bike_id":"157a3d81-cf27-4d67-b0f6-ba9e7fc15397","system_id":"levelo_inurba_marseille","lat":43.30191,"lon":5.36617,"is_reserved":false,"is_disabled":true,"rental_uris":{"android":"levelo://app?vid=157a3d81-cf27-4d67-b0f6-ba9e7fc15397","ios":"levelo://app?vid=157a3d81-cf27-4d67-b0f6-ba9e7fc15397"},"vehicle_type_id":"4","last_reported":1733120106,"current_range_meters":6800,"station_id":"ce4bgrh2rcd13ifvqc8g","pricing_plan_id":"cebpf4jnsgd1na2vs0mg"},{"bike_id":"599721bc-4c56-4323-a7a6-1e094f7971bc","system_id":"levelo_inurba_marseille","lat":43.2815,"lon":5.42641,"is_reserved":false,"is_disabled":false,"rental_uris":{"android":"levelo://app?vid=599721bc-4c56-4323-a7a6-1e094f7971bc","ios":"levelo://app?vid=599721bc-4c56-4323-a7a6-1e094f7971bc"},"vehicle_type_id":"4","last_reported":1733120106,"current_range_meters":6400,"station_id":"ce4bhnh2rcd13ifvqgug","pricing_plan_id":"cebpf4jnsgd1na2vs0mg"},{"bike_id":"4a6ea4a3-0abd-4443-8594-e27a1d0c6af2","system_id":"levelo_inurba_marseille","lat":43.29365,"lon":5.37828,"is_reserved":false,"is_disabled":false,"rental_uris":{"android":"levelo://app?vid=4a6ea4a3-0abd-4443-8594-e27a1d0c6af2","ios":"levelo://app?vid=4a6ea4a3-0abd-4443-8594-e27a1d0c6af2"},"vehicle_type_id":"4","last_reported":1733120106,"current_range_meters":14400,"station_id":"ce4bgjh2rcd13ifvqbf0","pricing_plan_id":"cebpf4jnsgd1na2vs0mg"},{"bike_id":"b935c770-5c1f-48b3-ac00-effae345fe6e","system_id":"levelo_inurba_marseille","lat":43.31721,"lon":5.4369,"is_reserved":false,"is_disabled":false,"rental_uris":{"android":"levelo://app?vid=b935c770-5c1f-48b3-ac00-effae345fe6e","ios":"levelo://app?vid=b935c770-5c1f-48b3-ac00-effae345fe6e"},"vehicle_type_id":"4","last_reported":1733120106,"current_range_meters":18000,"station_id":"ce4bhp92rcd13ifvqhcg","pricing_plan_id":"cebpf4jnsgd1na2vs0mg"},{"bike_id":"6a865aca-c23a-4fe9-b544-0aa9c8a247e1","system_id":"levelo_inurba_marseille","lat":43.281,"lon":5.3785,"is_reserved":false,"is_disabled":false,"rental_uris":{"android":"levelo://app?vid=6a865aca-c23a-4fe9-b544-0aa9c8a247e1","ios":"levelo://app?vid=6a865aca-c23a-4fe9-b544-0aa9c8a247e1"},"vehicle_type_id":"4","last_reported":1733120106,"current_range_meters":38400,"station_id":"ce4bha12rcd13ifvqee0","pricing_plan_id":"cebpf4jnsgd1na2vs0mg"},{"bike_id":"c8540c9d-7dc3-44fa-a0f8-7263d3d70bb8","system_id":"levelo_inurba_marseille","lat":43.24647,"lon":5.3889,"is_reserved":false,"is_disabled":true,"rental_uris":{"android":"levelo://app?vid=c8540c9d-7dc3-44fa-a0f8-7263d3d70bb8","ios":"levelo://app?vid=c8540c9d-7dc3-44fa-a0f8-7263d3d70bb8"},"vehicle_type_id":"4","last_reported":1733120106,"current_range_meters":0,"station_id":"ce4bhg12rcd13ifvqf60","pricing_plan_id":"cebpf4jnsgd1na2vs0mg"},{"bike_id":"34553e4f-2bbe-4e94-8740-7b5a4682f76a","system_id":"levelo_inurba_marseille","lat":43.31117,"lon":5.37773,"is_reserved":false,"is_disabled":true,"rental_uris":{"android":"levelo://app?vid=34553e4f-2bbe-4e94-8740-7b5a4682f76a","ios":"levelo://app?vid=34553e4f-2bbe-4e94-8740-7b5a4682f76a"},"vehicle_type_id":"4","last_reported":1733120106,"current_range_meters":30800,"station_id":"ce4bgt92rcd13ifvqcg0","pricing_plan_id":"cebpf4jnsgd1na2vs0mg"},{"bike_id":"87a177cf-8a72-43d2-ad9b-470961f3e5dc","system_id":"levelo_inurba_marseille","lat":43.29986,"lon":5.37654,"is_reserved":false,"is_disabled":true,"rental_uris":{"android":"levelo://app?vid=87a177cf-8a72-43d2-ad9b-470961f3e5dc","ios":"levelo://app?vid=87a177cf-8a72-43d2-ad9b-470961f3e5dc"},"vehicle_type_id":"4","last_reported":1733120106,"current_range_meters":0,"station_id":"","pricing_plan_id":"cebpf4jnsgd1na2vs0mg"},{"bike_id":"f69d2d41-4498-4784-8438-c095e639684f","system_id":"levelo_inurba_marseille","lat":43.29747,"lon":5.3794,"is_reserved":false,"is_disabled":true,"rental_uris":{"android":"levelo://app?vid=f69d2d41-4498-4784-8438-c095e639684f","ios":"levelo://app?vid=f69d2d41-4498-4784-8438-c095e639684f"},"vehicle_type_id":"4","last_reported":1733120106,"current_range_meters":0,"station_id":"","pricing_plan_id":"cebpf4jnsgd1na2vs0mg"},{"bike_id":"ffc3eeb6-6bf5-4a72-99c1-23a99957f6b4","system_id":"levelo_inurba_marseille","lat":43.23187,"lon":5.39984,"is_reserved":false,"is_disabled":false,"rental_uris":{"android":"levelo://app?vid=ffc3eeb6-6bf5-4a72-99c1-23a99957f6b4","ios":"levelo://app?vid=ffc3eeb6-6bf5-4a72-99c1-23a99957f6b4"},"vehicle_type_id":"4","last_reported":1733120106,"current_range_meters":37600,"station_id":"ce4bhn12rcd13ifvqgqg","pricing_plan_id":"cebpf4jnsgd1na2vs0mg"},{"bike_id":"80702ea0-76fe-4f0a-96c8-56c28536d2c5","system_id":"levelo_inurba_marseille","lat":43.25119,"lon":5.40317,"is_reserved":false,"is_disabled":false,"rental_uris":{"android":"levelo://app?vid=80702ea0-76fe-4f0a-96c8-56c28536d2c5","ios":"levelo://app?vid=80702ea0-76fe-4f0a-96c8-56c28536d2c5"},"vehicle_type_id":"4","last_reported":1733120106,"current_range_meters":22400,"station_id":"ce4bhlh2rcd13ifvqgig","pricing_plan_id":"cebpf4jnsgd1na2vs0mg"},{"bike_id":"b0bd4cdf-7308-45f0-8e99-a0d5811907ff","system_id":"levelo_inurba_marseille","lat":43.25438,"lon":5.38158,"is_reserved":false,"is_disabled":true,"rental_uris":{"android":"levelo://app?vid=b0bd4cdf-7308-45f0-8e99-a0d5811907ff","ios":"levelo://app?vid=b0bd4cdf-7308-45f0-8e99-a0d5811907ff"},"vehicle_type_id":"4","last_reported":1733120106,"current_range_meters":0,"station_id":"","pricing_plan_id":"cebpf4jnsgd1na2vs0mg"},{"bike_id":"13341a5c-709a-42b3-984a-1db82542f4c6","system_id":"levelo_inurba_marseille","lat":43.29932,"lon":5.40323,"is_reserved":false,"is_disabled":true,"rental_uris":{"android":"levelo://app?vid=13341a5c-709a-42b3-984a-1db82542f4c6","ios":"levelo://app?vid=13341a5c-709a-42b3-984a-1db82542f4c6"},"vehicle_type_id":"4","last_reported":1733120106,"current_range_meters":0,"station_id":"","pricing_plan_id":"cebpf4jnsgd1na2vs0mg"},{"bike_id":"8bcd172f-5475-4607-a4e7-44d7749b12a1","system_id":"levelo_inurba_marseille","lat":43.33728,"lon":5.39184,"is_reserved":false,"is_disabled":true,"rental_uris":{"android":"levelo://app?vid=8bcd172f-5475-4607-a4e7-44d7749b12a1","ios":"levelo://app?vid=8bcd172f-5475-4607-a4e7-44d7749b12a1"},"vehicle_type_id":"4","last_reported":1733120106,"current_range_meters":0,"station_id":"ce4bhr92rcd13ifvqhsg","pricing_plan_id":"cebpf4jnsgd1na2vs0mg"},{"bike_id":"66cb3e85-a4bc-49c1-a469-6ac3ab0e3086","system_id":"levelo_inurba_marseille","lat":43.27066,"lon":5.42276,"is_reserved":false,"is_disabled":false,"rental_uris":{"android":"levelo://app?vid=66cb3e85-a4bc-49c1-a469-6ac3ab0e3086","ios":"levelo://app?vid=66cb3e85-a4bc-49c1-a469-6ac3ab0e3086"},"vehicle_type_id":"4","last_reported":1733120106,"current_range_meters":21600,"station_id":"ce4bhk92rcd13ifvqgb0","pricing_plan_id":"cebpf4jnsgd1na2vs0mg"},{"bike_id":"aa8f97c1-d020-4491-9182-5a5bfc699557","system_id":"levelo_inurba_marseille","lat":43.29514,"lon":5.39411,"is_reserved":false,"is_disabled":false,"rental_uris":{"android":"levelo://app?vid=aa8f97c1-d020-4491-9182-5a5bfc699557","ios":"levelo://app?vid=aa8f97c1-d020-4491-9182-5a5bfc699557"},"vehicle_type_id":"4","last_reported":1733120106,"current_range_meters":38800,"station_id":"ce4bh292rcd13ifvqdf0","pricing_plan_id":"cebpf4jnsgd1na2vs0mg"},{"bike_id":"6f7949e1-de87-4a49-8620-fec27e04447f","system_id":"levelo_inurba_marseille","lat":43.33743,"lon":5.39192,"is_reserved":false,"is_disabled":false,"rental_uris":{"android":"levelo://app?vid=6f7949e1-de87-4a49-8620-fec27e04447f","ios":"levelo://app?vid=6f7949e1-de87-4a49-8620-fec27e04447f"},"vehicle_type_id":"4","last_reported":1733120106,"current_range_meters":19200,"station_id":"ce4bhr92rcd13ifvqhsg","pricing_plan_id":"cebpf4jnsgd1na2vs0mg"},{"bike_id":"c5e50867-7fea-4460-a24c-ff45f096d5fb","system_id":"levelo_inurba_marseille","lat":43.29044,"lon":5.39944,"is_reserved":false,"is_disabled":false,"rental_uris":{"android":"levelo://app?vid=c5e50867-7fea-4460-a24c-ff45f096d5fb","ios":"levelo://app?vid=c5e50867-7fea-4460-a24c-ff45f096d5fb"},"vehicle_type_id":"4","last_reported":1733120106,"current_range_meters":33200,"station_id":"ce4bh392rcd13ifvqdm0","pricing_plan_id":"cebpf4jnsgd1na2vs0mg"},{"bike_id":"7c1520fb-1cfb-4079-b606-6291e64dc0d2","system_id":"levelo_inurba_marseille","lat":43.31329,"lon":5.39697,"is_reserved":false,"is_disabled":false,"rental_uris":{"android":"levelo://app?vid=7c1520fb-1cfb-4079-b606-6291e64dc0d2","ios":"levelo://app?vid=7c1520fb-1cfb-4079-b606-6291e64dc0d2"},"vehicle_type_id":"4","last_reported":1733120106,"current_range_meters":39200,"station_id":"ce4bgvp2rcd13ifvqcu0","pricing_plan_id":"cebpf4jnsgd1na2vs0mg"},{"bike_id":"7066298c-8444-4dbb-8e5a-afa45f0890f5","system_id":"levelo_inurba_marseille","lat":43.28853,"lon":5.39319,"is_reserved":false,"is_disabled":true,"rental_uris":{"android":"levelo://app?vid=7066298c-8444-4dbb-8e5a-afa45f0890f5","ios":"levelo://app?vid=7066298c-8444-4dbb-8e5a-afa45f0890f5"},"vehicle_type_id":"4","last_reported":1733120106,"current_range_meters":5600,"station_id":"ce4bh2p2rcd13ifvqdi0","pricing_plan_id":"cebpf4jnsgd1na2vs0mg"},{"bike_id":"79da6e11-068f-4f85-891a-bf5d6033ae1b","system_id":"levelo_inurba_marseille","lat":43.291958,"lon":5.393168,"is_reserved":false,"is_disabled":true,"rental_uris":{"android":"levelo://app?vid=79da6e11-068f-4f85-891a-bf5d6033ae1b","ios":"levelo://app?vid=79da6e11-068f-4f85-891a-bf5d6033ae1b"},"vehicle_type_id":"4","last_reported":1733120106,"current_range_meters":14400,"station_id":"ce4bh192rcd13ifvqdd0","pricing_plan_id":"cebpf4jnsgd1na2vs0mg"},{"bike_id":"a41d4444-dd15-4daf-9bf3-945464c5f3b6","system_id":"levelo_inurba_marseille","lat":43.25728,"lon":5.41102,"is_reserved":false,"is_disabled":false,"rental_uris":{"android":"levelo://app?vid=a41d4444-dd15-4daf-9bf3-945464c5f3b6","ios":"levelo://app?vid=a41d4444-dd15-4daf-9bf3-945464c5f3b6"},"vehicle_type_id":"4","last_reported":1733120106,"current_range_meters":33600,"station_id":"ce4bhkp2rcd13ifvqgd0","pricing_plan_id":"cebpf4jnsgd1na2vs0mg"},{"bike_id":"d8c0738f-3b57-4efa-a27b-af99b6076143","system_id":"levelo_inurba_marseille","lat":43.240739,"lon":5.377586,"is_reserved":false,"is_disabled":false,"rental_uris":{"android":"levelo://app?vid=d8c0738f-3b57-4efa-a27b-af99b6076143","ios":"levelo://app?vid=d8c0738f-3b57-4efa-a27b-af99b6076143"},"vehicle_type_id":"4","last_reported":1733120106,"current_range_meters":39200,"station_id":"ce4bhnp2rcd13ifvqgvg","pricing_plan_id":"cebpf4jnsgd1na2vs0mg"},{"bike_id":"ba1004dc-35f2-44b6-be8a-9e7f7f4df912","system_id":"levelo_inurba_marseille","lat":43.31274,"lon":5.40168,"is_reserved":false,"is_disabled":false,"rental_uris":{"android":"levelo://app?vid=ba1004dc-35f2-44b6-be8a-9e7f7f4df912","ios":"levelo://app?vid=ba1004dc-35f2-44b6-be8a-9e7f7f4df912"},"vehicle_type_id":"4","last_reported":1733120106,"current_range_meters":14000,"station_id":"ce4bh092rcd13ifvqd30","pricing_plan_id":"cebpf4jnsgd1na2vs0mg"},{"bike_id":"073f89a8-25fd-4211-bd0f-5e8cccd96443","system_id":"levelo_inurba_marseille","lat":43.30946,"lon":5.39052,"is_reserved":false,"is_disabled":false,"rental_uris":{"android":"levelo://app?vid=073f89a8-25fd-4211-bd0f-5e8cccd96443","ios":"levelo://app?vid=073f89a8-25fd-4211-bd0f-5e8cccd96443"},"vehicle_type_id":"4","last_reported":1733120106,"current_range_meters":37600,"station_id":"ce4bgup2rcd13ifvqco0","pricing_plan_id":"cebpf4jnsgd1na2vs0mg"},{"bike_id":"359f71a3-80b9-4668-8516-c064b2d1a6d8","system_id":"levelo_inurba_marseille","lat":43.32662,"lon":5.40983,"is_reserved":false,"is_disabled":false,"rental_uris":{"android":"levelo://app?vid=359f71a3-80b9-4668-8516-c064b2d1a6d8","ios":"levelo://app?vid=359f71a3-80b9-4668-8516-c064b2d1a6d8"},"vehicle_type_id":"4","last_reported":1733120106,"current_range_meters":34000,"station_id":"ce4bhpp2rcd13ifvqhgg","pricing_plan_id":"cebpf4jnsgd1na2vs0mg"},{"bike_id":"3257c53f-0ad3-47e0-b3ca-bdb5d91f6187","system_id":"levelo_inurba_marseille","lat":43.28029,"lon":5.36962,"is_reserved":false,"is_disabled":false,"rental_uris":{"android":"levelo://app?vid=3257c53f-0ad3-47e0-b3ca-bdb5d91f6187","ios":"levelo://app?vid=3257c53f-0ad3-47e0-b3ca-bdb5d91f6187"},"vehicle_type_id":"4","last_reported":1733120106,"current_range_meters":35200,"station_id":"ce4bha12rcd13ifvqef0","pricing_plan_id":"cebpf4jnsgd1na2vs0mg"},{"bike_id":"32d55f99-0252-4be1-bce9-7a80f3291e5b","system_id":"levelo_inurba_marseille","lat":43.26682,"lon":5.38265,"is_reserved":false,"is_disabled":true,"rental_uris":{"android":"levelo://app?vid=32d55f99-0252-4be1-bce9-7a80f3291e5b","ios":"levelo://app?vid=32d55f99-0252-4be1-bce9-7a80f3291e5b"},"vehicle_type_id":"4","last_reported":1733120106,"current_range_meters":32400,"station_id":"ce4bhg92rcd13ifvqf90","pricing_plan_id":"cebpf4jnsgd1na2vs0mg"},{"bike_id":"85982f8a-49e3-47e3-9383-4f25a7448c63","system_id":"levelo_inurba_marseille","lat":43.31109,"lon":5.37766,"is_reserved":false,"is_disabled":false,"rental_uris":{"android":"levelo://app?vid=85982f8a-49e3-47e3-9383-4f25a7448c63","ios":"levelo://app?vid=85982f8a-49e3-47e3-9383-4f25a7448c63"},"vehicle_type_id":"4","last_reported":1733120106,"current_range_meters":24400,"station_id":"ce4bgt92rcd13ifvqcg0","pricing_plan_id":"cebpf4jnsgd1na2vs0mg"},{"bike_id":"6e3b8a2a-f251-48e5-a4ed-680655302057","system_id":"levelo_inurba_marseille","lat":43.32338,"lon":5.4062,"is_reserved":false,"is_disabled":false,"rental_uris":{"android":"levelo://app?vid=6e3b8a2a-f251-48e5-a4ed-680655302057","ios":"levelo://app?vid=6e3b8a2a-f251-48e5-a4ed-680655302057"},"vehicle_type_id":"4","last_reported":1733120106,"current_range_meters":8400,"station_id":"ce4bhq92rcd13ifvqhjg","pricing_plan_id":"cebpf4jnsgd1na2vs0mg"},{"bike_id":"3d2d0100-4d4f-485b-b99f-649da6fbf8c8","system_id":"levelo_inurba_marseille","lat":43.28989,"lon":5.35631,"is_reserved":false,"is_disabled":false,"rental_uris":{"android":"levelo://app?vid=3d2d0100-4d4f-485b-b99f-649da6fbf8c8","ios":"levelo://app?vid=3d2d0100-4d4f-485b-b99f-649da6fbf8c8"},"vehicle_type_id":"4","last_reported":1733120106,"current_range_meters":32800,"station_id":"ce4bhb92rcd13ifvqen0","pricing_plan_id":"cebpf4jnsgd1na2vs0mg"},{"bike_id":"9cba3506-fcd3-40da-9a8c-083278300350","system_id":"levelo_inurba_marseille","lat":43.30899,"lon":5.36863,"is_reserved":false,"is_disabled":false,"rental_uris":{"android":"levelo://app?vid=9cba3506-fcd3-40da-9a8c-083278300350","ios":"levelo://app?vid=9cba3506-fcd3-40da-9a8c-083278300350"},"vehicle_type_id":"4","last_reported":1733120106,"current_range_meters":39200,"station_id":"ce4bgn92rcd13ifvqbvg","pricing_plan_id":"cebpf4jnsgd1na2vs0mg"},{"bike_id":"c1bb56a3-1dd6-466a-93ee-999f6c0c5e40","system_id":"levelo_inurba_marseille","lat":43.30775,"lon":5.37658,"is_reserved":false,"is_disabled":false,"rental_uris":{"android":"levelo://app?vid=c1bb56a3-1dd6-466a-93ee-999f6c0c5e40","ios":"levelo://app?vid=c1bb56a3-1dd6-466a-93ee-999f6c0c5e40"},"vehicle_type_id":"4","last_reported":1733120106,"current_range_meters":39200,"station_id":"ce4bgv92rcd13ifvqcq0","pricing_plan_id":"cebpf4jnsgd1na2vs0mg"},{"bike_id":"7ed2229e-6e77-42d8-826e-e15ec9f33077","system_id":"levelo_inurba_marseille","lat":43.26686,"lon":5.3827,"is_reserved":false,"is_disabled":true,"rental_uris":{"android":"levelo://app?vid=7ed2229e-6e77-42d8-826e-e15ec9f33077","ios":"levelo://app?vid=7ed2229e-6e77-42d8-826e-e15ec9f33077"},"vehicle_type_id":"4","last_reported":1733120106,"current_range_meters":12400,"station_id":"ce4bhg92rcd13ifvqf90","pricing_plan_id":"cebpf4jnsgd1na2vs0mg"},{"bike_id":"8fdf0680-166b-4766-a655-d02e84d131fa","system_id":"levelo_inurba_marseille","lat":43.30925,"lon":5.3907,"is_reserved":false,"is_disabled":true,"rental_uris":{"android":"levelo://app?vid=8fdf0680-166b-4766-a655-d02e84d131fa","ios":"levelo://app?vid=8fdf0680-166b-4766-a655-d02e84d131fa"},"vehicle_type_id":"4","last_reported":1733120106,"current_range_meters":38800,"station_id":"ce4bgup2rcd13ifvqco0","pricing_plan_id":"cebpf4jnsgd1na2vs0mg"},{"bike_id":"fbfc981e-0fc2-4465-ab2f-e76133d7be8c","system_id":"levelo_inurba_marseille","lat":43.32289,"lon":5.38276,"is_reserved":false,"is_disabled":false,"rental_uris":{"android":"levelo://app?vid=fbfc981e-0fc2-4465-ab2f-e76133d7be8c","ios":"levelo://app?vid=fbfc981e-0fc2-4465-ab2f-e76133d7be8c"},"vehicle_type_id":"4","last_reported":1733120106,"current_range_meters":22800,"station_id":"ce4bhr12rcd13ifvqhqg","pricing_plan_id":"cebpf4jnsgd1na2vs0mg"},{"bike_id":"64cbfd6a-4a4e-4d37-982c-18402a201eee","system_id":"levelo_inurba_marseille","lat":43.28689,"lon":5.36399,"is_reserved":false,"is_disabled":true,"rental_uris":{"android":"levelo://app?vid=64cbfd6a-4a4e-4d37-982c-18402a201eee","ios":"levelo://app?vid=64cbfd6a-4a4e-4d37-982c-18402a201eee"},"vehicle_type_id":"4","last_reported":1733120106,"current_range_meters":11600,"station_id":"","pricing_plan_id":"cebpf4jnsgd1na2vs0mg"},{"bike_id":"5466655e-efb6-4fee-b861-2ae8fd4f2aaa","system_id":"levelo_inurba_marseille","lat":43.27999,"lon":5.41663,"is_reserved":false,"is_disabled":false,"rental_uris":{"android":"levelo://app?vid=5466655e-efb6-4fee-b861-2ae8fd4f2aaa","ios":"levelo://app?vid=5466655e-efb6-4fee-b861-2ae8fd4f2aaa"},"vehicle_type_id":"4","last_reported":1733120106,"current_range_meters":24800,"station_id":"ce4bho12rcd13ifvqh1g","pricing_plan_id":"cebpf4jnsgd1na2vs0mg"},{"bike_id":"5ddfa011-d975-41ac-ab06-32125b62100c","system_id":"levelo_inurba_marseille","lat":43.28401,"lon":5.3752,"is_reserved":false,"is_disabled":true,"rental_uris":{"android":"levelo://app?vid=5ddfa011-d975-41ac-ab06-32125b62100c","ios":"levelo://app?vid=5ddfa011-d975-41ac-ab06-32125b62100c"},"vehicle_type_id":"4","last_reported":1733120106,"current_range_meters":30000,"station_id":"ce4bh412rcd13ifvqds0","pricing_plan_id":"cebpf4jnsgd1na2vs0mg"},{"bike_id":"f792d34c-1c6d-47c1-a35b-7fabd691333d","system_id":"levelo_inurba_marseille","lat":43.33731,"lon":5.3918,"is_reserved":false,"is_disabled":false,"rental_uris":{"android":"levelo://app?vid=f792d34c-1c6d-47c1-a35b-7fabd691333d","ios":"levelo://app?vid=f792d34c-1c6d-47c1-a35b-7fabd691333d"},"vehicle_type_id":"4","last_reported":1733120106,"current_range_meters":24800,"station_id":"ce4bhr92rcd13ifvqhsg","pricing_plan_id":"cebpf4jnsgd1na2vs0mg"},{"bike_id":"209c0815-1137-465b-b0d6-13fcf1b7a485","system_id":"levelo_inurba_marseille","lat":43.29564,"lon":5.42283,"is_reserved":false,"is_disabled":false,"rental_uris":{"android":"levelo://app?vid=209c0815-1137-465b-b0d6-13fcf1b7a485","ios":"levelo://app?vid=209c0815-1137-465b-b0d6-13fcf1b7a485"},"vehicle_type_id":"4","last_reported":1733120106,"current_range_meters":38800,"station_id":"ce4bhph2rcd13ifvqhdg","pricing_plan_id":"cebpf4jnsgd1na2vs0mg"},{"bike_id":"1af2bf68-b591-469f-8d13-b72672c57912","system_id":"levelo_inurba_marseille","lat":43.2927,"lon":5.40135,"is_reserved":false,"is_disabled":false,"rental_uris":{"android":"levelo://app?vid=1af2bf68-b591-469f-8d13-b72672c57912","ios":"levelo://app?vid=1af2bf68-b591-469f-8d13-b72672c57912"},"vehicle_type_id":"4","last_reported":1733120106,"current_range_meters":39200,"station_id":"ce4bh312rcd13ifvqdk0","pricing_plan_id":"cebpf4jnsgd1na2vs0mg"},{"bike_id":"9367a331-0c2c-469f-b48a-fb20d994e45c","system_id":"levelo_inurba_marseille","lat":43.30206,"lon":5.39479,"is_reserved":false,"is_disabled":false,"rental_uris":{"android":"levelo://app?vid=9367a331-0c2c-469f-b48a-fb20d994e45c","ios":"levelo://app?vid=9367a331-0c2c-469f-b48a-fb20d994e45c"},"vehicle_type_id":"4","last_reported":1733120106,"current_range_meters":38000,"station_id":"ce4bh0p2rcd13ifvqd70","pricing_plan_id":"cebpf4jnsgd1na2vs0mg"},{"bike_id":"95c98dc0-e590-407f-91f9-1fb2b136e289","system_id":"levelo_inurba_marseille","lat":43.33605,"lon":5.41023,"is_reserved":false,"is_disabled":false,"rental_uris":{"android":"levelo://app?vid=95c98dc0-e590-407f-91f9-1fb2b136e289","ios":"levelo://app?vid=95c98dc0-e590-407f-91f9-1fb2b136e289"},"vehicle_type_id":"4","last_reported":1733120106,"current_range_meters":14000,"station_id":"ce4bhqh2rcd13ifvqhmg","pricing_plan_id":"cebpf4jnsgd1na2vs0mg"},{"bike_id":"8d53aea4-b624-4223-9f3c-514d8430415e","system_id":"levelo_inurba_marseille","lat":43.30465,"lon":5.37904,"is_reserved":false,"is_disabled":false,"rental_uris":{"android":"levelo://app?vid=8d53aea4-b624-4223-9f3c-514d8430415e","ios":"levelo://app?vid=8d53aea4-b624-4223-9f3c-514d8430415e"},"vehicle_type_id":"4","last_reported":1733120106,"current_range_meters":32400,"station_id":"ce4bgup2rcd13ifvqcn0","pricing_plan_id":"cebpf4jnsgd1na2vs0mg"},{"bike_id":"67fa2a9e-eed8-4ed6-bdd8-7d1023a52b4e","system_id":"levelo_inurba_marseille","lat":43.26937,"lon":5.38922,"is_reserved":false,"is_disabled":true,"rental_uris":{"android":"levelo://app?vid=67fa2a9e-eed8-4ed6-bdd8-7d1023a52b4e","ios":"levelo://app?vid=67fa2a9e-eed8-4ed6-bdd8-7d1023a52b4e"},"vehicle_type_id":"4","last_reported":1733120106,"current_range_meters":1200,"station_id":"ce4bhhh2rcd13ifvqfl0","pricing_plan_id":"cebpf4jnsgd1na2vs0mg"},{"bike_id":"6f3cf266-4c73-46f3-88b1-4e6265a6cad2","system_id":"levelo_inurba_marseille","lat":43.27207,"lon":5.3919,"is_reserved":false,"is_disabled":false,"rental_uris":{"android":"levelo://app?vid=6f3cf266-4c73-46f3-88b1-4e6265a6cad2","ios":"levelo://app?vid=6f3cf266-4c73-46f3-88b1-4e6265a6cad2"},"vehicle_type_id":"4","last_reported":1733120106,"current_range_meters":36800,"station_id":"ce4bhhp2rcd13ifvqfm0","pricing_plan_id":"cebpf4jnsgd1na2vs0mg"},{"bike_id":"d7935a4e-3fa9-4259-9e60-39bc0ad852e1","system_id":"levelo_inurba_marseille","lat":43.29552,"lon":5.42286,"is_reserved":false,"is_disabled":false,"rental_uris":{"android":"levelo://app?vid=d7935a4e-3fa9-4259-9e60-39bc0ad852e1","ios":"levelo://app?vid=d7935a4e-3fa9-4259-9e60-39bc0ad852e1"},"vehicle_type_id":"4","last_reported":1733120106,"current_range_meters":38800,"station_id":"ce4bhph2rcd13ifvqhdg","pricing_plan_id":"cebpf4jnsgd1na2vs0mg"},{"bike_id":"3dc57342-a70a-4f92-ae52-6d8d5fa8ec86","system_id":"levelo_inurba_marseille","lat":43.28621,"lon":5.35104,"is_reserved":false,"is_disabled":false,"rental_uris":{"android":"levelo://app?vid=3dc57342-a70a-4f92-ae52-6d8d5fa8ec86","ios":"levelo://app?vid=3dc57342-a70a-4f92-ae52-6d8d5fa8ec86"},"vehicle_type_id":"4","last_reported":1733120106,"current_range_meters":36800,"station_id":"ce4bhch2rcd13ifvqeug","pricing_plan_id":"cebpf4jnsgd1na2vs0mg"},{"bike_id":"0a5b1774-56ee-4bf3-b802-d1a43241e484","system_id":"levelo_inurba_marseille","lat":43.32365,"lon":5.38892,"is_reserved":false,"is_disabled":false,"rental_uris":{"android":"levelo://app?vid=0a5b1774-56ee-4bf3-b802-d1a43241e484","ios":"levelo://app?vid=0a5b1774-56ee-4bf3-b802-d1a43241e484"},"vehicle_type_id":"4","last_reported":1733120106,"current_range_meters":17200,"station_id":"ce4bhqp2rcd13ifvqhog","pricing_plan_id":"cebpf4jnsgd1na2vs0mg"},{"bike_id":"9351f7f3-6667-4a7e-947c-47087698e629","system_id":"levelo_inurba_marseille","lat":43.25578,"lon":5.3824,"is_reserved":false,"is_disabled":false,"rental_uris":{"android":"levelo://app?vid=9351f7f3-6667-4a7e-947c-47087698e629","ios":"levelo://app?vid=9351f7f3-6667-4a7e-947c-47087698e629"},"vehicle_type_id":"4","last_reported":1733120106,"current_range_meters":39200,"station_id":"ce4bhih2rcd13ifvqfs0","pricing_plan_id":"cebpf4jnsgd1na2vs0mg"},{"bike_id":"fee40e4a-edf0-429c-9838-5fd8b4a4fd95","system_id":"levelo_inurba_marseille","lat":43.29736,"lon":5.37421,"is_reserved":false,"is_disabled":true,"rental_uris":{"android":"levelo://app?vid=fee40e4a-edf0-429c-9838-5fd8b4a4fd95","ios":"levelo://app?vid=fee40e4a-edf0-429c-9838-5fd8b4a4fd95"},"vehicle_type_id":"4","last_reported":1733120106,"current_range_meters":0,"station_id":"","pricing_plan_id":"cebpf4jnsgd1na2vs0mg"},{"bike_id":"720d9b5d-b809-439d-a66b-f5aa58596639","system_id":"levelo_inurba_marseille","lat":43.30885,"lon":5.39643,"is_reserved":false,"is_disabled":false,"rental_uris":{"android":"levelo://app?vid=720d9b5d-b809-439d-a66b-f5aa58596639","ios":"levelo://app?vid=720d9b5d-b809-439d-a66b-f5aa58596639"},"vehicle_type_id":"4","last_reported":1733120106,"current_range_meters":39200,"station_id":"ce4bh012rcd13ifvqcv0","pricing_plan_id":"cebpf4jnsgd1na2vs0mg"},{"bike_id":"3f177135-3c0f-401c-af6c-ff2d15061110","system_id":"levelo_inurba_marseille","lat":43.29002,"lon":5.35614,"is_reserved":false,"is_disabled":false,"rental_uris":{"android":"levelo://app?vid=3f177135-3c0f-401c-af6c-ff2d15061110","ios":"levelo://app?vid=3f177135-3c0f-401c-af6c-ff2d15061110"},"vehicle_type_id":"4","last_reported":1733120106,"current_range_meters":39200,"station_id":"ce4bhb92rcd13ifvqen0","pricing_plan_id":"cebpf4jnsgd1na2vs0mg"},{"bike_id":"447bc2dd-896b-4bc8-8f81-0848ed4ccb87","system_id":"levelo_inurba_marseille","lat":43.31324,"lon":5.39697,"is_reserved":false,"is_disabled":false,"rental_uris":{"android":"levelo://app?vid=447bc2dd-896b-4bc8-8f81-0848ed4ccb87","ios":"levelo://app?vid=447bc2dd-896b-4bc8-8f81-0848ed4ccb87"},"vehicle_type_id":"4","last_reported":1733120106,"current_range_meters":39200,"station_id":"ce4bgvp2rcd13ifvqcu0","pricing_plan_id":"cebpf4jnsgd1na2vs0mg"},{"bike_id":"4dc21ef1-cda4-4e17-829d-fa108bdde67e","system_id":"levelo_inurba_marseille","lat":43.28451,"lon":5.35895,"is_reserved":false,"is_disabled":true,"rental_uris":{"android":"levelo://app?vid=4dc21ef1-cda4-4e17-829d-fa108bdde67e","ios":"levelo://app?vid=4dc21ef1-cda4-4e17-829d-fa108bdde67e"},"vehicle_type_id":"4","last_reported":1733120106,"current_range_meters":28400,"station_id":"ce4bhah2rcd13ifvqei0","pricing_plan_id":"cebpf4jnsgd1na2vs0mg"},{"bike_id":"45c95cf3-1aa9-4af9-a9a3-7dba50ecc20e","system_id":"levelo_inurba_marseille","lat":43.27447,"lon":5.40722,"is_reserved":false,"is_disabled":false,"rental_uris":{"android":"levelo://app?vid=45c95cf3-1aa9-4af9-a9a3-7dba50ecc20e","ios":"levelo://app?vid=45c95cf3-1aa9-4af9-a9a3-7dba50ecc20e"},"vehicle_type_id":"4","last_reported":1733120106,"current_range_meters":15200,"station_id":"","pricing_plan_id":"cebpf4jnsgd1na2vs0mg"},{"bike_id":"bc749360-3ce4-4dd6-a0ac-83aa82c323a7","system_id":"levelo_inurba_marseille","lat":43.28156,"lon":5.42636,"is_reserved":false,"is_disabled":true,"rental_uris":{"android":"levelo://app?vid=bc749360-3ce4-4dd6-a0ac-83aa82c323a7","ios":"levelo://app?vid=bc749360-3ce4-4dd6-a0ac-83aa82c323a7"},"vehicle_type_id":"4","last_reported":1733120106,"current_range_meters":26800,"station_id":"ce4bhnh2rcd13ifvqgug","pricing_plan_id":"cebpf4jnsgd1na2vs0mg"},{"bike_id":"69119abf-3c66-472b-86f8-2aaed0b2ab5d","system_id":"levelo_inurba_marseille","lat":43.30468,"lon":5.37905,"is_reserved":false,"is_disabled":false,"rental_uris":{"android":"levelo://app?vid=69119abf-3c66-472b-86f8-2aaed0b2ab5d","ios":"levelo://app?vid=69119abf-3c66-472b-86f8-2aaed0b2ab5d"},"vehicle_type_id":"4","last_reported":1733120106,"current_range_meters":36000,"station_id":"ce4bgup2rcd13ifvqcn0","pricing_plan_id":"cebpf4jnsgd1na2vs0mg"},{"bike_id":"3fbdd72a-02ed-4ba9-9358-ea1c25a64554","system_id":"levelo_inurba_marseille","lat":43.279039,"lon":5.380159,"is_reserved":false,"is_disabled":false,"rental_uris":{"android":"levelo://app?vid=3fbdd72a-02ed-4ba9-9358-ea1c25a64554","ios":"levelo://app?vid=3fbdd72a-02ed-4ba9-9358-ea1c25a64554"},"vehicle_type_id":"4","last_reported":1733120106,"current_range_meters":38000,"station_id":"ce4bhf92rcd13ifvqf50","pricing_plan_id":"cebpf4jnsgd1na2vs0mg"},{"bike_id":"4d4c884f-6933-49c0-8899-f9856d90f44d","system_id":"levelo_inurba_marseille","lat":43.29748,"lon":5.37971,"is_reserved":false,"is_disabled":true,"rental_uris":{"android":"levelo://app?vid=4d4c884f-6933-49c0-8899-f9856d90f44d","ios":"levelo://app?vid=4d4c884f-6933-49c0-8899-f9856d90f44d"},"vehicle_type_id":"4","last_reported":1733120106,"current_range_meters":0,"station_id":"","pricing_plan_id":"cebpf4jnsgd1na2vs0mg"},{"bike_id":"49383f8c-5e0c-4bb5-aa2b-e1c81f4536f3","system_id":"levelo_inurba_marseille","lat":43.32288,"lon":5.38267,"is_reserved":false,"is_disabled":false,"rental_uris":{"android":"levelo://app?vid=49383f8c-5e0c-4bb5-aa2b-e1c81f4536f3","ios":"levelo://app?vid=49383f8c-5e0c-4bb5-aa2b-e1c81f4536f3"},"vehicle_type_id":"4","last_reported":1733120106,"current_range_meters":20800,"station_id":"ce4bhr12rcd13ifvqhqg","pricing_plan_id":"cebpf4jnsgd1na2vs0mg"},{"bike_id":"034a4551-2c99-4c29-90ff-f0536fa5cd10","system_id":"levelo_inurba_marseille","lat":43.31269,"lon":5.40177,"is_reserved":false,"is_disabled":false,"rental_uris":{"android":"levelo://app?vid=034a4551-2c99-4c29-90ff-f0536fa5cd10","ios":"levelo://app?vid=034a4551-2c99-4c29-90ff-f0536fa5cd10"},"vehicle_type_id":"4","last_reported":1733120106,"current_range_meters":25600,"station_id":"ce4bh092rcd13ifvqd30","pricing_plan_id":"cebpf4jnsgd1na2vs0mg"},{"bike_id":"ed6a26f9-edf0-4369-8b90-cb5e24294fc9","system_id":"levelo_inurba_marseille","lat":43.29793,"lon":5.38127,"is_reserved":false,"is_disabled":false,"rental_uris":{"android":"levelo://app?vid=ed6a26f9-edf0-4369-8b90-cb5e24294fc9","ios":"levelo://app?vid=ed6a26f9-edf0-4369-8b90-cb5e24294fc9"},"vehicle_type_id":"4","last_reported":1733120106,"current_range_meters":36800,"station_id":"ce4bgip2rcd13ifvqbb0","pricing_plan_id":"cebpf4jnsgd1na2vs0mg"},{"bike_id":"362acf97-9e8f-4c3e-8574-4958ae2ff74f","system_id":"levelo_inurba_marseille","lat":43.262494,"lon":5.421227,"is_reserved":false,"is_disabled":false,"rental_uris":{"android":"levelo://app?vid=362acf97-9e8f-4c3e-8574-4958ae2ff74f","ios":"levelo://app?vid=362acf97-9e8f-4c3e-8574-4958ae2ff74f"},"vehicle_type_id":"4","last_reported":1733120106,"current_range_meters":25200,"station_id":"","pricing_plan_id":"cebpf4jnsgd1na2vs0mg"},{"bike_id":"0f5fbce9-146c-49c4-8788-16d1a8f4deb0","system_id":"levelo_inurba_marseille","lat":43.30332,"lon":5.366,"is_reserved":false,"is_disabled":true,"rental_uris":{"android":"levelo://app?vid=0f5fbce9-146c-49c4-8788-16d1a8f4deb0","ios":"levelo://app?vid=0f5fbce9-146c-49c4-8788-16d1a8f4deb0"},"vehicle_type_id":"4","last_reported":1733120106,"current_range_meters":0,"station_id":"","pricing_plan_id":"cebpf4jnsgd1na2vs0mg"},{"bike_id":"f070b46f-f295-4869-946e-332934d2e60a","system_id":"levelo_inurba_marseille","lat":43.22927,"lon":5.35378,"is_reserved":false,"is_disabled":false,"rental_uris":{"android":"levelo://app?vid=f070b46f-f295-4869-946e-332934d2e60a","ios":"levelo://app?vid=f070b46f-f295-4869-946e-332934d2e60a"},"vehicle_type_id":"4","last_reported":1733120106,"current_range_meters":36800,"station_id":"cpo3532slgdg3j2ikp40","pricing_plan_id":"cebpf4jnsgd1na2vs0mg"},{"bike_id":"311b0f9d-7ff0-445e-9398-14cfe8d5a77d","system_id":"levelo_inurba_marseille","lat":43.26198,"lon":5.37928,"is_reserved":false,"is_disabled":false,"rental_uris":{"android":"levelo://app?vid=311b0f9d-7ff0-445e-9398-14cfe8d5a77d","ios":"levelo://app?vid=311b0f9d-7ff0-445e-9398-14cfe8d5a77d"},"vehicle_type_id":"4","last_reported":1733120106,"current_range_meters":38000,"station_id":"ce4bhjp2rcd13ifvqg90","pricing_plan_id":"cebpf4jnsgd1na2vs0mg"},{"bike_id":"9ed2feff-dfd3-4ec1-8209-144afcf23a0c","system_id":"levelo_inurba_marseille","lat":43.29278,"lon":5.36844,"is_reserved":false,"is_disabled":false,"rental_uris":{"android":"levelo://app?vid=9ed2feff-dfd3-4ec1-8209-144afcf23a0c","ios":"levelo://app?vid=9ed2feff-dfd3-4ec1-8209-144afcf23a0c"},"vehicle_type_id":"4","last_reported":1733120106,"current_range_meters":17200,"station_id":"ce4bhbp2rcd13ifvqesg","pricing_plan_id":"cebpf4jnsgd1na2vs0mg"},{"bike_id":"b7b33697-14a7-4110-9b8b-4194e6ef5f3f","system_id":"levelo_inurba_marseille","lat":43.27277,"lon":5.39192,"is_reserved":false,"is_disabled":true,"rental_uris":{"android":"levelo://app?vid=b7b33697-14a7-4110-9b8b-4194e6ef5f3f","ios":"levelo://app?vid=b7b33697-14a7-4110-9b8b-4194e6ef5f3f"},"vehicle_type_id":"4","last_reported":1733120106,"current_range_meters":0,"station_id":"","pricing_plan_id":"cebpf4jnsgd1na2vs0mg"},{"bike_id":"e5c43912-5d71-4e6b-b798-0f0d5f246b60","system_id":"levelo_inurba_marseille","lat":43.29801,"lon":5.38099,"is_reserved":false,"is_disabled":false,"rental_uris":{"android":"levelo://app?vid=e5c43912-5d71-4e6b-b798-0f0d5f246b60","ios":"levelo://app?vid=e5c43912-5d71-4e6b-b798-0f0d5f246b60"},"vehicle_type_id":"4","last_reported":1733120106,"current_range_meters":19200,"station_id":"ce4bgip2rcd13ifvqbb0","pricing_plan_id":"cebpf4jnsgd1na2vs0mg"},{"bike_id":"ac49fba4-30df-4893-b052-7d9d76fd86a2","system_id":"levelo_inurba_marseille","lat":43.29249,"lon":5.38432,"is_reserved":false,"is_disabled":true,"rental_uris":{"android":"levelo://app?vid=ac49fba4-30df-4893-b052-7d9d76fd86a2","ios":"levelo://app?vid=ac49fba4-30df-4893-b052-7d9d76fd86a2"},"vehicle_type_id":"4","last_reported":1733120106,"current_range_meters":8800,"station_id":"ce4bh692rcd13ifvqea0","pricing_plan_id":"cebpf4jnsgd1na2vs0mg"},{"bike_id":"36ed591d-ae75-4af2-b10d-0b5a114c33eb","system_id":"levelo_inurba_marseille","lat":43.31112,"lon":5.37766,"is_reserved":false,"is_disabled":false,"rental_uris":{"android":"levelo://app?vid=36ed591d-ae75-4af2-b10d-0b5a114c33eb","ios":"levelo://app?vid=36ed591d-ae75-4af2-b10d-0b5a114c33eb"},"vehicle_type_id":"4","last_reported":1733120106,"current_range_meters":38800,"station_id":"ce4bgt92rcd13ifvqcg0","pricing_plan_id":"cebpf4jnsgd1na2vs0mg"},{"bike_id":"a3d540a5-c9e8-4c92-9399-ec0baac57a71","system_id":"levelo_inurba_marseille","lat":43.29535,"lon":5.38557,"is_reserved":false,"is_disabled":true,"rental_uris":{"android":"levelo://app?vid=a3d540a5-c9e8-4c92-9399-ec0baac57a71","ios":"levelo://app?vid=a3d540a5-c9e8-4c92-9399-ec0baac57a71"},"vehicle_type_id":"4","last_reported":1733120106,"current_range_meters":0,"station_id":"ce4bgih2rcd13ifvqba0","pricing_plan_id":"cebpf4jnsgd1na2vs0mg"},{"bike_id":"3f9639b8-d131-490f-a4bf-0add6fa589d4","system_id":"levelo_inurba_marseille","lat":43.27982,"lon":5.41658,"is_reserved":false,"is_disabled":false,"rental_uris":{"android":"levelo://app?vid=3f9639b8-d131-490f-a4bf-0add6fa589d4","ios":"levelo://app?vid=3f9639b8-d131-490f-a4bf-0add6fa589d4"},"vehicle_type_id":"4","last_reported":1733120106,"current_range_meters":11600,"station_id":"ce4bho12rcd13ifvqh1g","pricing_plan_id":"cebpf4jnsgd1na2vs0mg"},{"bike_id":"c70bed4a-03c3-4d48-9d9d-f10e1949ee20","system_id":"levelo_inurba_marseille","lat":43.25,"lon":5.38926,"is_reserved":false,"is_disabled":false,"rental_uris":{"android":"levelo://app?vid=c70bed4a-03c3-4d48-9d9d-f10e1949ee20","ios":"levelo://app?vid=c70bed4a-03c3-4d48-9d9d-f10e1949ee20"},"vehicle_type_id":"4","last_reported":1733120106,"current_range_meters":38800,"station_id":"ce4bhgp2rcd13ifvqfd0","pricing_plan_id":"cebpf4jnsgd1na2vs0mg"},{"bike_id":"15c9443b-46a0-4c5c-bd5a-161461b5ed03","system_id":"levelo_inurba_marseille","lat":43.31891,"lon":5.40731,"is_reserved":false,"is_disabled":false,"rental_uris":{"android":"levelo://app?vid=15c9443b-46a0-4c5c-bd5a-161461b5ed03","ios":"levelo://app?vid=15c9443b-46a0-4c5c-bd5a-161461b5ed03"},"vehicle_type_id":"4","last_reported":1733120106,"current_range_meters":36400,"station_id":"ce4bhq12rcd13ifvqhig","pricing_plan_id":"cebpf4jnsgd1na2vs0mg"},{"bike_id":"3abdb507-aca9-41cf-ab5c-c13fb795c3a0","system_id":"levelo_inurba_marseille","lat":43.28417,"lon":5.34983,"is_reserved":false,"is_disabled":true,"rental_uris":{"android":"levelo://app?vid=3abdb507-aca9-41cf-ab5c-c13fb795c3a0","ios":"levelo://app?vid=3abdb507-aca9-41cf-ab5c-c13fb795c3a0"},"vehicle_type_id":"4","last_reported":1733120106,"current_range_meters":0,"station_id":"ce4bhbh2rcd13ifvqepg","pricing_plan_id":"cebpf4jnsgd1na2vs0mg"},{"bike_id":"0c75325c-958e-45f7-89d5-8bf413dd17d1","system_id":"levelo_inurba_marseille","lat":43.3001,"lon":5.38293,"is_reserved":false,"is_disabled":true,"rental_uris":{"android":"levelo://app?vid=0c75325c-958e-45f7-89d5-8bf413dd17d1","ios":"levelo://app?vid=0c75325c-958e-45f7-89d5-8bf413dd17d1"},"vehicle_type_id":"4","last_reported":1733120106,"current_range_meters":0,"station_id":"","pricing_plan_id":"cebpf4jnsgd1na2vs0mg"},{"bike_id":"a72ecdf9-e81e-49e5-a2a0-c9b7396b6442","system_id":"levelo_inurba_marseille","lat":43.31756,"lon":5.39017,"is_reserved":false,"is_disabled":false,"rental_uris":{"android":"levelo://app?vid=a72ecdf9-e81e-49e5-a2a0-c9b7396b6442","ios":"levelo://app?vid=a72ecdf9-e81e-49e5-a2a0-c9b7396b6442"},"vehicle_type_id":"4","last_reported":1733120106,"current_range_meters":38000,"station_id":"ce4bhqp2rcd13ifvqhng","pricing_plan_id":"cebpf4jnsgd1na2vs0mg"},{"bike_id":"fb2674c4-493a-4927-84ab-3be626644e42","system_id":"levelo_inurba_marseille","lat":43.31881,"lon":5.40733,"is_reserved":false,"is_disabled":false,"rental_uris":{"android":"levelo://app?vid=fb2674c4-493a-4927-84ab-3be626644e42","ios":"levelo://app?vid=fb2674c4-493a-4927-84ab-3be626644e42"},"vehicle_type_id":"4","last_reported":1733120106,"current_range_meters":14400,"station_id":"ce4bhq12rcd13ifvqhig","pricing_plan_id":"cebpf4jnsgd1na2vs0mg"},{"bike_id":"6c3b4431-ca2c-4347-a6db-d1e4dee15e08","system_id":"levelo_inurba_marseille","lat":43.27495,"lon":5.42455,"is_reserved":false,"is_disabled":false,"rental_uris":{"android":"levelo://app?vid=6c3b4431-ca2c-4347-a6db-d1e4dee15e08","ios":"levelo://app?vid=6c3b4431-ca2c-4347-a6db-d1e4dee15e08"},"vehicle_type_id":"4","last_reported":1733120106,"current_range_meters":26800,"station_id":"ce4bhn92rcd13ifvqgrg","pricing_plan_id":"cebpf4jnsgd1na2vs0mg"},{"bike_id":"3e7b4b23-6031-4448-8da9-17647584ad72","system_id":"levelo_inurba_marseille","lat":43.29053,"lon":5.3715,"is_reserved":false,"is_disabled":true,"rental_uris":{"android":"levelo://app?vid=3e7b4b23-6031-4448-8da9-17647584ad72","ios":"levelo://app?vid=3e7b4b23-6031-4448-8da9-17647584ad72"},"vehicle_type_id":"4","last_reported":1733120106,"current_range_meters":28400,"station_id":"ce4bh5p2rcd13ifvqe4g","pricing_plan_id":"cebpf4jnsgd1na2vs0mg"},{"bike_id":"c7141c69-2777-4179-ad40-d7d4799a8db6","system_id":"levelo_inurba_marseille","lat":43.28716,"lon":5.37942,"is_reserved":false,"is_disabled":false,"rental_uris":{"android":"levelo://app?vid=c7141c69-2777-4179-ad40-d7d4799a8db6","ios":"levelo://app?vid=c7141c69-2777-4179-ad40-d7d4799a8db6"},"vehicle_type_id":"4","last_reported":1733120106,"current_range_meters":39200,"station_id":"ce4bh9p2rcd13ifvqec0","pricing_plan_id":"cebpf4jnsgd1na2vs0mg"},{"bike_id":"314d1365-c0f9-4b36-8299-e279909a774d","system_id":"levelo_inurba_marseille","lat":43.31214,"lon":5.36859,"is_reserved":false,"is_disabled":true,"rental_uris":{"android":"levelo://app?vid=314d1365-c0f9-4b36-8299-e279909a774d","ios":"levelo://app?vid=314d1365-c0f9-4b36-8299-e279909a774d"},"vehicle_type_id":"4","last_reported":1733120106,"current_range_meters":0,"station_id":"ce4bgl92rcd13ifvqbq0","pricing_plan_id":"cebpf4jnsgd1na2vs0mg"},{"bike_id":"539c7285-05dd-4c53-aa65-8fa16ef0ea68","system_id":"levelo_inurba_marseille","lat":43.23158,"lon":5.43701,"is_reserved":false,"is_disabled":false,"rental_uris":{"android":"levelo://app?vid=539c7285-05dd-4c53-aa65-8fa16ef0ea68","ios":"levelo://app?vid=539c7285-05dd-4c53-aa65-8fa16ef0ea68"},"vehicle_type_id":"4","last_reported":1733120106,"current_range_meters":38000,"station_id":"ce4bhmp2rcd13ifvqgog","pricing_plan_id":"cebpf4jnsgd1na2vs0mg"},{"bike_id":"a0d8c5dc-0261-4057-8633-570358d88be8","system_id":"levelo_inurba_marseille","lat":43.24809,"lon":5.37453,"is_reserved":false,"is_disabled":true,"rental_uris":{"android":"levelo://app?vid=a0d8c5dc-0261-4057-8633-570358d88be8","ios":"levelo://app?vid=a0d8c5dc-0261-4057-8633-570358d88be8"},"vehicle_type_id":"4","last_reported":1733120106,"current_range_meters":39200,"station_id":"ce4bhgh2rcd13ifvqfb0","pricing_plan_id":"cebpf4jnsgd1na2vs0mg"},{"bike_id":"8e126d5e-9202-4d02-9b96-07562eaa0d7f","system_id":"levelo_inurba_marseille","lat":43.33721,"lon":5.39177,"is_reserved":false,"is_disabled":false,"rental_uris":{"android":"levelo://app?vid=8e126d5e-9202-4d02-9b96-07562eaa0d7f","ios":"levelo://app?vid=8e126d5e-9202-4d02-9b96-07562eaa0d7f"},"vehicle_type_id":"4","last_reported":1733120106,"current_range_meters":22400,"station_id":"ce4bhr92rcd13ifvqhsg","pricing_plan_id":"cebpf4jnsgd1na2vs0mg"},{"bike_id":"1602da4b-460f-4c75-bd3e-20dda1d78217","system_id":"levelo_inurba_marseille","lat":43.29907,"lon":5.3814,"is_reserved":false,"is_disabled":false,"rental_uris":{"android":"levelo://app?vid=1602da4b-460f-4c75-bd3e-20dda1d78217","ios":"levelo://app?vid=1602da4b-460f-4c75-bd3e-20dda1d78217"},"vehicle_type_id":"4","last_reported":1733120106,"current_range_meters":14400,"station_id":"ce4bgj12rcd13ifvqbc0","pricing_plan_id":"cebpf4jnsgd1na2vs0mg"},{"bike_id":"cd8cc499-deb6-4097-9823-c7ccf6d23d4f","system_id":"levelo_inurba_marseille","lat":43.28034,"lon":5.36955,"is_reserved":false,"is_disabled":true,"rental_uris":{"android":"levelo://app?vid=cd8cc499-deb6-4097-9823-c7ccf6d23d4f","ios":"levelo://app?vid=cd8cc499-deb6-4097-9823-c7ccf6d23d4f"},"vehicle_type_id":"4","last_reported":1733120106,"current_range_meters":0,"station_id":"ce4bha12rcd13ifvqef0","pricing_plan_id":"cebpf4jnsgd1na2vs0mg"},{"bike_id":"ab7ffb71-283c-4af3-a6fe-40b875c7c5fa","system_id":"levelo_inurba_marseille","lat":43.24543,"lon":5.39527,"is_reserved":false,"is_disabled":false,"rental_uris":{"android":"levelo://app?vid=ab7ffb71-283c-4af3-a6fe-40b875c7c5fa","ios":"levelo://app?vid=ab7ffb71-283c-4af3-a6fe-40b875c7c5fa"},"vehicle_type_id":"4","last_reported":1733120106,"current_range_meters":39200,"station_id":"ce4bhlp2rcd13ifvqgjg","pricing_plan_id":"cebpf4jnsgd1na2vs0mg"},{"bike_id":"89eb09d9-d8ae-446e-8af0-071b78d5e9a6","system_id":"levelo_inurba_marseille","lat":43.284274,"lon":5.349884,"is_reserved":false,"is_disabled":false,"rental_uris":{"android":"levelo://app?vid=89eb09d9-d8ae-446e-8af0-071b78d5e9a6","ios":"levelo://app?vid=89eb09d9-d8ae-446e-8af0-071b78d5e9a6"},"vehicle_type_id":"4","last_reported":1733120106,"current_range_meters":38400,"station_id":"ce4bhbh2rcd13ifvqepg","pricing_plan_id":"cebpf4jnsgd1na2vs0mg"},{"bike_id":"064861a6-5a15-4e22-bc40-26ea165590ab","system_id":"levelo_inurba_marseille","lat":43.29195,"lon":5.39325,"is_reserved":false,"is_disabled":true,"rental_uris":{"android":"levelo://app?vid=064861a6-5a15-4e22-bc40-26ea165590ab","ios":"levelo://app?vid=064861a6-5a15-4e22-bc40-26ea165590ab"},"vehicle_type_id":"4","last_reported":1733120106,"current_range_meters":20800,"station_id":"ce4bh192rcd13ifvqdd0","pricing_plan_id":"cebpf4jnsgd1na2vs0mg"},{"bike_id":"83187be1-7efa-435e-ae9b-74201cb4dec3","system_id":"levelo_inurba_marseille","lat":43.26687,"lon":5.38277,"is_reserved":false,"is_disabled":true,"rental_uris":{"android":"levelo://app?vid=83187be1-7efa-435e-ae9b-74201cb4dec3","ios":"levelo://app?vid=83187be1-7efa-435e-ae9b-74201cb4dec3"},"vehicle_type_id":"4","last_reported":1733120106,"current_range_meters":35600,"station_id":"ce4bhg92rcd13ifvqf90","pricing_plan_id":"cebpf4jnsgd1na2vs0mg"},{"bike_id":"c111e9fb-60e5-4181-8897-e7b4a184b8b9","system_id":"levelo_inurba_marseille","lat":43.3188,"lon":5.4073,"is_reserved":false,"is_disabled":false,"rental_uris":{"android":"levelo://app?vid=c111e9fb-60e5-4181-8897-e7b4a184b8b9","ios":"levelo://app?vid=c111e9fb-60e5-4181-8897-e7b4a184b8b9"},"vehicle_type_id":"4","last_reported":1733120106,"current_range_meters":8400,"station_id":"ce4bhq12rcd13ifvqhig","pricing_plan_id":"cebpf4jnsgd1na2vs0mg"},{"bike_id":"e8fa7be1-2407-41a7-b843-e7c70f1917ef","system_id":"levelo_inurba_marseille","lat":43.27611,"lon":5.36109,"is_reserved":false,"is_disabled":true,"rental_uris":{"android":"levelo://app?vid=e8fa7be1-2407-41a7-b843-e7c70f1917ef","ios":"levelo://app?vid=e8fa7be1-2407-41a7-b843-e7c70f1917ef"},"vehicle_type_id":"4","last_reported":1733120106,"current_range_meters":0,"station_id":"ce4bgj92rcd13ifvqbe0","pricing_plan_id":"cebpf4jnsgd1na2vs0mg"},{"bike_id":"1f465957-ee2f-417d-8db9-0c0b288443cd","system_id":"levelo_inurba_marseille","lat":43.30547,"lon":5.38432,"is_reserved":false,"is_disabled":false,"rental_uris":{"android":"levelo://app?vid=1f465957-ee2f-417d-8db9-0c0b288443cd","ios":"levelo://app?vid=1f465957-ee2f-417d-8db9-0c0b288443cd"},"vehicle_type_id":"4","last_reported":1733120106,"current_range_meters":19200,"station_id":"ce4bgg92rcd13ifvqb30","pricing_plan_id":"cebpf4jnsgd1na2vs0mg"},{"bike_id":"5bc8eee1-5d5e-4028-b515-d7e893f783cb","system_id":"levelo_inurba_marseille","lat":43.30159,"lon":5.38082,"is_reserved":false,"is_disabled":false,"rental_uris":{"android":"levelo://app?vid=5bc8eee1-5d5e-4028-b515-d7e893f783cb","ios":"levelo://app?vid=5bc8eee1-5d5e-4028-b515-d7e893f783cb"},"vehicle_type_id":"4","last_reported":1733120106,"current_range_meters":32000,"station_id":"ce4bgjp2rcd13ifvqbh0","pricing_plan_id":"cebpf4jnsgd1na2vs0mg"},{"bike_id":"17a954bd-2cd5-470d-83a1-74e68c25205f","system_id":"levelo_inurba_marseille","lat":43.27984,"lon":5.41665,"is_reserved":false,"is_disabled":true,"rental_uris":{"android":"levelo://app?vid=17a954bd-2cd5-470d-83a1-74e68c25205f","ios":"levelo://app?vid=17a954bd-2cd5-470d-83a1-74e68c25205f"},"vehicle_type_id":"4","last_reported":1733120106,"current_range_meters":14800,"station_id":"ce4bho12rcd13ifvqh1g","pricing_plan_id":"cebpf4jnsgd1na2vs0mg"},{"bike_id":"04b4280b-830d-4785-aa41-f9de4cd28461","system_id":"levelo_inurba_marseille","lat":43.28983,"lon":5.37828,"is_reserved":false,"is_disabled":false,"rental_uris":{"android":"levelo://app?vid=04b4280b-830d-4785-aa41-f9de4cd28461","ios":"levelo://app?vid=04b4280b-830d-4785-aa41-f9de4cd28461"},"vehicle_type_id":"4","last_reported":1733120106,"current_range_meters":37600,"station_id":"ce4bh9p2rcd13ifvqed0","pricing_plan_id":"cebpf4jnsgd1na2vs0mg"},{"bike_id":"3718c917-41aa-4be7-b44e-8bcf9b061bb6","system_id":"levelo_inurba_marseille","lat":43.31328,"lon":5.39706,"is_reserved":false,"is_disabled":false,"rental_uris":{"android":"levelo://app?vid=3718c917-41aa-4be7-b44e-8bcf9b061bb6","ios":"levelo://app?vid=3718c917-41aa-4be7-b44e-8bcf9b061bb6"},"vehicle_type_id":"4","last_reported":1733120106,"current_range_meters":14400,"station_id":"ce4bgvp2rcd13ifvqcu0","pricing_plan_id":"cebpf4jnsgd1na2vs0mg"},{"bike_id":"ad2a8c43-8d0a-44d3-88ac-fa0abdc01227","system_id":"levelo_inurba_marseille","lat":43.29046,"lon":5.39953,"is_reserved":false,"is_disabled":false,"rental_uris":{"android":"levelo://app?vid=ad2a8c43-8d0a-44d3-88ac-fa0abdc01227","ios":"levelo://app?vid=ad2a8c43-8d0a-44d3-88ac-fa0abdc01227"},"vehicle_type_id":"4","last_reported":1733120106,"current_range_meters":32000,"station_id":"ce4bh392rcd13ifvqdm0","pricing_plan_id":"cebpf4jnsgd1na2vs0mg"},{"bike_id":"ceecd159-e424-4c22-8ee0-0e80a4876ba9","system_id":"levelo_inurba_marseille","lat":43.28099,"lon":5.37864,"is_reserved":false,"is_disabled":false,"rental_uris":{"android":"levelo://app?vid=ceecd159-e424-4c22-8ee0-0e80a4876ba9","ios":"levelo://app?vid=ceecd159-e424-4c22-8ee0-0e80a4876ba9"},"vehicle_type_id":"4","last_reported":1733120106,"current_range_meters":36400,"station_id":"ce4bha12rcd13ifvqee0","pricing_plan_id":"cebpf4jnsgd1na2vs0mg"},{"bike_id":"8f1940ce-2c81-4f0f-9d04-ff02c2136e5d","system_id":"levelo_inurba_marseille","lat":43.30883,"lon":5.39644,"is_reserved":false,"is_disabled":false,"rental_uris":{"android":"levelo://app?vid=8f1940ce-2c81-4f0f-9d04-ff02c2136e5d","ios":"levelo://app?vid=8f1940ce-2c81-4f0f-9d04-ff02c2136e5d"},"vehicle_type_id":"4","last_reported":1733120106,"current_range_meters":33200,"station_id":"ce4bh012rcd13ifvqcv0","pricing_plan_id":"cebpf4jnsgd1na2vs0mg"},{"bike_id":"07fb7633-02ab-4ccf-9e62-1a19e2bf2eab","system_id":"levelo_inurba_marseille","lat":43.27182,"lon":5.4099,"is_reserved":false,"is_disabled":false,"rental_uris":{"android":"levelo://app?vid=07fb7633-02ab-4ccf-9e62-1a19e2bf2eab","ios":"levelo://app?vid=07fb7633-02ab-4ccf-9e62-1a19e2bf2eab"},"vehicle_type_id":"4","last_reported":1733120106,"current_range_meters":37600,"station_id":"ce4bhl12rcd13ifvqgf0","pricing_plan_id":"cebpf4jnsgd1na2vs0mg"},{"bike_id":"ea1337cb-aaf9-4a8f-9612-c78771fe8808","system_id":"levelo_inurba_marseille","lat":43.25287,"lon":5.39455,"is_reserved":false,"is_disabled":true,"rental_uris":{"android":"levelo://app?vid=ea1337cb-aaf9-4a8f-9612-c78771fe8808","ios":"levelo://app?vid=ea1337cb-aaf9-4a8f-9612-c78771fe8808"},"vehicle_type_id":"4","last_reported":1733120106,"current_range_meters":0,"station_id":"","pricing_plan_id":"cebpf4jnsgd1na2vs0mg"},{"bike_id":"1cc695f9-f86e-478e-97c6-0ba3ec831851","system_id":"levelo_inurba_marseille","lat":43.30601,"lon":5.39356,"is_reserved":false,"is_disabled":false,"rental_uris":{"android":"levelo://app?vid=1cc695f9-f86e-478e-97c6-0ba3ec831851","ios":"levelo://app?vid=1cc695f9-f86e-478e-97c6-0ba3ec831851"},"vehicle_type_id":"4","last_reported":1733120106,"current_range_meters":28400,"station_id":"ce4bh0p2rcd13ifvqd80","pricing_plan_id":"cebpf4jnsgd1na2vs0mg"},{"bike_id":"65110cec-f39e-4f0d-8fdd-42c9b1d456aa","system_id":"levelo_inurba_marseille","lat":43.30211,"lon":5.39469,"is_reserved":false,"is_disabled":false,"rental_uris":{"android":"levelo://app?vid=65110cec-f39e-4f0d-8fdd-42c9b1d456aa","ios":"levelo://app?vid=65110cec-f39e-4f0d-8fdd-42c9b1d456aa"},"vehicle_type_id":"4","last_reported":1733120106,"current_range_meters":39200,"station_id":"ce4bh0p2rcd13ifvqd70","pricing_plan_id":"cebpf4jnsgd1na2vs0mg"},{"bike_id":"14ddd5d3-3c69-47b7-9620-3fa182210dd9","system_id":"levelo_inurba_marseille","lat":43.2962,"lon":5.37145,"is_reserved":false,"is_disabled":false,"rental_uris":{"android":"levelo://app?vid=14ddd5d3-3c69-47b7-9620-3fa182210dd9","ios":"levelo://app?vid=14ddd5d3-3c69-47b7-9620-3fa182210dd9"},"vehicle_type_id":"4","last_reported":1733120106,"current_range_meters":39200,"station_id":"ce4bgnh2rcd13ifvqc0g","pricing_plan_id":"cebpf4jnsgd1na2vs0mg"},{"bike_id":"3922faff-fa68-4e90-8c2d-12f05cbf5215","system_id":"levelo_inurba_marseille","lat":43.25111,"lon":5.40325,"is_reserved":false,"is_disabled":false,"rental_uris":{"android":"levelo://app?vid=3922faff-fa68-4e90-8c2d-12f05cbf5215","ios":"levelo://app?vid=3922faff-fa68-4e90-8c2d-12f05cbf5215"},"vehicle_type_id":"4","last_reported":1733120106,"current_range_meters":17200,"station_id":"ce4bhlh2rcd13ifvqgig","pricing_plan_id":"cebpf4jnsgd1na2vs0mg"},{"bike_id":"af12a5f9-720e-4019-987d-3779fe2b91a2","system_id":"levelo_inurba_marseille","lat":43.30823,"lon":5.37412,"is_reserved":false,"is_disabled":true,"rental_uris":{"android":"levelo://app?vid=af12a5f9-720e-4019-987d-3779fe2b91a2","ios":"levelo://app?vid=af12a5f9-720e-4019-987d-3779fe2b91a2"},"vehicle_type_id":"4","last_reported":1733120106,"current_range_meters":0,"station_id":"","pricing_plan_id":"cebpf4jnsgd1na2vs0mg"},{"bike_id":"59ef04f5-1cf8-4d1e-9688-51140c94c707","system_id":"levelo_inurba_marseille","lat":43.29552,"lon":5.42285,"is_reserved":false,"is_disabled":false,"rental_uris":{"android":"levelo://app?vid=59ef04f5-1cf8-4d1e-9688-51140c94c707","ios":"levelo://app?vid=59ef04f5-1cf8-4d1e-9688-51140c94c707"},"vehicle_type_id":"4","last_reported":1733120106,"current_range_meters":17600,"station_id":"ce4bhph2rcd13ifvqhdg","pricing_plan_id":"cebpf4jnsgd1na2vs0mg"},{"bike_id":"8746fc95-c2b6-4996-881b-5ee2916c2188","system_id":"levelo_inurba_marseille","lat":43.30597,"lon":5.39355,"is_reserved":false,"is_disabled":false,"rental_uris":{"android":"levelo://app?vid=8746fc95-c2b6-4996-881b-5ee2916c2188","ios":"levelo://app?vid=8746fc95-c2b6-4996-881b-5ee2916c2188"},"vehicle_type_id":"4","last_reported":1733120106,"current_range_meters":38800,"station_id":"ce4bh0p2rcd13ifvqd80","pricing_plan_id":"cebpf4jnsgd1na2vs0mg"},{"bike_id":"042a691f-d0eb-4656-984d-8a5fd3182735","system_id":"levelo_inurba_marseille","lat":43.30936,"lon":5.390402,"is_reserved":false,"is_disabled":false,"rental_uris":{"android":"levelo://app?vid=042a691f-d0eb-4656-984d-8a5fd3182735","ios":"levelo://app?vid=042a691f-d0eb-4656-984d-8a5fd3182735"},"vehicle_type_id":"4","last_reported":1733120106,"current_range_meters":18800,"station_id":"ce4bgup2rcd13ifvqco0","pricing_plan_id":"cebpf4jnsgd1na2vs0mg"},{"bike_id":"428917c0-4eec-437c-a8d3-47cb284890bd","system_id":"levelo_inurba_marseille","lat":43.30948,"lon":5.39046,"is_reserved":false,"is_disabled":false,"rental_uris":{"android":"levelo://app?vid=428917c0-4eec-437c-a8d3-47cb284890bd","ios":"levelo://app?vid=428917c0-4eec-437c-a8d3-47cb284890bd"},"vehicle_type_id":"4","last_reported":1733120106,"current_range_meters":32000,"station_id":"ce4bgup2rcd13ifvqco0","pricing_plan_id":"cebpf4jnsgd1na2vs0mg"},{"bike_id":"d15814a2-573f-4c78-8275-4faa7c761a8d","system_id":"levelo_inurba_marseille","lat":43.28713,"lon":5.36112,"is_reserved":false,"is_disabled":false,"rental_uris":{"android":"levelo://app?vid=d15814a2-573f-4c78-8275-4faa7c761a8d","ios":"levelo://app?vid=d15814a2-573f-4c78-8275-4faa7c761a8d"},"vehicle_type_id":"4","last_reported":1733120106,"current_range_meters":37600,"station_id":"cki0cbj6b192h4jlfktg","pricing_plan_id":"cebpf4jnsgd1na2vs0mg"},{"bike_id":"e8aaf989-f7c7-4f92-9039-2cedc59abe88","system_id":"levelo_inurba_marseille","lat":43.25391,"lon":5.41852,"is_reserved":false,"is_disabled":false,"rental_uris":{"android":"levelo://app?vid=e8aaf989-f7c7-4f92-9039-2cedc59abe88","ios":"levelo://app?vid=e8aaf989-f7c7-4f92-9039-2cedc59abe88"},"vehicle_type_id":"4","last_reported":1733120106,"current_range_meters":25600,"station_id":"","pricing_plan_id":"cebpf4jnsgd1na2vs0mg"},{"bike_id":"ac2a82ed-217d-4a5c-aeff-ea21a140ef53","system_id":"levelo_inurba_marseille","lat":43.28061,"lon":5.35631,"is_reserved":false,"is_disabled":false,"rental_uris":{"android":"levelo://app?vid=ac2a82ed-217d-4a5c-aeff-ea21a140ef53","ios":"levelo://app?vid=ac2a82ed-217d-4a5c-aeff-ea21a140ef53"},"vehicle_type_id":"4","last_reported":1733120106,"current_range_meters":13600,"station_id":"","pricing_plan_id":"cebpf4jnsgd1na2vs0mg"},{"bike_id":"aa26e09f-c4e7-41fc-9f9c-f030593195ce","system_id":"levelo_inurba_marseille","lat":43.24393,"lon":5.37053,"is_reserved":false,"is_disabled":false,"rental_uris":{"android":"levelo://app?vid=aa26e09f-c4e7-41fc-9f9c-f030593195ce","ios":"levelo://app?vid=aa26e09f-c4e7-41fc-9f9c-f030593195ce"},"vehicle_type_id":"4","last_reported":1733120106,"current_range_meters":38800,"station_id":"ce4bhhh2rcd13ifvqfk0","pricing_plan_id":"cebpf4jnsgd1na2vs0mg"},{"bike_id":"e21d593d-4b3f-4212-bd78-3395240050d3","system_id":"levelo_inurba_marseille","lat":43.30471,"lon":5.37902,"is_reserved":false,"is_disabled":false,"rental_uris":{"android":"levelo://app?vid=e21d593d-4b3f-4212-bd78-3395240050d3","ios":"levelo://app?vid=e21d593d-4b3f-4212-bd78-3395240050d3"},"vehicle_type_id":"4","last_reported":1733120106,"current_range_meters":23200,"station_id":"ce4bgup2rcd13ifvqcn0","pricing_plan_id":"cebpf4jnsgd1na2vs0mg"},{"bike_id":"4a2be555-d056-454c-bed3-fe781ba86f8e","system_id":"levelo_inurba_marseille","lat":43.25886,"lon":5.39954,"is_reserved":false,"is_disabled":true,"rental_uris":{"android":"levelo://app?vid=4a2be555-d056-454c-bed3-fe781ba86f8e","ios":"levelo://app?vid=4a2be555-d056-454c-bed3-fe781ba86f8e"},"vehicle_type_id":"4","last_reported":1733120106,"current_range_meters":0,"station_id":"","pricing_plan_id":"cebpf4jnsgd1na2vs0mg"},{"bike_id":"7a8cce14-85f1-4f97-933d-709c14085c95","system_id":"levelo_inurba_marseille","lat":43.29026,"lon":5.37559,"is_reserved":false,"is_disabled":false,"rental_uris":{"android":"levelo://app?vid=7a8cce14-85f1-4f97-933d-709c14085c95","ios":"levelo://app?vid=7a8cce14-85f1-4f97-933d-709c14085c95"},"vehicle_type_id":"4","last_reported":1733120106,"current_range_meters":30800,"station_id":"ce4bh692rcd13ifvqe90","pricing_plan_id":"cebpf4jnsgd1na2vs0mg"},{"bike_id":"e72f72c7-28ee-4a00-ac95-3095ed74405a","system_id":"levelo_inurba_marseille","lat":43.29974,"lon":5.38493,"is_reserved":false,"is_disabled":true,"rental_uris":{"android":"levelo://app?vid=e72f72c7-28ee-4a00-ac95-3095ed74405a","ios":"levelo://app?vid=e72f72c7-28ee-4a00-ac95-3095ed74405a"},"vehicle_type_id":"4","last_reported":1733120106,"current_range_meters":35600,"station_id":"ce4bgj92rcd13ifvqbd0","pricing_plan_id":"cebpf4jnsgd1na2vs0mg"},{"bike_id":"9d730ea9-9e60-4b26-865b-19384c86cf88","system_id":"levelo_inurba_marseille","lat":43.31525,"lon":5.38036,"is_reserved":false,"is_disabled":false,"rental_uris":{"android":"levelo://app?vid=9d730ea9-9e60-4b26-865b-19384c86cf88","ios":"levelo://app?vid=9d730ea9-9e60-4b26-865b-19384c86cf88"},"vehicle_type_id":"4","last_reported":1733120106,"current_range_meters":39200,"station_id":"ce4bhsp2rcd13ifvqi50","pricing_plan_id":"cebpf4jnsgd1na2vs0mg"},{"bike_id":"49804efd-590d-4701-9465-51bfbe11c628","system_id":"levelo_inurba_marseille","lat":43.30903,"lon":5.37207,"is_reserved":false,"is_disabled":false,"rental_uris":{"android":"levelo://app?vid=49804efd-590d-4701-9465-51bfbe11c628","ios":"levelo://app?vid=49804efd-590d-4701-9465-51bfbe11c628"},"vehicle_type_id":"4","last_reported":1733120106,"current_range_meters":38800,"station_id":"ce4bguh2rcd13ifvqckg","pricing_plan_id":"cebpf4jnsgd1na2vs0mg"},{"bike_id":"9807700f-cad5-461c-bdde-4b761f428a7a","system_id":"levelo_inurba_marseille","lat":43.27985,"lon":5.41663,"is_reserved":false,"is_disabled":false,"rental_uris":{"android":"levelo://app?vid=9807700f-cad5-461c-bdde-4b761f428a7a","ios":"levelo://app?vid=9807700f-cad5-461c-bdde-4b761f428a7a"},"vehicle_type_id":"4","last_reported":1733120106,"current_range_meters":28800,"station_id":"ce4bho12rcd13ifvqh1g","pricing_plan_id":"cebpf4jnsgd1na2vs0mg"},{"bike_id":"41329919-d8a6-4529-9c36-e6723e50ee60","system_id":"levelo_inurba_marseille","lat":43.30296,"lon":5.39221,"is_reserved":false,"is_disabled":true,"rental_uris":{"android":"levelo://app?vid=41329919-d8a6-4529-9c36-e6723e50ee60","ios":"levelo://app?vid=41329919-d8a6-4529-9c36-e6723e50ee60"},"vehicle_type_id":"4","last_reported":1733120106,"current_range_meters":27600,"station_id":"ce4bgkh2rcd13ifvqbk0","pricing_plan_id":"cebpf4jnsgd1na2vs0mg"},{"bike_id":"cfd2e7f3-0fe5-423e-9c51-762a6eb8979d","system_id":"levelo_inurba_marseille","lat":43.30325,"lon":5.4045,"is_reserved":false,"is_disabled":false,"rental_uris":{"android":"levelo://app?vid=cfd2e7f3-0fe5-423e-9c51-762a6eb8979d","ios":"levelo://app?vid=cfd2e7f3-0fe5-423e-9c51-762a6eb8979d"},"vehicle_type_id":"4","last_reported":1733120106,"current_range_meters":13600,"station_id":"ce4bh012rcd13ifvqd10","pricing_plan_id":"cebpf4jnsgd1na2vs0mg"},{"bike_id":"e246fbd4-b154-4eb0-acc2-f5a8aa3e4a16","system_id":"levelo_inurba_marseille","lat":43.25103,"lon":5.40329,"is_reserved":false,"is_disabled":false,"rental_uris":{"android":"levelo://app?vid=e246fbd4-b154-4eb0-acc2-f5a8aa3e4a16","ios":"levelo://app?vid=e246fbd4-b154-4eb0-acc2-f5a8aa3e4a16"},"vehicle_type_id":"4","last_reported":1733120106,"current_range_meters":32400,"station_id":"ce4bhlh2rcd13ifvqgig","pricing_plan_id":"cebpf4jnsgd1na2vs0mg"},{"bike_id":"bed8c8cf-8f2f-47c8-9893-e3019cd04933","system_id":"levelo_inurba_marseille","lat":43.24678,"lon":5.3816,"is_reserved":false,"is_disabled":false,"rental_uris":{"android":"levelo://app?vid=bed8c8cf-8f2f-47c8-9893-e3019cd04933","ios":"levelo://app?vid=bed8c8cf-8f2f-47c8-9893-e3019cd04933"},"vehicle_type_id":"4","last_reported":1733120106,"current_range_meters":11200,"station_id":"ce4bhih2rcd13ifvqfr0","pricing_plan_id":"cebpf4jnsgd1na2vs0mg"},{"bike_id":"000b518d-442b-4752-8b9a-e2fc3654d286","system_id":"levelo_inurba_marseille","lat":43.29446,"lon":5.3976,"is_reserved":false,"is_disabled":true,"rental_uris":{"android":"levelo://app?vid=000b518d-442b-4752-8b9a-e2fc3654d286","ios":"levelo://app?vid=000b518d-442b-4752-8b9a-e2fc3654d286"},"vehicle_type_id":"4","last_reported":1733120106,"current_range_meters":12800,"station_id":"ce4bh3h2rcd13ifvqdo0","pricing_plan_id":"cebpf4jnsgd1na2vs0mg"},{"bike_id":"e39d22a4-daed-483a-acbb-550d4592cfe0","system_id":"levelo_inurba_marseille","lat":43.30057,"lon":5.38822,"is_reserved":false,"is_disabled":true,"rental_uris":{"android":"levelo://app?vid=e39d22a4-daed-483a-acbb-550d4592cfe0","ios":"levelo://app?vid=e39d22a4-daed-483a-acbb-550d4592cfe0"},"vehicle_type_id":"4","last_reported":1733120106,"current_range_meters":0,"station_id":"","pricing_plan_id":"cebpf4jnsgd1na2vs0mg"},{"bike_id":"3ab74815-419b-450d-9a7d-599c15b864d8","system_id":"levelo_inurba_marseille","lat":43.28931,"lon":5.3663,"is_reserved":false,"is_disabled":false,"rental_uris":{"android":"levelo://app?vid=3ab74815-419b-450d-9a7d-599c15b864d8","ios":"levelo://app?vid=3ab74815-419b-450d-9a7d-599c15b864d8"},"vehicle_type_id":"4","last_reported":1733120106,"current_range_meters":38400,"station_id":"ce4bhap2rcd13ifvqek0","pricing_plan_id":"cebpf4jnsgd1na2vs0mg"},{"bike_id":"f9c8b933-6f3c-415b-a23a-3b43c2f5668d","system_id":"levelo_inurba_marseille","lat":43.23046,"lon":5.35493,"is_reserved":false,"is_disabled":true,"rental_uris":{"android":"levelo://app?vid=f9c8b933-6f3c-415b-a23a-3b43c2f5668d","ios":"levelo://app?vid=f9c8b933-6f3c-415b-a23a-3b43c2f5668d"},"vehicle_type_id":"4","last_reported":1733120106,"current_range_meters":27600,"station_id":"cpo3342slgdg3j2ifvpg","pricing_plan_id":"cebpf4jnsgd1na2vs0mg"},{"bike_id":"58853036-97d5-4c9a-9899-2ad101095f26","system_id":"levelo_inurba_marseille","lat":43.31117,"lon":5.37763,"is_reserved":false,"is_disabled":false,"rental_uris":{"android":"levelo://app?vid=58853036-97d5-4c9a-9899-2ad101095f26","ios":"levelo://app?vid=58853036-97d5-4c9a-9899-2ad101095f26"},"vehicle_type_id":"4","last_reported":1733120106,"current_range_meters":18000,"station_id":"ce4bgt92rcd13ifvqcg0","pricing_plan_id":"cebpf4jnsgd1na2vs0mg"},{"bike_id":"f51a3d60-ff18-4f8a-8906-bf85e4374508","system_id":"levelo_inurba_marseille","lat":43.28922,"lon":5.36407,"is_reserved":false,"is_disabled":false,"rental_uris":{"android":"levelo://app?vid=f51a3d60-ff18-4f8a-8906-bf85e4374508","ios":"levelo://app?vid=f51a3d60-ff18-4f8a-8906-bf85e4374508"},"vehicle_type_id":"4","last_reported":1733120106,"current_range_meters":38400,"station_id":"ce4bhc92rcd13ifvqetg","pricing_plan_id":"cebpf4jnsgd1na2vs0mg"},{"bike_id":"c1b4782f-7dc5-49b3-b190-d04f32598b77","system_id":"levelo_inurba_marseille","lat":43.3133,"lon":5.39694,"is_reserved":false,"is_disabled":false,"rental_uris":{"android":"levelo://app?vid=c1b4782f-7dc5-49b3-b190-d04f32598b77","ios":"levelo://app?vid=c1b4782f-7dc5-49b3-b190-d04f32598b77"},"vehicle_type_id":"4","last_reported":1733120106,"current_range_meters":39200,"station_id":"ce4bgvp2rcd13ifvqcu0","pricing_plan_id":"cebpf4jnsgd1na2vs0mg"},{"bike_id":"71ddcf28-a34c-48f4-be09-25ad36b702fd","system_id":"levelo_inurba_marseille","lat":43.30771,"lon":5.37649,"is_reserved":false,"is_disabled":false,"rental_uris":{"android":"levelo://app?vid=71ddcf28-a34c-48f4-be09-25ad36b702fd","ios":"levelo://app?vid=71ddcf28-a34c-48f4-be09-25ad36b702fd"},"vehicle_type_id":"4","last_reported":1733120106,"current_range_meters":12800,"station_id":"ce4bgv92rcd13ifvqcq0","pricing_plan_id":"cebpf4jnsgd1na2vs0mg"},{"bike_id":"06e6470a-e7c6-43e1-8faf-2131a4d6a529","system_id":"levelo_inurba_marseille","lat":43.23183,"lon":5.39974,"is_reserved":false,"is_disabled":false,"rental_uris":{"android":"levelo://app?vid=06e6470a-e7c6-43e1-8faf-2131a4d6a529","ios":"levelo://app?vid=06e6470a-e7c6-43e1-8faf-2131a4d6a529"},"vehicle_type_id":"4","last_reported":1733120106,"current_range_meters":39200,"station_id":"ce4bhn12rcd13ifvqgqg","pricing_plan_id":"cebpf4jnsgd1na2vs0mg"},{"bike_id":"3f59b417-afad-4b62-9f61-287fb5ce9cbf","system_id":"levelo_inurba_marseille","lat":43.31074,"lon":5.38358,"is_reserved":false,"is_disabled":false,"rental_uris":{"android":"levelo://app?vid=3f59b417-afad-4b62-9f61-287fb5ce9cbf","ios":"levelo://app?vid=3f59b417-afad-4b62-9f61-287fb5ce9cbf"},"vehicle_type_id":"4","last_reported":1733120106,"current_range_meters":38800,"station_id":"ce4bgv92rcd13ifvqcr0","pricing_plan_id":"cebpf4jnsgd1na2vs0mg"},{"bike_id":"a19e7c09-426c-4663-a587-838f2a821c45","system_id":"levelo_inurba_marseille","lat":43.30064,"lon":5.40399,"is_reserved":false,"is_disabled":false,"rental_uris":{"android":"levelo://app?vid=a19e7c09-426c-4663-a587-838f2a821c45","ios":"levelo://app?vid=a19e7c09-426c-4663-a587-838f2a821c45"},"vehicle_type_id":"4","last_reported":1733120106,"current_range_meters":24400,"station_id":"","pricing_plan_id":"cebpf4jnsgd1na2vs0mg"},{"bike_id":"b535dfd0-ec01-4a13-996f-71245b6113cc","system_id":"levelo_inurba_marseille","lat":43.27977,"lon":5.4124,"is_reserved":false,"is_disabled":true,"rental_uris":{"android":"levelo://app?vid=b535dfd0-ec01-4a13-996f-71245b6113cc","ios":"levelo://app?vid=b535dfd0-ec01-4a13-996f-71245b6113cc"},"vehicle_type_id":"4","last_reported":1733120106,"current_range_meters":0,"station_id":"","pricing_plan_id":"cebpf4jnsgd1na2vs0mg"},{"bike_id":"11d5604e-29c4-4f54-96ae-67f1e4e1420d","system_id":"levelo_inurba_marseille","lat":43.29569,"lon":5.37512,"is_reserved":false,"is_disabled":true,"rental_uris":{"android":"levelo://app?vid=11d5604e-29c4-4f54-96ae-67f1e4e1420d","ios":"levelo://app?vid=11d5604e-29c4-4f54-96ae-67f1e4e1420d"},"vehicle_type_id":"4","last_reported":1733120106,"current_range_meters":0,"station_id":"ce4bgh92rcd13ifvqb50","pricing_plan_id":"cebpf4jnsgd1na2vs0mg"},{"bike_id":"50d811eb-b350-43c8-951e-a766203fc36d","system_id":"levelo_inurba_marseille","lat":43.25107,"lon":5.40328,"is_reserved":false,"is_disabled":false,"rental_uris":{"android":"levelo://app?vid=50d811eb-b350-43c8-951e-a766203fc36d","ios":"levelo://app?vid=50d811eb-b350-43c8-951e-a766203fc36d"},"vehicle_type_id":"4","last_reported":1733120106,"current_range_meters":33600,"station_id":"ce4bhlh2rcd13ifvqgig","pricing_plan_id":"cebpf4jnsgd1na2vs0mg"},{"bike_id":"cd3f301d-334c-4e5b-8413-fffb41c2d132","system_id":"levelo_inurba_marseille","lat":43.27984,"lon":5.41663,"is_reserved":false,"is_disabled":false,"rental_uris":{"android":"levelo://app?vid=cd3f301d-334c-4e5b-8413-fffb41c2d132","ios":"levelo://app?vid=cd3f301d-334c-4e5b-8413-fffb41c2d132"},"vehicle_type_id":"4","last_reported":1733120106,"current_range_meters":38000,"station_id":"ce4bho12rcd13ifvqh1g","pricing_plan_id":"cebpf4jnsgd1na2vs0mg"},{"bike_id":"1bee352e-e80d-491c-adb2-ff5e9e52ed8e","system_id":"levelo_inurba_marseille","lat":43.30466,"lon":5.3791,"is_reserved":false,"is_disabled":false,"rental_uris":{"android":"levelo://app?vid=1bee352e-e80d-491c-adb2-ff5e9e52ed8e","ios":"levelo://app?vid=1bee352e-e80d-491c-adb2-ff5e9e52ed8e"},"vehicle_type_id":"4","last_reported":1733120106,"current_range_meters":35600,"station_id":"ce4bgup2rcd13ifvqcn0","pricing_plan_id":"cebpf4jnsgd1na2vs0mg"},{"bike_id":"b642d79a-bd2c-495a-acdd-099583f67bf5","system_id":"levelo_inurba_marseille","lat":43.32287,"lon":5.38265,"is_reserved":false,"is_disabled":false,"rental_uris":{"android":"levelo://app?vid=b642d79a-bd2c-495a-acdd-099583f67bf5","ios":"levelo://app?vid=b642d79a-bd2c-495a-acdd-099583f67bf5"},"vehicle_type_id":"4","last_reported":1733120106,"current_range_meters":24000,"station_id":"ce4bhr12rcd13ifvqhqg","pricing_plan_id":"cebpf4jnsgd1na2vs0mg"},{"bike_id":"612ff584-c95b-4271-9dfd-f283f925bc8f","system_id":"levelo_inurba_marseille","lat":43.26688,"lon":5.38279,"is_reserved":false,"is_disabled":true,"rental_uris":{"android":"levelo://app?vid=612ff584-c95b-4271-9dfd-f283f925bc8f","ios":"levelo://app?vid=612ff584-c95b-4271-9dfd-f283f925bc8f"},"vehicle_type_id":"4","last_reported":1733120106,"current_range_meters":0,"station_id":"ce4bhg92rcd13ifvqf90","pricing_plan_id":"cebpf4jnsgd1na2vs0mg"},{"bike_id":"5dd252f9-36ea-40bc-8e34-d6aa9e6ca598","system_id":"levelo_inurba_marseille","lat":43.32345,"lon":5.40616,"is_reserved":false,"is_disabled":false,"rental_uris":{"android":"levelo://app?vid=5dd252f9-36ea-40bc-8e34-d6aa9e6ca598","ios":"levelo://app?vid=5dd252f9-36ea-40bc-8e34-d6aa9e6ca598"},"vehicle_type_id":"4","last_reported":1733120106,"current_range_meters":24400,"station_id":"ce4bhq92rcd13ifvqhjg","pricing_plan_id":"cebpf4jnsgd1na2vs0mg"},{"bike_id":"1128485a-5782-46ed-a82b-cb557d15a294","system_id":"levelo_inurba_marseille","lat":43.30885,"lon":5.37192,"is_reserved":false,"is_disabled":false,"rental_uris":{"android":"levelo://app?vid=1128485a-5782-46ed-a82b-cb557d15a294","ios":"levelo://app?vid=1128485a-5782-46ed-a82b-cb557d15a294"},"vehicle_type_id":"4","last_reported":1733120106,"current_range_meters":38400,"station_id":"ce4bguh2rcd13ifvqckg","pricing_plan_id":"cebpf4jnsgd1na2vs0mg"},{"bike_id":"359037ce-df63-42eb-9637-548aafa4bd60","system_id":"levelo_inurba_marseille","lat":43.27068,"lon":5.42275,"is_reserved":false,"is_disabled":false,"rental_uris":{"android":"levelo://app?vid=359037ce-df63-42eb-9637-548aafa4bd60","ios":"levelo://app?vid=359037ce-df63-42eb-9637-548aafa4bd60"},"vehicle_type_id":"4","last_reported":1733120106,"current_range_meters":38800,"station_id":"ce4bhk92rcd13ifvqgb0","pricing_plan_id":"cebpf4jnsgd1na2vs0mg"},{"bike_id":"5b9d6f48-f6d1-42ec-91ce-2705b20346f7","system_id":"levelo_inurba_marseille","lat":43.27615,"lon":5.3612,"is_reserved":false,"is_disabled":true,"rental_uris":{"android":"levelo://app?vid=5b9d6f48-f6d1-42ec-91ce-2705b20346f7","ios":"levelo://app?vid=5b9d6f48-f6d1-42ec-91ce-2705b20346f7"},"vehicle_type_id":"4","last_reported":1733120106,"current_range_meters":37600,"station_id":"ce4bgj92rcd13ifvqbe0","pricing_plan_id":"cebpf4jnsgd1na2vs0mg"},{"bike_id":"b0c3bea6-4bea-4f04-a02c-43072b043247","system_id":"levelo_inurba_marseille","lat":43.24082,"lon":5.37756,"is_reserved":false,"is_disabled":false,"rental_uris":{"android":"levelo://app?vid=b0c3bea6-4bea-4f04-a02c-43072b043247","ios":"levelo://app?vid=b0c3bea6-4bea-4f04-a02c-43072b043247"},"vehicle_type_id":"4","last_reported":1733120106,"current_range_meters":8000,"station_id":"ce4bhnp2rcd13ifvqgvg","pricing_plan_id":"cebpf4jnsgd1na2vs0mg"},{"bike_id":"0174841e-8011-4a7b-bd18-480101bee765","system_id":"levelo_inurba_marseille","lat":43.239608,"lon":5.366184,"is_reserved":false,"is_disabled":true,"rental_uris":{"android":"levelo://app?vid=0174841e-8011-4a7b-bd18-480101bee765","ios":"levelo://app?vid=0174841e-8011-4a7b-bd18-480101bee765"},"vehicle_type_id":"4","last_reported":1733120106,"current_range_meters":0,"station_id":"ce4bhi12rcd13ifvqfp0","pricing_plan_id":"cebpf4jnsgd1na2vs0mg"},{"bike_id":"55aa419e-7ca9-4f29-976a-fefd7a814401","system_id":"levelo_inurba_marseille","lat":43.30132,"lon":5.38789,"is_reserved":false,"is_disabled":true,"rental_uris":{"android":"levelo://app?vid=55aa419e-7ca9-4f29-976a-fefd7a814401","ios":"levelo://app?vid=55aa419e-7ca9-4f29-976a-fefd7a814401"},"vehicle_type_id":"4","last_reported":1733120106,"current_range_meters":13600,"station_id":"ce4bghh2rcd13ifvqb60","pricing_plan_id":"cebpf4jnsgd1na2vs0mg"},{"bike_id":"9b679116-9941-4487-9d0f-7846705dd8a4","system_id":"levelo_inurba_marseille","lat":43.28945,"lon":5.36631,"is_reserved":false,"is_disabled":false,"rental_uris":{"android":"levelo://app?vid=9b679116-9941-4487-9d0f-7846705dd8a4","ios":"levelo://app?vid=9b679116-9941-4487-9d0f-7846705dd8a4"},"vehicle_type_id":"4","last_reported":1733120106,"current_range_meters":36800,"station_id":"ce4bhap2rcd13ifvqek0","pricing_plan_id":"cebpf4jnsgd1na2vs0mg"},{"bike_id":"d1eb40a0-20e2-4ae5-9074-5ffeb3f85b8f","system_id":"levelo_inurba_marseille","lat":43.31891,"lon":5.40731,"is_reserved":false,"is_disabled":false,"rental_uris":{"android":"levelo://app?vid=d1eb40a0-20e2-4ae5-9074-5ffeb3f85b8f","ios":"levelo://app?vid=d1eb40a0-20e2-4ae5-9074-5ffeb3f85b8f"},"vehicle_type_id":"4","last_reported":1733120106,"current_range_meters":31200,"station_id":"ce4bhq12rcd13ifvqhig","pricing_plan_id":"cebpf4jnsgd1na2vs0mg"},{"bike_id":"18045676-f8ef-47f1-a9f6-b35faaf58b2c","system_id":"levelo_inurba_marseille","lat":43.30885,"lon":5.39644,"is_reserved":false,"is_disabled":false,"rental_uris":{"android":"levelo://app?vid=18045676-f8ef-47f1-a9f6-b35faaf58b2c","ios":"levelo://app?vid=18045676-f8ef-47f1-a9f6-b35faaf58b2c"},"vehicle_type_id":"4","last_reported":1733120106,"current_range_meters":32000,"station_id":"ce4bh012rcd13ifvqcv0","pricing_plan_id":"cebpf4jnsgd1na2vs0mg"},{"bike_id":"bb5b4e0a-b86f-423e-9bb9-d81ea9394403","system_id":"levelo_inurba_marseille","lat":43.30923,"lon":5.4015,"is_reserved":false,"is_disabled":true,"rental_uris":{"android":"levelo://app?vid=bb5b4e0a-b86f-423e-9bb9-d81ea9394403","ios":"levelo://app?vid=bb5b4e0a-b86f-423e-9bb9-d81ea9394403"},"vehicle_type_id":"4","last_reported":1733120106,"current_range_meters":38800,"station_id":"ce4bgvp2rcd13ifvqct0","pricing_plan_id":"cebpf4jnsgd1na2vs0mg"},{"bike_id":"5fb181dc-bea9-4f91-8a60-fd73b1bbbccd","system_id":"levelo_inurba_marseille","lat":43.31875,"lon":5.40734,"is_reserved":false,"is_disabled":false,"rental_uris":{"android":"levelo://app?vid=5fb181dc-bea9-4f91-8a60-fd73b1bbbccd","ios":"levelo://app?vid=5fb181dc-bea9-4f91-8a60-fd73b1bbbccd"},"vehicle_type_id":"4","last_reported":1733120106,"current_range_meters":9200,"station_id":"ce4bhq12rcd13ifvqhig","pricing_plan_id":"cebpf4jnsgd1na2vs0mg"},{"bike_id":"db1f621b-3e70-47a2-9f40-e7c88c14cc8d","system_id":"levelo_inurba_marseille","lat":43.32364,"lon":5.36763,"is_reserved":false,"is_disabled":false,"rental_uris":{"android":"levelo://app?vid=db1f621b-3e70-47a2-9f40-e7c88c14cc8d","ios":"levelo://app?vid=db1f621b-3e70-47a2-9f40-e7c88c14cc8d"},"vehicle_type_id":"4","last_reported":1733120106,"current_range_meters":30400,"station_id":"ce4bhsh2rcd13ifvqi2g","pricing_plan_id":"cebpf4jnsgd1na2vs0mg"},{"bike_id":"304c31d0-6c1d-481f-b108-8390c1fa1c46","system_id":"levelo_inurba_marseille","lat":43.31693,"lon":5.40465,"is_reserved":false,"is_disabled":false,"rental_uris":{"android":"levelo://app?vid=304c31d0-6c1d-481f-b108-8390c1fa1c46","ios":"levelo://app?vid=304c31d0-6c1d-481f-b108-8390c1fa1c46"},"vehicle_type_id":"4","last_reported":1733120106,"current_range_meters":24000,"station_id":"ce4bh012rcd13ifvqd00","pricing_plan_id":"cebpf4jnsgd1na2vs0mg"},{"bike_id":"412853f1-0eb2-40a5-b8bc-f594fdc65c40","system_id":"levelo_inurba_marseille","lat":43.30779,"lon":5.37639,"is_reserved":false,"is_disabled":false,"rental_uris":{"android":"levelo://app?vid=412853f1-0eb2-40a5-b8bc-f594fdc65c40","ios":"levelo://app?vid=412853f1-0eb2-40a5-b8bc-f594fdc65c40"},"vehicle_type_id":"4","last_reported":1733120106,"current_range_meters":28800,"station_id":"ce4bgv92rcd13ifvqcq0","pricing_plan_id":"cebpf4jnsgd1na2vs0mg"},{"bike_id":"4213c837-d727-413b-ba3b-8731e753917c","system_id":"levelo_inurba_marseille","lat":43.27996,"lon":5.428,"is_reserved":false,"is_disabled":false,"rental_uris":{"android":"levelo://app?vid=4213c837-d727-413b-ba3b-8731e753917c","ios":"levelo://app?vid=4213c837-d727-413b-ba3b-8731e753917c"},"vehicle_type_id":"4","last_reported":1733120106,"current_range_meters":11600,"station_id":"","pricing_plan_id":"cebpf4jnsgd1na2vs0mg"},{"bike_id":"398b590f-da3f-417c-bd73-56c5015e3cf5","system_id":"levelo_inurba_marseille","lat":43.30883,"lon":5.3964,"is_reserved":false,"is_disabled":false,"rental_uris":{"android":"levelo://app?vid=398b590f-da3f-417c-bd73-56c5015e3cf5","ios":"levelo://app?vid=398b590f-da3f-417c-bd73-56c5015e3cf5"},"vehicle_type_id":"4","last_reported":1733120106,"current_range_meters":8800,"station_id":"ce4bh012rcd13ifvqcv0","pricing_plan_id":"cebpf4jnsgd1na2vs0mg"},{"bike_id":"25dd2a60-280f-4b55-9588-353347a1acca","system_id":"levelo_inurba_marseille","lat":43.24082,"lon":5.3775,"is_reserved":false,"is_disabled":false,"rental_uris":{"android":"levelo://app?vid=25dd2a60-280f-4b55-9588-353347a1acca","ios":"levelo://app?vid=25dd2a60-280f-4b55-9588-353347a1acca"},"vehicle_type_id":"4","last_reported":1733120106,"current_range_meters":39200,"station_id":"ce4bhnp2rcd13ifvqgvg","pricing_plan_id":"cebpf4jnsgd1na2vs0mg"},{"bike_id":"1f7791af-ac7b-4771-ad44-95cc04a9bb6a","system_id":"levelo_inurba_marseille","lat":43.28095,"lon":5.37847,"is_reserved":false,"is_disabled":false,"rental_uris":{"android":"levelo://app?vid=1f7791af-ac7b-4771-ad44-95cc04a9bb6a","ios":"levelo://app?vid=1f7791af-ac7b-4771-ad44-95cc04a9bb6a"},"vehicle_type_id":"4","last_reported":1733120106,"current_range_meters":22800,"station_id":"ce4bha12rcd13ifvqee0","pricing_plan_id":"cebpf4jnsgd1na2vs0mg"},{"bike_id":"42dff1c4-6053-46d6-ab14-2b44877e8b55","system_id":"levelo_inurba_marseille","lat":43.28445,"lon":5.39179,"is_reserved":false,"is_disabled":true,"rental_uris":{"android":"levelo://app?vid=42dff1c4-6053-46d6-ab14-2b44877e8b55","ios":"levelo://app?vid=42dff1c4-6053-46d6-ab14-2b44877e8b55"},"vehicle_type_id":"4","last_reported":1733120106,"current_range_meters":34000,"station_id":"ce4bhoh2rcd13ifvqh5g","pricing_plan_id":"cebpf4jnsgd1na2vs0mg"},{"bike_id":"d5a80474-e33e-4cc3-907c-6059f080f32b","system_id":"levelo_inurba_marseille","lat":43.251061,"lon":5.403136,"is_reserved":false,"is_disabled":false,"rental_uris":{"android":"levelo://app?vid=d5a80474-e33e-4cc3-907c-6059f080f32b","ios":"levelo://app?vid=d5a80474-e33e-4cc3-907c-6059f080f32b"},"vehicle_type_id":"4","last_reported":1733120106,"current_range_meters":4400,"station_id":"ce4bhlh2rcd13ifvqgig","pricing_plan_id":"cebpf4jnsgd1na2vs0mg"},{"bike_id":"7937f30e-c2d4-43bd-b1bf-7e1b78b5242b","system_id":"levelo_inurba_marseille","lat":43.25724,"lon":5.41118,"is_reserved":false,"is_disabled":false,"rental_uris":{"android":"levelo://app?vid=7937f30e-c2d4-43bd-b1bf-7e1b78b5242b","ios":"levelo://app?vid=7937f30e-c2d4-43bd-b1bf-7e1b78b5242b"},"vehicle_type_id":"4","last_reported":1733120106,"current_range_meters":14400,"station_id":"ce4bhkp2rcd13ifvqgd0","pricing_plan_id":"cebpf4jnsgd1na2vs0mg"},{"bike_id":"27d13c7a-6338-48dc-81dd-618b3e4ff60b","system_id":"levelo_inurba_marseille","lat":43.290647,"lon":5.383438,"is_reserved":false,"is_disabled":true,"rental_uris":{"android":"levelo://app?vid=27d13c7a-6338-48dc-81dd-618b3e4ff60b","ios":"levelo://app?vid=27d13c7a-6338-48dc-81dd-618b3e4ff60b"},"vehicle_type_id":"4","last_reported":1733120106,"current_range_meters":30800,"station_id":"","pricing_plan_id":"cebpf4jnsgd1na2vs0mg"},{"bike_id":"c5c8840c-db58-4ef7-bb32-bca7af4815cd","system_id":"levelo_inurba_marseille","lat":43.3061,"lon":5.37198,"is_reserved":false,"is_disabled":false,"rental_uris":{"android":"levelo://app?vid=c5c8840c-db58-4ef7-bb32-bca7af4815cd","ios":"levelo://app?vid=c5c8840c-db58-4ef7-bb32-bca7af4815cd"},"vehicle_type_id":"4","last_reported":1733120106,"current_range_meters":35600,"station_id":"ce4bgqh2rcd13ifvqc4g","pricing_plan_id":"cebpf4jnsgd1na2vs0mg"},{"bike_id":"13151158-c4ba-49c7-a920-9a61c5dd56f2","system_id":"levelo_inurba_marseille","lat":43.23958,"lon":5.36633,"is_reserved":false,"is_disabled":true,"rental_uris":{"android":"levelo://app?vid=13151158-c4ba-49c7-a920-9a61c5dd56f2","ios":"levelo://app?vid=13151158-c4ba-49c7-a920-9a61c5dd56f2"},"vehicle_type_id":"4","last_reported":1733120106,"current_range_meters":0,"station_id":"ce4bhi12rcd13ifvqfp0","pricing_plan_id":"cebpf4jnsgd1na2vs0mg"},{"bike_id":"dcb2f3c6-5de3-4261-80b5-f4062fd0ef90","system_id":"levelo_inurba_marseille","lat":43.30273,"lon":5.37706,"is_reserved":false,"is_disabled":false,"rental_uris":{"android":"levelo://app?vid=dcb2f3c6-5de3-4261-80b5-f4062fd0ef90","ios":"levelo://app?vid=dcb2f3c6-5de3-4261-80b5-f4062fd0ef90"},"vehicle_type_id":"4","last_reported":1733120106,"current_range_meters":39200,"station_id":"ce4bguh2rcd13ifvqcj0","pricing_plan_id":"cebpf4jnsgd1na2vs0mg"},{"bike_id":"c78f0b1d-5cb8-446e-b1bb-83675c0af105","system_id":"levelo_inurba_marseille","lat":43.2679,"lon":5.3942,"is_reserved":false,"is_disabled":false,"rental_uris":{"android":"levelo://app?vid=c78f0b1d-5cb8-446e-b1bb-83675c0af105","ios":"levelo://app?vid=c78f0b1d-5cb8-446e-b1bb-83675c0af105"},"vehicle_type_id":"4","last_reported":1733120106,"current_range_meters":37600,"station_id":"ce4bhh12rcd13ifvqfg0","pricing_plan_id":"cebpf4jnsgd1na2vs0mg"},{"bike_id":"acf4a756-d86a-4aba-99d9-8148b7db3378","system_id":"levelo_inurba_marseille","lat":43.27992,"lon":5.4,"is_reserved":false,"is_disabled":true,"rental_uris":{"android":"levelo://app?vid=acf4a756-d86a-4aba-99d9-8148b7db3378","ios":"levelo://app?vid=acf4a756-d86a-4aba-99d9-8148b7db3378"},"vehicle_type_id":"4","last_reported":1733120106,"current_range_meters":35200,"station_id":"ce4bho92rcd13ifvqh4g","pricing_plan_id":"cebpf4jnsgd1na2vs0mg"},{"bike_id":"4018fb8f-45f3-45d0-a054-90a03257f3a3","system_id":"levelo_inurba_marseille","lat":43.28315,"lon":5.40546,"is_reserved":false,"is_disabled":false,"rental_uris":{"android":"levelo://app?vid=4018fb8f-45f3-45d0-a054-90a03257f3a3","ios":"levelo://app?vid=4018fb8f-45f3-45d0-a054-90a03257f3a3"},"vehicle_type_id":"4","last_reported":1733120106,"current_range_meters":18000,"station_id":"","pricing_plan_id":"cebpf4jnsgd1na2vs0mg"},{"bike_id":"9b551232-7282-43bc-ae3d-fa313e1b06b2","system_id":"levelo_inurba_marseille","lat":43.29851,"lon":5.36298,"is_reserved":false,"is_disabled":false,"rental_uris":{"android":"levelo://app?vid=9b551232-7282-43bc-ae3d-fa313e1b06b2","ios":"levelo://app?vid=9b551232-7282-43bc-ae3d-fa313e1b06b2"},"vehicle_type_id":"4","last_reported":1733120106,"current_range_meters":38000,"station_id":"ce4bgpp2rcd13ifvqc3g","pricing_plan_id":"cebpf4jnsgd1na2vs0mg"},{"bike_id":"ead3f4f9-39fd-4192-a758-692fc411822d","system_id":"levelo_inurba_marseille","lat":43.27173,"lon":5.40973,"is_reserved":false,"is_disabled":false,"rental_uris":{"android":"levelo://app?vid=ead3f4f9-39fd-4192-a758-692fc411822d","ios":"levelo://app?vid=ead3f4f9-39fd-4192-a758-692fc411822d"},"vehicle_type_id":"4","last_reported":1733120106,"current_range_meters":12000,"station_id":"ce4bhl12rcd13ifvqgf0","pricing_plan_id":"cebpf4jnsgd1na2vs0mg"},{"bike_id":"0d4def74-0f64-4b53-a0e2-598933a87838","system_id":"levelo_inurba_marseille","lat":43.31528,"lon":5.38039,"is_reserved":false,"is_disabled":false,"rental_uris":{"android":"levelo://app?vid=0d4def74-0f64-4b53-a0e2-598933a87838","ios":"levelo://app?vid=0d4def74-0f64-4b53-a0e2-598933a87838"},"vehicle_type_id":"4","last_reported":1733120106,"current_range_meters":22800,"station_id":"ce4bhsp2rcd13ifvqi50","pricing_plan_id":"cebpf4jnsgd1na2vs0mg"},{"bike_id":"a72d9299-2ef3-4e3f-8e69-acc7098d09c2","system_id":"levelo_inurba_marseille","lat":43.33021,"lon":5.39042,"is_reserved":false,"is_disabled":true,"rental_uris":{"android":"levelo://app?vid=a72d9299-2ef3-4e3f-8e69-acc7098d09c2","ios":"levelo://app?vid=a72d9299-2ef3-4e3f-8e69-acc7098d09c2"},"vehicle_type_id":"4","last_reported":1733120106,"current_range_meters":20400,"station_id":"ce4bhr92rcd13ifvqhrg","pricing_plan_id":"cebpf4jnsgd1na2vs0mg"},{"bike_id":"94c8cd82-dd25-4c16-bfcc-d6f6d4a63126","system_id":"levelo_inurba_marseille","lat":43.308825,"lon":5.396453,"is_reserved":false,"is_disabled":false,"rental_uris":{"android":"levelo://app?vid=94c8cd82-dd25-4c16-bfcc-d6f6d4a63126","ios":"levelo://app?vid=94c8cd82-dd25-4c16-bfcc-d6f6d4a63126"},"vehicle_type_id":"4","last_reported":1733120106,"current_range_meters":23200,"station_id":"ce4bh012rcd13ifvqcv0","pricing_plan_id":"cebpf4jnsgd1na2vs0mg"},{"bike_id":"e0161261-fd33-45e3-8038-51d77778a6b0","system_id":"levelo_inurba_marseille","lat":43.30665,"lon":5.40088,"is_reserved":false,"is_disabled":true,"rental_uris":{"android":"levelo://app?vid=e0161261-fd33-45e3-8038-51d77778a6b0","ios":"levelo://app?vid=e0161261-fd33-45e3-8038-51d77778a6b0"},"vehicle_type_id":"4","last_reported":1733120106,"current_range_meters":31200,"station_id":"ce4bh112rcd13ifvqda0","pricing_plan_id":"cebpf4jnsgd1na2vs0mg"},{"bike_id":"43718b1a-41f1-4171-ae45-40f5f4832cb9","system_id":"levelo_inurba_marseille","lat":43.25109,"lon":5.40324,"is_reserved":false,"is_disabled":false,"rental_uris":{"android":"levelo://app?vid=43718b1a-41f1-4171-ae45-40f5f4832cb9","ios":"levelo://app?vid=43718b1a-41f1-4171-ae45-40f5f4832cb9"},"vehicle_type_id":"4","last_reported":1733120106,"current_range_meters":19600,"station_id":"ce4bhlh2rcd13ifvqgig","pricing_plan_id":"cebpf4jnsgd1na2vs0mg"},{"bike_id":"4d38a818-9531-4d9e-a2a0-b9cd0b136842","system_id":"levelo_inurba_marseille","lat":43.26474,"lon":5.39145,"is_reserved":false,"is_disabled":true,"rental_uris":{"android":"levelo://app?vid=4d38a818-9531-4d9e-a2a0-b9cd0b136842","ios":"levelo://app?vid=4d38a818-9531-4d9e-a2a0-b9cd0b136842"},"vehicle_type_id":"4","last_reported":1733120106,"current_range_meters":0,"station_id":"","pricing_plan_id":"cebpf4jnsgd1na2vs0mg"},{"bike_id":"9fd6bd9e-d911-4891-8b3e-118eb7893c2b","system_id":"levelo_inurba_marseille","lat":43.30806,"lon":5.38153,"is_reserved":false,"is_disabled":false,"rental_uris":{"android":"levelo://app?vid=9fd6bd9e-d911-4891-8b3e-118eb7893c2b","ios":"levelo://app?vid=9fd6bd9e-d911-4891-8b3e-118eb7893c2b"},"vehicle_type_id":"4","last_reported":1733120106,"current_range_meters":36800,"station_id":"ce4bgt12rcd13ifvqce0","pricing_plan_id":"cebpf4jnsgd1na2vs0mg"},{"bike_id":"a794634e-f858-4eb8-a1c0-a675bb554c5c","system_id":"levelo_inurba_marseille","lat":43.336,"lon":5.41031,"is_reserved":false,"is_disabled":false,"rental_uris":{"android":"levelo://app?vid=a794634e-f858-4eb8-a1c0-a675bb554c5c","ios":"levelo://app?vid=a794634e-f858-4eb8-a1c0-a675bb554c5c"},"vehicle_type_id":"4","last_reported":1733120106,"current_range_meters":38400,"station_id":"ce4bhqh2rcd13ifvqhmg","pricing_plan_id":"cebpf4jnsgd1na2vs0mg"},{"bike_id":"0925ff43-bab0-49be-8348-5535795fc1c0","system_id":"levelo_inurba_marseille","lat":43.30541,"lon":5.38428,"is_reserved":false,"is_disabled":true,"rental_uris":{"android":"levelo://app?vid=0925ff43-bab0-49be-8348-5535795fc1c0","ios":"levelo://app?vid=0925ff43-bab0-49be-8348-5535795fc1c0"},"vehicle_type_id":"4","last_reported":1733120106,"current_range_meters":8800,"station_id":"ce4bgg92rcd13ifvqb30","pricing_plan_id":"cebpf4jnsgd1na2vs0mg"},{"bike_id":"5fd470f3-da62-48ec-8bb8-3493555d1763","system_id":"levelo_inurba_marseille","lat":43.29507,"lon":5.37484,"is_reserved":false,"is_disabled":true,"rental_uris":{"android":"levelo://app?vid=5fd470f3-da62-48ec-8bb8-3493555d1763","ios":"levelo://app?vid=5fd470f3-da62-48ec-8bb8-3493555d1763"},"vehicle_type_id":"4","last_reported":1733120106,"current_range_meters":4000,"station_id":"ce4bgkp2rcd13ifvqbmg","pricing_plan_id":"cebpf4jnsgd1na2vs0mg"},{"bike_id":"df175e35-a109-455b-a549-3a0af8fc4135","system_id":"levelo_inurba_marseille","lat":43.26687,"lon":5.38273,"is_reserved":false,"is_disabled":true,"rental_uris":{"android":"levelo://app?vid=df175e35-a109-455b-a549-3a0af8fc4135","ios":"levelo://app?vid=df175e35-a109-455b-a549-3a0af8fc4135"},"vehicle_type_id":"4","last_reported":1733120106,"current_range_meters":14400,"station_id":"ce4bhg92rcd13ifvqf90","pricing_plan_id":"cebpf4jnsgd1na2vs0mg"},{"bike_id":"3cd36cdd-b8ac-4151-bacd-1ff7508ad009","system_id":"levelo_inurba_marseille","lat":43.32528,"lon":5.41457,"is_reserved":false,"is_disabled":true,"rental_uris":{"android":"levelo://app?vid=3cd36cdd-b8ac-4151-bacd-1ff7508ad009","ios":"levelo://app?vid=3cd36cdd-b8ac-4151-bacd-1ff7508ad009"},"vehicle_type_id":"4","last_reported":1733120106,"current_range_meters":33600,"station_id":"ce4bhq12rcd13ifvqhhg","pricing_plan_id":"cebpf4jnsgd1na2vs0mg"},{"bike_id":"ebaa904e-bc87-46fe-8951-7f1d176fdb4c","system_id":"levelo_inurba_marseille","lat":43.31255,"lon":5.40198,"is_reserved":false,"is_disabled":true,"rental_uris":{"android":"levelo://app?vid=ebaa904e-bc87-46fe-8951-7f1d176fdb4c","ios":"levelo://app?vid=ebaa904e-bc87-46fe-8951-7f1d176fdb4c"},"vehicle_type_id":"4","last_reported":1733120106,"current_range_meters":38800,"station_id":"ce4bh092rcd13ifvqd30","pricing_plan_id":"cebpf4jnsgd1na2vs0mg"},{"bike_id":"c32d583e-4b37-45c8-bed4-7431ffb02799","system_id":"levelo_inurba_marseille","lat":43.30174,"lon":5.38087,"is_reserved":false,"is_disabled":false,"rental_uris":{"android":"levelo://app?vid=c32d583e-4b37-45c8-bed4-7431ffb02799","ios":"levelo://app?vid=c32d583e-4b37-45c8-bed4-7431ffb02799"},"vehicle_type_id":"4","last_reported":1733120106,"current_range_meters":18000,"station_id":"ce4bgjp2rcd13ifvqbh0","pricing_plan_id":"cebpf4jnsgd1na2vs0mg"},{"bike_id":"0924cd12-b395-4cb8-9f19-e269eac2ac81","system_id":"levelo_inurba_marseille","lat":43.28939,"lon":5.36627,"is_reserved":false,"is_disabled":false,"rental_uris":{"android":"levelo://app?vid=0924cd12-b395-4cb8-9f19-e269eac2ac81","ios":"levelo://app?vid=0924cd12-b395-4cb8-9f19-e269eac2ac81"},"vehicle_type_id":"4","last_reported":1733120106,"current_range_meters":39200,"station_id":"ce4bhap2rcd13ifvqek0","pricing_plan_id":"cebpf4jnsgd1na2vs0mg"},{"bike_id":"1e9f7531-f02f-4a68-a033-35dfa2f6d9df","system_id":"levelo_inurba_marseille","lat":43.28488,"lon":5.38545,"is_reserved":false,"is_disabled":true,"rental_uris":{"android":"levelo://app?vid=1e9f7531-f02f-4a68-a033-35dfa2f6d9df","ios":"levelo://app?vid=1e9f7531-f02f-4a68-a033-35dfa2f6d9df"},"vehicle_type_id":"4","last_reported":1733120106,"current_range_meters":17200,"station_id":"ce4bh8p2rcd13ifvqeb0","pricing_plan_id":"cebpf4jnsgd1na2vs0mg"},{"bike_id":"a1c6768a-eb95-40b8-bf60-d33e1bb4aacd","system_id":"levelo_inurba_marseille","lat":43.25109,"lon":5.40325,"is_reserved":false,"is_disabled":false,"rental_uris":{"android":"levelo://app?vid=a1c6768a-eb95-40b8-bf60-d33e1bb4aacd","ios":"levelo://app?vid=a1c6768a-eb95-40b8-bf60-d33e1bb4aacd"},"vehicle_type_id":"4","last_reported":1733120106,"current_range_meters":14400,"station_id":"ce4bhlh2rcd13ifvqgig","pricing_plan_id":"cebpf4jnsgd1na2vs0mg"},{"bike_id":"07e69a4a-a208-4ba6-8a33-076941d79d16","system_id":"levelo_inurba_marseille","lat":43.28937,"lon":5.3664,"is_reserved":false,"is_disabled":false,"rental_uris":{"android":"levelo://app?vid=07e69a4a-a208-4ba6-8a33-076941d79d16","ios":"levelo://app?vid=07e69a4a-a208-4ba6-8a33-076941d79d16"},"vehicle_type_id":"4","last_reported":1733120106,"current_range_meters":23200,"station_id":"ce4bhap2rcd13ifvqek0","pricing_plan_id":"cebpf4jnsgd1na2vs0mg"},{"bike_id":"e05666e3-b707-46de-a7e5-8e4163e50f7c","system_id":"levelo_inurba_marseille","lat":43.2842,"lon":5.34985,"is_reserved":false,"is_disabled":true,"rental_uris":{"android":"levelo://app?vid=e05666e3-b707-46de-a7e5-8e4163e50f7c","ios":"levelo://app?vid=e05666e3-b707-46de-a7e5-8e4163e50f7c"},"vehicle_type_id":"4","last_reported":1733120106,"current_range_meters":36800,"station_id":"ce4bhbh2rcd13ifvqepg","pricing_plan_id":"cebpf4jnsgd1na2vs0mg"},{"bike_id":"2f4a707b-e18d-45ed-bad3-153c185fcd4d","system_id":"levelo_inurba_marseille","lat":43.27428,"lon":5.39413,"is_reserved":false,"is_disabled":false,"rental_uris":{"android":"levelo://app?vid=2f4a707b-e18d-45ed-bad3-153c185fcd4d","ios":"levelo://app?vid=2f4a707b-e18d-45ed-bad3-153c185fcd4d"},"vehicle_type_id":"4","last_reported":1733120106,"current_range_meters":22800,"station_id":"ce4bhdp2rcd13ifvqf20","pricing_plan_id":"cebpf4jnsgd1na2vs0mg"},{"bike_id":"4bf03c99-3195-41de-a7d3-31bb91dbbdc5","system_id":"levelo_inurba_marseille","lat":43.24989,"lon":5.38959,"is_reserved":false,"is_disabled":false,"rental_uris":{"android":"levelo://app?vid=4bf03c99-3195-41de-a7d3-31bb91dbbdc5","ios":"levelo://app?vid=4bf03c99-3195-41de-a7d3-31bb91dbbdc5"},"vehicle_type_id":"4","last_reported":1733120106,"current_range_meters":21600,"station_id":"ce4bhgp2rcd13ifvqfd0","pricing_plan_id":"cebpf4jnsgd1na2vs0mg"},{"bike_id":"f8d592a2-1761-4fc2-ae68-7688d9a28c14","system_id":"levelo_inurba_marseille","lat":43.27965,"lon":5.38717,"is_reserved":false,"is_disabled":true,"rental_uris":{"android":"levelo://app?vid=f8d592a2-1761-4fc2-ae68-7688d9a28c14","ios":"levelo://app?vid=f8d592a2-1761-4fc2-ae68-7688d9a28c14"},"vehicle_type_id":"4","last_reported":1733120106,"current_range_meters":37600,"station_id":"ce4bhg12rcd13ifvqf80","pricing_plan_id":"cebpf4jnsgd1na2vs0mg"},