{"last_updated":1748041842,"ttl":60,"version":"2.2","data":{"bikes":[{"bike_id":"eff77c2f-b733-4ef2-87c2-2f70da4d311e","system_id":"levelo_inurba_marseille","lat":43.23175,"lon":5.35576,"is_reserved":false,"is_disabled":false,"rental_uris":{"android":"levelo://app?vid=eff77c2f-b733-4ef2-87c2-2f70da4d311e","ios":"levelo://app?vid=eff77c2f-b733-4ef2-87c2-2f70da4d311e"},"vehicle_type_id":"4","last_reported":1748041842,"current_range_meters":2800,"station_id":"ce4bhu92rcd13ifvqi70","pricing_plan_id":"cebpf4jnsgd1na2vs0mg"},{"bike_id":"4d3187bc-9e3f-4192-9e80-abca9a5aeb18","system_id":"levelo_inurba_marseille","lat":43.30953,"lon":5.39022,"is_reserved":false,"is_disabled":false,"rental_uris":{"android":"levelo://app?vid=4d3187bc-9e3f-4192-9e80-abca9a5aeb18","ios":"levelo://app?vid=4d3187bc-9e3f-4192-9e80-abca9a5aeb18"},"vehicle_type_id":"4","last_reported":1748041842,"current_range_meters":2800,"station_id":"ce4bgup2rcd13ifvqco0","pricing_plan_id":"cebpf4jnsgd1na2vs0mg"},{"bike_id":"0d0aeff3-f895-4070-9785-648f02c2acfd","system_id":"levelo_inurba_marseille","lat":43.28155,"lon":5.42645,"is_reserved":false,"is_disabled":false,"rental_uris":{"android":"levelo://app?vid=0d0aeff3-f895-4070-9785-648f02c2acfd","ios":"levelo://app?vid=0d0aeff3-f895-4070-9785-648f02c2acfd"},"vehicle_type_id":"4","last_reported":1748041842,"current_range_meters":2800,"station_id":"ce4bhnh2rcd13ifvqgug","pricing_plan_id":"cebpf4jnsgd1na2vs0mg"},{"bike_id":"a6b049dc-c5e6-4bcd-aa01-e3b7aad7e54b","system_id":"levelo_inurba_marseille","lat":43.295436,"lon":5.393902,"is_reserved":false,"is_disabled":false,"rental_uris":{"android":"levelo://app?vid=a6b049dc-c5e6-4bcd-aa01-e3b7aad7e54b","ios":"levelo://app?vid=a6b049dc-c5e6-4bcd-aa01-e3b7aad7e54b"},"vehicle_type_id":"4","last_reported":1748041842,"current_range_meters":2800,"station_id":"ce4bh292rcd13ifvqdf0","pricing_plan_id":"cebpf4jnsgd1na2vs0mg"},{"bike_id":"5bfd63df-444e-4f0a-b18e-86640e5affb0","system_id":"levelo_inurba_marseille","lat":43.30663,"lon":5.40061,"is_reserved":false,"is_disabled":false,"rental_uris":{"android":"levelo://app?vid=5bfd63df-444e-4f0a-b18e-86640e5affb0","ios":"levelo://app?vid=5bfd63df-444e-4f0a-b18e-86640e5affb0"},"vehicle_type_id":"4","last_reported":1748041842,"current_range_meters":2800,"station_id":"ce4bh112rcd13ifvqda0","pricing_plan_id":"cebpf4jnsgd1na2vs0mg"},{"bike_id":"36953c08-bc79-431c-8e09-12c206590e75","system_id":"levelo_inurba_marseille","lat":43.25823,"lon":5.39421,"is_reserved":false,"is_disabled":false,"rental_uris":{"android":"levelo://app?vid=36953c08-bc79-431c-8e09-12c206590e75","ios":"levelo://app?vid=36953c08-bc79-431c-8e09-12c206590e75"},"vehicle_type_id":"4","last_reported":1748041842,"current_range_meters":6800,"station_id":"ce4bhip2rcd13ifvqft0","pricing_plan_id":"cebpf4jnsgd1na2vs0mg"},{"bike_id":"80481db6-5092-4fdb-a834-5b16c330428d","system_id":"levelo_inurba_marseille","lat":43.28154,"lon":5.42631,"is_reserved":false,"is_disabled":false,"rental_uris":{"android":"levelo://app?vid=80481db6-5092-4fdb-a834-5b16c330428d","ios":"levelo://app?vid=80481db6-5092-4fdb-a834-5b16c330428d"},"vehicle_type_id":"4","last_reported":1748041842,"current_range_meters":3200,"station_id":"ce4bhnh2rcd13ifvqgug","pricing_plan_id":"cebpf4jnsgd1na2vs0mg"},{"bike_id":"3fe3d6c4-138a-47df-b6b4-e6f19e8f7d46","system_id":"levelo_inurba_marseille","lat":43.21404,"lon":5.34125,"is_reserved":false,"is_disabled":false,"rental_uris":{"android":"levelo://app?vid=3fe3d6c4-138a-47df-b6b4-e6f19e8f7d46","ios":"levelo://app?vid=3fe3d6c4-138a-47df-b6b4-e6f19e8f7d46"},"vehicle_type_id":"4","last_reported":1748041842,"current_range_meters":3200,"station_id":"","pricing_plan_id":"cebpf4jnsgd1na2vs0mg"},{"bike_id":"f770c3b2-26f8-4e02-ba04-2024b991c318","system_id":"levelo_inurba_marseille","lat":43.26767,"lon":5.39409,"is_reserved":false,"is_disabled":true,"rental_uris":{"android":"levelo://app?vid=f770c3b2-26f8-4e02-ba04-2024b991c318","ios":"levelo://app?vid=f770c3b2-26f8-4e02-ba04-2024b991c318"},"vehicle_type_id":"4","last_reported":1748041842,"current_range_meters":3200,"station_id":"ce4bhh12rcd13ifvqfg0","pricing_plan_id":"cebpf4jnsgd1na2vs0mg"},{"bike_id":"0df6e4d4-fd89-4b8c-8a02-2f1facad9bdd","system_id":"levelo_inurba_marseille","lat":43.31065,"lon":5.38354,"is_reserved":false,"is_disabled":false,"rental_uris":{"android":"levelo://app?vid=0df6e4d4-fd89-4b8c-8a02-2f1facad9bdd","ios":"levelo://app?vid=0df6e4d4-fd89-4b8c-8a02-2f1facad9bdd"},"vehicle_type_id":"4","last_reported":1748041842,"current_range_meters":3200,"station_id":"ce4bgv92rcd13ifvqcr0","pricing_plan_id":"cebpf4jnsgd1na2vs0mg"},{"bike_id":"a79f0006-a761-46d2-af06-b83e55e02dd5","system_id":"levelo_inurba_marseille","lat":43.23192,"lon":5.35549,"is_reserved":false,"is_disabled":false,"rental_uris":{"android":"levelo://app?vid=a79f0006-a761-46d2-af06-b83e55e02dd5","ios":"levelo://app?vid=a79f0006-a761-46d2-af06-b83e55e02dd5"},"vehicle_type_id":"4","last_reported":1748041842,"current_range_meters":3200,"station_id":"ce4bhu92rcd13ifvqi70","pricing_plan_id":"cebpf4jnsgd1na2vs0mg"},{"bike_id":"86b9650f-c73c-47a1-8ae0-bcd1247fa8eb","system_id":"levelo_inurba_marseille","lat":43.311353,"lon":5.37032,"is_reserved":false,"is_disabled":false,"rental_uris":{"android":"levelo://app?vid=86b9650f-c73c-47a1-8ae0-bcd1247fa8eb","ios":"levelo://app?vid=86b9650f-c73c-47a1-8ae0-bcd1247fa8eb"},"vehicle_type_id":"4","last_reported":1748041842,"current_range_meters":3200,"station_id":"","pricing_plan_id":"cebpf4jnsgd1na2vs0mg"},{"bike_id":"df9a372e-f360-4249-b510-21a29330ff54","system_id":"levelo_inurba_marseille","lat":43.27239,"lon":5.39186,"is_reserved":false,"is_disabled":true,"rental_uris":{"android":"levelo://app?vid=df9a372e-f360-4249-b510-21a29330ff54","ios":"levelo://app?vid=df9a372e-f360-4249-b510-21a29330ff54"},"vehicle_type_id":"4","last_reported":1748041842,"current_range_meters":3600,"station_id":"ce4bhhp2rcd13ifvqfm0","pricing_plan_id":"cebpf4jnsgd1na2vs0mg"},{"bike_id":"e1d5d59d-4dc3-4fae-adcf-958132bbf4be","system_id":"levelo_inurba_marseille","lat":43.23192,"lon":5.35548,"is_reserved":false,"is_disabled":false,"rental_uris":{"android":"levelo://app?vid=e1d5d59d-4dc3-4fae-adcf-958132bbf4be","ios":"levelo://app?vid=e1d5d59d-4dc3-4fae-adcf-958132bbf4be"},"vehicle_type_id":"4","last_reported":1748041842,"current_range_meters":3600,"station_id":"ce4bhu92rcd13ifvqi70","pricing_plan_id":"cebpf4jnsgd1na2vs0mg"},{"bike_id":"663fc025-6fc1-4004-895e-f0f1709c8797","system_id":"levelo_inurba_marseille","lat":43.29675,"lon":5.36878,"is_reserved":false,"is_disabled":false,"rental_uris":{"android":"levelo://app?vid=663fc025-6fc1-4004-895e-f0f1709c8797","ios":"levelo://app?vid=663fc025-6fc1-4004-895e-f0f1709c8797"},"vehicle_type_id":"4","last_reported":1748041842,"current_range_meters":3600,"station_id":"","pricing_plan_id":"cebpf4jnsgd1na2vs0mg"},{"bike_id":"f9dcb664-1977-4df9-85f7-c0c294ebb89f","system_id":"levelo_inurba_marseille","lat":43.29806,"lon":5.3622,"is_reserved":false,"is_disabled":false,"rental_uris":{"android":"levelo://app?vid=f9dcb664-1977-4df9-85f7-c0c294ebb89f","ios":"levelo://app?vid=f9dcb664-1977-4df9-85f7-c0c294ebb89f"},"vehicle_type_id":"4","last_reported":1748041842,"current_range_meters":3600,"station_id":"","pricing_plan_id":"cebpf4jnsgd1na2vs0mg"},{"bike_id":"4db7c49a-3b4f-4ee8-a191-9b026158d9bd","system_id":"levelo_inurba_marseille","lat":43.26802,"lon":5.40268,"is_reserved":false,"is_disabled":false,"rental_uris":{"android":"levelo://app?vid=4db7c49a-3b4f-4ee8-a191-9b026158d9bd","ios":"levelo://app?vid=4db7c49a-3b4f-4ee8-a191-9b026158d9bd"},"vehicle_type_id":"4","last_reported":1748041842,"current_range_meters":3600,"station_id":"ce501612rcd8frsf0b60","pricing_plan_id":"cebpf4jnsgd1na2vs0mg"},{"bike_id":"f9fb40c0-1fcd-48cb-8e26-3f2dc0fb2451","system_id":"levelo_inurba_marseille","lat":43.33751,"lon":5.37509,"is_reserved":false,"is_disabled":false,"rental_uris":{"android":"levelo://app?vid=f9fb40c0-1fcd-48cb-8e26-3f2dc0fb2451","ios":"levelo://app?vid=f9fb40c0-1fcd-48cb-8e26-3f2dc0fb2451"},"vehicle_type_id":"4","last_reported":1748041842,"current_range_meters":3600,"station_id":"","pricing_plan_id":"cebpf4jnsgd1na2vs0mg"},{"bike_id":"aa38465a-5612-479d-969a-f6580de22b64","system_id":"levelo_inurba_marseille","lat":43.27378,"lon":5.36251,"is_reserved":false,"is_disabled":false,"rental_uris":{"android":"levelo://app?vid=aa38465a-5612-479d-969a-f6580de22b64","ios":"levelo://app?vid=aa38465a-5612-479d-969a-f6580de22b64"},"vehicle_type_id":"4","last_reported":1748041842,"current_range_meters":3600,"station_id":"ce4bhbh2rcd13ifvqeo0","pricing_plan_id":"cebpf4jnsgd1na2vs0mg"},{"bike_id":"8d2ea24d-03d0-4dfc-a211-8e553b4b9355","system_id":"levelo_inurba_marseille","lat":43.2923,"lon":5.36066,"is_reserved":false,"is_disabled":false,"rental_uris":{"android":"levelo://app?vid=8d2ea24d-03d0-4dfc-a211-8e553b4b9355","ios":"levelo://app?vid=8d2ea24d-03d0-4dfc-a211-8e553b4b9355"},"vehicle_type_id":"4","last_reported":1748041842,"current_range_meters":4000,"station_id":"ce4bhbh2rcd13ifvqeqg","pricing_plan_id":"cebpf4jnsgd1na2vs0mg"},{"bike_id":"61fd1101-24fc-465b-b2ba-69d8e41d6ba2","system_id":"levelo_inurba_marseille","lat":43.28941,"lon":5.36392,"is_reserved":false,"is_disabled":false,"rental_uris":{"android":"levelo://app?vid=61fd1101-24fc-465b-b2ba-69d8e41d6ba2","ios":"levelo://app?vid=61fd1101-24fc-465b-b2ba-69d8e41d6ba2"},"vehicle_type_id":"4","last_reported":1748041842,"current_range_meters":4000,"station_id":"ce4bhc92rcd13ifvqetg","pricing_plan_id":"cebpf4jnsgd1na2vs0mg"},{"bike_id":"6412d133-7138-4a95-b3cd-5f184ec093dc","system_id":"levelo_inurba_marseille","lat":43.28139,"lon":5.4264,"is_reserved":false,"is_disabled":false,"rental_uris":{"android":"levelo://app?vid=6412d133-7138-4a95-b3cd-5f184ec093dc","ios":"levelo://app?vid=6412d133-7138-4a95-b3cd-5f184ec093dc"},"vehicle_type_id":"4","last_reported":1748041842,"current_range_meters":4400,"station_id":"ce4bhnh2rcd13ifvqgug","pricing_plan_id":"cebpf4jnsgd1na2vs0mg"},{"bike_id":"7ddac08f-d6cf-400c-aa53-26f30b06e8eb","system_id":"levelo_inurba_marseille","lat":43.28443,"lon":5.392,"is_reserved":false,"is_disabled":false,"rental_uris":{"android":"levelo://app?vid=7ddac08f-d6cf-400c-aa53-26f30b06e8eb","ios":"levelo://app?vid=7ddac08f-d6cf-400c-aa53-26f30b06e8eb"},"vehicle_type_id":"4","last_reported":1748041842,"current_range_meters":4400,"station_id":"ce4bhoh2rcd13ifvqh5g","pricing_plan_id":"cebpf4jnsgd1na2vs0mg"},{"bike_id":"e095ad7c-4c2b-4e48-b7bc-5d3246b0c6b5","system_id":"levelo_inurba_marseille","lat":43.25,"lon":5.38922,"is_reserved":false,"is_disabled":false,"rental_uris":{"android":"levelo://app?vid=e095ad7c-4c2b-4e48-b7bc-5d3246b0c6b5","ios":"levelo://app?vid=e095ad7c-4c2b-4e48-b7bc-5d3246b0c6b5"},"vehicle_type_id":"4","last_reported":1748041842,"current_range_meters":4400,"station_id":"ce4bhgp2rcd13ifvqfd0","pricing_plan_id":"cebpf4jnsgd1na2vs0mg"},{"bike_id":"2beacbd4-9ba8-4aa5-99c8-d3c30bd9fb89","system_id":"levelo_inurba_marseille","lat":43.27998,"lon":5.4001,"is_reserved":false,"is_disabled":false,"rental_uris":{"android":"levelo://app?vid=2beacbd4-9ba8-4aa5-99c8-d3c30bd9fb89","ios":"levelo://app?vid=2beacbd4-9ba8-4aa5-99c8-d3c30bd9fb89"},"vehicle_type_id":"4","last_reported":1748041842,"current_range_meters":4400,"station_id":"ce4bho92rcd13ifvqh4g","pricing_plan_id":"cebpf4jnsgd1na2vs0mg"},{"bike_id":"5dd3a842-ff8a-4018-8ad6-45b16e770ed3","system_id":"levelo_inurba_marseille","lat":43.26805,"lon":5.40269,"is_reserved":false,"is_disabled":false,"rental_uris":{"android":"levelo://app?vid=5dd3a842-ff8a-4018-8ad6-45b16e770ed3","ios":"levelo://app?vid=5dd3a842-ff8a-4018-8ad6-45b16e770ed3"},"vehicle_type_id":"4","last_reported":1748041842,"current_range_meters":4400,"station_id":"ce501612rcd8frsf0b60","pricing_plan_id":"cebpf4jnsgd1na2vs0mg"},{"bike_id":"27653dcd-dec9-4f13-b172-8968c20c1725","system_id":"levelo_inurba_marseille","lat":43.23855,"lon":5.43088,"is_reserved":false,"is_disabled":false,"rental_uris":{"android":"levelo://app?vid=27653dcd-dec9-4f13-b172-8968c20c1725","ios":"levelo://app?vid=27653dcd-dec9-4f13-b172-8968c20c1725"},"vehicle_type_id":"4","last_reported":1748041842,"current_range_meters":4400,"station_id":"","pricing_plan_id":"cebpf4jnsgd1na2vs0mg"},{"bike_id":"9fd61852-c0d1-4565-bee2-49f1c1e054dc","system_id":"levelo_inurba_marseille","lat":43.29283,"lon":5.40115,"is_reserved":false,"is_disabled":false,"rental_uris":{"android":"levelo://app?vid=9fd61852-c0d1-4565-bee2-49f1c1e054dc","ios":"levelo://app?vid=9fd61852-c0d1-4565-bee2-49f1c1e054dc"},"vehicle_type_id":"4","last_reported":1748041842,"current_range_meters":4400,"station_id":"ce4bh312rcd13ifvqdk0","pricing_plan_id":"cebpf4jnsgd1na2vs0mg"},{"bike_id":"d256c6a4-d35b-4c32-b7db-2bac8ab63b70","system_id":"levelo_inurba_marseille","lat":43.231978,"lon":5.355491,"is_reserved":false,"is_disabled":false,"rental_uris":{"android":"levelo://app?vid=d256c6a4-d35b-4c32-b7db-2bac8ab63b70","ios":"levelo://app?vid=d256c6a4-d35b-4c32-b7db-2bac8ab63b70"},"vehicle_type_id":"4","last_reported":1748041842,"current_range_meters":4800,"station_id":"ce4bhu92rcd13ifvqi70","pricing_plan_id":"cebpf4jnsgd1na2vs0mg"},{"bike_id":"ff969294-826c-4f3b-8343-91ee52e7c49e","system_id":"levelo_inurba_marseille","lat":43.32533,"lon":5.41434,"is_reserved":false,"is_disabled":false,"rental_uris":{"android":"levelo://app?vid=ff969294-826c-4f3b-8343-91ee52e7c49e","ios":"levelo://app?vid=ff969294-826c-4f3b-8343-91ee52e7c49e"},"vehicle_type_id":"4","last_reported":1748041842,"current_range_meters":4400,"station_id":"ce4bhq12rcd13ifvqhhg","pricing_plan_id":"cebpf4jnsgd1na2vs0mg"},{"bike_id":"a52b68bb-26bc-4b54-8530-a088350bde8b","system_id":"levelo_inurba_marseille","lat":43.28155,"lon":5.4264,"is_reserved":false,"is_disabled":false,"rental_uris":{"android":"levelo://app?vid=a52b68bb-26bc-4b54-8530-a088350bde8b","ios":"levelo://app?vid=a52b68bb-26bc-4b54-8530-a088350bde8b"},"vehicle_type_id":"4","last_reported":1748041842,"current_range_meters":4800,"station_id":"ce4bhnh2rcd13ifvqgug","pricing_plan_id":"cebpf4jnsgd1na2vs0mg"},{"bike_id":"a7a20724-0c35-442a-8a45-f0265d7ac6b2","system_id":"levelo_inurba_marseille","lat":43.229392,"lon":5.353815,"is_reserved":false,"is_disabled":false,"rental_uris":{"android":"levelo://app?vid=a7a20724-0c35-442a-8a45-f0265d7ac6b2","ios":"levelo://app?vid=a7a20724-0c35-442a-8a45-f0265d7ac6b2"},"vehicle_type_id":"4","last_reported":1748041842,"current_range_meters":4800,"station_id":"cpo3532slgdg3j2ikp40","pricing_plan_id":"cebpf4jnsgd1na2vs0mg"},{"bike_id":"467fd72f-f723-4554-81f6-1a09438731ac","system_id":"levelo_inurba_marseille","lat":43.30129,"lon":5.39176,"is_reserved":false,"is_disabled":true,"rental_uris":{"android":"levelo://app?vid=467fd72f-f723-4554-81f6-1a09438731ac","ios":"levelo://app?vid=467fd72f-f723-4554-81f6-1a09438731ac"},"vehicle_type_id":"4","last_reported":1748041842,"current_range_meters":4800,"station_id":"","pricing_plan_id":"cebpf4jnsgd1na2vs0mg"},{"bike_id":"93a344e6-8243-4070-bf43-270634e364fe","system_id":"levelo_inurba_marseille","lat":43.280003,"lon":5.400109,"is_reserved":false,"is_disabled":false,"rental_uris":{"android":"levelo://app?vid=93a344e6-8243-4070-bf43-270634e364fe","ios":"levelo://app?vid=93a344e6-8243-4070-bf43-270634e364fe"},"vehicle_type_id":"4","last_reported":1748041842,"current_range_meters":4800,"station_id":"ce4bho92rcd13ifvqh4g","pricing_plan_id":"cebpf4jnsgd1na2vs0mg"},{"bike_id":"31110881-d64f-45f8-9810-bbf84a002836","system_id":"levelo_inurba_marseille","lat":43.28336,"lon":5.46115,"is_reserved":false,"is_disabled":false,"rental_uris":{"android":"levelo://app?vid=31110881-d64f-45f8-9810-bbf84a002836","ios":"levelo://app?vid=31110881-d64f-45f8-9810-bbf84a002836"},"vehicle_type_id":"4","last_reported":1748041842,"current_range_meters":4800,"station_id":"","pricing_plan_id":"cebpf4jnsgd1na2vs0mg"},{"bike_id":"ee11d4ea-ca34-4ca8-bbb8-86f30c15bf06","system_id":"levelo_inurba_marseille","lat":43.30943,"lon":5.40121,"is_reserved":false,"is_disabled":false,"rental_uris":{"android":"levelo://app?vid=ee11d4ea-ca34-4ca8-bbb8-86f30c15bf06","ios":"levelo://app?vid=ee11d4ea-ca34-4ca8-bbb8-86f30c15bf06"},"vehicle_type_id":"4","last_reported":1748041842,"current_range_meters":4800,"station_id":"ce4bgvp2rcd13ifvqct0","pricing_plan_id":"cebpf4jnsgd1na2vs0mg"},{"bike_id":"33b7812d-151d-4e4b-b3a2-78b68ef9487e","system_id":"levelo_inurba_marseille","lat":43.27999,"lon":5.41664,"is_reserved":false,"is_disabled":false,"rental_uris":{"android":"levelo://app?vid=33b7812d-151d-4e4b-b3a2-78b68ef9487e","ios":"levelo://app?vid=33b7812d-151d-4e4b-b3a2-78b68ef9487e"},"vehicle_type_id":"4","last_reported":1748041842,"current_range_meters":4400,"station_id":"ce4bho12rcd13ifvqh1g","pricing_plan_id":"cebpf4jnsgd1na2vs0mg"},{"bike_id":"684ec4a6-c07a-4ca6-890c-46609eeb739c","system_id":"levelo_inurba_marseille","lat":43.251067,"lon":5.403213,"is_reserved":false,"is_disabled":false,"rental_uris":{"android":"levelo://app?vid=684ec4a6-c07a-4ca6-890c-46609eeb739c","ios":"levelo://app?vid=684ec4a6-c07a-4ca6-890c-46609eeb739c"},"vehicle_type_id":"4","last_reported":1748041842,"current_range_meters":5600,"station_id":"ce4bhlh2rcd13ifvqgig","pricing_plan_id":"cebpf4jnsgd1na2vs0mg"},{"bike_id":"4c449f5b-bcc8-4efd-b5bc-37a5d6e451f9","system_id":"levelo_inurba_marseille","lat":43.241695,"lon":5.363862,"is_reserved":false,"is_disabled":false,"rental_uris":{"android":"levelo://app?vid=4c449f5b-bcc8-4efd-b5bc-37a5d6e451f9","ios":"levelo://app?vid=4c449f5b-bcc8-4efd-b5bc-37a5d6e451f9"},"vehicle_type_id":"4","last_reported":1748041842,"current_range_meters":5600,"station_id":"cpo36qri1sfpv3e86is0","pricing_plan_id":"cebpf4jnsgd1na2vs0mg"},{"bike_id":"b467c801-3c96-4bf4-844a-0f59d968e4ee","system_id":"levelo_inurba_marseille","lat":43.21734,"lon":5.34612,"is_reserved":false,"is_disabled":false,"rental_uris":{"android":"levelo://app?vid=b467c801-3c96-4bf4-844a-0f59d968e4ee","ios":"levelo://app?vid=b467c801-3c96-4bf4-844a-0f59d968e4ee"},"vehicle_type_id":"4","last_reported":1748041842,"current_range_meters":5600,"station_id":"","pricing_plan_id":"cebpf4jnsgd1na2vs0mg"},{"bike_id":"991f714c-92c0-4856-b488-8aa6dd85f8e2","system_id":"levelo_inurba_marseille","lat":43.30431,"lon":5.38886,"is_reserved":false,"is_disabled":false,"rental_uris":{"android":"levelo://app?vid=991f714c-92c0-4856-b488-8aa6dd85f8e2","ios":"levelo://app?vid=991f714c-92c0-4856-b488-8aa6dd85f8e2"},"vehicle_type_id":"4","last_reported":1748041842,"current_range_meters":6000,"station_id":"ce4bgk12rcd13ifvqbi0","pricing_plan_id":"cebpf4jnsgd1na2vs0mg"},{"bike_id":"1be790ce-aaae-46be-8200-d2e24d35412b","system_id":"levelo_inurba_marseille","lat":43.23959,"lon":5.36622,"is_reserved":false,"is_disabled":false,"rental_uris":{"android":"levelo://app?vid=1be790ce-aaae-46be-8200-d2e24d35412b","ios":"levelo://app?vid=1be790ce-aaae-46be-8200-d2e24d35412b"},"vehicle_type_id":"4","last_reported":1748041842,"current_range_meters":6000,"station_id":"ce4bhi12rcd13ifvqfp0","pricing_plan_id":"cebpf4jnsgd1na2vs0mg"},{"bike_id":"49d9dde0-a17b-40a2-b8a6-9e018c439e2a","system_id":"levelo_inurba_marseille","lat":43.2866,"lon":5.3633,"is_reserved":false,"is_disabled":true,"rental_uris":{"android":"levelo://app?vid=49d9dde0-a17b-40a2-b8a6-9e018c439e2a","ios":"levelo://app?vid=49d9dde0-a17b-40a2-b8a6-9e018c439e2a"},"vehicle_type_id":"4","last_reported":1748041842,"current_range_meters":6000,"station_id":"ce4bhah2rcd13ifvqej0","pricing_plan_id":"cebpf4jnsgd1na2vs0mg"},{"bike_id":"4a179f03-00d6-469e-912c-0f5f2d9d02c0","system_id":"levelo_inurba_marseille","lat":43.29473,"lon":5.395105,"is_reserved":false,"is_disabled":false,"rental_uris":{"android":"levelo://app?vid=4a179f03-00d6-469e-912c-0f5f2d9d02c0","ios":"levelo://app?vid=4a179f03-00d6-469e-912c-0f5f2d9d02c0"},"vehicle_type_id":"4","last_reported":1748041842,"current_range_meters":6000,"station_id":"ce4bh3h2rcd13ifvqdo0","pricing_plan_id":"cebpf4jnsgd1na2vs0mg"},{"bike_id":"019f2042-780f-4cdc-ab18-e0fc5885efad","system_id":"levelo_inurba_marseille","lat":43.24687,"lon":5.38154,"is_reserved":false,"is_disabled":false,"rental_uris":{"android":"levelo://app?vid=019f2042-780f-4cdc-ab18-e0fc5885efad","ios":"levelo://app?vid=019f2042-780f-4cdc-ab18-e0fc5885efad"},"vehicle_type_id":"4","last_reported":1748041842,"current_range_meters":6400,"station_id":"ce4bhih2rcd13ifvqfr0","pricing_plan_id":"cebpf4jnsgd1na2vs0mg"},{"bike_id":"5e13d379-e9cb-4d86-8691-8d15b7fc3acb","system_id":"levelo_inurba_marseille","lat":43.29783,"lon":5.37104,"is_reserved":false,"is_disabled":false,"rental_uris":{"android":"levelo://app?vid=5e13d379-e9cb-4d86-8691-8d15b7fc3acb","ios":"levelo://app?vid=5e13d379-e9cb-4d86-8691-8d15b7fc3acb"},"vehicle_type_id":"4","last_reported":1748041842,"current_range_meters":6400,"station_id":"ce4bgop2rcd13ifvqc1g","pricing_plan_id":"cebpf4jnsgd1na2vs0mg"},{"bike_id":"4e59ae72-b083-4788-93c1-a7e324b89ef1","system_id":"levelo_inurba_marseille","lat":43.337444,"lon":5.374475,"is_reserved":false,"is_disabled":true,"rental_uris":{"android":"levelo://app?vid=4e59ae72-b083-4788-93c1-a7e324b89ef1","ios":"levelo://app?vid=4e59ae72-b083-4788-93c1-a7e324b89ef1"},"vehicle_type_id":"4","last_reported":1748041842,"current_range_meters":6400,"station_id":"","pricing_plan_id":"cebpf4jnsgd1na2vs0mg"},{"bike_id":"fa8011ef-a512-4051-aced-a61482bd7e36","system_id":"levelo_inurba_marseille","lat":43.2866,"lon":5.36344,"is_reserved":false,"is_disabled":false,"rental_uris":{"android":"levelo://app?vid=fa8011ef-a512-4051-aced-a61482bd7e36","ios":"levelo://app?vid=fa8011ef-a512-4051-aced-a61482bd7e36"},"vehicle_type_id":"4","last_reported":1748041842,"current_range_meters":6400,"station_id":"ce4bhah2rcd13ifvqej0","pricing_plan_id":"cebpf4jnsgd1na2vs0mg"},{"bike_id":"ae915b1b-107f-4f6c-b12f-50cc508d636f","system_id":"levelo_inurba_marseille","lat":43.24813,"lon":5.374547,"is_reserved":false,"is_disabled":false,"rental_uris":{"android":"levelo://app?vid=ae915b1b-107f-4f6c-b12f-50cc508d636f","ios":"levelo://app?vid=ae915b1b-107f-4f6c-b12f-50cc508d636f"},"vehicle_type_id":"4","last_reported":1748041842,"current_range_meters":6400,"station_id":"ce4bhgh2rcd13ifvqfb0","pricing_plan_id":"cebpf4jnsgd1na2vs0mg"},{"bike_id":"16217b52-ab1a-479e-8e2a-fcd30af3ddd9","system_id":"levelo_inurba_marseille","lat":43.28709,"lon":5.39985,"is_reserved":false,"is_disabled":false,"rental_uris":{"android":"levelo://app?vid=16217b52-ab1a-479e-8e2a-fcd30af3ddd9","ios":"levelo://app?vid=16217b52-ab1a-479e-8e2a-fcd30af3ddd9"},"vehicle_type_id":"4","last_reported":1748041842,"current_range_meters":6400,"station_id":"ce4bho92rcd13ifvqh3g","pricing_plan_id":"cebpf4jnsgd1na2vs0mg"},{"bike_id":"7dfdfdc8-9c79-46b6-9a4b-924773b53f29","system_id":"levelo_inurba_marseille","lat":43.26875,"lon":5.39164,"is_reserved":false,"is_disabled":false,"rental_uris":{"android":"levelo://app?vid=7dfdfdc8-9c79-46b6-9a4b-924773b53f29","ios":"levelo://app?vid=7dfdfdc8-9c79-46b6-9a4b-924773b53f29"},"vehicle_type_id":"4","last_reported":1748041842,"current_range_meters":6400,"station_id":"","pricing_plan_id":"cebpf4jnsgd1na2vs0mg"},{"bike_id":"ce41bb1c-7500-4ef5-b4d8-6ff656a260e7","system_id":"levelo_inurba_marseille","lat":43.29045,"lon":5.35899,"is_reserved":false,"is_disabled":false,"rental_uris":{"android":"levelo://app?vid=ce41bb1c-7500-4ef5-b4d8-6ff656a260e7","ios":"levelo://app?vid=ce41bb1c-7500-4ef5-b4d8-6ff656a260e7"},"vehicle_type_id":"4","last_reported":1748041842,"current_range_meters":6400,"station_id":"ce4bha92rcd13ifvqeg0","pricing_plan_id":"cebpf4jnsgd1na2vs0mg"},{"bike_id":"c4fe9f84-88bc-4367-8f93-7e4b740bcd4b","system_id":"levelo_inurba_marseille","lat":43.31079,"lon":5.383423,"is_reserved":false,"is_disabled":true,"rental_uris":{"android":"levelo://app?vid=c4fe9f84-88bc-4367-8f93-7e4b740bcd4b","ios":"levelo://app?vid=c4fe9f84-88bc-4367-8f93-7e4b740bcd4b"},"vehicle_type_id":"4","last_reported":1748041842,"current_range_meters":6400,"station_id":"ce4bgv92rcd13ifvqcr0","pricing_plan_id":"cebpf4jnsgd1na2vs0mg"},{"bike_id":"3cc904de-e83e-4bad-8fbc-36089bb9cc50","system_id":"levelo_inurba_marseille","lat":43.26238,"lon":5.40416,"is_reserved":false,"is_disabled":false,"rental_uris":{"android":"levelo://app?vid=3cc904de-e83e-4bad-8fbc-36089bb9cc50","ios":"levelo://app?vid=3cc904de-e83e-4bad-8fbc-36089bb9cc50"},"vehicle_type_id":"4","last_reported":1748041842,"current_range_meters":6400,"station_id":"ce4bhmh2rcd13ifvqgmg","pricing_plan_id":"cebpf4jnsgd1na2vs0mg"},{"bike_id":"2ac58fa5-8197-4eff-a115-23fe49e74316","system_id":"levelo_inurba_marseille","lat":43.229317,"lon":5.353782,"is_reserved":false,"is_disabled":false,"rental_uris":{"android":"levelo://app?vid=2ac58fa5-8197-4eff-a115-23fe49e74316","ios":"levelo://app?vid=2ac58fa5-8197-4eff-a115-23fe49e74316"},"vehicle_type_id":"4","last_reported":1748041842,"current_range_meters":6400,"station_id":"cpo3532slgdg3j2ikp40","pricing_plan_id":"cebpf4jnsgd1na2vs0mg"},{"bike_id":"950cad50-4e47-43b4-ba8e-d97ac6386634","system_id":"levelo_inurba_marseille","lat":43.255774,"lon":5.382209,"is_reserved":false,"is_disabled":false,"rental_uris":{"android":"levelo://app?vid=950cad50-4e47-43b4-ba8e-d97ac6386634","ios":"levelo://app?vid=950cad50-4e47-43b4-ba8e-d97ac6386634"},"vehicle_type_id":"4","last_reported":1748041842,"current_range_meters":6400,"station_id":"","pricing_plan_id":"cebpf4jnsgd1na2vs0mg"},{"bike_id":"6a8ac0b8-794b-4618-aaaa-660270083ba0","system_id":"levelo_inurba_marseille","lat":43.28691,"lon":5.37412,"is_reserved":false,"is_disabled":false,"rental_uris":{"android":"levelo://app?vid=6a8ac0b8-794b-4618-aaaa-660270083ba0","ios":"levelo://app?vid=6a8ac0b8-794b-4618-aaaa-660270083ba0"},"vehicle_type_id":"4","last_reported":1748041842,"current_range_meters":6800,"station_id":"ce4bh3p2rcd13ifvqdq0","pricing_plan_id":"cebpf4jnsgd1na2vs0mg"},{"bike_id":"05512052-d698-4c0e-8435-0e04bfd26e11","system_id":"levelo_inurba_marseille","lat":43.27371,"lon":5.36262,"is_reserved":false,"is_disabled":false,"rental_uris":{"android":"levelo://app?vid=05512052-d698-4c0e-8435-0e04bfd26e11","ios":"levelo://app?vid=05512052-d698-4c0e-8435-0e04bfd26e11"},"vehicle_type_id":"4","last_reported":1748041842,"current_range_meters":6800,"station_id":"ce4bhbh2rcd13ifvqeo0","pricing_plan_id":"cebpf4jnsgd1na2vs0mg"},{"bike_id":"9c0a3944-e9a9-4c3f-8185-13a9725cee31","system_id":"levelo_inurba_marseille","lat":43.28153,"lon":5.42636,"is_reserved":false,"is_disabled":false,"rental_uris":{"android":"levelo://app?vid=9c0a3944-e9a9-4c3f-8185-13a9725cee31","ios":"levelo://app?vid=9c0a3944-e9a9-4c3f-8185-13a9725cee31"},"vehicle_type_id":"4","last_reported":1748041842,"current_range_meters":6800,"station_id":"ce4bhnh2rcd13ifvqgug","pricing_plan_id":"cebpf4jnsgd1na2vs0mg"},{"bike_id":"9f6688be-84d0-4f24-998d-3e16eabd05c6","system_id":"levelo_inurba_marseille","lat":43.2319,"lon":5.39973,"is_reserved":false,"is_disabled":false,"rental_uris":{"android":"levelo://app?vid=9f6688be-84d0-4f24-998d-3e16eabd05c6","ios":"levelo://app?vid=9f6688be-84d0-4f24-998d-3e16eabd05c6"},"vehicle_type_id":"4","last_reported":1748041842,"current_range_meters":6800,"station_id":"ce4bhn12rcd13ifvqgqg","pricing_plan_id":"cebpf4jnsgd1na2vs0mg"},{"bike_id":"ae5118b2-34b2-4d6c-8f2f-5ec3cd71528f","system_id":"levelo_inurba_marseille","lat":43.23214,"lon":5.35568,"is_reserved":false,"is_disabled":false,"rental_uris":{"android":"levelo://app?vid=ae5118b2-34b2-4d6c-8f2f-5ec3cd71528f","ios":"levelo://app?vid=ae5118b2-34b2-4d6c-8f2f-5ec3cd71528f"},"vehicle_type_id":"4","last_reported":1748041842,"current_range_meters":6800,"station_id":"ce4bhu92rcd13ifvqi70","pricing_plan_id":"cebpf4jnsgd1na2vs0mg"},{"bike_id":"45c79dd0-6988-4719-b980-df1f724c6e35","system_id":"levelo_inurba_marseille","lat":43.239608,"lon":5.366257,"is_reserved":false,"is_disabled":false,"rental_uris":{"android":"levelo://app?vid=45c79dd0-6988-4719-b980-df1f724c6e35","ios":"levelo://app?vid=45c79dd0-6988-4719-b980-df1f724c6e35"},"vehicle_type_id":"4","last_reported":1748041842,"current_range_meters":6800,"station_id":"ce4bhi12rcd13ifvqfp0","pricing_plan_id":"cebpf4jnsgd1na2vs0mg"},{"bike_id":"bc10d301-521d-452b-b6d6-c8c05b30a13d","system_id":"levelo_inurba_marseille","lat":43.29888,"lon":5.38141,"is_reserved":false,"is_disabled":false,"rental_uris":{"android":"levelo://app?vid=bc10d301-521d-452b-b6d6-c8c05b30a13d","ios":"levelo://app?vid=bc10d301-521d-452b-b6d6-c8c05b30a13d"},"vehicle_type_id":"4","last_reported":1748041842,"current_range_meters":6800,"station_id":"","pricing_plan_id":"cebpf4jnsgd1na2vs0mg"},{"bike_id":"642cb7b7-e7c4-4185-b975-0e4bd47c9f56","system_id":"levelo_inurba_marseille","lat":43.255845,"lon":5.38234,"is_reserved":false,"is_disabled":false,"rental_uris":{"android":"levelo://app?vid=642cb7b7-e7c4-4185-b975-0e4bd47c9f56","ios":"levelo://app?vid=642cb7b7-e7c4-4185-b975-0e4bd47c9f56"},"vehicle_type_id":"4","last_reported":1748041842,"current_range_meters":6800,"station_id":"ce4bhih2rcd13ifvqfs0","pricing_plan_id":"cebpf4jnsgd1na2vs0mg"},{"bike_id":"2ded64ec-bfe2-4937-bd7a-1a9c3f53bba0","system_id":"levelo_inurba_marseille","lat":43.29716,"lon":5.36626,"is_reserved":false,"is_disabled":false,"rental_uris":{"android":"levelo://app?vid=2ded64ec-bfe2-4937-bd7a-1a9c3f53bba0","ios":"levelo://app?vid=2ded64ec-bfe2-4937-bd7a-1a9c3f53bba0"},"vehicle_type_id":"4","last_reported":1748041842,"current_range_meters":7200,"station_id":"ce4bgn12rcd13ifvqbt0","pricing_plan_id":"cebpf4jnsgd1na2vs0mg"},{"bike_id":"900926bd-c178-4fb1-9ad6-ba459192fc5c","system_id":"levelo_inurba_marseille","lat":43.241691,"lon":5.363989,"is_reserved":false,"is_disabled":false,"rental_uris":{"android":"levelo://app?vid=900926bd-c178-4fb1-9ad6-ba459192fc5c","ios":"levelo://app?vid=900926bd-c178-4fb1-9ad6-ba459192fc5c"},"vehicle_type_id":"4","last_reported":1748041842,"current_range_meters":7200,"station_id":"cpo36qri1sfpv3e86is0","pricing_plan_id":"cebpf4jnsgd1na2vs0mg"},{"bike_id":"fd12c774-90b9-4955-9a35-be71d507cc05","system_id":"levelo_inurba_marseille","lat":43.29218,"lon":5.36069,"is_reserved":false,"is_disabled":false,"rental_uris":{"android":"levelo://app?vid=fd12c774-90b9-4955-9a35-be71d507cc05","ios":"levelo://app?vid=fd12c774-90b9-4955-9a35-be71d507cc05"},"vehicle_type_id":"4","last_reported":1748041842,"current_range_meters":7200,"station_id":"ce4bhbh2rcd13ifvqeqg","pricing_plan_id":"cebpf4jnsgd1na2vs0mg"},{"bike_id":"e2d341e1-0789-46d1-be25-3abcb6af9d9e","system_id":"levelo_inurba_marseille","lat":43.22939,"lon":5.35368,"is_reserved":false,"is_disabled":false,"rental_uris":{"android":"levelo://app?vid=e2d341e1-0789-46d1-be25-3abcb6af9d9e","ios":"levelo://app?vid=e2d341e1-0789-46d1-be25-3abcb6af9d9e"},"vehicle_type_id":"4","last_reported":1748041842,"current_range_meters":7200,"station_id":"cpo3532slgdg3j2ikp40","pricing_plan_id":"cebpf4jnsgd1na2vs0mg"},{"bike_id":"ae63c910-50b4-47ff-80a0-2b55fb807772","system_id":"levelo_inurba_marseille","lat":43.305434,"lon":5.365515,"is_reserved":false,"is_disabled":false,"rental_uris":{"android":"levelo://app?vid=ae63c910-50b4-47ff-80a0-2b55fb807772","ios":"levelo://app?vid=ae63c910-50b4-47ff-80a0-2b55fb807772"},"vehicle_type_id":"4","last_reported":1748041842,"current_range_meters":6800,"station_id":"ce4bgs12rcd13ifvqcag","pricing_plan_id":"cebpf4jnsgd1na2vs0mg"},{"bike_id":"1b1d2416-8c31-4039-9731-c72eb5f6909f","system_id":"levelo_inurba_marseille","lat":43.26799,"lon":5.39421,"is_reserved":false,"is_disabled":true,"rental_uris":{"android":"levelo://app?vid=1b1d2416-8c31-4039-9731-c72eb5f6909f","ios":"levelo://app?vid=1b1d2416-8c31-4039-9731-c72eb5f6909f"},"vehicle_type_id":"4","last_reported":1748041842,"current_range_meters":7200,"station_id":"ce4bhh12rcd13ifvqfg0","pricing_plan_id":"cebpf4jnsgd1na2vs0mg"},{"bike_id":"398ec385-5110-4bb4-a29a-70f3b8ebdf1f","system_id":"levelo_inurba_marseille","lat":43.2893,"lon":5.39622,"is_reserved":false,"is_disabled":false,"rental_uris":{"android":"levelo://app?vid=398ec385-5110-4bb4-a29a-70f3b8ebdf1f","ios":"levelo://app?vid=398ec385-5110-4bb4-a29a-70f3b8ebdf1f"},"vehicle_type_id":"4","last_reported":1748041842,"current_range_meters":7200,"station_id":"ce4bh3h2rcd13ifvqdn0","pricing_plan_id":"cebpf4jnsgd1na2vs0mg"},{"bike_id":"c761ee84-2d9d-4da3-a10d-38ed1074b620","system_id":"levelo_inurba_marseille","lat":43.31015,"lon":5.37537,"is_reserved":false,"is_disabled":false,"rental_uris":{"android":"levelo://app?vid=c761ee84-2d9d-4da3-a10d-38ed1074b620","ios":"levelo://app?vid=c761ee84-2d9d-4da3-a10d-38ed1074b620"},"vehicle_type_id":"4","last_reported":1748041842,"current_range_meters":7200,"station_id":"","pricing_plan_id":"cebpf4jnsgd1na2vs0mg"},{"bike_id":"8deee672-f7f4-4b7e-a09f-278726b984f1","system_id":"levelo_inurba_marseille","lat":43.2706,"lon":5.40054,"is_reserved":false,"is_disabled":false,"rental_uris":{"android":"levelo://app?vid=8deee672-f7f4-4b7e-a09f-278726b984f1","ios":"levelo://app?vid=8deee672-f7f4-4b7e-a09f-278726b984f1"},"vehicle_type_id":"4","last_reported":1748041842,"current_range_meters":7200,"station_id":"","pricing_plan_id":"cebpf4jnsgd1na2vs0mg"},{"bike_id":"3c41c67a-7377-41cb-a17d-4bf98015b5b5","system_id":"levelo_inurba_marseille","lat":43.255728,"lon":5.382285,"is_reserved":false,"is_disabled":false,"rental_uris":{"android":"levelo://app?vid=3c41c67a-7377-41cb-a17d-4bf98015b5b5","ios":"levelo://app?vid=3c41c67a-7377-41cb-a17d-4bf98015b5b5"},"vehicle_type_id":"4","last_reported":1748041842,"current_range_meters":7200,"station_id":"ce4bhih2rcd13ifvqfs0","pricing_plan_id":"cebpf4jnsgd1na2vs0mg"},{"bike_id":"01ddaa1a-eb5e-48a6-afd1-086e21b7bd9f","system_id":"levelo_inurba_marseille","lat":43.293247,"lon":5.411694,"is_reserved":false,"is_disabled":false,"rental_uris":{"android":"levelo://app?vid=01ddaa1a-eb5e-48a6-afd1-086e21b7bd9f","ios":"levelo://app?vid=01ddaa1a-eb5e-48a6-afd1-086e21b7bd9f"},"vehicle_type_id":"4","last_reported":1748041842,"current_range_meters":7200,"station_id":"","pricing_plan_id":"cebpf4jnsgd1na2vs0mg"},{"bike_id":"b74f7927-a77c-4654-b5d0-543cf86491d7","system_id":"levelo_inurba_marseille","lat":43.28408,"lon":5.37501,"is_reserved":false,"is_disabled":false,"rental_uris":{"android":"levelo://app?vid=b74f7927-a77c-4654-b5d0-543cf86491d7","ios":"levelo://app?vid=b74f7927-a77c-4654-b5d0-543cf86491d7"},"vehicle_type_id":"4","last_reported":1748041842,"current_range_meters":8000,"station_id":"ce4bh412rcd13ifvqds0","pricing_plan_id":"cebpf4jnsgd1na2vs0mg"},{"bike_id":"91805839-88cc-4a24-abfd-1888c18ca2bc","system_id":"levelo_inurba_marseille","lat":43.31758,"lon":5.3901,"is_reserved":false,"is_disabled":false,"rental_uris":{"android":"levelo://app?vid=91805839-88cc-4a24-abfd-1888c18ca2bc","ios":"levelo://app?vid=91805839-88cc-4a24-abfd-1888c18ca2bc"},"vehicle_type_id":"4","last_reported":1748041842,"current_range_meters":8000,"station_id":"ce4bhqp2rcd13ifvqhng","pricing_plan_id":"cebpf4jnsgd1na2vs0mg"},{"bike_id":"d1260533-567b-4d33-931a-a6c5c37c2d32","system_id":"levelo_inurba_marseille","lat":43.24996,"lon":5.38928,"is_reserved":false,"is_disabled":false,"rental_uris":{"android":"levelo://app?vid=d1260533-567b-4d33-931a-a6c5c37c2d32","ios":"levelo://app?vid=d1260533-567b-4d33-931a-a6c5c37c2d32"},"vehicle_type_id":"4","last_reported":1748041842,"current_range_meters":7200,"station_id":"ce4bhgp2rcd13ifvqfd0","pricing_plan_id":"cebpf4jnsgd1na2vs0mg"},{"bike_id":"9397cffe-b358-4c9d-a220-1488951efd31","system_id":"levelo_inurba_marseille","lat":43.25114,"lon":5.40311,"is_reserved":false,"is_disabled":false,"rental_uris":{"android":"levelo://app?vid=9397cffe-b358-4c9d-a220-1488951efd31","ios":"levelo://app?vid=9397cffe-b358-4c9d-a220-1488951efd31"},"vehicle_type_id":"4","last_reported":1748041842,"current_range_meters":8000,"station_id":"ce4bhlh2rcd13ifvqgig","pricing_plan_id":"cebpf4jnsgd1na2vs0mg"},{"bike_id":"e67877cc-22a2-49e7-a031-e248ded481a0","system_id":"levelo_inurba_marseille","lat":43.30322,"lon":5.40433,"is_reserved":false,"is_disabled":false,"rental_uris":{"android":"levelo://app?vid=e67877cc-22a2-49e7-a031-e248ded481a0","ios":"levelo://app?vid=e67877cc-22a2-49e7-a031-e248ded481a0"},"vehicle_type_id":"4","last_reported":1748041842,"current_range_meters":8000,"station_id":"ce4bh012rcd13ifvqd10","pricing_plan_id":"cebpf4jnsgd1na2vs0mg"},{"bike_id":"8f680de4-b31b-4ee5-b64b-115712c62c5d","system_id":"levelo_inurba_marseille","lat":43.26779,"lon":5.39412,"is_reserved":false,"is_disabled":false,"rental_uris":{"android":"levelo://app?vid=8f680de4-b31b-4ee5-b64b-115712c62c5d","ios":"levelo://app?vid=8f680de4-b31b-4ee5-b64b-115712c62c5d"},"vehicle_type_id":"4","last_reported":1748041842,"current_range_meters":8000,"station_id":"ce4bhh12rcd13ifvqfg0","pricing_plan_id":"cebpf4jnsgd1na2vs0mg"},{"bike_id":"07904cb8-e7b3-4483-bdb4-041eedd1dd13","system_id":"levelo_inurba_marseille","lat":43.281,"lon":5.37841,"is_reserved":false,"is_disabled":false,"rental_uris":{"android":"levelo://app?vid=07904cb8-e7b3-4483-bdb4-041eedd1dd13","ios":"levelo://app?vid=07904cb8-e7b3-4483-bdb4-041eedd1dd13"},"vehicle_type_id":"4","last_reported":1748041842,"current_range_meters":8000,"station_id":"ce4bha12rcd13ifvqee0","pricing_plan_id":"cebpf4jnsgd1na2vs0mg"},{"bike_id":"c139e568-30e4-4816-a4d0-47133acc2e30","system_id":"levelo_inurba_marseille","lat":43.312636,"lon":5.36861,"is_reserved":false,"is_disabled":false,"rental_uris":{"android":"levelo://app?vid=c139e568-30e4-4816-a4d0-47133acc2e30","ios":"levelo://app?vid=c139e568-30e4-4816-a4d0-47133acc2e30"},"vehicle_type_id":"4","last_reported":1748041842,"current_range_meters":8000,"station_id":"ce4bgl92rcd13ifvqbq0","pricing_plan_id":"cebpf4jnsgd1na2vs0mg"},{"bike_id":"b83909c3-f512-41c6-a9cc-8c75b38fae4f","system_id":"levelo_inurba_marseille","lat":43.29552,"lon":5.4229,"is_reserved":false,"is_disabled":false,"rental_uris":{"android":"levelo://app?vid=b83909c3-f512-41c6-a9cc-8c75b38fae4f","ios":"levelo://app?vid=b83909c3-f512-41c6-a9cc-8c75b38fae4f"},"vehicle_type_id":"4","last_reported":1748041842,"current_range_meters":8000,"station_id":"ce4bhph2rcd13ifvqhdg","pricing_plan_id":"cebpf4jnsgd1na2vs0mg"},{"bike_id":"e71ba7ce-5eff-4f6a-b40a-60f16c2835ff","system_id":"levelo_inurba_marseille","lat":43.25111,"lon":5.40322,"is_reserved":false,"is_disabled":false,"rental_uris":{"android":"levelo://app?vid=e71ba7ce-5eff-4f6a-b40a-60f16c2835ff","ios":"levelo://app?vid=e71ba7ce-5eff-4f6a-b40a-60f16c2835ff"},"vehicle_type_id":"4","last_reported":1748041842,"current_range_meters":8400,"station_id":"ce4bhlh2rcd13ifvqgig","pricing_plan_id":"cebpf4jnsgd1na2vs0mg"},{"bike_id":"bdf4d2ec-edf6-46c6-8005-e2c6e7401fa7","system_id":"levelo_inurba_marseille","lat":43.295253,"lon":5.375037,"is_reserved":false,"is_disabled":true,"rental_uris":{"android":"levelo://app?vid=bdf4d2ec-edf6-46c6-8005-e2c6e7401fa7","ios":"levelo://app?vid=bdf4d2ec-edf6-46c6-8005-e2c6e7401fa7"},"vehicle_type_id":"4","last_reported":1748041842,"current_range_meters":8400,"station_id":"ce4bgkp2rcd13ifvqbmg","pricing_plan_id":"cebpf4jnsgd1na2vs0mg"},{"bike_id":"41f67551-cf24-41a4-9125-c5852e36dce4","system_id":"levelo_inurba_marseille","lat":43.251097,"lon":5.4032,"is_reserved":false,"is_disabled":false,"rental_uris":{"android":"levelo://app?vid=41f67551-cf24-41a4-9125-c5852e36dce4","ios":"levelo://app?vid=41f67551-cf24-41a4-9125-c5852e36dce4"},"vehicle_type_id":"4","last_reported":1748041842,"current_range_meters":8400,"station_id":"ce4bhlh2rcd13ifvqgig","pricing_plan_id":"cebpf4jnsgd1na2vs0mg"},{"bike_id":"e3e19b90-9823-4b53-b8a7-4c599b3176c2","system_id":"levelo_inurba_marseille","lat":43.251249,"lon":5.403214,"is_reserved":false,"is_disabled":false,"rental_uris":{"android":"levelo://app?vid=e3e19b90-9823-4b53-b8a7-4c599b3176c2","ios":"levelo://app?vid=e3e19b90-9823-4b53-b8a7-4c599b3176c2"},"vehicle_type_id":"4","last_reported":1748041842,"current_range_meters":8400,"station_id":"ce4bhlh2rcd13ifvqgig","pricing_plan_id":"cebpf4jnsgd1na2vs0mg"},{"bike_id":"68bfc4cb-61ab-43c3-ab88-17645cafe6e7","system_id":"levelo_inurba_marseille","lat":43.317617,"lon":5.37578,"is_reserved":false,"is_disabled":false,"rental_uris":{"android":"levelo://app?vid=68bfc4cb-61ab-43c3-ab88-17645cafe6e7","ios":"levelo://app?vid=68bfc4cb-61ab-43c3-ab88-17645cafe6e7"},"vehicle_type_id":"4","last_reported":1748041842,"current_range_meters":8400,"station_id":"","pricing_plan_id":"cebpf4jnsgd1na2vs0mg"},{"bike_id":"c47a319e-79db-46bb-b427-5f0ee7908b15","system_id":"levelo_inurba_marseille","lat":43.250867,"lon":5.39524,"is_reserved":false,"is_disabled":false,"rental_uris":{"android":"levelo://app?vid=c47a319e-79db-46bb-b427-5f0ee7908b15","ios":"levelo://app?vid=c47a319e-79db-46bb-b427-5f0ee7908b15"},"vehicle_type_id":"4","last_reported":1748041842,"current_range_meters":8400,"station_id":"ce4bhm12rcd13ifvqgkg","pricing_plan_id":"cebpf4jnsgd1na2vs0mg"},{"bike_id":"12d33206-ea21-4880-921d-41fcfdf53726","system_id":"levelo_inurba_marseille","lat":43.25657,"lon":5.41087,"is_reserved":false,"is_disabled":false,"rental_uris":{"android":"levelo://app?vid=12d33206-ea21-4880-921d-41fcfdf53726","ios":"levelo://app?vid=12d33206-ea21-4880-921d-41fcfdf53726"},"vehicle_type_id":"4","last_reported":1748041842,"current_range_meters":8400,"station_id":"ce4bhkp2rcd13ifvqgd0","pricing_plan_id":"cebpf4jnsgd1na2vs0mg"},{"bike_id":"20250d57-d175-407f-821f-63a5806335a2","system_id":"levelo_inurba_marseille","lat":43.23486,"lon":5.40266,"is_reserved":false,"is_disabled":false,"rental_uris":{"android":"levelo://app?vid=20250d57-d175-407f-821f-63a5806335a2","ios":"levelo://app?vid=20250d57-d175-407f-821f-63a5806335a2"},"vehicle_type_id":"4","last_reported":1748041842,"current_range_meters":8400,"station_id":"","pricing_plan_id":"cebpf4jnsgd1na2vs0mg"},{"bike_id":"dd8986be-0d95-447a-8c39-0a2a20571d09","system_id":"levelo_inurba_marseille","lat":43.28694,"lon":5.399715,"is_reserved":false,"is_disabled":false,"rental_uris":{"android":"levelo://app?vid=dd8986be-0d95-447a-8c39-0a2a20571d09","ios":"levelo://app?vid=dd8986be-0d95-447a-8c39-0a2a20571d09"},"vehicle_type_id":"4","last_reported":1748041842,"current_range_meters":8400,"station_id":"ce4bho92rcd13ifvqh3g","pricing_plan_id":"cebpf4jnsgd1na2vs0mg"},{"bike_id":"a45243e6-6f76-4dff-896d-7eecf98281c7","system_id":"levelo_inurba_marseille","lat":43.25115,"lon":5.40309,"is_reserved":false,"is_disabled":false,"rental_uris":{"android":"levelo://app?vid=a45243e6-6f76-4dff-896d-7eecf98281c7","ios":"levelo://app?vid=a45243e6-6f76-4dff-896d-7eecf98281c7"},"vehicle_type_id":"4","last_reported":1748041842,"current_range_meters":8800,"station_id":"ce4bhlh2rcd13ifvqgig","pricing_plan_id":"cebpf4jnsgd1na2vs0mg"},{"bike_id":"7097370e-7a0d-4e71-be27-a879020555f9","system_id":"levelo_inurba_marseille","lat":43.28036,"lon":5.39724,"is_reserved":false,"is_disabled":false,"rental_uris":{"android":"levelo://app?vid=7097370e-7a0d-4e71-be27-a879020555f9","ios":"levelo://app?vid=7097370e-7a0d-4e71-be27-a879020555f9"},"vehicle_type_id":"4","last_reported":1748041842,"current_range_meters":8800,"station_id":"","pricing_plan_id":"cebpf4jnsgd1na2vs0mg"},{"bike_id":"77b6a80d-22b6-4a59-b8b9-7cbec65c1273","system_id":"levelo_inurba_marseille","lat":43.24178,"lon":5.39731,"is_reserved":false,"is_disabled":false,"rental_uris":{"android":"levelo://app?vid=77b6a80d-22b6-4a59-b8b9-7cbec65c1273","ios":"levelo://app?vid=77b6a80d-22b6-4a59-b8b9-7cbec65c1273"},"vehicle_type_id":"4","last_reported":1748041842,"current_range_meters":8800,"station_id":"ce4bhn12rcd13ifvqgpg","pricing_plan_id":"cebpf4jnsgd1na2vs0mg"},{"bike_id":"67368c92-a10f-425a-b987-ca1facceaef0","system_id":"levelo_inurba_marseille","lat":43.28704,"lon":5.3998,"is_reserved":false,"is_disabled":false,"rental_uris":{"android":"levelo://app?vid=67368c92-a10f-425a-b987-ca1facceaef0","ios":"levelo://app?vid=67368c92-a10f-425a-b987-ca1facceaef0"},"vehicle_type_id":"4","last_reported":1748041842,"current_range_meters":8800,"station_id":"ce4bho92rcd13ifvqh3g","pricing_plan_id":"cebpf4jnsgd1na2vs0mg"},{"bike_id":"9cd22fed-04c4-474a-9727-f7f9467c9f14","system_id":"levelo_inurba_marseille","lat":43.26065,"lon":5.37529,"is_reserved":false,"is_disabled":false,"rental_uris":{"android":"levelo://app?vid=9cd22fed-04c4-474a-9727-f7f9467c9f14","ios":"levelo://app?vid=9cd22fed-04c4-474a-9727-f7f9467c9f14"},"vehicle_type_id":"4","last_reported":1748041842,"current_range_meters":8800,"station_id":"ce4bhgh2rcd13ifvqfa0","pricing_plan_id":"cebpf4jnsgd1na2vs0mg"},{"bike_id":"4936be8a-2e48-448e-a438-d49cdac66c51","system_id":"levelo_inurba_marseille","lat":43.29896,"lon":5.43641,"is_reserved":false,"is_disabled":false,"rental_uris":{"android":"levelo://app?vid=4936be8a-2e48-448e-a438-d49cdac66c51","ios":"levelo://app?vid=4936be8a-2e48-448e-a438-d49cdac66c51"},"vehicle_type_id":"4","last_reported":1748041842,"current_range_meters":8400,"station_id":"ce4bhpp2rcd13ifvqhfg","pricing_plan_id":"cebpf4jnsgd1na2vs0mg"},{"bike_id":"d25540ad-2293-493e-8569-c8b5f569a46d","system_id":"levelo_inurba_marseille","lat":43.28698,"lon":5.37399,"is_reserved":false,"is_disabled":false,"rental_uris":{"android":"levelo://app?vid=d25540ad-2293-493e-8569-c8b5f569a46d","ios":"levelo://app?vid=d25540ad-2293-493e-8569-c8b5f569a46d"},"vehicle_type_id":"4","last_reported":1748041842,"current_range_meters":8800,"station_id":"ce4bh3p2rcd13ifvqdq0","pricing_plan_id":"cebpf4jnsgd1na2vs0mg"},{"bike_id":"89a5b22f-ad6c-47ed-9f9a-19b24027f8e6","system_id":"levelo_inurba_marseille","lat":43.28687,"lon":5.39967,"is_reserved":false,"is_disabled":false,"rental_uris":{"android":"levelo://app?vid=89a5b22f-ad6c-47ed-9f9a-19b24027f8e6","ios":"levelo://app?vid=89a5b22f-ad6c-47ed-9f9a-19b24027f8e6"},"vehicle_type_id":"4","last_reported":1748041842,"current_range_meters":8800,"station_id":"ce4bho92rcd13ifvqh3g","pricing_plan_id":"cebpf4jnsgd1na2vs0mg"},{"bike_id":"478537a2-e92e-4aa8-9a5d-67139edf6f2f","system_id":"levelo_inurba_marseille","lat":43.28694,"lon":5.39988,"is_reserved":false,"is_disabled":false,"rental_uris":{"android":"levelo://app?vid=478537a2-e92e-4aa8-9a5d-67139edf6f2f","ios":"levelo://app?vid=478537a2-e92e-4aa8-9a5d-67139edf6f2f"},"vehicle_type_id":"4","last_reported":1748041842,"current_range_meters":8800,"station_id":"ce4bho92rcd13ifvqh3g","pricing_plan_id":"cebpf4jnsgd1na2vs0mg"},{"bike_id":"560b75e8-dda9-4b4b-9745-40d79f055c2e","system_id":"levelo_inurba_marseille","lat":43.28407,"lon":5.41615,"is_reserved":false,"is_disabled":false,"rental_uris":{"android":"levelo://app?vid=560b75e8-dda9-4b4b-9745-40d79f055c2e","ios":"levelo://app?vid=560b75e8-dda9-4b4b-9745-40d79f055c2e"},"vehicle_type_id":"4","last_reported":1748041842,"current_range_meters":8800,"station_id":"","pricing_plan_id":"cebpf4jnsgd1na2vs0mg"},{"bike_id":"08ee356c-5e7f-411a-92fa-743c60587785","system_id":"levelo_inurba_marseille","lat":43.2603,"lon":5.37613,"is_reserved":false,"is_disabled":false,"rental_uris":{"android":"levelo://app?vid=08ee356c-5e7f-411a-92fa-743c60587785","ios":"levelo://app?vid=08ee356c-5e7f-411a-92fa-743c60587785"},"vehicle_type_id":"4","last_reported":1748041842,"current_range_meters":8800,"station_id":"","pricing_plan_id":"cebpf4jnsgd1na2vs0mg"},{"bike_id":"2f398421-1a07-4c1c-870c-a0a25c5f48e8","system_id":"levelo_inurba_marseille","lat":43.21728,"lon":5.34625,"is_reserved":false,"is_disabled":false,"rental_uris":{"android":"levelo://app?vid=2f398421-1a07-4c1c-870c-a0a25c5f48e8","ios":"levelo://app?vid=2f398421-1a07-4c1c-870c-a0a25c5f48e8"},"vehicle_type_id":"4","last_reported":1748041842,"current_range_meters":8800,"station_id":"","pricing_plan_id":"cebpf4jnsgd1na2vs0mg"},{"bike_id":"5a9e41ae-6431-4921-b93e-e658e26893c6","system_id":"levelo_inurba_marseille","lat":43.22933,"lon":5.35374,"is_reserved":false,"is_disabled":false,"rental_uris":{"android":"levelo://app?vid=5a9e41ae-6431-4921-b93e-e658e26893c6","ios":"levelo://app?vid=5a9e41ae-6431-4921-b93e-e658e26893c6"},"vehicle_type_id":"4","last_reported":1748041842,"current_range_meters":8800,"station_id":"cpo3532slgdg3j2ikp40","pricing_plan_id":"cebpf4jnsgd1na2vs0mg"},{"bike_id":"786ac359-66af-4572-ab1c-1b38467715a7","system_id":"levelo_inurba_marseille","lat":43.22492,"lon":5.34767,"is_reserved":false,"is_disabled":false,"rental_uris":{"android":"levelo://app?vid=786ac359-66af-4572-ab1c-1b38467715a7","ios":"levelo://app?vid=786ac359-66af-4572-ab1c-1b38467715a7"},"vehicle_type_id":"4","last_reported":1748041842,"current_range_meters":9200,"station_id":"","pricing_plan_id":"cebpf4jnsgd1na2vs0mg"},{"bike_id":"754679ea-0592-4aaa-a36a-757f44975cfa","system_id":"levelo_inurba_marseille","lat":43.29276,"lon":5.40136,"is_reserved":false,"is_disabled":false,"rental_uris":{"android":"levelo://app?vid=754679ea-0592-4aaa-a36a-757f44975cfa","ios":"levelo://app?vid=754679ea-0592-4aaa-a36a-757f44975cfa"},"vehicle_type_id":"4","last_reported":1748041842,"current_range_meters":9200,"station_id":"ce4bh312rcd13ifvqdk0","pricing_plan_id":"cebpf4jnsgd1na2vs0mg"},{"bike_id":"58925089-defe-4d40-acc5-1144e2f4dbed","system_id":"levelo_inurba_marseille","lat":43.307985,"lon":5.435235,"is_reserved":false,"is_disabled":false,"rental_uris":{"android":"levelo://app?vid=58925089-defe-4d40-acc5-1144e2f4dbed","ios":"levelo://app?vid=58925089-defe-4d40-acc5-1144e2f4dbed"},"vehicle_type_id":"4","last_reported":1748041842,"current_range_meters":9200,"station_id":"ce4bhph2rcd13ifvqheg","pricing_plan_id":"cebpf4jnsgd1na2vs0mg"},{"bike_id":"3ebbcce9-2da1-406e-8389-49fae438912f","system_id":"levelo_inurba_marseille","lat":43.30932,"lon":5.40141,"is_reserved":false,"is_disabled":false,"rental_uris":{"android":"levelo://app?vid=3ebbcce9-2da1-406e-8389-49fae438912f","ios":"levelo://app?vid=3ebbcce9-2da1-406e-8389-49fae438912f"},"vehicle_type_id":"4","last_reported":1748041842,"current_range_meters":9200,"station_id":"ce4bgvp2rcd13ifvqct0","pricing_plan_id":"cebpf4jnsgd1na2vs0mg"},{"bike_id":"9976886d-c6b6-421b-ad52-5ce21eaa0e89","system_id":"levelo_inurba_marseille","lat":43.25108,"lon":5.40311,"is_reserved":false,"is_disabled":false,"rental_uris":{"android":"levelo://app?vid=9976886d-c6b6-421b-ad52-5ce21eaa0e89","ios":"levelo://app?vid=9976886d-c6b6-421b-ad52-5ce21eaa0e89"},"vehicle_type_id":"4","last_reported":1748041842,"current_range_meters":8800,"station_id":"ce4bhlh2rcd13ifvqgig","pricing_plan_id":"cebpf4jnsgd1na2vs0mg"},{"bike_id":"2605cac6-84ad-4ec5-8e1e-8061566a2ab3","system_id":"levelo_inurba_marseille","lat":43.27362,"lon":5.3624,"is_reserved":false,"is_disabled":false,"rental_uris":{"android":"levelo://app?vid=2605cac6-84ad-4ec5-8e1e-8061566a2ab3","ios":"levelo://app?vid=2605cac6-84ad-4ec5-8e1e-8061566a2ab3"},"vehicle_type_id":"4","last_reported":1748041842,"current_range_meters":8800,"station_id":"ce4bhbh2rcd13ifvqeo0","pricing_plan_id":"cebpf4jnsgd1na2vs0mg"},{"bike_id":"39fc12e9-6bea-485e-a12a-5bd6b7f2c109","system_id":"levelo_inurba_marseille","lat":43.25099,"lon":5.40335,"is_reserved":false,"is_disabled":false,"rental_uris":{"android":"levelo://app?vid=39fc12e9-6bea-485e-a12a-5bd6b7f2c109","ios":"levelo://app?vid=39fc12e9-6bea-485e-a12a-5bd6b7f2c109"},"vehicle_type_id":"4","last_reported":1748041842,"current_range_meters":9200,"station_id":"ce4bhlh2rcd13ifvqgig","pricing_plan_id":"cebpf4jnsgd1na2vs0mg"},{"bike_id":"fb19f787-e9a8-4f92-9586-b1f0b6054e91","system_id":"levelo_inurba_marseille","lat":43.28705,"lon":5.37384,"is_reserved":false,"is_disabled":false,"rental_uris":{"android":"levelo://app?vid=fb19f787-e9a8-4f92-9586-b1f0b6054e91","ios":"levelo://app?vid=fb19f787-e9a8-4f92-9586-b1f0b6054e91"},"vehicle_type_id":"4","last_reported":1748041842,"current_range_meters":9600,"station_id":"ce4bh3p2rcd13ifvqdq0","pricing_plan_id":"cebpf4jnsgd1na2vs0mg"},{"bike_id":"e738a4e4-91f0-4000-960c-7019cf587860","system_id":"levelo_inurba_marseille","lat":43.315564,"lon":5.387522,"is_reserved":false,"is_disabled":false,"rental_uris":{"android":"levelo://app?vid=e738a4e4-91f0-4000-960c-7019cf587860","ios":"levelo://app?vid=e738a4e4-91f0-4000-960c-7019cf587860"},"vehicle_type_id":"4","last_reported":1748041842,"current_range_meters":9600,"station_id":"","pricing_plan_id":"cebpf4jnsgd1na2vs0mg"},{"bike_id":"597e7aee-8016-4863-971c-3df1e7c82c60","system_id":"levelo_inurba_marseille","lat":43.296115,"lon":5.405962,"is_reserved":false,"is_disabled":false,"rental_uris":{"android":"levelo://app?vid=597e7aee-8016-4863-971c-3df1e7c82c60","ios":"levelo://app?vid=597e7aee-8016-4863-971c-3df1e7c82c60"},"vehicle_type_id":"4","last_reported":1748041842,"current_range_meters":9600,"station_id":"ce4bh0h2rcd13ifvqd60","pricing_plan_id":"cebpf4jnsgd1na2vs0mg"},{"bike_id":"11035dbe-398a-4f94-9720-ab5d67593f09","system_id":"levelo_inurba_marseille","lat":43.311254,"lon":5.377838,"is_reserved":false,"is_disabled":false,"rental_uris":{"android":"levelo://app?vid=11035dbe-398a-4f94-9720-ab5d67593f09","ios":"levelo://app?vid=11035dbe-398a-4f94-9720-ab5d67593f09"},"vehicle_type_id":"4","last_reported":1748041842,"current_range_meters":9600,"station_id":"ce4bgt92rcd13ifvqcg0","pricing_plan_id":"cebpf4jnsgd1na2vs0mg"},{"bike_id":"1e164eaf-2ffb-4814-9442-b43f6b5c9f80","system_id":"levelo_inurba_marseille","lat":43.241675,"lon":5.363902,"is_reserved":false,"is_disabled":false,"rental_uris":{"android":"levelo://app?vid=1e164eaf-2ffb-4814-9442-b43f6b5c9f80","ios":"levelo://app?vid=1e164eaf-2ffb-4814-9442-b43f6b5c9f80"},"vehicle_type_id":"4","last_reported":1748041842,"current_range_meters":9600,"station_id":"cpo36qri1sfpv3e86is0","pricing_plan_id":"cebpf4jnsgd1na2vs0mg"},{"bike_id":"89568f23-763c-4ebb-9b77-1ebd39d76c7c","system_id":"levelo_inurba_marseille","lat":43.28701,"lon":5.39969,"is_reserved":false,"is_disabled":false,"rental_uris":{"android":"levelo://app?vid=89568f23-763c-4ebb-9b77-1ebd39d76c7c","ios":"levelo://app?vid=89568f23-763c-4ebb-9b77-1ebd39d76c7c"},"vehicle_type_id":"4","last_reported":1748041842,"current_range_meters":9600,"station_id":"ce4bho92rcd13ifvqh3g","pricing_plan_id":"cebpf4jnsgd1na2vs0mg"},{"bike_id":"1675d4e1-5657-4c48-9a31-5c638806b3fa","system_id":"levelo_inurba_marseille","lat":43.31222,"lon":5.36841,"is_reserved":false,"is_disabled":false,"rental_uris":{"android":"levelo://app?vid=1675d4e1-5657-4c48-9a31-5c638806b3fa","ios":"levelo://app?vid=1675d4e1-5657-4c48-9a31-5c638806b3fa"},"vehicle_type_id":"4","last_reported":1748041842,"current_range_meters":9600,"station_id":"ce4bgl92rcd13ifvqbq0","pricing_plan_id":"cebpf4jnsgd1na2vs0mg"},{"bike_id":"6c97fffd-bd2d-4ac1-bd38-d3d1094439a7","system_id":"levelo_inurba_marseille","lat":43.30296,"lon":5.37333,"is_reserved":false,"is_disabled":false,"rental_uris":{"android":"levelo://app?vid=6c97fffd-bd2d-4ac1-bd38-d3d1094439a7","ios":"levelo://app?vid=6c97fffd-bd2d-4ac1-bd38-d3d1094439a7"},"vehicle_type_id":"4","last_reported":1748041842,"current_range_meters":9600,"station_id":"","pricing_plan_id":"cebpf4jnsgd1na2vs0mg"},{"bike_id":"1558526f-5739-49db-a8cb-43d331957259","system_id":"levelo_inurba_marseille","lat":43.32363,"lon":5.36767,"is_reserved":false,"is_disabled":false,"rental_uris":{"android":"levelo://app?vid=1558526f-5739-49db-a8cb-43d331957259","ios":"levelo://app?vid=1558526f-5739-49db-a8cb-43d331957259"},"vehicle_type_id":"4","last_reported":1748041842,"current_range_meters":9600,"station_id":"ce4bhsh2rcd13ifvqi2g","pricing_plan_id":"cebpf4jnsgd1na2vs0mg"},{"bike_id":"bee1e79c-7807-4a69-a4ba-89323d1d852e","system_id":"levelo_inurba_marseille","lat":43.28702,"lon":5.38426,"is_reserved":false,"is_disabled":false,"rental_uris":{"android":"levelo://app?vid=bee1e79c-7807-4a69-a4ba-89323d1d852e","ios":"levelo://app?vid=bee1e79c-7807-4a69-a4ba-89323d1d852e"},"vehicle_type_id":"4","last_reported":1748041842,"current_range_meters":9600,"station_id":"","pricing_plan_id":"cebpf4jnsgd1na2vs0mg"},{"bike_id":"108cb56e-30b8-4cb9-96da-8c17bb1be1c3","system_id":"levelo_inurba_marseille","lat":43.28271,"lon":5.35053,"is_reserved":false,"is_disabled":false,"rental_uris":{"android":"levelo://app?vid=108cb56e-30b8-4cb9-96da-8c17bb1be1c3","ios":"levelo://app?vid=108cb56e-30b8-4cb9-96da-8c17bb1be1c3"},"vehicle_type_id":"4","last_reported":1748041842,"current_range_meters":9600,"station_id":"ce4bhbp2rcd13ifvqerg","pricing_plan_id":"cebpf4jnsgd1na2vs0mg"},{"bike_id":"1a4ee0fd-83d1-4ffe-9f86-6e48ea2279d9","system_id":"levelo_inurba_marseille","lat":43.284297,"lon":5.391717,"is_reserved":false,"is_disabled":false,"rental_uris":{"android":"levelo://app?vid=1a4ee0fd-83d1-4ffe-9f86-6e48ea2279d9","ios":"levelo://app?vid=1a4ee0fd-83d1-4ffe-9f86-6e48ea2279d9"},"vehicle_type_id":"4","last_reported":1748041842,"current_range_meters":9600,"station_id":"ce4bhoh2rcd13ifvqh5g","pricing_plan_id":"cebpf4jnsgd1na2vs0mg"},{"bike_id":"2954c321-77db-454b-ab80-3fc4d55583d6","system_id":"levelo_inurba_marseille","lat":43.31331,"lon":5.39688,"is_reserved":false,"is_disabled":false,"rental_uris":{"android":"levelo://app?vid=2954c321-77db-454b-ab80-3fc4d55583d6","ios":"levelo://app?vid=2954c321-77db-454b-ab80-3fc4d55583d6"},"vehicle_type_id":"4","last_reported":1748041842,"current_range_meters":9600,"station_id":"ce4bgvp2rcd13ifvqcu0","pricing_plan_id":"cebpf4jnsgd1na2vs0mg"},{"bike_id":"c9c5bef1-5303-4536-9374-ac0aef114419","system_id":"levelo_inurba_marseille","lat":43.245485,"lon":5.395192,"is_reserved":false,"is_disabled":false,"rental_uris":{"android":"levelo://app?vid=c9c5bef1-5303-4536-9374-ac0aef114419","ios":"levelo://app?vid=c9c5bef1-5303-4536-9374-ac0aef114419"},"vehicle_type_id":"4","last_reported":1748041842,"current_range_meters":10000,"station_id":"ce4bhlp2rcd13ifvqgjg","pricing_plan_id":"cebpf4jnsgd1na2vs0mg"},{"bike_id":"4f3ffbfd-5d1e-4140-897f-d100e46cb961","system_id":"levelo_inurba_marseille","lat":43.28657,"lon":5.36345,"is_reserved":false,"is_disabled":true,"rental_uris":{"android":"levelo://app?vid=4f3ffbfd-5d1e-4140-897f-d100e46cb961","ios":"levelo://app?vid=4f3ffbfd-5d1e-4140-897f-d100e46cb961"},"vehicle_type_id":"4","last_reported":1748041842,"current_range_meters":10000,"station_id":"ce4bhah2rcd13ifvqej0","pricing_plan_id":"cebpf4jnsgd1na2vs0mg"},{"bike_id":"860c72ac-cabb-4747-868b-2d29c2de28b8","system_id":"levelo_inurba_marseille","lat":43.3107,"lon":5.38353,"is_reserved":false,"is_disabled":false,"rental_uris":{"android":"levelo://app?vid=860c72ac-cabb-4747-868b-2d29c2de28b8","ios":"levelo://app?vid=860c72ac-cabb-4747-868b-2d29c2de28b8"},"vehicle_type_id":"4","last_reported":1748041842,"current_range_meters":10000,"station_id":"ce4bgv92rcd13ifvqcr0","pricing_plan_id":"cebpf4jnsgd1na2vs0mg"},{"bike_id":"630a4786-da3c-40b4-854b-c232bc2f54c0","system_id":"levelo_inurba_marseille","lat":43.24663,"lon":5.38162,"is_reserved":false,"is_disabled":false,"rental_uris":{"android":"levelo://app?vid=630a4786-da3c-40b4-854b-c232bc2f54c0","ios":"levelo://app?vid=630a4786-da3c-40b4-854b-c232bc2f54c0"},"vehicle_type_id":"4","last_reported":1748041842,"current_range_meters":10000,"station_id":"ce4bhih2rcd13ifvqfr0","pricing_plan_id":"cebpf4jnsgd1na2vs0mg"},{"bike_id":"4525f9a3-55f1-43a7-ae74-1a1c22f30cac","system_id":"levelo_inurba_marseille","lat":43.32107,"lon":5.367683,"is_reserved":false,"is_disabled":false,"rental_uris":{"android":"levelo://app?vid=4525f9a3-55f1-43a7-ae74-1a1c22f30cac","ios":"levelo://app?vid=4525f9a3-55f1-43a7-ae74-1a1c22f30cac"},"vehicle_type_id":"4","last_reported":1748041842,"current_range_meters":10000,"station_id":"ce4bhrh2rcd13ifvqhug","pricing_plan_id":"cebpf4jnsgd1na2vs0mg"},{"bike_id":"f6b3b099-ab25-481f-9586-62d397aaedc0","system_id":"levelo_inurba_marseille","lat":43.31565,"lon":5.38731,"is_reserved":false,"is_disabled":false,"rental_uris":{"android":"levelo://app?vid=f6b3b099-ab25-481f-9586-62d397aaedc0","ios":"levelo://app?vid=f6b3b099-ab25-481f-9586-62d397aaedc0"},"vehicle_type_id":"4","last_reported":1748041842,"current_range_meters":10000,"station_id":"","pricing_plan_id":"cebpf4jnsgd1na2vs0mg"},{"bike_id":"81dc790e-c915-48fc-9047-041ca5c7178c","system_id":"levelo_inurba_marseille","lat":43.284133,"lon":5.375137,"is_reserved":false,"is_disabled":false,"rental_uris":{"android":"levelo://app?vid=81dc790e-c915-48fc-9047-041ca5c7178c","ios":"levelo://app?vid=81dc790e-c915-48fc-9047-041ca5c7178c"},"vehicle_type_id":"4","last_reported":1748041842,"current_range_meters":10000,"station_id":"ce4bh412rcd13ifvqds0","pricing_plan_id":"cebpf4jnsgd1na2vs0mg"},{"bike_id":"2ea50577-1176-467c-8d1f-ce07d6571fb8","system_id":"levelo_inurba_marseille","lat":43.23184,"lon":5.35562,"is_reserved":false,"is_disabled":false,"rental_uris":{"android":"levelo://app?vid=2ea50577-1176-467c-8d1f-ce07d6571fb8","ios":"levelo://app?vid=2ea50577-1176-467c-8d1f-ce07d6571fb8"},"vehicle_type_id":"4","last_reported":1748041842,"current_range_meters":10000,"station_id":"ce4bhu92rcd13ifvqi70","pricing_plan_id":"cebpf4jnsgd1na2vs0mg"},{"bike_id":"bf662ae0-26e4-4bb7-9f9e-d0df53c116b8","system_id":"levelo_inurba_marseille","lat":43.23201,"lon":5.35561,"is_reserved":false,"is_disabled":false,"rental_uris":{"android":"levelo://app?vid=bf662ae0-26e4-4bb7-9f9e-d0df53c116b8","ios":"levelo://app?vid=bf662ae0-26e4-4bb7-9f9e-d0df53c116b8"},"vehicle_type_id":"4","last_reported":1748041842,"current_range_meters":10000,"station_id":"ce4bhu92rcd13ifvqi70","pricing_plan_id":"cebpf4jnsgd1na2vs0mg"},{"bike_id":"5062abdc-9394-4292-b94e-92b16fb0f53b","system_id":"levelo_inurba_marseille","lat":43.31487,"lon":5.37307,"is_reserved":false,"is_disabled":false,"rental_uris":{"android":"levelo://app?vid=5062abdc-9394-4292-b94e-92b16fb0f53b","ios":"levelo://app?vid=5062abdc-9394-4292-b94e-92b16fb0f53b"},"vehicle_type_id":"4","last_reported":1748041842,"current_range_meters":10000,"station_id":"ce4bgt12rcd13ifvqcd0","pricing_plan_id":"cebpf4jnsgd1na2vs0mg"},{"bike_id":"03047dc6-2818-4330-94ad-15faca1c545c","system_id":"levelo_inurba_marseille","lat":43.32983,"lon":5.43849,"is_reserved":false,"is_disabled":false,"rental_uris":{"android":"levelo://app?vid=03047dc6-2818-4330-94ad-15faca1c545c","ios":"levelo://app?vid=03047dc6-2818-4330-94ad-15faca1c545c"},"vehicle_type_id":"4","last_reported":1748041842,"current_range_meters":10000,"station_id":"","pricing_plan_id":"cebpf4jnsgd1na2vs0mg"},{"bike_id":"2eade79b-0917-4c66-8514-04249621d42b","system_id":"levelo_inurba_marseille","lat":43.25534,"lon":5.38263,"is_reserved":false,"is_disabled":false,"rental_uris":{"android":"levelo://app?vid=2eade79b-0917-4c66-8514-04249621d42b","ios":"levelo://app?vid=2eade79b-0917-4c66-8514-04249621d42b"},"vehicle_type_id":"4","last_reported":1748041842,"current_range_meters":10000,"station_id":"","pricing_plan_id":"cebpf4jnsgd1na2vs0mg"},{"bike_id":"12428009-dea4-426e-b369-bb6375145aec","system_id":"levelo_inurba_marseille","lat":43.285589,"lon":5.395043,"is_reserved":false,"is_disabled":false,"rental_uris":{"android":"levelo://app?vid=12428009-dea4-426e-b369-bb6375145aec","ios":"levelo://app?vid=12428009-dea4-426e-b369-bb6375145aec"},"vehicle_type_id":"4","last_reported":1748041842,"current_range_meters":10800,"station_id":"ce4bh292rcd13ifvqdg0","pricing_plan_id":"cebpf4jnsgd1na2vs0mg"},{"bike_id":"b3767b74-ac10-40d2-a230-3fdbe2748d89","system_id":"levelo_inurba_marseille","lat":43.29226,"lon":5.3606,"is_reserved":false,"is_disabled":false,"rental_uris":{"android":"levelo://app?vid=b3767b74-ac10-40d2-a230-3fdbe2748d89","ios":"levelo://app?vid=b3767b74-ac10-40d2-a230-3fdbe2748d89"},"vehicle_type_id":"4","last_reported":1748041842,"current_range_meters":10800,"station_id":"ce4bhbh2rcd13ifvqeqg","pricing_plan_id":"cebpf4jnsgd1na2vs0mg"},{"bike_id":"6368ecee-8f8c-4789-b69f-12d99165b593","system_id":"levelo_inurba_marseille","lat":43.30932,"lon":5.40136,"is_reserved":false,"is_disabled":false,"rental_uris":{"android":"levelo://app?vid=6368ecee-8f8c-4789-b69f-12d99165b593","ios":"levelo://app?vid=6368ecee-8f8c-4789-b69f-12d99165b593"},"vehicle_type_id":"4","last_reported":1748041842,"current_range_meters":10800,"station_id":"ce4bgvp2rcd13ifvqct0","pricing_plan_id":"cebpf4jnsgd1na2vs0mg"},{"bike_id":"9160bc1a-6cf6-404b-a205-72fd628f40d0","system_id":"levelo_inurba_marseille","lat":43.24179,"lon":5.39727,"is_reserved":false,"is_disabled":false,"rental_uris":{"android":"levelo://app?vid=9160bc1a-6cf6-404b-a205-72fd628f40d0","ios":"levelo://app?vid=9160bc1a-6cf6-404b-a205-72fd628f40d0"},"vehicle_type_id":"4","last_reported":1748041842,"current_range_meters":10800,"station_id":"ce4bhn12rcd13ifvqgpg","pricing_plan_id":"cebpf4jnsgd1na2vs0mg"},{"bike_id":"51a0f59e-3f8a-477c-8800-d6cadac01c4d","system_id":"levelo_inurba_marseille","lat":43.23959,"lon":5.36625,"is_reserved":false,"is_disabled":false,"rental_uris":{"android":"levelo://app?vid=51a0f59e-3f8a-477c-8800-d6cadac01c4d","ios":"levelo://app?vid=51a0f59e-3f8a-477c-8800-d6cadac01c4d"},"vehicle_type_id":"4","last_reported":1748041842,"current_range_meters":10800,"station_id":"ce4bhi12rcd13ifvqfp0","pricing_plan_id":"cebpf4jnsgd1na2vs0mg"},{"bike_id":"54d7dc3f-038c-4a6e-ad4b-2349a433f999","system_id":"levelo_inurba_marseille","lat":43.32367,"lon":5.38872,"is_reserved":false,"is_disabled":false,"rental_uris":{"android":"levelo://app?vid=54d7dc3f-038c-4a6e-ad4b-2349a433f999","ios":"levelo://app?vid=54d7dc3f-038c-4a6e-ad4b-2349a433f999"},"vehicle_type_id":"4","last_reported":1748041842,"current_range_meters":10800,"station_id":"ce4bhqp2rcd13ifvqhog","pricing_plan_id":"cebpf4jnsgd1na2vs0mg"},{"bike_id":"3aa77cba-5a84-4921-bcb8-a618dfbfbb8a","system_id":"levelo_inurba_marseille","lat":43.23964,"lon":5.36622,"is_reserved":false,"is_disabled":false,"rental_uris":{"android":"levelo://app?vid=3aa77cba-5a84-4921-bcb8-a618dfbfbb8a","ios":"levelo://app?vid=3aa77cba-5a84-4921-bcb8-a618dfbfbb8a"},"vehicle_type_id":"4","last_reported":1748041842,"current_range_meters":10800,"station_id":"ce4bhi12rcd13ifvqfp0","pricing_plan_id":"cebpf4jnsgd1na2vs0mg"},{"bike_id":"2514286c-e011-4ce6-b47d-9ac9320967c6","system_id":"levelo_inurba_marseille","lat":43.26218,"lon":5.40424,"is_reserved":false,"is_disabled":false,"rental_uris":{"android":"levelo://app?vid=2514286c-e011-4ce6-b47d-9ac9320967c6","ios":"levelo://app?vid=2514286c-e011-4ce6-b47d-9ac9320967c6"},"vehicle_type_id":"4","last_reported":1748041842,"current_range_meters":10800,"station_id":"ce4bhmh2rcd13ifvqgmg","pricing_plan_id":"cebpf4jnsgd1na2vs0mg"},{"bike_id":"fa529a29-8d21-4f13-9783-e1708a99c344","system_id":"levelo_inurba_marseille","lat":43.246516,"lon":5.388955,"is_reserved":false,"is_disabled":false,"rental_uris":{"android":"levelo://app?vid=fa529a29-8d21-4f13-9783-e1708a99c344","ios":"levelo://app?vid=fa529a29-8d21-4f13-9783-e1708a99c344"},"vehicle_type_id":"4","last_reported":1748041842,"current_range_meters":11200,"station_id":"ce4bhlh2rcd13ifvqgig","pricing_plan_id":"cebpf4jnsgd1na2vs0mg"},{"bike_id":"c7945004-f6ff-4c1d-915f-8b37d428bd08","system_id":"levelo_inurba_marseille","lat":43.28754,"lon":5.37362,"is_reserved":false,"is_disabled":false,"rental_uris":{"android":"levelo://app?vid=c7945004-f6ff-4c1d-915f-8b37d428bd08","ios":"levelo://app?vid=c7945004-f6ff-4c1d-915f-8b37d428bd08"},"vehicle_type_id":"4","last_reported":1748041842,"current_range_meters":11200,"station_id":"","pricing_plan_id":"cebpf4jnsgd1na2vs0mg"},{"bike_id":"caadbde8-2ae7-4199-8bed-2b2abfb8667b","system_id":"levelo_inurba_marseille","lat":43.23192,"lon":5.39978,"is_reserved":false,"is_disabled":false,"rental_uris":{"android":"levelo://app?vid=caadbde8-2ae7-4199-8bed-2b2abfb8667b","ios":"levelo://app?vid=caadbde8-2ae7-4199-8bed-2b2abfb8667b"},"vehicle_type_id":"4","last_reported":1748041842,"current_range_meters":11200,"station_id":"ce4bhn12rcd13ifvqgqg","pricing_plan_id":"cebpf4jnsgd1na2vs0mg"},{"bike_id":"fe52ecaf-13a9-441d-964f-7ad11d212a0f","system_id":"levelo_inurba_marseille","lat":43.27444,"lon":5.39366,"is_reserved":false,"is_disabled":false,"rental_uris":{"android":"levelo://app?vid=fe52ecaf-13a9-441d-964f-7ad11d212a0f","ios":"levelo://app?vid=fe52ecaf-13a9-441d-964f-7ad11d212a0f"},"vehicle_type_id":"4","last_reported":1748041842,"current_range_meters":11200,"station_id":"ce4bhdp2rcd13ifvqf20","pricing_plan_id":"cebpf4jnsgd1na2vs0mg"},{"bike_id":"979fd0ff-7eb3-4c35-97f4-47a0b7663993","system_id":"levelo_inurba_marseille","lat":43.31489,"lon":5.37307,"is_reserved":false,"is_disabled":false,"rental_uris":{"android":"levelo://app?vid=979fd0ff-7eb3-4c35-97f4-47a0b7663993","ios":"levelo://app?vid=979fd0ff-7eb3-4c35-97f4-47a0b7663993"},"vehicle_type_id":"4","last_reported":1748041842,"current_range_meters":11200,"station_id":"ce4bgt12rcd13ifvqcd0","pricing_plan_id":"cebpf4jnsgd1na2vs0mg"},{"bike_id":"effc16e6-3cfa-4461-b0f9-d24e0aa8184f","system_id":"levelo_inurba_marseille","lat":43.26026,"lon":5.37575,"is_reserved":false,"is_disabled":false,"rental_uris":{"android":"levelo://app?vid=effc16e6-3cfa-4461-b0f9-d24e0aa8184f","ios":"levelo://app?vid=effc16e6-3cfa-4461-b0f9-d24e0aa8184f"},"vehicle_type_id":"4","last_reported":1748041842,"current_range_meters":11200,"station_id":"ce4bhgh2rcd13ifvqfa0","pricing_plan_id":"cebpf4jnsgd1na2vs0mg"},{"bike_id":"6240fd2e-b211-48d5-b234-c3bc1d09ebe7","system_id":"levelo_inurba_marseille","lat":43.31318,"lon":5.39695,"is_reserved":false,"is_disabled":false,"rental_uris":{"android":"levelo://app?vid=6240fd2e-b211-48d5-b234-c3bc1d09ebe7","ios":"levelo://app?vid=6240fd2e-b211-48d5-b234-c3bc1d09ebe7"},"vehicle_type_id":"4","last_reported":1748041842,"current_range_meters":11200,"station_id":"ce4bgvp2rcd13ifvqcu0","pricing_plan_id":"cebpf4jnsgd1na2vs0mg"},{"bike_id":"86ff5301-03c4-485b-b922-524bfaa95407","system_id":"levelo_inurba_marseille","lat":43.25115,"lon":5.40321,"is_reserved":false,"is_disabled":false,"rental_uris":{"android":"levelo://app?vid=86ff5301-03c4-485b-b922-524bfaa95407","ios":"levelo://app?vid=86ff5301-03c4-485b-b922-524bfaa95407"},"vehicle_type_id":"4","last_reported":1748041842,"current_range_meters":11600,"station_id":"ce4bhlh2rcd13ifvqgig","pricing_plan_id":"cebpf4jnsgd1na2vs0mg"},{"bike_id":"ff795cc9-e30c-4b05-87b5-d12e280dae8e","system_id":"levelo_inurba_marseille","lat":43.279513,"lon":5.38753,"is_reserved":false,"is_disabled":false,"rental_uris":{"android":"levelo://app?vid=ff795cc9-e30c-4b05-87b5-d12e280dae8e","ios":"levelo://app?vid=ff795cc9-e30c-4b05-87b5-d12e280dae8e"},"vehicle_type_id":"4","last_reported":1748041842,"current_range_meters":11600,"station_id":"ce4bhg12rcd13ifvqf80","pricing_plan_id":"cebpf4jnsgd1na2vs0mg"},{"bike_id":"4fc507ed-2861-429b-899c-9490e6de6456","system_id":"levelo_inurba_marseille","lat":43.2883,"lon":5.35839,"is_reserved":false,"is_disabled":true,"rental_uris":{"android":"levelo://app?vid=4fc507ed-2861-429b-899c-9490e6de6456","ios":"levelo://app?vid=4fc507ed-2861-429b-899c-9490e6de6456"},"vehicle_type_id":"4","last_reported":1748041842,"current_range_meters":11600,"station_id":"ce4bhb12rcd13ifvqem0","pricing_plan_id":"cebpf4jnsgd1na2vs0mg"},{"bike_id":"54ffe85b-49a9-4c0e-a6d9-b43962db37ea","system_id":"levelo_inurba_marseille","lat":43.29254,"lon":5.40905,"is_reserved":false,"is_disabled":false,"rental_uris":{"android":"levelo://app?vid=54ffe85b-49a9-4c0e-a6d9-b43962db37ea","ios":"levelo://app?vid=54ffe85b-49a9-4c0e-a6d9-b43962db37ea"},"vehicle_type_id":"4","last_reported":1748041842,"current_range_meters":11600,"station_id":"ce4bh192rcd13ifvqdc0","pricing_plan_id":"cebpf4jnsgd1na2vs0mg"},{"bike_id":"74d9c6b3-3337-4903-a93f-6e4d99384c89","system_id":"levelo_inurba_marseille","lat":43.24545,"lon":5.3952,"is_reserved":false,"is_disabled":false,"rental_uris":{"android":"levelo://app?vid=74d9c6b3-3337-4903-a93f-6e4d99384c89","ios":"levelo://app?vid=74d9c6b3-3337-4903-a93f-6e4d99384c89"},"vehicle_type_id":"4","last_reported":1748041842,"current_range_meters":11600,"station_id":"ce4bhlp2rcd13ifvqgjg","pricing_plan_id":"cebpf4jnsgd1na2vs0mg"},{"bike_id":"155455bb-af06-4665-af77-d40a7798016d","system_id":"levelo_inurba_marseille","lat":43.30248,"lon":5.40042,"is_reserved":false,"is_disabled":false,"rental_uris":{"android":"levelo://app?vid=155455bb-af06-4665-af77-d40a7798016d","ios":"levelo://app?vid=155455bb-af06-4665-af77-d40a7798016d"},"vehicle_type_id":"4","last_reported":1748041842,"current_range_meters":11600,"station_id":"ce4bgvh2rcd13ifvqcs0","pricing_plan_id":"cebpf4jnsgd1na2vs0mg"},{"bike_id":"1e07975e-ec03-4b70-a4bf-76fc8fa9ab85","system_id":"levelo_inurba_marseille","lat":43.2582,"lon":5.39431,"is_reserved":false,"is_disabled":false,"rental_uris":{"android":"levelo://app?vid=1e07975e-ec03-4b70-a4bf-76fc8fa9ab85","ios":"levelo://app?vid=1e07975e-ec03-4b70-a4bf-76fc8fa9ab85"},"vehicle_type_id":"4","last_reported":1748041842,"current_range_meters":11600,"station_id":"ce4bhip2rcd13ifvqft0","pricing_plan_id":"cebpf4jnsgd1na2vs0mg"},{"bike_id":"715235d5-353d-4c6e-986c-ec66b70266be","system_id":"levelo_inurba_marseille","lat":43.29575,"lon":5.37503,"is_reserved":false,"is_disabled":false,"rental_uris":{"android":"levelo://app?vid=715235d5-353d-4c6e-986c-ec66b70266be","ios":"levelo://app?vid=715235d5-353d-4c6e-986c-ec66b70266be"},"vehicle_type_id":"4","last_reported":1748041842,"current_range_meters":11600,"station_id":"ce4bgh92rcd13ifvqb50","pricing_plan_id":"cebpf4jnsgd1na2vs0mg"},{"bike_id":"a390969f-a7ce-4c31-829e-24409c859a8b","system_id":"levelo_inurba_marseille","lat":43.312285,"lon":5.36859,"is_reserved":false,"is_disabled":false,"rental_uris":{"android":"levelo://app?vid=a390969f-a7ce-4c31-829e-24409c859a8b","ios":"levelo://app?vid=a390969f-a7ce-4c31-829e-24409c859a8b"},"vehicle_type_id":"4","last_reported":1748041842,"current_range_meters":11600,"station_id":"ce4bgl92rcd13ifvqbq0","pricing_plan_id":"cebpf4jnsgd1na2vs0mg"},{"bike_id":"f5d2bc6d-eea7-4b0b-9f91-92e94c7ea14d","system_id":"levelo_inurba_marseille","lat":43.29033,"lon":5.3995,"is_reserved":false,"is_disabled":false,"rental_uris":{"android":"levelo://app?vid=f5d2bc6d-eea7-4b0b-9f91-92e94c7ea14d","ios":"levelo://app?vid=f5d2bc6d-eea7-4b0b-9f91-92e94c7ea14d"},"vehicle_type_id":"4","last_reported":1748041842,"current_range_meters":11600,"station_id":"ce4bh392rcd13ifvqdm0","pricing_plan_id":"cebpf4jnsgd1na2vs0mg"},{"bike_id":"26a26ae3-ce78-4fa5-bc70-366fdbe3e551","system_id":"levelo_inurba_marseille","lat":43.248178,"lon":5.37442,"is_reserved":false,"is_disabled":false,"rental_uris":{"android":"levelo://app?vid=26a26ae3-ce78-4fa5-bc70-366fdbe3e551","ios":"levelo://app?vid=26a26ae3-ce78-4fa5-bc70-366fdbe3e551"},"vehicle_type_id":"4","last_reported":1748041842,"current_range_meters":11600,"station_id":"ce4bhgh2rcd13ifvqfb0","pricing_plan_id":"cebpf4jnsgd1na2vs0mg"},{"bike_id":"30e93a47-6dbf-4add-b28f-3a802148cd32","system_id":"levelo_inurba_marseille","lat":43.29463,"lon":5.39733,"is_reserved":false,"is_disabled":false,"rental_uris":{"android":"levelo://app?vid=30e93a47-6dbf-4add-b28f-3a802148cd32","ios":"levelo://app?vid=30e93a47-6dbf-4add-b28f-3a802148cd32"},"vehicle_type_id":"4","last_reported":1748041842,"current_range_meters":11600,"station_id":"ce4bh3h2rcd13ifvqdo0","pricing_plan_id":"cebpf4jnsgd1na2vs0mg"},{"bike_id":"f4523653-3660-4855-94eb-477499251db6","system_id":"levelo_inurba_marseille","lat":43.29263,"lon":5.40896,"is_reserved":false,"is_disabled":false,"rental_uris":{"android":"levelo://app?vid=f4523653-3660-4855-94eb-477499251db6","ios":"levelo://app?vid=f4523653-3660-4855-94eb-477499251db6"},"vehicle_type_id":"4","last_reported":1748041842,"current_range_meters":12000,"station_id":"ce4bh192rcd13ifvqdc0","pricing_plan_id":"cebpf4jnsgd1na2vs0mg"},{"bike_id":"2b956450-57ab-4664-94fb-4a4d55a4340b","system_id":"levelo_inurba_marseille","lat":43.2957,"lon":5.39965,"is_reserved":false,"is_disabled":false,"rental_uris":{"android":"levelo://app?vid=2b956450-57ab-4664-94fb-4a4d55a4340b","ios":"levelo://app?vid=2b956450-57ab-4664-94fb-4a4d55a4340b"},"vehicle_type_id":"4","last_reported":1748041842,"current_range_meters":11600,"station_id":"ce4bh312rcd13ifvqdj0","pricing_plan_id":"cebpf4jnsgd1na2vs0mg"},{"bike_id":"6c62b449-3950-47dd-b86a-cd8f37809d7f","system_id":"levelo_inurba_marseille","lat":43.3079,"lon":5.43524,"is_reserved":false,"is_disabled":false,"rental_uris":{"android":"levelo://app?vid=6c62b449-3950-47dd-b86a-cd8f37809d7f","ios":"levelo://app?vid=6c62b449-3950-47dd-b86a-cd8f37809d7f"},"vehicle_type_id":"4","last_reported":1748041842,"current_range_meters":12000,"station_id":"ce4bhph2rcd13ifvqheg","pricing_plan_id":"cebpf4jnsgd1na2vs0mg"},{"bike_id":"bf0c2ec7-fb64-4b52-b508-beee8830e98c","system_id":"levelo_inurba_marseille","lat":43.24072,"lon":5.37758,"is_reserved":false,"is_disabled":false,"rental_uris":{"android":"levelo://app?vid=bf0c2ec7-fb64-4b52-b508-beee8830e98c","ios":"levelo://app?vid=bf0c2ec7-fb64-4b52-b508-beee8830e98c"},"vehicle_type_id":"4","last_reported":1748041842,"current_range_meters":12000,"station_id":"ce4bhnp2rcd13ifvqgvg","pricing_plan_id":"cebpf4jnsgd1na2vs0mg"},{"bike_id":"f4cf9566-969d-4a96-92eb-0b4b45e0e129","system_id":"levelo_inurba_marseille","lat":43.28618,"lon":5.35102,"is_reserved":false,"is_disabled":false,"rental_uris":{"android":"levelo://app?vid=f4cf9566-969d-4a96-92eb-0b4b45e0e129","ios":"levelo://app?vid=f4cf9566-969d-4a96-92eb-0b4b45e0e129"},"vehicle_type_id":"4","last_reported":1748041842,"current_range_meters":12000,"station_id":"ce4bhch2rcd13ifvqeug","pricing_plan_id":"cebpf4jnsgd1na2vs0mg"},{"bike_id":"16a57fc4-cb09-4fe8-a818-79d8914e81b3","system_id":"levelo_inurba_marseille","lat":43.28272,"lon":5.35055,"is_reserved":false,"is_disabled":false,"rental_uris":{"android":"levelo://app?vid=16a57fc4-cb09-4fe8-a818-79d8914e81b3","ios":"levelo://app?vid=16a57fc4-cb09-4fe8-a818-79d8914e81b3"},"vehicle_type_id":"4","last_reported":1748041842,"current_range_meters":12000,"station_id":"ce4bhbp2rcd13ifvqerg","pricing_plan_id":"cebpf4jnsgd1na2vs0mg"},{"bike_id":"182651f5-9ee0-4019-8987-159b1850fd72","system_id":"levelo_inurba_marseille","lat":43.29783,"lon":5.37104,"is_reserved":false,"is_disabled":false,"rental_uris":{"android":"levelo://app?vid=182651f5-9ee0-4019-8987-159b1850fd72","ios":"levelo://app?vid=182651f5-9ee0-4019-8987-159b1850fd72"},"vehicle_type_id":"4","last_reported":1748041842,"current_range_meters":12400,"station_id":"ce4bgop2rcd13ifvqc1g","pricing_plan_id":"cebpf4jnsgd1na2vs0mg"},{"bike_id":"210769d1-9ae0-4026-89c7-782ca711d39d","system_id":"levelo_inurba_marseille","lat":43.32338,"lon":5.40619,"is_reserved":false,"is_disabled":false,"rental_uris":{"android":"levelo://app?vid=210769d1-9ae0-4026-89c7-782ca711d39d","ios":"levelo://app?vid=210769d1-9ae0-4026-89c7-782ca711d39d"},"vehicle_type_id":"4","last_reported":1748041842,"current_range_meters":12400,"station_id":"ce4bhq92rcd13ifvqhjg","pricing_plan_id":"cebpf4jnsgd1na2vs0mg"},{"bike_id":"dd3f083f-bc89-48e2-9824-6006d6e1849f","system_id":"levelo_inurba_marseille","lat":43.28153,"lon":5.42633,"is_reserved":false,"is_disabled":false,"rental_uris":{"android":"levelo://app?vid=dd3f083f-bc89-48e2-9824-6006d6e1849f","ios":"levelo://app?vid=dd3f083f-bc89-48e2-9824-6006d6e1849f"},"vehicle_type_id":"4","last_reported":1748041842,"current_range_meters":12400,"station_id":"ce4bhnh2rcd13ifvqgug","pricing_plan_id":"cebpf4jnsgd1na2vs0mg"},{"bike_id":"3e3aa565-59ae-42e9-967b-13c2da97469f","system_id":"levelo_inurba_marseille","lat":43.28944,"lon":5.36394,"is_reserved":false,"is_disabled":true,"rental_uris":{"android":"levelo://app?vid=3e3aa565-59ae-42e9-967b-13c2da97469f","ios":"levelo://app?vid=3e3aa565-59ae-42e9-967b-13c2da97469f"},"vehicle_type_id":"4","last_reported":1748041842,"current_range_meters":12400,"station_id":"ce4bhc92rcd13ifvqetg","pricing_plan_id":"cebpf4jnsgd1na2vs0mg"},{"bike_id":"3da04a3a-16dd-46bd-a906-a6561bf763a8","system_id":"levelo_inurba_marseille","lat":43.32979,"lon":5.39375,"is_reserved":false,"is_disabled":false,"rental_uris":{"android":"levelo://app?vid=3da04a3a-16dd-46bd-a906-a6561bf763a8","ios":"levelo://app?vid=3da04a3a-16dd-46bd-a906-a6561bf763a8"},"vehicle_type_id":"4","last_reported":1748041842,"current_range_meters":12400,"station_id":"","pricing_plan_id":"cebpf4jnsgd1na2vs0mg"},{"bike_id":"a2e6ecaf-cd36-46ac-9ed3-bdd6e4a49299","system_id":"levelo_inurba_marseille","lat":43.28457,"lon":5.35878,"is_reserved":false,"is_disabled":false,"rental_uris":{"android":"levelo://app?vid=a2e6ecaf-cd36-46ac-9ed3-bdd6e4a49299","ios":"levelo://app?vid=a2e6ecaf-cd36-46ac-9ed3-bdd6e4a49299"},"vehicle_type_id":"4","last_reported":1748041842,"current_range_meters":12400,"station_id":"ce4bhah2rcd13ifvqei0","pricing_plan_id":"cebpf4jnsgd1na2vs0mg"},{"bike_id":"b959a865-fc01-4964-9b1d-7e25b047370d","system_id":"levelo_inurba_marseille","lat":43.23069,"lon":5.35543,"is_reserved":false,"is_disabled":false,"rental_uris":{"android":"levelo://app?vid=b959a865-fc01-4964-9b1d-7e25b047370d","ios":"levelo://app?vid=b959a865-fc01-4964-9b1d-7e25b047370d"},"vehicle_type_id":"4","last_reported":1748041842,"current_range_meters":12400,"station_id":"cpo3342slgdg3j2ifvpg","pricing_plan_id":"cebpf4jnsgd1na2vs0mg"},{"bike_id":"90813048-b481-4ed2-8c9f-0f0848cf96c1","system_id":"levelo_inurba_marseille","lat":43.2572,"lon":5.41113,"is_reserved":false,"is_disabled":false,"rental_uris":{"android":"levelo://app?vid=90813048-b481-4ed2-8c9f-0f0848cf96c1","ios":"levelo://app?vid=90813048-b481-4ed2-8c9f-0f0848cf96c1"},"vehicle_type_id":"4","last_reported":1748041842,"current_range_meters":12400,"station_id":"ce4bhkp2rcd13ifvqgd0","pricing_plan_id":"cebpf4jnsgd1na2vs0mg"},{"bike_id":"f13cc434-e9f9-4724-bf32-95371969cfa9","system_id":"levelo_inurba_marseille","lat":43.29706,"lon":5.36612,"is_reserved":false,"is_disabled":false,"rental_uris":{"android":"levelo://app?vid=f13cc434-e9f9-4724-bf32-95371969cfa9","ios":"levelo://app?vid=f13cc434-e9f9-4724-bf32-95371969cfa9"},"vehicle_type_id":"4","last_reported":1748041842,"current_range_meters":12800,"station_id":"ce4bgn12rcd13ifvqbt0","pricing_plan_id":"cebpf4jnsgd1na2vs0mg"},{"bike_id":"52269cbf-94f1-4b3a-a7ea-52e773ac04c5","system_id":"levelo_inurba_marseille","lat":43.25553,"lon":5.38215,"is_reserved":false,"is_disabled":false,"rental_uris":{"android":"levelo://app?vid=52269cbf-94f1-4b3a-a7ea-52e773ac04c5","ios":"levelo://app?vid=52269cbf-94f1-4b3a-a7ea-52e773ac04c5"},"vehicle_type_id":"4","last_reported":1748041842,"current_range_meters":12800,"station_id":"ce4bhih2rcd13ifvqfs0","pricing_plan_id":"cebpf4jnsgd1na2vs0mg"},{"bike_id":"04b3a370-3dca-4d7f-95d6-a32ffe976d6e","system_id":"levelo_inurba_marseille","lat":43.28858,"lon":5.35843,"is_reserved":false,"is_disabled":true,"rental_uris":{"android":"levelo://app?vid=04b3a370-3dca-4d7f-95d6-a32ffe976d6e","ios":"levelo://app?vid=04b3a370-3dca-4d7f-95d6-a32ffe976d6e"},"vehicle_type_id":"4","last_reported":1748041842,"current_range_meters":12800,"station_id":"ce4bhb12rcd13ifvqem0","pricing_plan_id":"cebpf4jnsgd1na2vs0mg"},{"bike_id":"8bf531c8-63c9-4599-a836-ffb8cfe6db01","system_id":"levelo_inurba_marseille","lat":43.24161,"lon":5.36384,"is_reserved":false,"is_disabled":false,"rental_uris":{"android":"levelo://app?vid=8bf531c8-63c9-4599-a836-ffb8cfe6db01","ios":"levelo://app?vid=8bf531c8-63c9-4599-a836-ffb8cfe6db01"},"vehicle_type_id":"4","last_reported":1748041842,"current_range_meters":12800,"station_id":"cpo36qri1sfpv3e86is0","pricing_plan_id":"cebpf4jnsgd1na2vs0mg"},{"bike_id":"ccf93036-6b1e-49c8-bfce-020f147415d5","system_id":"levelo_inurba_marseille","lat":43.31167,"lon":5.38715,"is_reserved":false,"is_disabled":false,"rental_uris":{"android":"levelo://app?vid=ccf93036-6b1e-49c8-bfce-020f147415d5","ios":"levelo://app?vid=ccf93036-6b1e-49c8-bfce-020f147415d5"},"vehicle_type_id":"4","last_reported":1748041842,"current_range_meters":12800,"station_id":"ce4bgv12rcd13ifvqcp0","pricing_plan_id":"cebpf4jnsgd1na2vs0mg"},{"bike_id":"20094b9d-2496-4bd6-b7c9-ba397ce3b90a","system_id":"levelo_inurba_marseille","lat":43.28854,"lon":5.35849,"is_reserved":false,"is_disabled":false,"rental_uris":{"android":"levelo://app?vid=20094b9d-2496-4bd6-b7c9-ba397ce3b90a","ios":"levelo://app?vid=20094b9d-2496-4bd6-b7c9-ba397ce3b90a"},"vehicle_type_id":"4","last_reported":1748041842,"current_range_meters":12800,"station_id":"ce4bhb12rcd13ifvqem0","pricing_plan_id":"cebpf4jnsgd1na2vs0mg"},{"bike_id":"4b927f45-7670-42a4-b8d1-80cdfc9bc437","system_id":"levelo_inurba_marseille","lat":43.33719,"lon":5.39184,"is_reserved":false,"is_disabled":false,"rental_uris":{"android":"levelo://app?vid=4b927f45-7670-42a4-b8d1-80cdfc9bc437","ios":"levelo://app?vid=4b927f45-7670-42a4-b8d1-80cdfc9bc437"},"vehicle_type_id":"4","last_reported":1748041842,"current_range_meters":12800,"station_id":"ce4bhr92rcd13ifvqhsg","pricing_plan_id":"cebpf4jnsgd1na2vs0mg"},{"bike_id":"c67777b7-00c2-4186-931d-4ffb84a20dd7","system_id":"levelo_inurba_marseille","lat":43.26552,"lon":5.37288,"is_reserved":false,"is_disabled":false,"rental_uris":{"android":"levelo://app?vid=c67777b7-00c2-4186-931d-4ffb84a20dd7","ios":"levelo://app?vid=c67777b7-00c2-4186-931d-4ffb84a20dd7"},"vehicle_type_id":"4","last_reported":1748041842,"current_range_meters":12800,"station_id":"ce4bhg12rcd13ifvqf70","pricing_plan_id":"cebpf4jnsgd1na2vs0mg"},{"bike_id":"d611a9c9-77d3-428f-b6dd-f104217f3cd7","system_id":"levelo_inurba_marseille","lat":43.32127,"lon":5.36766,"is_reserved":false,"is_disabled":false,"rental_uris":{"android":"levelo://app?vid=d611a9c9-77d3-428f-b6dd-f104217f3cd7","ios":"levelo://app?vid=d611a9c9-77d3-428f-b6dd-f104217f3cd7"},"vehicle_type_id":"4","last_reported":1748041842,"current_range_meters":13600,"station_id":"ce4bhrh2rcd13ifvqhug","pricing_plan_id":"cebpf4jnsgd1na2vs0mg"},{"bike_id":"fc8c72ad-ca61-42c6-ae90-f61b57e45328","system_id":"levelo_inurba_marseille","lat":43.27889,"lon":5.4186,"is_reserved":false,"is_disabled":false,"rental_uris":{"android":"levelo://app?vid=fc8c72ad-ca61-42c6-ae90-f61b57e45328","ios":"levelo://app?vid=fc8c72ad-ca61-42c6-ae90-f61b57e45328"},"vehicle_type_id":"4","last_reported":1748041842,"current_range_meters":13600,"station_id":"","pricing_plan_id":"cebpf4jnsgd1na2vs0mg"},{"bike_id":"75e91607-f093-41b1-947a-69b62fe724b6","system_id":"levelo_inurba_marseille","lat":43.34728,"lon":5.3444,"is_reserved":false,"is_disabled":false,"rental_uris":{"android":"levelo://app?vid=75e91607-f093-41b1-947a-69b62fe724b6","ios":"levelo://app?vid=75e91607-f093-41b1-947a-69b62fe724b6"},"vehicle_type_id":"4","last_reported":1748041842,"current_range_meters":13600,"station_id":"","pricing_plan_id":"cebpf4jnsgd1na2vs0mg"},{"bike_id":"167d5e3c-faae-41b7-be91-280e1b7f6fb7","system_id":"levelo_inurba_marseille","lat":43.251232,"lon":5.403136,"is_reserved":false,"is_disabled":false,"rental_uris":{"android":"levelo://app?vid=167d5e3c-faae-41b7-be91-280e1b7f6fb7","ios":"levelo://app?vid=167d5e3c-faae-41b7-be91-280e1b7f6fb7"},"vehicle_type_id":"4","last_reported":1748041842,"current_range_meters":13600,"station_id":"ce4bhlh2rcd13ifvqgig","pricing_plan_id":"cebpf4jnsgd1na2vs0mg"},{"bike_id":"90327239-e7a4-4a17-987d-ff3804092da9","system_id":"levelo_inurba_marseille","lat":43.28982,"lon":5.35627,"is_reserved":false,"is_disabled":true,"rental_uris":{"android":"levelo://app?vid=90327239-e7a4-4a17-987d-ff3804092da9","ios":"levelo://app?vid=90327239-e7a4-4a17-987d-ff3804092da9"},"vehicle_type_id":"4","last_reported":1748041842,"current_range_meters":13600,"station_id":"ce4bhb92rcd13ifvqen0","pricing_plan_id":"cebpf4jnsgd1na2vs0mg"},{"bike_id":"7d42cd4f-b64a-4ecc-9335-e0fa750c0960","system_id":"levelo_inurba_marseille","lat":43.3089,"lon":5.39613,"is_reserved":false,"is_disabled":false,"rental_uris":{"android":"levelo://app?vid=7d42cd4f-b64a-4ecc-9335-e0fa750c0960","ios":"levelo://app?vid=7d42cd4f-b64a-4ecc-9335-e0fa750c0960"},"vehicle_type_id":"4","last_reported":1748041842,"current_range_meters":13600,"station_id":"ce4bh012rcd13ifvqcv0","pricing_plan_id":"cebpf4jnsgd1na2vs0mg"},{"bike_id":"334bfb8f-bb85-4231-9e6f-cda6df8d36c6","system_id":"levelo_inurba_marseille","lat":43.283542,"lon":5.381032,"is_reserved":false,"is_disabled":false,"rental_uris":{"android":"levelo://app?vid=334bfb8f-bb85-4231-9e6f-cda6df8d36c6","ios":"levelo://app?vid=334bfb8f-bb85-4231-9e6f-cda6df8d36c6"},"vehicle_type_id":"4","last_reported":1748041842,"current_range_meters":13600,"station_id":"ce4bh412rcd13ifvqdr0","pricing_plan_id":"cebpf4jnsgd1na2vs0mg"},{"bike_id":"b3e84fd6-3ff5-4e9e-abfc-dbea079ffcad","system_id":"levelo_inurba_marseille","lat":43.29278,"lon":5.40127,"is_reserved":false,"is_disabled":false,"rental_uris":{"android":"levelo://app?vid=b3e84fd6-3ff5-4e9e-abfc-dbea079ffcad","ios":"levelo://app?vid=b3e84fd6-3ff5-4e9e-abfc-dbea079ffcad"},"vehicle_type_id":"4","last_reported":1748041842,"current_range_meters":13600,"station_id":"ce4bh312rcd13ifvqdk0","pricing_plan_id":"cebpf4jnsgd1na2vs0mg"},{"bike_id":"722a933a-c808-4fa8-a1e2-ab51f43b230d","system_id":"levelo_inurba_marseille","lat":43.29072,"lon":5.37166,"is_reserved":false,"is_disabled":false,"rental_uris":{"android":"levelo://app?vid=722a933a-c808-4fa8-a1e2-ab51f43b230d","ios":"levelo://app?vid=722a933a-c808-4fa8-a1e2-ab51f43b230d"},"vehicle_type_id":"4","last_reported":1748041842,"current_range_meters":13600,"station_id":"ce4bh5p2rcd13ifvqe4g","pricing_plan_id":"cebpf4jnsgd1na2vs0mg"},{"bike_id":"796d74ca-8842-43d5-8571-d46a9e0612c2","system_id":"levelo_inurba_marseille","lat":43.25108,"lon":5.40321,"is_reserved":false,"is_disabled":false,"rental_uris":{"android":"levelo://app?vid=796d74ca-8842-43d5-8571-d46a9e0612c2","ios":"levelo://app?vid=796d74ca-8842-43d5-8571-d46a9e0612c2"},"vehicle_type_id":"4","last_reported":1748041842,"current_range_meters":13600,"station_id":"ce4bhlh2rcd13ifvqgig","pricing_plan_id":"cebpf4jnsgd1na2vs0mg"},{"bike_id":"511097b5-c818-466d-bbf5-e31151f36e44","system_id":"levelo_inurba_marseille","lat":43.30157,"lon":5.38094,"is_reserved":false,"is_disabled":false,"rental_uris":{"android":"levelo://app?vid=511097b5-c818-466d-bbf5-e31151f36e44","ios":"levelo://app?vid=511097b5-c818-466d-bbf5-e31151f36e44"},"vehicle_type_id":"4","last_reported":1748041842,"current_range_meters":14000,"station_id":"ce4bgjp2rcd13ifvqbh0","pricing_plan_id":"cebpf4jnsgd1na2vs0mg"},{"bike_id":"5ceb0b2a-f445-435a-9283-dd659da93356","system_id":"levelo_inurba_marseille","lat":43.27369,"lon":5.36268,"is_reserved":false,"is_disabled":false,"rental_uris":{"android":"levelo://app?vid=5ceb0b2a-f445-435a-9283-dd659da93356","ios":"levelo://app?vid=5ceb0b2a-f445-435a-9283-dd659da93356"},"vehicle_type_id":"4","last_reported":1748041842,"current_range_meters":13600,"station_id":"ce4bhbh2rcd13ifvqeo0","pricing_plan_id":"cebpf4jnsgd1na2vs0mg"},{"bike_id":"3a682c28-a162-4620-933d-7e933746fecf","system_id":"levelo_inurba_marseille","lat":43.225009,"lon":5.347745,"is_reserved":false,"is_disabled":false,"rental_uris":{"android":"levelo://app?vid=3a682c28-a162-4620-933d-7e933746fecf","ios":"levelo://app?vid=3a682c28-a162-4620-933d-7e933746fecf"},"vehicle_type_id":"4","last_reported":1748041842,"current_range_meters":14000,"station_id":"st_cvj5dfep6f1abm77gieg","pricing_plan_id":"cebpf4jnsgd1na2vs0mg"},{"bike_id":"6921c1a3-c09e-47a4-aa48-3d7c7bcd4cfc","system_id":"levelo_inurba_marseille","lat":43.29872,"lon":5.39735,"is_reserved":false,"is_disabled":false,"rental_uris":{"android":"levelo://app?vid=6921c1a3-c09e-47a4-aa48-3d7c7bcd4cfc","ios":"levelo://app?vid=6921c1a3-c09e-47a4-aa48-3d7c7bcd4cfc"},"vehicle_type_id":"4","last_reported":1748041842,"current_range_meters":14000,"station_id":"ce4bh0h2rcd13ifvqd50","pricing_plan_id":"cebpf4jnsgd1na2vs0mg"},{"bike_id":"4d86276d-7567-4285-97e4-ca4773d7af5a","system_id":"levelo_inurba_marseille","lat":43.2986,"lon":5.39736,"is_reserved":false,"is_disabled":false,"rental_uris":{"android":"levelo://app?vid=4d86276d-7567-4285-97e4-ca4773d7af5a","ios":"levelo://app?vid=4d86276d-7567-4285-97e4-ca4773d7af5a"},"vehicle_type_id":"4","last_reported":1748041842,"current_range_meters":14000,"station_id":"ce4bh0h2rcd13ifvqd50","pricing_plan_id":"cebpf4jnsgd1na2vs0mg"},{"bike_id":"30f69e75-5381-4aa0-a638-db3441567877","system_id":"levelo_inurba_marseille","lat":43.24177,"lon":5.39738,"is_reserved":false,"is_disabled":false,"rental_uris":{"android":"levelo://app?vid=30f69e75-5381-4aa0-a638-db3441567877","ios":"levelo://app?vid=30f69e75-5381-4aa0-a638-db3441567877"},"vehicle_type_id":"4","last_reported":1748041842,"current_range_meters":14000,"station_id":"ce4bhn12rcd13ifvqgpg","pricing_plan_id":"cebpf4jnsgd1na2vs0mg"},{"bike_id":"9ac72145-e363-4e4e-ae37-659ff0525011","system_id":"levelo_inurba_marseille","lat":43.30462,"lon":5.37898,"is_reserved":false,"is_disabled":false,"rental_uris":{"android":"levelo://app?vid=9ac72145-e363-4e4e-ae37-659ff0525011","ios":"levelo://app?vid=9ac72145-e363-4e4e-ae37-659ff0525011"},"vehicle_type_id":"4","last_reported":1748041842,"current_range_meters":14400,"station_id":"ce4bgup2rcd13ifvqcn0","pricing_plan_id":"cebpf4jnsgd1na2vs0mg"},{"bike_id":"798f328d-acfd-49fd-b6d5-1aef38e2bb17","system_id":"levelo_inurba_marseille","lat":43.25088,"lon":5.39512,"is_reserved":false,"is_disabled":false,"rental_uris":{"android":"levelo://app?vid=798f328d-acfd-49fd-b6d5-1aef38e2bb17","ios":"levelo://app?vid=798f328d-acfd-49fd-b6d5-1aef38e2bb17"},"vehicle_type_id":"4","last_reported":1748041842,"current_range_meters":14400,"station_id":"ce4bhm12rcd13ifvqgkg","pricing_plan_id":"cebpf4jnsgd1na2vs0mg"},{"bike_id":"cec1f365-51a9-4aea-9c5a-f06bf1d5eb34","system_id":"levelo_inurba_marseille","lat":43.30156,"lon":5.38089,"is_reserved":false,"is_disabled":false,"rental_uris":{"android":"levelo://app?vid=cec1f365-51a9-4aea-9c5a-f06bf1d5eb34","ios":"levelo://app?vid=cec1f365-51a9-4aea-9c5a-f06bf1d5eb34"},"vehicle_type_id":"4","last_reported":1748041842,"current_range_meters":14400,"station_id":"ce4bgjp2rcd13ifvqbh0","pricing_plan_id":"cebpf4jnsgd1na2vs0mg"},{"bike_id":"4fef3f8d-893c-494e-a0a4-f8d69e41f35a","system_id":"levelo_inurba_marseille","lat":43.29965,"lon":5.37174,"is_reserved":false,"is_disabled":false,"rental_uris":{"android":"levelo://app?vid=4fef3f8d-893c-494e-a0a4-f8d69e41f35a","ios":"levelo://app?vid=4fef3f8d-893c-494e-a0a4-f8d69e41f35a"},"vehicle_type_id":"4","last_reported":1748041842,"current_range_meters":14000,"station_id":"ce4bgr92rcd13ifvqc7g","pricing_plan_id":"cebpf4jnsgd1na2vs0mg"},{"bike_id":"2e96891e-ec5a-402b-b5e2-1107856d634e","system_id":"levelo_inurba_marseille","lat":43.28699,"lon":5.373807,"is_reserved":false,"is_disabled":false,"rental_uris":{"android":"levelo://app?vid=2e96891e-ec5a-402b-b5e2-1107856d634e","ios":"levelo://app?vid=2e96891e-ec5a-402b-b5e2-1107856d634e"},"vehicle_type_id":"4","last_reported":1748041842,"current_range_meters":14400,"station_id":"ce4bh3p2rcd13ifvqdq0","pricing_plan_id":"cebpf4jnsgd1na2vs0mg"},{"bike_id":"37697a75-9b30-44ff-ad71-f0690e655233","system_id":"levelo_inurba_marseille","lat":43.301354,"lon":5.387757,"is_reserved":false,"is_disabled":true,"rental_uris":{"android":"levelo://app?vid=37697a75-9b30-44ff-ad71-f0690e655233","ios":"levelo://app?vid=37697a75-9b30-44ff-ad71-f0690e655233"},"vehicle_type_id":"4","last_reported":1748041842,"current_range_meters":14400,"station_id":"ce4bghh2rcd13ifvqb60","pricing_plan_id":"cebpf4jnsgd1na2vs0mg"},{"bike_id":"478eadb3-c500-457c-b894-467bda93fd7e","system_id":"levelo_inurba_marseille","lat":43.30375,"lon":5.42484,"is_reserved":false,"is_disabled":false,"rental_uris":{"android":"levelo://app?vid=478eadb3-c500-457c-b894-467bda93fd7e","ios":"levelo://app?vid=478eadb3-c500-457c-b894-467bda93fd7e"},"vehicle_type_id":"4","last_reported":1748041842,"current_range_meters":14400,"station_id":"ce4bhoh2rcd13ifvqh6g","pricing_plan_id":"cebpf4jnsgd1na2vs0mg"},{"bike_id":"338aaf30-7fbd-41a4-aa7b-77d8e865b5d3","system_id":"levelo_inurba_marseille","lat":43.24539,"lon":5.39519,"is_reserved":false,"is_disabled":false,"rental_uris":{"android":"levelo://app?vid=338aaf30-7fbd-41a4-aa7b-77d8e865b5d3","ios":"levelo://app?vid=338aaf30-7fbd-41a4-aa7b-77d8e865b5d3"},"vehicle_type_id":"4","last_reported":1748041842,"current_range_meters":14400,"station_id":"ce4bhlp2rcd13ifvqgjg","pricing_plan_id":"cebpf4jnsgd1na2vs0mg"},{"bike_id":"67a80ec8-3cb6-4da0-a07e-9c1e58a5c773","system_id":"levelo_inurba_marseille","lat":43.28579,"lon":5.37037,"is_reserved":false,"is_disabled":false,"rental_uris":{"android":"levelo://app?vid=67a80ec8-3cb6-4da0-a07e-9c1e58a5c773","ios":"levelo://app?vid=67a80ec8-3cb6-4da0-a07e-9c1e58a5c773"},"vehicle_type_id":"4","last_reported":1748041842,"current_range_meters":14400,"station_id":"ce4bht12rcd13ifvqi60","pricing_plan_id":"cebpf4jnsgd1na2vs0mg"},{"bike_id":"a1f71a74-0656-449b-84d7-02fb4ba3ac17","system_id":"levelo_inurba_marseille","lat":43.28667,"lon":5.36335,"is_reserved":false,"is_disabled":false,"rental_uris":{"android":"levelo://app?vid=a1f71a74-0656-449b-84d7-02fb4ba3ac17","ios":"levelo://app?vid=a1f71a74-0656-449b-84d7-02fb4ba3ac17"},"vehicle_type_id":"4","last_reported":1748041842,"current_range_meters":14400,"station_id":"ce4bhah2rcd13ifvqej0","pricing_plan_id":"cebpf4jnsgd1na2vs0mg"},{"bike_id":"d82ba205-9a78-4f40-beb7-1fafcc367a47","system_id":"levelo_inurba_marseille","lat":43.24814,"lon":5.37463,"is_reserved":false,"is_disabled":true,"rental_uris":{"android":"levelo://app?vid=d82ba205-9a78-4f40-beb7-1fafcc367a47","ios":"levelo://app?vid=d82ba205-9a78-4f40-beb7-1fafcc367a47"},"vehicle_type_id":"4","last_reported":1748041842,"current_range_meters":14400,"station_id":"ce4bhgh2rcd13ifvqfb0","pricing_plan_id":"cebpf4jnsgd1na2vs0mg"},{"bike_id":"c4132fdb-f6a6-44ae-9f07-6da779c5a726","system_id":"levelo_inurba_marseille","lat":43.27375,"lon":5.36271,"is_reserved":false,"is_disabled":false,"rental_uris":{"android":"levelo://app?vid=c4132fdb-f6a6-44ae-9f07-6da779c5a726","ios":"levelo://app?vid=c4132fdb-f6a6-44ae-9f07-6da779c5a726"},"vehicle_type_id":"4","last_reported":1748041842,"current_range_meters":14400,"station_id":"ce4bhbh2rcd13ifvqeo0","pricing_plan_id":"cebpf4jnsgd1na2vs0mg"},{"bike_id":"43444a48-58d2-4c5c-9fb2-96b444465a43","system_id":"levelo_inurba_marseille","lat":43.25113,"lon":5.403236,"is_reserved":false,"is_disabled":false,"rental_uris":{"android":"levelo://app?vid=43444a48-58d2-4c5c-9fb2-96b444465a43","ios":"levelo://app?vid=43444a48-58d2-4c5c-9fb2-96b444465a43"},"vehicle_type_id":"4","last_reported":1748041842,"current_range_meters":14800,"station_id":"ce4bhlh2rcd13ifvqgig","pricing_plan_id":"cebpf4jnsgd1na2vs0mg"},{"bike_id":"0abdd1ed-f078-4bcb-82f9-fdc73d9e5ae3","system_id":"levelo_inurba_marseille","lat":43.30925,"lon":5.4014,"is_reserved":false,"is_disabled":false,"rental_uris":{"android":"levelo://app?vid=0abdd1ed-f078-4bcb-82f9-fdc73d9e5ae3","ios":"levelo://app?vid=0abdd1ed-f078-4bcb-82f9-fdc73d9e5ae3"},"vehicle_type_id":"4","last_reported":1748041842,"current_range_meters":14800,"station_id":"ce4bgvp2rcd13ifvqct0","pricing_plan_id":"cebpf4jnsgd1na2vs0mg"},{"bike_id":"112eae1f-3bb9-40fe-bb58-0dc6a542cfe0","system_id":"levelo_inurba_marseille","lat":43.23962,"lon":5.36625,"is_reserved":false,"is_disabled":false,"rental_uris":{"android":"levelo://app?vid=112eae1f-3bb9-40fe-bb58-0dc6a542cfe0","ios":"levelo://app?vid=112eae1f-3bb9-40fe-bb58-0dc6a542cfe0"},"vehicle_type_id":"4","last_reported":1748041842,"current_range_meters":14800,"station_id":"ce4bhi12rcd13ifvqfp0","pricing_plan_id":"cebpf4jnsgd1na2vs0mg"},{"bike_id":"edf1e5f6-466d-418c-ae20-43a94b385e4e","system_id":"levelo_inurba_marseille","lat":43.24806,"lon":5.37495,"is_reserved":false,"is_disabled":false,"rental_uris":{"android":"levelo://app?vid=edf1e5f6-466d-418c-ae20-43a94b385e4e","ios":"levelo://app?vid=edf1e5f6-466d-418c-ae20-43a94b385e4e"},"vehicle_type_id":"4","last_reported":1748041842,"current_range_meters":14800,"station_id":"ce4bhgh2rcd13ifvqfb0","pricing_plan_id":"cebpf4jnsgd1na2vs0mg"},{"bike_id":"0bdffb7c-5dd9-4196-a105-c40e6f9ba214","system_id":"levelo_inurba_marseille","lat":43.30324,"lon":5.40425,"is_reserved":false,"is_disabled":false,"rental_uris":{"android":"levelo://app?vid=0bdffb7c-5dd9-4196-a105-c40e6f9ba214","ios":"levelo://app?vid=0bdffb7c-5dd9-4196-a105-c40e6f9ba214"},"vehicle_type_id":"4","last_reported":1748041842,"current_range_meters":14800,"station_id":"ce4bh012rcd13ifvqd10","pricing_plan_id":"cebpf4jnsgd1na2vs0mg"},