{"last_updated":1711390189,"ttl":30,"version":"2.2","data":{"bikes":[{"bike_id":"0efc3286-866d-4acb-8adf-4cddeb7506e2","system_id":"levelo_inurba_marseille","lat":43.314812,"lon":5.372625,"is_reserved":false,"is_disabled":false,"rental_uris":{"android":"levelo://app?vid=0efc3286-866d-4acb-8adf-4cddeb7506e2","ios":"levelo://app?vid=0efc3286-866d-4acb-8adf-4cddeb7506e2"},"vehicle_type_id":"4","last_reported":1711390189,"current_range_meters":11200,"station_id":"ce4bgt12rcd13ifvqcd0","pricing_plan_id":"cebpf4jnsgd1na2vs0mg"},{"bike_id":"5c954502-cb7b-4fef-b4a4-3a443be56713","system_id":"levelo_inurba_marseille","lat":43.314811,"lon":5.373103,"is_reserved":false,"is_disabled":false,"rental_uris":{"android":"levelo://app?vid=5c954502-cb7b-4fef-b4a4-3a443be56713","ios":"levelo://app?vid=5c954502-cb7b-4fef-b4a4-3a443be56713"},"vehicle_type_id":"4","last_reported":1711390189,"current_range_meters":0,"station_id":"ce4bgt12rcd13ifvqcd0","pricing_plan_id":"cebpf4jnsgd1na2vs0mg"},{"bike_id":"40f5e9da-2257-4a90-9314-b9ec4f180566","system_id":"levelo_inurba_marseille","lat":43.314811,"lon":5.373103,"is_reserved":false,"is_disabled":false,"rental_uris":{"android":"levelo://app?vid=40f5e9da-2257-4a90-9314-b9ec4f180566","ios":"levelo://app?vid=40f5e9da-2257-4a90-9314-b9ec4f180566"},"vehicle_type_id":"4","last_reported":1711390189,"current_range_meters":16400,"station_id":"ce4bgt12rcd13ifvqcd0","pricing_plan_id":"cebpf4jnsgd1na2vs0mg"},{"bike_id":"f60e54ce-160a-4193-936e-b83a29e04023","system_id":"levelo_inurba_marseille","lat":43.30889,"lon":5.37192,"is_reserved":false,"is_disabled":false,"rental_uris":{"android":"levelo://app?vid=f60e54ce-160a-4193-936e-b83a29e04023","ios":"levelo://app?vid=f60e54ce-160a-4193-936e-b83a29e04023"},"vehicle_type_id":"4","last_reported":1711390189,"current_range_meters":0,"station_id":"ce4bguh2rcd13ifvqckg","pricing_plan_id":"cebpf4jnsgd1na2vs0mg"},{"bike_id":"cdf568c1-02ff-4dec-a5e9-b5646b76a166","system_id":"levelo_inurba_marseille","lat":43.285742,"lon":5.395004,"is_reserved":false,"is_disabled":false,"rental_uris":{"android":"levelo://app?vid=cdf568c1-02ff-4dec-a5e9-b5646b76a166","ios":"levelo://app?vid=cdf568c1-02ff-4dec-a5e9-b5646b76a166"},"vehicle_type_id":"4","last_reported":1711390189,"current_range_meters":10000,"station_id":"ce4bh292rcd13ifvqdg0","pricing_plan_id":"cebpf4jnsgd1na2vs0mg"},{"bike_id":"9de11465-03ad-4f0d-bc3f-e9ba8820ebe5","system_id":"levelo_inurba_marseille","lat":43.309039,"lon":5.371797,"is_reserved":false,"is_disabled":false,"rental_uris":{"android":"levelo://app?vid=9de11465-03ad-4f0d-bc3f-e9ba8820ebe5","ios":"levelo://app?vid=9de11465-03ad-4f0d-bc3f-e9ba8820ebe5"},"vehicle_type_id":"4","last_reported":1711390189,"current_range_meters":0,"station_id":"ce4bguh2rcd13ifvqckg","pricing_plan_id":"cebpf4jnsgd1na2vs0mg"},{"bike_id":"80140b6e-52b2-4b1d-9be7-ae3320d3bf43","system_id":"levelo_inurba_marseille","lat":43.30547,"lon":5.36694,"is_reserved":false,"is_disabled":false,"rental_uris":{"android":"levelo://app?vid=80140b6e-52b2-4b1d-9be7-ae3320d3bf43","ios":"levelo://app?vid=80140b6e-52b2-4b1d-9be7-ae3320d3bf43"},"vehicle_type_id":"4","last_reported":1711390189,"current_range_meters":0,"station_id":"ce4bgrp2rcd13ifvqc9g","pricing_plan_id":"cebpf4jnsgd1na2vs0mg"},{"bike_id":"4189d90d-a656-4d8a-8c9d-bce47b714a50","system_id":"levelo_inurba_marseille","lat":43.290779,"lon":5.371482,"is_reserved":false,"is_disabled":false,"rental_uris":{"android":"levelo://app?vid=4189d90d-a656-4d8a-8c9d-bce47b714a50","ios":"levelo://app?vid=4189d90d-a656-4d8a-8c9d-bce47b714a50"},"vehicle_type_id":"4","last_reported":1711390189,"current_range_meters":24400,"station_id":"ce4bh5p2rcd13ifvqe4g","pricing_plan_id":"cebpf4jnsgd1na2vs0mg"},{"bike_id":"14254338-b515-4258-9e69-a24d1aa0ff7e","system_id":"levelo_inurba_marseille","lat":43.30551,"lon":5.36534,"is_reserved":false,"is_disabled":false,"rental_uris":{"android":"levelo://app?vid=14254338-b515-4258-9e69-a24d1aa0ff7e","ios":"levelo://app?vid=14254338-b515-4258-9e69-a24d1aa0ff7e"},"vehicle_type_id":"4","last_reported":1711390189,"current_range_meters":2800,"station_id":"ce4bgs12rcd13ifvqcag","pricing_plan_id":"cebpf4jnsgd1na2vs0mg"},{"bike_id":"1a9b279f-0a29-47e9-9d6d-46f5bbe69853","system_id":"levelo_inurba_marseille","lat":43.30548,"lon":5.36527,"is_reserved":false,"is_disabled":false,"rental_uris":{"android":"levelo://app?vid=1a9b279f-0a29-47e9-9d6d-46f5bbe69853","ios":"levelo://app?vid=1a9b279f-0a29-47e9-9d6d-46f5bbe69853"},"vehicle_type_id":"4","last_reported":1711390189,"current_range_meters":0,"station_id":"ce4bgs12rcd13ifvqcag","pricing_plan_id":"cebpf4jnsgd1na2vs0mg"},{"bike_id":"b44ae1e2-3f4f-46b4-9167-b987dcd67eb4","system_id":"levelo_inurba_marseille","lat":43.305989,"lon":5.37225,"is_reserved":false,"is_disabled":false,"rental_uris":{"android":"levelo://app?vid=b44ae1e2-3f4f-46b4-9167-b987dcd67eb4","ios":"levelo://app?vid=b44ae1e2-3f4f-46b4-9167-b987dcd67eb4"},"vehicle_type_id":"4","last_reported":1711390189,"current_range_meters":29600,"station_id":"ce4bgqh2rcd13ifvqc4g","pricing_plan_id":"cebpf4jnsgd1na2vs0mg"},{"bike_id":"0d90ff68-dc1b-493b-b8db-b5a037bb7b14","system_id":"levelo_inurba_marseille","lat":43.305989,"lon":5.37225,"is_reserved":false,"is_disabled":false,"rental_uris":{"android":"levelo://app?vid=0d90ff68-dc1b-493b-b8db-b5a037bb7b14","ios":"levelo://app?vid=0d90ff68-dc1b-493b-b8db-b5a037bb7b14"},"vehicle_type_id":"4","last_reported":1711390189,"current_range_meters":16400,"station_id":"ce4bgqh2rcd13ifvqc4g","pricing_plan_id":"cebpf4jnsgd1na2vs0mg"},{"bike_id":"11442762-72f2-455c-8395-1033c1cc093e","system_id":"levelo_inurba_marseille","lat":43.305989,"lon":5.37225,"is_reserved":false,"is_disabled":false,"rental_uris":{"android":"levelo://app?vid=11442762-72f2-455c-8395-1033c1cc093e","ios":"levelo://app?vid=11442762-72f2-455c-8395-1033c1cc093e"},"vehicle_type_id":"4","last_reported":1711390189,"current_range_meters":22400,"station_id":"ce4bgqh2rcd13ifvqc4g","pricing_plan_id":"cebpf4jnsgd1na2vs0mg"},{"bike_id":"e726791c-7f62-4d9b-890c-b041a8e7223d","system_id":"levelo_inurba_marseille","lat":43.305989,"lon":5.37225,"is_reserved":false,"is_disabled":false,"rental_uris":{"android":"levelo://app?vid=e726791c-7f62-4d9b-890c-b041a8e7223d","ios":"levelo://app?vid=e726791c-7f62-4d9b-890c-b041a8e7223d"},"vehicle_type_id":"4","last_reported":1711390189,"current_range_meters":14400,"station_id":"ce4bgqh2rcd13ifvqc4g","pricing_plan_id":"cebpf4jnsgd1na2vs0mg"},{"bike_id":"e5db101a-223c-47a4-b033-122757f93170","system_id":"levelo_inurba_marseille","lat":43.305989,"lon":5.37225,"is_reserved":false,"is_disabled":false,"rental_uris":{"android":"levelo://app?vid=e5db101a-223c-47a4-b033-122757f93170","ios":"levelo://app?vid=e5db101a-223c-47a4-b033-122757f93170"},"vehicle_type_id":"4","last_reported":1711390189,"current_range_meters":10400,"station_id":"ce4bgqh2rcd13ifvqc4g","pricing_plan_id":"cebpf4jnsgd1na2vs0mg"},{"bike_id":"4700f1c3-8694-4a0d-9255-9ab25bc70ea7","system_id":"levelo_inurba_marseille","lat":43.305989,"lon":5.37225,"is_reserved":false,"is_disabled":false,"rental_uris":{"android":"levelo://app?vid=4700f1c3-8694-4a0d-9255-9ab25bc70ea7","ios":"levelo://app?vid=4700f1c3-8694-4a0d-9255-9ab25bc70ea7"},"vehicle_type_id":"4","last_reported":1711390189,"current_range_meters":15200,"station_id":"ce4bgqh2rcd13ifvqc4g","pricing_plan_id":"cebpf4jnsgd1na2vs0mg"},{"bike_id":"2ef5b013-f2ea-42eb-ab15-f3dbe4bbd0ad","system_id":"levelo_inurba_marseille","lat":43.305989,"lon":5.37225,"is_reserved":false,"is_disabled":false,"rental_uris":{"android":"levelo://app?vid=2ef5b013-f2ea-42eb-ab15-f3dbe4bbd0ad","ios":"levelo://app?vid=2ef5b013-f2ea-42eb-ab15-f3dbe4bbd0ad"},"vehicle_type_id":"4","last_reported":1711390189,"current_range_meters":26800,"station_id":"ce4bgqh2rcd13ifvqc4g","pricing_plan_id":"cebpf4jnsgd1na2vs0mg"},{"bike_id":"30f2ec18-5bb9-429e-a909-384af699ce6f","system_id":"levelo_inurba_marseille","lat":43.305989,"lon":5.37225,"is_reserved":false,"is_disabled":false,"rental_uris":{"android":"levelo://app?vid=30f2ec18-5bb9-429e-a909-384af699ce6f","ios":"levelo://app?vid=30f2ec18-5bb9-429e-a909-384af699ce6f"},"vehicle_type_id":"4","last_reported":1711390189,"current_range_meters":0,"station_id":"ce4bgqh2rcd13ifvqc4g","pricing_plan_id":"cebpf4jnsgd1na2vs0mg"},{"bike_id":"6bde4f8a-9d47-481a-8c0b-ea3b8a27ae9f","system_id":"levelo_inurba_marseille","lat":43.305989,"lon":5.37225,"is_reserved":false,"is_disabled":false,"rental_uris":{"android":"levelo://app?vid=6bde4f8a-9d47-481a-8c0b-ea3b8a27ae9f","ios":"levelo://app?vid=6bde4f8a-9d47-481a-8c0b-ea3b8a27ae9f"},"vehicle_type_id":"4","last_reported":1711390189,"current_range_meters":3200,"station_id":"ce4bgqh2rcd13ifvqc4g","pricing_plan_id":"cebpf4jnsgd1na2vs0mg"},{"bike_id":"ab964618-9c75-416a-b523-cf987f78803c","system_id":"levelo_inurba_marseille","lat":43.31123,"lon":5.3776,"is_reserved":false,"is_disabled":false,"rental_uris":{"android":"levelo://app?vid=ab964618-9c75-416a-b523-cf987f78803c","ios":"levelo://app?vid=ab964618-9c75-416a-b523-cf987f78803c"},"vehicle_type_id":"4","last_reported":1711390189,"current_range_meters":22800,"station_id":"ce4bgt92rcd13ifvqcg0","pricing_plan_id":"cebpf4jnsgd1na2vs0mg"},{"bike_id":"4ba7046e-f007-450a-9d18-f5ae2ebea832","system_id":"levelo_inurba_marseille","lat":43.311131,"lon":5.377651,"is_reserved":false,"is_disabled":false,"rental_uris":{"android":"levelo://app?vid=4ba7046e-f007-450a-9d18-f5ae2ebea832","ios":"levelo://app?vid=4ba7046e-f007-450a-9d18-f5ae2ebea832"},"vehicle_type_id":"4","last_reported":1711390189,"current_range_meters":22400,"station_id":"ce4bgt92rcd13ifvqcg0","pricing_plan_id":"cebpf4jnsgd1na2vs0mg"},{"bike_id":"ff9d9e8c-7c56-4b79-a9c5-d4bd947b6bff","system_id":"levelo_inurba_marseille","lat":43.311131,"lon":5.377651,"is_reserved":false,"is_disabled":false,"rental_uris":{"android":"levelo://app?vid=ff9d9e8c-7c56-4b79-a9c5-d4bd947b6bff","ios":"levelo://app?vid=ff9d9e8c-7c56-4b79-a9c5-d4bd947b6bff"},"vehicle_type_id":"4","last_reported":1711390189,"current_range_meters":20400,"station_id":"ce4bgt92rcd13ifvqcg0","pricing_plan_id":"cebpf4jnsgd1na2vs0mg"},{"bike_id":"7d595eec-56cb-43af-ae34-05e3133f22a3","system_id":"levelo_inurba_marseille","lat":43.311131,"lon":5.377651,"is_reserved":false,"is_disabled":false,"rental_uris":{"android":"levelo://app?vid=7d595eec-56cb-43af-ae34-05e3133f22a3","ios":"levelo://app?vid=7d595eec-56cb-43af-ae34-05e3133f22a3"},"vehicle_type_id":"4","last_reported":1711390189,"current_range_meters":17600,"station_id":"ce4bgt92rcd13ifvqcg0","pricing_plan_id":"cebpf4jnsgd1na2vs0mg"},{"bike_id":"79a63b1f-4c54-4dea-b3e8-ebb487525e23","system_id":"levelo_inurba_marseille","lat":43.31118,"lon":5.377617,"is_reserved":false,"is_disabled":false,"rental_uris":{"android":"levelo://app?vid=79a63b1f-4c54-4dea-b3e8-ebb487525e23","ios":"levelo://app?vid=79a63b1f-4c54-4dea-b3e8-ebb487525e23"},"vehicle_type_id":"4","last_reported":1711390189,"current_range_meters":2000,"station_id":"ce4bgt92rcd13ifvqcg0","pricing_plan_id":"cebpf4jnsgd1na2vs0mg"},{"bike_id":"d5b5c5ff-de38-44f3-9cd2-c851924c7422","system_id":"levelo_inurba_marseille","lat":43.311131,"lon":5.377651,"is_reserved":false,"is_disabled":false,"rental_uris":{"android":"levelo://app?vid=d5b5c5ff-de38-44f3-9cd2-c851924c7422","ios":"levelo://app?vid=d5b5c5ff-de38-44f3-9cd2-c851924c7422"},"vehicle_type_id":"4","last_reported":1711390189,"current_range_meters":2400,"station_id":"ce4bgt92rcd13ifvqcg0","pricing_plan_id":"cebpf4jnsgd1na2vs0mg"},{"bike_id":"547ca70b-0b86-4a96-a1cc-5f0cd3aad070","system_id":"levelo_inurba_marseille","lat":43.311125,"lon":5.377624,"is_reserved":false,"is_disabled":false,"rental_uris":{"android":"levelo://app?vid=547ca70b-0b86-4a96-a1cc-5f0cd3aad070","ios":"levelo://app?vid=547ca70b-0b86-4a96-a1cc-5f0cd3aad070"},"vehicle_type_id":"4","last_reported":1711390189,"current_range_meters":6400,"station_id":"ce4bgt92rcd13ifvqcg0","pricing_plan_id":"cebpf4jnsgd1na2vs0mg"},{"bike_id":"e097a5f3-2fbb-4f58-ab17-ce1a70032c77","system_id":"levelo_inurba_marseille","lat":43.311131,"lon":5.377651,"is_reserved":false,"is_disabled":false,"rental_uris":{"android":"levelo://app?vid=e097a5f3-2fbb-4f58-ab17-ce1a70032c77","ios":"levelo://app?vid=e097a5f3-2fbb-4f58-ab17-ce1a70032c77"},"vehicle_type_id":"4","last_reported":1711390189,"current_range_meters":6400,"station_id":"ce4bgt92rcd13ifvqcg0","pricing_plan_id":"cebpf4jnsgd1na2vs0mg"},{"bike_id":"d63c43ae-c20a-4dfa-b555-d16801d103eb","system_id":"levelo_inurba_marseille","lat":43.311131,"lon":5.377651,"is_reserved":false,"is_disabled":false,"rental_uris":{"android":"levelo://app?vid=d63c43ae-c20a-4dfa-b555-d16801d103eb","ios":"levelo://app?vid=d63c43ae-c20a-4dfa-b555-d16801d103eb"},"vehicle_type_id":"4","last_reported":1711390189,"current_range_meters":31200,"station_id":"ce4bgt92rcd13ifvqcg0","pricing_plan_id":"cebpf4jnsgd1na2vs0mg"},{"bike_id":"2dcc38a2-fed9-4260-ad30-59d5730321df","system_id":"levelo_inurba_marseille","lat":43.311131,"lon":5.377651,"is_reserved":false,"is_disabled":false,"rental_uris":{"android":"levelo://app?vid=2dcc38a2-fed9-4260-ad30-59d5730321df","ios":"levelo://app?vid=2dcc38a2-fed9-4260-ad30-59d5730321df"},"vehicle_type_id":"4","last_reported":1711390189,"current_range_meters":12800,"station_id":"ce4bgt92rcd13ifvqcg0","pricing_plan_id":"cebpf4jnsgd1na2vs0mg"},{"bike_id":"241deb5c-1afd-494a-9a49-ae7a9cb86665","system_id":"levelo_inurba_marseille","lat":43.311125,"lon":5.377624,"is_reserved":false,"is_disabled":false,"rental_uris":{"android":"levelo://app?vid=241deb5c-1afd-494a-9a49-ae7a9cb86665","ios":"levelo://app?vid=241deb5c-1afd-494a-9a49-ae7a9cb86665"},"vehicle_type_id":"4","last_reported":1711390189,"current_range_meters":7600,"station_id":"ce4bgt92rcd13ifvqcg0","pricing_plan_id":"cebpf4jnsgd1na2vs0mg"},{"bike_id":"52b53beb-5fc2-4e6f-81e5-8687a6ef1b9c","system_id":"levelo_inurba_marseille","lat":43.31117,"lon":5.37775,"is_reserved":false,"is_disabled":false,"rental_uris":{"android":"levelo://app?vid=52b53beb-5fc2-4e6f-81e5-8687a6ef1b9c","ios":"levelo://app?vid=52b53beb-5fc2-4e6f-81e5-8687a6ef1b9c"},"vehicle_type_id":"4","last_reported":1711390189,"current_range_meters":23200,"station_id":"ce4bgt92rcd13ifvqcg0","pricing_plan_id":"cebpf4jnsgd1na2vs0mg"},{"bike_id":"f2f18540-950a-4b10-9631-954c78198c90","system_id":"levelo_inurba_marseille","lat":43.311131,"lon":5.377651,"is_reserved":false,"is_disabled":false,"rental_uris":{"android":"levelo://app?vid=f2f18540-950a-4b10-9631-954c78198c90","ios":"levelo://app?vid=f2f18540-950a-4b10-9631-954c78198c90"},"vehicle_type_id":"4","last_reported":1711390189,"current_range_meters":18400,"station_id":"ce4bgt92rcd13ifvqcg0","pricing_plan_id":"cebpf4jnsgd1na2vs0mg"},{"bike_id":"a4364caf-35ec-47b4-94a1-8bbc28d57a87","system_id":"levelo_inurba_marseille","lat":43.31122,"lon":5.37779,"is_reserved":false,"is_disabled":false,"rental_uris":{"android":"levelo://app?vid=a4364caf-35ec-47b4-94a1-8bbc28d57a87","ios":"levelo://app?vid=a4364caf-35ec-47b4-94a1-8bbc28d57a87"},"vehicle_type_id":"4","last_reported":1711390189,"current_range_meters":15600,"station_id":"ce4bgt92rcd13ifvqcg0","pricing_plan_id":"cebpf4jnsgd1na2vs0mg"},{"bike_id":"cc5aeda6-80d2-4c78-824e-7c3ff0476091","system_id":"levelo_inurba_marseille","lat":43.311125,"lon":5.377624,"is_reserved":false,"is_disabled":false,"rental_uris":{"android":"levelo://app?vid=cc5aeda6-80d2-4c78-824e-7c3ff0476091","ios":"levelo://app?vid=cc5aeda6-80d2-4c78-824e-7c3ff0476091"},"vehicle_type_id":"4","last_reported":1711390189,"current_range_meters":3600,"station_id":"ce4bgt92rcd13ifvqcg0","pricing_plan_id":"cebpf4jnsgd1na2vs0mg"},{"bike_id":"1afb01a8-5708-45f6-b102-fba1bf2c3ae8","system_id":"levelo_inurba_marseille","lat":43.307945,"lon":5.376487,"is_reserved":false,"is_disabled":false,"rental_uris":{"android":"levelo://app?vid=1afb01a8-5708-45f6-b102-fba1bf2c3ae8","ios":"levelo://app?vid=1afb01a8-5708-45f6-b102-fba1bf2c3ae8"},"vehicle_type_id":"4","last_reported":1711390189,"current_range_meters":2800,"station_id":"ce4bgv92rcd13ifvqcq0","pricing_plan_id":"cebpf4jnsgd1na2vs0mg"},{"bike_id":"d0e78dc0-94e1-45b6-b2ee-1274f45cca34","system_id":"levelo_inurba_marseille","lat":43.307945,"lon":5.376487,"is_reserved":false,"is_disabled":false,"rental_uris":{"android":"levelo://app?vid=d0e78dc0-94e1-45b6-b2ee-1274f45cca34","ios":"levelo://app?vid=d0e78dc0-94e1-45b6-b2ee-1274f45cca34"},"vehicle_type_id":"4","last_reported":1711390189,"current_range_meters":18400,"station_id":"ce4bgv92rcd13ifvqcq0","pricing_plan_id":"cebpf4jnsgd1na2vs0mg"},{"bike_id":"5ccb58ce-eaeb-49f6-9cf0-9f93e10ceccb","system_id":"levelo_inurba_marseille","lat":43.307945,"lon":5.376487,"is_reserved":false,"is_disabled":false,"rental_uris":{"android":"levelo://app?vid=5ccb58ce-eaeb-49f6-9cf0-9f93e10ceccb","ios":"levelo://app?vid=5ccb58ce-eaeb-49f6-9cf0-9f93e10ceccb"},"vehicle_type_id":"4","last_reported":1711390189,"current_range_meters":25600,"station_id":"ce4bgv92rcd13ifvqcq0","pricing_plan_id":"cebpf4jnsgd1na2vs0mg"},{"bike_id":"dbf09931-ef74-427f-bd36-825c31cd2a1f","system_id":"levelo_inurba_marseille","lat":43.307945,"lon":5.376487,"is_reserved":false,"is_disabled":false,"rental_uris":{"android":"levelo://app?vid=dbf09931-ef74-427f-bd36-825c31cd2a1f","ios":"levelo://app?vid=dbf09931-ef74-427f-bd36-825c31cd2a1f"},"vehicle_type_id":"4","last_reported":1711390189,"current_range_meters":0,"station_id":"ce4bgv92rcd13ifvqcq0","pricing_plan_id":"cebpf4jnsgd1na2vs0mg"},{"bike_id":"fa12fedc-c150-4959-8172-462b429a0446","system_id":"levelo_inurba_marseille","lat":43.317075,"lon":5.377367,"is_reserved":false,"is_disabled":false,"rental_uris":{"android":"levelo://app?vid=fa12fedc-c150-4959-8172-462b429a0446","ios":"levelo://app?vid=fa12fedc-c150-4959-8172-462b429a0446"},"vehicle_type_id":"4","last_reported":1711390189,"current_range_meters":14400,"station_id":"ce4bgth2rcd13ifvqch0","pricing_plan_id":"cebpf4jnsgd1na2vs0mg"},{"bike_id":"c370162d-4c78-43b6-aea6-54a27f11830e","system_id":"levelo_inurba_marseille","lat":43.317075,"lon":5.377367,"is_reserved":false,"is_disabled":false,"rental_uris":{"android":"levelo://app?vid=c370162d-4c78-43b6-aea6-54a27f11830e","ios":"levelo://app?vid=c370162d-4c78-43b6-aea6-54a27f11830e"},"vehicle_type_id":"4","last_reported":1711390189,"current_range_meters":12000,"station_id":"ce4bgth2rcd13ifvqch0","pricing_plan_id":"cebpf4jnsgd1na2vs0mg"},{"bike_id":"d786829b-5310-4a29-91e8-f1ec5b58b820","system_id":"levelo_inurba_marseille","lat":43.317075,"lon":5.377367,"is_reserved":false,"is_disabled":false,"rental_uris":{"android":"levelo://app?vid=d786829b-5310-4a29-91e8-f1ec5b58b820","ios":"levelo://app?vid=d786829b-5310-4a29-91e8-f1ec5b58b820"},"vehicle_type_id":"4","last_reported":1711390189,"current_range_meters":31600,"station_id":"ce4bgth2rcd13ifvqch0","pricing_plan_id":"cebpf4jnsgd1na2vs0mg"},{"bike_id":"b4e5d7d1-723e-4af0-8684-0a80a02c9a14","system_id":"levelo_inurba_marseille","lat":43.317075,"lon":5.377367,"is_reserved":false,"is_disabled":false,"rental_uris":{"android":"levelo://app?vid=b4e5d7d1-723e-4af0-8684-0a80a02c9a14","ios":"levelo://app?vid=b4e5d7d1-723e-4af0-8684-0a80a02c9a14"},"vehicle_type_id":"4","last_reported":1711390189,"current_range_meters":24800,"station_id":"ce4bgth2rcd13ifvqch0","pricing_plan_id":"cebpf4jnsgd1na2vs0mg"},{"bike_id":"e75c7c12-fc1e-41b7-bf58-a9b899f4f0f6","system_id":"levelo_inurba_marseille","lat":43.317075,"lon":5.377367,"is_reserved":false,"is_disabled":false,"rental_uris":{"android":"levelo://app?vid=e75c7c12-fc1e-41b7-bf58-a9b899f4f0f6","ios":"levelo://app?vid=e75c7c12-fc1e-41b7-bf58-a9b899f4f0f6"},"vehicle_type_id":"4","last_reported":1711390189,"current_range_meters":12400,"station_id":"ce4bgth2rcd13ifvqch0","pricing_plan_id":"cebpf4jnsgd1na2vs0mg"},{"bike_id":"fac2e688-97a5-4e04-97ca-8f5d608dfe28","system_id":"levelo_inurba_marseille","lat":43.317075,"lon":5.377367,"is_reserved":false,"is_disabled":false,"rental_uris":{"android":"levelo://app?vid=fac2e688-97a5-4e04-97ca-8f5d608dfe28","ios":"levelo://app?vid=fac2e688-97a5-4e04-97ca-8f5d608dfe28"},"vehicle_type_id":"4","last_reported":1711390189,"current_range_meters":10400,"station_id":"ce4bgth2rcd13ifvqch0","pricing_plan_id":"cebpf4jnsgd1na2vs0mg"},{"bike_id":"396408a1-dbae-4386-b760-aa945e39a9c2","system_id":"levelo_inurba_marseille","lat":43.305706,"lon":5.365654,"is_reserved":false,"is_disabled":false,"rental_uris":{"android":"levelo://app?vid=396408a1-dbae-4386-b760-aa945e39a9c2","ios":"levelo://app?vid=396408a1-dbae-4386-b760-aa945e39a9c2"},"vehicle_type_id":"4","last_reported":1711390189,"current_range_meters":6000,"station_id":"ce4bgs12rcd13ifvqcag","pricing_plan_id":"cebpf4jnsgd1na2vs0mg"},{"bike_id":"742b9dc5-137b-4759-979b-164c7b7b26f7","system_id":"levelo_inurba_marseille","lat":43.302759,"lon":5.400793,"is_reserved":false,"is_disabled":false,"rental_uris":{"android":"levelo://app?vid=742b9dc5-137b-4759-979b-164c7b7b26f7","ios":"levelo://app?vid=742b9dc5-137b-4759-979b-164c7b7b26f7"},"vehicle_type_id":"4","last_reported":1711390189,"current_range_meters":8000,"station_id":"ce4bgvh2rcd13ifvqcs0","pricing_plan_id":"cebpf4jnsgd1na2vs0mg"},{"bike_id":"490da5e3-94fa-4df0-9e1c-fcaef4f55067","system_id":"levelo_inurba_marseille","lat":43.267959,"lon":5.402685,"is_reserved":false,"is_disabled":false,"rental_uris":{"android":"levelo://app?vid=490da5e3-94fa-4df0-9e1c-fcaef4f55067","ios":"levelo://app?vid=490da5e3-94fa-4df0-9e1c-fcaef4f55067"},"vehicle_type_id":"4","last_reported":1711390189,"current_range_meters":8800,"station_id":"ce501612rcd8frsf0b60","pricing_plan_id":"cebpf4jnsgd1na2vs0mg"},{"bike_id":"e928b0ed-8a50-4a18-919a-564aa0c7426e","system_id":"levelo_inurba_marseille","lat":43.315289,"lon":5.380349,"is_reserved":false,"is_disabled":false,"rental_uris":{"android":"levelo://app?vid=e928b0ed-8a50-4a18-919a-564aa0c7426e","ios":"levelo://app?vid=e928b0ed-8a50-4a18-919a-564aa0c7426e"},"vehicle_type_id":"4","last_reported":1711390189,"current_range_meters":30400,"station_id":"ce4bhsp2rcd13ifvqi50","pricing_plan_id":"cebpf4jnsgd1na2vs0mg"},{"bike_id":"245dd20e-ab83-43bb-945e-15b90ee6a0c3","system_id":"levelo_inurba_marseille","lat":43.31527,"lon":5.38032,"is_reserved":false,"is_disabled":false,"rental_uris":{"android":"levelo://app?vid=245dd20e-ab83-43bb-945e-15b90ee6a0c3","ios":"levelo://app?vid=245dd20e-ab83-43bb-945e-15b90ee6a0c3"},"vehicle_type_id":"4","last_reported":1711390189,"current_range_meters":10800,"station_id":"ce4bhsp2rcd13ifvqi50","pricing_plan_id":"cebpf4jnsgd1na2vs0mg"},{"bike_id":"88109448-9374-4390-a9be-4d7505ee06d5","system_id":"levelo_inurba_marseille","lat":43.3153,"lon":5.38033,"is_reserved":false,"is_disabled":false,"rental_uris":{"android":"levelo://app?vid=88109448-9374-4390-a9be-4d7505ee06d5","ios":"levelo://app?vid=88109448-9374-4390-a9be-4d7505ee06d5"},"vehicle_type_id":"4","last_reported":1711390189,"current_range_meters":21600,"station_id":"ce4bhsp2rcd13ifvqi50","pricing_plan_id":"cebpf4jnsgd1na2vs0mg"},{"bike_id":"04b0d26a-d400-4892-acb4-396285afec7e","system_id":"levelo_inurba_marseille","lat":43.315293,"lon":5.380349,"is_reserved":false,"is_disabled":false,"rental_uris":{"android":"levelo://app?vid=04b0d26a-d400-4892-acb4-396285afec7e","ios":"levelo://app?vid=04b0d26a-d400-4892-acb4-396285afec7e"},"vehicle_type_id":"4","last_reported":1711390189,"current_range_meters":28000,"station_id":"ce4bhsp2rcd13ifvqi50","pricing_plan_id":"cebpf4jnsgd1na2vs0mg"},{"bike_id":"a40836eb-21a3-4246-94b7-87bbda78f6e8","system_id":"levelo_inurba_marseille","lat":43.314811,"lon":5.373103,"is_reserved":false,"is_disabled":false,"rental_uris":{"android":"levelo://app?vid=a40836eb-21a3-4246-94b7-87bbda78f6e8","ios":"levelo://app?vid=a40836eb-21a3-4246-94b7-87bbda78f6e8"},"vehicle_type_id":"4","last_reported":1711390189,"current_range_meters":7600,"station_id":"ce4bgt12rcd13ifvqcd0","pricing_plan_id":"cebpf4jnsgd1na2vs0mg"},{"bike_id":"8ff164da-31ab-4312-a461-f5a31859ed4b","system_id":"levelo_inurba_marseille","lat":43.301939,"lon":5.366286,"is_reserved":false,"is_disabled":false,"rental_uris":{"android":"levelo://app?vid=8ff164da-31ab-4312-a461-f5a31859ed4b","ios":"levelo://app?vid=8ff164da-31ab-4312-a461-f5a31859ed4b"},"vehicle_type_id":"4","last_reported":1711390189,"current_range_meters":400,"station_id":"ce4bgrh2rcd13ifvqc8g","pricing_plan_id":"cebpf4jnsgd1na2vs0mg"},{"bike_id":"9f4a7b97-5db7-4462-a5f9-e62722f56ab0","system_id":"levelo_inurba_marseille","lat":43.301939,"lon":5.366286,"is_reserved":false,"is_disabled":false,"rental_uris":{"android":"levelo://app?vid=9f4a7b97-5db7-4462-a5f9-e62722f56ab0","ios":"levelo://app?vid=9f4a7b97-5db7-4462-a5f9-e62722f56ab0"},"vehicle_type_id":"4","last_reported":1711390189,"current_range_meters":21200,"station_id":"ce4bgrh2rcd13ifvqc8g","pricing_plan_id":"cebpf4jnsgd1na2vs0mg"},{"bike_id":"8b2999be-feaa-401e-8180-37a4f51ad29f","system_id":"levelo_inurba_marseille","lat":43.30926,"lon":5.38205,"is_reserved":false,"is_disabled":false,"rental_uris":{"android":"levelo://app?vid=8b2999be-feaa-401e-8180-37a4f51ad29f","ios":"levelo://app?vid=8b2999be-feaa-401e-8180-37a4f51ad29f"},"vehicle_type_id":"4","last_reported":1711390189,"current_range_meters":28000,"station_id":"","pricing_plan_id":"cebpf4jnsgd1na2vs0mg"},{"bike_id":"115c6f82-f6e0-4d47-a0d3-6ead24442f29","system_id":"levelo_inurba_marseille","lat":43.308012,"lon":5.381511,"is_reserved":false,"is_disabled":false,"rental_uris":{"android":"levelo://app?vid=115c6f82-f6e0-4d47-a0d3-6ead24442f29","ios":"levelo://app?vid=115c6f82-f6e0-4d47-a0d3-6ead24442f29"},"vehicle_type_id":"4","last_reported":1711390189,"current_range_meters":16400,"station_id":"ce4bgt12rcd13ifvqce0","pricing_plan_id":"cebpf4jnsgd1na2vs0mg"},{"bike_id":"07b05e7e-b240-49b2-aa30-ec278519be68","system_id":"levelo_inurba_marseille","lat":43.308012,"lon":5.381511,"is_reserved":false,"is_disabled":false,"rental_uris":{"android":"levelo://app?vid=07b05e7e-b240-49b2-aa30-ec278519be68","ios":"levelo://app?vid=07b05e7e-b240-49b2-aa30-ec278519be68"},"vehicle_type_id":"4","last_reported":1711390189,"current_range_meters":0,"station_id":"ce4bgt12rcd13ifvqce0","pricing_plan_id":"cebpf4jnsgd1na2vs0mg"},{"bike_id":"aa5b0390-5d05-4819-bc6b-6552633e7bed","system_id":"levelo_inurba_marseille","lat":43.308012,"lon":5.381511,"is_reserved":false,"is_disabled":false,"rental_uris":{"android":"levelo://app?vid=aa5b0390-5d05-4819-bc6b-6552633e7bed","ios":"levelo://app?vid=aa5b0390-5d05-4819-bc6b-6552633e7bed"},"vehicle_type_id":"4","last_reported":1711390189,"current_range_meters":23600,"station_id":"ce4bgt12rcd13ifvqce0","pricing_plan_id":"cebpf4jnsgd1na2vs0mg"},{"bike_id":"5e693aa7-d1c0-408e-a6c7-00d944c7d643","system_id":"levelo_inurba_marseille","lat":43.308012,"lon":5.381511,"is_reserved":false,"is_disabled":false,"rental_uris":{"android":"levelo://app?vid=5e693aa7-d1c0-408e-a6c7-00d944c7d643","ios":"levelo://app?vid=5e693aa7-d1c0-408e-a6c7-00d944c7d643"},"vehicle_type_id":"4","last_reported":1711390189,"current_range_meters":13600,"station_id":"ce4bgt12rcd13ifvqce0","pricing_plan_id":"cebpf4jnsgd1na2vs0mg"},{"bike_id":"68bcaff6-c169-448d-82e9-b5405e03ddca","system_id":"levelo_inurba_marseille","lat":43.308012,"lon":5.381511,"is_reserved":false,"is_disabled":false,"rental_uris":{"android":"levelo://app?vid=68bcaff6-c169-448d-82e9-b5405e03ddca","ios":"levelo://app?vid=68bcaff6-c169-448d-82e9-b5405e03ddca"},"vehicle_type_id":"4","last_reported":1711390189,"current_range_meters":9200,"station_id":"ce4bgt12rcd13ifvqce0","pricing_plan_id":"cebpf4jnsgd1na2vs0mg"},{"bike_id":"0964b34e-6c70-40e8-9aa5-77bb6b27f6b6","system_id":"levelo_inurba_marseille","lat":43.308012,"lon":5.381511,"is_reserved":false,"is_disabled":false,"rental_uris":{"android":"levelo://app?vid=0964b34e-6c70-40e8-9aa5-77bb6b27f6b6","ios":"levelo://app?vid=0964b34e-6c70-40e8-9aa5-77bb6b27f6b6"},"vehicle_type_id":"4","last_reported":1711390189,"current_range_meters":31600,"station_id":"ce4bgt12rcd13ifvqce0","pricing_plan_id":"cebpf4jnsgd1na2vs0mg"},{"bike_id":"0283ced5-59ea-43fd-8f6a-acf1829dfd75","system_id":"levelo_inurba_marseille","lat":43.304606,"lon":5.379026,"is_reserved":false,"is_disabled":false,"rental_uris":{"android":"levelo://app?vid=0283ced5-59ea-43fd-8f6a-acf1829dfd75","ios":"levelo://app?vid=0283ced5-59ea-43fd-8f6a-acf1829dfd75"},"vehicle_type_id":"4","last_reported":1711390189,"current_range_meters":12400,"station_id":"ce4bgup2rcd13ifvqcn0","pricing_plan_id":"cebpf4jnsgd1na2vs0mg"},{"bike_id":"ee315106-341d-4bf1-9af2-6b11388a77d8","system_id":"levelo_inurba_marseille","lat":43.324771,"lon":5.36557,"is_reserved":false,"is_disabled":false,"rental_uris":{"android":"levelo://app?vid=ee315106-341d-4bf1-9af2-6b11388a77d8","ios":"levelo://app?vid=ee315106-341d-4bf1-9af2-6b11388a77d8"},"vehicle_type_id":"4","last_reported":1711390189,"current_range_meters":27200,"station_id":"ce4bhs12rcd13ifvqhvg","pricing_plan_id":"cebpf4jnsgd1na2vs0mg"},{"bike_id":"4aa023fc-bd6a-49d9-bb66-0067c94f6096","system_id":"levelo_inurba_marseille","lat":43.324799,"lon":5.365696,"is_reserved":false,"is_disabled":false,"rental_uris":{"android":"levelo://app?vid=4aa023fc-bd6a-49d9-bb66-0067c94f6096","ios":"levelo://app?vid=4aa023fc-bd6a-49d9-bb66-0067c94f6096"},"vehicle_type_id":"4","last_reported":1711390189,"current_range_meters":28000,"station_id":"ce4bhs12rcd13ifvqhvg","pricing_plan_id":"cebpf4jnsgd1na2vs0mg"},{"bike_id":"a0d31af7-370b-4f99-8c08-89a40e47803f","system_id":"levelo_inurba_marseille","lat":43.324771,"lon":5.36557,"is_reserved":false,"is_disabled":false,"rental_uris":{"android":"levelo://app?vid=a0d31af7-370b-4f99-8c08-89a40e47803f","ios":"levelo://app?vid=a0d31af7-370b-4f99-8c08-89a40e47803f"},"vehicle_type_id":"4","last_reported":1711390189,"current_range_meters":28800,"station_id":"ce4bhs12rcd13ifvqhvg","pricing_plan_id":"cebpf4jnsgd1na2vs0mg"},{"bike_id":"e798ed94-d5c5-4ed4-b08a-ed6148056e31","system_id":"levelo_inurba_marseille","lat":43.324771,"lon":5.36557,"is_reserved":false,"is_disabled":false,"rental_uris":{"android":"levelo://app?vid=e798ed94-d5c5-4ed4-b08a-ed6148056e31","ios":"levelo://app?vid=e798ed94-d5c5-4ed4-b08a-ed6148056e31"},"vehicle_type_id":"4","last_reported":1711390189,"current_range_meters":26000,"station_id":"ce4bhs12rcd13ifvqhvg","pricing_plan_id":"cebpf4jnsgd1na2vs0mg"},{"bike_id":"a26085b4-c08f-407f-92bc-4fa83dbf1dee","system_id":"levelo_inurba_marseille","lat":43.324771,"lon":5.36557,"is_reserved":false,"is_disabled":false,"rental_uris":{"android":"levelo://app?vid=a26085b4-c08f-407f-92bc-4fa83dbf1dee","ios":"levelo://app?vid=a26085b4-c08f-407f-92bc-4fa83dbf1dee"},"vehicle_type_id":"4","last_reported":1711390189,"current_range_meters":9200,"station_id":"ce4bhs12rcd13ifvqhvg","pricing_plan_id":"cebpf4jnsgd1na2vs0mg"},{"bike_id":"26aab7eb-0fed-402e-8f7d-f704da75ca7c","system_id":"levelo_inurba_marseille","lat":43.324771,"lon":5.36557,"is_reserved":false,"is_disabled":false,"rental_uris":{"android":"levelo://app?vid=26aab7eb-0fed-402e-8f7d-f704da75ca7c","ios":"levelo://app?vid=26aab7eb-0fed-402e-8f7d-f704da75ca7c"},"vehicle_type_id":"4","last_reported":1711390189,"current_range_meters":7200,"station_id":"ce4bhs12rcd13ifvqhvg","pricing_plan_id":"cebpf4jnsgd1na2vs0mg"},{"bike_id":"6aa4298b-cf59-479b-aa76-7cfd5bb84470","system_id":"levelo_inurba_marseille","lat":43.310804,"lon":5.38359,"is_reserved":false,"is_disabled":false,"rental_uris":{"android":"levelo://app?vid=6aa4298b-cf59-479b-aa76-7cfd5bb84470","ios":"levelo://app?vid=6aa4298b-cf59-479b-aa76-7cfd5bb84470"},"vehicle_type_id":"4","last_reported":1711390189,"current_range_meters":6800,"station_id":"ce4bgv92rcd13ifvqcr0","pricing_plan_id":"cebpf4jnsgd1na2vs0mg"},{"bike_id":"86c2095f-66b9-4109-aff6-f9cda9639c22","system_id":"levelo_inurba_marseille","lat":43.310804,"lon":5.38359,"is_reserved":false,"is_disabled":false,"rental_uris":{"android":"levelo://app?vid=86c2095f-66b9-4109-aff6-f9cda9639c22","ios":"levelo://app?vid=86c2095f-66b9-4109-aff6-f9cda9639c22"},"vehicle_type_id":"4","last_reported":1711390189,"current_range_meters":12400,"station_id":"ce4bgv92rcd13ifvqcr0","pricing_plan_id":"cebpf4jnsgd1na2vs0mg"},{"bike_id":"d022a715-d534-4552-89e6-06447106d7c7","system_id":"levelo_inurba_marseille","lat":43.310804,"lon":5.38359,"is_reserved":false,"is_disabled":false,"rental_uris":{"android":"levelo://app?vid=d022a715-d534-4552-89e6-06447106d7c7","ios":"levelo://app?vid=d022a715-d534-4552-89e6-06447106d7c7"},"vehicle_type_id":"4","last_reported":1711390189,"current_range_meters":7600,"station_id":"ce4bgv92rcd13ifvqcr0","pricing_plan_id":"cebpf4jnsgd1na2vs0mg"},{"bike_id":"2f584b6e-ddb0-497b-b832-a638cc442827","system_id":"levelo_inurba_marseille","lat":43.302784,"lon":5.377158,"is_reserved":false,"is_disabled":false,"rental_uris":{"android":"levelo://app?vid=2f584b6e-ddb0-497b-b832-a638cc442827","ios":"levelo://app?vid=2f584b6e-ddb0-497b-b832-a638cc442827"},"vehicle_type_id":"4","last_reported":1711390189,"current_range_meters":14400,"station_id":"ce4bguh2rcd13ifvqcj0","pricing_plan_id":"cebpf4jnsgd1na2vs0mg"},{"bike_id":"3827812e-6bb5-40be-a7d6-7224aababdd1","system_id":"levelo_inurba_marseille","lat":43.310804,"lon":5.38359,"is_reserved":false,"is_disabled":false,"rental_uris":{"android":"levelo://app?vid=3827812e-6bb5-40be-a7d6-7224aababdd1","ios":"levelo://app?vid=3827812e-6bb5-40be-a7d6-7224aababdd1"},"vehicle_type_id":"4","last_reported":1711390189,"current_range_meters":15600,"station_id":"ce4bgv92rcd13ifvqcr0","pricing_plan_id":"cebpf4jnsgd1na2vs0mg"},{"bike_id":"62be9f93-0bba-4b5a-baaf-305f53ed08f3","system_id":"levelo_inurba_marseille","lat":43.310804,"lon":5.38359,"is_reserved":false,"is_disabled":false,"rental_uris":{"android":"levelo://app?vid=62be9f93-0bba-4b5a-baaf-305f53ed08f3","ios":"levelo://app?vid=62be9f93-0bba-4b5a-baaf-305f53ed08f3"},"vehicle_type_id":"4","last_reported":1711390189,"current_range_meters":16000,"station_id":"ce4bgv92rcd13ifvqcr0","pricing_plan_id":"cebpf4jnsgd1na2vs0mg"},{"bike_id":"a0ce050d-fc15-4c24-ba6c-1c9b827d8531","system_id":"levelo_inurba_marseille","lat":43.310804,"lon":5.38359,"is_reserved":false,"is_disabled":false,"rental_uris":{"android":"levelo://app?vid=a0ce050d-fc15-4c24-ba6c-1c9b827d8531","ios":"levelo://app?vid=a0ce050d-fc15-4c24-ba6c-1c9b827d8531"},"vehicle_type_id":"4","last_reported":1711390189,"current_range_meters":26800,"station_id":"ce4bgv92rcd13ifvqcr0","pricing_plan_id":"cebpf4jnsgd1na2vs0mg"},{"bike_id":"336e301a-eb18-44eb-8fc3-87dbc65e397d","system_id":"levelo_inurba_marseille","lat":43.281548,"lon":5.42643,"is_reserved":false,"is_disabled":false,"rental_uris":{"android":"levelo://app?vid=336e301a-eb18-44eb-8fc3-87dbc65e397d","ios":"levelo://app?vid=336e301a-eb18-44eb-8fc3-87dbc65e397d"},"vehicle_type_id":"4","last_reported":1711390189,"current_range_meters":400,"station_id":"ce4bhnh2rcd13ifvqgug","pricing_plan_id":"cebpf4jnsgd1na2vs0mg"},{"bike_id":"393ae01d-153f-4fe5-a1d3-d39527016610","system_id":"levelo_inurba_marseille","lat":43.301429,"lon":5.37413,"is_reserved":false,"is_disabled":false,"rental_uris":{"android":"levelo://app?vid=393ae01d-153f-4fe5-a1d3-d39527016610","ios":"levelo://app?vid=393ae01d-153f-4fe5-a1d3-d39527016610"},"vehicle_type_id":"4","last_reported":1711390189,"current_range_meters":18800,"station_id":"ce4bgs92rcd13ifvqcc0","pricing_plan_id":"cebpf4jnsgd1na2vs0mg"},{"bike_id":"139ec6dd-1e11-4edd-b32e-fa8b300eb947","system_id":"levelo_inurba_marseille","lat":43.31994,"lon":5.3815,"is_reserved":false,"is_disabled":false,"rental_uris":{"android":"levelo://app?vid=139ec6dd-1e11-4edd-b32e-fa8b300eb947","ios":"levelo://app?vid=139ec6dd-1e11-4edd-b32e-fa8b300eb947"},"vehicle_type_id":"4","last_reported":1711390189,"current_range_meters":0,"station_id":"ce4bhr12rcd13ifvqhpg","pricing_plan_id":"cebpf4jnsgd1na2vs0mg"},{"bike_id":"0248e6ce-0201-4e04-9ac2-876973a617ba","system_id":"levelo_inurba_marseille","lat":43.31995,"lon":5.38151,"is_reserved":false,"is_disabled":false,"rental_uris":{"android":"levelo://app?vid=0248e6ce-0201-4e04-9ac2-876973a617ba","ios":"levelo://app?vid=0248e6ce-0201-4e04-9ac2-876973a617ba"},"vehicle_type_id":"4","last_reported":1711390189,"current_range_meters":0,"station_id":"ce4bhr12rcd13ifvqhpg","pricing_plan_id":"cebpf4jnsgd1na2vs0mg"},{"bike_id":"6715d6d0-acc8-4157-ae19-35f89996aad6","system_id":"levelo_inurba_marseille","lat":43.31997,"lon":5.3815,"is_reserved":false,"is_disabled":false,"rental_uris":{"android":"levelo://app?vid=6715d6d0-acc8-4157-ae19-35f89996aad6","ios":"levelo://app?vid=6715d6d0-acc8-4157-ae19-35f89996aad6"},"vehicle_type_id":"4","last_reported":1711390189,"current_range_meters":10800,"station_id":"ce4bhr12rcd13ifvqhpg","pricing_plan_id":"cebpf4jnsgd1na2vs0mg"},{"bike_id":"013472d7-ab0a-47b8-86c5-cdb685af73af","system_id":"levelo_inurba_marseille","lat":43.319935,"lon":5.381699,"is_reserved":false,"is_disabled":false,"rental_uris":{"android":"levelo://app?vid=013472d7-ab0a-47b8-86c5-cdb685af73af","ios":"levelo://app?vid=013472d7-ab0a-47b8-86c5-cdb685af73af"},"vehicle_type_id":"4","last_reported":1711390189,"current_range_meters":400,"station_id":"ce4bhr12rcd13ifvqhpg","pricing_plan_id":"cebpf4jnsgd1na2vs0mg"},{"bike_id":"ea959437-bf8b-414f-b285-d8869b036858","system_id":"levelo_inurba_marseille","lat":43.319935,"lon":5.381699,"is_reserved":false,"is_disabled":false,"rental_uris":{"android":"levelo://app?vid=ea959437-bf8b-414f-b285-d8869b036858","ios":"levelo://app?vid=ea959437-bf8b-414f-b285-d8869b036858"},"vehicle_type_id":"4","last_reported":1711390189,"current_range_meters":0,"station_id":"ce4bhr12rcd13ifvqhpg","pricing_plan_id":"cebpf4jnsgd1na2vs0mg"},{"bike_id":"a969d855-85ef-438a-b930-3993343da247","system_id":"levelo_inurba_marseille","lat":43.319954,"lon":5.381689,"is_reserved":false,"is_disabled":false,"rental_uris":{"android":"levelo://app?vid=a969d855-85ef-438a-b930-3993343da247","ios":"levelo://app?vid=a969d855-85ef-438a-b930-3993343da247"},"vehicle_type_id":"4","last_reported":1711390189,"current_range_meters":4000,"station_id":"ce4bhr12rcd13ifvqhpg","pricing_plan_id":"cebpf4jnsgd1na2vs0mg"},{"bike_id":"a99c9cd2-0155-4db4-a1c3-427a6c1c8bde","system_id":"levelo_inurba_marseille","lat":43.32006,"lon":5.38163,"is_reserved":false,"is_disabled":false,"rental_uris":{"android":"levelo://app?vid=a99c9cd2-0155-4db4-a1c3-427a6c1c8bde","ios":"levelo://app?vid=a99c9cd2-0155-4db4-a1c3-427a6c1c8bde"},"vehicle_type_id":"4","last_reported":1711390189,"current_range_meters":8800,"station_id":"ce4bhr12rcd13ifvqhpg","pricing_plan_id":"cebpf4jnsgd1na2vs0mg"},{"bike_id":"81884720-86ec-4d42-9650-6e1ca2b79f15","system_id":"levelo_inurba_marseille","lat":43.313571,"lon":5.384829,"is_reserved":false,"is_disabled":false,"rental_uris":{"android":"levelo://app?vid=81884720-86ec-4d42-9650-6e1ca2b79f15","ios":"levelo://app?vid=81884720-86ec-4d42-9650-6e1ca2b79f15"},"vehicle_type_id":"4","last_reported":1711390189,"current_range_meters":7600,"station_id":"ce4bgt92rcd13ifvqcf0","pricing_plan_id":"cebpf4jnsgd1na2vs0mg"},{"bike_id":"bd354d97-907a-4ffa-ab5f-c42da5b00843","system_id":"levelo_inurba_marseille","lat":43.313571,"lon":5.384829,"is_reserved":false,"is_disabled":false,"rental_uris":{"android":"levelo://app?vid=bd354d97-907a-4ffa-ab5f-c42da5b00843","ios":"levelo://app?vid=bd354d97-907a-4ffa-ab5f-c42da5b00843"},"vehicle_type_id":"4","last_reported":1711390189,"current_range_meters":21600,"station_id":"ce4bgt92rcd13ifvqcf0","pricing_plan_id":"cebpf4jnsgd1na2vs0mg"},{"bike_id":"2d1fcfb2-41cd-4d22-8c9d-010a4621faff","system_id":"levelo_inurba_marseille","lat":43.313571,"lon":5.384829,"is_reserved":false,"is_disabled":false,"rental_uris":{"android":"levelo://app?vid=2d1fcfb2-41cd-4d22-8c9d-010a4621faff","ios":"levelo://app?vid=2d1fcfb2-41cd-4d22-8c9d-010a4621faff"},"vehicle_type_id":"4","last_reported":1711390189,"current_range_meters":20000,"station_id":"ce4bgt92rcd13ifvqcf0","pricing_plan_id":"cebpf4jnsgd1na2vs0mg"},{"bike_id":"a7765369-4add-4cf6-a153-4d4e55db0c32","system_id":"levelo_inurba_marseille","lat":43.313571,"lon":5.384829,"is_reserved":false,"is_disabled":false,"rental_uris":{"android":"levelo://app?vid=a7765369-4add-4cf6-a153-4d4e55db0c32","ios":"levelo://app?vid=a7765369-4add-4cf6-a153-4d4e55db0c32"},"vehicle_type_id":"4","last_reported":1711390189,"current_range_meters":4000,"station_id":"ce4bgt92rcd13ifvqcf0","pricing_plan_id":"cebpf4jnsgd1na2vs0mg"},{"bike_id":"df517d41-ebaa-4c07-b2b8-3bbf2677abee","system_id":"levelo_inurba_marseille","lat":43.299222,"lon":5.365554,"is_reserved":false,"is_disabled":false,"rental_uris":{"android":"levelo://app?vid=df517d41-ebaa-4c07-b2b8-3bbf2677abee","ios":"levelo://app?vid=df517d41-ebaa-4c07-b2b8-3bbf2677abee"},"vehicle_type_id":"4","last_reported":1711390189,"current_range_meters":26800,"station_id":"ce4bgm92rcd13ifvqbr0","pricing_plan_id":"cebpf4jnsgd1na2vs0mg"},{"bike_id":"3285bb61-75dc-4c2a-a2c0-887f68a25840","system_id":"levelo_inurba_marseille","lat":43.299222,"lon":5.365554,"is_reserved":false,"is_disabled":false,"rental_uris":{"android":"levelo://app?vid=3285bb61-75dc-4c2a-a2c0-887f68a25840","ios":"levelo://app?vid=3285bb61-75dc-4c2a-a2c0-887f68a25840"},"vehicle_type_id":"4","last_reported":1711390189,"current_range_meters":8000,"station_id":"ce4bgm92rcd13ifvqbr0","pricing_plan_id":"cebpf4jnsgd1na2vs0mg"},{"bike_id":"799db745-fb9c-44c6-bdfc-34631884089a","system_id":"levelo_inurba_marseille","lat":43.299222,"lon":5.365554,"is_reserved":false,"is_disabled":false,"rental_uris":{"android":"levelo://app?vid=799db745-fb9c-44c6-bdfc-34631884089a","ios":"levelo://app?vid=799db745-fb9c-44c6-bdfc-34631884089a"},"vehicle_type_id":"4","last_reported":1711390189,"current_range_meters":24000,"station_id":"ce4bgm92rcd13ifvqbr0","pricing_plan_id":"cebpf4jnsgd1na2vs0mg"},{"bike_id":"e6189788-8d4a-41bc-8d47-3262e18fecab","system_id":"levelo_inurba_marseille","lat":43.299222,"lon":5.365554,"is_reserved":false,"is_disabled":false,"rental_uris":{"android":"levelo://app?vid=e6189788-8d4a-41bc-8d47-3262e18fecab","ios":"levelo://app?vid=e6189788-8d4a-41bc-8d47-3262e18fecab"},"vehicle_type_id":"4","last_reported":1711390189,"current_range_meters":20400,"station_id":"ce4bgm92rcd13ifvqbr0","pricing_plan_id":"cebpf4jnsgd1na2vs0mg"},{"bike_id":"5082c476-9a7c-4084-90e3-786ccfb968e5","system_id":"levelo_inurba_marseille","lat":43.299724,"lon":5.371829,"is_reserved":false,"is_disabled":false,"rental_uris":{"android":"levelo://app?vid=5082c476-9a7c-4084-90e3-786ccfb968e5","ios":"levelo://app?vid=5082c476-9a7c-4084-90e3-786ccfb968e5"},"vehicle_type_id":"4","last_reported":1711390189,"current_range_meters":6400,"station_id":"ce4bgr92rcd13ifvqc7g","pricing_plan_id":"cebpf4jnsgd1na2vs0mg"},{"bike_id":"b4195580-bee4-4ecc-8d9b-25e623e314c1","system_id":"levelo_inurba_marseille","lat":43.299222,"lon":5.365554,"is_reserved":false,"is_disabled":false,"rental_uris":{"android":"levelo://app?vid=b4195580-bee4-4ecc-8d9b-25e623e314c1","ios":"levelo://app?vid=b4195580-bee4-4ecc-8d9b-25e623e314c1"},"vehicle_type_id":"4","last_reported":1711390189,"current_range_meters":13600,"station_id":"ce4bgm92rcd13ifvqbr0","pricing_plan_id":"cebpf4jnsgd1na2vs0mg"},{"bike_id":"51b26688-0d40-44df-a7fa-64d4a0766f8c","system_id":"levelo_inurba_marseille","lat":43.299222,"lon":5.365554,"is_reserved":false,"is_disabled":false,"rental_uris":{"android":"levelo://app?vid=51b26688-0d40-44df-a7fa-64d4a0766f8c","ios":"levelo://app?vid=51b26688-0d40-44df-a7fa-64d4a0766f8c"},"vehicle_type_id":"4","last_reported":1711390189,"current_range_meters":16000,"station_id":"ce4bgm92rcd13ifvqbr0","pricing_plan_id":"cebpf4jnsgd1na2vs0mg"},{"bike_id":"3341888b-532e-4b39-a9ef-8e62e555861c","system_id":"levelo_inurba_marseille","lat":43.299222,"lon":5.365554,"is_reserved":false,"is_disabled":false,"rental_uris":{"android":"levelo://app?vid=3341888b-532e-4b39-a9ef-8e62e555861c","ios":"levelo://app?vid=3341888b-532e-4b39-a9ef-8e62e555861c"},"vehicle_type_id":"4","last_reported":1711390189,"current_range_meters":3200,"station_id":"ce4bgm92rcd13ifvqbr0","pricing_plan_id":"cebpf4jnsgd1na2vs0mg"},{"bike_id":"3eb0f228-7a2e-429a-858a-b650a345ee7a","system_id":"levelo_inurba_marseille","lat":43.29934,"lon":5.36559,"is_reserved":false,"is_disabled":false,"rental_uris":{"android":"levelo://app?vid=3eb0f228-7a2e-429a-858a-b650a345ee7a","ios":"levelo://app?vid=3eb0f228-7a2e-429a-858a-b650a345ee7a"},"vehicle_type_id":"4","last_reported":1711390189,"current_range_meters":4400,"station_id":"ce4bgm92rcd13ifvqbr0","pricing_plan_id":"cebpf4jnsgd1na2vs0mg"},{"bike_id":"76e988ec-a7ef-4746-a1ef-958f798ae014","system_id":"levelo_inurba_marseille","lat":43.299222,"lon":5.365554,"is_reserved":false,"is_disabled":false,"rental_uris":{"android":"levelo://app?vid=76e988ec-a7ef-4746-a1ef-958f798ae014","ios":"levelo://app?vid=76e988ec-a7ef-4746-a1ef-958f798ae014"},"vehicle_type_id":"4","last_reported":1711390189,"current_range_meters":28800,"station_id":"ce4bgm92rcd13ifvqbr0","pricing_plan_id":"cebpf4jnsgd1na2vs0mg"},{"bike_id":"98ed5738-0d9e-4d90-a6c0-d118fe1409e7","system_id":"levelo_inurba_marseille","lat":43.299222,"lon":5.365554,"is_reserved":false,"is_disabled":false,"rental_uris":{"android":"levelo://app?vid=98ed5738-0d9e-4d90-a6c0-d118fe1409e7","ios":"levelo://app?vid=98ed5738-0d9e-4d90-a6c0-d118fe1409e7"},"vehicle_type_id":"4","last_reported":1711390189,"current_range_meters":16800,"station_id":"ce4bgm92rcd13ifvqbr0","pricing_plan_id":"cebpf4jnsgd1na2vs0mg"},{"bike_id":"1f79d937-ed18-41cd-8ad5-7820cbbf4b74","system_id":"levelo_inurba_marseille","lat":43.299222,"lon":5.365554,"is_reserved":false,"is_disabled":false,"rental_uris":{"android":"levelo://app?vid=1f79d937-ed18-41cd-8ad5-7820cbbf4b74","ios":"levelo://app?vid=1f79d937-ed18-41cd-8ad5-7820cbbf4b74"},"vehicle_type_id":"4","last_reported":1711390189,"current_range_meters":16800,"station_id":"ce4bgm92rcd13ifvqbr0","pricing_plan_id":"cebpf4jnsgd1na2vs0mg"},{"bike_id":"9d0ba807-fa21-4e1a-99d6-5dc9598cbe31","system_id":"levelo_inurba_marseille","lat":43.299222,"lon":5.365554,"is_reserved":false,"is_disabled":false,"rental_uris":{"android":"levelo://app?vid=9d0ba807-fa21-4e1a-99d6-5dc9598cbe31","ios":"levelo://app?vid=9d0ba807-fa21-4e1a-99d6-5dc9598cbe31"},"vehicle_type_id":"4","last_reported":1711390189,"current_range_meters":18800,"station_id":"ce4bgm92rcd13ifvqbr0","pricing_plan_id":"cebpf4jnsgd1na2vs0mg"},{"bike_id":"04ac1f9f-a9c5-4476-8f4b-3ada3dd0a0c8","system_id":"levelo_inurba_marseille","lat":43.299301,"lon":5.365323,"is_reserved":false,"is_disabled":false,"rental_uris":{"android":"levelo://app?vid=04ac1f9f-a9c5-4476-8f4b-3ada3dd0a0c8","ios":"levelo://app?vid=04ac1f9f-a9c5-4476-8f4b-3ada3dd0a0c8"},"vehicle_type_id":"4","last_reported":1711390189,"current_range_meters":0,"station_id":"ce4bgm92rcd13ifvqbr0","pricing_plan_id":"cebpf4jnsgd1na2vs0mg"},{"bike_id":"65716318-ae04-474e-9e58-973b7a4068b5","system_id":"levelo_inurba_marseille","lat":43.299222,"lon":5.365554,"is_reserved":false,"is_disabled":false,"rental_uris":{"android":"levelo://app?vid=65716318-ae04-474e-9e58-973b7a4068b5","ios":"levelo://app?vid=65716318-ae04-474e-9e58-973b7a4068b5"},"vehicle_type_id":"4","last_reported":1711390189,"current_range_meters":8800,"station_id":"ce4bgm92rcd13ifvqbr0","pricing_plan_id":"cebpf4jnsgd1na2vs0mg"},{"bike_id":"6d4f2143-f8c7-4b2b-ba64-117b2ab94dca","system_id":"levelo_inurba_marseille","lat":43.299222,"lon":5.365554,"is_reserved":false,"is_disabled":false,"rental_uris":{"android":"levelo://app?vid=6d4f2143-f8c7-4b2b-ba64-117b2ab94dca","ios":"levelo://app?vid=6d4f2143-f8c7-4b2b-ba64-117b2ab94dca"},"vehicle_type_id":"4","last_reported":1711390189,"current_range_meters":9600,"station_id":"ce4bgm92rcd13ifvqbr0","pricing_plan_id":"cebpf4jnsgd1na2vs0mg"},{"bike_id":"d6d9dfda-4d17-4f3f-b3ee-d082b487bbe7","system_id":"levelo_inurba_marseille","lat":43.298909,"lon":5.363075,"is_reserved":false,"is_disabled":false,"rental_uris":{"android":"levelo://app?vid=d6d9dfda-4d17-4f3f-b3ee-d082b487bbe7","ios":"levelo://app?vid=d6d9dfda-4d17-4f3f-b3ee-d082b487bbe7"},"vehicle_type_id":"4","last_reported":1711390189,"current_range_meters":19600,"station_id":"ce4bgpp2rcd13ifvqc3g","pricing_plan_id":"cebpf4jnsgd1na2vs0mg"},{"bike_id":"157fd68a-76b3-45d1-b5a4-58932aeac0ae","system_id":"levelo_inurba_marseille","lat":43.305364,"lon":5.384119,"is_reserved":false,"is_disabled":false,"rental_uris":{"android":"levelo://app?vid=157fd68a-76b3-45d1-b5a4-58932aeac0ae","ios":"levelo://app?vid=157fd68a-76b3-45d1-b5a4-58932aeac0ae"},"vehicle_type_id":"4","last_reported":1711390189,"current_range_meters":7600,"station_id":"ce4bgg92rcd13ifvqb30","pricing_plan_id":"cebpf4jnsgd1na2vs0mg"},{"bike_id":"e81796bc-9933-48f1-a382-8022c3b30cb8","system_id":"levelo_inurba_marseille","lat":43.29846,"lon":5.36283,"is_reserved":false,"is_disabled":false,"rental_uris":{"android":"levelo://app?vid=e81796bc-9933-48f1-a382-8022c3b30cb8","ios":"levelo://app?vid=e81796bc-9933-48f1-a382-8022c3b30cb8"},"vehicle_type_id":"4","last_reported":1711390189,"current_range_meters":6000,"station_id":"ce4bgpp2rcd13ifvqc3g","pricing_plan_id":"cebpf4jnsgd1na2vs0mg"},{"bike_id":"6cd53467-b346-4878-b615-b48abe508e3d","system_id":"levelo_inurba_marseille","lat":43.305364,"lon":5.384119,"is_reserved":false,"is_disabled":false,"rental_uris":{"android":"levelo://app?vid=6cd53467-b346-4878-b615-b48abe508e3d","ios":"levelo://app?vid=6cd53467-b346-4878-b615-b48abe508e3d"},"vehicle_type_id":"4","last_reported":1711390189,"current_range_meters":8000,"station_id":"ce4bgg92rcd13ifvqb30","pricing_plan_id":"cebpf4jnsgd1na2vs0mg"},{"bike_id":"3a8efc07-3d43-4768-b551-b7e7450ddcb5","system_id":"levelo_inurba_marseille","lat":43.298433,"lon":5.362774,"is_reserved":false,"is_disabled":false,"rental_uris":{"android":"levelo://app?vid=3a8efc07-3d43-4768-b551-b7e7450ddcb5","ios":"levelo://app?vid=3a8efc07-3d43-4768-b551-b7e7450ddcb5"},"vehicle_type_id":"4","last_reported":1711390189,"current_range_meters":14400,"station_id":"ce4bgpp2rcd13ifvqc3g","pricing_plan_id":"cebpf4jnsgd1na2vs0mg"},{"bike_id":"075d0c82-316e-4ca6-8d43-f933834428e9","system_id":"levelo_inurba_marseille","lat":43.311722,"lon":5.387247,"is_reserved":false,"is_disabled":false,"rental_uris":{"android":"levelo://app?vid=075d0c82-316e-4ca6-8d43-f933834428e9","ios":"levelo://app?vid=075d0c82-316e-4ca6-8d43-f933834428e9"},"vehicle_type_id":"4","last_reported":1711390189,"current_range_meters":16800,"station_id":"ce4bgv12rcd13ifvqcp0","pricing_plan_id":"cebpf4jnsgd1na2vs0mg"},{"bike_id":"37e175f0-6808-457e-ac35-a9d7e9081a99","system_id":"levelo_inurba_marseille","lat":43.299243,"lon":5.374807,"is_reserved":false,"is_disabled":false,"rental_uris":{"android":"levelo://app?vid=37e175f0-6808-457e-ac35-a9d7e9081a99","ios":"levelo://app?vid=37e175f0-6808-457e-ac35-a9d7e9081a99"},"vehicle_type_id":"4","last_reported":1711390189,"current_range_meters":2000,"station_id":"ce4bgjh2rcd13ifvqbg0","pricing_plan_id":"cebpf4jnsgd1na2vs0mg"},{"bike_id":"3ce052c8-95d1-4211-9329-7bbad41db032","system_id":"levelo_inurba_marseille","lat":43.31174,"lon":5.38711,"is_reserved":false,"is_disabled":false,"rental_uris":{"android":"levelo://app?vid=3ce052c8-95d1-4211-9329-7bbad41db032","ios":"levelo://app?vid=3ce052c8-95d1-4211-9329-7bbad41db032"},"vehicle_type_id":"4","last_reported":1711390189,"current_range_meters":24400,"station_id":"ce4bgv12rcd13ifvqcp0","pricing_plan_id":"cebpf4jnsgd1na2vs0mg"},{"bike_id":"1a646d16-9198-435f-afc2-13e87bda1524","system_id":"levelo_inurba_marseille","lat":43.299243,"lon":5.374807,"is_reserved":false,"is_disabled":false,"rental_uris":{"android":"levelo://app?vid=1a646d16-9198-435f-afc2-13e87bda1524","ios":"levelo://app?vid=1a646d16-9198-435f-afc2-13e87bda1524"},"vehicle_type_id":"4","last_reported":1711390189,"current_range_meters":23600,"station_id":"ce4bgjh2rcd13ifvqbg0","pricing_plan_id":"cebpf4jnsgd1na2vs0mg"},{"bike_id":"7436b88e-0991-4d88-a975-fb1163463dd5","system_id":"levelo_inurba_marseille","lat":43.311722,"lon":5.387247,"is_reserved":false,"is_disabled":false,"rental_uris":{"android":"levelo://app?vid=7436b88e-0991-4d88-a975-fb1163463dd5","ios":"levelo://app?vid=7436b88e-0991-4d88-a975-fb1163463dd5"},"vehicle_type_id":"4","last_reported":1711390189,"current_range_meters":21200,"station_id":"ce4bgv12rcd13ifvqcp0","pricing_plan_id":"cebpf4jnsgd1na2vs0mg"},{"bike_id":"cd830b48-fe4b-43aa-ad4e-b60b9e1aa068","system_id":"levelo_inurba_marseille","lat":43.31174,"lon":5.38716,"is_reserved":false,"is_disabled":false,"rental_uris":{"android":"levelo://app?vid=cd830b48-fe4b-43aa-ad4e-b60b9e1aa068","ios":"levelo://app?vid=cd830b48-fe4b-43aa-ad4e-b60b9e1aa068"},"vehicle_type_id":"4","last_reported":1711390189,"current_range_meters":6400,"station_id":"ce4bgv12rcd13ifvqcp0","pricing_plan_id":"cebpf4jnsgd1na2vs0mg"},{"bike_id":"b0979dc7-052c-4f48-b806-d86ba087c45b","system_id":"levelo_inurba_marseille","lat":43.311722,"lon":5.387247,"is_reserved":false,"is_disabled":false,"rental_uris":{"android":"levelo://app?vid=b0979dc7-052c-4f48-b806-d86ba087c45b","ios":"levelo://app?vid=b0979dc7-052c-4f48-b806-d86ba087c45b"},"vehicle_type_id":"4","last_reported":1711390189,"current_range_meters":18000,"station_id":"ce4bgv12rcd13ifvqcp0","pricing_plan_id":"cebpf4jnsgd1na2vs0mg"},{"bike_id":"ef1b5064-6998-4280-9854-fe1758e2b624","system_id":"levelo_inurba_marseille","lat":43.297794,"lon":5.370888,"is_reserved":false,"is_disabled":false,"rental_uris":{"android":"levelo://app?vid=ef1b5064-6998-4280-9854-fe1758e2b624","ios":"levelo://app?vid=ef1b5064-6998-4280-9854-fe1758e2b624"},"vehicle_type_id":"4","last_reported":1711390189,"current_range_meters":17200,"station_id":"ce4bgop2rcd13ifvqc1g","pricing_plan_id":"cebpf4jnsgd1na2vs0mg"},{"bike_id":"065f9dde-7b5c-4ccd-8a5e-51157c7b9477","system_id":"levelo_inurba_marseille","lat":43.297794,"lon":5.370888,"is_reserved":false,"is_disabled":false,"rental_uris":{"android":"levelo://app?vid=065f9dde-7b5c-4ccd-8a5e-51157c7b9477","ios":"levelo://app?vid=065f9dde-7b5c-4ccd-8a5e-51157c7b9477"},"vehicle_type_id":"4","last_reported":1711390189,"current_range_meters":0,"station_id":"ce4bgop2rcd13ifvqc1g","pricing_plan_id":"cebpf4jnsgd1na2vs0mg"},{"bike_id":"feead7e7-9cee-4c57-94a6-da647512767c","system_id":"levelo_inurba_marseille","lat":43.322896,"lon":5.382515,"is_reserved":false,"is_disabled":false,"rental_uris":{"android":"levelo://app?vid=feead7e7-9cee-4c57-94a6-da647512767c","ios":"levelo://app?vid=feead7e7-9cee-4c57-94a6-da647512767c"},"vehicle_type_id":"4","last_reported":1711390189,"current_range_meters":0,"station_id":"ce4bhr12rcd13ifvqhqg","pricing_plan_id":"cebpf4jnsgd1na2vs0mg"},{"bike_id":"ac18a901-aff0-4f99-bd5b-270feddb1e94","system_id":"levelo_inurba_marseille","lat":43.322872,"lon":5.382756,"is_reserved":false,"is_disabled":false,"rental_uris":{"android":"levelo://app?vid=ac18a901-aff0-4f99-bd5b-270feddb1e94","ios":"levelo://app?vid=ac18a901-aff0-4f99-bd5b-270feddb1e94"},"vehicle_type_id":"4","last_reported":1711390189,"current_range_meters":18000,"station_id":"ce4bhr12rcd13ifvqhqg","pricing_plan_id":"cebpf4jnsgd1na2vs0mg"},{"bike_id":"f2fb7534-cd84-438b-aec6-c6dc6e947f38","system_id":"levelo_inurba_marseille","lat":43.2968,"lon":5.37291,"is_reserved":false,"is_disabled":false,"rental_uris":{"android":"levelo://app?vid=f2fb7534-cd84-438b-aec6-c6dc6e947f38","ios":"levelo://app?vid=f2fb7534-cd84-438b-aec6-c6dc6e947f38"},"vehicle_type_id":"4","last_reported":1711390189,"current_range_meters":21600,"station_id":"ce4bgk12rcd13ifvqbj0","pricing_plan_id":"cebpf4jnsgd1na2vs0mg"},{"bike_id":"58633ef5-e17b-4678-9e20-3f4f63f775c7","system_id":"levelo_inurba_marseille","lat":43.297163,"lon":5.365866,"is_reserved":false,"is_disabled":false,"rental_uris":{"android":"levelo://app?vid=58633ef5-e17b-4678-9e20-3f4f63f775c7","ios":"levelo://app?vid=58633ef5-e17b-4678-9e20-3f4f63f775c7"},"vehicle_type_id":"4","last_reported":1711390189,"current_range_meters":0,"station_id":"ce4bgn12rcd13ifvqbt0","pricing_plan_id":"cebpf4jnsgd1na2vs0mg"},{"bike_id":"dd5a8316-aac3-4746-b4ed-bc5be1057f37","system_id":"levelo_inurba_marseille","lat":43.297163,"lon":5.365866,"is_reserved":false,"is_disabled":false,"rental_uris":{"android":"levelo://app?vid=dd5a8316-aac3-4746-b4ed-bc5be1057f37","ios":"levelo://app?vid=dd5a8316-aac3-4746-b4ed-bc5be1057f37"},"vehicle_type_id":"4","last_reported":1711390189,"current_range_meters":16400,"station_id":"ce4bgn12rcd13ifvqbt0","pricing_plan_id":"cebpf4jnsgd1na2vs0mg"},{"bike_id":"6f5ce82e-8d25-4702-8897-8fe0fd3ddd95","system_id":"levelo_inurba_marseille","lat":43.297163,"lon":5.365866,"is_reserved":false,"is_disabled":false,"rental_uris":{"android":"levelo://app?vid=6f5ce82e-8d25-4702-8897-8fe0fd3ddd95","ios":"levelo://app?vid=6f5ce82e-8d25-4702-8897-8fe0fd3ddd95"},"vehicle_type_id":"4","last_reported":1711390189,"current_range_meters":21200,"station_id":"ce4bgn12rcd13ifvqbt0","pricing_plan_id":"cebpf4jnsgd1na2vs0mg"},{"bike_id":"5baf230d-124e-4304-85df-0754824e08d7","system_id":"levelo_inurba_marseille","lat":43.297163,"lon":5.365866,"is_reserved":false,"is_disabled":false,"rental_uris":{"android":"levelo://app?vid=5baf230d-124e-4304-85df-0754824e08d7","ios":"levelo://app?vid=5baf230d-124e-4304-85df-0754824e08d7"},"vehicle_type_id":"4","last_reported":1711390189,"current_range_meters":30800,"station_id":"ce4bgn12rcd13ifvqbt0","pricing_plan_id":"cebpf4jnsgd1na2vs0mg"},{"bike_id":"db20db7b-4595-4731-8ba9-c3014681f63c","system_id":"levelo_inurba_marseille","lat":43.297163,"lon":5.365866,"is_reserved":false,"is_disabled":false,"rental_uris":{"android":"levelo://app?vid=db20db7b-4595-4731-8ba9-c3014681f63c","ios":"levelo://app?vid=db20db7b-4595-4731-8ba9-c3014681f63c"},"vehicle_type_id":"4","last_reported":1711390189,"current_range_meters":18800,"station_id":"ce4bgn12rcd13ifvqbt0","pricing_plan_id":"cebpf4jnsgd1na2vs0mg"},{"bike_id":"cc6de53c-688b-482c-aba1-71ea4e3a836b","system_id":"levelo_inurba_marseille","lat":43.297163,"lon":5.365866,"is_reserved":false,"is_disabled":false,"rental_uris":{"android":"levelo://app?vid=cc6de53c-688b-482c-aba1-71ea4e3a836b","ios":"levelo://app?vid=cc6de53c-688b-482c-aba1-71ea4e3a836b"},"vehicle_type_id":"4","last_reported":1711390189,"current_range_meters":7200,"station_id":"ce4bgn12rcd13ifvqbt0","pricing_plan_id":"cebpf4jnsgd1na2vs0mg"},{"bike_id":"0e04a6bf-e468-4409-99e7-cd66e0c443a9","system_id":"levelo_inurba_marseille","lat":43.297163,"lon":5.365866,"is_reserved":false,"is_disabled":false,"rental_uris":{"android":"levelo://app?vid=0e04a6bf-e468-4409-99e7-cd66e0c443a9","ios":"levelo://app?vid=0e04a6bf-e468-4409-99e7-cd66e0c443a9"},"vehicle_type_id":"4","last_reported":1711390189,"current_range_meters":800,"station_id":"ce4bgn12rcd13ifvqbt0","pricing_plan_id":"cebpf4jnsgd1na2vs0mg"},{"bike_id":"a38beb55-63af-4830-a98f-6231ecbb7180","system_id":"levelo_inurba_marseille","lat":43.297163,"lon":5.365866,"is_reserved":false,"is_disabled":false,"rental_uris":{"android":"levelo://app?vid=a38beb55-63af-4830-a98f-6231ecbb7180","ios":"levelo://app?vid=a38beb55-63af-4830-a98f-6231ecbb7180"},"vehicle_type_id":"4","last_reported":1711390189,"current_range_meters":13200,"station_id":"ce4bgn12rcd13ifvqbt0","pricing_plan_id":"cebpf4jnsgd1na2vs0mg"},{"bike_id":"d1081c21-8fe3-45c1-9163-f6393635e832","system_id":"levelo_inurba_marseille","lat":43.297163,"lon":5.365866,"is_reserved":false,"is_disabled":false,"rental_uris":{"android":"levelo://app?vid=d1081c21-8fe3-45c1-9163-f6393635e832","ios":"levelo://app?vid=d1081c21-8fe3-45c1-9163-f6393635e832"},"vehicle_type_id":"4","last_reported":1711390189,"current_range_meters":27200,"station_id":"ce4bgn12rcd13ifvqbt0","pricing_plan_id":"cebpf4jnsgd1na2vs0mg"},{"bike_id":"85a669f5-2610-4f20-8e1e-b7489f36a6fc","system_id":"levelo_inurba_marseille","lat":43.297163,"lon":5.365866,"is_reserved":false,"is_disabled":false,"rental_uris":{"android":"levelo://app?vid=85a669f5-2610-4f20-8e1e-b7489f36a6fc","ios":"levelo://app?vid=85a669f5-2610-4f20-8e1e-b7489f36a6fc"},"vehicle_type_id":"4","last_reported":1711390189,"current_range_meters":5200,"station_id":"ce4bgn12rcd13ifvqbt0","pricing_plan_id":"cebpf4jnsgd1na2vs0mg"},{"bike_id":"df1e6ea2-2d2a-4468-bf41-ca2da1e31172","system_id":"levelo_inurba_marseille","lat":43.31556,"lon":5.38842,"is_reserved":false,"is_disabled":false,"rental_uris":{"android":"levelo://app?vid=df1e6ea2-2d2a-4468-bf41-ca2da1e31172","ios":"levelo://app?vid=df1e6ea2-2d2a-4468-bf41-ca2da1e31172"},"vehicle_type_id":"4","last_reported":1711390189,"current_range_meters":10400,"station_id":"","pricing_plan_id":"cebpf4jnsgd1na2vs0mg"},{"bike_id":"338a3a6c-15a0-4ad2-8376-42ede2b7c842","system_id":"levelo_inurba_marseille","lat":43.299222,"lon":5.365554,"is_reserved":false,"is_disabled":false,"rental_uris":{"android":"levelo://app?vid=338a3a6c-15a0-4ad2-8376-42ede2b7c842","ios":"levelo://app?vid=338a3a6c-15a0-4ad2-8376-42ede2b7c842"},"vehicle_type_id":"4","last_reported":1711390189,"current_range_meters":400,"station_id":"ce4bgm92rcd13ifvqbr0","pricing_plan_id":"cebpf4jnsgd1na2vs0mg"},{"bike_id":"8b064251-d7b8-4a87-9510-762b2692927c","system_id":"levelo_inurba_marseille","lat":43.299028,"lon":5.381509,"is_reserved":false,"is_disabled":false,"rental_uris":{"android":"levelo://app?vid=8b064251-d7b8-4a87-9510-762b2692927c","ios":"levelo://app?vid=8b064251-d7b8-4a87-9510-762b2692927c"},"vehicle_type_id":"4","last_reported":1711390189,"current_range_meters":12000,"station_id":"ce4bgj12rcd13ifvqbc0","pricing_plan_id":"cebpf4jnsgd1na2vs0mg"},{"bike_id":"da820c1c-1fed-456c-86bc-512167abb381","system_id":"levelo_inurba_marseille","lat":43.317557,"lon":5.390173,"is_reserved":false,"is_disabled":false,"rental_uris":{"android":"levelo://app?vid=da820c1c-1fed-456c-86bc-512167abb381","ios":"levelo://app?vid=da820c1c-1fed-456c-86bc-512167abb381"},"vehicle_type_id":"4","last_reported":1711390189,"current_range_meters":30000,"station_id":"ce4bhqp2rcd13ifvqhng","pricing_plan_id":"cebpf4jnsgd1na2vs0mg"},{"bike_id":"94bfe1bf-49de-466d-9e16-402ab7320926","system_id":"levelo_inurba_marseille","lat":43.296131,"lon":5.370791,"is_reserved":false,"is_disabled":false,"rental_uris":{"android":"levelo://app?vid=94bfe1bf-49de-466d-9e16-402ab7320926","ios":"levelo://app?vid=94bfe1bf-49de-466d-9e16-402ab7320926"},"vehicle_type_id":"4","last_reported":1711390189,"current_range_meters":27200,"station_id":"ce4bgnh2rcd13ifvqc0g","pricing_plan_id":"cebpf4jnsgd1na2vs0mg"},{"bike_id":"5752b853-5d7f-4bea-b2f4-b82007eb4957","system_id":"levelo_inurba_marseille","lat":43.29622,"lon":5.37165,"is_reserved":false,"is_disabled":false,"rental_uris":{"android":"levelo://app?vid=5752b853-5d7f-4bea-b2f4-b82007eb4957","ios":"levelo://app?vid=5752b853-5d7f-4bea-b2f4-b82007eb4957"},"vehicle_type_id":"4","last_reported":1711390189,"current_range_meters":18800,"station_id":"ce4bgnh2rcd13ifvqc0g","pricing_plan_id":"cebpf4jnsgd1na2vs0mg"},{"bike_id":"da1c622d-b579-45ae-8293-9855c55fd3ea","system_id":"levelo_inurba_marseille","lat":43.296131,"lon":5.370791,"is_reserved":false,"is_disabled":false,"rental_uris":{"android":"levelo://app?vid=da1c622d-b579-45ae-8293-9855c55fd3ea","ios":"levelo://app?vid=da1c622d-b579-45ae-8293-9855c55fd3ea"},"vehicle_type_id":"4","last_reported":1711390189,"current_range_meters":28000,"station_id":"ce4bgnh2rcd13ifvqc0g","pricing_plan_id":"cebpf4jnsgd1na2vs0mg"},{"bike_id":"c0f59055-cb32-4fb6-91d9-6102a07e900f","system_id":"levelo_inurba_marseille","lat":43.29573,"lon":5.367355,"is_reserved":false,"is_disabled":false,"rental_uris":{"android":"levelo://app?vid=c0f59055-cb32-4fb6-91d9-6102a07e900f","ios":"levelo://app?vid=c0f59055-cb32-4fb6-91d9-6102a07e900f"},"vehicle_type_id":"4","last_reported":1711390189,"current_range_meters":28400,"station_id":"ce4bgph2rcd13ifvqc2g","pricing_plan_id":"cebpf4jnsgd1na2vs0mg"},{"bike_id":"9c811217-927c-47b4-a669-192d23f6012a","system_id":"levelo_inurba_marseille","lat":43.29575,"lon":5.36732,"is_reserved":false,"is_disabled":false,"rental_uris":{"android":"levelo://app?vid=9c811217-927c-47b4-a669-192d23f6012a","ios":"levelo://app?vid=9c811217-927c-47b4-a669-192d23f6012a"},"vehicle_type_id":"4","last_reported":1711390189,"current_range_meters":23200,"station_id":"ce4bgph2rcd13ifvqc2g","pricing_plan_id":"cebpf4jnsgd1na2vs0mg"},{"bike_id":"08bb013c-9906-4334-9aac-a268188ecc18","system_id":"levelo_inurba_marseille","lat":43.30947,"lon":5.39009,"is_reserved":false,"is_disabled":false,"rental_uris":{"android":"levelo://app?vid=08bb013c-9906-4334-9aac-a268188ecc18","ios":"levelo://app?vid=08bb013c-9906-4334-9aac-a268188ecc18"},"vehicle_type_id":"4","last_reported":1711390189,"current_range_meters":17200,"station_id":"","pricing_plan_id":"cebpf4jnsgd1na2vs0mg"},{"bike_id":"319763d8-c146-4d0b-b0f6-d47e97f2b4a0","system_id":"levelo_inurba_marseille","lat":43.299028,"lon":5.381509,"is_reserved":false,"is_disabled":false,"rental_uris":{"android":"levelo://app?vid=319763d8-c146-4d0b-b0f6-d47e97f2b4a0","ios":"levelo://app?vid=319763d8-c146-4d0b-b0f6-d47e97f2b4a0"},"vehicle_type_id":"4","last_reported":1711390189,"current_range_meters":11200,"station_id":"ce4bgj12rcd13ifvqbc0","pricing_plan_id":"cebpf4jnsgd1na2vs0mg"},{"bike_id":"8ba22294-92ae-4be2-9fd0-b3c28535b08c","system_id":"levelo_inurba_marseille","lat":43.299028,"lon":5.381509,"is_reserved":false,"is_disabled":false,"rental_uris":{"android":"levelo://app?vid=8ba22294-92ae-4be2-9fd0-b3c28535b08c","ios":"levelo://app?vid=8ba22294-92ae-4be2-9fd0-b3c28535b08c"},"vehicle_type_id":"4","last_reported":1711390189,"current_range_meters":26000,"station_id":"ce4bgj12rcd13ifvqbc0","pricing_plan_id":"cebpf4jnsgd1na2vs0mg"},{"bike_id":"c7d74c21-23a8-4e30-81fd-a49895d15dd9","system_id":"levelo_inurba_marseille","lat":43.299028,"lon":5.381509,"is_reserved":false,"is_disabled":false,"rental_uris":{"android":"levelo://app?vid=c7d74c21-23a8-4e30-81fd-a49895d15dd9","ios":"levelo://app?vid=c7d74c21-23a8-4e30-81fd-a49895d15dd9"},"vehicle_type_id":"4","last_reported":1711390189,"current_range_meters":24400,"station_id":"ce4bgj12rcd13ifvqbc0","pricing_plan_id":"cebpf4jnsgd1na2vs0mg"},{"bike_id":"eec4f859-dfc0-4e3f-92e8-e97dd69ad0dc","system_id":"levelo_inurba_marseille","lat":43.299028,"lon":5.381509,"is_reserved":false,"is_disabled":false,"rental_uris":{"android":"levelo://app?vid=eec4f859-dfc0-4e3f-92e8-e97dd69ad0dc","ios":"levelo://app?vid=eec4f859-dfc0-4e3f-92e8-e97dd69ad0dc"},"vehicle_type_id":"4","last_reported":1711390189,"current_range_meters":6000,"station_id":"ce4bgj12rcd13ifvqbc0","pricing_plan_id":"cebpf4jnsgd1na2vs0mg"},{"bike_id":"57b78bee-67fd-4bd7-a6c2-9373e7b015e7","system_id":"levelo_inurba_marseille","lat":43.299028,"lon":5.381509,"is_reserved":false,"is_disabled":false,"rental_uris":{"android":"levelo://app?vid=57b78bee-67fd-4bd7-a6c2-9373e7b015e7","ios":"levelo://app?vid=57b78bee-67fd-4bd7-a6c2-9373e7b015e7"},"vehicle_type_id":"4","last_reported":1711390189,"current_range_meters":400,"station_id":"ce4bgj12rcd13ifvqbc0","pricing_plan_id":"cebpf4jnsgd1na2vs0mg"},{"bike_id":"ccd9e593-11f3-49df-920f-d2022d266760","system_id":"levelo_inurba_marseille","lat":43.299028,"lon":5.381509,"is_reserved":false,"is_disabled":false,"rental_uris":{"android":"levelo://app?vid=ccd9e593-11f3-49df-920f-d2022d266760","ios":"levelo://app?vid=ccd9e593-11f3-49df-920f-d2022d266760"},"vehicle_type_id":"4","last_reported":1711390189,"current_range_meters":9200,"station_id":"ce4bgj12rcd13ifvqbc0","pricing_plan_id":"cebpf4jnsgd1na2vs0mg"},{"bike_id":"ba604b5d-6af2-4130-bbad-3bdba9b3ab6b","system_id":"levelo_inurba_marseille","lat":43.309589,"lon":5.390258,"is_reserved":false,"is_disabled":false,"rental_uris":{"android":"levelo://app?vid=ba604b5d-6af2-4130-bbad-3bdba9b3ab6b","ios":"levelo://app?vid=ba604b5d-6af2-4130-bbad-3bdba9b3ab6b"},"vehicle_type_id":"4","last_reported":1711390189,"current_range_meters":1600,"station_id":"ce4bgup2rcd13ifvqco0","pricing_plan_id":"cebpf4jnsgd1na2vs0mg"},{"bike_id":"edd38c87-5e73-4b22-b467-f3dd76724561","system_id":"levelo_inurba_marseille","lat":43.309589,"lon":5.390258,"is_reserved":false,"is_disabled":false,"rental_uris":{"android":"levelo://app?vid=edd38c87-5e73-4b22-b467-f3dd76724561","ios":"levelo://app?vid=edd38c87-5e73-4b22-b467-f3dd76724561"},"vehicle_type_id":"4","last_reported":1711390189,"current_range_meters":25200,"station_id":"ce4bgup2rcd13ifvqco0","pricing_plan_id":"cebpf4jnsgd1na2vs0mg"},{"bike_id":"40ad8793-9e43-4e04-a119-8ee66409f2a6","system_id":"levelo_inurba_marseille","lat":43.309589,"lon":5.390258,"is_reserved":false,"is_disabled":false,"rental_uris":{"android":"levelo://app?vid=40ad8793-9e43-4e04-a119-8ee66409f2a6","ios":"levelo://app?vid=40ad8793-9e43-4e04-a119-8ee66409f2a6"},"vehicle_type_id":"4","last_reported":1711390189,"current_range_meters":15200,"station_id":"ce4bgup2rcd13ifvqco0","pricing_plan_id":"cebpf4jnsgd1na2vs0mg"},{"bike_id":"279ffde6-1d7a-48e7-9fa5-76b2e4d98bb5","system_id":"levelo_inurba_marseille","lat":43.299028,"lon":5.381509,"is_reserved":false,"is_disabled":false,"rental_uris":{"android":"levelo://app?vid=279ffde6-1d7a-48e7-9fa5-76b2e4d98bb5","ios":"levelo://app?vid=279ffde6-1d7a-48e7-9fa5-76b2e4d98bb5"},"vehicle_type_id":"4","last_reported":1711390189,"current_range_meters":26000,"station_id":"ce4bgj12rcd13ifvqbc0","pricing_plan_id":"cebpf4jnsgd1na2vs0mg"},{"bike_id":"6c536db1-107c-4916-b2b4-6e379f89ac86","system_id":"levelo_inurba_marseille","lat":43.299028,"lon":5.381509,"is_reserved":false,"is_disabled":false,"rental_uris":{"android":"levelo://app?vid=6c536db1-107c-4916-b2b4-6e379f89ac86","ios":"levelo://app?vid=6c536db1-107c-4916-b2b4-6e379f89ac86"},"vehicle_type_id":"4","last_reported":1711390189,"current_range_meters":16000,"station_id":"ce4bgj12rcd13ifvqbc0","pricing_plan_id":"cebpf4jnsgd1na2vs0mg"},{"bike_id":"1fab8489-ff01-42d8-80e0-7780870fe58b","system_id":"levelo_inurba_marseille","lat":43.30947,"lon":5.39032,"is_reserved":false,"is_disabled":false,"rental_uris":{"android":"levelo://app?vid=1fab8489-ff01-42d8-80e0-7780870fe58b","ios":"levelo://app?vid=1fab8489-ff01-42d8-80e0-7780870fe58b"},"vehicle_type_id":"4","last_reported":1711390189,"current_range_meters":0,"station_id":"ce4bgup2rcd13ifvqco0","pricing_plan_id":"cebpf4jnsgd1na2vs0mg"},{"bike_id":"725adf9a-5f69-4413-a99b-a54efb88c760","system_id":"levelo_inurba_marseille","lat":43.299028,"lon":5.381509,"is_reserved":false,"is_disabled":false,"rental_uris":{"android":"levelo://app?vid=725adf9a-5f69-4413-a99b-a54efb88c760","ios":"levelo://app?vid=725adf9a-5f69-4413-a99b-a54efb88c760"},"vehicle_type_id":"4","last_reported":1711390189,"current_range_meters":31600,"station_id":"ce4bgj12rcd13ifvqbc0","pricing_plan_id":"cebpf4jnsgd1na2vs0mg"},{"bike_id":"955e23fb-88c9-4da1-b661-4a3624b4e31f","system_id":"levelo_inurba_marseille","lat":43.299028,"lon":5.381509,"is_reserved":false,"is_disabled":false,"rental_uris":{"android":"levelo://app?vid=955e23fb-88c9-4da1-b661-4a3624b4e31f","ios":"levelo://app?vid=955e23fb-88c9-4da1-b661-4a3624b4e31f"},"vehicle_type_id":"4","last_reported":1711390189,"current_range_meters":30000,"station_id":"ce4bgj12rcd13ifvqbc0","pricing_plan_id":"cebpf4jnsgd1na2vs0mg"},{"bike_id":"d5f55ddd-68b1-43b4-a156-720154add23b","system_id":"levelo_inurba_marseille","lat":43.317101,"lon":5.390051,"is_reserved":false,"is_disabled":false,"rental_uris":{"android":"levelo://app?vid=d5f55ddd-68b1-43b4-a156-720154add23b","ios":"levelo://app?vid=d5f55ddd-68b1-43b4-a156-720154add23b"},"vehicle_type_id":"4","last_reported":1711390189,"current_range_meters":0,"station_id":"ce4bhqp2rcd13ifvqhng","pricing_plan_id":"cebpf4jnsgd1na2vs0mg"},{"bike_id":"8926f7fa-81d7-4e63-98b0-0243d4914803","system_id":"levelo_inurba_marseille","lat":43.309589,"lon":5.390258,"is_reserved":false,"is_disabled":false,"rental_uris":{"android":"levelo://app?vid=8926f7fa-81d7-4e63-98b0-0243d4914803","ios":"levelo://app?vid=8926f7fa-81d7-4e63-98b0-0243d4914803"},"vehicle_type_id":"4","last_reported":1711390189,"current_range_meters":6400,"station_id":"ce4bgup2rcd13ifvqco0","pricing_plan_id":"cebpf4jnsgd1na2vs0mg"},{"bike_id":"ab679f16-ddbd-477f-a751-6b1e3db94117","system_id":"levelo_inurba_marseille","lat":43.299028,"lon":5.381509,"is_reserved":false,"is_disabled":false,"rental_uris":{"android":"levelo://app?vid=ab679f16-ddbd-477f-a751-6b1e3db94117","ios":"levelo://app?vid=ab679f16-ddbd-477f-a751-6b1e3db94117"},"vehicle_type_id":"4","last_reported":1711390189,"current_range_meters":16400,"station_id":"ce4bgj12rcd13ifvqbc0","pricing_plan_id":"cebpf4jnsgd1na2vs0mg"},{"bike_id":"74974c3e-a3ed-4db4-862b-8a3a954f9899","system_id":"levelo_inurba_marseille","lat":43.317557,"lon":5.390173,"is_reserved":false,"is_disabled":false,"rental_uris":{"android":"levelo://app?vid=74974c3e-a3ed-4db4-862b-8a3a954f9899","ios":"levelo://app?vid=74974c3e-a3ed-4db4-862b-8a3a954f9899"},"vehicle_type_id":"4","last_reported":1711390189,"current_range_meters":12400,"station_id":"ce4bhqp2rcd13ifvqhng","pricing_plan_id":"cebpf4jnsgd1na2vs0mg"},{"bike_id":"73794d5b-da1c-4c5f-96bc-6ab927199bbe","system_id":"levelo_inurba_marseille","lat":43.317557,"lon":5.390173,"is_reserved":false,"is_disabled":false,"rental_uris":{"android":"levelo://app?vid=73794d5b-da1c-4c5f-96bc-6ab927199bbe","ios":"levelo://app?vid=73794d5b-da1c-4c5f-96bc-6ab927199bbe"},"vehicle_type_id":"4","last_reported":1711390189,"current_range_meters":25600,"station_id":"ce4bhqp2rcd13ifvqhng","pricing_plan_id":"cebpf4jnsgd1na2vs0mg"},{"bike_id":"a931c455-d728-49e7-b88a-2acee71fb49c","system_id":"levelo_inurba_marseille","lat":43.317557,"lon":5.390173,"is_reserved":false,"is_disabled":false,"rental_uris":{"android":"levelo://app?vid=a931c455-d728-49e7-b88a-2acee71fb49c","ios":"levelo://app?vid=a931c455-d728-49e7-b88a-2acee71fb49c"},"vehicle_type_id":"4","last_reported":1711390189,"current_range_meters":22400,"station_id":"ce4bhqp2rcd13ifvqhng","pricing_plan_id":"cebpf4jnsgd1na2vs0mg"},{"bike_id":"61811189-75cf-4d15-a6f4-1f7399341d0f","system_id":"levelo_inurba_marseille","lat":43.31758,"lon":5.39015,"is_reserved":false,"is_disabled":false,"rental_uris":{"android":"levelo://app?vid=61811189-75cf-4d15-a6f4-1f7399341d0f","ios":"levelo://app?vid=61811189-75cf-4d15-a6f4-1f7399341d0f"},"vehicle_type_id":"4","last_reported":1711390189,"current_range_meters":14800,"station_id":"ce4bhqp2rcd13ifvqhng","pricing_plan_id":"cebpf4jnsgd1na2vs0mg"},{"bike_id":"96880fb3-9072-474a-b7df-b58771331d89","system_id":"levelo_inurba_marseille","lat":43.31752,"lon":5.3902,"is_reserved":false,"is_disabled":false,"rental_uris":{"android":"levelo://app?vid=96880fb3-9072-474a-b7df-b58771331d89","ios":"levelo://app?vid=96880fb3-9072-474a-b7df-b58771331d89"},"vehicle_type_id":"4","last_reported":1711390189,"current_range_meters":14800,"station_id":"ce4bhqp2rcd13ifvqhng","pricing_plan_id":"cebpf4jnsgd1na2vs0mg"},{"bike_id":"83108d97-d6fa-4d19-b3b0-1dbede4bac67","system_id":"levelo_inurba_marseille","lat":43.31755,"lon":5.39021,"is_reserved":false,"is_disabled":false,"rental_uris":{"android":"levelo://app?vid=83108d97-d6fa-4d19-b3b0-1dbede4bac67","ios":"levelo://app?vid=83108d97-d6fa-4d19-b3b0-1dbede4bac67"},"vehicle_type_id":"4","last_reported":1711390189,"current_range_meters":17200,"station_id":"ce4bhqp2rcd13ifvqhng","pricing_plan_id":"cebpf4jnsgd1na2vs0mg"},{"bike_id":"5a0fd1d2-8e65-443e-9fca-b2ba02caa8e8","system_id":"levelo_inurba_marseille","lat":43.31757,"lon":5.39021,"is_reserved":false,"is_disabled":false,"rental_uris":{"android":"levelo://app?vid=5a0fd1d2-8e65-443e-9fca-b2ba02caa8e8","ios":"levelo://app?vid=5a0fd1d2-8e65-443e-9fca-b2ba02caa8e8"},"vehicle_type_id":"4","last_reported":1711390189,"current_range_meters":25600,"station_id":"ce4bhqp2rcd13ifvqhng","pricing_plan_id":"cebpf4jnsgd1na2vs0mg"},{"bike_id":"d642746c-c3b3-4993-8c11-edc5a35ab173","system_id":"levelo_inurba_marseille","lat":43.3176,"lon":5.39021,"is_reserved":false,"is_disabled":false,"rental_uris":{"android":"levelo://app?vid=d642746c-c3b3-4993-8c11-edc5a35ab173","ios":"levelo://app?vid=d642746c-c3b3-4993-8c11-edc5a35ab173"},"vehicle_type_id":"4","last_reported":1711390189,"current_range_meters":26400,"station_id":"ce4bhqp2rcd13ifvqhng","pricing_plan_id":"cebpf4jnsgd1na2vs0mg"},{"bike_id":"eb17bc20-5992-448c-bde1-8b5a3dc5b909","system_id":"levelo_inurba_marseille","lat":43.298037,"lon":5.381066,"is_reserved":false,"is_disabled":false,"rental_uris":{"android":"levelo://app?vid=eb17bc20-5992-448c-bde1-8b5a3dc5b909","ios":"levelo://app?vid=eb17bc20-5992-448c-bde1-8b5a3dc5b909"},"vehicle_type_id":"4","last_reported":1711390189,"current_range_meters":2000,"station_id":"ce4bgip2rcd13ifvqbb0","pricing_plan_id":"cebpf4jnsgd1na2vs0mg"},{"bike_id":"4bf22dce-9c2b-48f0-baaf-41ed4f0acd51","system_id":"levelo_inurba_marseille","lat":43.29664,"lon":5.377567,"is_reserved":false,"is_disabled":false,"rental_uris":{"android":"levelo://app?vid=4bf22dce-9c2b-48f0-baaf-41ed4f0acd51","ios":"levelo://app?vid=4bf22dce-9c2b-48f0-baaf-41ed4f0acd51"},"vehicle_type_id":"4","last_reported":1711390189,"current_range_meters":8000,"station_id":"","pricing_plan_id":"cebpf4jnsgd1na2vs0mg"},{"bike_id":"7492b609-bf5e-4cfb-9f75-6433539c6169","system_id":"levelo_inurba_marseille","lat":43.298037,"lon":5.381066,"is_reserved":false,"is_disabled":false,"rental_uris":{"android":"levelo://app?vid=7492b609-bf5e-4cfb-9f75-6433539c6169","ios":"levelo://app?vid=7492b609-bf5e-4cfb-9f75-6433539c6169"},"vehicle_type_id":"4","last_reported":1711390189,"current_range_meters":18800,"station_id":"ce4bgip2rcd13ifvqbb0","pricing_plan_id":"cebpf4jnsgd1na2vs0mg"},{"bike_id":"054286f3-dcfd-43ed-a4c3-b31f9b4c7ac3","system_id":"levelo_inurba_marseille","lat":43.298037,"lon":5.381066,"is_reserved":false,"is_disabled":false,"rental_uris":{"android":"levelo://app?vid=054286f3-dcfd-43ed-a4c3-b31f9b4c7ac3","ios":"levelo://app?vid=054286f3-dcfd-43ed-a4c3-b31f9b4c7ac3"},"vehicle_type_id":"4","last_reported":1711390189,"current_range_meters":12400,"station_id":"ce4bgip2rcd13ifvqbb0","pricing_plan_id":"cebpf4jnsgd1na2vs0mg"},{"bike_id":"66ab5d9a-3e79-4eca-a492-42c55d45a707","system_id":"levelo_inurba_marseille","lat":43.298037,"lon":5.381066,"is_reserved":false,"is_disabled":false,"rental_uris":{"android":"levelo://app?vid=66ab5d9a-3e79-4eca-a492-42c55d45a707","ios":"levelo://app?vid=66ab5d9a-3e79-4eca-a492-42c55d45a707"},"vehicle_type_id":"4","last_reported":1711390189,"current_range_meters":16800,"station_id":"ce4bgip2rcd13ifvqbb0","pricing_plan_id":"cebpf4jnsgd1na2vs0mg"},{"bike_id":"b271fd57-c592-4cf9-9ac3-bcb11669b8fc","system_id":"levelo_inurba_marseille","lat":43.298037,"lon":5.381066,"is_reserved":false,"is_disabled":false,"rental_uris":{"android":"levelo://app?vid=b271fd57-c592-4cf9-9ac3-bcb11669b8fc","ios":"levelo://app?vid=b271fd57-c592-4cf9-9ac3-bcb11669b8fc"},"vehicle_type_id":"4","last_reported":1711390189,"current_range_meters":14000,"station_id":"ce4bgip2rcd13ifvqbb0","pricing_plan_id":"cebpf4jnsgd1na2vs0mg"},{"bike_id":"82b9cced-47d8-455b-820c-feb9c373bfe9","system_id":"levelo_inurba_marseille","lat":43.298037,"lon":5.381066,"is_reserved":false,"is_disabled":false,"rental_uris":{"android":"levelo://app?vid=82b9cced-47d8-455b-820c-feb9c373bfe9","ios":"levelo://app?vid=82b9cced-47d8-455b-820c-feb9c373bfe9"},"vehicle_type_id":"4","last_reported":1711390189,"current_range_meters":17200,"station_id":"ce4bgip2rcd13ifvqbb0","pricing_plan_id":"cebpf4jnsgd1na2vs0mg"},{"bike_id":"6af05422-7c75-4113-85af-a169fa3dabdf","system_id":"levelo_inurba_marseille","lat":43.298037,"lon":5.381066,"is_reserved":false,"is_disabled":false,"rental_uris":{"android":"levelo://app?vid=6af05422-7c75-4113-85af-a169fa3dabdf","ios":"levelo://app?vid=6af05422-7c75-4113-85af-a169fa3dabdf"},"vehicle_type_id":"4","last_reported":1711390189,"current_range_meters":20800,"station_id":"ce4bgip2rcd13ifvqbb0","pricing_plan_id":"cebpf4jnsgd1na2vs0mg"},{"bike_id":"d70c3556-a3a6-42b7-8d6c-938f6075094e","system_id":"levelo_inurba_marseille","lat":43.304278,"lon":5.388868,"is_reserved":false,"is_disabled":false,"rental_uris":{"android":"levelo://app?vid=d70c3556-a3a6-42b7-8d6c-938f6075094e","ios":"levelo://app?vid=d70c3556-a3a6-42b7-8d6c-938f6075094e"},"vehicle_type_id":"4","last_reported":1711390189,"current_range_meters":26800,"station_id":"ce4bgk12rcd13ifvqbi0","pricing_plan_id":"cebpf4jnsgd1na2vs0mg"},{"bike_id":"dc5c9905-7f6d-41a6-af08-3f889ebd878e","system_id":"levelo_inurba_marseille","lat":43.298037,"lon":5.381066,"is_reserved":false,"is_disabled":false,"rental_uris":{"android":"levelo://app?vid=dc5c9905-7f6d-41a6-af08-3f889ebd878e","ios":"levelo://app?vid=dc5c9905-7f6d-41a6-af08-3f889ebd878e"},"vehicle_type_id":"4","last_reported":1711390189,"current_range_meters":14800,"station_id":"ce4bgip2rcd13ifvqbb0","pricing_plan_id":"cebpf4jnsgd1na2vs0mg"},{"bike_id":"64ba32f0-8781-4ee2-93a7-1b52652e2fc9","system_id":"levelo_inurba_marseille","lat":43.295748,"lon":5.37522,"is_reserved":false,"is_disabled":false,"rental_uris":{"android":"levelo://app?vid=64ba32f0-8781-4ee2-93a7-1b52652e2fc9","ios":"levelo://app?vid=64ba32f0-8781-4ee2-93a7-1b52652e2fc9"},"vehicle_type_id":"4","last_reported":1711390189,"current_range_meters":4000,"station_id":"ce4bgh92rcd13ifvqb50","pricing_plan_id":"cebpf4jnsgd1na2vs0mg"},{"bike_id":"205d3c70-a0c7-4b40-b032-43651a02c1c1","system_id":"levelo_inurba_marseille","lat":43.298037,"lon":5.381066,"is_reserved":false,"is_disabled":false,"rental_uris":{"android":"levelo://app?vid=205d3c70-a0c7-4b40-b032-43651a02c1c1","ios":"levelo://app?vid=205d3c70-a0c7-4b40-b032-43651a02c1c1"},"vehicle_type_id":"4","last_reported":1711390189,"current_range_meters":4400,"station_id":"ce4bgip2rcd13ifvqbb0","pricing_plan_id":"cebpf4jnsgd1na2vs0mg"},{"bike_id":"e184f1b1-d224-4ab0-892b-5200dee3f64a","system_id":"levelo_inurba_marseille","lat":43.304274,"lon":5.388873,"is_reserved":false,"is_disabled":false,"rental_uris":{"android":"levelo://app?vid=e184f1b1-d224-4ab0-892b-5200dee3f64a","ios":"levelo://app?vid=e184f1b1-d224-4ab0-892b-5200dee3f64a"},"vehicle_type_id":"4","last_reported":1711390189,"current_range_meters":15600,"station_id":"ce4bgk12rcd13ifvqbi0","pricing_plan_id":"cebpf4jnsgd1na2vs0mg"},{"bike_id":"617b0e6f-676e-40f0-bbaf-c9395e5b4dcd","system_id":"levelo_inurba_marseille","lat":43.314748,"lon":5.391556,"is_reserved":false,"is_disabled":false,"rental_uris":{"android":"levelo://app?vid=617b0e6f-676e-40f0-bbaf-c9395e5b4dcd","ios":"levelo://app?vid=617b0e6f-676e-40f0-bbaf-c9395e5b4dcd"},"vehicle_type_id":"4","last_reported":1711390189,"current_range_meters":1600,"station_id":"","pricing_plan_id":"cebpf4jnsgd1na2vs0mg"},{"bike_id":"c0f102ad-f3de-4602-9d24-0c03e55544f7","system_id":"levelo_inurba_marseille","lat":43.284538,"lon":5.358657,"is_reserved":false,"is_disabled":false,"rental_uris":{"android":"levelo://app?vid=c0f102ad-f3de-4602-9d24-0c03e55544f7","ios":"levelo://app?vid=c0f102ad-f3de-4602-9d24-0c03e55544f7"},"vehicle_type_id":"4","last_reported":1711390189,"current_range_meters":6400,"station_id":"ce4bhah2rcd13ifvqei0","pricing_plan_id":"cebpf4jnsgd1na2vs0mg"},{"bike_id":"fa7da24d-5974-449f-a35e-14a7dfad0ab5","system_id":"levelo_inurba_marseille","lat":43.304278,"lon":5.388868,"is_reserved":false,"is_disabled":false,"rental_uris":{"android":"levelo://app?vid=fa7da24d-5974-449f-a35e-14a7dfad0ab5","ios":"levelo://app?vid=fa7da24d-5974-449f-a35e-14a7dfad0ab5"},"vehicle_type_id":"4","last_reported":1711390189,"current_range_meters":20400,"station_id":"ce4bgk12rcd13ifvqbi0","pricing_plan_id":"cebpf4jnsgd1na2vs0mg"},{"bike_id":"20b679ca-da89-4d88-b462-a4937116bb53","system_id":"levelo_inurba_marseille","lat":43.298037,"lon":5.381066,"is_reserved":false,"is_disabled":false,"rental_uris":{"android":"levelo://app?vid=20b679ca-da89-4d88-b462-a4937116bb53","ios":"levelo://app?vid=20b679ca-da89-4d88-b462-a4937116bb53"},"vehicle_type_id":"4","last_reported":1711390189,"current_range_meters":13600,"station_id":"ce4bgip2rcd13ifvqbb0","pricing_plan_id":"cebpf4jnsgd1na2vs0mg"},{"bike_id":"c53fb633-8406-412f-a1a7-11a6d3affcf5","system_id":"levelo_inurba_marseille","lat":43.298037,"lon":5.381066,"is_reserved":false,"is_disabled":false,"rental_uris":{"android":"levelo://app?vid=c53fb633-8406-412f-a1a7-11a6d3affcf5","ios":"levelo://app?vid=c53fb633-8406-412f-a1a7-11a6d3affcf5"},"vehicle_type_id":"4","last_reported":1711390189,"current_range_meters":5600,"station_id":"ce4bgip2rcd13ifvqbb0","pricing_plan_id":"cebpf4jnsgd1na2vs0mg"},{"bike_id":"719862f6-78a0-4539-929e-10936c2762f9","system_id":"levelo_inurba_marseille","lat":43.304425,"lon":5.388955,"is_reserved":false,"is_disabled":false,"rental_uris":{"android":"levelo://app?vid=719862f6-78a0-4539-929e-10936c2762f9","ios":"levelo://app?vid=719862f6-78a0-4539-929e-10936c2762f9"},"vehicle_type_id":"4","last_reported":1711390189,"current_range_meters":26800,"station_id":"ce4bgk12rcd13ifvqbi0","pricing_plan_id":"cebpf4jnsgd1na2vs0mg"},{"bike_id":"46db2999-9f83-4a2b-b970-9a66b7ca947d","system_id":"levelo_inurba_marseille","lat":43.298037,"lon":5.381066,"is_reserved":false,"is_disabled":false,"rental_uris":{"android":"levelo://app?vid=46db2999-9f83-4a2b-b970-9a66b7ca947d","ios":"levelo://app?vid=46db2999-9f83-4a2b-b970-9a66b7ca947d"},"vehicle_type_id":"4","last_reported":1711390189,"current_range_meters":14800,"station_id":"ce4bgip2rcd13ifvqbb0","pricing_plan_id":"cebpf4jnsgd1na2vs0mg"},{"bike_id":"9a676102-78b8-4644-ad1d-fadc8eabb8b2","system_id":"levelo_inurba_marseille","lat":43.296249,"lon":5.377386,"is_reserved":false,"is_disabled":false,"rental_uris":{"android":"levelo://app?vid=9a676102-78b8-4644-ad1d-fadc8eabb8b2","ios":"levelo://app?vid=9a676102-78b8-4644-ad1d-fadc8eabb8b2"},"vehicle_type_id":"4","last_reported":1711390189,"current_range_meters":0,"station_id":"ce4bgi92rcd13ifvqb90","pricing_plan_id":"cebpf4jnsgd1na2vs0mg"},{"bike_id":"f35a1b83-86f8-4ac0-9a6b-b53e880633fe","system_id":"levelo_inurba_marseille","lat":43.298037,"lon":5.381066,"is_reserved":false,"is_disabled":false,"rental_uris":{"android":"levelo://app?vid=f35a1b83-86f8-4ac0-9a6b-b53e880633fe","ios":"levelo://app?vid=f35a1b83-86f8-4ac0-9a6b-b53e880633fe"},"vehicle_type_id":"4","last_reported":1711390189,"current_range_meters":6400,"station_id":"ce4bgip2rcd13ifvqbb0","pricing_plan_id":"cebpf4jnsgd1na2vs0mg"},{"bike_id":"5604c2f2-5b50-473e-9ff6-f210e7a5610b","system_id":"levelo_inurba_marseille","lat":43.295279,"lon":5.375048,"is_reserved":false,"is_disabled":false,"rental_uris":{"android":"levelo://app?vid=5604c2f2-5b50-473e-9ff6-f210e7a5610b","ios":"levelo://app?vid=5604c2f2-5b50-473e-9ff6-f210e7a5610b"},"vehicle_type_id":"4","last_reported":1711390189,"current_range_meters":1600,"station_id":"ce4bgkp2rcd13ifvqbmg","pricing_plan_id":"cebpf4jnsgd1na2vs0mg"},{"bike_id":"bf9bf615-bce6-4b76-a67d-ae2385bcd89c","system_id":"levelo_inurba_marseille","lat":43.31462,"lon":5.391977,"is_reserved":false,"is_disabled":false,"rental_uris":{"android":"levelo://app?vid=bf9bf615-bce6-4b76-a67d-ae2385bcd89c","ios":"levelo://app?vid=bf9bf615-bce6-4b76-a67d-ae2385bcd89c"},"vehicle_type_id":"4","last_reported":1711390189,"current_range_meters":27600,"station_id":"","pricing_plan_id":"cebpf4jnsgd1na2vs0mg"},{"bike_id":"8e66b882-b132-4e87-b298-b0e8eba60993","system_id":"levelo_inurba_marseille","lat":43.299707,"lon":5.384859,"is_reserved":false,"is_disabled":false,"rental_uris":{"android":"levelo://app?vid=8e66b882-b132-4e87-b298-b0e8eba60993","ios":"levelo://app?vid=8e66b882-b132-4e87-b298-b0e8eba60993"},"vehicle_type_id":"4","last_reported":1711390189,"current_range_meters":14800,"station_id":"ce4bgj92rcd13ifvqbd0","pricing_plan_id":"cebpf4jnsgd1na2vs0mg"},{"bike_id":"d224689a-087b-4960-a62d-431b7defcfaa","system_id":"levelo_inurba_marseille","lat":43.298037,"lon":5.381066,"is_reserved":false,"is_disabled":false,"rental_uris":{"android":"levelo://app?vid=d224689a-087b-4960-a62d-431b7defcfaa","ios":"levelo://app?vid=d224689a-087b-4960-a62d-431b7defcfaa"},"vehicle_type_id":"4","last_reported":1711390189,"current_range_meters":22400,"station_id":"ce4bgip2rcd13ifvqbb0","pricing_plan_id":"cebpf4jnsgd1na2vs0mg"},{"bike_id":"fa5c3893-8bd7-4ede-a002-bbc566ec9e50","system_id":"levelo_inurba_marseille","lat":43.295279,"lon":5.375048,"is_reserved":false,"is_disabled":false,"rental_uris":{"android":"levelo://app?vid=fa5c3893-8bd7-4ede-a002-bbc566ec9e50","ios":"levelo://app?vid=fa5c3893-8bd7-4ede-a002-bbc566ec9e50"},"vehicle_type_id":"4","last_reported":1711390189,"current_range_meters":0,"station_id":"ce4bgkp2rcd13ifvqbmg","pricing_plan_id":"cebpf4jnsgd1na2vs0mg"},{"bike_id":"513e8a6e-7bf4-4d8e-906c-6c2e9280826b","system_id":"levelo_inurba_marseille","lat":43.298037,"lon":5.381066,"is_reserved":false,"is_disabled":false,"rental_uris":{"android":"levelo://app?vid=513e8a6e-7bf4-4d8e-906c-6c2e9280826b","ios":"levelo://app?vid=513e8a6e-7bf4-4d8e-906c-6c2e9280826b"},"vehicle_type_id":"4","last_reported":1711390189,"current_range_meters":11200,"station_id":"ce4bgip2rcd13ifvqbb0","pricing_plan_id":"cebpf4jnsgd1na2vs0mg"},{"bike_id":"0a66ac42-13c7-4504-9157-351f020e578c","system_id":"levelo_inurba_marseille","lat":43.295279,"lon":5.375048,"is_reserved":false,"is_disabled":false,"rental_uris":{"android":"levelo://app?vid=0a66ac42-13c7-4504-9157-351f020e578c","ios":"levelo://app?vid=0a66ac42-13c7-4504-9157-351f020e578c"},"vehicle_type_id":"4","last_reported":1711390189,"current_range_meters":22800,"station_id":"ce4bgkp2rcd13ifvqbmg","pricing_plan_id":"cebpf4jnsgd1na2vs0mg"},{"bike_id":"be699e61-b5d8-4f59-a255-c01a1d9d461f","system_id":"levelo_inurba_marseille","lat":43.299724,"lon":5.384848,"is_reserved":false,"is_disabled":false,"rental_uris":{"android":"levelo://app?vid=be699e61-b5d8-4f59-a255-c01a1d9d461f","ios":"levelo://app?vid=be699e61-b5d8-4f59-a255-c01a1d9d461f"},"vehicle_type_id":"4","last_reported":1711390189,"current_range_meters":400,"station_id":"ce4bgj92rcd13ifvqbd0","pricing_plan_id":"cebpf4jnsgd1na2vs0mg"},{"bike_id":"ef7021ad-c040-4e14-9dcb-9ee2b0a92be3","system_id":"levelo_inurba_marseille","lat":43.298037,"lon":5.381066,"is_reserved":false,"is_disabled":false,"rental_uris":{"android":"levelo://app?vid=ef7021ad-c040-4e14-9dcb-9ee2b0a92be3","ios":"levelo://app?vid=ef7021ad-c040-4e14-9dcb-9ee2b0a92be3"},"vehicle_type_id":"4","last_reported":1711390189,"current_range_meters":12800,"station_id":"ce4bgip2rcd13ifvqbb0","pricing_plan_id":"cebpf4jnsgd1na2vs0mg"},{"bike_id":"05eddafb-518c-4a16-9ece-ffdfe8adb215","system_id":"levelo_inurba_marseille","lat":43.298037,"lon":5.381066,"is_reserved":false,"is_disabled":false,"rental_uris":{"android":"levelo://app?vid=05eddafb-518c-4a16-9ece-ffdfe8adb215","ios":"levelo://app?vid=05eddafb-518c-4a16-9ece-ffdfe8adb215"},"vehicle_type_id":"4","last_reported":1711390189,"current_range_meters":7200,"station_id":"ce4bgip2rcd13ifvqbb0","pricing_plan_id":"cebpf4jnsgd1na2vs0mg"},{"bike_id":"5c5ac7c0-20ff-4408-93ca-8bbad3b36665","system_id":"levelo_inurba_marseille","lat":43.299717,"lon":5.384845,"is_reserved":false,"is_disabled":false,"rental_uris":{"android":"levelo://app?vid=5c5ac7c0-20ff-4408-93ca-8bbad3b36665","ios":"levelo://app?vid=5c5ac7c0-20ff-4408-93ca-8bbad3b36665"},"vehicle_type_id":"4","last_reported":1711390189,"current_range_meters":7200,"station_id":"ce4bgj92rcd13ifvqbd0","pricing_plan_id":"cebpf4jnsgd1na2vs0mg"},{"bike_id":"c56e3e85-d19c-4dc5-b26c-a5fb7445c568","system_id":"levelo_inurba_marseille","lat":43.32367,"lon":5.388836,"is_reserved":false,"is_disabled":false,"rental_uris":{"android":"levelo://app?vid=c56e3e85-d19c-4dc5-b26c-a5fb7445c568","ios":"levelo://app?vid=c56e3e85-d19c-4dc5-b26c-a5fb7445c568"},"vehicle_type_id":"4","last_reported":1711390189,"current_range_meters":12000,"station_id":"ce4bhqp2rcd13ifvqhog","pricing_plan_id":"cebpf4jnsgd1na2vs0mg"},{"bike_id":"3aa46326-71f7-4121-8f47-dfcc74d3bb25","system_id":"levelo_inurba_marseille","lat":43.32367,"lon":5.388836,"is_reserved":false,"is_disabled":false,"rental_uris":{"android":"levelo://app?vid=3aa46326-71f7-4121-8f47-dfcc74d3bb25","ios":"levelo://app?vid=3aa46326-71f7-4121-8f47-dfcc74d3bb25"},"vehicle_type_id":"4","last_reported":1711390189,"current_range_meters":9200,"station_id":"ce4bhqp2rcd13ifvqhog","pricing_plan_id":"cebpf4jnsgd1na2vs0mg"},{"bike_id":"13e571f2-6100-4b3f-8f21-368c46a93a66","system_id":"levelo_inurba_marseille","lat":43.32365,"lon":5.38886,"is_reserved":false,"is_disabled":false,"rental_uris":{"android":"levelo://app?vid=13e571f2-6100-4b3f-8f21-368c46a93a66","ios":"levelo://app?vid=13e571f2-6100-4b3f-8f21-368c46a93a66"},"vehicle_type_id":"4","last_reported":1711390189,"current_range_meters":0,"station_id":"ce4bhqp2rcd13ifvqhog","pricing_plan_id":"cebpf4jnsgd1na2vs0mg"},{"bike_id":"e9957f63-2478-4f71-8e28-e8a1e63aaf51","system_id":"levelo_inurba_marseille","lat":43.32367,"lon":5.388836,"is_reserved":false,"is_disabled":false,"rental_uris":{"android":"levelo://app?vid=e9957f63-2478-4f71-8e28-e8a1e63aaf51","ios":"levelo://app?vid=e9957f63-2478-4f71-8e28-e8a1e63aaf51"},"vehicle_type_id":"4","last_reported":1711390189,"current_range_meters":16800,"station_id":"ce4bhqp2rcd13ifvqhog","pricing_plan_id":"cebpf4jnsgd1na2vs0mg"},{"bike_id":"46696b7b-bffc-4e30-812a-ae76c414eae6","system_id":"levelo_inurba_marseille","lat":43.29613,"lon":5.38105,"is_reserved":false,"is_disabled":false,"rental_uris":{"android":"levelo://app?vid=46696b7b-bffc-4e30-812a-ae76c414eae6","ios":"levelo://app?vid=46696b7b-bffc-4e30-812a-ae76c414eae6"},"vehicle_type_id":"4","last_reported":1711390189,"current_range_meters":3600,"station_id":"ce4bgl12rcd13ifvqbo0","pricing_plan_id":"cebpf4jnsgd1na2vs0mg"},{"bike_id":"7c2e0197-66f9-45a8-ae05-79f7b7993fb8","system_id":"levelo_inurba_marseille","lat":43.29602,"lon":5.381084,"is_reserved":false,"is_disabled":false,"rental_uris":{"android":"levelo://app?vid=7c2e0197-66f9-45a8-ae05-79f7b7993fb8","ios":"levelo://app?vid=7c2e0197-66f9-45a8-ae05-79f7b7993fb8"},"vehicle_type_id":"4","last_reported":1711390189,"current_range_meters":0,"station_id":"ce4bgl12rcd13ifvqbo0","pricing_plan_id":"cebpf4jnsgd1na2vs0mg"},{"bike_id":"71ae488e-351f-44c3-9104-2940015053b8","system_id":"levelo_inurba_marseille","lat":43.29602,"lon":5.381084,"is_reserved":false,"is_disabled":false,"rental_uris":{"android":"levelo://app?vid=71ae488e-351f-44c3-9104-2940015053b8","ios":"levelo://app?vid=71ae488e-351f-44c3-9104-2940015053b8"},"vehicle_type_id":"4","last_reported":1711390189,"current_range_meters":14800,"station_id":"ce4bgl12rcd13ifvqbo0","pricing_plan_id":"cebpf4jnsgd1na2vs0mg"},{"bike_id":"e2f9ccf6-48c6-4887-adf1-86d45a55fcaa","system_id":"levelo_inurba_marseille","lat":43.29602,"lon":5.381084,"is_reserved":false,"is_disabled":false,"rental_uris":{"android":"levelo://app?vid=e2f9ccf6-48c6-4887-adf1-86d45a55fcaa","ios":"levelo://app?vid=e2f9ccf6-48c6-4887-adf1-86d45a55fcaa"},"vehicle_type_id":"4","last_reported":1711390189,"current_range_meters":18800,"station_id":"ce4bgl12rcd13ifvqbo0","pricing_plan_id":"cebpf4jnsgd1na2vs0mg"},{"bike_id":"724336ce-66dc-4aeb-bcef-3dd7f34e0740","system_id":"levelo_inurba_marseille","lat":43.29312,"lon":5.37171,"is_reserved":false,"is_disabled":false,"rental_uris":{"android":"levelo://app?vid=724336ce-66dc-4aeb-bcef-3dd7f34e0740","ios":"levelo://app?vid=724336ce-66dc-4aeb-bcef-3dd7f34e0740"},"vehicle_type_id":"4","last_reported":1711390189,"current_range_meters":14000,"station_id":"ce4bgh92rcd13ifvqb40","pricing_plan_id":"cebpf4jnsgd1na2vs0mg"},{"bike_id":"a8f453aa-bc9f-4699-9e28-ef9e6edea0fb","system_id":"levelo_inurba_marseille","lat":43.293249,"lon":5.371578,"is_reserved":false,"is_disabled":false,"rental_uris":{"android":"levelo://app?vid=a8f453aa-bc9f-4699-9e28-ef9e6edea0fb","ios":"levelo://app?vid=a8f453aa-bc9f-4699-9e28-ef9e6edea0fb"},"vehicle_type_id":"4","last_reported":1711390189,"current_range_meters":30400,"station_id":"ce4bgh92rcd13ifvqb40","pricing_plan_id":"cebpf4jnsgd1na2vs0mg"},{"bike_id":"dc25c33a-aada-4e7a-af19-8a46bc2ec3c2","system_id":"levelo_inurba_marseille","lat":43.293259,"lon":5.371586,"is_reserved":false,"is_disabled":false,"rental_uris":{"android":"levelo://app?vid=dc25c33a-aada-4e7a-af19-8a46bc2ec3c2","ios":"levelo://app?vid=dc25c33a-aada-4e7a-af19-8a46bc2ec3c2"},"vehicle_type_id":"4","last_reported":1711390189,"current_range_meters":5600,"station_id":"ce4bgh92rcd13ifvqb40","pricing_plan_id":"cebpf4jnsgd1na2vs0mg"},{"bike_id":"605b98c8-c814-42bd-9192-3f6d28af3b2c","system_id":"levelo_inurba_marseille","lat":43.292749,"lon":5.368402,"is_reserved":false,"is_disabled":false,"rental_uris":{"android":"levelo://app?vid=605b98c8-c814-42bd-9192-3f6d28af3b2c","ios":"levelo://app?vid=605b98c8-c814-42bd-9192-3f6d28af3b2c"},"vehicle_type_id":"4","last_reported":1711390189,"current_range_meters":29600,"station_id":"ce4bhbp2rcd13ifvqesg","pricing_plan_id":"cebpf4jnsgd1na2vs0mg"},{"bike_id":"7fd7dc0b-db80-49db-9f48-08f8dea420e3","system_id":"levelo_inurba_marseille","lat":43.292749,"lon":5.368402,"is_reserved":false,"is_disabled":false,"rental_uris":{"android":"levelo://app?vid=7fd7dc0b-db80-49db-9f48-08f8dea420e3","ios":"levelo://app?vid=7fd7dc0b-db80-49db-9f48-08f8dea420e3"},"vehicle_type_id":"4","last_reported":1711390189,"current_range_meters":23200,"station_id":"ce4bhbp2rcd13ifvqesg","pricing_plan_id":"cebpf4jnsgd1na2vs0mg"},{"bike_id":"8ff20be1-7b50-4aa8-b52c-e753bd078ff1","system_id":"levelo_inurba_marseille","lat":43.293259,"lon":5.371586,"is_reserved":false,"is_disabled":false,"rental_uris":{"android":"levelo://app?vid=8ff20be1-7b50-4aa8-b52c-e753bd078ff1","ios":"levelo://app?vid=8ff20be1-7b50-4aa8-b52c-e753bd078ff1"},"vehicle_type_id":"4","last_reported":1711390189,"current_range_meters":22400,"station_id":"ce4bgh92rcd13ifvqb40","pricing_plan_id":"cebpf4jnsgd1na2vs0mg"},{"bike_id":"ec730550-b626-4509-a8fc-ded8f49b7d9e","system_id":"levelo_inurba_marseille","lat":43.305994,"lon":5.393687,"is_reserved":false,"is_disabled":false,"rental_uris":{"android":"levelo://app?vid=ec730550-b626-4509-a8fc-ded8f49b7d9e","ios":"levelo://app?vid=ec730550-b626-4509-a8fc-ded8f49b7d9e"},"vehicle_type_id":"4","last_reported":1711390189,"current_range_meters":8400,"station_id":"ce4bh0p2rcd13ifvqd80","pricing_plan_id":"cebpf4jnsgd1na2vs0mg"},{"bike_id":"b421cb06-f69d-4c59-8d1c-0686eb880f72","system_id":"levelo_inurba_marseille","lat":43.295748,"lon":5.37522,"is_reserved":false,"is_disabled":false,"rental_uris":{"android":"levelo://app?vid=b421cb06-f69d-4c59-8d1c-0686eb880f72","ios":"levelo://app?vid=b421cb06-f69d-4c59-8d1c-0686eb880f72"},"vehicle_type_id":"4","last_reported":1711390189,"current_range_meters":14400,"station_id":"ce4bgh92rcd13ifvqb50","pricing_plan_id":"cebpf4jnsgd1na2vs0mg"},{"bike_id":"9d3a3382-fcff-4f08-ba7a-72bd864573ae","system_id":"levelo_inurba_marseille","lat":43.305994,"lon":5.393687,"is_reserved":false,"is_disabled":false,"rental_uris":{"android":"levelo://app?vid=9d3a3382-fcff-4f08-ba7a-72bd864573ae","ios":"levelo://app?vid=9d3a3382-fcff-4f08-ba7a-72bd864573ae"},"vehicle_type_id":"4","last_reported":1711390189,"current_range_meters":14800,"station_id":"ce4bh0p2rcd13ifvqd80","pricing_plan_id":"cebpf4jnsgd1na2vs0mg"},{"bike_id":"68ff18d6-e97e-41ed-a242-6052d725fe06","system_id":"levelo_inurba_marseille","lat":43.305994,"lon":5.393687,"is_reserved":false,"is_disabled":false,"rental_uris":{"android":"levelo://app?vid=68ff18d6-e97e-41ed-a242-6052d725fe06","ios":"levelo://app?vid=68ff18d6-e97e-41ed-a242-6052d725fe06"},"vehicle_type_id":"4","last_reported":1711390189,"current_range_meters":10400,"station_id":"ce4bh0p2rcd13ifvqd80","pricing_plan_id":"cebpf4jnsgd1na2vs0mg"},{"bike_id":"3d64f94d-0aa6-4090-973b-f5f96e514398","system_id":"levelo_inurba_marseille","lat":43.293009,"lon":5.374584,"is_reserved":false,"is_disabled":false,"rental_uris":{"android":"levelo://app?vid=3d64f94d-0aa6-4090-973b-f5f96e514398","ios":"levelo://app?vid=3d64f94d-0aa6-4090-973b-f5f96e514398"},"vehicle_type_id":"4","last_reported":1711390189,"current_range_meters":0,"station_id":"ce4bgi12rcd13ifvqb70","pricing_plan_id":"cebpf4jnsgd1na2vs0mg"},