{"last_updated":1746958187,"ttl":60,"version":"2.2","data":{"bikes":[{"bike_id":"c0b9fd4f-e181-46ce-b0bf-f5119973334f","system_id":"levelo_inurba_marseille","lat":43.33771,"lon":5.37424,"is_reserved":false,"is_disabled":false,"rental_uris":{"android":"levelo://app?vid=c0b9fd4f-e181-46ce-b0bf-f5119973334f","ios":"levelo://app?vid=c0b9fd4f-e181-46ce-b0bf-f5119973334f"},"vehicle_type_id":"4","last_reported":1746958187,"current_range_meters":33200,"station_id":"","pricing_plan_id":"cebpf4jnsgd1na2vs0mg"},{"bike_id":"c8dca4bb-e856-4aef-9de5-3814d0eb9ded","system_id":"levelo_inurba_marseille","lat":43.281583,"lon":5.404743,"is_reserved":false,"is_disabled":true,"rental_uris":{"android":"levelo://app?vid=c8dca4bb-e856-4aef-9de5-3814d0eb9ded","ios":"levelo://app?vid=c8dca4bb-e856-4aef-9de5-3814d0eb9ded"},"vehicle_type_id":"4","last_reported":1746958187,"current_range_meters":0,"station_id":"","pricing_plan_id":"cebpf4jnsgd1na2vs0mg"},{"bike_id":"f5e28900-93bd-4bee-b537-cd182a31f43d","system_id":"levelo_inurba_marseille","lat":43.31995,"lon":5.38152,"is_reserved":false,"is_disabled":true,"rental_uris":{"android":"levelo://app?vid=f5e28900-93bd-4bee-b537-cd182a31f43d","ios":"levelo://app?vid=f5e28900-93bd-4bee-b537-cd182a31f43d"},"vehicle_type_id":"4","last_reported":1746958187,"current_range_meters":0,"station_id":"","pricing_plan_id":"cebpf4jnsgd1na2vs0mg"},{"bike_id":"ad17c5b4-973a-4cb5-ad8c-32068ccae9d2","system_id":"levelo_inurba_marseille","lat":43.28982,"lon":5.43276,"is_reserved":false,"is_disabled":true,"rental_uris":{"android":"levelo://app?vid=ad17c5b4-973a-4cb5-ad8c-32068ccae9d2","ios":"levelo://app?vid=ad17c5b4-973a-4cb5-ad8c-32068ccae9d2"},"vehicle_type_id":"4","last_reported":1746958187,"current_range_meters":0,"station_id":"","pricing_plan_id":"cebpf4jnsgd1na2vs0mg"},{"bike_id":"a72028ca-425b-4f2c-9e2d-16be28a01f65","system_id":"levelo_inurba_marseille","lat":43.260098,"lon":5.417444,"is_reserved":false,"is_disabled":true,"rental_uris":{"android":"levelo://app?vid=a72028ca-425b-4f2c-9e2d-16be28a01f65","ios":"levelo://app?vid=a72028ca-425b-4f2c-9e2d-16be28a01f65"},"vehicle_type_id":"4","last_reported":1746958187,"current_range_meters":0,"station_id":"","pricing_plan_id":"cebpf4jnsgd1na2vs0mg"},{"bike_id":"e43d995b-a136-4201-b650-ca62eacfe18a","system_id":"levelo_inurba_marseille","lat":43.27141,"lon":5.36357,"is_reserved":false,"is_disabled":true,"rental_uris":{"android":"levelo://app?vid=e43d995b-a136-4201-b650-ca62eacfe18a","ios":"levelo://app?vid=e43d995b-a136-4201-b650-ca62eacfe18a"},"vehicle_type_id":"4","last_reported":1746958187,"current_range_meters":0,"station_id":"","pricing_plan_id":"cebpf4jnsgd1na2vs0mg"},{"bike_id":"689d1ebc-80c1-4c8c-9647-6e072db7ae2b","system_id":"levelo_inurba_marseille","lat":43.268558,"lon":5.370491,"is_reserved":false,"is_disabled":true,"rental_uris":{"android":"levelo://app?vid=689d1ebc-80c1-4c8c-9647-6e072db7ae2b","ios":"levelo://app?vid=689d1ebc-80c1-4c8c-9647-6e072db7ae2b"},"vehicle_type_id":"4","last_reported":1746958187,"current_range_meters":0,"station_id":"","pricing_plan_id":"cebpf4jnsgd1na2vs0mg"},{"bike_id":"e1dc35ab-8d93-4040-9d60-ff9c2a1cf351","system_id":"levelo_inurba_marseille","lat":43.337444,"lon":5.374475,"is_reserved":false,"is_disabled":true,"rental_uris":{"android":"levelo://app?vid=e1dc35ab-8d93-4040-9d60-ff9c2a1cf351","ios":"levelo://app?vid=e1dc35ab-8d93-4040-9d60-ff9c2a1cf351"},"vehicle_type_id":"4","last_reported":1746958187,"current_range_meters":0,"station_id":"","pricing_plan_id":"cebpf4jnsgd1na2vs0mg"},{"bike_id":"8ada1c5d-a63c-424e-968d-947fb00b4932","system_id":"levelo_inurba_marseille","lat":43.254706,"lon":5.375484,"is_reserved":false,"is_disabled":true,"rental_uris":{"android":"levelo://app?vid=8ada1c5d-a63c-424e-968d-947fb00b4932","ios":"levelo://app?vid=8ada1c5d-a63c-424e-968d-947fb00b4932"},"vehicle_type_id":"4","last_reported":1746958187,"current_range_meters":0,"station_id":"","pricing_plan_id":"cebpf4jnsgd1na2vs0mg"},{"bike_id":"2d46911a-8d75-4d63-9057-acbaafb11eea","system_id":"levelo_inurba_marseille","lat":43.267434,"lon":5.372196,"is_reserved":false,"is_disabled":true,"rental_uris":{"android":"levelo://app?vid=2d46911a-8d75-4d63-9057-acbaafb11eea","ios":"levelo://app?vid=2d46911a-8d75-4d63-9057-acbaafb11eea"},"vehicle_type_id":"4","last_reported":1746958187,"current_range_meters":0,"station_id":"","pricing_plan_id":"cebpf4jnsgd1na2vs0mg"},{"bike_id":"7fa99896-ccf4-425e-8111-cb9140080e22","system_id":"levelo_inurba_marseille","lat":43.30882,"lon":5.39626,"is_reserved":false,"is_disabled":true,"rental_uris":{"android":"levelo://app?vid=7fa99896-ccf4-425e-8111-cb9140080e22","ios":"levelo://app?vid=7fa99896-ccf4-425e-8111-cb9140080e22"},"vehicle_type_id":"4","last_reported":1746958187,"current_range_meters":0,"station_id":"ce4bh012rcd13ifvqcv0","pricing_plan_id":"cebpf4jnsgd1na2vs0mg"},{"bike_id":"c7187a89-9c1b-49e9-805c-abf77cf1fefe","system_id":"levelo_inurba_marseille","lat":43.29279,"lon":5.40115,"is_reserved":false,"is_disabled":true,"rental_uris":{"android":"levelo://app?vid=c7187a89-9c1b-49e9-805c-abf77cf1fefe","ios":"levelo://app?vid=c7187a89-9c1b-49e9-805c-abf77cf1fefe"},"vehicle_type_id":"4","last_reported":1746958187,"current_range_meters":0,"station_id":"ce4bh312rcd13ifvqdk0","pricing_plan_id":"cebpf4jnsgd1na2vs0mg"},{"bike_id":"cc375370-738f-403c-8284-70be150669d5","system_id":"levelo_inurba_marseille","lat":43.27376,"lon":5.36234,"is_reserved":false,"is_disabled":true,"rental_uris":{"android":"levelo://app?vid=cc375370-738f-403c-8284-70be150669d5","ios":"levelo://app?vid=cc375370-738f-403c-8284-70be150669d5"},"vehicle_type_id":"4","last_reported":1746958187,"current_range_meters":0,"station_id":"ce4bhbh2rcd13ifvqeo0","pricing_plan_id":"cebpf4jnsgd1na2vs0mg"},{"bike_id":"5ec77a10-8f14-402e-aa93-1b3ade437e49","system_id":"levelo_inurba_marseille","lat":43.2606,"lon":5.39398,"is_reserved":false,"is_disabled":true,"rental_uris":{"android":"levelo://app?vid=5ec77a10-8f14-402e-aa93-1b3ade437e49","ios":"levelo://app?vid=5ec77a10-8f14-402e-aa93-1b3ade437e49"},"vehicle_type_id":"4","last_reported":1746958187,"current_range_meters":0,"station_id":"ce4bhh92rcd13ifvqfj0","pricing_plan_id":"cebpf4jnsgd1na2vs0mg"},{"bike_id":"ff3391c4-3441-447c-b570-3bbd773fec2f","system_id":"levelo_inurba_marseille","lat":43.27058,"lon":5.40253,"is_reserved":false,"is_disabled":true,"rental_uris":{"android":"levelo://app?vid=ff3391c4-3441-447c-b570-3bbd773fec2f","ios":"levelo://app?vid=ff3391c4-3441-447c-b570-3bbd773fec2f"},"vehicle_type_id":"4","last_reported":1746958187,"current_range_meters":0,"station_id":"ce4bhk92rcd13ifvqgc0","pricing_plan_id":"cebpf4jnsgd1na2vs0mg"},{"bike_id":"2fae3c6a-0b86-46a7-b0b4-621f9de79a85","system_id":"levelo_inurba_marseille","lat":43.32491,"lon":5.36565,"is_reserved":false,"is_disabled":true,"rental_uris":{"android":"levelo://app?vid=2fae3c6a-0b86-46a7-b0b4-621f9de79a85","ios":"levelo://app?vid=2fae3c6a-0b86-46a7-b0b4-621f9de79a85"},"vehicle_type_id":"4","last_reported":1746958187,"current_range_meters":0,"station_id":"ce4bhs12rcd13ifvqhvg","pricing_plan_id":"cebpf4jnsgd1na2vs0mg"},{"bike_id":"caf9033d-5f00-49c3-b1ee-1328b62008dc","system_id":"levelo_inurba_marseille","lat":43.3358,"lon":5.42826,"is_reserved":false,"is_disabled":true,"rental_uris":{"android":"levelo://app?vid=caf9033d-5f00-49c3-b1ee-1328b62008dc","ios":"levelo://app?vid=caf9033d-5f00-49c3-b1ee-1328b62008dc"},"vehicle_type_id":"4","last_reported":1746958187,"current_range_meters":400,"station_id":"","pricing_plan_id":"cebpf4jnsgd1na2vs0mg"},{"bike_id":"45ce2dea-a776-45fc-b8c7-8f1a22b8d2bd","system_id":"levelo_inurba_marseille","lat":43.26552,"lon":5.37279,"is_reserved":false,"is_disabled":true,"rental_uris":{"android":"levelo://app?vid=45ce2dea-a776-45fc-b8c7-8f1a22b8d2bd","ios":"levelo://app?vid=45ce2dea-a776-45fc-b8c7-8f1a22b8d2bd"},"vehicle_type_id":"4","last_reported":1746958187,"current_range_meters":400,"station_id":"ce4bhg12rcd13ifvqf70","pricing_plan_id":"cebpf4jnsgd1na2vs0mg"},{"bike_id":"a52974aa-e3ee-4017-bef0-bcbd7ff9546e","system_id":"levelo_inurba_marseille","lat":43.27943,"lon":5.41112,"is_reserved":false,"is_disabled":true,"rental_uris":{"android":"levelo://app?vid=a52974aa-e3ee-4017-bef0-bcbd7ff9546e","ios":"levelo://app?vid=a52974aa-e3ee-4017-bef0-bcbd7ff9546e"},"vehicle_type_id":"4","last_reported":1746958187,"current_range_meters":800,"station_id":"ce4bhnp2rcd13ifvqh0g","pricing_plan_id":"cebpf4jnsgd1na2vs0mg"},{"bike_id":"33c01bc7-10c9-440b-9138-0fd267550192","system_id":"levelo_inurba_marseille","lat":43.291322,"lon":5.382914,"is_reserved":false,"is_disabled":true,"rental_uris":{"android":"levelo://app?vid=33c01bc7-10c9-440b-9138-0fd267550192","ios":"levelo://app?vid=33c01bc7-10c9-440b-9138-0fd267550192"},"vehicle_type_id":"4","last_reported":1746958187,"current_range_meters":1200,"station_id":"ce4bh612rcd13ifvqe6g","pricing_plan_id":"cebpf4jnsgd1na2vs0mg"},{"bike_id":"191bfc5d-9e49-4a5a-a217-b8393884884a","system_id":"levelo_inurba_marseille","lat":43.2885,"lon":5.3932,"is_reserved":false,"is_disabled":true,"rental_uris":{"android":"levelo://app?vid=191bfc5d-9e49-4a5a-a217-b8393884884a","ios":"levelo://app?vid=191bfc5d-9e49-4a5a-a217-b8393884884a"},"vehicle_type_id":"4","last_reported":1746958187,"current_range_meters":1600,"station_id":"ce4bh2p2rcd13ifvqdi0","pricing_plan_id":"cebpf4jnsgd1na2vs0mg"},{"bike_id":"ab65c28c-a088-4a3f-a015-7272fe20ac0c","system_id":"levelo_inurba_marseille","lat":43.28957,"lon":5.36404,"is_reserved":false,"is_disabled":true,"rental_uris":{"android":"levelo://app?vid=ab65c28c-a088-4a3f-a015-7272fe20ac0c","ios":"levelo://app?vid=ab65c28c-a088-4a3f-a015-7272fe20ac0c"},"vehicle_type_id":"4","last_reported":1746958187,"current_range_meters":1600,"station_id":"ce4bhc92rcd13ifvqetg","pricing_plan_id":"cebpf4jnsgd1na2vs0mg"},{"bike_id":"229001d2-7627-43e0-aeea-2d75580fd339","system_id":"levelo_inurba_marseille","lat":43.28309,"lon":5.43206,"is_reserved":false,"is_disabled":true,"rental_uris":{"android":"levelo://app?vid=229001d2-7627-43e0-aeea-2d75580fd339","ios":"levelo://app?vid=229001d2-7627-43e0-aeea-2d75580fd339"},"vehicle_type_id":"4","last_reported":1746958187,"current_range_meters":2000,"station_id":"","pricing_plan_id":"cebpf4jnsgd1na2vs0mg"},{"bike_id":"43da1e2e-1814-4391-b982-c71ad85f810c","system_id":"levelo_inurba_marseille","lat":43.27373,"lon":5.36253,"is_reserved":false,"is_disabled":true,"rental_uris":{"android":"levelo://app?vid=43da1e2e-1814-4391-b982-c71ad85f810c","ios":"levelo://app?vid=43da1e2e-1814-4391-b982-c71ad85f810c"},"vehicle_type_id":"4","last_reported":1746958187,"current_range_meters":2000,"station_id":"ce4bhbh2rcd13ifvqeo0","pricing_plan_id":"cebpf4jnsgd1na2vs0mg"},{"bike_id":"ab43d1c9-e224-4deb-bc34-3311be1208ae","system_id":"levelo_inurba_marseille","lat":43.29193,"lon":5.35808,"is_reserved":false,"is_disabled":false,"rental_uris":{"android":"levelo://app?vid=ab43d1c9-e224-4deb-bc34-3311be1208ae","ios":"levelo://app?vid=ab43d1c9-e224-4deb-bc34-3311be1208ae"},"vehicle_type_id":"4","last_reported":1746958187,"current_range_meters":2800,"station_id":"ce4bhb12rcd13ifvqel0","pricing_plan_id":"cebpf4jnsgd1na2vs0mg"},{"bike_id":"3622212b-9fcd-466a-adaa-77725d61e7f4","system_id":"levelo_inurba_marseille","lat":43.26556,"lon":5.37293,"is_reserved":false,"is_disabled":false,"rental_uris":{"android":"levelo://app?vid=3622212b-9fcd-466a-adaa-77725d61e7f4","ios":"levelo://app?vid=3622212b-9fcd-466a-adaa-77725d61e7f4"},"vehicle_type_id":"4","last_reported":1746958187,"current_range_meters":2800,"station_id":"ce4bhg12rcd13ifvqf70","pricing_plan_id":"cebpf4jnsgd1na2vs0mg"},{"bike_id":"93b3c579-248b-412d-b464-87f9fb70e513","system_id":"levelo_inurba_marseille","lat":43.29265,"lon":5.38331,"is_reserved":false,"is_disabled":false,"rental_uris":{"android":"levelo://app?vid=93b3c579-248b-412d-b464-87f9fb70e513","ios":"levelo://app?vid=93b3c579-248b-412d-b464-87f9fb70e513"},"vehicle_type_id":"4","last_reported":1746958187,"current_range_meters":3200,"station_id":"","pricing_plan_id":"cebpf4jnsgd1na2vs0mg"},{"bike_id":"9086a547-f8a3-47a2-a7ce-48620a88254c","system_id":"levelo_inurba_marseille","lat":43.31712,"lon":5.43712,"is_reserved":false,"is_disabled":false,"rental_uris":{"android":"levelo://app?vid=9086a547-f8a3-47a2-a7ce-48620a88254c","ios":"levelo://app?vid=9086a547-f8a3-47a2-a7ce-48620a88254c"},"vehicle_type_id":"4","last_reported":1746958187,"current_range_meters":4000,"station_id":"ce4bhp92rcd13ifvqhcg","pricing_plan_id":"cebpf4jnsgd1na2vs0mg"},{"bike_id":"904c7fc2-540f-4043-a405-5f5658266117","system_id":"levelo_inurba_marseille","lat":43.275955,"lon":5.377965,"is_reserved":false,"is_disabled":false,"rental_uris":{"android":"levelo://app?vid=904c7fc2-540f-4043-a405-5f5658266117","ios":"levelo://app?vid=904c7fc2-540f-4043-a405-5f5658266117"},"vehicle_type_id":"4","last_reported":1746958187,"current_range_meters":4800,"station_id":"","pricing_plan_id":"cebpf4jnsgd1na2vs0mg"},{"bike_id":"165940da-e13c-4222-badd-b22bd4932d6c","system_id":"levelo_inurba_marseille","lat":43.30636,"lon":5.40098,"is_reserved":false,"is_disabled":false,"rental_uris":{"android":"levelo://app?vid=165940da-e13c-4222-badd-b22bd4932d6c","ios":"levelo://app?vid=165940da-e13c-4222-badd-b22bd4932d6c"},"vehicle_type_id":"4","last_reported":1746958187,"current_range_meters":5600,"station_id":"ce4bh112rcd13ifvqda0","pricing_plan_id":"cebpf4jnsgd1na2vs0mg"},{"bike_id":"c8871d60-de65-4dc9-8457-ca42730446e7","system_id":"levelo_inurba_marseille","lat":43.317377,"lon":5.387818,"is_reserved":false,"is_disabled":false,"rental_uris":{"android":"levelo://app?vid=c8871d60-de65-4dc9-8457-ca42730446e7","ios":"levelo://app?vid=c8871d60-de65-4dc9-8457-ca42730446e7"},"vehicle_type_id":"4","last_reported":1746958187,"current_range_meters":6400,"station_id":"","pricing_plan_id":"cebpf4jnsgd1na2vs0mg"},{"bike_id":"4f39ef46-c182-492f-a9f2-8b71081efeff","system_id":"levelo_inurba_marseille","lat":43.257229,"lon":5.411138,"is_reserved":false,"is_disabled":false,"rental_uris":{"android":"levelo://app?vid=4f39ef46-c182-492f-a9f2-8b71081efeff","ios":"levelo://app?vid=4f39ef46-c182-492f-a9f2-8b71081efeff"},"vehicle_type_id":"4","last_reported":1746958187,"current_range_meters":6400,"station_id":"ce4bhkp2rcd13ifvqgd0","pricing_plan_id":"cebpf4jnsgd1na2vs0mg"},{"bike_id":"0e7f2f58-5808-4108-b0fc-2dae48762bc3","system_id":"levelo_inurba_marseille","lat":43.25713,"lon":5.41103,"is_reserved":false,"is_disabled":false,"rental_uris":{"android":"levelo://app?vid=0e7f2f58-5808-4108-b0fc-2dae48762bc3","ios":"levelo://app?vid=0e7f2f58-5808-4108-b0fc-2dae48762bc3"},"vehicle_type_id":"4","last_reported":1746958187,"current_range_meters":6400,"station_id":"ce4bhkp2rcd13ifvqgd0","pricing_plan_id":"cebpf4jnsgd1na2vs0mg"},{"bike_id":"3cf2efdf-1fe2-4805-8f98-59ca5416b936","system_id":"levelo_inurba_marseille","lat":43.29713,"lon":5.36609,"is_reserved":false,"is_disabled":false,"rental_uris":{"android":"levelo://app?vid=3cf2efdf-1fe2-4805-8f98-59ca5416b936","ios":"levelo://app?vid=3cf2efdf-1fe2-4805-8f98-59ca5416b936"},"vehicle_type_id":"4","last_reported":1746958187,"current_range_meters":6800,"station_id":"ce4bgn12rcd13ifvqbt0","pricing_plan_id":"cebpf4jnsgd1na2vs0mg"},{"bike_id":"10ee2d0e-ca01-4e83-bbdf-6c08178a202f","system_id":"levelo_inurba_marseille","lat":43.28652,"lon":5.41307,"is_reserved":false,"is_disabled":false,"rental_uris":{"android":"levelo://app?vid=10ee2d0e-ca01-4e83-bbdf-6c08178a202f","ios":"levelo://app?vid=10ee2d0e-ca01-4e83-bbdf-6c08178a202f"},"vehicle_type_id":"4","last_reported":1746958187,"current_range_meters":7200,"station_id":"","pricing_plan_id":"cebpf4jnsgd1na2vs0mg"},{"bike_id":"715a4746-3259-42c1-b00b-9109dbd5d445","system_id":"levelo_inurba_marseille","lat":43.23966,"lon":5.36634,"is_reserved":false,"is_disabled":false,"rental_uris":{"android":"levelo://app?vid=715a4746-3259-42c1-b00b-9109dbd5d445","ios":"levelo://app?vid=715a4746-3259-42c1-b00b-9109dbd5d445"},"vehicle_type_id":"4","last_reported":1746958187,"current_range_meters":7200,"station_id":"ce4bhi12rcd13ifvqfp0","pricing_plan_id":"cebpf4jnsgd1na2vs0mg"},{"bike_id":"90699213-8274-436f-bb67-aab198828d40","system_id":"levelo_inurba_marseille","lat":43.32332,"lon":5.40619,"is_reserved":false,"is_disabled":false,"rental_uris":{"android":"levelo://app?vid=90699213-8274-436f-bb67-aab198828d40","ios":"levelo://app?vid=90699213-8274-436f-bb67-aab198828d40"},"vehicle_type_id":"4","last_reported":1746958187,"current_range_meters":7200,"station_id":"ce4bhq92rcd13ifvqhjg","pricing_plan_id":"cebpf4jnsgd1na2vs0mg"},{"bike_id":"aedac110-9a80-4055-b3bc-6fbbff4ed0bc","system_id":"levelo_inurba_marseille","lat":43.3176,"lon":5.37242,"is_reserved":false,"is_disabled":false,"rental_uris":{"android":"levelo://app?vid=aedac110-9a80-4055-b3bc-6fbbff4ed0bc","ios":"levelo://app?vid=aedac110-9a80-4055-b3bc-6fbbff4ed0bc"},"vehicle_type_id":"4","last_reported":1746958187,"current_range_meters":8000,"station_id":"","pricing_plan_id":"cebpf4jnsgd1na2vs0mg"},{"bike_id":"608e0249-6134-4fda-826d-02d67903c2ae","system_id":"levelo_inurba_marseille","lat":43.29364,"lon":5.37844,"is_reserved":false,"is_disabled":false,"rental_uris":{"android":"levelo://app?vid=608e0249-6134-4fda-826d-02d67903c2ae","ios":"levelo://app?vid=608e0249-6134-4fda-826d-02d67903c2ae"},"vehicle_type_id":"4","last_reported":1746958187,"current_range_meters":8000,"station_id":"ce4bgjh2rcd13ifvqbf0","pricing_plan_id":"cebpf4jnsgd1na2vs0mg"},{"bike_id":"351ef218-24e5-4670-825d-fc1ac5cd3c19","system_id":"levelo_inurba_marseille","lat":43.31625,"lon":5.36387,"is_reserved":false,"is_disabled":false,"rental_uris":{"android":"levelo://app?vid=351ef218-24e5-4670-825d-fc1ac5cd3c19","ios":"levelo://app?vid=351ef218-24e5-4670-825d-fc1ac5cd3c19"},"vehicle_type_id":"4","last_reported":1746958187,"current_range_meters":8400,"station_id":"","pricing_plan_id":"cebpf4jnsgd1na2vs0mg"},{"bike_id":"04c1226f-faa4-4a45-b805-4b9bcac57fa8","system_id":"levelo_inurba_marseille","lat":43.29272,"lon":5.39107,"is_reserved":false,"is_disabled":false,"rental_uris":{"android":"levelo://app?vid=04c1226f-faa4-4a45-b805-4b9bcac57fa8","ios":"levelo://app?vid=04c1226f-faa4-4a45-b805-4b9bcac57fa8"},"vehicle_type_id":"4","last_reported":1746958187,"current_range_meters":8800,"station_id":"","pricing_plan_id":"cebpf4jnsgd1na2vs0mg"},{"bike_id":"ed2ee6fd-6ade-47b3-88bd-ac0fe3fa400f","system_id":"levelo_inurba_marseille","lat":43.24177,"lon":5.39718,"is_reserved":false,"is_disabled":false,"rental_uris":{"android":"levelo://app?vid=ed2ee6fd-6ade-47b3-88bd-ac0fe3fa400f","ios":"levelo://app?vid=ed2ee6fd-6ade-47b3-88bd-ac0fe3fa400f"},"vehicle_type_id":"4","last_reported":1746958187,"current_range_meters":8800,"station_id":"ce4bhn12rcd13ifvqgpg","pricing_plan_id":"cebpf4jnsgd1na2vs0mg"},{"bike_id":"808cfb55-d261-486a-8428-f8d18d9ba1bf","system_id":"levelo_inurba_marseille","lat":43.29276,"lon":5.36841,"is_reserved":false,"is_disabled":false,"rental_uris":{"android":"levelo://app?vid=808cfb55-d261-486a-8428-f8d18d9ba1bf","ios":"levelo://app?vid=808cfb55-d261-486a-8428-f8d18d9ba1bf"},"vehicle_type_id":"4","last_reported":1746958187,"current_range_meters":9200,"station_id":"ce4bhbp2rcd13ifvqesg","pricing_plan_id":"cebpf4jnsgd1na2vs0mg"},{"bike_id":"c7b2c172-c868-409b-94b2-994d10fee645","system_id":"levelo_inurba_marseille","lat":43.26062,"lon":5.39395,"is_reserved":false,"is_disabled":false,"rental_uris":{"android":"levelo://app?vid=c7b2c172-c868-409b-94b2-994d10fee645","ios":"levelo://app?vid=c7b2c172-c868-409b-94b2-994d10fee645"},"vehicle_type_id":"4","last_reported":1746958187,"current_range_meters":9200,"station_id":"ce4bhh92rcd13ifvqfj0","pricing_plan_id":"cebpf4jnsgd1na2vs0mg"},{"bike_id":"24a40667-661d-4b2a-b265-049a415d871e","system_id":"levelo_inurba_marseille","lat":43.21199,"lon":5.35067,"is_reserved":false,"is_disabled":false,"rental_uris":{"android":"levelo://app?vid=24a40667-661d-4b2a-b265-049a415d871e","ios":"levelo://app?vid=24a40667-661d-4b2a-b265-049a415d871e"},"vehicle_type_id":"4","last_reported":1746958187,"current_range_meters":9600,"station_id":"st_cvj6sg6p6f1abm77japg","pricing_plan_id":"cebpf4jnsgd1na2vs0mg"},{"bike_id":"a02ffbc2-9425-4fca-adf2-aa782bea21cc","system_id":"levelo_inurba_marseille","lat":43.29306,"lon":5.37177,"is_reserved":false,"is_disabled":false,"rental_uris":{"android":"levelo://app?vid=a02ffbc2-9425-4fca-adf2-aa782bea21cc","ios":"levelo://app?vid=a02ffbc2-9425-4fca-adf2-aa782bea21cc"},"vehicle_type_id":"4","last_reported":1746958187,"current_range_meters":10000,"station_id":"ce4bgh92rcd13ifvqb40","pricing_plan_id":"cebpf4jnsgd1na2vs0mg"},{"bike_id":"091b2495-8506-43b4-b374-57e577b837c4","system_id":"levelo_inurba_marseille","lat":43.25126,"lon":5.40326,"is_reserved":false,"is_disabled":false,"rental_uris":{"android":"levelo://app?vid=091b2495-8506-43b4-b374-57e577b837c4","ios":"levelo://app?vid=091b2495-8506-43b4-b374-57e577b837c4"},"vehicle_type_id":"4","last_reported":1746958187,"current_range_meters":10000,"station_id":"ce4bhlh2rcd13ifvqgig","pricing_plan_id":"cebpf4jnsgd1na2vs0mg"},{"bike_id":"ec404f68-c205-4cad-bb82-d8a5e08af78b","system_id":"levelo_inurba_marseille","lat":43.25124,"lon":5.40334,"is_reserved":false,"is_disabled":false,"rental_uris":{"android":"levelo://app?vid=ec404f68-c205-4cad-bb82-d8a5e08af78b","ios":"levelo://app?vid=ec404f68-c205-4cad-bb82-d8a5e08af78b"},"vehicle_type_id":"4","last_reported":1746958187,"current_range_meters":10000,"station_id":"ce4bhlh2rcd13ifvqgig","pricing_plan_id":"cebpf4jnsgd1na2vs0mg"},{"bike_id":"fc2577e7-1497-425b-9d4f-ab8d7dc843c6","system_id":"levelo_inurba_marseille","lat":43.33771,"lon":5.37485,"is_reserved":false,"is_disabled":false,"rental_uris":{"android":"levelo://app?vid=fc2577e7-1497-425b-9d4f-ab8d7dc843c6","ios":"levelo://app?vid=fc2577e7-1497-425b-9d4f-ab8d7dc843c6"},"vehicle_type_id":"4","last_reported":1746958187,"current_range_meters":10800,"station_id":"","pricing_plan_id":"cebpf4jnsgd1na2vs0mg"},{"bike_id":"929953f5-a4e9-44d4-acf4-2fad412a7ac8","system_id":"levelo_inurba_marseille","lat":43.27627,"lon":5.361,"is_reserved":false,"is_disabled":false,"rental_uris":{"android":"levelo://app?vid=929953f5-a4e9-44d4-acf4-2fad412a7ac8","ios":"levelo://app?vid=929953f5-a4e9-44d4-acf4-2fad412a7ac8"},"vehicle_type_id":"4","last_reported":1746958187,"current_range_meters":10800,"station_id":"ce4bgj92rcd13ifvqbe0","pricing_plan_id":"cebpf4jnsgd1na2vs0mg"},{"bike_id":"179106d7-9d64-42fb-9195-a7401296f0b0","system_id":"levelo_inurba_marseille","lat":43.30557,"lon":5.3654,"is_reserved":false,"is_disabled":false,"rental_uris":{"android":"levelo://app?vid=179106d7-9d64-42fb-9195-a7401296f0b0","ios":"levelo://app?vid=179106d7-9d64-42fb-9195-a7401296f0b0"},"vehicle_type_id":"4","last_reported":1746958187,"current_range_meters":10800,"station_id":"ce4bgs12rcd13ifvqcag","pricing_plan_id":"cebpf4jnsgd1na2vs0mg"},{"bike_id":"43e885c7-77b4-4f26-8f93-604935af08e9","system_id":"levelo_inurba_marseille","lat":43.21194,"lon":5.35071,"is_reserved":false,"is_disabled":false,"rental_uris":{"android":"levelo://app?vid=43e885c7-77b4-4f26-8f93-604935af08e9","ios":"levelo://app?vid=43e885c7-77b4-4f26-8f93-604935af08e9"},"vehicle_type_id":"4","last_reported":1746958187,"current_range_meters":10800,"station_id":"st_cvj6sg6p6f1abm77japg","pricing_plan_id":"cebpf4jnsgd1na2vs0mg"},{"bike_id":"312dff20-1487-4867-9704-d2f7a451a407","system_id":"levelo_inurba_marseille","lat":43.27183,"lon":5.40992,"is_reserved":false,"is_disabled":false,"rental_uris":{"android":"levelo://app?vid=312dff20-1487-4867-9704-d2f7a451a407","ios":"levelo://app?vid=312dff20-1487-4867-9704-d2f7a451a407"},"vehicle_type_id":"4","last_reported":1746958187,"current_range_meters":11200,"station_id":"ce4bhl12rcd13ifvqgf0","pricing_plan_id":"cebpf4jnsgd1na2vs0mg"},{"bike_id":"b4beccf2-8954-4b5d-822f-ca9804d3eec4","system_id":"levelo_inurba_marseille","lat":43.30471,"lon":5.37904,"is_reserved":false,"is_disabled":false,"rental_uris":{"android":"levelo://app?vid=b4beccf2-8954-4b5d-822f-ca9804d3eec4","ios":"levelo://app?vid=b4beccf2-8954-4b5d-822f-ca9804d3eec4"},"vehicle_type_id":"4","last_reported":1746958187,"current_range_meters":11600,"station_id":"ce4bgup2rcd13ifvqcn0","pricing_plan_id":"cebpf4jnsgd1na2vs0mg"},{"bike_id":"50a5f453-7480-4c0c-a853-520dbe4eaaaf","system_id":"levelo_inurba_marseille","lat":43.303267,"lon":5.404391,"is_reserved":false,"is_disabled":false,"rental_uris":{"android":"levelo://app?vid=50a5f453-7480-4c0c-a853-520dbe4eaaaf","ios":"levelo://app?vid=50a5f453-7480-4c0c-a853-520dbe4eaaaf"},"vehicle_type_id":"4","last_reported":1746958187,"current_range_meters":11600,"station_id":"ce4bh012rcd13ifvqd10","pricing_plan_id":"cebpf4jnsgd1na2vs0mg"},{"bike_id":"57c99939-288f-447c-93b1-53505c4850ae","system_id":"levelo_inurba_marseille","lat":43.30326,"lon":5.40443,"is_reserved":false,"is_disabled":false,"rental_uris":{"android":"levelo://app?vid=57c99939-288f-447c-93b1-53505c4850ae","ios":"levelo://app?vid=57c99939-288f-447c-93b1-53505c4850ae"},"vehicle_type_id":"4","last_reported":1746958187,"current_range_meters":11600,"station_id":"ce4bh012rcd13ifvqd10","pricing_plan_id":"cebpf4jnsgd1na2vs0mg"},{"bike_id":"a1121b36-b5cd-4dda-96ef-13a3dfaa55e1","system_id":"levelo_inurba_marseille","lat":43.301401,"lon":5.387791,"is_reserved":false,"is_disabled":false,"rental_uris":{"android":"levelo://app?vid=a1121b36-b5cd-4dda-96ef-13a3dfaa55e1","ios":"levelo://app?vid=a1121b36-b5cd-4dda-96ef-13a3dfaa55e1"},"vehicle_type_id":"4","last_reported":1746958187,"current_range_meters":12400,"station_id":"","pricing_plan_id":"cebpf4jnsgd1na2vs0mg"},{"bike_id":"83807cf3-6d2a-4db8-81b8-3d8dceb33aee","system_id":"levelo_inurba_marseille","lat":43.299324,"lon":5.36557,"is_reserved":false,"is_disabled":false,"rental_uris":{"android":"levelo://app?vid=83807cf3-6d2a-4db8-81b8-3d8dceb33aee","ios":"levelo://app?vid=83807cf3-6d2a-4db8-81b8-3d8dceb33aee"},"vehicle_type_id":"4","last_reported":1746958187,"current_range_meters":12400,"station_id":"ce4bgm92rcd13ifvqbr0","pricing_plan_id":"cebpf4jnsgd1na2vs0mg"},{"bike_id":"38259563-0186-4f31-9283-79a8ad1a68e3","system_id":"levelo_inurba_marseille","lat":43.30784,"lon":5.37645,"is_reserved":false,"is_disabled":false,"rental_uris":{"android":"levelo://app?vid=38259563-0186-4f31-9283-79a8ad1a68e3","ios":"levelo://app?vid=38259563-0186-4f31-9283-79a8ad1a68e3"},"vehicle_type_id":"4","last_reported":1746958187,"current_range_meters":12400,"station_id":"ce4bgv92rcd13ifvqcq0","pricing_plan_id":"cebpf4jnsgd1na2vs0mg"},{"bike_id":"8dff2121-0da5-4288-af5a-07d99e044373","system_id":"levelo_inurba_marseille","lat":43.309219,"lon":5.40137,"is_reserved":false,"is_disabled":false,"rental_uris":{"android":"levelo://app?vid=8dff2121-0da5-4288-af5a-07d99e044373","ios":"levelo://app?vid=8dff2121-0da5-4288-af5a-07d99e044373"},"vehicle_type_id":"4","last_reported":1746958187,"current_range_meters":12400,"station_id":"ce4bgvp2rcd13ifvqct0","pricing_plan_id":"cebpf4jnsgd1na2vs0mg"},{"bike_id":"d83b7170-8eed-47c1-b0ec-1140d3a45dea","system_id":"levelo_inurba_marseille","lat":43.308089,"lon":5.435329,"is_reserved":false,"is_disabled":false,"rental_uris":{"android":"levelo://app?vid=d83b7170-8eed-47c1-b0ec-1140d3a45dea","ios":"levelo://app?vid=d83b7170-8eed-47c1-b0ec-1140d3a45dea"},"vehicle_type_id":"4","last_reported":1746958187,"current_range_meters":12400,"station_id":"ce4bhph2rcd13ifvqheg","pricing_plan_id":"cebpf4jnsgd1na2vs0mg"},{"bike_id":"efc0a0d5-a353-4db4-9aad-8fb20bd2a998","system_id":"levelo_inurba_marseille","lat":43.25712,"lon":5.4109,"is_reserved":false,"is_disabled":false,"rental_uris":{"android":"levelo://app?vid=efc0a0d5-a353-4db4-9aad-8fb20bd2a998","ios":"levelo://app?vid=efc0a0d5-a353-4db4-9aad-8fb20bd2a998"},"vehicle_type_id":"4","last_reported":1746958187,"current_range_meters":12800,"station_id":"ce4bhkp2rcd13ifvqgd0","pricing_plan_id":"cebpf4jnsgd1na2vs0mg"},{"bike_id":"a30caeef-10cc-433b-ab2e-0e5695eed2d1","system_id":"levelo_inurba_marseille","lat":43.2953,"lon":5.38541,"is_reserved":false,"is_disabled":false,"rental_uris":{"android":"levelo://app?vid=a30caeef-10cc-433b-ab2e-0e5695eed2d1","ios":"levelo://app?vid=a30caeef-10cc-433b-ab2e-0e5695eed2d1"},"vehicle_type_id":"4","last_reported":1746958187,"current_range_meters":13600,"station_id":"ce4bgih2rcd13ifvqba0","pricing_plan_id":"cebpf4jnsgd1na2vs0mg"},{"bike_id":"cbe5e661-c3e6-4a61-bcb7-bf5eab36baff","system_id":"levelo_inurba_marseille","lat":43.30336,"lon":5.40441,"is_reserved":false,"is_disabled":false,"rental_uris":{"android":"levelo://app?vid=cbe5e661-c3e6-4a61-bcb7-bf5eab36baff","ios":"levelo://app?vid=cbe5e661-c3e6-4a61-bcb7-bf5eab36baff"},"vehicle_type_id":"4","last_reported":1746958187,"current_range_meters":13600,"station_id":"ce4bh012rcd13ifvqd10","pricing_plan_id":"cebpf4jnsgd1na2vs0mg"},{"bike_id":"1998f3c8-37c6-4969-be5a-42f21168c145","system_id":"levelo_inurba_marseille","lat":43.2942,"lon":5.38633,"is_reserved":false,"is_disabled":false,"rental_uris":{"android":"levelo://app?vid=1998f3c8-37c6-4969-be5a-42f21168c145","ios":"levelo://app?vid=1998f3c8-37c6-4969-be5a-42f21168c145"},"vehicle_type_id":"4","last_reported":1746958187,"current_range_meters":13600,"station_id":"ce4bh2h2rcd13ifvqdh0","pricing_plan_id":"cebpf4jnsgd1na2vs0mg"},{"bike_id":"8997d03c-de4d-472f-b149-178f408dc8e3","system_id":"levelo_inurba_marseille","lat":43.29721,"lon":5.36609,"is_reserved":false,"is_disabled":false,"rental_uris":{"android":"levelo://app?vid=8997d03c-de4d-472f-b149-178f408dc8e3","ios":"levelo://app?vid=8997d03c-de4d-472f-b149-178f408dc8e3"},"vehicle_type_id":"4","last_reported":1746958187,"current_range_meters":14000,"station_id":"ce4bgn12rcd13ifvqbt0","pricing_plan_id":"cebpf4jnsgd1na2vs0mg"},{"bike_id":"c9bc5385-9ba1-4b73-9dbd-f22c6fd7cff0","system_id":"levelo_inurba_marseille","lat":43.30561,"lon":5.3655,"is_reserved":false,"is_disabled":false,"rental_uris":{"android":"levelo://app?vid=c9bc5385-9ba1-4b73-9dbd-f22c6fd7cff0","ios":"levelo://app?vid=c9bc5385-9ba1-4b73-9dbd-f22c6fd7cff0"},"vehicle_type_id":"4","last_reported":1746958187,"current_range_meters":14000,"station_id":"ce4bgs12rcd13ifvqcag","pricing_plan_id":"cebpf4jnsgd1na2vs0mg"},{"bike_id":"ddcfb27c-5b9c-4e5f-9a5a-7ffd9d19ccc6","system_id":"levelo_inurba_marseille","lat":43.30479,"lon":5.37903,"is_reserved":false,"is_disabled":false,"rental_uris":{"android":"levelo://app?vid=ddcfb27c-5b9c-4e5f-9a5a-7ffd9d19ccc6","ios":"levelo://app?vid=ddcfb27c-5b9c-4e5f-9a5a-7ffd9d19ccc6"},"vehicle_type_id":"4","last_reported":1746958187,"current_range_meters":14000,"station_id":"ce4bgup2rcd13ifvqcn0","pricing_plan_id":"cebpf4jnsgd1na2vs0mg"},{"bike_id":"ef1a9b97-58cb-4263-8e8c-c8474f870fba","system_id":"levelo_inurba_marseille","lat":43.3014,"lon":5.37405,"is_reserved":false,"is_disabled":false,"rental_uris":{"android":"levelo://app?vid=ef1a9b97-58cb-4263-8e8c-c8474f870fba","ios":"levelo://app?vid=ef1a9b97-58cb-4263-8e8c-c8474f870fba"},"vehicle_type_id":"4","last_reported":1746958187,"current_range_meters":14800,"station_id":"ce4bgs92rcd13ifvqcc0","pricing_plan_id":"cebpf4jnsgd1na2vs0mg"},{"bike_id":"3e89ec98-4dc0-47d6-98d5-e2482abd8e99","system_id":"levelo_inurba_marseille","lat":43.31703,"lon":5.4046,"is_reserved":false,"is_disabled":false,"rental_uris":{"android":"levelo://app?vid=3e89ec98-4dc0-47d6-98d5-e2482abd8e99","ios":"levelo://app?vid=3e89ec98-4dc0-47d6-98d5-e2482abd8e99"},"vehicle_type_id":"4","last_reported":1746958187,"current_range_meters":15200,"station_id":"ce4bh012rcd13ifvqd00","pricing_plan_id":"cebpf4jnsgd1na2vs0mg"},{"bike_id":"f52c819d-ca4b-4640-b458-b877db1bf990","system_id":"levelo_inurba_marseille","lat":43.298634,"lon":5.410129,"is_reserved":false,"is_disabled":false,"rental_uris":{"android":"levelo://app?vid=f52c819d-ca4b-4640-b458-b877db1bf990","ios":"levelo://app?vid=f52c819d-ca4b-4640-b458-b877db1bf990"},"vehicle_type_id":"4","last_reported":1746958187,"current_range_meters":16000,"station_id":"","pricing_plan_id":"cebpf4jnsgd1na2vs0mg"},{"bike_id":"98b1c792-d98c-4ae1-8e15-08f22740e98a","system_id":"levelo_inurba_marseille","lat":43.29622,"lon":5.3772,"is_reserved":false,"is_disabled":false,"rental_uris":{"android":"levelo://app?vid=98b1c792-d98c-4ae1-8e15-08f22740e98a","ios":"levelo://app?vid=98b1c792-d98c-4ae1-8e15-08f22740e98a"},"vehicle_type_id":"4","last_reported":1746958187,"current_range_meters":16000,"station_id":"ce4bgi92rcd13ifvqb90","pricing_plan_id":"cebpf4jnsgd1na2vs0mg"},{"bike_id":"c21a11d9-8f7f-426a-b684-74de37d35965","system_id":"levelo_inurba_marseille","lat":43.30908,"lon":5.36848,"is_reserved":false,"is_disabled":false,"rental_uris":{"android":"levelo://app?vid=c21a11d9-8f7f-426a-b684-74de37d35965","ios":"levelo://app?vid=c21a11d9-8f7f-426a-b684-74de37d35965"},"vehicle_type_id":"4","last_reported":1746958187,"current_range_meters":16000,"station_id":"ce4bgn92rcd13ifvqbvg","pricing_plan_id":"cebpf4jnsgd1na2vs0mg"},{"bike_id":"fe8a300c-df4c-42e1-b092-cce77e5975ce","system_id":"levelo_inurba_marseille","lat":43.25726,"lon":5.41091,"is_reserved":false,"is_disabled":false,"rental_uris":{"android":"levelo://app?vid=fe8a300c-df4c-42e1-b092-cce77e5975ce","ios":"levelo://app?vid=fe8a300c-df4c-42e1-b092-cce77e5975ce"},"vehicle_type_id":"4","last_reported":1746958187,"current_range_meters":16000,"station_id":"ce4bhkp2rcd13ifvqgd0","pricing_plan_id":"cebpf4jnsgd1na2vs0mg"},{"bike_id":"c8f6d7af-9a22-408b-aec3-313489087350","system_id":"levelo_inurba_marseille","lat":43.28,"lon":5.40011,"is_reserved":false,"is_disabled":false,"rental_uris":{"android":"levelo://app?vid=c8f6d7af-9a22-408b-aec3-313489087350","ios":"levelo://app?vid=c8f6d7af-9a22-408b-aec3-313489087350"},"vehicle_type_id":"4","last_reported":1746958187,"current_range_meters":16000,"station_id":"ce4bho92rcd13ifvqh4g","pricing_plan_id":"cebpf4jnsgd1na2vs0mg"},{"bike_id":"0e9a568c-80c5-46e1-a46b-20fbbee38704","system_id":"levelo_inurba_marseille","lat":43.29213,"lon":5.39994,"is_reserved":false,"is_disabled":false,"rental_uris":{"android":"levelo://app?vid=0e9a568c-80c5-46e1-a46b-20fbbee38704","ios":"levelo://app?vid=0e9a568c-80c5-46e1-a46b-20fbbee38704"},"vehicle_type_id":"4","last_reported":1746958187,"current_range_meters":16400,"station_id":"","pricing_plan_id":"cebpf4jnsgd1na2vs0mg"},{"bike_id":"3e80ebba-e533-45e2-8b84-50c6e8971b7c","system_id":"levelo_inurba_marseille","lat":43.29096,"lon":5.38117,"is_reserved":false,"is_disabled":false,"rental_uris":{"android":"levelo://app?vid=3e80ebba-e533-45e2-8b84-50c6e8971b7c","ios":"levelo://app?vid=3e80ebba-e533-45e2-8b84-50c6e8971b7c"},"vehicle_type_id":"4","last_reported":1746958187,"current_range_meters":16800,"station_id":"ce4bh512rcd13ifvqe2g","pricing_plan_id":"cebpf4jnsgd1na2vs0mg"},{"bike_id":"a7c49201-9ab0-457d-877d-db711ee0ddea","system_id":"levelo_inurba_marseille","lat":43.27357,"lon":5.36233,"is_reserved":false,"is_disabled":false,"rental_uris":{"android":"levelo://app?vid=a7c49201-9ab0-457d-877d-db711ee0ddea","ios":"levelo://app?vid=a7c49201-9ab0-457d-877d-db711ee0ddea"},"vehicle_type_id":"4","last_reported":1746958187,"current_range_meters":16800,"station_id":"ce4bhbh2rcd13ifvqeo0","pricing_plan_id":"cebpf4jnsgd1na2vs0mg"},{"bike_id":"c37ca2b1-69dc-46e9-94be-7c01aebc93d5","system_id":"levelo_inurba_marseille","lat":43.30255,"lon":5.36654,"is_reserved":false,"is_disabled":false,"rental_uris":{"android":"levelo://app?vid=c37ca2b1-69dc-46e9-94be-7c01aebc93d5","ios":"levelo://app?vid=c37ca2b1-69dc-46e9-94be-7c01aebc93d5"},"vehicle_type_id":"4","last_reported":1746958187,"current_range_meters":17200,"station_id":"","pricing_plan_id":"cebpf4jnsgd1na2vs0mg"},{"bike_id":"05a28c03-648d-420c-aceb-de3774406286","system_id":"levelo_inurba_marseille","lat":43.30555,"lon":5.36558,"is_reserved":false,"is_disabled":false,"rental_uris":{"android":"levelo://app?vid=05a28c03-648d-420c-aceb-de3774406286","ios":"levelo://app?vid=05a28c03-648d-420c-aceb-de3774406286"},"vehicle_type_id":"4","last_reported":1746958187,"current_range_meters":17200,"station_id":"ce4bgs12rcd13ifvqcag","pricing_plan_id":"cebpf4jnsgd1na2vs0mg"},{"bike_id":"f6bfc166-49f5-43c8-b8bb-5c1f825bf764","system_id":"levelo_inurba_marseille","lat":43.280759,"lon":5.396578,"is_reserved":false,"is_disabled":false,"rental_uris":{"android":"levelo://app?vid=f6bfc166-49f5-43c8-b8bb-5c1f825bf764","ios":"levelo://app?vid=f6bfc166-49f5-43c8-b8bb-5c1f825bf764"},"vehicle_type_id":"4","last_reported":1746958187,"current_range_meters":17200,"station_id":"ce4bho12rcd13ifvqh2g","pricing_plan_id":"cebpf4jnsgd1na2vs0mg"},{"bike_id":"a3cfbeb5-0ed1-4c8e-8d1d-c9603b834a27","system_id":"levelo_inurba_marseille","lat":43.32274,"lon":5.40651,"is_reserved":false,"is_disabled":false,"rental_uris":{"android":"levelo://app?vid=a3cfbeb5-0ed1-4c8e-8d1d-c9603b834a27","ios":"levelo://app?vid=a3cfbeb5-0ed1-4c8e-8d1d-c9603b834a27"},"vehicle_type_id":"4","last_reported":1746958187,"current_range_meters":17600,"station_id":"","pricing_plan_id":"cebpf4jnsgd1na2vs0mg"},{"bike_id":"c74eb00d-c83b-4ae0-a061-a88f1468438b","system_id":"levelo_inurba_marseille","lat":43.2694,"lon":5.38936,"is_reserved":false,"is_disabled":false,"rental_uris":{"android":"levelo://app?vid=c74eb00d-c83b-4ae0-a061-a88f1468438b","ios":"levelo://app?vid=c74eb00d-c83b-4ae0-a061-a88f1468438b"},"vehicle_type_id":"4","last_reported":1746958187,"current_range_meters":17600,"station_id":"ce4bhhh2rcd13ifvqfl0","pricing_plan_id":"cebpf4jnsgd1na2vs0mg"},{"bike_id":"46f74274-963c-4473-baee-b2b0c7e8a736","system_id":"levelo_inurba_marseille","lat":43.29272,"lon":5.36842,"is_reserved":false,"is_disabled":false,"rental_uris":{"android":"levelo://app?vid=46f74274-963c-4473-baee-b2b0c7e8a736","ios":"levelo://app?vid=46f74274-963c-4473-baee-b2b0c7e8a736"},"vehicle_type_id":"4","last_reported":1746958187,"current_range_meters":18000,"station_id":"ce4bhbp2rcd13ifvqesg","pricing_plan_id":"cebpf4jnsgd1na2vs0mg"},{"bike_id":"d740be2a-867c-42f0-893b-a550f7411c44","system_id":"levelo_inurba_marseille","lat":43.30334,"lon":5.40436,"is_reserved":false,"is_disabled":false,"rental_uris":{"android":"levelo://app?vid=d740be2a-867c-42f0-893b-a550f7411c44","ios":"levelo://app?vid=d740be2a-867c-42f0-893b-a550f7411c44"},"vehicle_type_id":"4","last_reported":1746958187,"current_range_meters":18800,"station_id":"ce4bh012rcd13ifvqd10","pricing_plan_id":"cebpf4jnsgd1na2vs0mg"},{"bike_id":"b4bced20-a605-4c9c-a28a-a06efd44b63b","system_id":"levelo_inurba_marseille","lat":43.23197,"lon":5.39984,"is_reserved":false,"is_disabled":false,"rental_uris":{"android":"levelo://app?vid=b4bced20-a605-4c9c-a28a-a06efd44b63b","ios":"levelo://app?vid=b4bced20-a605-4c9c-a28a-a06efd44b63b"},"vehicle_type_id":"4","last_reported":1746958187,"current_range_meters":18800,"station_id":"ce4bhn12rcd13ifvqgqg","pricing_plan_id":"cebpf4jnsgd1na2vs0mg"},{"bike_id":"83a5dddc-f08f-476e-a316-d0e0dfb65037","system_id":"levelo_inurba_marseille","lat":43.3173,"lon":5.42397,"is_reserved":false,"is_disabled":false,"rental_uris":{"android":"levelo://app?vid=83a5dddc-f08f-476e-a316-d0e0dfb65037","ios":"levelo://app?vid=83a5dddc-f08f-476e-a316-d0e0dfb65037"},"vehicle_type_id":"4","last_reported":1746958187,"current_range_meters":18800,"station_id":"ce4bhp92rcd13ifvqhbg","pricing_plan_id":"cebpf4jnsgd1na2vs0mg"},{"bike_id":"90ff561e-5013-42d6-8b04-dc227db2cd04","system_id":"levelo_inurba_marseille","lat":43.27079,"lon":5.42281,"is_reserved":false,"is_disabled":false,"rental_uris":{"android":"levelo://app?vid=90ff561e-5013-42d6-8b04-dc227db2cd04","ios":"levelo://app?vid=90ff561e-5013-42d6-8b04-dc227db2cd04"},"vehicle_type_id":"4","last_reported":1746958187,"current_range_meters":19200,"station_id":"ce4bhk92rcd13ifvqgb0","pricing_plan_id":"cebpf4jnsgd1na2vs0mg"},{"bike_id":"36a5c11b-0cfd-4fde-ba39-eeadc35dedb1","system_id":"levelo_inurba_marseille","lat":43.25118,"lon":5.40315,"is_reserved":false,"is_disabled":false,"rental_uris":{"android":"levelo://app?vid=36a5c11b-0cfd-4fde-ba39-eeadc35dedb1","ios":"levelo://app?vid=36a5c11b-0cfd-4fde-ba39-eeadc35dedb1"},"vehicle_type_id":"4","last_reported":1746958187,"current_range_meters":19200,"station_id":"ce4bhlh2rcd13ifvqgig","pricing_plan_id":"cebpf4jnsgd1na2vs0mg"},{"bike_id":"b6f0504a-f7d7-4a97-b810-e7c9e7b1c671","system_id":"levelo_inurba_marseille","lat":43.279015,"lon":5.412501,"is_reserved":false,"is_disabled":false,"rental_uris":{"android":"levelo://app?vid=b6f0504a-f7d7-4a97-b810-e7c9e7b1c671","ios":"levelo://app?vid=b6f0504a-f7d7-4a97-b810-e7c9e7b1c671"},"vehicle_type_id":"4","last_reported":1746958187,"current_range_meters":19600,"station_id":"","pricing_plan_id":"cebpf4jnsgd1na2vs0mg"},{"bike_id":"923bc3c8-9653-42f6-ab2d-a12cb585d499","system_id":"levelo_inurba_marseille","lat":43.29439,"lon":5.38689,"is_reserved":false,"is_disabled":false,"rental_uris":{"android":"levelo://app?vid=923bc3c8-9653-42f6-ab2d-a12cb585d499","ios":"levelo://app?vid=923bc3c8-9653-42f6-ab2d-a12cb585d499"},"vehicle_type_id":"4","last_reported":1746958187,"current_range_meters":19600,"station_id":"","pricing_plan_id":"cebpf4jnsgd1na2vs0mg"},{"bike_id":"b018dc55-c608-440d-be8b-7f76717b68e3","system_id":"levelo_inurba_marseille","lat":43.29275,"lon":5.36843,"is_reserved":false,"is_disabled":false,"rental_uris":{"android":"levelo://app?vid=b018dc55-c608-440d-be8b-7f76717b68e3","ios":"levelo://app?vid=b018dc55-c608-440d-be8b-7f76717b68e3"},"vehicle_type_id":"4","last_reported":1746958187,"current_range_meters":19600,"station_id":"ce4bhbp2rcd13ifvqesg","pricing_plan_id":"cebpf4jnsgd1na2vs0mg"},{"bike_id":"ecf30971-3e43-4ac6-bd94-625d58cd9b21","system_id":"levelo_inurba_marseille","lat":43.27974,"lon":5.38736,"is_reserved":false,"is_disabled":false,"rental_uris":{"android":"levelo://app?vid=ecf30971-3e43-4ac6-bd94-625d58cd9b21","ios":"levelo://app?vid=ecf30971-3e43-4ac6-bd94-625d58cd9b21"},"vehicle_type_id":"4","last_reported":1746958187,"current_range_meters":19600,"station_id":"ce4bhg12rcd13ifvqf80","pricing_plan_id":"cebpf4jnsgd1na2vs0mg"},{"bike_id":"b11766cb-22b8-431e-9cb2-16a7d2e68527","system_id":"levelo_inurba_marseille","lat":43.28,"lon":5.41664,"is_reserved":false,"is_disabled":false,"rental_uris":{"android":"levelo://app?vid=b11766cb-22b8-431e-9cb2-16a7d2e68527","ios":"levelo://app?vid=b11766cb-22b8-431e-9cb2-16a7d2e68527"},"vehicle_type_id":"4","last_reported":1746958187,"current_range_meters":19600,"station_id":"ce4bho12rcd13ifvqh1g","pricing_plan_id":"cebpf4jnsgd1na2vs0mg"},{"bike_id":"4d493fdd-982f-4c2c-9d40-4ea43eb8fd4a","system_id":"levelo_inurba_marseille","lat":43.25504,"lon":5.37648,"is_reserved":false,"is_disabled":false,"rental_uris":{"android":"levelo://app?vid=4d493fdd-982f-4c2c-9d40-4ea43eb8fd4a","ios":"levelo://app?vid=4d493fdd-982f-4c2c-9d40-4ea43eb8fd4a"},"vehicle_type_id":"4","last_reported":1746958187,"current_range_meters":20000,"station_id":"ce4bhh12rcd13ifvqff0","pricing_plan_id":"cebpf4jnsgd1na2vs0mg"},{"bike_id":"2da1674f-49ff-46a0-98eb-4248a5ed1897","system_id":"levelo_inurba_marseille","lat":43.32337,"lon":5.36735,"is_reserved":false,"is_disabled":false,"rental_uris":{"android":"levelo://app?vid=2da1674f-49ff-46a0-98eb-4248a5ed1897","ios":"levelo://app?vid=2da1674f-49ff-46a0-98eb-4248a5ed1897"},"vehicle_type_id":"4","last_reported":1746958187,"current_range_meters":20000,"station_id":"ce4bhsh2rcd13ifvqi2g","pricing_plan_id":"cebpf4jnsgd1na2vs0mg"},{"bike_id":"fd1ce379-462b-48bc-accb-c8398ac53977","system_id":"levelo_inurba_marseille","lat":43.29296,"lon":5.37459,"is_reserved":false,"is_disabled":false,"rental_uris":{"android":"levelo://app?vid=fd1ce379-462b-48bc-accb-c8398ac53977","ios":"levelo://app?vid=fd1ce379-462b-48bc-accb-c8398ac53977"},"vehicle_type_id":"4","last_reported":1746958187,"current_range_meters":20400,"station_id":"ce4bgi12rcd13ifvqb70","pricing_plan_id":"cebpf4jnsgd1na2vs0mg"},{"bike_id":"6ccdcef0-6108-4dc6-a1cf-5d95934c62e4","system_id":"levelo_inurba_marseille","lat":43.30196,"lon":5.36624,"is_reserved":false,"is_disabled":false,"rental_uris":{"android":"levelo://app?vid=6ccdcef0-6108-4dc6-a1cf-5d95934c62e4","ios":"levelo://app?vid=6ccdcef0-6108-4dc6-a1cf-5d95934c62e4"},"vehicle_type_id":"4","last_reported":1746958187,"current_range_meters":20400,"station_id":"ce4bgrh2rcd13ifvqc8g","pricing_plan_id":"cebpf4jnsgd1na2vs0mg"},{"bike_id":"0d08369d-2e1a-4a71-af53-357e372ea6c1","system_id":"levelo_inurba_marseille","lat":43.3169,"lon":5.4048,"is_reserved":false,"is_disabled":false,"rental_uris":{"android":"levelo://app?vid=0d08369d-2e1a-4a71-af53-357e372ea6c1","ios":"levelo://app?vid=0d08369d-2e1a-4a71-af53-357e372ea6c1"},"vehicle_type_id":"4","last_reported":1746958187,"current_range_meters":20400,"station_id":"ce4bh012rcd13ifvqd00","pricing_plan_id":"cebpf4jnsgd1na2vs0mg"},{"bike_id":"01a5909d-76ca-422b-9674-66e494fe2892","system_id":"levelo_inurba_marseille","lat":43.25003,"lon":5.38932,"is_reserved":false,"is_disabled":false,"rental_uris":{"android":"levelo://app?vid=01a5909d-76ca-422b-9674-66e494fe2892","ios":"levelo://app?vid=01a5909d-76ca-422b-9674-66e494fe2892"},"vehicle_type_id":"4","last_reported":1746958187,"current_range_meters":20400,"station_id":"ce4bhgp2rcd13ifvqfd0","pricing_plan_id":"cebpf4jnsgd1na2vs0mg"},{"bike_id":"901d25d5-e0a4-4b9d-9519-beabbed3efe8","system_id":"levelo_inurba_marseille","lat":43.21203,"lon":5.3507,"is_reserved":false,"is_disabled":false,"rental_uris":{"android":"levelo://app?vid=901d25d5-e0a4-4b9d-9519-beabbed3efe8","ios":"levelo://app?vid=901d25d5-e0a4-4b9d-9519-beabbed3efe8"},"vehicle_type_id":"4","last_reported":1746958187,"current_range_meters":20400,"station_id":"st_cvj6sg6p6f1abm77japg","pricing_plan_id":"cebpf4jnsgd1na2vs0mg"},{"bike_id":"aca142bd-2716-4ee3-8c04-bd27c952c647","system_id":"levelo_inurba_marseille","lat":43.264585,"lon":5.37497,"is_reserved":false,"is_disabled":false,"rental_uris":{"android":"levelo://app?vid=aca142bd-2716-4ee3-8c04-bd27c952c647","ios":"levelo://app?vid=aca142bd-2716-4ee3-8c04-bd27c952c647"},"vehicle_type_id":"4","last_reported":1746958187,"current_range_meters":20800,"station_id":"","pricing_plan_id":"cebpf4jnsgd1na2vs0mg"},{"bike_id":"b07bfc09-4ee4-480d-951d-bf310d1d8d6c","system_id":"levelo_inurba_marseille","lat":43.321505,"lon":5.38468,"is_reserved":false,"is_disabled":false,"rental_uris":{"android":"levelo://app?vid=b07bfc09-4ee4-480d-951d-bf310d1d8d6c","ios":"levelo://app?vid=b07bfc09-4ee4-480d-951d-bf310d1d8d6c"},"vehicle_type_id":"4","last_reported":1746958187,"current_range_meters":20800,"station_id":"","pricing_plan_id":"cebpf4jnsgd1na2vs0mg"},{"bike_id":"b9b82eff-0c51-462e-8ee0-60a0c6894f16","system_id":"levelo_inurba_marseille","lat":43.2926,"lon":5.40901,"is_reserved":false,"is_disabled":false,"rental_uris":{"android":"levelo://app?vid=b9b82eff-0c51-462e-8ee0-60a0c6894f16","ios":"levelo://app?vid=b9b82eff-0c51-462e-8ee0-60a0c6894f16"},"vehicle_type_id":"4","last_reported":1746958187,"current_range_meters":20800,"station_id":"ce4bh192rcd13ifvqdc0","pricing_plan_id":"cebpf4jnsgd1na2vs0mg"},{"bike_id":"5f4d362b-4cdb-4d11-9584-ac0178d2494f","system_id":"levelo_inurba_marseille","lat":43.25108,"lon":5.40326,"is_reserved":false,"is_disabled":false,"rental_uris":{"android":"levelo://app?vid=5f4d362b-4cdb-4d11-9584-ac0178d2494f","ios":"levelo://app?vid=5f4d362b-4cdb-4d11-9584-ac0178d2494f"},"vehicle_type_id":"4","last_reported":1746958187,"current_range_meters":20800,"station_id":"ce4bhlh2rcd13ifvqgig","pricing_plan_id":"cebpf4jnsgd1na2vs0mg"},{"bike_id":"2a2e92a8-9be2-42a0-8f8b-e8c99ed20b3a","system_id":"levelo_inurba_marseille","lat":43.23189,"lon":5.39946,"is_reserved":false,"is_disabled":false,"rental_uris":{"android":"levelo://app?vid=2a2e92a8-9be2-42a0-8f8b-e8c99ed20b3a","ios":"levelo://app?vid=2a2e92a8-9be2-42a0-8f8b-e8c99ed20b3a"},"vehicle_type_id":"4","last_reported":1746958187,"current_range_meters":20800,"station_id":"ce4bhn12rcd13ifvqgqg","pricing_plan_id":"cebpf4jnsgd1na2vs0mg"},{"bike_id":"049823d3-dacc-45f2-a12d-27fdedd73b39","system_id":"levelo_inurba_marseille","lat":43.24679,"lon":5.38178,"is_reserved":false,"is_disabled":false,"rental_uris":{"android":"levelo://app?vid=049823d3-dacc-45f2-a12d-27fdedd73b39","ios":"levelo://app?vid=049823d3-dacc-45f2-a12d-27fdedd73b39"},"vehicle_type_id":"4","last_reported":1746958187,"current_range_meters":21600,"station_id":"ce4bhih2rcd13ifvqfr0","pricing_plan_id":"cebpf4jnsgd1na2vs0mg"},{"bike_id":"9b5d4cc5-4bc2-4aef-a643-18ea143d3acc","system_id":"levelo_inurba_marseille","lat":43.29781,"lon":5.37112,"is_reserved":false,"is_disabled":false,"rental_uris":{"android":"levelo://app?vid=9b5d4cc5-4bc2-4aef-a643-18ea143d3acc","ios":"levelo://app?vid=9b5d4cc5-4bc2-4aef-a643-18ea143d3acc"},"vehicle_type_id":"4","last_reported":1746958187,"current_range_meters":22000,"station_id":"ce4bgop2rcd13ifvqc1g","pricing_plan_id":"cebpf4jnsgd1na2vs0mg"},{"bike_id":"a1132df7-36aa-49b1-9d5c-66ebc2c32f6f","system_id":"levelo_inurba_marseille","lat":43.31712,"lon":5.4371,"is_reserved":false,"is_disabled":false,"rental_uris":{"android":"levelo://app?vid=a1132df7-36aa-49b1-9d5c-66ebc2c32f6f","ios":"levelo://app?vid=a1132df7-36aa-49b1-9d5c-66ebc2c32f6f"},"vehicle_type_id":"4","last_reported":1746958187,"current_range_meters":22400,"station_id":"ce4bhp92rcd13ifvqhcg","pricing_plan_id":"cebpf4jnsgd1na2vs0mg"},{"bike_id":"c385ecbe-12fc-4c04-aaaa-37eac5c733a5","system_id":"levelo_inurba_marseille","lat":43.29419,"lon":5.38629,"is_reserved":false,"is_disabled":false,"rental_uris":{"android":"levelo://app?vid=c385ecbe-12fc-4c04-aaaa-37eac5c733a5","ios":"levelo://app?vid=c385ecbe-12fc-4c04-aaaa-37eac5c733a5"},"vehicle_type_id":"4","last_reported":1746958187,"current_range_meters":22800,"station_id":"ce4bh2h2rcd13ifvqdh0","pricing_plan_id":"cebpf4jnsgd1na2vs0mg"},{"bike_id":"cf96c7fb-c4cf-471a-9bde-df3142a2f178","system_id":"levelo_inurba_marseille","lat":43.25103,"lon":5.40329,"is_reserved":false,"is_disabled":false,"rental_uris":{"android":"levelo://app?vid=cf96c7fb-c4cf-471a-9bde-df3142a2f178","ios":"levelo://app?vid=cf96c7fb-c4cf-471a-9bde-df3142a2f178"},"vehicle_type_id":"4","last_reported":1746958187,"current_range_meters":22800,"station_id":"ce4bhlh2rcd13ifvqgig","pricing_plan_id":"cebpf4jnsgd1na2vs0mg"},{"bike_id":"a04a86c6-7a48-44af-89ba-8daac89ec82b","system_id":"levelo_inurba_marseille","lat":43.27493,"lon":5.42449,"is_reserved":false,"is_disabled":false,"rental_uris":{"android":"levelo://app?vid=a04a86c6-7a48-44af-89ba-8daac89ec82b","ios":"levelo://app?vid=a04a86c6-7a48-44af-89ba-8daac89ec82b"},"vehicle_type_id":"4","last_reported":1746958187,"current_range_meters":22800,"station_id":"ce4bhn92rcd13ifvqgrg","pricing_plan_id":"cebpf4jnsgd1na2vs0mg"},{"bike_id":"93588d02-a399-4a40-a893-2b1cc48b15a7","system_id":"levelo_inurba_marseille","lat":43.27382,"lon":5.36259,"is_reserved":false,"is_disabled":false,"rental_uris":{"android":"levelo://app?vid=93588d02-a399-4a40-a893-2b1cc48b15a7","ios":"levelo://app?vid=93588d02-a399-4a40-a893-2b1cc48b15a7"},"vehicle_type_id":"4","last_reported":1746958187,"current_range_meters":23200,"station_id":"ce4bhbh2rcd13ifvqeo0","pricing_plan_id":"cebpf4jnsgd1na2vs0mg"},{"bike_id":"e71f17aa-9ea5-406d-a42b-bae18f4f4b2f","system_id":"levelo_inurba_marseille","lat":43.324796,"lon":5.365652,"is_reserved":false,"is_disabled":false,"rental_uris":{"android":"levelo://app?vid=e71f17aa-9ea5-406d-a42b-bae18f4f4b2f","ios":"levelo://app?vid=e71f17aa-9ea5-406d-a42b-bae18f4f4b2f"},"vehicle_type_id":"4","last_reported":1746958187,"current_range_meters":23200,"station_id":"ce4bhs12rcd13ifvqhvg","pricing_plan_id":"cebpf4jnsgd1na2vs0mg"},{"bike_id":"99a97dd3-d5f5-41f0-9ad1-f84c4a40569d","system_id":"levelo_inurba_marseille","lat":43.29627,"lon":5.37723,"is_reserved":false,"is_disabled":false,"rental_uris":{"android":"levelo://app?vid=99a97dd3-d5f5-41f0-9ad1-f84c4a40569d","ios":"levelo://app?vid=99a97dd3-d5f5-41f0-9ad1-f84c4a40569d"},"vehicle_type_id":"4","last_reported":1746958187,"current_range_meters":24000,"station_id":"ce4bgi92rcd13ifvqb90","pricing_plan_id":"cebpf4jnsgd1na2vs0mg"},{"bike_id":"fc96ef19-8f41-4931-a077-035746d2a917","system_id":"levelo_inurba_marseille","lat":43.28163,"lon":5.42654,"is_reserved":false,"is_disabled":false,"rental_uris":{"android":"levelo://app?vid=fc96ef19-8f41-4931-a077-035746d2a917","ios":"levelo://app?vid=fc96ef19-8f41-4931-a077-035746d2a917"},"vehicle_type_id":"4","last_reported":1746958187,"current_range_meters":24000,"station_id":"ce4bhnh2rcd13ifvqgug","pricing_plan_id":"cebpf4jnsgd1na2vs0mg"},{"bike_id":"5ddfab05-8a3e-42ce-99ce-d4b18ff1f73e","system_id":"levelo_inurba_marseille","lat":43.3171,"lon":5.43701,"is_reserved":false,"is_disabled":false,"rental_uris":{"android":"levelo://app?vid=5ddfab05-8a3e-42ce-99ce-d4b18ff1f73e","ios":"levelo://app?vid=5ddfab05-8a3e-42ce-99ce-d4b18ff1f73e"},"vehicle_type_id":"4","last_reported":1746958187,"current_range_meters":24000,"station_id":"ce4bhp92rcd13ifvqhcg","pricing_plan_id":"cebpf4jnsgd1na2vs0mg"},{"bike_id":"8f4cb402-1c29-4c11-b45b-ee3c7d75f48f","system_id":"levelo_inurba_marseille","lat":43.32659,"lon":5.40989,"is_reserved":false,"is_disabled":false,"rental_uris":{"android":"levelo://app?vid=8f4cb402-1c29-4c11-b45b-ee3c7d75f48f","ios":"levelo://app?vid=8f4cb402-1c29-4c11-b45b-ee3c7d75f48f"},"vehicle_type_id":"4","last_reported":1746958187,"current_range_meters":24000,"station_id":"ce4bhpp2rcd13ifvqhgg","pricing_plan_id":"cebpf4jnsgd1na2vs0mg"},{"bike_id":"c65512c4-82c1-47c2-bf84-cd1ad20db18e","system_id":"levelo_inurba_marseille","lat":43.32495,"lon":5.36572,"is_reserved":false,"is_disabled":false,"rental_uris":{"android":"levelo://app?vid=c65512c4-82c1-47c2-bf84-cd1ad20db18e","ios":"levelo://app?vid=c65512c4-82c1-47c2-bf84-cd1ad20db18e"},"vehicle_type_id":"4","last_reported":1746958187,"current_range_meters":24000,"station_id":"ce4bhs12rcd13ifvqhvg","pricing_plan_id":"cebpf4jnsgd1na2vs0mg"},{"bike_id":"2a96a40c-2f62-4a43-a1c1-fa8d235cb68d","system_id":"levelo_inurba_marseille","lat":43.313687,"lon":5.376137,"is_reserved":false,"is_disabled":false,"rental_uris":{"android":"levelo://app?vid=2a96a40c-2f62-4a43-a1c1-fa8d235cb68d","ios":"levelo://app?vid=2a96a40c-2f62-4a43-a1c1-fa8d235cb68d"},"vehicle_type_id":"4","last_reported":1746958187,"current_range_meters":24400,"station_id":"","pricing_plan_id":"cebpf4jnsgd1na2vs0mg"},{"bike_id":"a546a166-3357-42b2-be14-012e05b92d7d","system_id":"levelo_inurba_marseille","lat":43.32569,"lon":5.43085,"is_reserved":false,"is_disabled":false,"rental_uris":{"android":"levelo://app?vid=a546a166-3357-42b2-be14-012e05b92d7d","ios":"levelo://app?vid=a546a166-3357-42b2-be14-012e05b92d7d"},"vehicle_type_id":"4","last_reported":1746958187,"current_range_meters":24400,"station_id":"","pricing_plan_id":"cebpf4jnsgd1na2vs0mg"},{"bike_id":"4efd2569-2234-430a-8430-62e45f1c941a","system_id":"levelo_inurba_marseille","lat":43.27919,"lon":5.39583,"is_reserved":false,"is_disabled":false,"rental_uris":{"android":"levelo://app?vid=4efd2569-2234-430a-8430-62e45f1c941a","ios":"levelo://app?vid=4efd2569-2234-430a-8430-62e45f1c941a"},"vehicle_type_id":"4","last_reported":1746958187,"current_range_meters":24400,"station_id":"","pricing_plan_id":"cebpf4jnsgd1na2vs0mg"},{"bike_id":"db30c5da-adef-4785-8193-e7cb5a90e0ff","system_id":"levelo_inurba_marseille","lat":43.292771,"lon":5.376244,"is_reserved":false,"is_disabled":false,"rental_uris":{"android":"levelo://app?vid=db30c5da-adef-4785-8193-e7cb5a90e0ff","ios":"levelo://app?vid=db30c5da-adef-4785-8193-e7cb5a90e0ff"},"vehicle_type_id":"4","last_reported":1746958187,"current_range_meters":24400,"station_id":"ce4bgi12rcd13ifvqb80","pricing_plan_id":"cebpf4jnsgd1na2vs0mg"},{"bike_id":"33f554ff-2057-46f3-86ee-3b6e4326a2b4","system_id":"levelo_inurba_marseille","lat":43.3089,"lon":5.3966,"is_reserved":false,"is_disabled":false,"rental_uris":{"android":"levelo://app?vid=33f554ff-2057-46f3-86ee-3b6e4326a2b4","ios":"levelo://app?vid=33f554ff-2057-46f3-86ee-3b6e4326a2b4"},"vehicle_type_id":"4","last_reported":1746958187,"current_range_meters":24400,"station_id":"ce4bh012rcd13ifvqcv0","pricing_plan_id":"cebpf4jnsgd1na2vs0mg"},{"bike_id":"4ec76d6f-5519-4ef9-abb7-06d515bb3740","system_id":"levelo_inurba_marseille","lat":43.27551,"lon":5.3842,"is_reserved":false,"is_disabled":false,"rental_uris":{"android":"levelo://app?vid=4ec76d6f-5519-4ef9-abb7-06d515bb3740","ios":"levelo://app?vid=4ec76d6f-5519-4ef9-abb7-06d515bb3740"},"vehicle_type_id":"4","last_reported":1746958187,"current_range_meters":24400,"station_id":"ce4bhh92rcd13ifvqfi0","pricing_plan_id":"cebpf4jnsgd1na2vs0mg"},{"bike_id":"b399e0d7-712f-4b2f-b5e7-a7a198cd8e58","system_id":"levelo_inurba_marseille","lat":43.25719,"lon":5.41114,"is_reserved":false,"is_disabled":false,"rental_uris":{"android":"levelo://app?vid=b399e0d7-712f-4b2f-b5e7-a7a198cd8e58","ios":"levelo://app?vid=b399e0d7-712f-4b2f-b5e7-a7a198cd8e58"},"vehicle_type_id":"4","last_reported":1746958187,"current_range_meters":24400,"station_id":"ce4bhkp2rcd13ifvqgd0","pricing_plan_id":"cebpf4jnsgd1na2vs0mg"},{"bike_id":"9c6dad96-8547-4228-a9fe-325dcaf87884","system_id":"levelo_inurba_marseille","lat":43.32026,"lon":5.38187,"is_reserved":false,"is_disabled":false,"rental_uris":{"android":"levelo://app?vid=9c6dad96-8547-4228-a9fe-325dcaf87884","ios":"levelo://app?vid=9c6dad96-8547-4228-a9fe-325dcaf87884"},"vehicle_type_id":"4","last_reported":1746958187,"current_range_meters":24400,"station_id":"ce4bhr12rcd13ifvqhpg","pricing_plan_id":"cebpf4jnsgd1na2vs0mg"},{"bike_id":"52b2ca6f-11a7-4a54-bcf5-aa631e4926d6","system_id":"levelo_inurba_marseille","lat":43.30887,"lon":5.371981,"is_reserved":false,"is_disabled":false,"rental_uris":{"android":"levelo://app?vid=52b2ca6f-11a7-4a54-bcf5-aa631e4926d6","ios":"levelo://app?vid=52b2ca6f-11a7-4a54-bcf5-aa631e4926d6"},"vehicle_type_id":"4","last_reported":1746958187,"current_range_meters":24800,"station_id":"ce4bguh2rcd13ifvqckg","pricing_plan_id":"cebpf4jnsgd1na2vs0mg"},{"bike_id":"54910485-93b9-4759-bd44-c9e78c37b07d","system_id":"levelo_inurba_marseille","lat":43.31714,"lon":5.4045,"is_reserved":false,"is_disabled":false,"rental_uris":{"android":"levelo://app?vid=54910485-93b9-4759-bd44-c9e78c37b07d","ios":"levelo://app?vid=54910485-93b9-4759-bd44-c9e78c37b07d"},"vehicle_type_id":"4","last_reported":1746958187,"current_range_meters":24800,"station_id":"ce4bh012rcd13ifvqd00","pricing_plan_id":"cebpf4jnsgd1na2vs0mg"},{"bike_id":"aca576e2-e4bf-4352-a45d-a2bdaf9467b8","system_id":"levelo_inurba_marseille","lat":43.29196,"lon":5.35806,"is_reserved":false,"is_disabled":false,"rental_uris":{"android":"levelo://app?vid=aca576e2-e4bf-4352-a45d-a2bdaf9467b8","ios":"levelo://app?vid=aca576e2-e4bf-4352-a45d-a2bdaf9467b8"},"vehicle_type_id":"4","last_reported":1746958187,"current_range_meters":24800,"station_id":"ce4bhb12rcd13ifvqel0","pricing_plan_id":"cebpf4jnsgd1na2vs0mg"},{"bike_id":"0a58c277-b2a9-4dc8-87aa-cf12f87fe675","system_id":"levelo_inurba_marseille","lat":43.25143,"lon":5.40319,"is_reserved":false,"is_disabled":false,"rental_uris":{"android":"levelo://app?vid=0a58c277-b2a9-4dc8-87aa-cf12f87fe675","ios":"levelo://app?vid=0a58c277-b2a9-4dc8-87aa-cf12f87fe675"},"vehicle_type_id":"4","last_reported":1746958187,"current_range_meters":24800,"station_id":"ce4bhlh2rcd13ifvqgig","pricing_plan_id":"cebpf4jnsgd1na2vs0mg"},{"bike_id":"fcf9463b-401b-4157-a5a9-4c36ca7d015d","system_id":"levelo_inurba_marseille","lat":43.306856,"lon":5.370521,"is_reserved":false,"is_disabled":false,"rental_uris":{"android":"levelo://app?vid=fcf9463b-401b-4157-a5a9-4c36ca7d015d","ios":"levelo://app?vid=fcf9463b-401b-4157-a5a9-4c36ca7d015d"},"vehicle_type_id":"4","last_reported":1746958187,"current_range_meters":25200,"station_id":"","pricing_plan_id":"cebpf4jnsgd1na2vs0mg"},{"bike_id":"95cef73a-2f76-4b30-be3c-64b05bb2877e","system_id":"levelo_inurba_marseille","lat":43.28865,"lon":5.35867,"is_reserved":false,"is_disabled":false,"rental_uris":{"android":"levelo://app?vid=95cef73a-2f76-4b30-be3c-64b05bb2877e","ios":"levelo://app?vid=95cef73a-2f76-4b30-be3c-64b05bb2877e"},"vehicle_type_id":"4","last_reported":1746958187,"current_range_meters":25200,"station_id":"ce4bhb12rcd13ifvqem0","pricing_plan_id":"cebpf4jnsgd1na2vs0mg"},{"bike_id":"d8f128cb-afa0-4848-b94f-65ec736a6baf","system_id":"levelo_inurba_marseille","lat":43.30534,"lon":5.3655,"is_reserved":false,"is_disabled":false,"rental_uris":{"android":"levelo://app?vid=d8f128cb-afa0-4848-b94f-65ec736a6baf","ios":"levelo://app?vid=d8f128cb-afa0-4848-b94f-65ec736a6baf"},"vehicle_type_id":"4","last_reported":1746958187,"current_range_meters":25600,"station_id":"ce4bgs12rcd13ifvqcag","pricing_plan_id":"cebpf4jnsgd1na2vs0mg"},{"bike_id":"1174da09-e822-4701-b7f1-f05137291668","system_id":"levelo_inurba_marseille","lat":43.302269,"lon":5.400538,"is_reserved":false,"is_disabled":false,"rental_uris":{"android":"levelo://app?vid=1174da09-e822-4701-b7f1-f05137291668","ios":"levelo://app?vid=1174da09-e822-4701-b7f1-f05137291668"},"vehicle_type_id":"4","last_reported":1746958187,"current_range_meters":25600,"station_id":"ce4bgvh2rcd13ifvqcs0","pricing_plan_id":"cebpf4jnsgd1na2vs0mg"},{"bike_id":"5a91c441-e4f9-46f3-9fae-2f2d56c841a3","system_id":"levelo_inurba_marseille","lat":43.27616,"lon":5.36118,"is_reserved":false,"is_disabled":false,"rental_uris":{"android":"levelo://app?vid=5a91c441-e4f9-46f3-9fae-2f2d56c841a3","ios":"levelo://app?vid=5a91c441-e4f9-46f3-9fae-2f2d56c841a3"},"vehicle_type_id":"4","last_reported":1746958187,"current_range_meters":26000,"station_id":"ce4bgj92rcd13ifvqbe0","pricing_plan_id":"cebpf4jnsgd1na2vs0mg"},{"bike_id":"8b02a0a7-bcde-4e79-923d-369b21f910a4","system_id":"levelo_inurba_marseille","lat":43.294987,"lon":5.375206,"is_reserved":false,"is_disabled":false,"rental_uris":{"android":"levelo://app?vid=8b02a0a7-bcde-4e79-923d-369b21f910a4","ios":"levelo://app?vid=8b02a0a7-bcde-4e79-923d-369b21f910a4"},"vehicle_type_id":"4","last_reported":1746958187,"current_range_meters":26000,"station_id":"ce4bgkp2rcd13ifvqbmg","pricing_plan_id":"cebpf4jnsgd1na2vs0mg"},{"bike_id":"7f7cc295-7c76-4ccd-91d1-390729e4793d","system_id":"levelo_inurba_marseille","lat":43.3133,"lon":5.39692,"is_reserved":false,"is_disabled":false,"rental_uris":{"android":"levelo://app?vid=7f7cc295-7c76-4ccd-91d1-390729e4793d","ios":"levelo://app?vid=7f7cc295-7c76-4ccd-91d1-390729e4793d"},"vehicle_type_id":"4","last_reported":1746958187,"current_range_meters":26000,"station_id":"ce4bgvp2rcd13ifvqcu0","pricing_plan_id":"cebpf4jnsgd1na2vs0mg"},{"bike_id":"6d2c4890-a4ed-44aa-aa3e-bc54200260a9","system_id":"levelo_inurba_marseille","lat":43.28406,"lon":5.37509,"is_reserved":false,"is_disabled":false,"rental_uris":{"android":"levelo://app?vid=6d2c4890-a4ed-44aa-aa3e-bc54200260a9","ios":"levelo://app?vid=6d2c4890-a4ed-44aa-aa3e-bc54200260a9"},"vehicle_type_id":"4","last_reported":1746958187,"current_range_meters":26000,"station_id":"ce4bh412rcd13ifvqds0","pricing_plan_id":"cebpf4jnsgd1na2vs0mg"},{"bike_id":"f40d6f0a-0408-4677-abd0-52021168d5f2","system_id":"levelo_inurba_marseille","lat":43.28006,"lon":5.41669,"is_reserved":false,"is_disabled":false,"rental_uris":{"android":"levelo://app?vid=f40d6f0a-0408-4677-abd0-52021168d5f2","ios":"levelo://app?vid=f40d6f0a-0408-4677-abd0-52021168d5f2"},"vehicle_type_id":"4","last_reported":1746958187,"current_range_meters":26000,"station_id":"ce4bho12rcd13ifvqh1g","pricing_plan_id":"cebpf4jnsgd1na2vs0mg"},{"bike_id":"543a09e9-f3f2-482a-a555-071e7374f5c6","system_id":"levelo_inurba_marseille","lat":43.21774,"lon":5.34567,"is_reserved":false,"is_disabled":false,"rental_uris":{"android":"levelo://app?vid=543a09e9-f3f2-482a-a555-071e7374f5c6","ios":"levelo://app?vid=543a09e9-f3f2-482a-a555-071e7374f5c6"},"vehicle_type_id":"4","last_reported":1746958187,"current_range_meters":26000,"station_id":"st_cvj6r9ubvosntc0bgbag","pricing_plan_id":"cebpf4jnsgd1na2vs0mg"},{"bike_id":"362c81a6-8d17-4b29-a3db-7caf0cb06275","system_id":"levelo_inurba_marseille","lat":43.29187,"lon":5.35576,"is_reserved":false,"is_disabled":false,"rental_uris":{"android":"levelo://app?vid=362c81a6-8d17-4b29-a3db-7caf0cb06275","ios":"levelo://app?vid=362c81a6-8d17-4b29-a3db-7caf0cb06275"},"vehicle_type_id":"4","last_reported":1746958187,"current_range_meters":26800,"station_id":"","pricing_plan_id":"cebpf4jnsgd1na2vs0mg"},{"bike_id":"426aebb0-3632-4815-ac62-c565515de17d","system_id":"levelo_inurba_marseille","lat":43.30862,"lon":5.39598,"is_reserved":false,"is_disabled":false,"rental_uris":{"android":"levelo://app?vid=426aebb0-3632-4815-ac62-c565515de17d","ios":"levelo://app?vid=426aebb0-3632-4815-ac62-c565515de17d"},"vehicle_type_id":"4","last_reported":1746958187,"current_range_meters":26800,"station_id":"","pricing_plan_id":"cebpf4jnsgd1na2vs0mg"},{"bike_id":"191280e6-520f-413b-ad7c-8506297444d4","system_id":"levelo_inurba_marseille","lat":43.29536,"lon":5.39398,"is_reserved":false,"is_disabled":false,"rental_uris":{"android":"levelo://app?vid=191280e6-520f-413b-ad7c-8506297444d4","ios":"levelo://app?vid=191280e6-520f-413b-ad7c-8506297444d4"},"vehicle_type_id":"4","last_reported":1746958187,"current_range_meters":26800,"station_id":"ce4bh292rcd13ifvqdf0","pricing_plan_id":"cebpf4jnsgd1na2vs0mg"},{"bike_id":"eebd1f12-b870-4ca9-995f-af6d423bbda6","system_id":"levelo_inurba_marseille","lat":43.29284,"lon":5.40119,"is_reserved":false,"is_disabled":false,"rental_uris":{"android":"levelo://app?vid=eebd1f12-b870-4ca9-995f-af6d423bbda6","ios":"levelo://app?vid=eebd1f12-b870-4ca9-995f-af6d423bbda6"},"vehicle_type_id":"4","last_reported":1746958187,"current_range_meters":26800,"station_id":"ce4bh312rcd13ifvqdk0","pricing_plan_id":"cebpf4jnsgd1na2vs0mg"},{"bike_id":"1572abca-517d-4faf-926b-fd3a97cc5d86","system_id":"levelo_inurba_marseille","lat":43.29078,"lon":5.37154,"is_reserved":false,"is_disabled":false,"rental_uris":{"android":"levelo://app?vid=1572abca-517d-4faf-926b-fd3a97cc5d86","ios":"levelo://app?vid=1572abca-517d-4faf-926b-fd3a97cc5d86"},"vehicle_type_id":"4","last_reported":1746958187,"current_range_meters":26800,"station_id":"ce4bh5p2rcd13ifvqe4g","pricing_plan_id":"cebpf4jnsgd1na2vs0mg"},{"bike_id":"1682ed63-11b5-4bf2-92f6-bbbf57646a5c","system_id":"levelo_inurba_marseille","lat":43.29274,"lon":5.36842,"is_reserved":false,"is_disabled":false,"rental_uris":{"android":"levelo://app?vid=1682ed63-11b5-4bf2-92f6-bbbf57646a5c","ios":"levelo://app?vid=1682ed63-11b5-4bf2-92f6-bbbf57646a5c"},"vehicle_type_id":"4","last_reported":1746958187,"current_range_meters":26800,"station_id":"ce4bhbp2rcd13ifvqesg","pricing_plan_id":"cebpf4jnsgd1na2vs0mg"},{"bike_id":"e611aa2c-3c38-4595-b0ba-6868416082b2","system_id":"levelo_inurba_marseille","lat":43.27369,"lon":5.36259,"is_reserved":false,"is_disabled":false,"rental_uris":{"android":"levelo://app?vid=e611aa2c-3c38-4595-b0ba-6868416082b2","ios":"levelo://app?vid=e611aa2c-3c38-4595-b0ba-6868416082b2"},"vehicle_type_id":"4","last_reported":1746958187,"current_range_meters":27200,"station_id":"ce4bhbh2rcd13ifvqeo0","pricing_plan_id":"cebpf4jnsgd1na2vs0mg"},{"bike_id":"5c2c8f43-c1f3-4b94-8122-a4041c13ecea","system_id":"levelo_inurba_marseille","lat":43.29541,"lon":5.38533,"is_reserved":false,"is_disabled":false,"rental_uris":{"android":"levelo://app?vid=5c2c8f43-c1f3-4b94-8122-a4041c13ecea","ios":"levelo://app?vid=5c2c8f43-c1f3-4b94-8122-a4041c13ecea"},"vehicle_type_id":"4","last_reported":1746958187,"current_range_meters":27600,"station_id":"ce4bgih2rcd13ifvqba0","pricing_plan_id":"cebpf4jnsgd1na2vs0mg"},{"bike_id":"3d969ae4-6d02-4096-9c97-2a81c69b173b","system_id":"levelo_inurba_marseille","lat":43.29967,"lon":5.37171,"is_reserved":false,"is_disabled":false,"rental_uris":{"android":"levelo://app?vid=3d969ae4-6d02-4096-9c97-2a81c69b173b","ios":"levelo://app?vid=3d969ae4-6d02-4096-9c97-2a81c69b173b"},"vehicle_type_id":"4","last_reported":1746958187,"current_range_meters":27600,"station_id":"ce4bgr92rcd13ifvqc7g","pricing_plan_id":"cebpf4jnsgd1na2vs0mg"},{"bike_id":"0259fa5a-94d1-45a1-b624-318be3833e29","system_id":"levelo_inurba_marseille","lat":43.3056,"lon":5.36548,"is_reserved":false,"is_disabled":false,"rental_uris":{"android":"levelo://app?vid=0259fa5a-94d1-45a1-b624-318be3833e29","ios":"levelo://app?vid=0259fa5a-94d1-45a1-b624-318be3833e29"},"vehicle_type_id":"4","last_reported":1746958187,"current_range_meters":27600,"station_id":"ce4bgs12rcd13ifvqcag","pricing_plan_id":"cebpf4jnsgd1na2vs0mg"},{"bike_id":"add3a774-7d38-43b6-83a3-81369ae5276b","system_id":"levelo_inurba_marseille","lat":43.2791,"lon":5.38005,"is_reserved":false,"is_disabled":false,"rental_uris":{"android":"levelo://app?vid=add3a774-7d38-43b6-83a3-81369ae5276b","ios":"levelo://app?vid=add3a774-7d38-43b6-83a3-81369ae5276b"},"vehicle_type_id":"4","last_reported":1746958187,"current_range_meters":27600,"station_id":"ce4bhf92rcd13ifvqf50","pricing_plan_id":"cebpf4jnsgd1na2vs0mg"},{"bike_id":"4be4ff3c-4609-47a0-83ef-555b89b1ef1f","system_id":"levelo_inurba_marseille","lat":43.28,"lon":5.41676,"is_reserved":false,"is_disabled":false,"rental_uris":{"android":"levelo://app?vid=4be4ff3c-4609-47a0-83ef-555b89b1ef1f","ios":"levelo://app?vid=4be4ff3c-4609-47a0-83ef-555b89b1ef1f"},"vehicle_type_id":"4","last_reported":1746958187,"current_range_meters":27600,"station_id":"ce4bho12rcd13ifvqh1g","pricing_plan_id":"cebpf4jnsgd1na2vs0mg"},{"bike_id":"89996d0f-8ca7-4264-b7d0-86131436a61c","system_id":"levelo_inurba_marseille","lat":43.21746,"lon":5.34599,"is_reserved":false,"is_disabled":false,"rental_uris":{"android":"levelo://app?vid=89996d0f-8ca7-4264-b7d0-86131436a61c","ios":"levelo://app?vid=89996d0f-8ca7-4264-b7d0-86131436a61c"},"vehicle_type_id":"4","last_reported":1746958187,"current_range_meters":27600,"station_id":"st_cvj6r9ubvosntc0bgbag","pricing_plan_id":"cebpf4jnsgd1na2vs0mg"},{"bike_id":"0109c077-4c91-42ff-9ed9-e0f0f400c51b","system_id":"levelo_inurba_marseille","lat":43.30146,"lon":5.38076,"is_reserved":false,"is_disabled":false,"rental_uris":{"android":"levelo://app?vid=0109c077-4c91-42ff-9ed9-e0f0f400c51b","ios":"levelo://app?vid=0109c077-4c91-42ff-9ed9-e0f0f400c51b"},"vehicle_type_id":"4","last_reported":1746958187,"current_range_meters":28000,"station_id":"ce4bgjp2rcd13ifvqbh0","pricing_plan_id":"cebpf4jnsgd1na2vs0mg"},{"bike_id":"ac754be4-9e6a-4394-8db1-1077f1394b37","system_id":"levelo_inurba_marseille","lat":43.30612,"lon":5.37235,"is_reserved":false,"is_disabled":false,"rental_uris":{"android":"levelo://app?vid=ac754be4-9e6a-4394-8db1-1077f1394b37","ios":"levelo://app?vid=ac754be4-9e6a-4394-8db1-1077f1394b37"},"vehicle_type_id":"4","last_reported":1746958187,"current_range_meters":28000,"station_id":"ce4bgqh2rcd13ifvqc4g","pricing_plan_id":"cebpf4jnsgd1na2vs0mg"},{"bike_id":"bf1bc26b-91a4-4ea9-a40c-e5fc3aeef215","system_id":"levelo_inurba_marseille","lat":43.27381,"lon":5.36252,"is_reserved":false,"is_disabled":false,"rental_uris":{"android":"levelo://app?vid=bf1bc26b-91a4-4ea9-a40c-e5fc3aeef215","ios":"levelo://app?vid=bf1bc26b-91a4-4ea9-a40c-e5fc3aeef215"},"vehicle_type_id":"4","last_reported":1746958187,"current_range_meters":28000,"station_id":"ce4bhbh2rcd13ifvqeo0","pricing_plan_id":"cebpf4jnsgd1na2vs0mg"},{"bike_id":"2118c68d-fff5-46c8-985b-2c6fff387415","system_id":"levelo_inurba_marseille","lat":43.330213,"lon":5.39045,"is_reserved":false,"is_disabled":false,"rental_uris":{"android":"levelo://app?vid=2118c68d-fff5-46c8-985b-2c6fff387415","ios":"levelo://app?vid=2118c68d-fff5-46c8-985b-2c6fff387415"},"vehicle_type_id":"4","last_reported":1746958187,"current_range_meters":28000,"station_id":"ce4bhr92rcd13ifvqhrg","pricing_plan_id":"cebpf4jnsgd1na2vs0mg"},{"bike_id":"5d5b9ae1-4e2f-4f25-acab-a27214e6e717","system_id":"levelo_inurba_marseille","lat":43.30742,"lon":5.42434,"is_reserved":false,"is_disabled":false,"rental_uris":{"android":"levelo://app?vid=5d5b9ae1-4e2f-4f25-acab-a27214e6e717","ios":"levelo://app?vid=5d5b9ae1-4e2f-4f25-acab-a27214e6e717"},"vehicle_type_id":"4","last_reported":1746958187,"current_range_meters":28000,"station_id":"st_cvj6ca6bvosntc0bfgr0","pricing_plan_id":"cebpf4jnsgd1na2vs0mg"},{"bike_id":"f30700cd-2b15-4379-bae3-a617af060209","system_id":"levelo_inurba_marseille","lat":43.2176,"lon":5.34601,"is_reserved":false,"is_disabled":false,"rental_uris":{"android":"levelo://app?vid=f30700cd-2b15-4379-bae3-a617af060209","ios":"levelo://app?vid=f30700cd-2b15-4379-bae3-a617af060209"},"vehicle_type_id":"4","last_reported":1746958187,"current_range_meters":28000,"station_id":"st_cvj6r9ubvosntc0bgbag","pricing_plan_id":"cebpf4jnsgd1na2vs0mg"},{"bike_id":"e172af54-51e9-411c-9765-01487529519e","system_id":"levelo_inurba_marseille","lat":43.2979,"lon":5.36194,"is_reserved":false,"is_disabled":false,"rental_uris":{"android":"levelo://app?vid=e172af54-51e9-411c-9765-01487529519e","ios":"levelo://app?vid=e172af54-51e9-411c-9765-01487529519e"},"vehicle_type_id":"4","last_reported":1746958187,"current_range_meters":28400,"station_id":"","pricing_plan_id":"cebpf4jnsgd1na2vs0mg"},{"bike_id":"f62b46a9-a6f2-42eb-81aa-cac3a592032c","system_id":"levelo_inurba_marseille","lat":43.2942,"lon":5.38629,"is_reserved":false,"is_disabled":false,"rental_uris":{"android":"levelo://app?vid=f62b46a9-a6f2-42eb-81aa-cac3a592032c","ios":"levelo://app?vid=f62b46a9-a6f2-42eb-81aa-cac3a592032c"},"vehicle_type_id":"4","last_reported":1746958187,"current_range_meters":28400,"station_id":"ce4bh2h2rcd13ifvqdh0","pricing_plan_id":"cebpf4jnsgd1na2vs0mg"},{"bike_id":"3237cfca-ce5e-4954-8a40-49d9b1fa3cd2","system_id":"levelo_inurba_marseille","lat":43.23181,"lon":5.39991,"is_reserved":false,"is_disabled":false,"rental_uris":{"android":"levelo://app?vid=3237cfca-ce5e-4954-8a40-49d9b1fa3cd2","ios":"levelo://app?vid=3237cfca-ce5e-4954-8a40-49d9b1fa3cd2"},"vehicle_type_id":"4","last_reported":1746958187,"current_range_meters":28400,"station_id":"ce4bhn12rcd13ifvqgqg","pricing_plan_id":"cebpf4jnsgd1na2vs0mg"},{"bike_id":"3b2529ba-f111-4706-be56-7b3096805db9","system_id":"levelo_inurba_marseille","lat":43.27951,"lon":5.41044,"is_reserved":false,"is_disabled":false,"rental_uris":{"android":"levelo://app?vid=3b2529ba-f111-4706-be56-7b3096805db9","ios":"levelo://app?vid=3b2529ba-f111-4706-be56-7b3096805db9"},"vehicle_type_id":"4","last_reported":1746958187,"current_range_meters":28400,"station_id":"ce4bhnp2rcd13ifvqh0g","pricing_plan_id":"cebpf4jnsgd1na2vs0mg"},{"bike_id":"06426f58-e01e-4c8a-8dcf-b1b6281cbae5","system_id":"levelo_inurba_marseille","lat":43.2903,"lon":5.35735,"is_reserved":false,"is_disabled":false,"rental_uris":{"android":"levelo://app?vid=06426f58-e01e-4c8a-8dcf-b1b6281cbae5","ios":"levelo://app?vid=06426f58-e01e-4c8a-8dcf-b1b6281cbae5"},"vehicle_type_id":"4","last_reported":1746958187,"current_range_meters":28800,"station_id":"","pricing_plan_id":"cebpf4jnsgd1na2vs0mg"},{"bike_id":"a29b776a-eaab-44bd-bcd1-55e777f010fc","system_id":"levelo_inurba_marseille","lat":43.29533,"lon":5.38547,"is_reserved":false,"is_disabled":false,"rental_uris":{"android":"levelo://app?vid=a29b776a-eaab-44bd-bcd1-55e777f010fc","ios":"levelo://app?vid=a29b776a-eaab-44bd-bcd1-55e777f010fc"},"vehicle_type_id":"4","last_reported":1746958187,"current_range_meters":28800,"station_id":"ce4bgih2rcd13ifvqba0","pricing_plan_id":"cebpf4jnsgd1na2vs0mg"},{"bike_id":"7a0f3f73-f1fa-40ce-b0e8-2ad28a660793","system_id":"levelo_inurba_marseille","lat":43.29714,"lon":5.36617,"is_reserved":false,"is_disabled":false,"rental_uris":{"android":"levelo://app?vid=7a0f3f73-f1fa-40ce-b0e8-2ad28a660793","ios":"levelo://app?vid=7a0f3f73-f1fa-40ce-b0e8-2ad28a660793"},"vehicle_type_id":"4","last_reported":1746958187,"current_range_meters":28800,"station_id":"ce4bgn12rcd13ifvqbt0","pricing_plan_id":"cebpf4jnsgd1na2vs0mg"},{"bike_id":"5b819b0a-2b5a-4c46-b7e9-d397b91c77e3","system_id":"levelo_inurba_marseille","lat":43.31683,"lon":5.40443,"is_reserved":false,"is_disabled":false,"rental_uris":{"android":"levelo://app?vid=5b819b0a-2b5a-4c46-b7e9-d397b91c77e3","ios":"levelo://app?vid=5b819b0a-2b5a-4c46-b7e9-d397b91c77e3"},"vehicle_type_id":"4","last_reported":1746958187,"current_range_meters":28800,"station_id":"ce4bh012rcd13ifvqd00","pricing_plan_id":"cebpf4jnsgd1na2vs0mg"},{"bike_id":"7be9ac45-8521-4e26-9317-0cced8f9a2be","system_id":"levelo_inurba_marseille","lat":43.29199,"lon":5.35815,"is_reserved":false,"is_disabled":false,"rental_uris":{"android":"levelo://app?vid=7be9ac45-8521-4e26-9317-0cced8f9a2be","ios":"levelo://app?vid=7be9ac45-8521-4e26-9317-0cced8f9a2be"},"vehicle_type_id":"4","last_reported":1746958187,"current_range_meters":28800,"station_id":"ce4bhb12rcd13ifvqel0","pricing_plan_id":"cebpf4jnsgd1na2vs0mg"},{"bike_id":"fafb7861-a599-4574-be1e-d2465b280cdc","system_id":"levelo_inurba_marseille","lat":43.25119,"lon":5.40321,"is_reserved":false,"is_disabled":false,"rental_uris":{"android":"levelo://app?vid=fafb7861-a599-4574-be1e-d2465b280cdc","ios":"levelo://app?vid=fafb7861-a599-4574-be1e-d2465b280cdc"},"vehicle_type_id":"4","last_reported":1746958187,"current_range_meters":28800,"station_id":"ce4bhlh2rcd13ifvqgig","pricing_plan_id":"cebpf4jnsgd1na2vs0mg"},{"bike_id":"9adfc852-0050-401b-ae90-e75d1847a329","system_id":"levelo_inurba_marseille","lat":43.24178,"lon":5.39732,"is_reserved":false,"is_disabled":false,"rental_uris":{"android":"levelo://app?vid=9adfc852-0050-401b-ae90-e75d1847a329","ios":"levelo://app?vid=9adfc852-0050-401b-ae90-e75d1847a329"},"vehicle_type_id":"4","last_reported":1746958187,"current_range_meters":28800,"station_id":"ce4bhn12rcd13ifvqgpg","pricing_plan_id":"cebpf4jnsgd1na2vs0mg"},{"bike_id":"de6a71cc-dc0b-4999-b230-778f08723075","system_id":"levelo_inurba_marseille","lat":43.23207,"lon":5.40011,"is_reserved":false,"is_disabled":false,"rental_uris":{"android":"levelo://app?vid=de6a71cc-dc0b-4999-b230-778f08723075","ios":"levelo://app?vid=de6a71cc-dc0b-4999-b230-778f08723075"},"vehicle_type_id":"4","last_reported":1746958187,"current_range_meters":28800,"station_id":"ce4bhn12rcd13ifvqgqg","pricing_plan_id":"cebpf4jnsgd1na2vs0mg"},{"bike_id":"851b1a5f-203c-4d7b-8e37-68f7960fab71","system_id":"levelo_inurba_marseille","lat":43.30884,"lon":5.39643,"is_reserved":false,"is_disabled":false,"rental_uris":{"android":"levelo://app?vid=851b1a5f-203c-4d7b-8e37-68f7960fab71","ios":"levelo://app?vid=851b1a5f-203c-4d7b-8e37-68f7960fab71"},"vehicle_type_id":"4","last_reported":1746958187,"current_range_meters":29600,"station_id":"ce4bh012rcd13ifvqcv0","pricing_plan_id":"cebpf4jnsgd1na2vs0mg"},{"bike_id":"d03e4154-d42d-4295-b6eb-59716cf6a9e2","system_id":"levelo_inurba_marseille","lat":43.27376,"lon":5.36255,"is_reserved":false,"is_disabled":false,"rental_uris":{"android":"levelo://app?vid=d03e4154-d42d-4295-b6eb-59716cf6a9e2","ios":"levelo://app?vid=d03e4154-d42d-4295-b6eb-59716cf6a9e2"},"vehicle_type_id":"4","last_reported":1746958187,"current_range_meters":29600,"station_id":"ce4bhbh2rcd13ifvqeo0","pricing_plan_id":"cebpf4jnsgd1na2vs0mg"},{"bike_id":"a69706ff-6026-416c-953b-ed3d273fcab3","system_id":"levelo_inurba_marseille","lat":43.2738,"lon":5.36243,"is_reserved":false,"is_disabled":false,"rental_uris":{"android":"levelo://app?vid=a69706ff-6026-416c-953b-ed3d273fcab3","ios":"levelo://app?vid=a69706ff-6026-416c-953b-ed3d273fcab3"},"vehicle_type_id":"4","last_reported":1746958187,"current_range_meters":29600,"station_id":"ce4bhbh2rcd13ifvqeo0","pricing_plan_id":"cebpf4jnsgd1na2vs0mg"},{"bike_id":"ba1e5f71-7392-4ccd-9d8b-09743628c95d","system_id":"levelo_inurba_marseille","lat":43.27364,"lon":5.36237,"is_reserved":false,"is_disabled":false,"rental_uris":{"android":"levelo://app?vid=ba1e5f71-7392-4ccd-9d8b-09743628c95d","ios":"levelo://app?vid=ba1e5f71-7392-4ccd-9d8b-09743628c95d"},"vehicle_type_id":"4","last_reported":1746958187,"current_range_meters":29600,"station_id":"ce4bhbh2rcd13ifvqeo0","pricing_plan_id":"cebpf4jnsgd1na2vs0mg"},{"bike_id":"1297402a-0699-4324-a067-80a0da342625","system_id":"levelo_inurba_marseille","lat":43.25749,"lon":5.41111,"is_reserved":false,"is_disabled":false,"rental_uris":{"android":"levelo://app?vid=1297402a-0699-4324-a067-80a0da342625","ios":"levelo://app?vid=1297402a-0699-4324-a067-80a0da342625"},"vehicle_type_id":"4","last_reported":1746958187,"current_range_meters":29600,"station_id":"ce4bhkp2rcd13ifvqgd0","pricing_plan_id":"cebpf4jnsgd1na2vs0mg"},{"bike_id":"63d7d5f5-368c-4de9-aef7-16f7da475762","system_id":"levelo_inurba_marseille","lat":43.31698,"lon":5.4046,"is_reserved":false,"is_disabled":false,"rental_uris":{"android":"levelo://app?vid=63d7d5f5-368c-4de9-aef7-16f7da475762","ios":"levelo://app?vid=63d7d5f5-368c-4de9-aef7-16f7da475762"},"vehicle_type_id":"4","last_reported":1746958187,"current_range_meters":30000,"station_id":"ce4bh012rcd13ifvqd00","pricing_plan_id":"cebpf4jnsgd1na2vs0mg"},{"bike_id":"1c57d9a8-f454-446c-85a5-b8bdaeeedc86","system_id":"levelo_inurba_marseille","lat":43.29874,"lon":5.38914,"is_reserved":false,"is_disabled":false,"rental_uris":{"android":"levelo://app?vid=1c57d9a8-f454-446c-85a5-b8bdaeeedc86","ios":"levelo://app?vid=1c57d9a8-f454-446c-85a5-b8bdaeeedc86"},"vehicle_type_id":"4","last_reported":1746958187,"current_range_meters":30000,"station_id":"ce4bh392rcd13ifvqdl0","pricing_plan_id":"cebpf4jnsgd1na2vs0mg"},{"bike_id":"a62642d9-4ded-4dc7-a5a5-a8f2d1bc81a8","system_id":"levelo_inurba_marseille","lat":43.3078,"lon":5.37659,"is_reserved":false,"is_disabled":false,"rental_uris":{"android":"levelo://app?vid=a62642d9-4ded-4dc7-a5a5-a8f2d1bc81a8","ios":"levelo://app?vid=a62642d9-4ded-4dc7-a5a5-a8f2d1bc81a8"},"vehicle_type_id":"4","last_reported":1746958187,"current_range_meters":30400,"station_id":"ce4bgv92rcd13ifvqcq0","pricing_plan_id":"cebpf4jnsgd1na2vs0mg"},{"bike_id":"4abf0445-7038-411c-a9cc-5633d7845ad2","system_id":"levelo_inurba_marseille","lat":43.29415,"lon":5.38626,"is_reserved":false,"is_disabled":false,"rental_uris":{"android":"levelo://app?vid=4abf0445-7038-411c-a9cc-5633d7845ad2","ios":"levelo://app?vid=4abf0445-7038-411c-a9cc-5633d7845ad2"},"vehicle_type_id":"4","last_reported":1746958187,"current_range_meters":30400,"station_id":"ce4bh2h2rcd13ifvqdh0","pricing_plan_id":"cebpf4jnsgd1na2vs0mg"},{"bike_id":"1d55e784-47bf-4fa2-8656-fdb8f46e90b5","system_id":"levelo_inurba_marseille","lat":43.27203,"lon":5.39182,"is_reserved":false,"is_disabled":false,"rental_uris":{"android":"levelo://app?vid=1d55e784-47bf-4fa2-8656-fdb8f46e90b5","ios":"levelo://app?vid=1d55e784-47bf-4fa2-8656-fdb8f46e90b5"},"vehicle_type_id":"4","last_reported":1746958187,"current_range_meters":30400,"station_id":"ce4bhhp2rcd13ifvqfm0","pricing_plan_id":"cebpf4jnsgd1na2vs0mg"},{"bike_id":"596c5539-c13b-4d82-89b9-77c7aa0ecbfe","system_id":"levelo_inurba_marseille","lat":43.342268,"lon":5.385237,"is_reserved":false,"is_disabled":false,"rental_uris":{"android":"levelo://app?vid=596c5539-c13b-4d82-89b9-77c7aa0ecbfe","ios":"levelo://app?vid=596c5539-c13b-4d82-89b9-77c7aa0ecbfe"},"vehicle_type_id":"4","last_reported":1746958187,"current_range_meters":30800,"station_id":"","pricing_plan_id":"cebpf4jnsgd1na2vs0mg"},{"bike_id":"7a58d6a1-6888-4eb1-8a34-53eca4c9816f","system_id":"levelo_inurba_marseille","lat":43.29788,"lon":5.38099,"is_reserved":false,"is_disabled":false,"rental_uris":{"android":"levelo://app?vid=7a58d6a1-6888-4eb1-8a34-53eca4c9816f","ios":"levelo://app?vid=7a58d6a1-6888-4eb1-8a34-53eca4c9816f"},"vehicle_type_id":"4","last_reported":1746958187,"current_range_meters":30800,"station_id":"ce4bgip2rcd13ifvqbb0","pricing_plan_id":"cebpf4jnsgd1na2vs0mg"},{"bike_id":"e3dfc59c-2b4e-408e-bf35-0178e2d3d9e5","system_id":"levelo_inurba_marseille","lat":43.32358,"lon":5.3677,"is_reserved":false,"is_disabled":false,"rental_uris":{"android":"levelo://app?vid=e3dfc59c-2b4e-408e-bf35-0178e2d3d9e5","ios":"levelo://app?vid=e3dfc59c-2b4e-408e-bf35-0178e2d3d9e5"},"vehicle_type_id":"4","last_reported":1746958187,"current_range_meters":30800,"station_id":"ce4bhsh2rcd13ifvqi2g","pricing_plan_id":"cebpf4jnsgd1na2vs0mg"},{"bike_id":"763247d0-d120-4d96-b267-4e631685cb9f","system_id":"levelo_inurba_marseille","lat":43.28725,"lon":5.36084,"is_reserved":false,"is_disabled":false,"rental_uris":{"android":"levelo://app?vid=763247d0-d120-4d96-b267-4e631685cb9f","ios":"levelo://app?vid=763247d0-d120-4d96-b267-4e631685cb9f"},"vehicle_type_id":"4","last_reported":1746958187,"current_range_meters":30800,"station_id":"cki0cbj6b192h4jlfktg","pricing_plan_id":"cebpf4jnsgd1na2vs0mg"},{"bike_id":"e735cc6f-7322-48cc-a6e5-18ccf5733adb","system_id":"levelo_inurba_marseille","lat":43.22526,"lon":5.34763,"is_reserved":false,"is_disabled":false,"rental_uris":{"android":"levelo://app?vid=e735cc6f-7322-48cc-a6e5-18ccf5733adb","ios":"levelo://app?vid=e735cc6f-7322-48cc-a6e5-18ccf5733adb"},"vehicle_type_id":"4","last_reported":1746958187,"current_range_meters":30800,"station_id":"st_cvj5dfep6f1abm77gieg","pricing_plan_id":"cebpf4jnsgd1na2vs0mg"},{"bike_id":"4c553312-7a56-4420-94be-4db995548186","system_id":"levelo_inurba_marseille","lat":43.293413,"lon":5.434347,"is_reserved":false,"is_disabled":false,"rental_uris":{"android":"levelo://app?vid=4c553312-7a56-4420-94be-4db995548186","ios":"levelo://app?vid=4c553312-7a56-4420-94be-4db995548186"},"vehicle_type_id":"4","last_reported":1746958187,"current_range_meters":31200,"station_id":"","pricing_plan_id":"cebpf4jnsgd1na2vs0mg"},{"bike_id":"2cc8beb0-7e3e-45fa-b197-cbf238dc2036","system_id":"levelo_inurba_marseille","lat":43.30144,"lon":5.37415,"is_reserved":false,"is_disabled":false,"rental_uris":{"android":"levelo://app?vid=2cc8beb0-7e3e-45fa-b197-cbf238dc2036","ios":"levelo://app?vid=2cc8beb0-7e3e-45fa-b197-cbf238dc2036"},"vehicle_type_id":"4","last_reported":1746958187,"current_range_meters":31200,"station_id":"ce4bgs92rcd13ifvqcc0","pricing_plan_id":"cebpf4jnsgd1na2vs0mg"},{"bike_id":"d3e511f9-0fc2-49c1-9923-6d83485c1ea0","system_id":"levelo_inurba_marseille","lat":43.29436,"lon":5.3975,"is_reserved":false,"is_disabled":false,"rental_uris":{"android":"levelo://app?vid=d3e511f9-0fc2-49c1-9923-6d83485c1ea0","ios":"levelo://app?vid=d3e511f9-0fc2-49c1-9923-6d83485c1ea0"},"vehicle_type_id":"4","last_reported":1746958187,"current_range_meters":31200,"station_id":"ce4bh3h2rcd13ifvqdo0","pricing_plan_id":"cebpf4jnsgd1na2vs0mg"},{"bike_id":"87ae81fb-93d1-4901-94c1-c3ec28651b51","system_id":"levelo_inurba_marseille","lat":43.28611,"lon":5.35105,"is_reserved":false,"is_disabled":false,"rental_uris":{"android":"levelo://app?vid=87ae81fb-93d1-4901-94c1-c3ec28651b51","ios":"levelo://app?vid=87ae81fb-93d1-4901-94c1-c3ec28651b51"},"vehicle_type_id":"4","last_reported":1746958187,"current_range_meters":31200,"station_id":"ce4bhch2rcd13ifvqeug","pricing_plan_id":"cebpf4jnsgd1na2vs0mg"},{"bike_id":"d0d6f5b2-b6ca-49ab-90fa-58899583eb7a","system_id":"levelo_inurba_marseille","lat":43.281564,"lon":5.426501,"is_reserved":false,"is_disabled":false,"rental_uris":{"android":"levelo://app?vid=d0d6f5b2-b6ca-49ab-90fa-58899583eb7a","ios":"levelo://app?vid=d0d6f5b2-b6ca-49ab-90fa-58899583eb7a"},"vehicle_type_id":"4","last_reported":1746958187,"current_range_meters":31200,"station_id":"ce4bhnh2rcd13ifvqgug","pricing_plan_id":"cebpf4jnsgd1na2vs0mg"},{"bike_id":"332ee8de-60b1-45d9-9423-b3cacba9c127","system_id":"levelo_inurba_marseille","lat":43.29547,"lon":5.38542,"is_reserved":false,"is_disabled":false,"rental_uris":{"android":"levelo://app?vid=332ee8de-60b1-45d9-9423-b3cacba9c127","ios":"levelo://app?vid=332ee8de-60b1-45d9-9423-b3cacba9c127"},"vehicle_type_id":"4","last_reported":1746958187,"current_range_meters":32000,"station_id":"ce4bgih2rcd13ifvqba0","pricing_plan_id":"cebpf4jnsgd1na2vs0mg"},{"bike_id":"edf8b5e5-7f6d-41b0-833f-bce58c367682","system_id":"levelo_inurba_marseille","lat":43.30549,"lon":5.3654,"is_reserved":false,"is_disabled":false,"rental_uris":{"android":"levelo://app?vid=edf8b5e5-7f6d-41b0-833f-bce58c367682","ios":"levelo://app?vid=edf8b5e5-7f6d-41b0-833f-bce58c367682"},"vehicle_type_id":"4","last_reported":1746958187,"current_range_meters":32000,"station_id":"ce4bgs12rcd13ifvqcag","pricing_plan_id":"cebpf4jnsgd1na2vs0mg"},{"bike_id":"a300e9b5-143d-4074-8c14-e3949f3172cc","system_id":"levelo_inurba_marseille","lat":43.261283,"lon":5.393721,"is_reserved":false,"is_disabled":false,"rental_uris":{"android":"levelo://app?vid=a300e9b5-143d-4074-8c14-e3949f3172cc","ios":"levelo://app?vid=a300e9b5-143d-4074-8c14-e3949f3172cc"},"vehicle_type_id":"4","last_reported":1746958187,"current_range_meters":32000,"station_id":"ce4bhh92rcd13ifvqfj0","pricing_plan_id":"cebpf4jnsgd1na2vs0mg"},{"bike_id":"c8076d15-3479-4ba6-bf95-250461bbb681","system_id":"levelo_inurba_marseille","lat":43.256468,"lon":5.379396,"is_reserved":false,"is_disabled":false,"rental_uris":{"android":"levelo://app?vid=c8076d15-3479-4ba6-bf95-250461bbb681","ios":"levelo://app?vid=c8076d15-3479-4ba6-bf95-250461bbb681"},"vehicle_type_id":"4","last_reported":1746958187,"current_range_meters":32000,"station_id":"ce4bhjp2rcd13ifvqg90","pricing_plan_id":"cebpf4jnsgd1na2vs0mg"},{"bike_id":"8ca7f4be-37fb-47ec-8f0d-00dcb483855b","system_id":"levelo_inurba_marseille","lat":43.28257,"lon":5.42417,"is_reserved":false,"is_disabled":false,"rental_uris":{"android":"levelo://app?vid=8ca7f4be-37fb-47ec-8f0d-00dcb483855b","ios":"levelo://app?vid=8ca7f4be-37fb-47ec-8f0d-00dcb483855b"},"vehicle_type_id":"4","last_reported":1746958187,"current_range_meters":32400,"station_id":"","pricing_plan_id":"cebpf4jnsgd1na2vs0mg"},{"bike_id":"6f33d593-b6b8-45ca-b839-ed5fd0e98215","system_id":"levelo_inurba_marseille","lat":43.21231,"lon":5.35095,"is_reserved":false,"is_disabled":false,"rental_uris":{"android":"levelo://app?vid=6f33d593-b6b8-45ca-b839-ed5fd0e98215","ios":"levelo://app?vid=6f33d593-b6b8-45ca-b839-ed5fd0e98215"},"vehicle_type_id":"4","last_reported":1746958187,"current_range_meters":32400,"station_id":"","pricing_plan_id":"cebpf4jnsgd1na2vs0mg"},{"bike_id":"b3bc3685-cd16-4282-af32-4825d5e63275","system_id":"levelo_inurba_marseille","lat":43.26491,"lon":5.39542,"is_reserved":false,"is_disabled":false,"rental_uris":{"android":"levelo://app?vid=b3bc3685-cd16-4282-af32-4825d5e63275","ios":"levelo://app?vid=b3bc3685-cd16-4282-af32-4825d5e63275"},"vehicle_type_id":"4","last_reported":1746958187,"current_range_meters":32400,"station_id":"ce4bhi12rcd13ifvqfq0","pricing_plan_id":"cebpf4jnsgd1na2vs0mg"},{"bike_id":"c5879448-c755-4011-8fc7-6eaa9915759b","system_id":"levelo_inurba_marseille","lat":43.28682,"lon":5.38667,"is_reserved":false,"is_disabled":false,"rental_uris":{"android":"levelo://app?vid=c5879448-c755-4011-8fc7-6eaa9915759b","ios":"levelo://app?vid=c5879448-c755-4011-8fc7-6eaa9915759b"},"vehicle_type_id":"4","last_reported":1746958187,"current_range_meters":32800,"station_id":"ce4bh492rcd13ifvqdug","pricing_plan_id":"cebpf4jnsgd1na2vs0mg"},{"bike_id":"8a5b5c86-a80d-4031-bc20-0e8e147eeb60","system_id":"levelo_inurba_marseille","lat":43.29848,"lon":5.362812,"is_reserved":false,"is_disabled":false,"rental_uris":{"android":"levelo://app?vid=8a5b5c86-a80d-4031-bc20-0e8e147eeb60","ios":"levelo://app?vid=8a5b5c86-a80d-4031-bc20-0e8e147eeb60"},"vehicle_type_id":"4","last_reported":1746958187,"current_range_meters":33200,"station_id":"ce4bgpp2rcd13ifvqc3g","pricing_plan_id":"cebpf4jnsgd1na2vs0mg"},{"bike_id":"5203033c-c57f-43fe-a6cb-eba82e017580","system_id":"levelo_inurba_marseille","lat":43.30598,"lon":5.37224,"is_reserved":false,"is_disabled":false,"rental_uris":{"android":"levelo://app?vid=5203033c-c57f-43fe-a6cb-eba82e017580","ios":"levelo://app?vid=5203033c-c57f-43fe-a6cb-eba82e017580"},"vehicle_type_id":"4","last_reported":1746958187,"current_range_meters":33200,"station_id":"ce4bgqh2rcd13ifvqc4g","pricing_plan_id":"cebpf4jnsgd1na2vs0mg"},{"bike_id":"7745e058-1a8f-4094-b174-9001912aa0e3","system_id":"levelo_inurba_marseille","lat":43.303311,"lon":5.404374,"is_reserved":false,"is_disabled":false,"rental_uris":{"android":"levelo://app?vid=7745e058-1a8f-4094-b174-9001912aa0e3","ios":"levelo://app?vid=7745e058-1a8f-4094-b174-9001912aa0e3"},"vehicle_type_id":"4","last_reported":1746958187,"current_range_meters":33200,"station_id":"ce4bh012rcd13ifvqd10","pricing_plan_id":"cebpf4jnsgd1na2vs0mg"},{"bike_id":"011756a1-f834-40ae-a3d6-de678af38b28","system_id":"levelo_inurba_marseille","lat":43.26565,"lon":5.39011,"is_reserved":false,"is_disabled":false,"rental_uris":{"android":"levelo://app?vid=011756a1-f834-40ae-a3d6-de678af38b28","ios":"levelo://app?vid=011756a1-f834-40ae-a3d6-de678af38b28"},"vehicle_type_id":"4","last_reported":1746958187,"current_range_meters":33200,"station_id":"ce4bhe12rcd13ifvqf30","pricing_plan_id":"cebpf4jnsgd1na2vs0mg"},{"bike_id":"462793bd-4759-461b-aaa2-55e9c131aa5a","system_id":"levelo_inurba_marseille","lat":43.28869,"lon":5.35857,"is_reserved":false,"is_disabled":false,"rental_uris":{"android":"levelo://app?vid=462793bd-4759-461b-aaa2-55e9c131aa5a","ios":"levelo://app?vid=462793bd-4759-461b-aaa2-55e9c131aa5a"},"vehicle_type_id":"4","last_reported":1746958187,"current_range_meters":33600,"station_id":"ce4bhb12rcd13ifvqem0","pricing_plan_id":"cebpf4jnsgd1na2vs0mg"},{"bike_id":"fe2a2498-e7e4-4ee4-9750-57f4d06ac0f7","system_id":"levelo_inurba_marseille","lat":43.29006,"lon":5.35616,"is_reserved":false,"is_disabled":false,"rental_uris":{"android":"levelo://app?vid=fe2a2498-e7e4-4ee4-9750-57f4d06ac0f7","ios":"levelo://app?vid=fe2a2498-e7e4-4ee4-9750-57f4d06ac0f7"},"vehicle_type_id":"4","last_reported":1746958187,"current_range_meters":33600,"station_id":"ce4bhb92rcd13ifvqen0","pricing_plan_id":"cebpf4jnsgd1na2vs0mg"},{"bike_id":"05401731-1922-499e-85c5-82da547fcfb0","system_id":"levelo_inurba_marseille","lat":43.27428,"lon":5.39418,"is_reserved":false,"is_disabled":false,"rental_uris":{"android":"levelo://app?vid=05401731-1922-499e-85c5-82da547fcfb0","ios":"levelo://app?vid=05401731-1922-499e-85c5-82da547fcfb0"},"vehicle_type_id":"4","last_reported":1746958187,"current_range_meters":33600,"station_id":"ce4bhdp2rcd13ifvqf20","pricing_plan_id":"cebpf4jnsgd1na2vs0mg"},{"bike_id":"3ce90211-8ecb-4098-ab59-60b67b6182a7","system_id":"levelo_inurba_marseille","lat":43.25109,"lon":5.40328,"is_reserved":false,"is_disabled":false,"rental_uris":{"android":"levelo://app?vid=3ce90211-8ecb-4098-ab59-60b67b6182a7","ios":"levelo://app?vid=3ce90211-8ecb-4098-ab59-60b67b6182a7"},"vehicle_type_id":"4","last_reported":1746958187,"current_range_meters":33600,"station_id":"ce4bhlh2rcd13ifvqgig","pricing_plan_id":"cebpf4jnsgd1na2vs0mg"},{"bike_id":"b2c88bfe-c22b-4370-aef2-8e60084d92a6","system_id":"levelo_inurba_marseille","lat":43.24566,"lon":5.39526,"is_reserved":false,"is_disabled":false,"rental_uris":{"android":"levelo://app?vid=b2c88bfe-c22b-4370-aef2-8e60084d92a6","ios":"levelo://app?vid=b2c88bfe-c22b-4370-aef2-8e60084d92a6"},"vehicle_type_id":"4","last_reported":1746958187,"current_range_meters":33600,"station_id":"ce4bhlp2rcd13ifvqgjg","pricing_plan_id":"cebpf4jnsgd1na2vs0mg"},{"bike_id":"2bfce438-a6fc-49c6-be60-f7abcfabdb54","system_id":"levelo_inurba_marseille","lat":43.23155,"lon":5.43708,"is_reserved":false,"is_disabled":false,"rental_uris":{"android":"levelo://app?vid=2bfce438-a6fc-49c6-be60-f7abcfabdb54","ios":"levelo://app?vid=2bfce438-a6fc-49c6-be60-f7abcfabdb54"},"vehicle_type_id":"4","last_reported":1746958187,"current_range_meters":33600,"station_id":"ce4bhmp2rcd13ifvqgog","pricing_plan_id":"cebpf4jnsgd1na2vs0mg"},{"bike_id":"2f3b2c46-3f83-4858-a022-9f2aaa5adb73","system_id":"levelo_inurba_marseille","lat":43.3201,"lon":5.3817,"is_reserved":false,"is_disabled":false,"rental_uris":{"android":"levelo://app?vid=2f3b2c46-3f83-4858-a022-9f2aaa5adb73","ios":"levelo://app?vid=2f3b2c46-3f83-4858-a022-9f2aaa5adb73"},"vehicle_type_id":"4","last_reported":1746958187,"current_range_meters":33600,"station_id":"ce4bhr12rcd13ifvqhpg","pricing_plan_id":"cebpf4jnsgd1na2vs0mg"},{"bike_id":"3b2faa2e-bd52-41d1-8631-3c2fca1490ef","system_id":"levelo_inurba_marseille","lat":43.32366,"lon":5.36756,"is_reserved":false,"is_disabled":false,"rental_uris":{"android":"levelo://app?vid=3b2faa2e-bd52-41d1-8631-3c2fca1490ef","ios":"levelo://app?vid=3b2faa2e-bd52-41d1-8631-3c2fca1490ef"},"vehicle_type_id":"4","last_reported":1746958187,"current_range_meters":33600,"station_id":"ce4bhsh2rcd13ifvqi2g","pricing_plan_id":"cebpf4jnsgd1na2vs0mg"},{"bike_id":"5c046693-3fbd-4755-81fd-1c6b34ebf07b","system_id":"levelo_inurba_marseille","lat":43.337605,"lon":5.374426,"is_reserved":false,"is_disabled":false,"rental_uris":{"android":"levelo://app?vid=5c046693-3fbd-4755-81fd-1c6b34ebf07b","ios":"levelo://app?vid=5c046693-3fbd-4755-81fd-1c6b34ebf07b"},"vehicle_type_id":"4","last_reported":1746958187,"current_range_meters":34000,"station_id":"","pricing_plan_id":"cebpf4jnsgd1na2vs0mg"},{"bike_id":"fb553188-1fbe-4482-ab8f-39ba87855b3c","system_id":"levelo_inurba_marseille","lat":43.29729,"lon":5.36619,"is_reserved":false,"is_disabled":false,"rental_uris":{"android":"levelo://app?vid=fb553188-1fbe-4482-ab8f-39ba87855b3c","ios":"levelo://app?vid=fb553188-1fbe-4482-ab8f-39ba87855b3c"},"vehicle_type_id":"4","last_reported":1746958187,"current_range_meters":34000,"station_id":"ce4bgn12rcd13ifvqbt0","pricing_plan_id":"cebpf4jnsgd1na2vs0mg"},{"bike_id":"2775c60a-6c99-44cd-b176-8e7a3e4e86d7","system_id":"levelo_inurba_marseille","lat":43.27683,"lon":5.38867,"is_reserved":false,"is_disabled":false,"rental_uris":{"android":"levelo://app?vid=2775c60a-6c99-44cd-b176-8e7a3e4e86d7","ios":"levelo://app?vid=2775c60a-6c99-44cd-b176-8e7a3e4e86d7"},"vehicle_type_id":"4","last_reported":1746958187,"current_range_meters":34000,"station_id":"ce4bhi12rcd13ifvqfo0","pricing_plan_id":"cebpf4jnsgd1na2vs0mg"},{"bike_id":"3fa90558-8537-49a9-b2b1-87e0bb10037d","system_id":"levelo_inurba_marseille","lat":43.2985,"lon":5.36273,"is_reserved":false,"is_disabled":false,"rental_uris":{"android":"levelo://app?vid=3fa90558-8537-49a9-b2b1-87e0bb10037d","ios":"levelo://app?vid=3fa90558-8537-49a9-b2b1-87e0bb10037d"},"vehicle_type_id":"4","last_reported":1746958187,"current_range_meters":34800,"station_id":"ce4bgpp2rcd13ifvqc3g","pricing_plan_id":"cebpf4jnsgd1na2vs0mg"},{"bike_id":"62cbf98a-98cc-4bfa-add2-8a9d6904dece","system_id":"levelo_inurba_marseille","lat":43.30885,"lon":5.39656,"is_reserved":false,"is_disabled":false,"rental_uris":{"android":"levelo://app?vid=62cbf98a-98cc-4bfa-add2-8a9d6904dece","ios":"levelo://app?vid=62cbf98a-98cc-4bfa-add2-8a9d6904dece"},"vehicle_type_id":"4","last_reported":1746958187,"current_range_meters":34800,"station_id":"ce4bh012rcd13ifvqcv0","pricing_plan_id":"cebpf4jnsgd1na2vs0mg"},{"bike_id":"c6a9171e-69a2-4e6f-8e34-978de3844cd8","system_id":"levelo_inurba_marseille","lat":43.27834,"lon":5.39207,"is_reserved":false,"is_disabled":false,"rental_uris":{"android":"levelo://app?vid=c6a9171e-69a2-4e6f-8e34-978de3844cd8","ios":"levelo://app?vid=c6a9171e-69a2-4e6f-8e34-978de3844cd8"},"vehicle_type_id":"4","last_reported":1746958187,"current_range_meters":34800,"station_id":"ce4bhjp2rcd13ifvqga0","pricing_plan_id":"cebpf4jnsgd1na2vs0mg"},{"bike_id":"f64a83ec-2629-4a50-830a-0eec5af6a0b0","system_id":"levelo_inurba_marseille","lat":43.25717,"lon":5.41103,"is_reserved":false,"is_disabled":false,"rental_uris":{"android":"levelo://app?vid=f64a83ec-2629-4a50-830a-0eec5af6a0b0","ios":"levelo://app?vid=f64a83ec-2629-4a50-830a-0eec5af6a0b0"},"vehicle_type_id":"4","last_reported":1746958187,"current_range_meters":34800,"station_id":"ce4bhkp2rcd13ifvqgd0","pricing_plan_id":"cebpf4jnsgd1na2vs0mg"},{"bike_id":"7f11480a-3659-4fdb-b780-a4e058b0c4cb","system_id":"levelo_inurba_marseille","lat":43.21758,"lon":5.34605,"is_reserved":false,"is_disabled":false,"rental_uris":{"android":"levelo://app?vid=7f11480a-3659-4fdb-b780-a4e058b0c4cb","ios":"levelo://app?vid=7f11480a-3659-4fdb-b780-a4e058b0c4cb"},"vehicle_type_id":"4","last_reported":1746958187,"current_range_meters":34800,"station_id":"st_cvj6r9ubvosntc0bgbag","pricing_plan_id":"cebpf4jnsgd1na2vs0mg"},{"bike_id":"b59870db-8fd0-4516-9e99-00c4ee156aa6","system_id":"levelo_inurba_marseille","lat":43.27619,"lon":5.36105,"is_reserved":false,"is_disabled":false,"rental_uris":{"android":"levelo://app?vid=b59870db-8fd0-4516-9e99-00c4ee156aa6","ios":"levelo://app?vid=b59870db-8fd0-4516-9e99-00c4ee156aa6"},