{"last_updated":1739444859,"ttl":60,"version":"2.2","data":{"bikes":[{"bike_id":"9ae4959d-6de9-4c98-bb63-3a430a52595d","system_id":"levelo_inurba_marseille","lat":43.31351,"lon":5.36752,"is_reserved":false,"is_disabled":false,"rental_uris":{"android":"levelo://app?vid=9ae4959d-6de9-4c98-bb63-3a430a52595d","ios":"levelo://app?vid=9ae4959d-6de9-4c98-bb63-3a430a52595d"},"vehicle_type_id":"4","last_reported":1739444859,"current_range_meters":12000,"station_id":"ce4bgr92rcd13ifvqc6g","pricing_plan_id":"cebpf4jnsgd1na2vs0mg"},{"bike_id":"bf51cd7b-783f-47a5-b0a5-ba7a76e581b8","system_id":"levelo_inurba_marseille","lat":43.30462,"lon":5.37922,"is_reserved":false,"is_disabled":false,"rental_uris":{"android":"levelo://app?vid=bf51cd7b-783f-47a5-b0a5-ba7a76e581b8","ios":"levelo://app?vid=bf51cd7b-783f-47a5-b0a5-ba7a76e581b8"},"vehicle_type_id":"4","last_reported":1739444859,"current_range_meters":22400,"station_id":"ce4bgup2rcd13ifvqcn0","pricing_plan_id":"cebpf4jnsgd1na2vs0mg"},{"bike_id":"7803dd1a-a242-4883-848b-e4cbfccf197b","system_id":"levelo_inurba_marseille","lat":43.31364,"lon":5.36674,"is_reserved":false,"is_disabled":true,"rental_uris":{"android":"levelo://app?vid=7803dd1a-a242-4883-848b-e4cbfccf197b","ios":"levelo://app?vid=7803dd1a-a242-4883-848b-e4cbfccf197b"},"vehicle_type_id":"4","last_reported":1739444859,"current_range_meters":3600,"station_id":"ce4bgr92rcd13ifvqc6g","pricing_plan_id":"cebpf4jnsgd1na2vs0mg"},{"bike_id":"30910155-0cba-4983-a322-7c62d29cba67","system_id":"levelo_inurba_marseille","lat":43.30942,"lon":5.39041,"is_reserved":false,"is_disabled":false,"rental_uris":{"android":"levelo://app?vid=30910155-0cba-4983-a322-7c62d29cba67","ios":"levelo://app?vid=30910155-0cba-4983-a322-7c62d29cba67"},"vehicle_type_id":"4","last_reported":1739444859,"current_range_meters":23200,"station_id":"","pricing_plan_id":"cebpf4jnsgd1na2vs0mg"},{"bike_id":"c898e506-77e7-496b-989e-691034f0984f","system_id":"levelo_inurba_marseille","lat":43.30151,"lon":5.38077,"is_reserved":false,"is_disabled":false,"rental_uris":{"android":"levelo://app?vid=c898e506-77e7-496b-989e-691034f0984f","ios":"levelo://app?vid=c898e506-77e7-496b-989e-691034f0984f"},"vehicle_type_id":"4","last_reported":1739444859,"current_range_meters":23200,"station_id":"ce4bgjp2rcd13ifvqbh0","pricing_plan_id":"cebpf4jnsgd1na2vs0mg"},{"bike_id":"67e16df0-e52d-464d-8701-e3df7d96574d","system_id":"levelo_inurba_marseille","lat":43.296,"lon":5.38104,"is_reserved":false,"is_disabled":false,"rental_uris":{"android":"levelo://app?vid=67e16df0-e52d-464d-8701-e3df7d96574d","ios":"levelo://app?vid=67e16df0-e52d-464d-8701-e3df7d96574d"},"vehicle_type_id":"4","last_reported":1739444859,"current_range_meters":36400,"station_id":"ce4bgl12rcd13ifvqbo0","pricing_plan_id":"cebpf4jnsgd1na2vs0mg"},{"bike_id":"9c9e6dfa-122e-4154-8057-4016db8e7671","system_id":"levelo_inurba_marseille","lat":43.33747,"lon":5.39196,"is_reserved":false,"is_disabled":false,"rental_uris":{"android":"levelo://app?vid=9c9e6dfa-122e-4154-8057-4016db8e7671","ios":"levelo://app?vid=9c9e6dfa-122e-4154-8057-4016db8e7671"},"vehicle_type_id":"4","last_reported":1739444859,"current_range_meters":38800,"station_id":"ce4bhr92rcd13ifvqhsg","pricing_plan_id":"cebpf4jnsgd1na2vs0mg"},{"bike_id":"35c96b0b-eb3c-4787-a379-c8c27196e8bc","system_id":"levelo_inurba_marseille","lat":43.32484,"lon":5.36572,"is_reserved":false,"is_disabled":false,"rental_uris":{"android":"levelo://app?vid=35c96b0b-eb3c-4787-a379-c8c27196e8bc","ios":"levelo://app?vid=35c96b0b-eb3c-4787-a379-c8c27196e8bc"},"vehicle_type_id":"4","last_reported":1739444859,"current_range_meters":39200,"station_id":"ce4bhs12rcd13ifvqhvg","pricing_plan_id":"cebpf4jnsgd1na2vs0mg"},{"bike_id":"1d4165b9-e8af-42e7-8e88-54a0f84b4f26","system_id":"levelo_inurba_marseille","lat":43.23206,"lon":5.39967,"is_reserved":false,"is_disabled":false,"rental_uris":{"android":"levelo://app?vid=1d4165b9-e8af-42e7-8e88-54a0f84b4f26","ios":"levelo://app?vid=1d4165b9-e8af-42e7-8e88-54a0f84b4f26"},"vehicle_type_id":"4","last_reported":1739444859,"current_range_meters":35600,"station_id":"ce4bhn12rcd13ifvqgqg","pricing_plan_id":"cebpf4jnsgd1na2vs0mg"},{"bike_id":"f6ef4f9a-c914-4d4b-a06e-00485b64285e","system_id":"levelo_inurba_marseille","lat":43.32489,"lon":5.36565,"is_reserved":false,"is_disabled":false,"rental_uris":{"android":"levelo://app?vid=f6ef4f9a-c914-4d4b-a06e-00485b64285e","ios":"levelo://app?vid=f6ef4f9a-c914-4d4b-a06e-00485b64285e"},"vehicle_type_id":"4","last_reported":1739444859,"current_range_meters":39200,"station_id":"ce4bhs12rcd13ifvqhvg","pricing_plan_id":"cebpf4jnsgd1na2vs0mg"},{"bike_id":"fc307c26-016b-4cf5-bcc1-e7a2a92d4399","system_id":"levelo_inurba_marseille","lat":43.3096,"lon":5.390377,"is_reserved":false,"is_disabled":false,"rental_uris":{"android":"levelo://app?vid=fc307c26-016b-4cf5-bcc1-e7a2a92d4399","ios":"levelo://app?vid=fc307c26-016b-4cf5-bcc1-e7a2a92d4399"},"vehicle_type_id":"4","last_reported":1739444859,"current_range_meters":16000,"station_id":"","pricing_plan_id":"cebpf4jnsgd1na2vs0mg"},{"bike_id":"988bbda5-f775-47fb-8c30-4f6e37e64228","system_id":"levelo_inurba_marseille","lat":43.34159,"lon":5.40908,"is_reserved":false,"is_disabled":false,"rental_uris":{"android":"levelo://app?vid=988bbda5-f775-47fb-8c30-4f6e37e64228","ios":"levelo://app?vid=988bbda5-f775-47fb-8c30-4f6e37e64228"},"vehicle_type_id":"4","last_reported":1739444859,"current_range_meters":38800,"station_id":"ce4bhqh2rcd13ifvqhlg","pricing_plan_id":"cebpf4jnsgd1na2vs0mg"},{"bike_id":"efc02af1-a1a0-4d42-a738-91d120a339c2","system_id":"levelo_inurba_marseille","lat":43.23194,"lon":5.39971,"is_reserved":false,"is_disabled":false,"rental_uris":{"android":"levelo://app?vid=efc02af1-a1a0-4d42-a738-91d120a339c2","ios":"levelo://app?vid=efc02af1-a1a0-4d42-a738-91d120a339c2"},"vehicle_type_id":"4","last_reported":1739444859,"current_range_meters":19600,"station_id":"ce4bhn12rcd13ifvqgqg","pricing_plan_id":"cebpf4jnsgd1na2vs0mg"},{"bike_id":"8390feee-0735-4b8f-90c8-f81c741ca7d5","system_id":"levelo_inurba_marseille","lat":43.24816,"lon":5.37461,"is_reserved":false,"is_disabled":false,"rental_uris":{"android":"levelo://app?vid=8390feee-0735-4b8f-90c8-f81c741ca7d5","ios":"levelo://app?vid=8390feee-0735-4b8f-90c8-f81c741ca7d5"},"vehicle_type_id":"4","last_reported":1739444859,"current_range_meters":38400,"station_id":"ce4bhgh2rcd13ifvqfb0","pricing_plan_id":"cebpf4jnsgd1na2vs0mg"},{"bike_id":"82a6aab6-0d6a-4b0d-a1a8-38d0d987e82b","system_id":"levelo_inurba_marseille","lat":43.29801,"lon":5.38084,"is_reserved":false,"is_disabled":false,"rental_uris":{"android":"levelo://app?vid=82a6aab6-0d6a-4b0d-a1a8-38d0d987e82b","ios":"levelo://app?vid=82a6aab6-0d6a-4b0d-a1a8-38d0d987e82b"},"vehicle_type_id":"4","last_reported":1739444859,"current_range_meters":28800,"station_id":"ce4bgip2rcd13ifvqbb0","pricing_plan_id":"cebpf4jnsgd1na2vs0mg"},{"bike_id":"9e4564f0-0519-46c9-beea-73f529a3ce6a","system_id":"levelo_inurba_marseille","lat":43.24804,"lon":5.3746,"is_reserved":false,"is_disabled":false,"rental_uris":{"android":"levelo://app?vid=9e4564f0-0519-46c9-beea-73f529a3ce6a","ios":"levelo://app?vid=9e4564f0-0519-46c9-beea-73f529a3ce6a"},"vehicle_type_id":"4","last_reported":1739444859,"current_range_meters":24800,"station_id":"ce4bhgh2rcd13ifvqfb0","pricing_plan_id":"cebpf4jnsgd1na2vs0mg"},{"bike_id":"b44c1318-afe6-4125-8c53-9a713065e4fc","system_id":"levelo_inurba_marseille","lat":43.30312,"lon":5.36899,"is_reserved":false,"is_disabled":false,"rental_uris":{"android":"levelo://app?vid=b44c1318-afe6-4125-8c53-9a713065e4fc","ios":"levelo://app?vid=b44c1318-afe6-4125-8c53-9a713065e4fc"},"vehicle_type_id":"4","last_reported":1739444859,"current_range_meters":38400,"station_id":"ce4bgqh2rcd13ifvqc5g","pricing_plan_id":"cebpf4jnsgd1na2vs0mg"},{"bike_id":"5f72a820-1d02-49bc-8a87-8183592cb3a9","system_id":"levelo_inurba_marseille","lat":43.29789,"lon":5.37112,"is_reserved":false,"is_disabled":false,"rental_uris":{"android":"levelo://app?vid=5f72a820-1d02-49bc-8a87-8183592cb3a9","ios":"levelo://app?vid=5f72a820-1d02-49bc-8a87-8183592cb3a9"},"vehicle_type_id":"4","last_reported":1739444859,"current_range_meters":30400,"station_id":"ce4bgop2rcd13ifvqc1g","pricing_plan_id":"cebpf4jnsgd1na2vs0mg"},{"bike_id":"2046fc2f-b285-48db-8157-e8bc06624a70","system_id":"levelo_inurba_marseille","lat":43.30329,"lon":5.40433,"is_reserved":false,"is_disabled":false,"rental_uris":{"android":"levelo://app?vid=2046fc2f-b285-48db-8157-e8bc06624a70","ios":"levelo://app?vid=2046fc2f-b285-48db-8157-e8bc06624a70"},"vehicle_type_id":"4","last_reported":1739444859,"current_range_meters":20800,"station_id":"ce4bh012rcd13ifvqd10","pricing_plan_id":"cebpf4jnsgd1na2vs0mg"},{"bike_id":"dc338278-9608-4f49-9270-7e6efa0ed16a","system_id":"levelo_inurba_marseille","lat":43.29823,"lon":5.38076,"is_reserved":false,"is_disabled":false,"rental_uris":{"android":"levelo://app?vid=dc338278-9608-4f49-9270-7e6efa0ed16a","ios":"levelo://app?vid=dc338278-9608-4f49-9270-7e6efa0ed16a"},"vehicle_type_id":"4","last_reported":1739444859,"current_range_meters":38800,"station_id":"ce4bgip2rcd13ifvqbb0","pricing_plan_id":"cebpf4jnsgd1na2vs0mg"},{"bike_id":"ac2f5c21-615f-4f60-8b2b-9954adc8ad1d","system_id":"levelo_inurba_marseille","lat":43.29845,"lon":5.36283,"is_reserved":false,"is_disabled":false,"rental_uris":{"android":"levelo://app?vid=ac2f5c21-615f-4f60-8b2b-9954adc8ad1d","ios":"levelo://app?vid=ac2f5c21-615f-4f60-8b2b-9954adc8ad1d"},"vehicle_type_id":"4","last_reported":1739444859,"current_range_meters":39200,"station_id":"ce4bgpp2rcd13ifvqc3g","pricing_plan_id":"cebpf4jnsgd1na2vs0mg"},{"bike_id":"f19b3f6f-e3c3-4220-818d-e5482b0b43b6","system_id":"levelo_inurba_marseille","lat":43.25008,"lon":5.38956,"is_reserved":false,"is_disabled":false,"rental_uris":{"android":"levelo://app?vid=f19b3f6f-e3c3-4220-818d-e5482b0b43b6","ios":"levelo://app?vid=f19b3f6f-e3c3-4220-818d-e5482b0b43b6"},"vehicle_type_id":"4","last_reported":1739444859,"current_range_meters":28000,"station_id":"ce4bhgp2rcd13ifvqfd0","pricing_plan_id":"cebpf4jnsgd1na2vs0mg"},{"bike_id":"56248634-26f3-490f-bafe-a50c0a8a3b61","system_id":"levelo_inurba_marseille","lat":43.29061,"lon":5.35903,"is_reserved":false,"is_disabled":false,"rental_uris":{"android":"levelo://app?vid=56248634-26f3-490f-bafe-a50c0a8a3b61","ios":"levelo://app?vid=56248634-26f3-490f-bafe-a50c0a8a3b61"},"vehicle_type_id":"4","last_reported":1739444859,"current_range_meters":39200,"station_id":"ce4bha92rcd13ifvqeg0","pricing_plan_id":"cebpf4jnsgd1na2vs0mg"},{"bike_id":"779c584c-6476-4e77-a855-0e809b3cdaa2","system_id":"levelo_inurba_marseille","lat":43.286677,"lon":5.386587,"is_reserved":false,"is_disabled":true,"rental_uris":{"android":"levelo://app?vid=779c584c-6476-4e77-a855-0e809b3cdaa2","ios":"levelo://app?vid=779c584c-6476-4e77-a855-0e809b3cdaa2"},"vehicle_type_id":"4","last_reported":1739444859,"current_range_meters":1200,"station_id":"ce4bh492rcd13ifvqdug","pricing_plan_id":"cebpf4jnsgd1na2vs0mg"},{"bike_id":"eb773fff-5437-40ba-ad00-6941189c7543","system_id":"levelo_inurba_marseille","lat":43.30913,"lon":5.36872,"is_reserved":false,"is_disabled":false,"rental_uris":{"android":"levelo://app?vid=eb773fff-5437-40ba-ad00-6941189c7543","ios":"levelo://app?vid=eb773fff-5437-40ba-ad00-6941189c7543"},"vehicle_type_id":"4","last_reported":1739444859,"current_range_meters":30000,"station_id":"ce4bgn92rcd13ifvqbvg","pricing_plan_id":"cebpf4jnsgd1na2vs0mg"},{"bike_id":"39e55a90-fe76-4904-bf9c-9841fe168f13","system_id":"levelo_inurba_marseille","lat":43.33731,"lon":5.39178,"is_reserved":false,"is_disabled":false,"rental_uris":{"android":"levelo://app?vid=39e55a90-fe76-4904-bf9c-9841fe168f13","ios":"levelo://app?vid=39e55a90-fe76-4904-bf9c-9841fe168f13"},"vehicle_type_id":"4","last_reported":1739444859,"current_range_meters":38400,"station_id":"ce4bhr92rcd13ifvqhsg","pricing_plan_id":"cebpf4jnsgd1na2vs0mg"},{"bike_id":"1f165491-5251-409e-b9c1-4cc4ce0e7dc6","system_id":"levelo_inurba_marseille","lat":43.30089,"lon":5.39082,"is_reserved":false,"is_disabled":false,"rental_uris":{"android":"levelo://app?vid=1f165491-5251-409e-b9c1-4cc4ce0e7dc6","ios":"levelo://app?vid=1f165491-5251-409e-b9c1-4cc4ce0e7dc6"},"vehicle_type_id":"4","last_reported":1739444859,"current_range_meters":26000,"station_id":"ce4bh192rcd13ifvqdb0","pricing_plan_id":"cebpf4jnsgd1na2vs0mg"},{"bike_id":"7b830c89-3a1c-4014-a605-109efca81479","system_id":"levelo_inurba_marseille","lat":43.2768,"lon":5.38923,"is_reserved":false,"is_disabled":false,"rental_uris":{"android":"levelo://app?vid=7b830c89-3a1c-4014-a605-109efca81479","ios":"levelo://app?vid=7b830c89-3a1c-4014-a605-109efca81479"},"vehicle_type_id":"4","last_reported":1739444859,"current_range_meters":39200,"station_id":"ce4bhi12rcd13ifvqfo0","pricing_plan_id":"cebpf4jnsgd1na2vs0mg"},{"bike_id":"3c1530a7-718c-4463-a9bc-88472caca1ad","system_id":"levelo_inurba_marseille","lat":43.29223,"lon":5.36072,"is_reserved":false,"is_disabled":false,"rental_uris":{"android":"levelo://app?vid=3c1530a7-718c-4463-a9bc-88472caca1ad","ios":"levelo://app?vid=3c1530a7-718c-4463-a9bc-88472caca1ad"},"vehicle_type_id":"4","last_reported":1739444859,"current_range_meters":38800,"station_id":"ce4bhbh2rcd13ifvqeqg","pricing_plan_id":"cebpf4jnsgd1na2vs0mg"},{"bike_id":"74eed58f-1fd9-4ea4-a6c5-9ec97791fe06","system_id":"levelo_inurba_marseille","lat":43.28102,"lon":5.378293,"is_reserved":false,"is_disabled":false,"rental_uris":{"android":"levelo://app?vid=74eed58f-1fd9-4ea4-a6c5-9ec97791fe06","ios":"levelo://app?vid=74eed58f-1fd9-4ea4-a6c5-9ec97791fe06"},"vehicle_type_id":"4","last_reported":1739444859,"current_range_meters":39200,"station_id":"ce4bha12rcd13ifvqee0","pricing_plan_id":"cebpf4jnsgd1na2vs0mg"},{"bike_id":"2a5c1b07-7008-4f6d-9a02-f1ed29550b44","system_id":"levelo_inurba_marseille","lat":43.32421,"lon":5.36563,"is_reserved":false,"is_disabled":false,"rental_uris":{"android":"levelo://app?vid=2a5c1b07-7008-4f6d-9a02-f1ed29550b44","ios":"levelo://app?vid=2a5c1b07-7008-4f6d-9a02-f1ed29550b44"},"vehicle_type_id":"4","last_reported":1739444859,"current_range_meters":26800,"station_id":"ce4bhs12rcd13ifvqhvg","pricing_plan_id":"cebpf4jnsgd1na2vs0mg"},{"bike_id":"8292432b-ffe7-4134-a1fa-801fa6c43494","system_id":"levelo_inurba_marseille","lat":43.30955,"lon":5.39046,"is_reserved":false,"is_disabled":false,"rental_uris":{"android":"levelo://app?vid=8292432b-ffe7-4134-a1fa-801fa6c43494","ios":"levelo://app?vid=8292432b-ffe7-4134-a1fa-801fa6c43494"},"vehicle_type_id":"4","last_reported":1739444859,"current_range_meters":38800,"station_id":"ce4bgup2rcd13ifvqco0","pricing_plan_id":"cebpf4jnsgd1na2vs0mg"},{"bike_id":"f6aae905-8bbb-48e1-b05e-859399a162d8","system_id":"levelo_inurba_marseille","lat":43.27425,"lon":5.39417,"is_reserved":false,"is_disabled":false,"rental_uris":{"android":"levelo://app?vid=f6aae905-8bbb-48e1-b05e-859399a162d8","ios":"levelo://app?vid=f6aae905-8bbb-48e1-b05e-859399a162d8"},"vehicle_type_id":"4","last_reported":1739444859,"current_range_meters":31200,"station_id":"ce4bhdp2rcd13ifvqf20","pricing_plan_id":"cebpf4jnsgd1na2vs0mg"},{"bike_id":"3b929e21-d924-4e1e-8bf8-823aa8c517ee","system_id":"levelo_inurba_marseille","lat":43.34151,"lon":5.40901,"is_reserved":false,"is_disabled":false,"rental_uris":{"android":"levelo://app?vid=3b929e21-d924-4e1e-8bf8-823aa8c517ee","ios":"levelo://app?vid=3b929e21-d924-4e1e-8bf8-823aa8c517ee"},"vehicle_type_id":"4","last_reported":1739444859,"current_range_meters":25200,"station_id":"ce4bhqh2rcd13ifvqhlg","pricing_plan_id":"cebpf4jnsgd1na2vs0mg"},{"bike_id":"8054137f-c573-408f-9225-3700b33ee09c","system_id":"levelo_inurba_marseille","lat":43.303,"lon":5.36907,"is_reserved":false,"is_disabled":false,"rental_uris":{"android":"levelo://app?vid=8054137f-c573-408f-9225-3700b33ee09c","ios":"levelo://app?vid=8054137f-c573-408f-9225-3700b33ee09c"},"vehicle_type_id":"4","last_reported":1739444859,"current_range_meters":16000,"station_id":"ce4bgqh2rcd13ifvqc5g","pricing_plan_id":"cebpf4jnsgd1na2vs0mg"},{"bike_id":"2aaa0461-0d26-4d11-8e1e-9a504fd159ff","system_id":"levelo_inurba_marseille","lat":43.28691,"lon":5.38496,"is_reserved":false,"is_disabled":false,"rental_uris":{"android":"levelo://app?vid=2aaa0461-0d26-4d11-8e1e-9a504fd159ff","ios":"levelo://app?vid=2aaa0461-0d26-4d11-8e1e-9a504fd159ff"},"vehicle_type_id":"4","last_reported":1739444859,"current_range_meters":25600,"station_id":"","pricing_plan_id":"cebpf4jnsgd1na2vs0mg"},{"bike_id":"18371ac9-9146-4239-a383-5865c138e95c","system_id":"levelo_inurba_marseille","lat":43.2987,"lon":5.39735,"is_reserved":false,"is_disabled":false,"rental_uris":{"android":"levelo://app?vid=18371ac9-9146-4239-a383-5865c138e95c","ios":"levelo://app?vid=18371ac9-9146-4239-a383-5865c138e95c"},"vehicle_type_id":"4","last_reported":1739444859,"current_range_meters":31200,"station_id":"ce4bh0h2rcd13ifvqd50","pricing_plan_id":"cebpf4jnsgd1na2vs0mg"},{"bike_id":"5a08d7fd-6a4b-4de2-86e3-915e488c211f","system_id":"levelo_inurba_marseille","lat":43.281,"lon":5.37841,"is_reserved":false,"is_disabled":false,"rental_uris":{"android":"levelo://app?vid=5a08d7fd-6a4b-4de2-86e3-915e488c211f","ios":"levelo://app?vid=5a08d7fd-6a4b-4de2-86e3-915e488c211f"},"vehicle_type_id":"4","last_reported":1739444859,"current_range_meters":38800,"station_id":"ce4bha12rcd13ifvqee0","pricing_plan_id":"cebpf4jnsgd1na2vs0mg"},{"bike_id":"679b51a7-0864-4c79-a75b-8b937ab8b8fc","system_id":"levelo_inurba_marseille","lat":43.24541,"lon":5.3951,"is_reserved":false,"is_disabled":false,"rental_uris":{"android":"levelo://app?vid=679b51a7-0864-4c79-a75b-8b937ab8b8fc","ios":"levelo://app?vid=679b51a7-0864-4c79-a75b-8b937ab8b8fc"},"vehicle_type_id":"4","last_reported":1739444859,"current_range_meters":32000,"station_id":"ce4bhlp2rcd13ifvqgjg","pricing_plan_id":"cebpf4jnsgd1na2vs0mg"},{"bike_id":"03197daf-a8bc-458e-bc76-c614f0d2efea","system_id":"levelo_inurba_marseille","lat":43.26238,"lon":5.40483,"is_reserved":false,"is_disabled":false,"rental_uris":{"android":"levelo://app?vid=03197daf-a8bc-458e-bc76-c614f0d2efea","ios":"levelo://app?vid=03197daf-a8bc-458e-bc76-c614f0d2efea"},"vehicle_type_id":"4","last_reported":1739444859,"current_range_meters":5600,"station_id":"ce4bhmh2rcd13ifvqgmg","pricing_plan_id":"cebpf4jnsgd1na2vs0mg"},{"bike_id":"5e26e6c9-5ef7-41b0-b07f-6bc5dfe3c4dc","system_id":"levelo_inurba_marseille","lat":43.30181,"lon":5.3934,"is_reserved":false,"is_disabled":true,"rental_uris":{"android":"levelo://app?vid=5e26e6c9-5ef7-41b0-b07f-6bc5dfe3c4dc","ios":"levelo://app?vid=5e26e6c9-5ef7-41b0-b07f-6bc5dfe3c4dc"},"vehicle_type_id":"4","last_reported":1739444859,"current_range_meters":800,"station_id":"ce4bh0p2rcd13ifvqd70","pricing_plan_id":"cebpf4jnsgd1na2vs0mg"},{"bike_id":"2c6d46bc-15d7-408b-8dbb-d8c4ad5bbf49","system_id":"levelo_inurba_marseille","lat":43.29724,"lon":5.37698,"is_reserved":false,"is_disabled":false,"rental_uris":{"android":"levelo://app?vid=2c6d46bc-15d7-408b-8dbb-d8c4ad5bbf49","ios":"levelo://app?vid=2c6d46bc-15d7-408b-8dbb-d8c4ad5bbf49"},"vehicle_type_id":"4","last_reported":1739444859,"current_range_meters":39200,"station_id":"ce4bgkh2rcd13ifvqbl0","pricing_plan_id":"cebpf4jnsgd1na2vs0mg"},{"bike_id":"1f04e829-892b-4c72-b192-e8183645fbbc","system_id":"levelo_inurba_marseille","lat":43.29419,"lon":5.39766,"is_reserved":false,"is_disabled":false,"rental_uris":{"android":"levelo://app?vid=1f04e829-892b-4c72-b192-e8183645fbbc","ios":"levelo://app?vid=1f04e829-892b-4c72-b192-e8183645fbbc"},"vehicle_type_id":"4","last_reported":1739444859,"current_range_meters":38000,"station_id":"ce4bh3h2rcd13ifvqdo0","pricing_plan_id":"cebpf4jnsgd1na2vs0mg"},{"bike_id":"83f86852-939d-4ba2-8006-31400717194c","system_id":"levelo_inurba_marseille","lat":43.27802,"lon":5.40732,"is_reserved":false,"is_disabled":false,"rental_uris":{"android":"levelo://app?vid=83f86852-939d-4ba2-8006-31400717194c","ios":"levelo://app?vid=83f86852-939d-4ba2-8006-31400717194c"},"vehicle_type_id":"4","last_reported":1739444859,"current_range_meters":26000,"station_id":"ce4bhnh2rcd13ifvqgtg","pricing_plan_id":"cebpf4jnsgd1na2vs0mg"},{"bike_id":"063d38d0-e4fd-43d5-828f-958eb1e05404","system_id":"levelo_inurba_marseille","lat":43.29361,"lon":5.37845,"is_reserved":false,"is_disabled":false,"rental_uris":{"android":"levelo://app?vid=063d38d0-e4fd-43d5-828f-958eb1e05404","ios":"levelo://app?vid=063d38d0-e4fd-43d5-828f-958eb1e05404"},"vehicle_type_id":"4","last_reported":1739444859,"current_range_meters":38800,"station_id":"ce4bgjh2rcd13ifvqbf0","pricing_plan_id":"cebpf4jnsgd1na2vs0mg"},{"bike_id":"704ec19d-e7c0-4858-a423-dcfa560220a5","system_id":"levelo_inurba_marseille","lat":43.23186,"lon":5.3998,"is_reserved":false,"is_disabled":false,"rental_uris":{"android":"levelo://app?vid=704ec19d-e7c0-4858-a423-dcfa560220a5","ios":"levelo://app?vid=704ec19d-e7c0-4858-a423-dcfa560220a5"},"vehicle_type_id":"4","last_reported":1739444859,"current_range_meters":36800,"station_id":"ce4bhn12rcd13ifvqgqg","pricing_plan_id":"cebpf4jnsgd1na2vs0mg"},{"bike_id":"aa9010f5-ddb8-40ac-92f7-6cf7d13e88ae","system_id":"levelo_inurba_marseille","lat":43.26683,"lon":5.38271,"is_reserved":false,"is_disabled":true,"rental_uris":{"android":"levelo://app?vid=aa9010f5-ddb8-40ac-92f7-6cf7d13e88ae","ios":"levelo://app?vid=aa9010f5-ddb8-40ac-92f7-6cf7d13e88ae"},"vehicle_type_id":"4","last_reported":1739444859,"current_range_meters":38400,"station_id":"ce4bhg92rcd13ifvqf90","pricing_plan_id":"cebpf4jnsgd1na2vs0mg"},{"bike_id":"a963d31a-9d3b-4fa1-8726-ac466c109492","system_id":"levelo_inurba_marseille","lat":43.33609,"lon":5.41026,"is_reserved":false,"is_disabled":false,"rental_uris":{"android":"levelo://app?vid=a963d31a-9d3b-4fa1-8726-ac466c109492","ios":"levelo://app?vid=a963d31a-9d3b-4fa1-8726-ac466c109492"},"vehicle_type_id":"4","last_reported":1739444859,"current_range_meters":33600,"station_id":"ce4bhqh2rcd13ifvqhmg","pricing_plan_id":"cebpf4jnsgd1na2vs0mg"},{"bike_id":"7f922148-2ec9-4ffb-81da-2699ff8cc00b","system_id":"levelo_inurba_marseille","lat":43.23178,"lon":5.39989,"is_reserved":false,"is_disabled":false,"rental_uris":{"android":"levelo://app?vid=7f922148-2ec9-4ffb-81da-2699ff8cc00b","ios":"levelo://app?vid=7f922148-2ec9-4ffb-81da-2699ff8cc00b"},"vehicle_type_id":"4","last_reported":1739444859,"current_range_meters":38800,"station_id":"ce4bhn12rcd13ifvqgqg","pricing_plan_id":"cebpf4jnsgd1na2vs0mg"},{"bike_id":"8b301010-c1b7-4bf5-be73-26b4bca92fe7","system_id":"levelo_inurba_marseille","lat":43.24814,"lon":5.37457,"is_reserved":false,"is_disabled":false,"rental_uris":{"android":"levelo://app?vid=8b301010-c1b7-4bf5-be73-26b4bca92fe7","ios":"levelo://app?vid=8b301010-c1b7-4bf5-be73-26b4bca92fe7"},"vehicle_type_id":"4","last_reported":1739444859,"current_range_meters":21600,"station_id":"ce4bhgh2rcd13ifvqfb0","pricing_plan_id":"cebpf4jnsgd1na2vs0mg"},{"bike_id":"5014a418-9296-4854-a3ce-8f5cc273e0d3","system_id":"levelo_inurba_marseille","lat":43.28104,"lon":5.37843,"is_reserved":false,"is_disabled":false,"rental_uris":{"android":"levelo://app?vid=5014a418-9296-4854-a3ce-8f5cc273e0d3","ios":"levelo://app?vid=5014a418-9296-4854-a3ce-8f5cc273e0d3"},"vehicle_type_id":"4","last_reported":1739444859,"current_range_meters":32400,"station_id":"ce4bha12rcd13ifvqee0","pricing_plan_id":"cebpf4jnsgd1na2vs0mg"},{"bike_id":"9cf8e6d9-67b8-441b-8ab4-08ef8560d2b0","system_id":"levelo_inurba_marseille","lat":43.33189,"lon":5.35576,"is_reserved":false,"is_disabled":false,"rental_uris":{"android":"levelo://app?vid=9cf8e6d9-67b8-441b-8ab4-08ef8560d2b0","ios":"levelo://app?vid=9cf8e6d9-67b8-441b-8ab4-08ef8560d2b0"},"vehicle_type_id":"4","last_reported":1739444859,"current_range_meters":5600,"station_id":"","pricing_plan_id":"cebpf4jnsgd1na2vs0mg"},{"bike_id":"d8b67452-476a-4a1d-b761-635b8f48fdff","system_id":"levelo_inurba_marseille","lat":43.31757,"lon":5.39013,"is_reserved":false,"is_disabled":false,"rental_uris":{"android":"levelo://app?vid=d8b67452-476a-4a1d-b761-635b8f48fdff","ios":"levelo://app?vid=d8b67452-476a-4a1d-b761-635b8f48fdff"},"vehicle_type_id":"4","last_reported":1739444859,"current_range_meters":38000,"station_id":"ce4bhqp2rcd13ifvqhng","pricing_plan_id":"cebpf4jnsgd1na2vs0mg"},{"bike_id":"e8eae003-2417-407b-b19d-4cd80da49007","system_id":"levelo_inurba_marseille","lat":43.337444,"lon":5.374475,"is_reserved":false,"is_disabled":false,"rental_uris":{"android":"levelo://app?vid=e8eae003-2417-407b-b19d-4cd80da49007","ios":"levelo://app?vid=e8eae003-2417-407b-b19d-4cd80da49007"},"vehicle_type_id":"4","last_reported":1739444859,"current_range_meters":38000,"station_id":"ce4bh0h2rcd13ifvqd50","pricing_plan_id":"cebpf4jnsgd1na2vs0mg"},{"bike_id":"73672ad0-aab9-42fb-bc4f-9f3ef24e20d5","system_id":"levelo_inurba_marseille","lat":43.24393,"lon":5.37064,"is_reserved":false,"is_disabled":true,"rental_uris":{"android":"levelo://app?vid=73672ad0-aab9-42fb-bc4f-9f3ef24e20d5","ios":"levelo://app?vid=73672ad0-aab9-42fb-bc4f-9f3ef24e20d5"},"vehicle_type_id":"4","last_reported":1739444859,"current_range_meters":34800,"station_id":"ce4bhhh2rcd13ifvqfk0","pricing_plan_id":"cebpf4jnsgd1na2vs0mg"},{"bike_id":"7e4baaff-43df-45ac-ba99-60d4ee3b5a14","system_id":"levelo_inurba_marseille","lat":43.32499,"lon":5.36566,"is_reserved":false,"is_disabled":false,"rental_uris":{"android":"levelo://app?vid=7e4baaff-43df-45ac-ba99-60d4ee3b5a14","ios":"levelo://app?vid=7e4baaff-43df-45ac-ba99-60d4ee3b5a14"},"vehicle_type_id":"4","last_reported":1739444859,"current_range_meters":36800,"station_id":"ce4bhs12rcd13ifvqhvg","pricing_plan_id":"cebpf4jnsgd1na2vs0mg"},{"bike_id":"03bc2d80-3618-49b6-905e-cefe60ebb69e","system_id":"levelo_inurba_marseille","lat":43.26209,"lon":5.37442,"is_reserved":false,"is_disabled":false,"rental_uris":{"android":"levelo://app?vid=03bc2d80-3618-49b6-905e-cefe60ebb69e","ios":"levelo://app?vid=03bc2d80-3618-49b6-905e-cefe60ebb69e"},"vehicle_type_id":"4","last_reported":1739444859,"current_range_meters":24800,"station_id":"ce4bhgp2rcd13ifvqfc0","pricing_plan_id":"cebpf4jnsgd1na2vs0mg"},{"bike_id":"5bf7b31a-f643-4d39-ac8f-028588cb3b5d","system_id":"levelo_inurba_marseille","lat":43.24075,"lon":5.37754,"is_reserved":false,"is_disabled":false,"rental_uris":{"android":"levelo://app?vid=5bf7b31a-f643-4d39-ac8f-028588cb3b5d","ios":"levelo://app?vid=5bf7b31a-f643-4d39-ac8f-028588cb3b5d"},"vehicle_type_id":"4","last_reported":1739444859,"current_range_meters":38800,"station_id":"ce4bhnp2rcd13ifvqgvg","pricing_plan_id":"cebpf4jnsgd1na2vs0mg"},{"bike_id":"b03fd7e9-5604-4ddf-8507-029c6e1eb1c8","system_id":"levelo_inurba_marseille","lat":43.25936,"lon":5.40892,"is_reserved":false,"is_disabled":false,"rental_uris":{"android":"levelo://app?vid=b03fd7e9-5604-4ddf-8507-029c6e1eb1c8","ios":"levelo://app?vid=b03fd7e9-5604-4ddf-8507-029c6e1eb1c8"},"vehicle_type_id":"4","last_reported":1739444859,"current_range_meters":8400,"station_id":"ce4bhm92rcd13ifvqglg","pricing_plan_id":"cebpf4jnsgd1na2vs0mg"},{"bike_id":"51ab7186-5043-4bed-baca-73708608a302","system_id":"levelo_inurba_marseille","lat":43.29584,"lon":5.37026,"is_reserved":false,"is_disabled":true,"rental_uris":{"android":"levelo://app?vid=51ab7186-5043-4bed-baca-73708608a302","ios":"levelo://app?vid=51ab7186-5043-4bed-baca-73708608a302"},"vehicle_type_id":"4","last_reported":1739444859,"current_range_meters":0,"station_id":"","pricing_plan_id":"cebpf4jnsgd1na2vs0mg"},{"bike_id":"bc594d52-84b9-4360-840c-6c86a4d6360b","system_id":"levelo_inurba_marseille","lat":43.3014,"lon":5.38063,"is_reserved":false,"is_disabled":false,"rental_uris":{"android":"levelo://app?vid=bc594d52-84b9-4360-840c-6c86a4d6360b","ios":"levelo://app?vid=bc594d52-84b9-4360-840c-6c86a4d6360b"},"vehicle_type_id":"4","last_reported":1739444859,"current_range_meters":30000,"station_id":"ce4bgjp2rcd13ifvqbh0","pricing_plan_id":"cebpf4jnsgd1na2vs0mg"},{"bike_id":"d3fc5f7e-9983-4343-a9af-f36df7d45f29","system_id":"levelo_inurba_marseille","lat":43.23189,"lon":5.39981,"is_reserved":false,"is_disabled":false,"rental_uris":{"android":"levelo://app?vid=d3fc5f7e-9983-4343-a9af-f36df7d45f29","ios":"levelo://app?vid=d3fc5f7e-9983-4343-a9af-f36df7d45f29"},"vehicle_type_id":"4","last_reported":1739444859,"current_range_meters":24800,"station_id":"ce4bhn12rcd13ifvqgqg","pricing_plan_id":"cebpf4jnsgd1na2vs0mg"},{"bike_id":"84cae1c0-048f-4f19-8f2b-df8077aaa520","system_id":"levelo_inurba_marseille","lat":43.29792,"lon":5.37102,"is_reserved":false,"is_disabled":false,"rental_uris":{"android":"levelo://app?vid=84cae1c0-048f-4f19-8f2b-df8077aaa520","ios":"levelo://app?vid=84cae1c0-048f-4f19-8f2b-df8077aaa520"},"vehicle_type_id":"4","last_reported":1739444859,"current_range_meters":28400,"station_id":"ce4bgop2rcd13ifvqc1g","pricing_plan_id":"cebpf4jnsgd1na2vs0mg"},{"bike_id":"9f273670-15eb-4b22-9f2f-8564846efece","system_id":"levelo_inurba_marseille","lat":43.30532,"lon":5.36522,"is_reserved":false,"is_disabled":false,"rental_uris":{"android":"levelo://app?vid=9f273670-15eb-4b22-9f2f-8564846efece","ios":"levelo://app?vid=9f273670-15eb-4b22-9f2f-8564846efece"},"vehicle_type_id":"4","last_reported":1739444859,"current_range_meters":39200,"station_id":"ce4bgs12rcd13ifvqcag","pricing_plan_id":"cebpf4jnsgd1na2vs0mg"},{"bike_id":"605d4ca4-85a6-40c7-97c4-fb0709ef6cbc","system_id":"levelo_inurba_marseille","lat":43.27203,"lon":5.3919,"is_reserved":false,"is_disabled":false,"rental_uris":{"android":"levelo://app?vid=605d4ca4-85a6-40c7-97c4-fb0709ef6cbc","ios":"levelo://app?vid=605d4ca4-85a6-40c7-97c4-fb0709ef6cbc"},"vehicle_type_id":"4","last_reported":1739444859,"current_range_meters":36000,"station_id":"ce4bhhp2rcd13ifvqfm0","pricing_plan_id":"cebpf4jnsgd1na2vs0mg"},{"bike_id":"dc9ca575-4b21-4f56-b01b-70c59d6c2bc7","system_id":"levelo_inurba_marseille","lat":43.29525,"lon":5.39056,"is_reserved":false,"is_disabled":false,"rental_uris":{"android":"levelo://app?vid=dc9ca575-4b21-4f56-b01b-70c59d6c2bc7","ios":"levelo://app?vid=dc9ca575-4b21-4f56-b01b-70c59d6c2bc7"},"vehicle_type_id":"4","last_reported":1739444859,"current_range_meters":38800,"station_id":"ce4bh3p2rcd13ifvqdp0","pricing_plan_id":"cebpf4jnsgd1na2vs0mg"},{"bike_id":"dff784b9-040c-429d-b847-08ccef8ffbe4","system_id":"levelo_inurba_marseille","lat":43.24799,"lon":5.3746,"is_reserved":false,"is_disabled":false,"rental_uris":{"android":"levelo://app?vid=dff784b9-040c-429d-b847-08ccef8ffbe4","ios":"levelo://app?vid=dff784b9-040c-429d-b847-08ccef8ffbe4"},"vehicle_type_id":"4","last_reported":1739444859,"current_range_meters":18800,"station_id":"ce4bhgh2rcd13ifvqfb0","pricing_plan_id":"cebpf4jnsgd1na2vs0mg"},{"bike_id":"1cec71bb-b91d-4d7f-8633-92f0132412d9","system_id":"levelo_inurba_marseille","lat":43.29374,"lon":5.37827,"is_reserved":false,"is_disabled":false,"rental_uris":{"android":"levelo://app?vid=1cec71bb-b91d-4d7f-8633-92f0132412d9","ios":"levelo://app?vid=1cec71bb-b91d-4d7f-8633-92f0132412d9"},"vehicle_type_id":"4","last_reported":1739444859,"current_range_meters":28400,"station_id":"ce4bgjh2rcd13ifvqbf0","pricing_plan_id":"cebpf4jnsgd1na2vs0mg"},{"bike_id":"bb9beb2e-b4a9-4bca-8d71-92491d8e9423","system_id":"levelo_inurba_marseille","lat":43.30144,"lon":5.38091,"is_reserved":false,"is_disabled":false,"rental_uris":{"android":"levelo://app?vid=bb9beb2e-b4a9-4bca-8d71-92491d8e9423","ios":"levelo://app?vid=bb9beb2e-b4a9-4bca-8d71-92491d8e9423"},"vehicle_type_id":"4","last_reported":1739444859,"current_range_meters":36400,"station_id":"ce4bgjp2rcd13ifvqbh0","pricing_plan_id":"cebpf4jnsgd1na2vs0mg"},{"bike_id":"79812c8d-c1b2-4412-b14e-aea7ec0917b9","system_id":"levelo_inurba_marseille","lat":43.30547,"lon":5.36706,"is_reserved":false,"is_disabled":false,"rental_uris":{"android":"levelo://app?vid=79812c8d-c1b2-4412-b14e-aea7ec0917b9","ios":"levelo://app?vid=79812c8d-c1b2-4412-b14e-aea7ec0917b9"},"vehicle_type_id":"4","last_reported":1739444859,"current_range_meters":30800,"station_id":"ce4bgrp2rcd13ifvqc9g","pricing_plan_id":"cebpf4jnsgd1na2vs0mg"},{"bike_id":"ee079ffa-4416-4a91-bc98-3bd665acea3b","system_id":"levelo_inurba_marseille","lat":43.337308,"lon":5.391923,"is_reserved":false,"is_disabled":false,"rental_uris":{"android":"levelo://app?vid=ee079ffa-4416-4a91-bc98-3bd665acea3b","ios":"levelo://app?vid=ee079ffa-4416-4a91-bc98-3bd665acea3b"},"vehicle_type_id":"4","last_reported":1739444859,"current_range_meters":39200,"station_id":"ce4bhr92rcd13ifvqhsg","pricing_plan_id":"cebpf4jnsgd1na2vs0mg"},{"bike_id":"1fa82dc6-47d4-4356-bbca-393bf4461726","system_id":"levelo_inurba_marseille","lat":43.23967,"lon":5.36633,"is_reserved":false,"is_disabled":false,"rental_uris":{"android":"levelo://app?vid=1fa82dc6-47d4-4356-bbca-393bf4461726","ios":"levelo://app?vid=1fa82dc6-47d4-4356-bbca-393bf4461726"},"vehicle_type_id":"4","last_reported":1739444859,"current_range_meters":38800,"station_id":"ce4bhi12rcd13ifvqfp0","pricing_plan_id":"cebpf4jnsgd1na2vs0mg"},{"bike_id":"2355c6e5-09c3-4950-a7a8-dbebf456e6b5","system_id":"levelo_inurba_marseille","lat":43.30793,"lon":5.36648,"is_reserved":false,"is_disabled":false,"rental_uris":{"android":"levelo://app?vid=2355c6e5-09c3-4950-a7a8-dbebf456e6b5","ios":"levelo://app?vid=2355c6e5-09c3-4950-a7a8-dbebf456e6b5"},"vehicle_type_id":"4","last_reported":1739444859,"current_range_meters":22800,"station_id":"","pricing_plan_id":"cebpf4jnsgd1na2vs0mg"},{"bike_id":"0c236953-fa85-4107-b794-04c5d553375e","system_id":"levelo_inurba_marseille","lat":43.24813,"lon":5.37457,"is_reserved":false,"is_disabled":false,"rental_uris":{"android":"levelo://app?vid=0c236953-fa85-4107-b794-04c5d553375e","ios":"levelo://app?vid=0c236953-fa85-4107-b794-04c5d553375e"},"vehicle_type_id":"4","last_reported":1739444859,"current_range_meters":38800,"station_id":"ce4bhgh2rcd13ifvqfb0","pricing_plan_id":"cebpf4jnsgd1na2vs0mg"},{"bike_id":"f1877b9c-2b99-43eb-829e-ccf976e09f80","system_id":"levelo_inurba_marseille","lat":43.24391,"lon":5.37062,"is_reserved":false,"is_disabled":false,"rental_uris":{"android":"levelo://app?vid=f1877b9c-2b99-43eb-829e-ccf976e09f80","ios":"levelo://app?vid=f1877b9c-2b99-43eb-829e-ccf976e09f80"},"vehicle_type_id":"4","last_reported":1739444859,"current_range_meters":37600,"station_id":"ce4bhhh2rcd13ifvqfk0","pricing_plan_id":"cebpf4jnsgd1na2vs0mg"},{"bike_id":"73204b29-ec32-4146-8fea-bcca13682a2a","system_id":"levelo_inurba_marseille","lat":43.24821,"lon":5.37454,"is_reserved":false,"is_disabled":false,"rental_uris":{"android":"levelo://app?vid=73204b29-ec32-4146-8fea-bcca13682a2a","ios":"levelo://app?vid=73204b29-ec32-4146-8fea-bcca13682a2a"},"vehicle_type_id":"4","last_reported":1739444859,"current_range_meters":22400,"station_id":"ce4bhgh2rcd13ifvqfb0","pricing_plan_id":"cebpf4jnsgd1na2vs0mg"},{"bike_id":"476efa06-ff76-4710-9c45-8a07585e8d77","system_id":"levelo_inurba_marseille","lat":43.29554,"lon":5.42283,"is_reserved":false,"is_disabled":true,"rental_uris":{"android":"levelo://app?vid=476efa06-ff76-4710-9c45-8a07585e8d77","ios":"levelo://app?vid=476efa06-ff76-4710-9c45-8a07585e8d77"},"vehicle_type_id":"4","last_reported":1739444859,"current_range_meters":25200,"station_id":"ce4bhph2rcd13ifvqhdg","pricing_plan_id":"cebpf4jnsgd1na2vs0mg"},{"bike_id":"b85f089e-bcba-493c-8108-fb98e760e842","system_id":"levelo_inurba_marseille","lat":43.324834,"lon":5.365684,"is_reserved":false,"is_disabled":false,"rental_uris":{"android":"levelo://app?vid=b85f089e-bcba-493c-8108-fb98e760e842","ios":"levelo://app?vid=b85f089e-bcba-493c-8108-fb98e760e842"},"vehicle_type_id":"4","last_reported":1739444859,"current_range_meters":39200,"station_id":"ce4bhs12rcd13ifvqhvg","pricing_plan_id":"cebpf4jnsgd1na2vs0mg"},{"bike_id":"d1e6b517-b6c2-4320-8222-419cb00ef868","system_id":"levelo_inurba_marseille","lat":43.302868,"lon":5.368844,"is_reserved":false,"is_disabled":false,"rental_uris":{"android":"levelo://app?vid=d1e6b517-b6c2-4320-8222-419cb00ef868","ios":"levelo://app?vid=d1e6b517-b6c2-4320-8222-419cb00ef868"},"vehicle_type_id":"4","last_reported":1739444859,"current_range_meters":19600,"station_id":"ce4bgqh2rcd13ifvqc5g","pricing_plan_id":"cebpf4jnsgd1na2vs0mg"},{"bike_id":"77b38c7f-92a6-4a43-8001-c565628a27d0","system_id":"levelo_inurba_marseille","lat":43.29519,"lon":5.37507,"is_reserved":false,"is_disabled":false,"rental_uris":{"android":"levelo://app?vid=77b38c7f-92a6-4a43-8001-c565628a27d0","ios":"levelo://app?vid=77b38c7f-92a6-4a43-8001-c565628a27d0"},"vehicle_type_id":"4","last_reported":1739444859,"current_range_meters":26800,"station_id":"ce4bgkp2rcd13ifvqbmg","pricing_plan_id":"cebpf4jnsgd1na2vs0mg"},{"bike_id":"d674d394-04ab-4838-a267-bcdd8affd803","system_id":"levelo_inurba_marseille","lat":43.30807,"lon":5.43524,"is_reserved":false,"is_disabled":false,"rental_uris":{"android":"levelo://app?vid=d674d394-04ab-4838-a267-bcdd8affd803","ios":"levelo://app?vid=d674d394-04ab-4838-a267-bcdd8affd803"},"vehicle_type_id":"4","last_reported":1739444859,"current_range_meters":38800,"station_id":"ce4bhph2rcd13ifvqheg","pricing_plan_id":"cebpf4jnsgd1na2vs0mg"},{"bike_id":"21b456dc-c540-4f8f-ac6c-ec86fb881097","system_id":"levelo_inurba_marseille","lat":43.3017,"lon":5.36627,"is_reserved":false,"is_disabled":false,"rental_uris":{"android":"levelo://app?vid=21b456dc-c540-4f8f-ac6c-ec86fb881097","ios":"levelo://app?vid=21b456dc-c540-4f8f-ac6c-ec86fb881097"},"vehicle_type_id":"4","last_reported":1739444859,"current_range_meters":38800,"station_id":"ce4bgrh2rcd13ifvqc8g","pricing_plan_id":"cebpf4jnsgd1na2vs0mg"},{"bike_id":"4c240304-0447-4210-9848-9a342186a152","system_id":"levelo_inurba_marseille","lat":43.23192,"lon":5.35553,"is_reserved":false,"is_disabled":false,"rental_uris":{"android":"levelo://app?vid=4c240304-0447-4210-9848-9a342186a152","ios":"levelo://app?vid=4c240304-0447-4210-9848-9a342186a152"},"vehicle_type_id":"4","last_reported":1739444859,"current_range_meters":12000,"station_id":"ce4bhu92rcd13ifvqi70","pricing_plan_id":"cebpf4jnsgd1na2vs0mg"},{"bike_id":"a25d760b-6138-4f85-81d0-8e889ad4065d","system_id":"levelo_inurba_marseille","lat":43.29006,"lon":5.35614,"is_reserved":false,"is_disabled":false,"rental_uris":{"android":"levelo://app?vid=a25d760b-6138-4f85-81d0-8e889ad4065d","ios":"levelo://app?vid=a25d760b-6138-4f85-81d0-8e889ad4065d"},"vehicle_type_id":"4","last_reported":1739444859,"current_range_meters":38800,"station_id":"ce4bhb92rcd13ifvqen0","pricing_plan_id":"cebpf4jnsgd1na2vs0mg"},{"bike_id":"3c972bc6-571f-4946-9dde-c7f43d4c71a0","system_id":"levelo_inurba_marseille","lat":43.324935,"lon":5.365644,"is_reserved":false,"is_disabled":false,"rental_uris":{"android":"levelo://app?vid=3c972bc6-571f-4946-9dde-c7f43d4c71a0","ios":"levelo://app?vid=3c972bc6-571f-4946-9dde-c7f43d4c71a0"},"vehicle_type_id":"4","last_reported":1739444859,"current_range_meters":24800,"station_id":"ce4bhs12rcd13ifvqhvg","pricing_plan_id":"cebpf4jnsgd1na2vs0mg"},{"bike_id":"099a1e84-c968-4d02-8d1c-8f9348d7a62d","system_id":"levelo_inurba_marseille","lat":43.27558,"lon":5.38424,"is_reserved":false,"is_disabled":false,"rental_uris":{"android":"levelo://app?vid=099a1e84-c968-4d02-8d1c-8f9348d7a62d","ios":"levelo://app?vid=099a1e84-c968-4d02-8d1c-8f9348d7a62d"},"vehicle_type_id":"4","last_reported":1739444859,"current_range_meters":38000,"station_id":"ce4bhh92rcd13ifvqfi0","pricing_plan_id":"cebpf4jnsgd1na2vs0mg"},{"bike_id":"022d0775-1d6d-4775-ab1d-1f0a003029c2","system_id":"levelo_inurba_marseille","lat":43.27971,"lon":5.38725,"is_reserved":false,"is_disabled":false,"rental_uris":{"android":"levelo://app?vid=022d0775-1d6d-4775-ab1d-1f0a003029c2","ios":"levelo://app?vid=022d0775-1d6d-4775-ab1d-1f0a003029c2"},"vehicle_type_id":"4","last_reported":1739444859,"current_range_meters":29600,"station_id":"ce4bhg12rcd13ifvqf80","pricing_plan_id":"cebpf4jnsgd1na2vs0mg"},{"bike_id":"8b4a769b-e9d7-4550-b511-c8a14fa95b8c","system_id":"levelo_inurba_marseille","lat":43.28089,"lon":5.37851,"is_reserved":false,"is_disabled":false,"rental_uris":{"android":"levelo://app?vid=8b4a769b-e9d7-4550-b511-c8a14fa95b8c","ios":"levelo://app?vid=8b4a769b-e9d7-4550-b511-c8a14fa95b8c"},"vehicle_type_id":"4","last_reported":1739444859,"current_range_meters":38400,"station_id":"ce4bha12rcd13ifvqee0","pricing_plan_id":"cebpf4jnsgd1na2vs0mg"},{"bike_id":"76ed4e97-7fa9-4836-bcd3-e52753ef31b4","system_id":"levelo_inurba_marseille","lat":43.29843,"lon":5.36271,"is_reserved":false,"is_disabled":false,"rental_uris":{"android":"levelo://app?vid=76ed4e97-7fa9-4836-bcd3-e52753ef31b4","ios":"levelo://app?vid=76ed4e97-7fa9-4836-bcd3-e52753ef31b4"},"vehicle_type_id":"4","last_reported":1739444859,"current_range_meters":37600,"station_id":"ce4bgpp2rcd13ifvqc3g","pricing_plan_id":"cebpf4jnsgd1na2vs0mg"},{"bike_id":"08a86ebb-b290-4f14-9520-6a5a716f26bd","system_id":"levelo_inurba_marseille","lat":43.23962,"lon":5.36625,"is_reserved":false,"is_disabled":false,"rental_uris":{"android":"levelo://app?vid=08a86ebb-b290-4f14-9520-6a5a716f26bd","ios":"levelo://app?vid=08a86ebb-b290-4f14-9520-6a5a716f26bd"},"vehicle_type_id":"4","last_reported":1739444859,"current_range_meters":38800,"station_id":"ce4bhi12rcd13ifvqfp0","pricing_plan_id":"cebpf4jnsgd1na2vs0mg"},{"bike_id":"60a53aa1-c3fc-4d44-9250-2f1552d66749","system_id":"levelo_inurba_marseille","lat":43.30463,"lon":5.37913,"is_reserved":false,"is_disabled":false,"rental_uris":{"android":"levelo://app?vid=60a53aa1-c3fc-4d44-9250-2f1552d66749","ios":"levelo://app?vid=60a53aa1-c3fc-4d44-9250-2f1552d66749"},"vehicle_type_id":"4","last_reported":1739444859,"current_range_meters":38800,"station_id":"ce4bgup2rcd13ifvqcn0","pricing_plan_id":"cebpf4jnsgd1na2vs0mg"},{"bike_id":"d32849cf-4c14-4032-9063-172d06d3f04f","system_id":"levelo_inurba_marseille","lat":43.23195,"lon":5.35559,"is_reserved":false,"is_disabled":false,"rental_uris":{"android":"levelo://app?vid=d32849cf-4c14-4032-9063-172d06d3f04f","ios":"levelo://app?vid=d32849cf-4c14-4032-9063-172d06d3f04f"},"vehicle_type_id":"4","last_reported":1739444859,"current_range_meters":28000,"station_id":"ce4bhu92rcd13ifvqi70","pricing_plan_id":"cebpf4jnsgd1na2vs0mg"},{"bike_id":"2ff86c0c-69fd-4294-8842-114f3593748f","system_id":"levelo_inurba_marseille","lat":43.31339,"lon":5.36761,"is_reserved":false,"is_disabled":true,"rental_uris":{"android":"levelo://app?vid=2ff86c0c-69fd-4294-8842-114f3593748f","ios":"levelo://app?vid=2ff86c0c-69fd-4294-8842-114f3593748f"},"vehicle_type_id":"4","last_reported":1739444859,"current_range_meters":32800,"station_id":"ce4bgr92rcd13ifvqc6g","pricing_plan_id":"cebpf4jnsgd1na2vs0mg"},{"bike_id":"683a1f68-132b-4e30-8285-b02eae37d101","system_id":"levelo_inurba_marseille","lat":43.29065,"lon":5.37166,"is_reserved":false,"is_disabled":true,"rental_uris":{"android":"levelo://app?vid=683a1f68-132b-4e30-8285-b02eae37d101","ios":"levelo://app?vid=683a1f68-132b-4e30-8285-b02eae37d101"},"vehicle_type_id":"4","last_reported":1739444859,"current_range_meters":20400,"station_id":"","pricing_plan_id":"cebpf4jnsgd1na2vs0mg"},{"bike_id":"89b847eb-8b72-48a7-8017-2936b33a5c9b","system_id":"levelo_inurba_marseille","lat":43.278109,"lon":5.407117,"is_reserved":false,"is_disabled":false,"rental_uris":{"android":"levelo://app?vid=89b847eb-8b72-48a7-8017-2936b33a5c9b","ios":"levelo://app?vid=89b847eb-8b72-48a7-8017-2936b33a5c9b"},"vehicle_type_id":"4","last_reported":1739444859,"current_range_meters":20000,"station_id":"ce4bhnh2rcd13ifvqgtg","pricing_plan_id":"cebpf4jnsgd1na2vs0mg"},{"bike_id":"90072d59-5940-4b56-877a-b1a272b176a0","system_id":"levelo_inurba_marseille","lat":43.2971,"lon":5.36613,"is_reserved":false,"is_disabled":false,"rental_uris":{"android":"levelo://app?vid=90072d59-5940-4b56-877a-b1a272b176a0","ios":"levelo://app?vid=90072d59-5940-4b56-877a-b1a272b176a0"},"vehicle_type_id":"4","last_reported":1739444859,"current_range_meters":36800,"station_id":"ce4bgn12rcd13ifvqbt0","pricing_plan_id":"cebpf4jnsgd1na2vs0mg"},{"bike_id":"0720224f-bce1-4028-8166-c7cf581646dc","system_id":"levelo_inurba_marseille","lat":43.313649,"lon":5.384951,"is_reserved":false,"is_disabled":false,"rental_uris":{"android":"levelo://app?vid=0720224f-bce1-4028-8166-c7cf581646dc","ios":"levelo://app?vid=0720224f-bce1-4028-8166-c7cf581646dc"},"vehicle_type_id":"4","last_reported":1739444859,"current_range_meters":38000,"station_id":"ce4bgt92rcd13ifvqcf0","pricing_plan_id":"cebpf4jnsgd1na2vs0mg"},{"bike_id":"280a6051-95ab-4183-8c70-acd1a1df3fe5","system_id":"levelo_inurba_marseille","lat":43.24397,"lon":5.37042,"is_reserved":false,"is_disabled":false,"rental_uris":{"android":"levelo://app?vid=280a6051-95ab-4183-8c70-acd1a1df3fe5","ios":"levelo://app?vid=280a6051-95ab-4183-8c70-acd1a1df3fe5"},"vehicle_type_id":"4","last_reported":1739444859,"current_range_meters":36800,"station_id":"ce4bhhh2rcd13ifvqfk0","pricing_plan_id":"cebpf4jnsgd1na2vs0mg"},{"bike_id":"24d2a29b-fa24-4c85-a726-541b11d56bc0","system_id":"levelo_inurba_marseille","lat":43.3138,"lon":5.36669,"is_reserved":false,"is_disabled":false,"rental_uris":{"android":"levelo://app?vid=24d2a29b-fa24-4c85-a726-541b11d56bc0","ios":"levelo://app?vid=24d2a29b-fa24-4c85-a726-541b11d56bc0"},"vehicle_type_id":"4","last_reported":1739444859,"current_range_meters":38000,"station_id":"ce4bgr92rcd13ifvqc6g","pricing_plan_id":"cebpf4jnsgd1na2vs0mg"},{"bike_id":"c421a42d-2002-4311-8d59-3994041711c6","system_id":"levelo_inurba_marseille","lat":43.24064,"lon":5.37743,"is_reserved":false,"is_disabled":false,"rental_uris":{"android":"levelo://app?vid=c421a42d-2002-4311-8d59-3994041711c6","ios":"levelo://app?vid=c421a42d-2002-4311-8d59-3994041711c6"},"vehicle_type_id":"4","last_reported":1739444859,"current_range_meters":38800,"station_id":"ce4bhnp2rcd13ifvqgvg","pricing_plan_id":"cebpf4jnsgd1na2vs0mg"},{"bike_id":"5e894fa4-54dd-4ab5-9c5c-62b7caf87743","system_id":"levelo_inurba_marseille","lat":43.29869,"lon":5.39739,"is_reserved":false,"is_disabled":false,"rental_uris":{"android":"levelo://app?vid=5e894fa4-54dd-4ab5-9c5c-62b7caf87743","ios":"levelo://app?vid=5e894fa4-54dd-4ab5-9c5c-62b7caf87743"},"vehicle_type_id":"4","last_reported":1739444859,"current_range_meters":27600,"station_id":"ce4bh0h2rcd13ifvqd50","pricing_plan_id":"cebpf4jnsgd1na2vs0mg"},{"bike_id":"f0195f21-e6c5-42cd-95a8-243cbb17e446","system_id":"levelo_inurba_marseille","lat":43.33608,"lon":5.41024,"is_reserved":false,"is_disabled":false,"rental_uris":{"android":"levelo://app?vid=f0195f21-e6c5-42cd-95a8-243cbb17e446","ios":"levelo://app?vid=f0195f21-e6c5-42cd-95a8-243cbb17e446"},"vehicle_type_id":"4","last_reported":1739444859,"current_range_meters":39200,"station_id":"ce4bhqh2rcd13ifvqhmg","pricing_plan_id":"cebpf4jnsgd1na2vs0mg"},{"bike_id":"14b2070b-6ddc-42e3-b1e8-9c0cbc081f72","system_id":"levelo_inurba_marseille","lat":43.337291,"lon":5.391882,"is_reserved":false,"is_disabled":false,"rental_uris":{"android":"levelo://app?vid=14b2070b-6ddc-42e3-b1e8-9c0cbc081f72","ios":"levelo://app?vid=14b2070b-6ddc-42e3-b1e8-9c0cbc081f72"},"vehicle_type_id":"4","last_reported":1739444859,"current_range_meters":38800,"station_id":"ce4bhr92rcd13ifvqhsg","pricing_plan_id":"cebpf4jnsgd1na2vs0mg"},{"bike_id":"39caa847-b837-4440-a510-689edd01525f","system_id":"levelo_inurba_marseille","lat":43.23958,"lon":5.36618,"is_reserved":false,"is_disabled":false,"rental_uris":{"android":"levelo://app?vid=39caa847-b837-4440-a510-689edd01525f","ios":"levelo://app?vid=39caa847-b837-4440-a510-689edd01525f"},"vehicle_type_id":"4","last_reported":1739444859,"current_range_meters":25200,"station_id":"ce4bhi12rcd13ifvqfp0","pricing_plan_id":"cebpf4jnsgd1na2vs0mg"},{"bike_id":"90069231-8d02-46fd-ba3f-d8e7e83900ee","system_id":"levelo_inurba_marseille","lat":43.2884,"lon":5.43779,"is_reserved":false,"is_disabled":true,"rental_uris":{"android":"levelo://app?vid=90069231-8d02-46fd-ba3f-d8e7e83900ee","ios":"levelo://app?vid=90069231-8d02-46fd-ba3f-d8e7e83900ee"},"vehicle_type_id":"4","last_reported":1739444859,"current_range_meters":0,"station_id":"","pricing_plan_id":"cebpf4jnsgd1na2vs0mg"},{"bike_id":"d9eebae9-2f5a-4625-9943-9a56702e61a6","system_id":"levelo_inurba_marseille","lat":43.30467,"lon":5.37901,"is_reserved":false,"is_disabled":false,"rental_uris":{"android":"levelo://app?vid=d9eebae9-2f5a-4625-9943-9a56702e61a6","ios":"levelo://app?vid=d9eebae9-2f5a-4625-9943-9a56702e61a6"},"vehicle_type_id":"4","last_reported":1739444859,"current_range_meters":38800,"station_id":"ce4bgup2rcd13ifvqcn0","pricing_plan_id":"cebpf4jnsgd1na2vs0mg"},{"bike_id":"b2fbabc9-75fd-4b65-87a7-ca417d0b652a","system_id":"levelo_inurba_marseille","lat":43.2963,"lon":5.406,"is_reserved":false,"is_disabled":false,"rental_uris":{"android":"levelo://app?vid=b2fbabc9-75fd-4b65-87a7-ca417d0b652a","ios":"levelo://app?vid=b2fbabc9-75fd-4b65-87a7-ca417d0b652a"},"vehicle_type_id":"4","last_reported":1739444859,"current_range_meters":36800,"station_id":"ce4bh0h2rcd13ifvqd60","pricing_plan_id":"cebpf4jnsgd1na2vs0mg"},{"bike_id":"8cfbb272-9cc6-44e1-9f31-a3773c69a27c","system_id":"levelo_inurba_marseille","lat":43.29062,"lon":5.37164,"is_reserved":false,"is_disabled":false,"rental_uris":{"android":"levelo://app?vid=8cfbb272-9cc6-44e1-9f31-a3773c69a27c","ios":"levelo://app?vid=8cfbb272-9cc6-44e1-9f31-a3773c69a27c"},"vehicle_type_id":"4","last_reported":1739444859,"current_range_meters":12800,"station_id":"ce4bh5p2rcd13ifvqe4g","pricing_plan_id":"cebpf4jnsgd1na2vs0mg"},{"bike_id":"16bd5de3-5f64-415a-a506-b81ecdd5d1e8","system_id":"levelo_inurba_marseille","lat":43.31191,"lon":5.36921,"is_reserved":false,"is_disabled":false,"rental_uris":{"android":"levelo://app?vid=16bd5de3-5f64-415a-a506-b81ecdd5d1e8","ios":"levelo://app?vid=16bd5de3-5f64-415a-a506-b81ecdd5d1e8"},"vehicle_type_id":"4","last_reported":1739444859,"current_range_meters":33600,"station_id":"ce4bgl92rcd13ifvqbq0","pricing_plan_id":"cebpf4jnsgd1na2vs0mg"},{"bike_id":"123afe72-86eb-4cb2-981c-a710ec42fb20","system_id":"levelo_inurba_marseille","lat":43.30546,"lon":5.3654,"is_reserved":false,"is_disabled":false,"rental_uris":{"android":"levelo://app?vid=123afe72-86eb-4cb2-981c-a710ec42fb20","ios":"levelo://app?vid=123afe72-86eb-4cb2-981c-a710ec42fb20"},"vehicle_type_id":"4","last_reported":1739444859,"current_range_meters":24800,"station_id":"ce4bgs12rcd13ifvqcag","pricing_plan_id":"cebpf4jnsgd1na2vs0mg"},{"bike_id":"8b12f433-e5e0-4134-9603-2b7950d1a173","system_id":"levelo_inurba_marseille","lat":43.2844,"lon":5.39176,"is_reserved":false,"is_disabled":false,"rental_uris":{"android":"levelo://app?vid=8b12f433-e5e0-4134-9603-2b7950d1a173","ios":"levelo://app?vid=8b12f433-e5e0-4134-9603-2b7950d1a173"},"vehicle_type_id":"4","last_reported":1739444859,"current_range_meters":39200,"station_id":"ce4bhoh2rcd13ifvqh5g","pricing_plan_id":"cebpf4jnsgd1na2vs0mg"},{"bike_id":"acd088e7-dc82-4cb8-8e19-47754c61567c","system_id":"levelo_inurba_marseille","lat":43.31353,"lon":5.36699,"is_reserved":false,"is_disabled":false,"rental_uris":{"android":"levelo://app?vid=acd088e7-dc82-4cb8-8e19-47754c61567c","ios":"levelo://app?vid=acd088e7-dc82-4cb8-8e19-47754c61567c"},"vehicle_type_id":"4","last_reported":1739444859,"current_range_meters":30000,"station_id":"ce4bgr92rcd13ifvqc6g","pricing_plan_id":"cebpf4jnsgd1na2vs0mg"},{"bike_id":"93aeef7b-cb19-4854-b3d3-2e66b4435a2c","system_id":"levelo_inurba_marseille","lat":43.25728,"lon":5.41108,"is_reserved":false,"is_disabled":false,"rental_uris":{"android":"levelo://app?vid=93aeef7b-cb19-4854-b3d3-2e66b4435a2c","ios":"levelo://app?vid=93aeef7b-cb19-4854-b3d3-2e66b4435a2c"},"vehicle_type_id":"4","last_reported":1739444859,"current_range_meters":36800,"station_id":"ce4bhkp2rcd13ifvqgd0","pricing_plan_id":"cebpf4jnsgd1na2vs0mg"},{"bike_id":"304880fa-faca-4371-bf06-52f12d04636e","system_id":"levelo_inurba_marseille","lat":43.3149,"lon":5.373,"is_reserved":false,"is_disabled":false,"rental_uris":{"android":"levelo://app?vid=304880fa-faca-4371-bf06-52f12d04636e","ios":"levelo://app?vid=304880fa-faca-4371-bf06-52f12d04636e"},"vehicle_type_id":"4","last_reported":1739444859,"current_range_meters":38800,"station_id":"ce4bgt12rcd13ifvqcd0","pricing_plan_id":"cebpf4jnsgd1na2vs0mg"},{"bike_id":"12a72a5b-6a8e-4f16-bf69-fdfe87e75f67","system_id":"levelo_inurba_marseille","lat":43.30472,"lon":5.37904,"is_reserved":false,"is_disabled":false,"rental_uris":{"android":"levelo://app?vid=12a72a5b-6a8e-4f16-bf69-fdfe87e75f67","ios":"levelo://app?vid=12a72a5b-6a8e-4f16-bf69-fdfe87e75f67"},"vehicle_type_id":"4","last_reported":1739444859,"current_range_meters":38400,"station_id":"ce4bgup2rcd13ifvqcn0","pricing_plan_id":"cebpf4jnsgd1na2vs0mg"},{"bike_id":"cf5c922b-59a3-4fa2-863e-b1e48304b5b9","system_id":"levelo_inurba_marseille","lat":43.27683,"lon":5.38896,"is_reserved":false,"is_disabled":false,"rental_uris":{"android":"levelo://app?vid=cf5c922b-59a3-4fa2-863e-b1e48304b5b9","ios":"levelo://app?vid=cf5c922b-59a3-4fa2-863e-b1e48304b5b9"},"vehicle_type_id":"4","last_reported":1739444859,"current_range_meters":38800,"station_id":"ce4bhi12rcd13ifvqfo0","pricing_plan_id":"cebpf4jnsgd1na2vs0mg"},{"bike_id":"70617585-289d-477e-b3bd-01213e273ed0","system_id":"levelo_inurba_marseille","lat":43.24817,"lon":5.37452,"is_reserved":false,"is_disabled":false,"rental_uris":{"android":"levelo://app?vid=70617585-289d-477e-b3bd-01213e273ed0","ios":"levelo://app?vid=70617585-289d-477e-b3bd-01213e273ed0"},"vehicle_type_id":"4","last_reported":1739444859,"current_range_meters":36800,"station_id":"ce4bhgh2rcd13ifvqfb0","pricing_plan_id":"cebpf4jnsgd1na2vs0mg"},{"bike_id":"7b35ec91-75d0-476a-8303-ae83c6d3cb50","system_id":"levelo_inurba_marseille","lat":43.24808,"lon":5.37457,"is_reserved":false,"is_disabled":false,"rental_uris":{"android":"levelo://app?vid=7b35ec91-75d0-476a-8303-ae83c6d3cb50","ios":"levelo://app?vid=7b35ec91-75d0-476a-8303-ae83c6d3cb50"},"vehicle_type_id":"4","last_reported":1739444859,"current_range_meters":38800,"station_id":"ce4bhgh2rcd13ifvqfb0","pricing_plan_id":"cebpf4jnsgd1na2vs0mg"},{"bike_id":"8ef88fad-304a-4cbf-8a48-0c7bb01aeee8","system_id":"levelo_inurba_marseille","lat":43.29506,"lon":5.37524,"is_reserved":false,"is_disabled":false,"rental_uris":{"android":"levelo://app?vid=8ef88fad-304a-4cbf-8a48-0c7bb01aeee8","ios":"levelo://app?vid=8ef88fad-304a-4cbf-8a48-0c7bb01aeee8"},"vehicle_type_id":"4","last_reported":1739444859,"current_range_meters":38800,"station_id":"ce4bgkp2rcd13ifvqbmg","pricing_plan_id":"cebpf4jnsgd1na2vs0mg"},{"bike_id":"0bb74977-bdfe-4159-ba67-be7e22ae2761","system_id":"levelo_inurba_marseille","lat":43.29597,"lon":5.38121,"is_reserved":false,"is_disabled":false,"rental_uris":{"android":"levelo://app?vid=0bb74977-bdfe-4159-ba67-be7e22ae2761","ios":"levelo://app?vid=0bb74977-bdfe-4159-ba67-be7e22ae2761"},"vehicle_type_id":"4","last_reported":1739444859,"current_range_meters":36800,"station_id":"ce4bgl12rcd13ifvqbo0","pricing_plan_id":"cebpf4jnsgd1na2vs0mg"},{"bike_id":"8fa2c838-e786-432d-89c0-ea57bc9058f2","system_id":"levelo_inurba_marseille","lat":43.26219,"lon":5.37458,"is_reserved":false,"is_disabled":false,"rental_uris":{"android":"levelo://app?vid=8fa2c838-e786-432d-89c0-ea57bc9058f2","ios":"levelo://app?vid=8fa2c838-e786-432d-89c0-ea57bc9058f2"},"vehicle_type_id":"4","last_reported":1739444859,"current_range_meters":37600,"station_id":"ce4bhgp2rcd13ifvqfc0","pricing_plan_id":"cebpf4jnsgd1na2vs0mg"},{"bike_id":"c2250f20-2283-4e17-b7ce-382f2f740aa1","system_id":"levelo_inurba_marseille","lat":43.2481,"lon":5.3746,"is_reserved":false,"is_disabled":false,"rental_uris":{"android":"levelo://app?vid=c2250f20-2283-4e17-b7ce-382f2f740aa1","ios":"levelo://app?vid=c2250f20-2283-4e17-b7ce-382f2f740aa1"},"vehicle_type_id":"4","last_reported":1739444859,"current_range_meters":38800,"station_id":"ce4bhgh2rcd13ifvqfb0","pricing_plan_id":"cebpf4jnsgd1na2vs0mg"},{"bike_id":"77eab8f9-5ffe-4e41-843f-18a48a1ed061","system_id":"levelo_inurba_marseille","lat":43.29193,"lon":5.35799,"is_reserved":false,"is_disabled":false,"rental_uris":{"android":"levelo://app?vid=77eab8f9-5ffe-4e41-843f-18a48a1ed061","ios":"levelo://app?vid=77eab8f9-5ffe-4e41-843f-18a48a1ed061"},"vehicle_type_id":"4","last_reported":1739444859,"current_range_meters":38800,"station_id":"ce4bhb12rcd13ifvqel0","pricing_plan_id":"cebpf4jnsgd1na2vs0mg"},{"bike_id":"d53d688f-b5c6-4c38-83f3-f65e152d0cf8","system_id":"levelo_inurba_marseille","lat":43.28615,"lon":5.35103,"is_reserved":false,"is_disabled":false,"rental_uris":{"android":"levelo://app?vid=d53d688f-b5c6-4c38-83f3-f65e152d0cf8","ios":"levelo://app?vid=d53d688f-b5c6-4c38-83f3-f65e152d0cf8"},"vehicle_type_id":"4","last_reported":1739444859,"current_range_meters":26000,"station_id":"ce4bhch2rcd13ifvqeug","pricing_plan_id":"cebpf4jnsgd1na2vs0mg"},{"bike_id":"492e558b-0ce5-4984-b6b1-1d33f225a96b","system_id":"levelo_inurba_marseille","lat":43.24167,"lon":5.36407,"is_reserved":false,"is_disabled":false,"rental_uris":{"android":"levelo://app?vid=492e558b-0ce5-4984-b6b1-1d33f225a96b","ios":"levelo://app?vid=492e558b-0ce5-4984-b6b1-1d33f225a96b"},"vehicle_type_id":"4","last_reported":1739444859,"current_range_meters":8000,"station_id":"cpo36qri1sfpv3e86is0","pricing_plan_id":"cebpf4jnsgd1na2vs0mg"},{"bike_id":"60352018-711b-489c-a69c-d4f8f08b0a26","system_id":"levelo_inurba_marseille","lat":43.30147,"lon":5.3742,"is_reserved":false,"is_disabled":false,"rental_uris":{"android":"levelo://app?vid=60352018-711b-489c-a69c-d4f8f08b0a26","ios":"levelo://app?vid=60352018-711b-489c-a69c-d4f8f08b0a26"},"vehicle_type_id":"4","last_reported":1739444859,"current_range_meters":13600,"station_id":"ce4bgs92rcd13ifvqcc0","pricing_plan_id":"cebpf4jnsgd1na2vs0mg"},{"bike_id":"e0e1a432-4e1d-4a53-99e7-cf791a556ead","system_id":"levelo_inurba_marseille","lat":43.34142,"lon":5.40909,"is_reserved":false,"is_disabled":false,"rental_uris":{"android":"levelo://app?vid=e0e1a432-4e1d-4a53-99e7-cf791a556ead","ios":"levelo://app?vid=e0e1a432-4e1d-4a53-99e7-cf791a556ead"},"vehicle_type_id":"4","last_reported":1739444859,"current_range_meters":37600,"station_id":"ce4bhqh2rcd13ifvqhlg","pricing_plan_id":"cebpf4jnsgd1na2vs0mg"},{"bike_id":"8455191a-ef21-4fdf-87ff-7349e5e84aa7","system_id":"levelo_inurba_marseille","lat":43.33596,"lon":5.41022,"is_reserved":false,"is_disabled":false,"rental_uris":{"android":"levelo://app?vid=8455191a-ef21-4fdf-87ff-7349e5e84aa7","ios":"levelo://app?vid=8455191a-ef21-4fdf-87ff-7349e5e84aa7"},"vehicle_type_id":"4","last_reported":1739444859,"current_range_meters":38800,"station_id":"ce4bhqh2rcd13ifvqhmg","pricing_plan_id":"cebpf4jnsgd1na2vs0mg"},{"bike_id":"bcb118e3-504a-4d57-82aa-a2840fbf518c","system_id":"levelo_inurba_marseille","lat":43.30287,"lon":5.37703,"is_reserved":false,"is_disabled":false,"rental_uris":{"android":"levelo://app?vid=bcb118e3-504a-4d57-82aa-a2840fbf518c","ios":"levelo://app?vid=bcb118e3-504a-4d57-82aa-a2840fbf518c"},"vehicle_type_id":"4","last_reported":1739444859,"current_range_meters":38800,"station_id":"ce4bguh2rcd13ifvqcj0","pricing_plan_id":"cebpf4jnsgd1na2vs0mg"},{"bike_id":"58bfa717-13f2-43a0-a814-2d5eede0458b","system_id":"levelo_inurba_marseille","lat":43.33023,"lon":5.39039,"is_reserved":false,"is_disabled":false,"rental_uris":{"android":"levelo://app?vid=58bfa717-13f2-43a0-a814-2d5eede0458b","ios":"levelo://app?vid=58bfa717-13f2-43a0-a814-2d5eede0458b"},"vehicle_type_id":"4","last_reported":1739444859,"current_range_meters":24800,"station_id":"ce4bhr92rcd13ifvqhrg","pricing_plan_id":"cebpf4jnsgd1na2vs0mg"},{"bike_id":"9ca15d3b-ba9a-4073-8d6f-7a5850909f50","system_id":"levelo_inurba_marseille","lat":43.30283,"lon":5.37701,"is_reserved":false,"is_disabled":false,"rental_uris":{"android":"levelo://app?vid=9ca15d3b-ba9a-4073-8d6f-7a5850909f50","ios":"levelo://app?vid=9ca15d3b-ba9a-4073-8d6f-7a5850909f50"},"vehicle_type_id":"4","last_reported":1739444859,"current_range_meters":38800,"station_id":"ce4bguh2rcd13ifvqcj0","pricing_plan_id":"cebpf4jnsgd1na2vs0mg"},{"bike_id":"fa094bf9-1d6a-4ba6-aa88-1151a5efd2ad","system_id":"levelo_inurba_marseille","lat":43.3059,"lon":5.36666,"is_reserved":false,"is_disabled":false,"rental_uris":{"android":"levelo://app?vid=fa094bf9-1d6a-4ba6-aa88-1151a5efd2ad","ios":"levelo://app?vid=fa094bf9-1d6a-4ba6-aa88-1151a5efd2ad"},"vehicle_type_id":"4","last_reported":1739444859,"current_range_meters":38800,"station_id":"ce4bgrp2rcd13ifvqc9g","pricing_plan_id":"cebpf4jnsgd1na2vs0mg"},{"bike_id":"786687c7-e4ff-4ff9-8656-9627b4ede65e","system_id":"levelo_inurba_marseille","lat":43.26683,"lon":5.38272,"is_reserved":false,"is_disabled":true,"rental_uris":{"android":"levelo://app?vid=786687c7-e4ff-4ff9-8656-9627b4ede65e","ios":"levelo://app?vid=786687c7-e4ff-4ff9-8656-9627b4ede65e"},"vehicle_type_id":"4","last_reported":1739444859,"current_range_meters":39200,"station_id":"ce4bhg92rcd13ifvqf90","pricing_plan_id":"cebpf4jnsgd1na2vs0mg"},{"bike_id":"4e3cd665-2aba-4e5e-95d7-61fa93fa2204","system_id":"levelo_inurba_marseille","lat":43.30537,"lon":5.39147,"is_reserved":false,"is_disabled":true,"rental_uris":{"android":"levelo://app?vid=4e3cd665-2aba-4e5e-95d7-61fa93fa2204","ios":"levelo://app?vid=4e3cd665-2aba-4e5e-95d7-61fa93fa2204"},"vehicle_type_id":"4","last_reported":1739444859,"current_range_meters":800,"station_id":"","pricing_plan_id":"cebpf4jnsgd1na2vs0mg"},{"bike_id":"d3b08dc3-c275-4205-81ec-92c19cf71022","system_id":"levelo_inurba_marseille","lat":43.25011,"lon":5.38939,"is_reserved":false,"is_disabled":false,"rental_uris":{"android":"levelo://app?vid=d3b08dc3-c275-4205-81ec-92c19cf71022","ios":"levelo://app?vid=d3b08dc3-c275-4205-81ec-92c19cf71022"},"vehicle_type_id":"4","last_reported":1739444859,"current_range_meters":35600,"station_id":"ce4bhgp2rcd13ifvqfd0","pricing_plan_id":"cebpf4jnsgd1na2vs0mg"},{"bike_id":"26de5054-7c43-4c9f-977c-5313481d109f","system_id":"levelo_inurba_marseille","lat":43.24189,"lon":5.3973,"is_reserved":false,"is_disabled":false,"rental_uris":{"android":"levelo://app?vid=26de5054-7c43-4c9f-977c-5313481d109f","ios":"levelo://app?vid=26de5054-7c43-4c9f-977c-5313481d109f"},"vehicle_type_id":"4","last_reported":1739444859,"current_range_meters":38800,"station_id":"ce4bhn12rcd13ifvqgpg","pricing_plan_id":"cebpf4jnsgd1na2vs0mg"},{"bike_id":"db9667f4-6991-4a08-8532-cf6285800ccc","system_id":"levelo_inurba_marseille","lat":43.311791,"lon":5.387203,"is_reserved":false,"is_disabled":true,"rental_uris":{"android":"levelo://app?vid=db9667f4-6991-4a08-8532-cf6285800ccc","ios":"levelo://app?vid=db9667f4-6991-4a08-8532-cf6285800ccc"},"vehicle_type_id":"4","last_reported":1739444859,"current_range_meters":33600,"station_id":"ce4bgv12rcd13ifvqcp0","pricing_plan_id":"cebpf4jnsgd1na2vs0mg"},{"bike_id":"b1b93a49-25bc-4589-b584-866c5f20cedd","system_id":"levelo_inurba_marseille","lat":43.31636,"lon":5.37669,"is_reserved":false,"is_disabled":true,"rental_uris":{"android":"levelo://app?vid=b1b93a49-25bc-4589-b584-866c5f20cedd","ios":"levelo://app?vid=b1b93a49-25bc-4589-b584-866c5f20cedd"},"vehicle_type_id":"4","last_reported":1739444859,"current_range_meters":3600,"station_id":"","pricing_plan_id":"cebpf4jnsgd1na2vs0mg"},{"bike_id":"3f8e729c-5d71-4b37-9f07-53ce8522203c","system_id":"levelo_inurba_marseille","lat":43.27665,"lon":5.38916,"is_reserved":false,"is_disabled":false,"rental_uris":{"android":"levelo://app?vid=3f8e729c-5d71-4b37-9f07-53ce8522203c","ios":"levelo://app?vid=3f8e729c-5d71-4b37-9f07-53ce8522203c"},"vehicle_type_id":"4","last_reported":1739444859,"current_range_meters":32000,"station_id":"ce4bhi12rcd13ifvqfo0","pricing_plan_id":"cebpf4jnsgd1na2vs0mg"},{"bike_id":"ef27721d-5d3c-4894-9e25-49804bc6b9b2","system_id":"levelo_inurba_marseille","lat":43.2767,"lon":5.38911,"is_reserved":false,"is_disabled":false,"rental_uris":{"android":"levelo://app?vid=ef27721d-5d3c-4894-9e25-49804bc6b9b2","ios":"levelo://app?vid=ef27721d-5d3c-4894-9e25-49804bc6b9b2"},"vehicle_type_id":"4","last_reported":1739444859,"current_range_meters":36800,"station_id":"ce4bhi12rcd13ifvqfo0","pricing_plan_id":"cebpf4jnsgd1na2vs0mg"},{"bike_id":"55c46df7-9b28-4b6e-96b0-ae0b19b2bf2c","system_id":"levelo_inurba_marseille","lat":43.29297,"lon":5.37428,"is_reserved":false,"is_disabled":false,"rental_uris":{"android":"levelo://app?vid=55c46df7-9b28-4b6e-96b0-ae0b19b2bf2c","ios":"levelo://app?vid=55c46df7-9b28-4b6e-96b0-ae0b19b2bf2c"},"vehicle_type_id":"4","last_reported":1739444859,"current_range_meters":38800,"station_id":"ce4bgi12rcd13ifvqb70","pricing_plan_id":"cebpf4jnsgd1na2vs0mg"},{"bike_id":"5429a055-5c17-4863-ac08-ee7234bc7af8","system_id":"levelo_inurba_marseille","lat":43.32352,"lon":5.3674,"is_reserved":false,"is_disabled":false,"rental_uris":{"android":"levelo://app?vid=5429a055-5c17-4863-ac08-ee7234bc7af8","ios":"levelo://app?vid=5429a055-5c17-4863-ac08-ee7234bc7af8"},"vehicle_type_id":"4","last_reported":1739444859,"current_range_meters":7200,"station_id":"ce4bhsh2rcd13ifvqi2g","pricing_plan_id":"cebpf4jnsgd1na2vs0mg"},{"bike_id":"04d4b8ab-1d4d-44ab-9d49-e10f569c0553","system_id":"levelo_inurba_marseille","lat":43.2984,"lon":5.36274,"is_reserved":false,"is_disabled":false,"rental_uris":{"android":"levelo://app?vid=04d4b8ab-1d4d-44ab-9d49-e10f569c0553","ios":"levelo://app?vid=04d4b8ab-1d4d-44ab-9d49-e10f569c0553"},"vehicle_type_id":"4","last_reported":1739444859,"current_range_meters":27200,"station_id":"ce4bgpp2rcd13ifvqc3g","pricing_plan_id":"cebpf4jnsgd1na2vs0mg"},{"bike_id":"22c37607-dd1a-42c5-accc-778f2818bd29","system_id":"levelo_inurba_marseille","lat":43.31486,"lon":5.37297,"is_reserved":false,"is_disabled":false,"rental_uris":{"android":"levelo://app?vid=22c37607-dd1a-42c5-accc-778f2818bd29","ios":"levelo://app?vid=22c37607-dd1a-42c5-accc-778f2818bd29"},"vehicle_type_id":"4","last_reported":1739444859,"current_range_meters":10800,"station_id":"ce4bgt12rcd13ifvqcd0","pricing_plan_id":"cebpf4jnsgd1na2vs0mg"},{"bike_id":"891b5235-d570-4a76-86be-74a0648f4828","system_id":"levelo_inurba_marseille","lat":43.29865,"lon":5.36287,"is_reserved":false,"is_disabled":false,"rental_uris":{"android":"levelo://app?vid=891b5235-d570-4a76-86be-74a0648f4828","ios":"levelo://app?vid=891b5235-d570-4a76-86be-74a0648f4828"},"vehicle_type_id":"4","last_reported":1739444859,"current_range_meters":39200,"station_id":"ce4bgpp2rcd13ifvqc3g","pricing_plan_id":"cebpf4jnsgd1na2vs0mg"},{"bike_id":"139c3a9c-706e-4108-b5d1-54b2f0fce177","system_id":"levelo_inurba_marseille","lat":43.29869,"lon":5.39734,"is_reserved":false,"is_disabled":false,"rental_uris":{"android":"levelo://app?vid=139c3a9c-706e-4108-b5d1-54b2f0fce177","ios":"levelo://app?vid=139c3a9c-706e-4108-b5d1-54b2f0fce177"},"vehicle_type_id":"4","last_reported":1739444859,"current_range_meters":39200,"station_id":"ce4bh0h2rcd13ifvqd50","pricing_plan_id":"cebpf4jnsgd1na2vs0mg"},{"bike_id":"253ee63b-6523-46e5-9ab4-25312de28ab1","system_id":"levelo_inurba_marseille","lat":43.2886,"lon":5.39313,"is_reserved":false,"is_disabled":false,"rental_uris":{"android":"levelo://app?vid=253ee63b-6523-46e5-9ab4-25312de28ab1","ios":"levelo://app?vid=253ee63b-6523-46e5-9ab4-25312de28ab1"},"vehicle_type_id":"4","last_reported":1739444859,"current_range_meters":37600,"station_id":"ce4bh2p2rcd13ifvqdi0","pricing_plan_id":"cebpf4jnsgd1na2vs0mg"},{"bike_id":"b420decc-2a7c-4235-885a-b8b0dd6a0dff","system_id":"levelo_inurba_marseille","lat":43.30135,"lon":5.3742,"is_reserved":false,"is_disabled":false,"rental_uris":{"android":"levelo://app?vid=b420decc-2a7c-4235-885a-b8b0dd6a0dff","ios":"levelo://app?vid=b420decc-2a7c-4235-885a-b8b0dd6a0dff"},"vehicle_type_id":"4","last_reported":1739444859,"current_range_meters":10800,"station_id":"ce4bgs92rcd13ifvqcc0","pricing_plan_id":"cebpf4jnsgd1na2vs0mg"},{"bike_id":"979fe5d5-2849-4a27-9e62-197c0d81763f","system_id":"levelo_inurba_marseille","lat":43.33604,"lon":5.41036,"is_reserved":false,"is_disabled":false,"rental_uris":{"android":"levelo://app?vid=979fe5d5-2849-4a27-9e62-197c0d81763f","ios":"levelo://app?vid=979fe5d5-2849-4a27-9e62-197c0d81763f"},"vehicle_type_id":"4","last_reported":1739444859,"current_range_meters":22000,"station_id":"ce4bhqh2rcd13ifvqhmg","pricing_plan_id":"cebpf4jnsgd1na2vs0mg"},{"bike_id":"b600cf4d-3ddd-44a0-ba59-79695ee0d177","system_id":"levelo_inurba_marseille","lat":43.28691,"lon":5.38645,"is_reserved":false,"is_disabled":false,"rental_uris":{"android":"levelo://app?vid=b600cf4d-3ddd-44a0-ba59-79695ee0d177","ios":"levelo://app?vid=b600cf4d-3ddd-44a0-ba59-79695ee0d177"},"vehicle_type_id":"4","last_reported":1739444859,"current_range_meters":23200,"station_id":"ce4bh492rcd13ifvqdug","pricing_plan_id":"cebpf4jnsgd1na2vs0mg"},{"bike_id":"971f9951-cad8-4d64-aee1-30948583f711","system_id":"levelo_inurba_marseille","lat":43.32489,"lon":5.36563,"is_reserved":false,"is_disabled":false,"rental_uris":{"android":"levelo://app?vid=971f9951-cad8-4d64-aee1-30948583f711","ios":"levelo://app?vid=971f9951-cad8-4d64-aee1-30948583f711"},"vehicle_type_id":"4","last_reported":1739444859,"current_range_meters":39200,"station_id":"ce4bhs12rcd13ifvqhvg","pricing_plan_id":"cebpf4jnsgd1na2vs0mg"},{"bike_id":"6fb98146-dfb0-4776-8c85-356a107d39f5","system_id":"levelo_inurba_marseille","lat":43.30578,"lon":5.36534,"is_reserved":false,"is_disabled":false,"rental_uris":{"android":"levelo://app?vid=6fb98146-dfb0-4776-8c85-356a107d39f5","ios":"levelo://app?vid=6fb98146-dfb0-4776-8c85-356a107d39f5"},"vehicle_type_id":"4","last_reported":1739444859,"current_range_meters":35600,"station_id":"ce4bgs12rcd13ifvqcag","pricing_plan_id":"cebpf4jnsgd1na2vs0mg"},{"bike_id":"11358c94-7b45-4206-9a08-6ec6e50b2e98","system_id":"levelo_inurba_marseille","lat":43.32536,"lon":5.41458,"is_reserved":false,"is_disabled":false,"rental_uris":{"android":"levelo://app?vid=11358c94-7b45-4206-9a08-6ec6e50b2e98","ios":"levelo://app?vid=11358c94-7b45-4206-9a08-6ec6e50b2e98"},"vehicle_type_id":"4","last_reported":1739444859,"current_range_meters":33200,"station_id":"ce4bhq12rcd13ifvqhhg","pricing_plan_id":"cebpf4jnsgd1na2vs0mg"},{"bike_id":"5c94457f-71af-4ccb-a3ce-61647798f5e4","system_id":"levelo_inurba_marseille","lat":43.231591,"lon":5.437023,"is_reserved":false,"is_disabled":false,"rental_uris":{"android":"levelo://app?vid=5c94457f-71af-4ccb-a3ce-61647798f5e4","ios":"levelo://app?vid=5c94457f-71af-4ccb-a3ce-61647798f5e4"},"vehicle_type_id":"4","last_reported":1739444859,"current_range_meters":12800,"station_id":"ce4bhmp2rcd13ifvqgog","pricing_plan_id":"cebpf4jnsgd1na2vs0mg"},{"bike_id":"cc66c08c-53e3-4e18-99fa-2e861864b2c8","system_id":"levelo_inurba_marseille","lat":43.30306,"lon":5.36906,"is_reserved":false,"is_disabled":false,"rental_uris":{"android":"levelo://app?vid=cc66c08c-53e3-4e18-99fa-2e861864b2c8","ios":"levelo://app?vid=cc66c08c-53e3-4e18-99fa-2e861864b2c8"},"vehicle_type_id":"4","last_reported":1739444859,"current_range_meters":38800,"station_id":"ce4bgqh2rcd13ifvqc5g","pricing_plan_id":"cebpf4jnsgd1na2vs0mg"},{"bike_id":"3540c162-1deb-4f5d-9444-5297f8eb2d63","system_id":"levelo_inurba_marseille","lat":43.2744,"lon":5.39392,"is_reserved":false,"is_disabled":false,"rental_uris":{"android":"levelo://app?vid=3540c162-1deb-4f5d-9444-5297f8eb2d63","ios":"levelo://app?vid=3540c162-1deb-4f5d-9444-5297f8eb2d63"},"vehicle_type_id":"4","last_reported":1739444859,"current_range_meters":37600,"station_id":"ce4bhdp2rcd13ifvqf20","pricing_plan_id":"cebpf4jnsgd1na2vs0mg"},{"bike_id":"fd9df35d-e5c7-4c67-8043-08905a6faf49","system_id":"levelo_inurba_marseille","lat":43.29563,"lon":5.42277,"is_reserved":false,"is_disabled":false,"rental_uris":{"android":"levelo://app?vid=fd9df35d-e5c7-4c67-8043-08905a6faf49","ios":"levelo://app?vid=fd9df35d-e5c7-4c67-8043-08905a6faf49"},"vehicle_type_id":"4","last_reported":1739444859,"current_range_meters":25200,"station_id":"ce4bhph2rcd13ifvqhdg","pricing_plan_id":"cebpf4jnsgd1na2vs0mg"},{"bike_id":"d49089f9-c28d-4ebf-a5c3-f264defe202d","system_id":"levelo_inurba_marseille","lat":43.30951,"lon":5.3905,"is_reserved":false,"is_disabled":false,"rental_uris":{"android":"levelo://app?vid=d49089f9-c28d-4ebf-a5c3-f264defe202d","ios":"levelo://app?vid=d49089f9-c28d-4ebf-a5c3-f264defe202d"},"vehicle_type_id":"4","last_reported":1739444859,"current_range_meters":38800,"station_id":"ce4bgup2rcd13ifvqco0","pricing_plan_id":"cebpf4jnsgd1na2vs0mg"},{"bike_id":"eb74081f-8035-495f-a073-abb8444b5eb2","system_id":"levelo_inurba_marseille","lat":43.23961,"lon":5.3662,"is_reserved":false,"is_disabled":false,"rental_uris":{"android":"levelo://app?vid=eb74081f-8035-495f-a073-abb8444b5eb2","ios":"levelo://app?vid=eb74081f-8035-495f-a073-abb8444b5eb2"},"vehicle_type_id":"4","last_reported":1739444859,"current_range_meters":38800,"station_id":"ce4bhi12rcd13ifvqfp0","pricing_plan_id":"cebpf4jnsgd1na2vs0mg"},{"bike_id":"25ecbfd0-2b79-4dad-bc44-5205a3ab7bd9","system_id":"levelo_inurba_marseille","lat":43.30147,"lon":5.38081,"is_reserved":false,"is_disabled":false,"rental_uris":{"android":"levelo://app?vid=25ecbfd0-2b79-4dad-bc44-5205a3ab7bd9","ios":"levelo://app?vid=25ecbfd0-2b79-4dad-bc44-5205a3ab7bd9"},"vehicle_type_id":"4","last_reported":1739444859,"current_range_meters":34800,"station_id":"ce4bgjp2rcd13ifvqbh0","pricing_plan_id":"cebpf4jnsgd1na2vs0mg"},{"bike_id":"217f484e-23ab-4682-9c58-0a95706d3415","system_id":"levelo_inurba_marseille","lat":43.28671,"lon":5.38659,"is_reserved":false,"is_disabled":false,"rental_uris":{"android":"levelo://app?vid=217f484e-23ab-4682-9c58-0a95706d3415","ios":"levelo://app?vid=217f484e-23ab-4682-9c58-0a95706d3415"},"vehicle_type_id":"4","last_reported":1739444859,"current_range_meters":36800,"station_id":"ce4bh492rcd13ifvqdug","pricing_plan_id":"cebpf4jnsgd1na2vs0mg"},{"bike_id":"b7338215-affb-4429-9e49-74023cf6df10","system_id":"levelo_inurba_marseille","lat":43.28409,"lon":5.34991,"is_reserved":false,"is_disabled":false,"rental_uris":{"android":"levelo://app?vid=b7338215-affb-4429-9e49-74023cf6df10","ios":"levelo://app?vid=b7338215-affb-4429-9e49-74023cf6df10"},"vehicle_type_id":"4","last_reported":1739444859,"current_range_meters":37600,"station_id":"ce4bhbh2rcd13ifvqepg","pricing_plan_id":"cebpf4jnsgd1na2vs0mg"},{"bike_id":"8d2d4012-ff69-4800-927a-45caff6cd054","system_id":"levelo_inurba_marseille","lat":43.23143,"lon":5.43684,"is_reserved":false,"is_disabled":false,"rental_uris":{"android":"levelo://app?vid=8d2d4012-ff69-4800-927a-45caff6cd054","ios":"levelo://app?vid=8d2d4012-ff69-4800-927a-45caff6cd054"},"vehicle_type_id":"4","last_reported":1739444859,"current_range_meters":38800,"station_id":"ce4bhmp2rcd13ifvqgog","pricing_plan_id":"cebpf4jnsgd1na2vs0mg"},{"bike_id":"1ec14052-2d33-4aa1-9ab8-58cc71db74d1","system_id":"levelo_inurba_marseille","lat":43.24173,"lon":5.36398,"is_reserved":false,"is_disabled":false,"rental_uris":{"android":"levelo://app?vid=1ec14052-2d33-4aa1-9ab8-58cc71db74d1","ios":"levelo://app?vid=1ec14052-2d33-4aa1-9ab8-58cc71db74d1"},"vehicle_type_id":"4","last_reported":1739444859,"current_range_meters":6400,"station_id":"cpo36qri1sfpv3e86is0","pricing_plan_id":"cebpf4jnsgd1na2vs0mg"},{"bike_id":"6e58a69c-2a4e-4c49-840d-6e728a603acb","system_id":"levelo_inurba_marseille","lat":43.23076,"lon":5.35477,"is_reserved":false,"is_disabled":false,"rental_uris":{"android":"levelo://app?vid=6e58a69c-2a4e-4c49-840d-6e728a603acb","ios":"levelo://app?vid=6e58a69c-2a4e-4c49-840d-6e728a603acb"},"vehicle_type_id":"4","last_reported":1739444859,"current_range_meters":6400,"station_id":"cpo3342slgdg3j2ifvpg","pricing_plan_id":"cebpf4jnsgd1na2vs0mg"},{"bike_id":"add7e1b7-46d4-4b7f-bf50-34281873e788","system_id":"levelo_inurba_marseille","lat":43.3118,"lon":5.36901,"is_reserved":false,"is_disabled":false,"rental_uris":{"android":"levelo://app?vid=add7e1b7-46d4-4b7f-bf50-34281873e788","ios":"levelo://app?vid=add7e1b7-46d4-4b7f-bf50-34281873e788"},"vehicle_type_id":"4","last_reported":1739444859,"current_range_meters":28400,"station_id":"","pricing_plan_id":"cebpf4jnsgd1na2vs0mg"},{"bike_id":"ab99d0ad-28be-47e5-b8bd-3fed203a4e99","system_id":"levelo_inurba_marseille","lat":43.26072,"lon":5.394,"is_reserved":false,"is_disabled":false,"rental_uris":{"android":"levelo://app?vid=ab99d0ad-28be-47e5-b8bd-3fed203a4e99","ios":"levelo://app?vid=ab99d0ad-28be-47e5-b8bd-3fed203a4e99"},"vehicle_type_id":"4","last_reported":1739444859,"current_range_meters":39200,"station_id":"ce4bhh92rcd13ifvqfj0","pricing_plan_id":"cebpf4jnsgd1na2vs0mg"},{"bike_id":"d6612a72-8f5b-4ec0-a016-ca57b2c2bc65","system_id":"levelo_inurba_marseille","lat":43.30233,"lon":5.40065,"is_reserved":false,"is_disabled":false,"rental_uris":{"android":"levelo://app?vid=d6612a72-8f5b-4ec0-a016-ca57b2c2bc65","ios":"levelo://app?vid=d6612a72-8f5b-4ec0-a016-ca57b2c2bc65"},"vehicle_type_id":"4","last_reported":1739444859,"current_range_meters":28400,"station_id":"ce4bgvh2rcd13ifvqcs0","pricing_plan_id":"cebpf4jnsgd1na2vs0mg"},{"bike_id":"b4fb5ff3-17e5-4179-9eb0-0779b213b97d","system_id":"levelo_inurba_marseille","lat":43.24177,"lon":5.39733,"is_reserved":false,"is_disabled":true,"rental_uris":{"android":"levelo://app?vid=b4fb5ff3-17e5-4179-9eb0-0779b213b97d","ios":"levelo://app?vid=b4fb5ff3-17e5-4179-9eb0-0779b213b97d"},"vehicle_type_id":"4","last_reported":1739444859,"current_range_meters":9200,"station_id":"ce4bhn12rcd13ifvqgpg","pricing_plan_id":"cebpf4jnsgd1na2vs0mg"},{"bike_id":"17b8e592-efce-4113-ba0a-d316b99f2a2f","system_id":"levelo_inurba_marseille","lat":43.30126,"lon":5.39879,"is_reserved":false,"is_disabled":true,"rental_uris":{"android":"levelo://app?vid=17b8e592-efce-4113-ba0a-d316b99f2a2f","ios":"levelo://app?vid=17b8e592-efce-4113-ba0a-d316b99f2a2f"},"vehicle_type_id":"4","last_reported":1739444859,"current_range_meters":24000,"station_id":"ce4bh0h2rcd13ifvqd40","pricing_plan_id":"cebpf4jnsgd1na2vs0mg"},{"bike_id":"4450d397-c7c4-4c68-aed9-fa811598c082","system_id":"levelo_inurba_marseille","lat":43.32553,"lon":5.36503,"is_reserved":false,"is_disabled":false,"rental_uris":{"android":"levelo://app?vid=4450d397-c7c4-4c68-aed9-fa811598c082","ios":"levelo://app?vid=4450d397-c7c4-4c68-aed9-fa811598c082"},"vehicle_type_id":"4","last_reported":1739444859,"current_range_meters":37600,"station_id":"","pricing_plan_id":"cebpf4jnsgd1na2vs0mg"},{"bike_id":"1baab903-2026-4726-99eb-a9de546ae1ea","system_id":"levelo_inurba_marseille","lat":43.30529,"lon":5.36698,"is_reserved":false,"is_disabled":false,"rental_uris":{"android":"levelo://app?vid=1baab903-2026-4726-99eb-a9de546ae1ea","ios":"levelo://app?vid=1baab903-2026-4726-99eb-a9de546ae1ea"},"vehicle_type_id":"4","last_reported":1739444859,"current_range_meters":38800,"station_id":"ce4bgrp2rcd13ifvqc9g","pricing_plan_id":"cebpf4jnsgd1na2vs0mg"},{"bike_id":"51f8e25b-12a2-43cb-a28b-208a9534ffcb","system_id":"levelo_inurba_marseille","lat":43.30332,"lon":5.36895,"is_reserved":false,"is_disabled":false,"rental_uris":{"android":"levelo://app?vid=51f8e25b-12a2-43cb-a28b-208a9534ffcb","ios":"levelo://app?vid=51f8e25b-12a2-43cb-a28b-208a9534ffcb"},"vehicle_type_id":"4","last_reported":1739444859,"current_range_meters":38400,"station_id":"ce4bgqh2rcd13ifvqc5g","pricing_plan_id":"cebpf4jnsgd1na2vs0mg"},{"bike_id":"480c1aa3-d6e9-4183-8a95-67936310bf1a","system_id":"levelo_inurba_marseille","lat":43.29972,"lon":5.371843,"is_reserved":false,"is_disabled":false,"rental_uris":{"android":"levelo://app?vid=480c1aa3-d6e9-4183-8a95-67936310bf1a","ios":"levelo://app?vid=480c1aa3-d6e9-4183-8a95-67936310bf1a"},"vehicle_type_id":"4","last_reported":1739444859,"current_range_meters":39200,"station_id":"ce4bgr92rcd13ifvqc7g","pricing_plan_id":"cebpf4jnsgd1na2vs0mg"},{"bike_id":"04e79b02-26b7-408e-8d07-a04361b8a27a","system_id":"levelo_inurba_marseille","lat":43.23177,"lon":5.39987,"is_reserved":false,"is_disabled":false,"rental_uris":{"android":"levelo://app?vid=04e79b02-26b7-408e-8d07-a04361b8a27a","ios":"levelo://app?vid=04e79b02-26b7-408e-8d07-a04361b8a27a"},"vehicle_type_id":"4","last_reported":1739444859,"current_range_meters":38800,"station_id":"ce4bhn12rcd13ifvqgqg","pricing_plan_id":"cebpf4jnsgd1na2vs0mg"},{"bike_id":"f94cfe83-a1f2-42a5-853c-73e8eaf30aff","system_id":"levelo_inurba_marseille","lat":43.25004,"lon":5.38933,"is_reserved":false,"is_disabled":false,"rental_uris":{"android":"levelo://app?vid=f94cfe83-a1f2-42a5-853c-73e8eaf30aff","ios":"levelo://app?vid=f94cfe83-a1f2-42a5-853c-73e8eaf30aff"},"vehicle_type_id":"4","last_reported":1739444859,"current_range_meters":30000,"station_id":"ce4bhgp2rcd13ifvqfd0","pricing_plan_id":"cebpf4jnsgd1na2vs0mg"},{"bike_id":"bae7748d-3f21-4760-9d2a-336611a02cb7","system_id":"levelo_inurba_marseille","lat":43.30591,"lon":5.39361,"is_reserved":false,"is_disabled":false,"rental_uris":{"android":"levelo://app?vid=bae7748d-3f21-4760-9d2a-336611a02cb7","ios":"levelo://app?vid=bae7748d-3f21-4760-9d2a-336611a02cb7"},"vehicle_type_id":"4","last_reported":1739444859,"current_range_meters":38800,"station_id":"ce4bh0p2rcd13ifvqd80","pricing_plan_id":"cebpf4jnsgd1na2vs0mg"},{"bike_id":"f069e427-6164-49b3-a6ab-e71eaa4644e5","system_id":"levelo_inurba_marseille","lat":43.28608,"lon":5.35101,"is_reserved":false,"is_disabled":false,"rental_uris":{"android":"levelo://app?vid=f069e427-6164-49b3-a6ab-e71eaa4644e5","ios":"levelo://app?vid=f069e427-6164-49b3-a6ab-e71eaa4644e5"},"vehicle_type_id":"4","last_reported":1739444859,"current_range_meters":38800,"station_id":"ce4bhch2rcd13ifvqeug","pricing_plan_id":"cebpf4jnsgd1na2vs0mg"},{"bike_id":"b9b3b216-dd6e-4d86-8eed-69c6c73355ac","system_id":"levelo_inurba_marseille","lat":43.30549,"lon":5.36695,"is_reserved":false,"is_disabled":false,"rental_uris":{"android":"levelo://app?vid=b9b3b216-dd6e-4d86-8eed-69c6c73355ac","ios":"levelo://app?vid=b9b3b216-dd6e-4d86-8eed-69c6c73355ac"},"vehicle_type_id":"4","last_reported":1739444859,"current_range_meters":25200,"station_id":"ce4bgrp2rcd13ifvqc9g","pricing_plan_id":"cebpf4jnsgd1na2vs0mg"},{"bike_id":"7d4c2fd4-95c7-4bbd-b767-d47d40112c4f","system_id":"levelo_inurba_marseille","lat":43.27226,"lon":5.39193,"is_reserved":false,"is_disabled":false,"rental_uris":{"android":"levelo://app?vid=7d4c2fd4-95c7-4bbd-b767-d47d40112c4f","ios":"levelo://app?vid=7d4c2fd4-95c7-4bbd-b767-d47d40112c4f"},"vehicle_type_id":"4","last_reported":1739444859,"current_range_meters":38800,"station_id":"ce4bhhp2rcd13ifvqfm0","pricing_plan_id":"cebpf4jnsgd1na2vs0mg"},{"bike_id":"95238438-aee1-472d-8c03-6f5da0f062d1","system_id":"levelo_inurba_marseille","lat":43.31357,"lon":5.36706,"is_reserved":false,"is_disabled":false,"rental_uris":{"android":"levelo://app?vid=95238438-aee1-472d-8c03-6f5da0f062d1","ios":"levelo://app?vid=95238438-aee1-472d-8c03-6f5da0f062d1"},"vehicle_type_id":"4","last_reported":1739444859,"current_range_meters":34000,"station_id":"ce4bgr92rcd13ifvqc6g","pricing_plan_id":"cebpf4jnsgd1na2vs0mg"},{"bike_id":"939d1de8-80c0-4e05-921b-0578ee493aad","system_id":"levelo_inurba_marseille","lat":43.31209,"lon":5.36844,"is_reserved":false,"is_disabled":false,"rental_uris":{"android":"levelo://app?vid=939d1de8-80c0-4e05-921b-0578ee493aad","ios":"levelo://app?vid=939d1de8-80c0-4e05-921b-0578ee493aad"},"vehicle_type_id":"4","last_reported":1739444859,"current_range_meters":36400,"station_id":"ce4bgl92rcd13ifvqbq0","pricing_plan_id":"cebpf4jnsgd1na2vs0mg"},{"bike_id":"51c4e3a8-2172-4b7d-8e51-4493ba7214bb","system_id":"levelo_inurba_marseille","lat":43.30905,"lon":5.36867,"is_reserved":false,"is_disabled":false,"rental_uris":{"android":"levelo://app?vid=51c4e3a8-2172-4b7d-8e51-4493ba7214bb","ios":"levelo://app?vid=51c4e3a8-2172-4b7d-8e51-4493ba7214bb"},"vehicle_type_id":"4","last_reported":1739444859,"current_range_meters":39200,"station_id":"ce4bgn92rcd13ifvqbvg","pricing_plan_id":"cebpf4jnsgd1na2vs0mg"},{"bike_id":"7705324e-dd3d-4a92-a560-9ff863a19382","system_id":"levelo_inurba_marseille","lat":43.30141,"lon":5.37422,"is_reserved":false,"is_disabled":false,"rental_uris":{"android":"levelo://app?vid=7705324e-dd3d-4a92-a560-9ff863a19382","ios":"levelo://app?vid=7705324e-dd3d-4a92-a560-9ff863a19382"},"vehicle_type_id":"4","last_reported":1739444859,"current_range_meters":38800,"station_id":"ce4bgs92rcd13ifvqcc0","pricing_plan_id":"cebpf4jnsgd1na2vs0mg"},{"bike_id":"6fc6bab1-ed0c-4358-a955-90735144fc14","system_id":"levelo_inurba_marseille","lat":43.27318,"lon":5.39101,"is_reserved":false,"is_disabled":false,"rental_uris":{"android":"levelo://app?vid=6fc6bab1-ed0c-4358-a955-90735144fc14","ios":"levelo://app?vid=6fc6bab1-ed0c-4358-a955-90735144fc14"},"vehicle_type_id":"4","last_reported":1739444859,"current_range_meters":20400,"station_id":"ce4bhgp2rcd13ifvqfe0","pricing_plan_id":"cebpf4jnsgd1na2vs0mg"},{"bike_id":"52591901-7075-4154-8ec9-0dfca05a1446","system_id":"levelo_inurba_marseille","lat":43.32481,"lon":5.36569,"is_reserved":false,"is_disabled":false,"rental_uris":{"android":"levelo://app?vid=52591901-7075-4154-8ec9-0dfca05a1446","ios":"levelo://app?vid=52591901-7075-4154-8ec9-0dfca05a1446"},"vehicle_type_id":"4","last_reported":1739444859,"current_range_meters":39200,"station_id":"ce4bhs12rcd13ifvqhvg","pricing_plan_id":"cebpf4jnsgd1na2vs0mg"},{"bike_id":"e823fe48-f4a6-4633-ab11-5ed86deb2fc6","system_id":"levelo_inurba_marseille","lat":43.31225,"lon":5.3686,"is_reserved":false,"is_disabled":false,"rental_uris":{"android":"levelo://app?vid=e823fe48-f4a6-4633-ab11-5ed86deb2fc6","ios":"levelo://app?vid=e823fe48-f4a6-4633-ab11-5ed86deb2fc6"},"vehicle_type_id":"4","last_reported":1739444859,"current_range_meters":6400,"station_id":"ce4bgl92rcd13ifvqbq0","pricing_plan_id":"cebpf4jnsgd1na2vs0mg"},{"bike_id":"ffe72486-5c26-4671-a4b2-3589518be5f5","system_id":"levelo_inurba_marseille","lat":43.30127,"lon":5.37426,"is_reserved":false,"is_disabled":false,"rental_uris":{"android":"levelo://app?vid=ffe72486-5c26-4671-a4b2-3589518be5f5","ios":"levelo://app?vid=ffe72486-5c26-4671-a4b2-3589518be5f5"},"vehicle_type_id":"4","last_reported":1739444859,"current_range_meters":30400,"station_id":"ce4bgs92rcd13ifvqcc0","pricing_plan_id":"cebpf4jnsgd1na2vs0mg"},{"bike_id":"04461e4a-2e2c-4c6f-8804-b840de5f0959","system_id":"levelo_inurba_marseille","lat":43.23152,"lon":5.43721,"is_reserved":false,"is_disabled":false,"rental_uris":{"android":"levelo://app?vid=04461e4a-2e2c-4c6f-8804-b840de5f0959","ios":"levelo://app?vid=04461e4a-2e2c-4c6f-8804-b840de5f0959"},"vehicle_type_id":"4","last_reported":1739444859,"current_range_meters":38800,"station_id":"ce4bhmp2rcd13ifvqgog","pricing_plan_id":"cebpf4jnsgd1na2vs0mg"},{"bike_id":"72f360d9-d19c-4d29-920b-54b9c1bdf4a5","system_id":"levelo_inurba_marseille","lat":43.305315,"lon":5.367098,"is_reserved":false,"is_disabled":false,"rental_uris":{"android":"levelo://app?vid=72f360d9-d19c-4d29-920b-54b9c1bdf4a5","ios":"levelo://app?vid=72f360d9-d19c-4d29-920b-54b9c1bdf4a5"},"vehicle_type_id":"4","last_reported":1739444859,"current_range_meters":30400,"station_id":"ce4bgrp2rcd13ifvqc9g","pricing_plan_id":"cebpf4jnsgd1na2vs0mg"},{"bike_id":"68a10961-d3e2-468b-ba97-fb6fdb24a4de","system_id":"levelo_inurba_marseille","lat":43.31369,"lon":5.38496,"is_reserved":false,"is_disabled":false,"rental_uris":{"android":"levelo://app?vid=68a10961-d3e2-468b-ba97-fb6fdb24a4de","ios":"levelo://app?vid=68a10961-d3e2-468b-ba97-fb6fdb24a4de"},"vehicle_type_id":"4","last_reported":1739444859,"current_range_meters":38800,"station_id":"ce4bgt92rcd13ifvqcf0","pricing_plan_id":"cebpf4jnsgd1na2vs0mg"},{"bike_id":"ca60b2af-cce7-4290-adcc-eaec354c2c93","system_id":"levelo_inurba_marseille","lat":43.25004,"lon":5.38926,"is_reserved":false,"is_disabled":false,"rental_uris":{"android":"levelo://app?vid=ca60b2af-cce7-4290-adcc-eaec354c2c93","ios":"levelo://app?vid=ca60b2af-cce7-4290-adcc-eaec354c2c93"},"vehicle_type_id":"4","last_reported":1739444859,"current_range_meters":23200,"station_id":"ce4bhgp2rcd13ifvqfd0","pricing_plan_id":"cebpf4jnsgd1na2vs0mg"},{"bike_id":"98e54b54-5579-4b78-a98b-e4def0765729","system_id":"levelo_inurba_marseille","lat":43.3237,"lon":5.38881,"is_reserved":false,"is_disabled":false,"rental_uris":{"android":"levelo://app?vid=98e54b54-5579-4b78-a98b-e4def0765729","ios":"levelo://app?vid=98e54b54-5579-4b78-a98b-e4def0765729"},"vehicle_type_id":"4","last_reported":1739444859,"current_range_meters":32400,"station_id":"ce4bhqp2rcd13ifvqhog","pricing_plan_id":"cebpf4jnsgd1na2vs0mg"},{"bike_id":"d36d4e55-d043-4fee-8ea9-fb4140e1ba7e","system_id":"levelo_inurba_marseille","lat":43.32654,"lon":5.40991,"is_reserved":false,"is_disabled":false,"rental_uris":{"android":"levelo://app?vid=d36d4e55-d043-4fee-8ea9-fb4140e1ba7e","ios":"levelo://app?vid=d36d4e55-d043-4fee-8ea9-fb4140e1ba7e"},"vehicle_type_id":"4","last_reported":1739444859,"current_range_meters":28800,"station_id":"ce4bhpp2rcd13ifvqhgg","pricing_plan_id":"cebpf4jnsgd1na2vs0mg"},{"bike_id":"54ce597b-1ca1-4d62-923d-d4b29eec04b3","system_id":"levelo_inurba_marseille","lat":43.31131,"lon":5.38261,"is_reserved":false,"is_disabled":false,"rental_uris":{"android":"levelo://app?vid=54ce597b-1ca1-4d62-923d-d4b29eec04b3","ios":"levelo://app?vid=54ce597b-1ca1-4d62-923d-d4b29eec04b3"},"vehicle_type_id":"4","last_reported":1739444859,"current_range_meters":10800,"station_id":"","pricing_plan_id":"cebpf4jnsgd1na2vs0mg"},{"bike_id":"ce3fa350-a693-4b64-bf9f-5385693aa408","system_id":"levelo_inurba_marseille","lat":43.2793,"lon":5.41062,"is_reserved":false,"is_disabled":false,"rental_uris":{"android":"levelo://app?vid=ce3fa350-a693-4b64-bf9f-5385693aa408","ios":"levelo://app?vid=ce3fa350-a693-4b64-bf9f-5385693aa408"},"vehicle_type_id":"4","last_reported":1739444859,"current_range_meters":10800,"station_id":"ce4bhnp2rcd13ifvqh0g","pricing_plan_id":"cebpf4jnsgd1na2vs0mg"},{"bike_id":"69371cb2-ae5a-43c0-bc42-ccd3fa42e71e","system_id":"levelo_inurba_marseille","lat":43.28352,"lon":5.38117,"is_reserved":false,"is_disabled":false,"rental_uris":{"android":"levelo://app?vid=69371cb2-ae5a-43c0-bc42-ccd3fa42e71e","ios":"levelo://app?vid=69371cb2-ae5a-43c0-bc42-ccd3fa42e71e"},"vehicle_type_id":"4","last_reported":1739444859,"current_range_meters":38800,"station_id":"ce4bh412rcd13ifvqdr0","pricing_plan_id":"cebpf4jnsgd1na2vs0mg"},{"bike_id":"c4bd0b0b-3a68-4b37-a496-9b37827264a5","system_id":"levelo_inurba_marseille","lat":43.27207,"lon":5.39174,"is_reserved":false,"is_disabled":false,"rental_uris":{"android":"levelo://app?vid=c4bd0b0b-3a68-4b37-a496-9b37827264a5","ios":"levelo://app?vid=c4bd0b0b-3a68-4b37-a496-9b37827264a5"},"vehicle_type_id":"4","last_reported":1739444859,"current_range_meters":19600,"station_id":"ce4bhhp2rcd13ifvqfm0","pricing_plan_id":"cebpf4jnsgd1na2vs0mg"},{"bike_id":"9d6c6a2c-f4a8-4f2e-9a51-0f83be3f4454","system_id":"levelo_inurba_marseille","lat":43.25,"lon":5.38921,"is_reserved":false,"is_disabled":false,"rental_uris":{"android":"levelo://app?vid=9d6c6a2c-f4a8-4f2e-9a51-0f83be3f4454","ios":"levelo://app?vid=9d6c6a2c-f4a8-4f2e-9a51-0f83be3f4454"},"vehicle_type_id":"4","last_reported":1739444859,"current_range_meters":28000,"station_id":"ce4bhgp2rcd13ifvqfd0","pricing_plan_id":"cebpf4jnsgd1na2vs0mg"},{"bike_id":"d33cbe38-c98c-4564-a20d-cd3fadbb16de","system_id":"levelo_inurba_marseille","lat":43.27225,"lon":5.39159,"is_reserved":false,"is_disabled":false,"rental_uris":{"android":"levelo://app?vid=d33cbe38-c98c-4564-a20d-cd3fadbb16de","ios":"levelo://app?vid=d33cbe38-c98c-4564-a20d-cd3fadbb16de"},"vehicle_type_id":"4","last_reported":1739444859,"current_range_meters":38800,"station_id":"ce4bhhp2rcd13ifvqfm0","pricing_plan_id":"cebpf4jnsgd1na2vs0mg"},{"bike_id":"2e79e634-3467-41e1-bf8d-cd8cffbf109c","system_id":"levelo_inurba_marseille","lat":43.30923,"lon":5.36868,"is_reserved":false,"is_disabled":false,"rental_uris":{"android":"levelo://app?vid=2e79e634-3467-41e1-bf8d-cd8cffbf109c","ios":"levelo://app?vid=2e79e634-3467-41e1-bf8d-cd8cffbf109c"},"vehicle_type_id":"4","last_reported":1739444859,"current_range_meters":18000,"station_id":"ce4bgn92rcd13ifvqbvg","pricing_plan_id":"cebpf4jnsgd1na2vs0mg"},{"bike_id":"44bead9a-5613-4b2c-a4ff-97b864441034","system_id":"levelo_inurba_marseille","lat":43.30958,"lon":5.39046,"is_reserved":false,"is_disabled":false,"rental_uris":{"android":"levelo://app?vid=44bead9a-5613-4b2c-a4ff-97b864441034","ios":"levelo://app?vid=44bead9a-5613-4b2c-a4ff-97b864441034"},"vehicle_type_id":"4","last_reported":1739444859,"current_range_meters":31200,"station_id":"","pricing_plan_id":"cebpf4jnsgd1na2vs0mg"},{"bike_id":"58a923a1-50e5-4bcc-a5c7-59fd5ea18680","system_id":"levelo_inurba_marseille","lat":43.23138,"lon":5.43682,"is_reserved":false,"is_disabled":true,"rental_uris":{"android":"levelo://app?vid=58a923a1-50e5-4bcc-a5c7-59fd5ea18680","ios":"levelo://app?vid=58a923a1-50e5-4bcc-a5c7-59fd5ea18680"},"vehicle_type_id":"4","last_reported":1739444859,"current_range_meters":16000,"station_id":"ce4bhmp2rcd13ifvqgog","pricing_plan_id":"cebpf4jnsgd1na2vs0mg"},{"bike_id":"7077cffb-8fd7-4b48-a3bf-189bb0aa8eab","system_id":"levelo_inurba_marseille","lat":43.26692,"lon":5.38263,"is_reserved":false,"is_disabled":false,"rental_uris":{"android":"levelo://app?vid=7077cffb-8fd7-4b48-a3bf-189bb0aa8eab","ios":"levelo://app?vid=7077cffb-8fd7-4b48-a3bf-189bb0aa8eab"},"vehicle_type_id":"4","last_reported":1739444859,"current_range_meters":38000,"station_id":"ce4bhg92rcd13ifvqf90","pricing_plan_id":"cebpf4jnsgd1na2vs0mg"},{"bike_id":"ec445bc7-5c5b-4b89-81f4-647e821af69f","system_id":"levelo_inurba_marseille","lat":43.28939,"lon":5.36641,"is_reserved":false,"is_disabled":false,"rental_uris":{"android":"levelo://app?vid=ec445bc7-5c5b-4b89-81f4-647e821af69f","ios":"levelo://app?vid=ec445bc7-5c5b-4b89-81f4-647e821af69f"},"vehicle_type_id":"4","last_reported":1739444859,"current_range_meters":19200,"station_id":"ce4bhap2rcd13ifvqek0","pricing_plan_id":"cebpf4jnsgd1na2vs0mg"},{"bike_id":"b03ce567-0e0d-455e-8632-2fa2ac68deb4","system_id":"levelo_inurba_marseille","lat":43.28479,"lon":5.38422,"is_reserved":false,"is_disabled":false,"rental_uris":{"android":"levelo://app?vid=b03ce567-0e0d-455e-8632-2fa2ac68deb4","ios":"levelo://app?vid=b03ce567-0e0d-455e-8632-2fa2ac68deb4"},"vehicle_type_id":"4","last_reported":1739444859,"current_range_meters":37600,"station_id":"ce4bh512rcd13ifvqe3g","pricing_plan_id":"cebpf4jnsgd1na2vs0mg"},{"bike_id":"d594772c-f06c-42db-b4eb-8c17a4b3b2bd","system_id":"levelo_inurba_marseille","lat":43.31241,"lon":5.36873,"is_reserved":false,"is_disabled":false,"rental_uris":{"android":"levelo://app?vid=d594772c-f06c-42db-b4eb-8c17a4b3b2bd","ios":"levelo://app?vid=d594772c-f06c-42db-b4eb-8c17a4b3b2bd"},"vehicle_type_id":"4","last_reported":1739444859,"current_range_meters":32000,"station_id":"ce4bgl92rcd13ifvqbq0","pricing_plan_id":"cebpf4jnsgd1na2vs0mg"},{"bike_id":"5f48bdae-049e-4408-bc07-dbe4fc0e6823","system_id":"levelo_inurba_marseille","lat":43.31206,"lon":5.36903,"is_reserved":false,"is_disabled":false,"rental_uris":{"android":"levelo://app?vid=5f48bdae-049e-4408-bc07-dbe4fc0e6823","ios":"levelo://app?vid=5f48bdae-049e-4408-bc07-dbe4fc0e6823"},"vehicle_type_id":"4","last_reported":1739444859,"current_range_meters":26000,"station_id":"ce4bgl92rcd13ifvqbq0","pricing_plan_id":"cebpf4jnsgd1na2vs0mg"},{"bike_id":"3b21ca12-a001-4b85-82f0-2922b30f61e6","system_id":"levelo_inurba_marseille","lat":43.2621,"lon":5.37443,"is_reserved":false,"is_disabled":false,"rental_uris":{"android":"levelo://app?vid=3b21ca12-a001-4b85-82f0-2922b30f61e6","ios":"levelo://app?vid=3b21ca12-a001-4b85-82f0-2922b30f61e6"},"vehicle_type_id":"4","last_reported":1739444859,"current_range_meters":36400,"station_id":"ce4bhgp2rcd13ifvqfc0","pricing_plan_id":"cebpf4jnsgd1na2vs0mg"},{"bike_id":"75298b69-7dbd-443f-9c0e-e1a00d9c34b1","system_id":"levelo_inurba_marseille","lat":43.27072,"lon":5.42261,"is_reserved":false,"is_disabled":false,"rental_uris":{"android":"levelo://app?vid=75298b69-7dbd-443f-9c0e-e1a00d9c34b1","ios":"levelo://app?vid=75298b69-7dbd-443f-9c0e-e1a00d9c34b1"},"vehicle_type_id":"4","last_reported":1739444859,"current_range_meters":8400,"station_id":"ce4bhk92rcd13ifvqgb0","pricing_plan_id":"cebpf4jnsgd1na2vs0mg"},{"bike_id":"5a88579c-17b2-490d-84e1-90b48c9fd073","system_id":"levelo_inurba_marseille","lat":43.30523,"lon":5.36563,"is_reserved":false,"is_disabled":false,"rental_uris":{"android":"levelo://app?vid=5a88579c-17b2-490d-84e1-90b48c9fd073","ios":"levelo://app?vid=5a88579c-17b2-490d-84e1-90b48c9fd073"},"vehicle_type_id":"4","last_reported":1739444859,"current_range_meters":39200,"station_id":"ce4bgs12rcd13ifvqcag","pricing_plan_id":"cebpf4jnsgd1na2vs0mg"},{"bike_id":"ba41c089-3c4d-43d4-a16f-a7a9a29b9bdd","system_id":"levelo_inurba_marseille","lat":43.2396,"lon":5.36642,"is_reserved":false,"is_disabled":false,"rental_uris":{"android":"levelo://app?vid=ba41c089-3c4d-43d4-a16f-a7a9a29b9bdd","ios":"levelo://app?vid=ba41c089-3c4d-43d4-a16f-a7a9a29b9bdd"},"vehicle_type_id":"4","last_reported":1739444859,"current_range_meters":38800,"station_id":"ce4bhi12rcd13ifvqfp0","pricing_plan_id":"cebpf4jnsgd1na2vs0mg"},{"bike_id":"e1641770-5dbc-4fec-b3c2-48dccbee7a66","system_id":"levelo_inurba_marseille","lat":43.23953,"lon":5.36654,"is_reserved":false,"is_disabled":false,"rental_uris":{"android":"levelo://app?vid=e1641770-5dbc-4fec-b3c2-48dccbee7a66","ios":"levelo://app?vid=e1641770-5dbc-4fec-b3c2-48dccbee7a66"},"vehicle_type_id":"4","last_reported":1739444859,"current_range_meters":38800,"station_id":"ce4bhi12rcd13ifvqfp0","pricing_plan_id":"cebpf4jnsgd1na2vs0mg"},{"bike_id":"e6dbb10c-078e-4307-a0bf-fcabd68135d2","system_id":"levelo_inurba_marseille","lat":43.2488,"lon":5.40191,"is_reserved":false,"is_disabled":false,"rental_uris":{"android":"levelo://app?vid=e6dbb10c-078e-4307-a0bf-fcabd68135d2","ios":"levelo://app?vid=e6dbb10c-078e-4307-a0bf-fcabd68135d2"},"vehicle_type_id":"4","last_reported":1739444859,"current_range_meters":5600,"station_id":"","pricing_plan_id":"cebpf4jnsgd1na2vs0mg"},{"bike_id":"d157203c-3a5b-4bbc-9638-6eefce740d5e","system_id":"levelo_inurba_marseille","lat":43.231918,"lon":5.355628,"is_reserved":false,"is_disabled":false,"rental_uris":{"android":"levelo://app?vid=d157203c-3a5b-4bbc-9638-6eefce740d5e","ios":"levelo://app?vid=d157203c-3a5b-4bbc-9638-6eefce740d5e"},"vehicle_type_id":"4","last_reported":1739444859,"current_range_meters":31200,"station_id":"ce4bhu92rcd13ifvqi70","pricing_plan_id":"cebpf4jnsgd1na2vs0mg"},{"bike_id":"9acb5333-5cf1-494e-915f-5f562bae0853","system_id":"levelo_inurba_marseille","lat":43.33726,"lon":5.39186,"is_reserved":false,"is_disabled":false,"rental_uris":{"android":"levelo://app?vid=9acb5333-5cf1-494e-915f-5f562bae0853","ios":"levelo://app?vid=9acb5333-5cf1-494e-915f-5f562bae0853"},"vehicle_type_id":"4","last_reported":1739444859,"current_range_meters":24800,"station_id":"ce4bhr92rcd13ifvqhsg","pricing_plan_id":"cebpf4jnsgd1na2vs0mg"},{"bike_id":"39e43ffa-b4b5-4f08-a6fc-30f0aa3c8b5a","system_id":"levelo_inurba_marseille","lat":43.30157,"lon":5.3985,"is_reserved":false,"is_disabled":false,"rental_uris":{"android":"levelo://app?vid=39e43ffa-b4b5-4f08-a6fc-30f0aa3c8b5a","ios":"levelo://app?vid=39e43ffa-b4b5-4f08-a6fc-30f0aa3c8b5a"},"vehicle_type_id":"4","last_reported":1739444859,"current_range_meters":20000,"station_id":"ce4bh0h2rcd13ifvqd40","pricing_plan_id":"cebpf4jnsgd1na2vs0mg"},{"bike_id":"6d102e85-1a0b-4998-ae32-276baf8f8ba4","system_id":"levelo_inurba_marseille","lat":43.29,"lon":5.35606,"is_reserved":false,"is_disabled":false,"rental_uris":{"android":"levelo://app?vid=6d102e85-1a0b-4998-ae32-276baf8f8ba4","ios":"levelo://app?vid=6d102e85-1a0b-4998-ae32-276baf8f8ba4"},"vehicle_type_id":"4","last_reported":1739444859,"current_range_meters":28800,"station_id":"ce4bhb92rcd13ifvqen0","pricing_plan_id":"cebpf4jnsgd1na2vs0mg"},{"bike_id":"937d3cc1-6add-4982-aebd-f6966441a674","system_id":"levelo_inurba_marseille","lat":43.23191,"lon":5.35559,"is_reserved":false,"is_disabled":false,"rental_uris":{"android":"levelo://app?vid=937d3cc1-6add-4982-aebd-f6966441a674","ios":"levelo://app?vid=937d3cc1-6add-4982-aebd-f6966441a674"},"vehicle_type_id":"4","last_reported":1739444859,"current_range_meters":28400,"station_id":"ce4bhu92rcd13ifvqi70","pricing_plan_id":"cebpf4jnsgd1na2vs0mg"},