{"last_updated":1702548464,"ttl":30,"version":"2.2","data":{"bikes":[{"bike_id":"2723693b-cb06-4ecf-a1c2-912360eb8da6","system_id":"levelo_inurba_marseille","lat":43.31341,"lon":5.367098,"is_reserved":false,"is_disabled":false,"rental_uris":{"android":"levelo://app?vid=2723693b-cb06-4ecf-a1c2-912360eb8da6","ios":"levelo://app?vid=2723693b-cb06-4ecf-a1c2-912360eb8da6"},"vehicle_type_id":"4","last_reported":1702548464,"current_range_meters":17200,"station_id":"ce4bgr92rcd13ifvqc6g","pricing_plan_id":"free"},{"bike_id":"aba73269-eac1-4a01-9e09-70ddb68fbd12","system_id":"levelo_inurba_marseille","lat":43.31341,"lon":5.367098,"is_reserved":false,"is_disabled":false,"rental_uris":{"android":"levelo://app?vid=aba73269-eac1-4a01-9e09-70ddb68fbd12","ios":"levelo://app?vid=aba73269-eac1-4a01-9e09-70ddb68fbd12"},"vehicle_type_id":"4","last_reported":1702548464,"current_range_meters":31600,"station_id":"ce4bgr92rcd13ifvqc6g","pricing_plan_id":"free"},{"bike_id":"79b27502-46cd-423f-9fcb-ffae1d3f261a","system_id":"levelo_inurba_marseille","lat":43.313382,"lon":5.36717,"is_reserved":false,"is_disabled":false,"rental_uris":{"android":"levelo://app?vid=79b27502-46cd-423f-9fcb-ffae1d3f261a","ios":"levelo://app?vid=79b27502-46cd-423f-9fcb-ffae1d3f261a"},"vehicle_type_id":"4","last_reported":1702548464,"current_range_meters":26400,"station_id":"ce4bgr92rcd13ifvqc6g","pricing_plan_id":"free"},{"bike_id":"c1c32b59-86c7-419d-9316-35ad06227fd4","system_id":"levelo_inurba_marseille","lat":43.31341,"lon":5.367098,"is_reserved":false,"is_disabled":false,"rental_uris":{"android":"levelo://app?vid=c1c32b59-86c7-419d-9316-35ad06227fd4","ios":"levelo://app?vid=c1c32b59-86c7-419d-9316-35ad06227fd4"},"vehicle_type_id":"4","last_reported":1702548464,"current_range_meters":31600,"station_id":"ce4bgr92rcd13ifvqc6g","pricing_plan_id":"free"},{"bike_id":"63506cc9-8014-44db-b920-011f0d9737ca","system_id":"levelo_inurba_marseille","lat":43.313391,"lon":5.36706,"is_reserved":false,"is_disabled":false,"rental_uris":{"android":"levelo://app?vid=63506cc9-8014-44db-b920-011f0d9737ca","ios":"levelo://app?vid=63506cc9-8014-44db-b920-011f0d9737ca"},"vehicle_type_id":"4","last_reported":1702548464,"current_range_meters":16800,"station_id":"ce4bgr92rcd13ifvqc6g","pricing_plan_id":"free"},{"bike_id":"d32f0b04-c404-4f1c-a5ba-9bd39e5c89ef","system_id":"levelo_inurba_marseille","lat":43.313391,"lon":5.36706,"is_reserved":false,"is_disabled":false,"rental_uris":{"android":"levelo://app?vid=d32f0b04-c404-4f1c-a5ba-9bd39e5c89ef","ios":"levelo://app?vid=d32f0b04-c404-4f1c-a5ba-9bd39e5c89ef"},"vehicle_type_id":"4","last_reported":1702548464,"current_range_meters":0,"station_id":"ce4bgr92rcd13ifvqc6g","pricing_plan_id":"free"},{"bike_id":"a723faf6-6dfb-426d-a6cf-68dca6c2720e","system_id":"levelo_inurba_marseille","lat":43.313391,"lon":5.36706,"is_reserved":false,"is_disabled":false,"rental_uris":{"android":"levelo://app?vid=a723faf6-6dfb-426d-a6cf-68dca6c2720e","ios":"levelo://app?vid=a723faf6-6dfb-426d-a6cf-68dca6c2720e"},"vehicle_type_id":"4","last_reported":1702548464,"current_range_meters":18000,"station_id":"ce4bgr92rcd13ifvqc6g","pricing_plan_id":"free"},{"bike_id":"fd0d3195-a222-4a69-a6a8-0786757b5026","system_id":"levelo_inurba_marseille","lat":43.313391,"lon":5.36706,"is_reserved":false,"is_disabled":false,"rental_uris":{"android":"levelo://app?vid=fd0d3195-a222-4a69-a6a8-0786757b5026","ios":"levelo://app?vid=fd0d3195-a222-4a69-a6a8-0786757b5026"},"vehicle_type_id":"4","last_reported":1702548464,"current_range_meters":21200,"station_id":"ce4bgr92rcd13ifvqc6g","pricing_plan_id":"free"},{"bike_id":"132756b2-21b0-4b37-a3ac-98574bf56a76","system_id":"levelo_inurba_marseille","lat":43.313391,"lon":5.36706,"is_reserved":false,"is_disabled":false,"rental_uris":{"android":"levelo://app?vid=132756b2-21b0-4b37-a3ac-98574bf56a76","ios":"levelo://app?vid=132756b2-21b0-4b37-a3ac-98574bf56a76"},"vehicle_type_id":"4","last_reported":1702548464,"current_range_meters":16000,"station_id":"ce4bgr92rcd13ifvqc6g","pricing_plan_id":"free"},{"bike_id":"0349cfe3-d4fc-4c2f-a928-645bcf88f8c7","system_id":"levelo_inurba_marseille","lat":43.313391,"lon":5.36706,"is_reserved":false,"is_disabled":false,"rental_uris":{"android":"levelo://app?vid=0349cfe3-d4fc-4c2f-a928-645bcf88f8c7","ios":"levelo://app?vid=0349cfe3-d4fc-4c2f-a928-645bcf88f8c7"},"vehicle_type_id":"4","last_reported":1702548464,"current_range_meters":31600,"station_id":"ce4bgr92rcd13ifvqc6g","pricing_plan_id":"free"},{"bike_id":"5e870a68-e5e1-4f23-9b79-346d0b2e9ca3","system_id":"levelo_inurba_marseille","lat":43.313391,"lon":5.36706,"is_reserved":false,"is_disabled":false,"rental_uris":{"android":"levelo://app?vid=5e870a68-e5e1-4f23-9b79-346d0b2e9ca3","ios":"levelo://app?vid=5e870a68-e5e1-4f23-9b79-346d0b2e9ca3"},"vehicle_type_id":"4","last_reported":1702548464,"current_range_meters":24400,"station_id":"ce4bgr92rcd13ifvqc6g","pricing_plan_id":"free"},{"bike_id":"49e5abb6-f09f-4b7e-bdeb-52461f3f6eb2","system_id":"levelo_inurba_marseille","lat":43.313391,"lon":5.36706,"is_reserved":false,"is_disabled":false,"rental_uris":{"android":"levelo://app?vid=49e5abb6-f09f-4b7e-bdeb-52461f3f6eb2","ios":"levelo://app?vid=49e5abb6-f09f-4b7e-bdeb-52461f3f6eb2"},"vehicle_type_id":"4","last_reported":1702548464,"current_range_meters":18400,"station_id":"ce4bgr92rcd13ifvqc6g","pricing_plan_id":"free"},{"bike_id":"a48d9ac0-3c23-4594-aef1-26f94e1c11e1","system_id":"levelo_inurba_marseille","lat":43.31341,"lon":5.367098,"is_reserved":false,"is_disabled":false,"rental_uris":{"android":"levelo://app?vid=a48d9ac0-3c23-4594-aef1-26f94e1c11e1","ios":"levelo://app?vid=a48d9ac0-3c23-4594-aef1-26f94e1c11e1"},"vehicle_type_id":"4","last_reported":1702548464,"current_range_meters":23200,"station_id":"ce4bgr92rcd13ifvqc6g","pricing_plan_id":"free"},{"bike_id":"4e8da820-d94c-4282-a15b-0d99d45343d6","system_id":"levelo_inurba_marseille","lat":43.312239,"lon":5.368562,"is_reserved":false,"is_disabled":false,"rental_uris":{"android":"levelo://app?vid=4e8da820-d94c-4282-a15b-0d99d45343d6","ios":"levelo://app?vid=4e8da820-d94c-4282-a15b-0d99d45343d6"},"vehicle_type_id":"4","last_reported":1702548464,"current_range_meters":31600,"station_id":"ce4bgl92rcd13ifvqbq0","pricing_plan_id":"free"},{"bike_id":"59074f10-9bc7-4ffd-8bc8-559090846504","system_id":"levelo_inurba_marseille","lat":43.312239,"lon":5.368562,"is_reserved":false,"is_disabled":false,"rental_uris":{"android":"levelo://app?vid=59074f10-9bc7-4ffd-8bc8-559090846504","ios":"levelo://app?vid=59074f10-9bc7-4ffd-8bc8-559090846504"},"vehicle_type_id":"4","last_reported":1702548464,"current_range_meters":22400,"station_id":"ce4bgl92rcd13ifvqbq0","pricing_plan_id":"free"},{"bike_id":"e1ae7124-1e20-4fff-ad1e-0516cca62f81","system_id":"levelo_inurba_marseille","lat":43.312239,"lon":5.368562,"is_reserved":false,"is_disabled":false,"rental_uris":{"android":"levelo://app?vid=e1ae7124-1e20-4fff-ad1e-0516cca62f81","ios":"levelo://app?vid=e1ae7124-1e20-4fff-ad1e-0516cca62f81"},"vehicle_type_id":"4","last_reported":1702548464,"current_range_meters":30800,"station_id":"ce4bgl92rcd13ifvqbq0","pricing_plan_id":"free"},{"bike_id":"b78c9a51-0e04-4998-b6ca-7a16de769080","system_id":"levelo_inurba_marseille","lat":43.312239,"lon":5.368562,"is_reserved":false,"is_disabled":false,"rental_uris":{"android":"levelo://app?vid=b78c9a51-0e04-4998-b6ca-7a16de769080","ios":"levelo://app?vid=b78c9a51-0e04-4998-b6ca-7a16de769080"},"vehicle_type_id":"4","last_reported":1702548464,"current_range_meters":31200,"station_id":"ce4bgl92rcd13ifvqbq0","pricing_plan_id":"free"},{"bike_id":"5a037603-ad63-44df-b177-426009f2951c","system_id":"levelo_inurba_marseille","lat":43.312239,"lon":5.368562,"is_reserved":false,"is_disabled":false,"rental_uris":{"android":"levelo://app?vid=5a037603-ad63-44df-b177-426009f2951c","ios":"levelo://app?vid=5a037603-ad63-44df-b177-426009f2951c"},"vehicle_type_id":"4","last_reported":1702548464,"current_range_meters":30400,"station_id":"ce4bgl92rcd13ifvqbq0","pricing_plan_id":"free"},{"bike_id":"299660e9-d616-4cc9-b346-6a8278be8d78","system_id":"levelo_inurba_marseille","lat":43.312239,"lon":5.368562,"is_reserved":false,"is_disabled":false,"rental_uris":{"android":"levelo://app?vid=299660e9-d616-4cc9-b346-6a8278be8d78","ios":"levelo://app?vid=299660e9-d616-4cc9-b346-6a8278be8d78"},"vehicle_type_id":"4","last_reported":1702548464,"current_range_meters":31200,"station_id":"ce4bgl92rcd13ifvqbq0","pricing_plan_id":"free"},{"bike_id":"dca2b111-d324-4194-89c5-abf8ada894d9","system_id":"levelo_inurba_marseille","lat":43.312239,"lon":5.368562,"is_reserved":false,"is_disabled":false,"rental_uris":{"android":"levelo://app?vid=dca2b111-d324-4194-89c5-abf8ada894d9","ios":"levelo://app?vid=dca2b111-d324-4194-89c5-abf8ada894d9"},"vehicle_type_id":"4","last_reported":1702548464,"current_range_meters":7200,"station_id":"ce4bgl92rcd13ifvqbq0","pricing_plan_id":"free"},{"bike_id":"782ba954-8744-44a8-ac2c-1af11b08b18d","system_id":"levelo_inurba_marseille","lat":43.312239,"lon":5.368562,"is_reserved":false,"is_disabled":false,"rental_uris":{"android":"levelo://app?vid=782ba954-8744-44a8-ac2c-1af11b08b18d","ios":"levelo://app?vid=782ba954-8744-44a8-ac2c-1af11b08b18d"},"vehicle_type_id":"4","last_reported":1702548464,"current_range_meters":5200,"station_id":"ce4bgl92rcd13ifvqbq0","pricing_plan_id":"free"},{"bike_id":"4582da45-96bf-4ebe-9e31-ad0e506cdf31","system_id":"levelo_inurba_marseille","lat":43.309076,"lon":5.368465,"is_reserved":false,"is_disabled":false,"rental_uris":{"android":"levelo://app?vid=4582da45-96bf-4ebe-9e31-ad0e506cdf31","ios":"levelo://app?vid=4582da45-96bf-4ebe-9e31-ad0e506cdf31"},"vehicle_type_id":"4","last_reported":1702548464,"current_range_meters":29200,"station_id":"ce4bgn92rcd13ifvqbvg","pricing_plan_id":"free"},{"bike_id":"e6534fab-2876-43a3-8c8d-0b18f049716d","system_id":"levelo_inurba_marseille","lat":43.309076,"lon":5.368465,"is_reserved":false,"is_disabled":false,"rental_uris":{"android":"levelo://app?vid=e6534fab-2876-43a3-8c8d-0b18f049716d","ios":"levelo://app?vid=e6534fab-2876-43a3-8c8d-0b18f049716d"},"vehicle_type_id":"4","last_reported":1702548464,"current_range_meters":28000,"station_id":"ce4bgn92rcd13ifvqbvg","pricing_plan_id":"free"},{"bike_id":"57397a5e-3391-48b8-9f24-c20384894e42","system_id":"levelo_inurba_marseille","lat":43.309076,"lon":5.368465,"is_reserved":false,"is_disabled":false,"rental_uris":{"android":"levelo://app?vid=57397a5e-3391-48b8-9f24-c20384894e42","ios":"levelo://app?vid=57397a5e-3391-48b8-9f24-c20384894e42"},"vehicle_type_id":"4","last_reported":1702548464,"current_range_meters":5200,"station_id":"ce4bgn92rcd13ifvqbvg","pricing_plan_id":"free"},{"bike_id":"aad410c1-6af6-46dc-9f08-006f2a8be6d4","system_id":"levelo_inurba_marseille","lat":43.309076,"lon":5.368465,"is_reserved":false,"is_disabled":false,"rental_uris":{"android":"levelo://app?vid=aad410c1-6af6-46dc-9f08-006f2a8be6d4","ios":"levelo://app?vid=aad410c1-6af6-46dc-9f08-006f2a8be6d4"},"vehicle_type_id":"4","last_reported":1702548464,"current_range_meters":24800,"station_id":"ce4bgn92rcd13ifvqbvg","pricing_plan_id":"free"},{"bike_id":"84680145-9505-407c-8367-eb2bc9aa2711","system_id":"levelo_inurba_marseille","lat":43.309076,"lon":5.368465,"is_reserved":false,"is_disabled":false,"rental_uris":{"android":"levelo://app?vid=84680145-9505-407c-8367-eb2bc9aa2711","ios":"levelo://app?vid=84680145-9505-407c-8367-eb2bc9aa2711"},"vehicle_type_id":"4","last_reported":1702548464,"current_range_meters":20000,"station_id":"ce4bgn92rcd13ifvqbvg","pricing_plan_id":"free"},{"bike_id":"556d34cd-1b95-4563-8298-2b71ac4f9ccb","system_id":"levelo_inurba_marseille","lat":43.309076,"lon":5.368465,"is_reserved":false,"is_disabled":false,"rental_uris":{"android":"levelo://app?vid=556d34cd-1b95-4563-8298-2b71ac4f9ccb","ios":"levelo://app?vid=556d34cd-1b95-4563-8298-2b71ac4f9ccb"},"vehicle_type_id":"4","last_reported":1702548464,"current_range_meters":31200,"station_id":"ce4bgn92rcd13ifvqbvg","pricing_plan_id":"free"},{"bike_id":"16c714f4-9887-4908-8ee5-efa24a60657f","system_id":"levelo_inurba_marseille","lat":43.309076,"lon":5.368465,"is_reserved":false,"is_disabled":false,"rental_uris":{"android":"levelo://app?vid=16c714f4-9887-4908-8ee5-efa24a60657f","ios":"levelo://app?vid=16c714f4-9887-4908-8ee5-efa24a60657f"},"vehicle_type_id":"4","last_reported":1702548464,"current_range_meters":21200,"station_id":"ce4bgn92rcd13ifvqbvg","pricing_plan_id":"free"},{"bike_id":"9aa19ce7-0b5d-40fd-9872-bc22122d3771","system_id":"levelo_inurba_marseille","lat":43.309076,"lon":5.368465,"is_reserved":false,"is_disabled":false,"rental_uris":{"android":"levelo://app?vid=9aa19ce7-0b5d-40fd-9872-bc22122d3771","ios":"levelo://app?vid=9aa19ce7-0b5d-40fd-9872-bc22122d3771"},"vehicle_type_id":"4","last_reported":1702548464,"current_range_meters":18000,"station_id":"ce4bgn92rcd13ifvqbvg","pricing_plan_id":"free"},{"bike_id":"e3b57e1a-f211-4fd7-ab68-81366d7e21ba","system_id":"levelo_inurba_marseille","lat":43.314811,"lon":5.373103,"is_reserved":false,"is_disabled":false,"rental_uris":{"android":"levelo://app?vid=e3b57e1a-f211-4fd7-ab68-81366d7e21ba","ios":"levelo://app?vid=e3b57e1a-f211-4fd7-ab68-81366d7e21ba"},"vehicle_type_id":"4","last_reported":1702548464,"current_range_meters":30000,"station_id":"ce4bgt12rcd13ifvqcd0","pricing_plan_id":"free"},{"bike_id":"3f8b821f-e430-4a35-bf14-f8b6e777ea11","system_id":"levelo_inurba_marseille","lat":43.313939,"lon":5.375306,"is_reserved":false,"is_disabled":false,"rental_uris":{"android":"levelo://app?vid=3f8b821f-e430-4a35-bf14-f8b6e777ea11","ios":"levelo://app?vid=3f8b821f-e430-4a35-bf14-f8b6e777ea11"},"vehicle_type_id":"4","last_reported":1702548464,"current_range_meters":4400,"station_id":"","pricing_plan_id":"free"},{"bike_id":"7db037b4-b3cb-4aad-b97d-f692271079b5","system_id":"levelo_inurba_marseille","lat":43.305712,"lon":5.365641,"is_reserved":false,"is_disabled":false,"rental_uris":{"android":"levelo://app?vid=7db037b4-b3cb-4aad-b97d-f692271079b5","ios":"levelo://app?vid=7db037b4-b3cb-4aad-b97d-f692271079b5"},"vehicle_type_id":"4","last_reported":1702548464,"current_range_meters":15200,"station_id":"ce4bgs12rcd13ifvqcag","pricing_plan_id":"free"},{"bike_id":"955e4ab2-16e5-44e8-a986-a2f50ff96c06","system_id":"levelo_inurba_marseille","lat":43.305382,"lon":5.365389,"is_reserved":false,"is_disabled":false,"rental_uris":{"android":"levelo://app?vid=955e4ab2-16e5-44e8-a986-a2f50ff96c06","ios":"levelo://app?vid=955e4ab2-16e5-44e8-a986-a2f50ff96c06"},"vehicle_type_id":"4","last_reported":1702548464,"current_range_meters":23600,"station_id":"","pricing_plan_id":"free"},{"bike_id":"7600321c-fa70-4baf-b936-c39e40652602","system_id":"levelo_inurba_marseille","lat":43.305714,"lon":5.365633,"is_reserved":false,"is_disabled":false,"rental_uris":{"android":"levelo://app?vid=7600321c-fa70-4baf-b936-c39e40652602","ios":"levelo://app?vid=7600321c-fa70-4baf-b936-c39e40652602"},"vehicle_type_id":"4","last_reported":1702548464,"current_range_meters":31200,"station_id":"ce4bgs12rcd13ifvqcag","pricing_plan_id":"free"},{"bike_id":"557004f7-53b0-4c1c-9a5b-a8066f7638e5","system_id":"levelo_inurba_marseille","lat":43.305714,"lon":5.365633,"is_reserved":false,"is_disabled":false,"rental_uris":{"android":"levelo://app?vid=557004f7-53b0-4c1c-9a5b-a8066f7638e5","ios":"levelo://app?vid=557004f7-53b0-4c1c-9a5b-a8066f7638e5"},"vehicle_type_id":"4","last_reported":1702548464,"current_range_meters":4400,"station_id":"ce4bgs12rcd13ifvqcag","pricing_plan_id":"free"},{"bike_id":"6f7a5797-45cc-42e5-b267-d28a5c797124","system_id":"levelo_inurba_marseille","lat":43.305706,"lon":5.365654,"is_reserved":false,"is_disabled":false,"rental_uris":{"android":"levelo://app?vid=6f7a5797-45cc-42e5-b267-d28a5c797124","ios":"levelo://app?vid=6f7a5797-45cc-42e5-b267-d28a5c797124"},"vehicle_type_id":"4","last_reported":1702548464,"current_range_meters":29600,"station_id":"ce4bgs12rcd13ifvqcag","pricing_plan_id":"free"},{"bike_id":"266f3ab3-b010-49a4-b911-feb6da19e94c","system_id":"levelo_inurba_marseille","lat":43.305706,"lon":5.365654,"is_reserved":false,"is_disabled":false,"rental_uris":{"android":"levelo://app?vid=266f3ab3-b010-49a4-b911-feb6da19e94c","ios":"levelo://app?vid=266f3ab3-b010-49a4-b911-feb6da19e94c"},"vehicle_type_id":"4","last_reported":1702548464,"current_range_meters":11600,"station_id":"ce4bgs12rcd13ifvqcag","pricing_plan_id":"free"},{"bike_id":"5c65002b-5281-4cd7-a2b2-ed0e8fdc5fb9","system_id":"levelo_inurba_marseille","lat":43.311131,"lon":5.377651,"is_reserved":false,"is_disabled":false,"rental_uris":{"android":"levelo://app?vid=5c65002b-5281-4cd7-a2b2-ed0e8fdc5fb9","ios":"levelo://app?vid=5c65002b-5281-4cd7-a2b2-ed0e8fdc5fb9"},"vehicle_type_id":"4","last_reported":1702548464,"current_range_meters":22400,"station_id":"ce4bgt92rcd13ifvqcg0","pricing_plan_id":"free"},{"bike_id":"f411badd-096c-4103-b29e-3450dc1c6ca8","system_id":"levelo_inurba_marseille","lat":43.303046,"lon":5.368981,"is_reserved":false,"is_disabled":false,"rental_uris":{"android":"levelo://app?vid=f411badd-096c-4103-b29e-3450dc1c6ca8","ios":"levelo://app?vid=f411badd-096c-4103-b29e-3450dc1c6ca8"},"vehicle_type_id":"4","last_reported":1702548464,"current_range_meters":26400,"station_id":"ce4bgqh2rcd13ifvqc5g","pricing_plan_id":"free"},{"bike_id":"e690c9a7-ab59-447a-80d9-791ef6eacaa7","system_id":"levelo_inurba_marseille","lat":43.30304,"lon":5.368987,"is_reserved":false,"is_disabled":false,"rental_uris":{"android":"levelo://app?vid=e690c9a7-ab59-447a-80d9-791ef6eacaa7","ios":"levelo://app?vid=e690c9a7-ab59-447a-80d9-791ef6eacaa7"},"vehicle_type_id":"4","last_reported":1702548464,"current_range_meters":22400,"station_id":"ce4bgqh2rcd13ifvqc5g","pricing_plan_id":"free"},{"bike_id":"227b454f-cbfd-4a97-b4c2-968569f53a3b","system_id":"levelo_inurba_marseille","lat":43.315293,"lon":5.380349,"is_reserved":false,"is_disabled":false,"rental_uris":{"android":"levelo://app?vid=227b454f-cbfd-4a97-b4c2-968569f53a3b","ios":"levelo://app?vid=227b454f-cbfd-4a97-b4c2-968569f53a3b"},"vehicle_type_id":"4","last_reported":1702548464,"current_range_meters":26000,"station_id":"ce4bhsp2rcd13ifvqi50","pricing_plan_id":"free"},{"bike_id":"4d966b7a-5043-42f9-8fd6-2a24b9f0b941","system_id":"levelo_inurba_marseille","lat":43.301939,"lon":5.366286,"is_reserved":false,"is_disabled":false,"rental_uris":{"android":"levelo://app?vid=4d966b7a-5043-42f9-8fd6-2a24b9f0b941","ios":"levelo://app?vid=4d966b7a-5043-42f9-8fd6-2a24b9f0b941"},"vehicle_type_id":"4","last_reported":1702548464,"current_range_meters":24800,"station_id":"ce4bgrh2rcd13ifvqc8g","pricing_plan_id":"free"},{"bike_id":"feae57b8-88b5-404a-90ef-970b8d68cc03","system_id":"levelo_inurba_marseille","lat":43.301939,"lon":5.366286,"is_reserved":false,"is_disabled":false,"rental_uris":{"android":"levelo://app?vid=feae57b8-88b5-404a-90ef-970b8d68cc03","ios":"levelo://app?vid=feae57b8-88b5-404a-90ef-970b8d68cc03"},"vehicle_type_id":"4","last_reported":1702548464,"current_range_meters":23200,"station_id":"ce4bgrh2rcd13ifvqc8g","pricing_plan_id":"free"},{"bike_id":"f3fef135-12c9-491f-b9f1-a0900b797daf","system_id":"levelo_inurba_marseille","lat":43.301939,"lon":5.366286,"is_reserved":false,"is_disabled":false,"rental_uris":{"android":"levelo://app?vid=f3fef135-12c9-491f-b9f1-a0900b797daf","ios":"levelo://app?vid=f3fef135-12c9-491f-b9f1-a0900b797daf"},"vehicle_type_id":"4","last_reported":1702548464,"current_range_meters":18400,"station_id":"ce4bgrh2rcd13ifvqc8g","pricing_plan_id":"free"},{"bike_id":"1ca8f71c-c6ae-4af3-9e1e-0d1621fe085d","system_id":"levelo_inurba_marseille","lat":43.301939,"lon":5.366286,"is_reserved":false,"is_disabled":false,"rental_uris":{"android":"levelo://app?vid=1ca8f71c-c6ae-4af3-9e1e-0d1621fe085d","ios":"levelo://app?vid=1ca8f71c-c6ae-4af3-9e1e-0d1621fe085d"},"vehicle_type_id":"4","last_reported":1702548464,"current_range_meters":14400,"station_id":"ce4bgrh2rcd13ifvqc8g","pricing_plan_id":"free"},{"bike_id":"a1f30dc0-8fca-4e31-ab92-8b307d70acbc","system_id":"levelo_inurba_marseille","lat":43.30793,"lon":5.38155,"is_reserved":false,"is_disabled":false,"rental_uris":{"android":"levelo://app?vid=a1f30dc0-8fca-4e31-ab92-8b307d70acbc","ios":"levelo://app?vid=a1f30dc0-8fca-4e31-ab92-8b307d70acbc"},"vehicle_type_id":"4","last_reported":1702548464,"current_range_meters":10000,"station_id":"ce4bgt12rcd13ifvqce0","pricing_plan_id":"free"},{"bike_id":"bfc24ac5-3615-461b-8eb2-95277c0e2bd6","system_id":"levelo_inurba_marseille","lat":43.308012,"lon":5.381511,"is_reserved":false,"is_disabled":false,"rental_uris":{"android":"levelo://app?vid=bfc24ac5-3615-461b-8eb2-95277c0e2bd6","ios":"levelo://app?vid=bfc24ac5-3615-461b-8eb2-95277c0e2bd6"},"vehicle_type_id":"4","last_reported":1702548464,"current_range_meters":14400,"station_id":"ce4bgt12rcd13ifvqce0","pricing_plan_id":"free"},{"bike_id":"c3b8eb6d-9d1f-41d6-b452-1f28ea1a23e5","system_id":"levelo_inurba_marseille","lat":43.301429,"lon":5.37413,"is_reserved":false,"is_disabled":false,"rental_uris":{"android":"levelo://app?vid=c3b8eb6d-9d1f-41d6-b452-1f28ea1a23e5","ios":"levelo://app?vid=c3b8eb6d-9d1f-41d6-b452-1f28ea1a23e5"},"vehicle_type_id":"4","last_reported":1702548464,"current_range_meters":26800,"station_id":"ce4bgs92rcd13ifvqcc0","pricing_plan_id":"free"},{"bike_id":"f835b577-fbb6-411e-8fb2-7d818fb82187","system_id":"levelo_inurba_marseille","lat":43.298433,"lon":5.362774,"is_reserved":false,"is_disabled":false,"rental_uris":{"android":"levelo://app?vid=f835b577-fbb6-411e-8fb2-7d818fb82187","ios":"levelo://app?vid=f835b577-fbb6-411e-8fb2-7d818fb82187"},"vehicle_type_id":"4","last_reported":1702548464,"current_range_meters":22800,"station_id":"ce4bgpp2rcd13ifvqc3g","pricing_plan_id":"free"},{"bike_id":"89922cd2-70b7-46b2-b74e-0b5990682f5e","system_id":"levelo_inurba_marseille","lat":43.298433,"lon":5.362774,"is_reserved":false,"is_disabled":false,"rental_uris":{"android":"levelo://app?vid=89922cd2-70b7-46b2-b74e-0b5990682f5e","ios":"levelo://app?vid=89922cd2-70b7-46b2-b74e-0b5990682f5e"},"vehicle_type_id":"4","last_reported":1702548464,"current_range_meters":15600,"station_id":"ce4bgpp2rcd13ifvqc3g","pricing_plan_id":"free"},{"bike_id":"62c4f95f-ec48-4f8f-96b5-1da2ba2b0a34","system_id":"levelo_inurba_marseille","lat":43.311545,"lon":5.386855,"is_reserved":false,"is_disabled":false,"rental_uris":{"android":"levelo://app?vid=62c4f95f-ec48-4f8f-96b5-1da2ba2b0a34","ios":"levelo://app?vid=62c4f95f-ec48-4f8f-96b5-1da2ba2b0a34"},"vehicle_type_id":"4","last_reported":1702548464,"current_range_meters":10000,"station_id":"","pricing_plan_id":"free"},{"bike_id":"d7af6e86-4b8b-439f-b4e6-f6d03c92bef8","system_id":"levelo_inurba_marseille","lat":43.305364,"lon":5.384119,"is_reserved":false,"is_disabled":false,"rental_uris":{"android":"levelo://app?vid=d7af6e86-4b8b-439f-b4e6-f6d03c92bef8","ios":"levelo://app?vid=d7af6e86-4b8b-439f-b4e6-f6d03c92bef8"},"vehicle_type_id":"4","last_reported":1702548464,"current_range_meters":20400,"station_id":"ce4bgg92rcd13ifvqb30","pricing_plan_id":"free"},{"bike_id":"ef1106cb-f131-49ab-93c5-811fe1dd48b5","system_id":"levelo_inurba_marseille","lat":43.298433,"lon":5.362774,"is_reserved":false,"is_disabled":false,"rental_uris":{"android":"levelo://app?vid=ef1106cb-f131-49ab-93c5-811fe1dd48b5","ios":"levelo://app?vid=ef1106cb-f131-49ab-93c5-811fe1dd48b5"},"vehicle_type_id":"4","last_reported":1702548464,"current_range_meters":31600,"station_id":"ce4bgpp2rcd13ifvqc3g","pricing_plan_id":"free"},{"bike_id":"68c11159-ade3-4a85-85b7-59a5cb531b38","system_id":"levelo_inurba_marseille","lat":43.298433,"lon":5.362774,"is_reserved":false,"is_disabled":false,"rental_uris":{"android":"levelo://app?vid=68c11159-ade3-4a85-85b7-59a5cb531b38","ios":"levelo://app?vid=68c11159-ade3-4a85-85b7-59a5cb531b38"},"vehicle_type_id":"4","last_reported":1702548464,"current_range_meters":28000,"station_id":"ce4bgpp2rcd13ifvqc3g","pricing_plan_id":"free"},{"bike_id":"6543c6e0-9993-4f3e-a468-370625d715e5","system_id":"levelo_inurba_marseille","lat":43.298433,"lon":5.362774,"is_reserved":false,"is_disabled":false,"rental_uris":{"android":"levelo://app?vid=6543c6e0-9993-4f3e-a468-370625d715e5","ios":"levelo://app?vid=6543c6e0-9993-4f3e-a468-370625d715e5"},"vehicle_type_id":"4","last_reported":1702548464,"current_range_meters":27200,"station_id":"ce4bgpp2rcd13ifvqc3g","pricing_plan_id":"free"},{"bike_id":"cf880a93-689f-496b-b06b-64d66a80d22d","system_id":"levelo_inurba_marseille","lat":43.298433,"lon":5.362774,"is_reserved":false,"is_disabled":false,"rental_uris":{"android":"levelo://app?vid=cf880a93-689f-496b-b06b-64d66a80d22d","ios":"levelo://app?vid=cf880a93-689f-496b-b06b-64d66a80d22d"},"vehicle_type_id":"4","last_reported":1702548464,"current_range_meters":18800,"station_id":"ce4bgpp2rcd13ifvqc3g","pricing_plan_id":"free"},{"bike_id":"ee6297f5-4018-4f89-9e7d-34628e722b0d","system_id":"levelo_inurba_marseille","lat":43.311722,"lon":5.387247,"is_reserved":false,"is_disabled":false,"rental_uris":{"android":"levelo://app?vid=ee6297f5-4018-4f89-9e7d-34628e722b0d","ios":"levelo://app?vid=ee6297f5-4018-4f89-9e7d-34628e722b0d"},"vehicle_type_id":"4","last_reported":1702548464,"current_range_meters":19600,"station_id":"ce4bgv12rcd13ifvqcp0","pricing_plan_id":"free"},{"bike_id":"ed5f0256-776d-4300-ad00-c107bee05a60","system_id":"levelo_inurba_marseille","lat":43.322872,"lon":5.382756,"is_reserved":false,"is_disabled":false,"rental_uris":{"android":"levelo://app?vid=ed5f0256-776d-4300-ad00-c107bee05a60","ios":"levelo://app?vid=ed5f0256-776d-4300-ad00-c107bee05a60"},"vehicle_type_id":"4","last_reported":1702548464,"current_range_meters":20800,"station_id":"ce4bhr12rcd13ifvqhqg","pricing_plan_id":"free"},{"bike_id":"cbc11d14-9f41-4b34-8edf-188c262dbf4e","system_id":"levelo_inurba_marseille","lat":43.32828,"lon":5.36669,"is_reserved":false,"is_disabled":false,"rental_uris":{"android":"levelo://app?vid=cbc11d14-9f41-4b34-8edf-188c262dbf4e","ios":"levelo://app?vid=cbc11d14-9f41-4b34-8edf-188c262dbf4e"},"vehicle_type_id":"4","last_reported":1702548464,"current_range_meters":29600,"station_id":"ce4bhs92rcd13ifvqi0g","pricing_plan_id":"free"},{"bike_id":"659a38c5-092d-469d-acdb-90f2143cb397","system_id":"levelo_inurba_marseille","lat":43.328371,"lon":5.366909,"is_reserved":false,"is_disabled":false,"rental_uris":{"android":"levelo://app?vid=659a38c5-092d-469d-acdb-90f2143cb397","ios":"levelo://app?vid=659a38c5-092d-469d-acdb-90f2143cb397"},"vehicle_type_id":"4","last_reported":1702548464,"current_range_meters":29600,"station_id":"ce4bhs92rcd13ifvqi0g","pricing_plan_id":"free"},{"bike_id":"7146b216-5dbf-4f39-a872-ebb9140c77d1","system_id":"levelo_inurba_marseille","lat":43.32828,"lon":5.36574,"is_reserved":false,"is_disabled":false,"rental_uris":{"android":"levelo://app?vid=7146b216-5dbf-4f39-a872-ebb9140c77d1","ios":"levelo://app?vid=7146b216-5dbf-4f39-a872-ebb9140c77d1"},"vehicle_type_id":"4","last_reported":1702548464,"current_range_meters":19200,"station_id":"","pricing_plan_id":"free"},{"bike_id":"4f81622e-4d3a-4dc9-a625-040f7f330ebe","system_id":"levelo_inurba_marseille","lat":43.297163,"lon":5.365866,"is_reserved":false,"is_disabled":false,"rental_uris":{"android":"levelo://app?vid=4f81622e-4d3a-4dc9-a625-040f7f330ebe","ios":"levelo://app?vid=4f81622e-4d3a-4dc9-a625-040f7f330ebe"},"vehicle_type_id":"4","last_reported":1702548464,"current_range_meters":23600,"station_id":"ce4bgn12rcd13ifvqbt0","pricing_plan_id":"free"},{"bike_id":"74973e57-6a7e-4011-8d5e-0912c55eb2aa","system_id":"levelo_inurba_marseille","lat":43.328379,"lon":5.366288,"is_reserved":false,"is_disabled":false,"rental_uris":{"android":"levelo://app?vid=74973e57-6a7e-4011-8d5e-0912c55eb2aa","ios":"levelo://app?vid=74973e57-6a7e-4011-8d5e-0912c55eb2aa"},"vehicle_type_id":"4","last_reported":1702548464,"current_range_meters":0,"station_id":"","pricing_plan_id":"free"},{"bike_id":"5df55c6c-c6a1-4ee6-a46d-8bfcd98498ff","system_id":"levelo_inurba_marseille","lat":43.296131,"lon":5.370773,"is_reserved":false,"is_disabled":false,"rental_uris":{"android":"levelo://app?vid=5df55c6c-c6a1-4ee6-a46d-8bfcd98498ff","ios":"levelo://app?vid=5df55c6c-c6a1-4ee6-a46d-8bfcd98498ff"},"vehicle_type_id":"4","last_reported":1702548464,"current_range_meters":0,"station_id":"ce4bgnh2rcd13ifvqc0g","pricing_plan_id":"free"},{"bike_id":"ab64def2-aac8-4a4b-a568-da7b9998284d","system_id":"levelo_inurba_marseille","lat":43.309589,"lon":5.390258,"is_reserved":false,"is_disabled":false,"rental_uris":{"android":"levelo://app?vid=ab64def2-aac8-4a4b-a568-da7b9998284d","ios":"levelo://app?vid=ab64def2-aac8-4a4b-a568-da7b9998284d"},"vehicle_type_id":"4","last_reported":1702548464,"current_range_meters":16000,"station_id":"ce4bgup2rcd13ifvqco0","pricing_plan_id":"free"},{"bike_id":"a6ae0313-d407-4f8b-9fc5-855dae4f0c69","system_id":"levelo_inurba_marseille","lat":43.309589,"lon":5.390258,"is_reserved":false,"is_disabled":false,"rental_uris":{"android":"levelo://app?vid=a6ae0313-d407-4f8b-9fc5-855dae4f0c69","ios":"levelo://app?vid=a6ae0313-d407-4f8b-9fc5-855dae4f0c69"},"vehicle_type_id":"4","last_reported":1702548464,"current_range_meters":16000,"station_id":"ce4bgup2rcd13ifvqco0","pricing_plan_id":"free"},{"bike_id":"344242d9-8678-48bb-bdcd-cc8a58511d55","system_id":"levelo_inurba_marseille","lat":43.29793,"lon":5.38093,"is_reserved":false,"is_disabled":false,"rental_uris":{"android":"levelo://app?vid=344242d9-8678-48bb-bdcd-cc8a58511d55","ios":"levelo://app?vid=344242d9-8678-48bb-bdcd-cc8a58511d55"},"vehicle_type_id":"4","last_reported":1702548464,"current_range_meters":2400,"station_id":"ce4bgip2rcd13ifvqbb0","pricing_plan_id":"free"},{"bike_id":"bea81821-8d1e-45af-93f6-d7ec1dbd86c1","system_id":"levelo_inurba_marseille","lat":43.29572,"lon":5.37504,"is_reserved":false,"is_disabled":false,"rental_uris":{"android":"levelo://app?vid=bea81821-8d1e-45af-93f6-d7ec1dbd86c1","ios":"levelo://app?vid=bea81821-8d1e-45af-93f6-d7ec1dbd86c1"},"vehicle_type_id":"4","last_reported":1702548464,"current_range_meters":0,"station_id":"ce4bgh92rcd13ifvqb50","pricing_plan_id":"free"},{"bike_id":"036bd7b3-e70b-4baa-b059-2f16d81f84fb","system_id":"levelo_inurba_marseille","lat":43.304274,"lon":5.388873,"is_reserved":false,"is_disabled":false,"rental_uris":{"android":"levelo://app?vid=036bd7b3-e70b-4baa-b059-2f16d81f84fb","ios":"levelo://app?vid=036bd7b3-e70b-4baa-b059-2f16d81f84fb"},"vehicle_type_id":"4","last_reported":1702548464,"current_range_meters":8000,"station_id":"ce4bgk12rcd13ifvqbi0","pricing_plan_id":"free"},{"bike_id":"cf46727b-0da9-4b5d-a327-c518a04089ed","system_id":"levelo_inurba_marseille","lat":43.296277,"lon":5.377108,"is_reserved":false,"is_disabled":false,"rental_uris":{"android":"levelo://app?vid=cf46727b-0da9-4b5d-a327-c518a04089ed","ios":"levelo://app?vid=cf46727b-0da9-4b5d-a327-c518a04089ed"},"vehicle_type_id":"4","last_reported":1702548464,"current_range_meters":6800,"station_id":"ce4bgi92rcd13ifvqb90","pricing_plan_id":"free"},{"bike_id":"07fbc572-6e5f-43ac-b45a-01e53cbc825c","system_id":"levelo_inurba_marseille","lat":43.296277,"lon":5.377108,"is_reserved":false,"is_disabled":false,"rental_uris":{"android":"levelo://app?vid=07fbc572-6e5f-43ac-b45a-01e53cbc825c","ios":"levelo://app?vid=07fbc572-6e5f-43ac-b45a-01e53cbc825c"},"vehicle_type_id":"4","last_reported":1702548464,"current_range_meters":8000,"station_id":"ce4bgi92rcd13ifvqb90","pricing_plan_id":"free"},{"bike_id":"93846422-cb2e-46e0-8354-25fd62a996ed","system_id":"levelo_inurba_marseille","lat":43.32367,"lon":5.388836,"is_reserved":false,"is_disabled":false,"rental_uris":{"android":"levelo://app?vid=93846422-cb2e-46e0-8354-25fd62a996ed","ios":"levelo://app?vid=93846422-cb2e-46e0-8354-25fd62a996ed"},"vehicle_type_id":"4","last_reported":1702548464,"current_range_meters":15600,"station_id":"ce4bhqp2rcd13ifvqhog","pricing_plan_id":"free"},{"bike_id":"03f6119d-7ba1-4608-b75b-b20f3efbdaef","system_id":"levelo_inurba_marseille","lat":43.323674,"lon":5.388843,"is_reserved":false,"is_disabled":false,"rental_uris":{"android":"levelo://app?vid=03f6119d-7ba1-4608-b75b-b20f3efbdaef","ios":"levelo://app?vid=03f6119d-7ba1-4608-b75b-b20f3efbdaef"},"vehicle_type_id":"4","last_reported":1702548464,"current_range_meters":12000,"station_id":"ce4bhqp2rcd13ifvqhog","pricing_plan_id":"free"},{"bike_id":"42b0712d-1368-4dec-81c0-335f579a6a14","system_id":"levelo_inurba_marseille","lat":43.2479,"lon":5.374457,"is_reserved":false,"is_disabled":false,"rental_uris":{"android":"levelo://app?vid=42b0712d-1368-4dec-81c0-335f579a6a14","ios":"levelo://app?vid=42b0712d-1368-4dec-81c0-335f579a6a14"},"vehicle_type_id":"4","last_reported":1702548464,"current_range_meters":24800,"station_id":"ce4bhgh2rcd13ifvqfb0","pricing_plan_id":"free"},{"bike_id":"b1603528-1e74-4805-a762-89f28f85d045","system_id":"levelo_inurba_marseille","lat":43.29265,"lon":5.37623,"is_reserved":false,"is_disabled":false,"rental_uris":{"android":"levelo://app?vid=b1603528-1e74-4805-a762-89f28f85d045","ios":"levelo://app?vid=b1603528-1e74-4805-a762-89f28f85d045"},"vehicle_type_id":"4","last_reported":1702548464,"current_range_meters":8800,"station_id":"ce4bgi12rcd13ifvqb80","pricing_plan_id":"free"},{"bike_id":"61aedaca-e129-400e-918f-15f85156d9fb","system_id":"levelo_inurba_marseille","lat":43.292562,"lon":5.376151,"is_reserved":false,"is_disabled":false,"rental_uris":{"android":"levelo://app?vid=61aedaca-e129-400e-918f-15f85156d9fb","ios":"levelo://app?vid=61aedaca-e129-400e-918f-15f85156d9fb"},"vehicle_type_id":"4","last_reported":1702548464,"current_range_meters":25600,"station_id":"ce4bgi12rcd13ifvqb80","pricing_plan_id":"free"},{"bike_id":"e66c6dfa-93db-4476-8e92-010d857598c6","system_id":"levelo_inurba_marseille","lat":43.29255,"lon":5.37623,"is_reserved":false,"is_disabled":false,"rental_uris":{"android":"levelo://app?vid=e66c6dfa-93db-4476-8e92-010d857598c6","ios":"levelo://app?vid=e66c6dfa-93db-4476-8e92-010d857598c6"},"vehicle_type_id":"4","last_reported":1702548464,"current_range_meters":11600,"station_id":"ce4bgi12rcd13ifvqb80","pricing_plan_id":"free"},{"bike_id":"9105dfe4-ea83-4321-b974-39f19aad081e","system_id":"levelo_inurba_marseille","lat":43.309038,"lon":5.396546,"is_reserved":false,"is_disabled":false,"rental_uris":{"android":"levelo://app?vid=9105dfe4-ea83-4321-b974-39f19aad081e","ios":"levelo://app?vid=9105dfe4-ea83-4321-b974-39f19aad081e"},"vehicle_type_id":"4","last_reported":1702548464,"current_range_meters":14800,"station_id":"ce4bh012rcd13ifvqcv0","pricing_plan_id":"free"},{"bike_id":"a74aa3ba-18b0-46d3-867d-58a37a27682a","system_id":"levelo_inurba_marseille","lat":43.309047,"lon":5.396551,"is_reserved":false,"is_disabled":false,"rental_uris":{"android":"levelo://app?vid=a74aa3ba-18b0-46d3-867d-58a37a27682a","ios":"levelo://app?vid=a74aa3ba-18b0-46d3-867d-58a37a27682a"},"vehicle_type_id":"4","last_reported":1702548464,"current_range_meters":8400,"station_id":"ce4bh012rcd13ifvqcv0","pricing_plan_id":"free"},{"bike_id":"1d1ef0f4-4687-4e4a-846f-f31060ad89c3","system_id":"levelo_inurba_marseille","lat":43.294153,"lon":5.386305,"is_reserved":false,"is_disabled":false,"rental_uris":{"android":"levelo://app?vid=1d1ef0f4-4687-4e4a-846f-f31060ad89c3","ios":"levelo://app?vid=1d1ef0f4-4687-4e4a-846f-f31060ad89c3"},"vehicle_type_id":"4","last_reported":1702548464,"current_range_meters":18800,"station_id":"ce4bh2h2rcd13ifvqdh0","pricing_plan_id":"free"},{"bike_id":"193bf3d9-09cb-4f3a-a291-63e9e825aa21","system_id":"levelo_inurba_marseille","lat":43.292642,"lon":5.384254,"is_reserved":false,"is_disabled":false,"rental_uris":{"android":"levelo://app?vid=193bf3d9-09cb-4f3a-a291-63e9e825aa21","ios":"levelo://app?vid=193bf3d9-09cb-4f3a-a291-63e9e825aa21"},"vehicle_type_id":"4","last_reported":1702548464,"current_range_meters":26400,"station_id":"ce4bh692rcd13ifvqea0","pricing_plan_id":"free"},{"bike_id":"90549085-519d-4f00-bb9b-cb8794df27df","system_id":"levelo_inurba_marseille","lat":43.290103,"lon":5.356114,"is_reserved":false,"is_disabled":false,"rental_uris":{"android":"levelo://app?vid=90549085-519d-4f00-bb9b-cb8794df27df","ios":"levelo://app?vid=90549085-519d-4f00-bb9b-cb8794df27df"},"vehicle_type_id":"4","last_reported":1702548464,"current_range_meters":30400,"station_id":"ce4bhb92rcd13ifvqen0","pricing_plan_id":"free"},{"bike_id":"8d912a40-027d-40a7-a3ae-dc5dd38b5a9a","system_id":"levelo_inurba_marseille","lat":43.290103,"lon":5.356114,"is_reserved":false,"is_disabled":false,"rental_uris":{"android":"levelo://app?vid=8d912a40-027d-40a7-a3ae-dc5dd38b5a9a","ios":"levelo://app?vid=8d912a40-027d-40a7-a3ae-dc5dd38b5a9a"},"vehicle_type_id":"4","last_reported":1702548464,"current_range_meters":21200,"station_id":"ce4bhb92rcd13ifvqen0","pricing_plan_id":"free"},{"bike_id":"532dd756-b291-4fc2-8958-9dee80d98d36","system_id":"levelo_inurba_marseille","lat":43.2901,"lon":5.381269,"is_reserved":false,"is_disabled":false,"rental_uris":{"android":"levelo://app?vid=532dd756-b291-4fc2-8958-9dee80d98d36","ios":"levelo://app?vid=532dd756-b291-4fc2-8958-9dee80d98d36"},"vehicle_type_id":"4","last_reported":1702548464,"current_range_meters":24800,"station_id":"ce4bh4p2rcd13ifvqe1g","pricing_plan_id":"free"},{"bike_id":"715bd15d-d95c-48f4-96f4-e88d0cf6444b","system_id":"levelo_inurba_marseille","lat":43.28856,"lon":5.358371,"is_reserved":false,"is_disabled":false,"rental_uris":{"android":"levelo://app?vid=715bd15d-d95c-48f4-96f4-e88d0cf6444b","ios":"levelo://app?vid=715bd15d-d95c-48f4-96f4-e88d0cf6444b"},"vehicle_type_id":"4","last_reported":1702548464,"current_range_meters":24000,"station_id":"ce4bhb12rcd13ifvqem0","pricing_plan_id":"free"},{"bike_id":"c503d295-4fb2-42e3-834c-e00f8cc76bc5","system_id":"levelo_inurba_marseille","lat":43.28856,"lon":5.358371,"is_reserved":false,"is_disabled":false,"rental_uris":{"android":"levelo://app?vid=c503d295-4fb2-42e3-834c-e00f8cc76bc5","ios":"levelo://app?vid=c503d295-4fb2-42e3-834c-e00f8cc76bc5"},"vehicle_type_id":"4","last_reported":1702548464,"current_range_meters":8800,"station_id":"ce4bhb12rcd13ifvqem0","pricing_plan_id":"free"},{"bike_id":"9eda67c0-dd5f-415f-b043-976642b604df","system_id":"levelo_inurba_marseille","lat":43.31275,"lon":5.40164,"is_reserved":false,"is_disabled":false,"rental_uris":{"android":"levelo://app?vid=9eda67c0-dd5f-415f-b043-976642b604df","ios":"levelo://app?vid=9eda67c0-dd5f-415f-b043-976642b604df"},"vehicle_type_id":"4","last_reported":1702548464,"current_range_meters":29200,"station_id":"ce4bh092rcd13ifvqd30","pricing_plan_id":"free"},{"bike_id":"63071938-a9c0-45b7-9e9e-7e084c140631","system_id":"levelo_inurba_marseille","lat":43.337396,"lon":5.37468,"is_reserved":false,"is_disabled":false,"rental_uris":{"android":"levelo://app?vid=63071938-a9c0-45b7-9e9e-7e084c140631","ios":"levelo://app?vid=63071938-a9c0-45b7-9e9e-7e084c140631"},"vehicle_type_id":"4","last_reported":1702548464,"current_range_meters":28400,"station_id":"","pricing_plan_id":"free"},{"bike_id":"c476b50d-a770-45e4-bd98-26fb6394223f","system_id":"levelo_inurba_marseille","lat":43.309371,"lon":5.401449,"is_reserved":false,"is_disabled":false,"rental_uris":{"android":"levelo://app?vid=c476b50d-a770-45e4-bd98-26fb6394223f","ios":"levelo://app?vid=c476b50d-a770-45e4-bd98-26fb6394223f"},"vehicle_type_id":"4","last_reported":1702548464,"current_range_meters":22400,"station_id":"ce4bgvp2rcd13ifvqct0","pricing_plan_id":"free"},{"bike_id":"7814c6fc-91a3-47f5-a506-c0b399240a76","system_id":"levelo_inurba_marseille","lat":43.306412,"lon":5.401035,"is_reserved":false,"is_disabled":false,"rental_uris":{"android":"levelo://app?vid=7814c6fc-91a3-47f5-a506-c0b399240a76","ios":"levelo://app?vid=7814c6fc-91a3-47f5-a506-c0b399240a76"},"vehicle_type_id":"4","last_reported":1702548464,"current_range_meters":19600,"station_id":"ce4bh112rcd13ifvqda0","pricing_plan_id":"free"},{"bike_id":"7cb685f7-2b7c-4d9f-a0e9-3b366b74433c","system_id":"levelo_inurba_marseille","lat":43.306412,"lon":5.401035,"is_reserved":false,"is_disabled":false,"rental_uris":{"android":"levelo://app?vid=7cb685f7-2b7c-4d9f-a0e9-3b366b74433c","ios":"levelo://app?vid=7cb685f7-2b7c-4d9f-a0e9-3b366b74433c"},"vehicle_type_id":"4","last_reported":1702548464,"current_range_meters":27200,"station_id":"ce4bh112rcd13ifvqda0","pricing_plan_id":"free"},{"bike_id":"ad94eea4-6144-4a98-ab1a-5f7d3c8f10fc","system_id":"levelo_inurba_marseille","lat":43.301117,"lon":5.398795,"is_reserved":false,"is_disabled":false,"rental_uris":{"android":"levelo://app?vid=ad94eea4-6144-4a98-ab1a-5f7d3c8f10fc","ios":"levelo://app?vid=ad94eea4-6144-4a98-ab1a-5f7d3c8f10fc"},"vehicle_type_id":"4","last_reported":1702548464,"current_range_meters":25600,"station_id":"ce4bh0h2rcd13ifvqd40","pricing_plan_id":"free"},{"bike_id":"96695137-1efe-401f-86f1-7f7257165e06","system_id":"levelo_inurba_marseille","lat":43.286591,"lon":5.363346,"is_reserved":false,"is_disabled":false,"rental_uris":{"android":"levelo://app?vid=96695137-1efe-401f-86f1-7f7257165e06","ios":"levelo://app?vid=96695137-1efe-401f-86f1-7f7257165e06"},"vehicle_type_id":"4","last_reported":1702548464,"current_range_meters":5600,"station_id":"ce4bhah2rcd13ifvqej0","pricing_plan_id":"free"},{"bike_id":"b619a5cf-df35-4152-bb26-6305339f3eb0","system_id":"levelo_inurba_marseille","lat":43.286961,"lon":5.373785,"is_reserved":false,"is_disabled":false,"rental_uris":{"android":"levelo://app?vid=b619a5cf-df35-4152-bb26-6305339f3eb0","ios":"levelo://app?vid=b619a5cf-df35-4152-bb26-6305339f3eb0"},"vehicle_type_id":"4","last_reported":1702548464,"current_range_meters":25600,"station_id":"ce4bh3p2rcd13ifvqdq0","pricing_plan_id":"free"},{"bike_id":"e48ef7b1-a491-49ba-89ae-9e260d5b4141","system_id":"levelo_inurba_marseille","lat":43.319179,"lon":5.407725,"is_reserved":false,"is_disabled":false,"rental_uris":{"android":"levelo://app?vid=e48ef7b1-a491-49ba-89ae-9e260d5b4141","ios":"levelo://app?vid=e48ef7b1-a491-49ba-89ae-9e260d5b4141"},"vehicle_type_id":"4","last_reported":1702548464,"current_range_meters":21600,"station_id":"ce4bhq12rcd13ifvqhig","pricing_plan_id":"free"},{"bike_id":"bd474e43-59de-405e-b26a-94da8973e5b2","system_id":"levelo_inurba_marseille","lat":43.33717,"lon":5.391857,"is_reserved":false,"is_disabled":false,"rental_uris":{"android":"levelo://app?vid=bd474e43-59de-405e-b26a-94da8973e5b2","ios":"levelo://app?vid=bd474e43-59de-405e-b26a-94da8973e5b2"},"vehicle_type_id":"4","last_reported":1702548464,"current_range_meters":29600,"station_id":"ce4bhr92rcd13ifvqhsg","pricing_plan_id":"free"},{"bike_id":"2c92f10e-fa6e-4ddb-9530-d6f90043c9b5","system_id":"levelo_inurba_marseille","lat":43.33717,"lon":5.391857,"is_reserved":false,"is_disabled":false,"rental_uris":{"android":"levelo://app?vid=2c92f10e-fa6e-4ddb-9530-d6f90043c9b5","ios":"levelo://app?vid=2c92f10e-fa6e-4ddb-9530-d6f90043c9b5"},"vehicle_type_id":"4","last_reported":1702548464,"current_range_meters":28800,"station_id":"ce4bhr92rcd13ifvqhsg","pricing_plan_id":"free"},{"bike_id":"079c04de-d1fe-476e-9ec4-d5ad12e5dc8e","system_id":"levelo_inurba_marseille","lat":43.284793,"lon":5.384113,"is_reserved":false,"is_disabled":false,"rental_uris":{"android":"levelo://app?vid=079c04de-d1fe-476e-9ec4-d5ad12e5dc8e","ios":"levelo://app?vid=079c04de-d1fe-476e-9ec4-d5ad12e5dc8e"},"vehicle_type_id":"4","last_reported":1702548464,"current_range_meters":30000,"station_id":"ce4bh512rcd13ifvqe3g","pricing_plan_id":"free"},{"bike_id":"17cca3ad-1eb2-4b37-b0b0-630d3c6ddd7b","system_id":"levelo_inurba_marseille","lat":43.284793,"lon":5.384119,"is_reserved":false,"is_disabled":false,"rental_uris":{"android":"levelo://app?vid=17cca3ad-1eb2-4b37-b0b0-630d3c6ddd7b","ios":"levelo://app?vid=17cca3ad-1eb2-4b37-b0b0-630d3c6ddd7b"},"vehicle_type_id":"4","last_reported":1702548464,"current_range_meters":14400,"station_id":"ce4bh512rcd13ifvqe3g","pricing_plan_id":"free"},{"bike_id":"2d3e88fe-604b-4bd4-ac57-532430877f08","system_id":"levelo_inurba_marseille","lat":43.282744,"lon":5.350533,"is_reserved":false,"is_disabled":false,"rental_uris":{"android":"levelo://app?vid=2d3e88fe-604b-4bd4-ac57-532430877f08","ios":"levelo://app?vid=2d3e88fe-604b-4bd4-ac57-532430877f08"},"vehicle_type_id":"4","last_reported":1702548464,"current_range_meters":9200,"station_id":"ce4bhbp2rcd13ifvqerg","pricing_plan_id":"free"},{"bike_id":"7cf4534f-594d-4a1b-bb44-d24aec8f797c","system_id":"levelo_inurba_marseille","lat":43.28032,"lon":5.36941,"is_reserved":false,"is_disabled":false,"rental_uris":{"android":"levelo://app?vid=7cf4534f-594d-4a1b-bb44-d24aec8f797c","ios":"levelo://app?vid=7cf4534f-594d-4a1b-bb44-d24aec8f797c"},"vehicle_type_id":"4","last_reported":1702548464,"current_range_meters":2800,"station_id":"ce4bha12rcd13ifvqef0","pricing_plan_id":"free"},{"bike_id":"6e3f9e79-72dc-4e49-b827-6c37bba4394e","system_id":"levelo_inurba_marseille","lat":43.284462,"lon":5.392121,"is_reserved":false,"is_disabled":false,"rental_uris":{"android":"levelo://app?vid=6e3f9e79-72dc-4e49-b827-6c37bba4394e","ios":"levelo://app?vid=6e3f9e79-72dc-4e49-b827-6c37bba4394e"},"vehicle_type_id":"4","last_reported":1702548464,"current_range_meters":25600,"station_id":"ce4bhoh2rcd13ifvqh5g","pricing_plan_id":"free"},{"bike_id":"f1744198-aaa5-4798-b373-3008e77b5be5","system_id":"levelo_inurba_marseille","lat":43.284462,"lon":5.392121,"is_reserved":false,"is_disabled":false,"rental_uris":{"android":"levelo://app?vid=f1744198-aaa5-4798-b373-3008e77b5be5","ios":"levelo://app?vid=f1744198-aaa5-4798-b373-3008e77b5be5"},"vehicle_type_id":"4","last_reported":1702548464,"current_range_meters":6800,"station_id":"ce4bhoh2rcd13ifvqh5g","pricing_plan_id":"free"},{"bike_id":"12d452fd-8b8e-4e9e-8439-3173e5df773f","system_id":"levelo_inurba_marseille","lat":43.280382,"lon":5.369291,"is_reserved":false,"is_disabled":false,"rental_uris":{"android":"levelo://app?vid=12d452fd-8b8e-4e9e-8439-3173e5df773f","ios":"levelo://app?vid=12d452fd-8b8e-4e9e-8439-3173e5df773f"},"vehicle_type_id":"4","last_reported":1702548464,"current_range_meters":10400,"station_id":"ce4bha12rcd13ifvqef0","pricing_plan_id":"free"},{"bike_id":"37b1113c-51b2-47f3-8f3d-92b406d0acf8","system_id":"levelo_inurba_marseille","lat":43.325233,"lon":5.414318,"is_reserved":false,"is_disabled":false,"rental_uris":{"android":"levelo://app?vid=37b1113c-51b2-47f3-8f3d-92b406d0acf8","ios":"levelo://app?vid=37b1113c-51b2-47f3-8f3d-92b406d0acf8"},"vehicle_type_id":"4","last_reported":1702548464,"current_range_meters":31200,"station_id":"ce4bhq12rcd13ifvqhhg","pricing_plan_id":"free"},{"bike_id":"c016e672-b4d7-49b9-b38f-69fd9e1cf7ed","system_id":"levelo_inurba_marseille","lat":43.325243,"lon":5.414326,"is_reserved":false,"is_disabled":false,"rental_uris":{"android":"levelo://app?vid=c016e672-b4d7-49b9-b38f-69fd9e1cf7ed","ios":"levelo://app?vid=c016e672-b4d7-49b9-b38f-69fd9e1cf7ed"},"vehicle_type_id":"4","last_reported":1702548464,"current_range_meters":20000,"station_id":"ce4bhq12rcd13ifvqhhg","pricing_plan_id":"free"},{"bike_id":"9caf863c-3b33-4a39-8581-7383c9c2c311","system_id":"levelo_inurba_marseille","lat":43.278401,"lon":5.392152,"is_reserved":false,"is_disabled":false,"rental_uris":{"android":"levelo://app?vid=9caf863c-3b33-4a39-8581-7383c9c2c311","ios":"levelo://app?vid=9caf863c-3b33-4a39-8581-7383c9c2c311"},"vehicle_type_id":"4","last_reported":1702548464,"current_range_meters":28400,"station_id":"ce4bhjp2rcd13ifvqga0","pricing_plan_id":"free"},{"bike_id":"5d88a0f6-6bc9-4116-be91-630dd3361678","system_id":"levelo_inurba_marseille","lat":43.278399,"lon":5.392139,"is_reserved":false,"is_disabled":false,"rental_uris":{"android":"levelo://app?vid=5d88a0f6-6bc9-4116-be91-630dd3361678","ios":"levelo://app?vid=5d88a0f6-6bc9-4116-be91-630dd3361678"},"vehicle_type_id":"4","last_reported":1702548464,"current_range_meters":25600,"station_id":"ce4bhjp2rcd13ifvqga0","pricing_plan_id":"free"},{"bike_id":"8e2f2890-14bc-40d1-9250-6f247ef598ea","system_id":"levelo_inurba_marseille","lat":43.273613,"lon":5.362705,"is_reserved":false,"is_disabled":false,"rental_uris":{"android":"levelo://app?vid=8e2f2890-14bc-40d1-9250-6f247ef598ea","ios":"levelo://app?vid=8e2f2890-14bc-40d1-9250-6f247ef598ea"},"vehicle_type_id":"4","last_reported":1702548464,"current_range_meters":14000,"station_id":"ce4bhbh2rcd13ifvqeo0","pricing_plan_id":"free"},{"bike_id":"297eb113-1649-4032-af03-d958d46f870d","system_id":"levelo_inurba_marseille","lat":43.276771,"lon":5.388799,"is_reserved":false,"is_disabled":false,"rental_uris":{"android":"levelo://app?vid=297eb113-1649-4032-af03-d958d46f870d","ios":"levelo://app?vid=297eb113-1649-4032-af03-d958d46f870d"},"vehicle_type_id":"4","last_reported":1702548464,"current_range_meters":26000,"station_id":"ce4bhi12rcd13ifvqfo0","pricing_plan_id":"free"},{"bike_id":"b247ed0a-4850-4260-b834-860ac593a91b","system_id":"levelo_inurba_marseille","lat":43.279975,"lon":5.40009,"is_reserved":false,"is_disabled":false,"rental_uris":{"android":"levelo://app?vid=b247ed0a-4850-4260-b834-860ac593a91b","ios":"levelo://app?vid=b247ed0a-4850-4260-b834-860ac593a91b"},"vehicle_type_id":"4","last_reported":1702548464,"current_range_meters":31200,"station_id":"ce4bho92rcd13ifvqh4g","pricing_plan_id":"free"},{"bike_id":"55f8cf7b-a384-4860-b1f5-075034029351","system_id":"levelo_inurba_marseille","lat":43.31715,"lon":5.42399,"is_reserved":false,"is_disabled":false,"rental_uris":{"android":"levelo://app?vid=55f8cf7b-a384-4860-b1f5-075034029351","ios":"levelo://app?vid=55f8cf7b-a384-4860-b1f5-075034029351"},"vehicle_type_id":"4","last_reported":1702548464,"current_range_meters":21600,"station_id":"ce4bhp92rcd13ifvqhbg","pricing_plan_id":"free"},{"bike_id":"dab0782e-8bad-473a-b057-06699a687d8b","system_id":"levelo_inurba_marseille","lat":43.310785,"lon":5.424305,"is_reserved":false,"is_disabled":false,"rental_uris":{"android":"levelo://app?vid=dab0782e-8bad-473a-b057-06699a687d8b","ios":"levelo://app?vid=dab0782e-8bad-473a-b057-06699a687d8b"},"vehicle_type_id":"4","last_reported":1702548464,"current_range_meters":15200,"station_id":"ce4bhp92rcd13ifvqhag","pricing_plan_id":"free"},{"bike_id":"3ca2c2d2-99b0-4aa6-a05d-e30f02e6a7fb","system_id":"levelo_inurba_marseille","lat":43.27588,"lon":5.39495,"is_reserved":false,"is_disabled":false,"rental_uris":{"android":"levelo://app?vid=3ca2c2d2-99b0-4aa6-a05d-e30f02e6a7fb","ios":"levelo://app?vid=3ca2c2d2-99b0-4aa6-a05d-e30f02e6a7fb"},"vehicle_type_id":"4","last_reported":1702548464,"current_range_meters":10800,"station_id":"","pricing_plan_id":"free"},{"bike_id":"fe04921c-1fb3-40b8-97f5-fb576340470a","system_id":"levelo_inurba_marseille","lat":43.274183,"lon":5.394147,"is_reserved":false,"is_disabled":false,"rental_uris":{"android":"levelo://app?vid=fe04921c-1fb3-40b8-97f5-fb576340470a","ios":"levelo://app?vid=fe04921c-1fb3-40b8-97f5-fb576340470a"},"vehicle_type_id":"4","last_reported":1702548464,"current_range_meters":28400,"station_id":"","pricing_plan_id":"free"},{"bike_id":"6449e1ff-a617-4be8-8210-091849262769","system_id":"levelo_inurba_marseille","lat":43.278128,"lon":5.407195,"is_reserved":false,"is_disabled":false,"rental_uris":{"android":"levelo://app?vid=6449e1ff-a617-4be8-8210-091849262769","ios":"levelo://app?vid=6449e1ff-a617-4be8-8210-091849262769"},"vehicle_type_id":"4","last_reported":1702548464,"current_range_meters":23200,"station_id":"ce4bhnh2rcd13ifvqgtg","pricing_plan_id":"free"},{"bike_id":"495da894-f6da-45b8-b5c3-5d4e173443b5","system_id":"levelo_inurba_marseille","lat":43.279465,"lon":5.410561,"is_reserved":false,"is_disabled":false,"rental_uris":{"android":"levelo://app?vid=495da894-f6da-45b8-b5c3-5d4e173443b5","ios":"levelo://app?vid=495da894-f6da-45b8-b5c3-5d4e173443b5"},"vehicle_type_id":"4","last_reported":1702548464,"current_range_meters":13600,"station_id":"ce4bhnp2rcd13ifvqh0g","pricing_plan_id":"free"},{"bike_id":"2c76a2ce-9e1c-4631-b059-44b078077956","system_id":"levelo_inurba_marseille","lat":43.26681,"lon":5.382694,"is_reserved":false,"is_disabled":false,"rental_uris":{"android":"levelo://app?vid=2c76a2ce-9e1c-4631-b059-44b078077956","ios":"levelo://app?vid=2c76a2ce-9e1c-4631-b059-44b078077956"},"vehicle_type_id":"4","last_reported":1702548464,"current_range_meters":30400,"station_id":"ce4bhg92rcd13ifvqf90","pricing_plan_id":"free"},{"bike_id":"3e82f2b2-e9da-47dd-8fa7-51d78203efd4","system_id":"levelo_inurba_marseille","lat":43.26681,"lon":5.382694,"is_reserved":false,"is_disabled":false,"rental_uris":{"android":"levelo://app?vid=3e82f2b2-e9da-47dd-8fa7-51d78203efd4","ios":"levelo://app?vid=3e82f2b2-e9da-47dd-8fa7-51d78203efd4"},"vehicle_type_id":"4","last_reported":1702548464,"current_range_meters":24800,"station_id":"ce4bhg92rcd13ifvqf90","pricing_plan_id":"free"},{"bike_id":"1b37560f-35b8-4acb-8949-cceeaa9da1d5","system_id":"levelo_inurba_marseille","lat":43.26681,"lon":5.382694,"is_reserved":false,"is_disabled":false,"rental_uris":{"android":"levelo://app?vid=1b37560f-35b8-4acb-8949-cceeaa9da1d5","ios":"levelo://app?vid=1b37560f-35b8-4acb-8949-cceeaa9da1d5"},"vehicle_type_id":"4","last_reported":1702548464,"current_range_meters":28000,"station_id":"ce4bhg92rcd13ifvqf90","pricing_plan_id":"free"},{"bike_id":"b2d8df3c-a539-49d1-8e5b-ec43b09f0c44","system_id":"levelo_inurba_marseille","lat":43.26681,"lon":5.382694,"is_reserved":false,"is_disabled":false,"rental_uris":{"android":"levelo://app?vid=b2d8df3c-a539-49d1-8e5b-ec43b09f0c44","ios":"levelo://app?vid=b2d8df3c-a539-49d1-8e5b-ec43b09f0c44"},"vehicle_type_id":"4","last_reported":1702548464,"current_range_meters":13600,"station_id":"ce4bhg92rcd13ifvqf90","pricing_plan_id":"free"},{"bike_id":"9ee2ba19-e221-4350-ba06-a0af7035b063","system_id":"levelo_inurba_marseille","lat":43.26681,"lon":5.382694,"is_reserved":false,"is_disabled":false,"rental_uris":{"android":"levelo://app?vid=9ee2ba19-e221-4350-ba06-a0af7035b063","ios":"levelo://app?vid=9ee2ba19-e221-4350-ba06-a0af7035b063"},"vehicle_type_id":"4","last_reported":1702548464,"current_range_meters":20800,"station_id":"ce4bhg92rcd13ifvqf90","pricing_plan_id":"free"},{"bike_id":"f7ba1bd1-0b64-4579-812f-07ee12780698","system_id":"levelo_inurba_marseille","lat":43.265714,"lon":5.372891,"is_reserved":false,"is_disabled":false,"rental_uris":{"android":"levelo://app?vid=f7ba1bd1-0b64-4579-812f-07ee12780698","ios":"levelo://app?vid=f7ba1bd1-0b64-4579-812f-07ee12780698"},"vehicle_type_id":"4","last_reported":1702548464,"current_range_meters":0,"station_id":"ce4bhg12rcd13ifvqf70","pricing_plan_id":"free"},{"bike_id":"580c640b-060c-4f90-ac88-349a0e293229","system_id":"levelo_inurba_marseille","lat":43.265569,"lon":5.390047,"is_reserved":false,"is_disabled":false,"rental_uris":{"android":"levelo://app?vid=580c640b-060c-4f90-ac88-349a0e293229","ios":"levelo://app?vid=580c640b-060c-4f90-ac88-349a0e293229"},"vehicle_type_id":"4","last_reported":1702548464,"current_range_meters":22400,"station_id":"ce4bhe12rcd13ifvqf30","pricing_plan_id":"free"},{"bike_id":"65dadbe2-7477-4b7f-b014-46e6128594d5","system_id":"levelo_inurba_marseille","lat":43.265571,"lon":5.390032,"is_reserved":false,"is_disabled":false,"rental_uris":{"android":"levelo://app?vid=65dadbe2-7477-4b7f-b014-46e6128594d5","ios":"levelo://app?vid=65dadbe2-7477-4b7f-b014-46e6128594d5"},"vehicle_type_id":"4","last_reported":1702548464,"current_range_meters":15600,"station_id":"ce4bhe12rcd13ifvqf30","pricing_plan_id":"free"},{"bike_id":"8e30cebd-1d3b-4915-8953-50dbaef6fce4","system_id":"levelo_inurba_marseille","lat":43.26949,"lon":5.40262,"is_reserved":false,"is_disabled":false,"rental_uris":{"android":"levelo://app?vid=8e30cebd-1d3b-4915-8953-50dbaef6fce4","ios":"levelo://app?vid=8e30cebd-1d3b-4915-8953-50dbaef6fce4"},"vehicle_type_id":"4","last_reported":1702548464,"current_range_meters":20400,"station_id":"cjm6bp8fraef2m0cb0m0","pricing_plan_id":"free"},{"bike_id":"150b466a-6516-450f-8a09-f4cdbc7c18db","system_id":"levelo_inurba_marseille","lat":43.261782,"lon":5.374515,"is_reserved":false,"is_disabled":false,"rental_uris":{"android":"levelo://app?vid=150b466a-6516-450f-8a09-f4cdbc7c18db","ios":"levelo://app?vid=150b466a-6516-450f-8a09-f4cdbc7c18db"},"vehicle_type_id":"4","last_reported":1702548464,"current_range_meters":28000,"station_id":"ce4bhgp2rcd13ifvqfc0","pricing_plan_id":"free"},{"bike_id":"d1d32a8f-6061-42f8-beac-ce290461e74b","system_id":"levelo_inurba_marseille","lat":43.271368,"lon":5.40928,"is_reserved":false,"is_disabled":false,"rental_uris":{"android":"levelo://app?vid=d1d32a8f-6061-42f8-beac-ce290461e74b","ios":"levelo://app?vid=d1d32a8f-6061-42f8-beac-ce290461e74b"},"vehicle_type_id":"4","last_reported":1702548464,"current_range_meters":19200,"station_id":"ce4bhl12rcd13ifvqgf0","pricing_plan_id":"free"},{"bike_id":"96dd960e-9e5f-4ba8-a693-12d87ec3b4a9","system_id":"levelo_inurba_marseille","lat":43.271388,"lon":5.409269,"is_reserved":false,"is_disabled":false,"rental_uris":{"android":"levelo://app?vid=96dd960e-9e5f-4ba8-a693-12d87ec3b4a9","ios":"levelo://app?vid=96dd960e-9e5f-4ba8-a693-12d87ec3b4a9"},"vehicle_type_id":"4","last_reported":1702548464,"current_range_meters":31200,"station_id":"ce4bhl12rcd13ifvqgf0","pricing_plan_id":"free"},{"bike_id":"293b0fd3-65b1-42bb-807b-a77a51ee2260","system_id":"levelo_inurba_marseille","lat":43.271388,"lon":5.409269,"is_reserved":false,"is_disabled":false,"rental_uris":{"android":"levelo://app?vid=293b0fd3-65b1-42bb-807b-a77a51ee2260","ios":"levelo://app?vid=293b0fd3-65b1-42bb-807b-a77a51ee2260"},"vehicle_type_id":"4","last_reported":1702548464,"current_range_meters":30400,"station_id":"ce4bhl12rcd13ifvqgf0","pricing_plan_id":"free"},{"bike_id":"7d5f7346-2fb8-4a87-8aa5-074b5a79ac77","system_id":"levelo_inurba_marseille","lat":43.271368,"lon":5.40928,"is_reserved":false,"is_disabled":false,"rental_uris":{"android":"levelo://app?vid=7d5f7346-2fb8-4a87-8aa5-074b5a79ac77","ios":"levelo://app?vid=7d5f7346-2fb8-4a87-8aa5-074b5a79ac77"},"vehicle_type_id":"4","last_reported":1702548464,"current_range_meters":26800,"station_id":"ce4bhl12rcd13ifvqgf0","pricing_plan_id":"free"},{"bike_id":"c1a8efc5-2e3d-49d0-904c-c79a29112631","system_id":"levelo_inurba_marseille","lat":43.26202,"lon":5.379299,"is_reserved":false,"is_disabled":false,"rental_uris":{"android":"levelo://app?vid=c1a8efc5-2e3d-49d0-904c-c79a29112631","ios":"levelo://app?vid=c1a8efc5-2e3d-49d0-904c-c79a29112631"},"vehicle_type_id":"4","last_reported":1702548464,"current_range_meters":31200,"station_id":"ce4bhjp2rcd13ifvqg90","pricing_plan_id":"free"},{"bike_id":"81a6f7c7-e876-4da9-9acc-cd51e761bff2","system_id":"levelo_inurba_marseille","lat":43.267959,"lon":5.402687,"is_reserved":false,"is_disabled":false,"rental_uris":{"android":"levelo://app?vid=81a6f7c7-e876-4da9-9acc-cd51e761bff2","ios":"levelo://app?vid=81a6f7c7-e876-4da9-9acc-cd51e761bff2"},"vehicle_type_id":"4","last_reported":1702548464,"current_range_meters":10400,"station_id":"ce501612rcd8frsf0b60","pricing_plan_id":"free"},{"bike_id":"5f9478b7-da79-4d0d-bdbe-233353091e1b","system_id":"levelo_inurba_marseille","lat":43.267959,"lon":5.402687,"is_reserved":false,"is_disabled":false,"rental_uris":{"android":"levelo://app?vid=5f9478b7-da79-4d0d-bdbe-233353091e1b","ios":"levelo://app?vid=5f9478b7-da79-4d0d-bdbe-233353091e1b"},"vehicle_type_id":"4","last_reported":1702548464,"current_range_meters":23600,"station_id":"ce501612rcd8frsf0b60","pricing_plan_id":"free"},{"bike_id":"96ba9d10-482b-4b54-ba33-7a67558f4e06","system_id":"levelo_inurba_marseille","lat":43.265,"lon":5.395352,"is_reserved":false,"is_disabled":false,"rental_uris":{"android":"levelo://app?vid=96ba9d10-482b-4b54-ba33-7a67558f4e06","ios":"levelo://app?vid=96ba9d10-482b-4b54-ba33-7a67558f4e06"},"vehicle_type_id":"4","last_reported":1702548464,"current_range_meters":15200,"station_id":"","pricing_plan_id":"free"},{"bike_id":"38a4a3ac-b01c-43e0-abb4-5a012521fc8c","system_id":"levelo_inurba_marseille","lat":43.298768,"lon":5.43643,"is_reserved":false,"is_disabled":false,"rental_uris":{"android":"levelo://app?vid=38a4a3ac-b01c-43e0-abb4-5a012521fc8c","ios":"levelo://app?vid=38a4a3ac-b01c-43e0-abb4-5a012521fc8c"},"vehicle_type_id":"4","last_reported":1702548464,"current_range_meters":30800,"station_id":"ce4bhpp2rcd13ifvqhfg","pricing_plan_id":"free"},{"bike_id":"1469fd59-9c5e-4d41-bce4-3bf39b17c74f","system_id":"levelo_inurba_marseille","lat":43.281548,"lon":5.42643,"is_reserved":false,"is_disabled":false,"rental_uris":{"android":"levelo://app?vid=1469fd59-9c5e-4d41-bce4-3bf39b17c74f","ios":"levelo://app?vid=1469fd59-9c5e-4d41-bce4-3bf39b17c74f"},"vehicle_type_id":"4","last_reported":1702548464,"current_range_meters":16000,"station_id":"ce4bhnh2rcd13ifvqgug","pricing_plan_id":"free"},{"bike_id":"da88e93b-2420-4c41-8b4c-8390e8f31ec3","system_id":"levelo_inurba_marseille","lat":43.2607,"lon":5.393983,"is_reserved":false,"is_disabled":false,"rental_uris":{"android":"levelo://app?vid=da88e93b-2420-4c41-8b4c-8390e8f31ec3","ios":"levelo://app?vid=da88e93b-2420-4c41-8b4c-8390e8f31ec3"},"vehicle_type_id":"4","last_reported":1702548464,"current_range_meters":26000,"station_id":"ce4bhh92rcd13ifvqfj0","pricing_plan_id":"free"},{"bike_id":"5c9e7f96-8059-476e-b740-05c49dd46bfe","system_id":"levelo_inurba_marseille","lat":43.275028,"lon":5.424534,"is_reserved":false,"is_disabled":false,"rental_uris":{"android":"levelo://app?vid=5c9e7f96-8059-476e-b740-05c49dd46bfe","ios":"levelo://app?vid=5c9e7f96-8059-476e-b740-05c49dd46bfe"},"vehicle_type_id":"4","last_reported":1702548464,"current_range_meters":25600,"station_id":"ce4bhn92rcd13ifvqgrg","pricing_plan_id":"free"},{"bike_id":"c6bb4aec-0e6a-449a-a6e9-d503ea37f43c","system_id":"levelo_inurba_marseille","lat":43.275028,"lon":5.424534,"is_reserved":false,"is_disabled":false,"rental_uris":{"android":"levelo://app?vid=c6bb4aec-0e6a-449a-a6e9-d503ea37f43c","ios":"levelo://app?vid=c6bb4aec-0e6a-449a-a6e9-d503ea37f43c"},"vehicle_type_id":"4","last_reported":1702548464,"current_range_meters":31200,"station_id":"ce4bhn92rcd13ifvqgrg","pricing_plan_id":"free"},{"bike_id":"cd563140-6cc4-491c-90a0-6a28e6f2cda7","system_id":"levelo_inurba_marseille","lat":43.275028,"lon":5.424534,"is_reserved":false,"is_disabled":false,"rental_uris":{"android":"levelo://app?vid=cd563140-6cc4-491c-90a0-6a28e6f2cda7","ios":"levelo://app?vid=cd563140-6cc4-491c-90a0-6a28e6f2cda7"},"vehicle_type_id":"4","last_reported":1702548464,"current_range_meters":23600,"station_id":"ce4bhn92rcd13ifvqgrg","pricing_plan_id":"free"},{"bike_id":"c0b76d63-cc62-4157-82e7-39267fdb0980","system_id":"levelo_inurba_marseille","lat":43.275028,"lon":5.424534,"is_reserved":false,"is_disabled":false,"rental_uris":{"android":"levelo://app?vid=c0b76d63-cc62-4157-82e7-39267fdb0980","ios":"levelo://app?vid=c0b76d63-cc62-4157-82e7-39267fdb0980"},"vehicle_type_id":"4","last_reported":1702548464,"current_range_meters":24800,"station_id":"ce4bhn92rcd13ifvqgrg","pricing_plan_id":"free"},{"bike_id":"62dab26c-e89c-4d3c-b191-00d5f81a4916","system_id":"levelo_inurba_marseille","lat":43.275028,"lon":5.424534,"is_reserved":false,"is_disabled":false,"rental_uris":{"android":"levelo://app?vid=62dab26c-e89c-4d3c-b191-00d5f81a4916","ios":"levelo://app?vid=62dab26c-e89c-4d3c-b191-00d5f81a4916"},"vehicle_type_id":"4","last_reported":1702548464,"current_range_meters":9600,"station_id":"ce4bhn92rcd13ifvqgrg","pricing_plan_id":"free"},{"bike_id":"e9ebb918-c38e-461b-b1a2-1b26ed9053cb","system_id":"levelo_inurba_marseille","lat":43.275028,"lon":5.424534,"is_reserved":false,"is_disabled":false,"rental_uris":{"android":"levelo://app?vid=e9ebb918-c38e-461b-b1a2-1b26ed9053cb","ios":"levelo://app?vid=e9ebb918-c38e-461b-b1a2-1b26ed9053cb"},"vehicle_type_id":"4","last_reported":1702548464,"current_range_meters":8800,"station_id":"ce4bhn92rcd13ifvqgrg","pricing_plan_id":"free"},{"bike_id":"a5441e3e-2bec-4934-9057-6a23a02e89e5","system_id":"levelo_inurba_marseille","lat":43.275028,"lon":5.424534,"is_reserved":false,"is_disabled":false,"rental_uris":{"android":"levelo://app?vid=a5441e3e-2bec-4934-9057-6a23a02e89e5","ios":"levelo://app?vid=a5441e3e-2bec-4934-9057-6a23a02e89e5"},"vehicle_type_id":"4","last_reported":1702548464,"current_range_meters":28000,"station_id":"ce4bhn92rcd13ifvqgrg","pricing_plan_id":"free"},{"bike_id":"8d81024a-82cc-477a-9092-9daf4c646a46","system_id":"levelo_inurba_marseille","lat":43.275028,"lon":5.424534,"is_reserved":false,"is_disabled":false,"rental_uris":{"android":"levelo://app?vid=8d81024a-82cc-477a-9092-9daf4c646a46","ios":"levelo://app?vid=8d81024a-82cc-477a-9092-9daf4c646a46"},"vehicle_type_id":"4","last_reported":1702548464,"current_range_meters":22400,"station_id":"ce4bhn92rcd13ifvqgrg","pricing_plan_id":"free"},{"bike_id":"c95706b8-c06e-493a-987b-3f8972a4b709","system_id":"levelo_inurba_marseille","lat":43.275028,"lon":5.424534,"is_reserved":false,"is_disabled":false,"rental_uris":{"android":"levelo://app?vid=c95706b8-c06e-493a-987b-3f8972a4b709","ios":"levelo://app?vid=c95706b8-c06e-493a-987b-3f8972a4b709"},"vehicle_type_id":"4","last_reported":1702548464,"current_range_meters":26000,"station_id":"ce4bhn92rcd13ifvqgrg","pricing_plan_id":"free"},{"bike_id":"20e2eeed-0b00-48de-a845-977035bd5de1","system_id":"levelo_inurba_marseille","lat":43.25582,"lon":5.38228,"is_reserved":false,"is_disabled":false,"rental_uris":{"android":"levelo://app?vid=20e2eeed-0b00-48de-a845-977035bd5de1","ios":"levelo://app?vid=20e2eeed-0b00-48de-a845-977035bd5de1"},"vehicle_type_id":"4","last_reported":1702548464,"current_range_meters":8400,"station_id":"ce4bhih2rcd13ifvqfs0","pricing_plan_id":"free"},{"bike_id":"242815f0-d007-4462-8ef9-df736f2943ba","system_id":"levelo_inurba_marseille","lat":43.25581,"lon":5.38229,"is_reserved":false,"is_disabled":false,"rental_uris":{"android":"levelo://app?vid=242815f0-d007-4462-8ef9-df736f2943ba","ios":"levelo://app?vid=242815f0-d007-4462-8ef9-df736f2943ba"},"vehicle_type_id":"4","last_reported":1702548464,"current_range_meters":2800,"station_id":"ce4bhih2rcd13ifvqfs0","pricing_plan_id":"free"},{"bike_id":"b6684eb6-42db-49c6-acdd-10132acf1f69","system_id":"levelo_inurba_marseille","lat":43.25583,"lon":5.38251,"is_reserved":false,"is_disabled":false,"rental_uris":{"android":"levelo://app?vid=b6684eb6-42db-49c6-acdd-10132acf1f69","ios":"levelo://app?vid=b6684eb6-42db-49c6-acdd-10132acf1f69"},"vehicle_type_id":"4","last_reported":1702548464,"current_range_meters":18000,"station_id":"ce4bhih2rcd13ifvqfs0","pricing_plan_id":"free"},{"bike_id":"8f557714-b9bf-45e4-98f8-3a3cb7168749","system_id":"levelo_inurba_marseille","lat":43.25579,"lon":5.38225,"is_reserved":false,"is_disabled":false,"rental_uris":{"android":"levelo://app?vid=8f557714-b9bf-45e4-98f8-3a3cb7168749","ios":"levelo://app?vid=8f557714-b9bf-45e4-98f8-3a3cb7168749"},"vehicle_type_id":"4","last_reported":1702548464,"current_range_meters":20000,"station_id":"ce4bhih2rcd13ifvqfs0","pricing_plan_id":"free"},{"bike_id":"87cb0b1c-75b3-49d6-9519-1c68c428c070","system_id":"levelo_inurba_marseille","lat":43.25578,"lon":5.38226,"is_reserved":false,"is_disabled":false,"rental_uris":{"android":"levelo://app?vid=87cb0b1c-75b3-49d6-9519-1c68c428c070","ios":"levelo://app?vid=87cb0b1c-75b3-49d6-9519-1c68c428c070"},"vehicle_type_id":"4","last_reported":1702548464,"current_range_meters":17600,"station_id":"ce4bhih2rcd13ifvqfs0","pricing_plan_id":"free"},{"bike_id":"1afd3082-6432-4cd0-9128-f27f5d54c6d0","system_id":"levelo_inurba_marseille","lat":43.258224,"lon":5.394369,"is_reserved":false,"is_disabled":false,"rental_uris":{"android":"levelo://app?vid=1afd3082-6432-4cd0-9128-f27f5d54c6d0","ios":"levelo://app?vid=1afd3082-6432-4cd0-9128-f27f5d54c6d0"},"vehicle_type_id":"4","last_reported":1702548464,"current_range_meters":31200,"station_id":"ce4bhip2rcd13ifvqft0","pricing_plan_id":"free"},{"bike_id":"f092d85a-6977-41c0-ae0f-d2f6be91bd23","system_id":"levelo_inurba_marseille","lat":43.258224,"lon":5.394369,"is_reserved":false,"is_disabled":false,"rental_uris":{"android":"levelo://app?vid=f092d85a-6977-41c0-ae0f-d2f6be91bd23","ios":"levelo://app?vid=f092d85a-6977-41c0-ae0f-d2f6be91bd23"},"vehicle_type_id":"4","last_reported":1702548464,"current_range_meters":4800,"station_id":"ce4bhip2rcd13ifvqft0","pricing_plan_id":"free"},{"bike_id":"06d6d601-59a6-46ab-8f11-9731a90a8f61","system_id":"levelo_inurba_marseille","lat":43.25501,"lon":5.37651,"is_reserved":false,"is_disabled":false,"rental_uris":{"android":"levelo://app?vid=06d6d601-59a6-46ab-8f11-9731a90a8f61","ios":"levelo://app?vid=06d6d601-59a6-46ab-8f11-9731a90a8f61"},"vehicle_type_id":"4","last_reported":1702548464,"current_range_meters":20400,"station_id":"ce4bhh12rcd13ifvqff0","pricing_plan_id":"free"},{"bike_id":"8196ce98-9699-47f4-914f-236c98cf2440","system_id":"levelo_inurba_marseille","lat":43.254947,"lon":5.376454,"is_reserved":false,"is_disabled":false,"rental_uris":{"android":"levelo://app?vid=8196ce98-9699-47f4-914f-236c98cf2440","ios":"levelo://app?vid=8196ce98-9699-47f4-914f-236c98cf2440"},"vehicle_type_id":"4","last_reported":1702548464,"current_range_meters":30000,"station_id":"ce4bhh12rcd13ifvqff0","pricing_plan_id":"free"},{"bike_id":"b3778f4b-17a5-414d-a355-5d6709a05873","system_id":"levelo_inurba_marseille","lat":43.25388,"lon":5.38328,"is_reserved":false,"is_disabled":false,"rental_uris":{"android":"levelo://app?vid=b3778f4b-17a5-414d-a355-5d6709a05873","ios":"levelo://app?vid=b3778f4b-17a5-414d-a355-5d6709a05873"},"vehicle_type_id":"4","last_reported":1702548464,"current_range_meters":21200,"station_id":"","pricing_plan_id":"free"},{"bike_id":"e2b39af5-a034-487b-b118-bf2a5fde0eeb","system_id":"levelo_inurba_marseille","lat":43.259009,"lon":5.40929,"is_reserved":false,"is_disabled":false,"rental_uris":{"android":"levelo://app?vid=e2b39af5-a034-487b-b118-bf2a5fde0eeb","ios":"levelo://app?vid=e2b39af5-a034-487b-b118-bf2a5fde0eeb"},"vehicle_type_id":"4","last_reported":1702548464,"current_range_meters":22000,"station_id":"ce4bhm92rcd13ifvqglg","pricing_plan_id":"free"},{"bike_id":"5df306f0-6c4c-4d4f-a5df-785fbc76a77f","system_id":"levelo_inurba_marseille","lat":43.250023,"lon":5.38919,"is_reserved":false,"is_disabled":false,"rental_uris":{"android":"levelo://app?vid=5df306f0-6c4c-4d4f-a5df-785fbc76a77f","ios":"levelo://app?vid=5df306f0-6c4c-4d4f-a5df-785fbc76a77f"},"vehicle_type_id":"4","last_reported":1702548464,"current_range_meters":23200,"station_id":"ce4bhgp2rcd13ifvqfd0","pricing_plan_id":"free"},{"bike_id":"de38a4e7-ae00-47a7-807f-9c7db8ad31f4","system_id":"levelo_inurba_marseille","lat":43.24993,"lon":5.38923,"is_reserved":false,"is_disabled":false,"rental_uris":{"android":"levelo://app?vid=de38a4e7-ae00-47a7-807f-9c7db8ad31f4","ios":"levelo://app?vid=de38a4e7-ae00-47a7-807f-9c7db8ad31f4"},"vehicle_type_id":"4","last_reported":1702548464,"current_range_meters":19200,"station_id":"ce4bhgp2rcd13ifvqfd0","pricing_plan_id":"free"},{"bike_id":"a43ea9e9-96d9-40ea-8b56-bed80959eb8a","system_id":"levelo_inurba_marseille","lat":43.2479,"lon":5.374457,"is_reserved":false,"is_disabled":false,"rental_uris":{"android":"levelo://app?vid=a43ea9e9-96d9-40ea-8b56-bed80959eb8a","ios":"levelo://app?vid=a43ea9e9-96d9-40ea-8b56-bed80959eb8a"},"vehicle_type_id":"4","last_reported":1702548464,"current_range_meters":30000,"station_id":"ce4bhgh2rcd13ifvqfb0","pricing_plan_id":"free"},{"bike_id":"1022012f-ef0a-4d44-8d1a-317db95a2a85","system_id":"levelo_inurba_marseille","lat":43.2479,"lon":5.374457,"is_reserved":false,"is_disabled":false,"rental_uris":{"android":"levelo://app?vid=1022012f-ef0a-4d44-8d1a-317db95a2a85","ios":"levelo://app?vid=1022012f-ef0a-4d44-8d1a-317db95a2a85"},"vehicle_type_id":"4","last_reported":1702548464,"current_range_meters":13200,"station_id":"ce4bhgh2rcd13ifvqfb0","pricing_plan_id":"free"},{"bike_id":"bbab40c2-40c0-4d87-a6b5-10a6339d71e5","system_id":"levelo_inurba_marseille","lat":43.246461,"lon":5.389014,"is_reserved":false,"is_disabled":false,"rental_uris":{"android":"levelo://app?vid=bbab40c2-40c0-4d87-a6b5-10a6339d71e5","ios":"levelo://app?vid=bbab40c2-40c0-4d87-a6b5-10a6339d71e5"},"vehicle_type_id":"4","last_reported":1702548464,"current_range_meters":26400,"station_id":"ce4bhg12rcd13ifvqf60","pricing_plan_id":"free"},{"bike_id":"99416ee2-4d02-4ca9-9413-f1ebc361a373","system_id":"levelo_inurba_marseille","lat":43.245581,"lon":5.395069,"is_reserved":false,"is_disabled":false,"rental_uris":{"android":"levelo://app?vid=99416ee2-4d02-4ca9-9413-f1ebc361a373","ios":"levelo://app?vid=99416ee2-4d02-4ca9-9413-f1ebc361a373"},"vehicle_type_id":"4","last_reported":1702548464,"current_range_meters":18400,"station_id":"ce4bhlp2rcd13ifvqgjg","pricing_plan_id":"free"},{"bike_id":"ee40f195-e1e3-4db2-86f3-5750704ca69c","system_id":"levelo_inurba_marseille","lat":43.245581,"lon":5.395069,"is_reserved":false,"is_disabled":false,"rental_uris":{"android":"levelo://app?vid=ee40f195-e1e3-4db2-86f3-5750704ca69c","ios":"levelo://app?vid=ee40f195-e1e3-4db2-86f3-5750704ca69c"},"vehicle_type_id":"4","last_reported":1702548464,"current_range_meters":13200,"station_id":"ce4bhlp2rcd13ifvqgjg","pricing_plan_id":"free"},{"bike_id":"3f8ecba7-2fba-4620-9059-fc09999b9c19","system_id":"levelo_inurba_marseille","lat":43.24071,"lon":5.37762,"is_reserved":false,"is_disabled":false,"rental_uris":{"android":"levelo://app?vid=3f8ecba7-2fba-4620-9059-fc09999b9c19","ios":"levelo://app?vid=3f8ecba7-2fba-4620-9059-fc09999b9c19"},"vehicle_type_id":"4","last_reported":1702548464,"current_range_meters":20400,"station_id":"ce4bhnp2rcd13ifvqgvg","pricing_plan_id":"free"},{"bike_id":"d1e4ffa3-0a0a-4153-b85c-71ae60bb1e49","system_id":"levelo_inurba_marseille","lat":43.24071,"lon":5.37762,"is_reserved":false,"is_disabled":false,"rental_uris":{"android":"levelo://app?vid=d1e4ffa3-0a0a-4153-b85c-71ae60bb1e49","ios":"levelo://app?vid=d1e4ffa3-0a0a-4153-b85c-71ae60bb1e49"},"vehicle_type_id":"4","last_reported":1702548464,"current_range_meters":23200,"station_id":"ce4bhnp2rcd13ifvqgvg","pricing_plan_id":"free"},{"bike_id":"fd24137e-19ca-47c6-8f27-5ddcc02a51b7","system_id":"levelo_inurba_marseille","lat":43.239588,"lon":5.366238,"is_reserved":false,"is_disabled":false,"rental_uris":{"android":"levelo://app?vid=fd24137e-19ca-47c6-8f27-5ddcc02a51b7","ios":"levelo://app?vid=fd24137e-19ca-47c6-8f27-5ddcc02a51b7"},"vehicle_type_id":"4","last_reported":1702548464,"current_range_meters":31200,"station_id":"ce4bhi12rcd13ifvqfp0","pricing_plan_id":"free"},{"bike_id":"e38e9900-7f6a-498a-9915-2a1e73258f9e","system_id":"levelo_inurba_marseille","lat":43.239588,"lon":5.366238,"is_reserved":false,"is_disabled":false,"rental_uris":{"android":"levelo://app?vid=e38e9900-7f6a-498a-9915-2a1e73258f9e","ios":"levelo://app?vid=e38e9900-7f6a-498a-9915-2a1e73258f9e"},"vehicle_type_id":"4","last_reported":1702548464,"current_range_meters":14800,"station_id":"ce4bhi12rcd13ifvqfp0","pricing_plan_id":"free"},{"bike_id":"8a16f0e2-8e8c-48a7-bf83-d4d6aed8853b","system_id":"levelo_inurba_marseille","lat":43.239588,"lon":5.366238,"is_reserved":false,"is_disabled":false,"rental_uris":{"android":"levelo://app?vid=8a16f0e2-8e8c-48a7-bf83-d4d6aed8853b","ios":"levelo://app?vid=8a16f0e2-8e8c-48a7-bf83-d4d6aed8853b"},"vehicle_type_id":"4","last_reported":1702548464,"current_range_meters":26800,"station_id":"ce4bhi12rcd13ifvqfp0","pricing_plan_id":"free"},{"bike_id":"3b8d5fcd-8f99-47b2-a788-b7236d49b7ad","system_id":"levelo_inurba_marseille","lat":43.241782,"lon":5.397261,"is_reserved":false,"is_disabled":false,"rental_uris":{"android":"levelo://app?vid=3b8d5fcd-8f99-47b2-a788-b7236d49b7ad","ios":"levelo://app?vid=3b8d5fcd-8f99-47b2-a788-b7236d49b7ad"},"vehicle_type_id":"4","last_reported":1702548464,"current_range_meters":26400,"station_id":"ce4bhn12rcd13ifvqgpg","pricing_plan_id":"free"},{"bike_id":"065ae836-be92-4fe9-a603-2b3cc8022284","system_id":"levelo_inurba_marseille","lat":43.241782,"lon":5.397261,"is_reserved":false,"is_disabled":false,"rental_uris":{"android":"levelo://app?vid=065ae836-be92-4fe9-a603-2b3cc8022284","ios":"levelo://app?vid=065ae836-be92-4fe9-a603-2b3cc8022284"},"vehicle_type_id":"4","last_reported":1702548464,"current_range_meters":20000,"station_id":"ce4bhn12rcd13ifvqgpg","pricing_plan_id":"free"},{"bike_id":"46e85755-7f44-4770-9e69-88e3e5d2d0d4","system_id":"levelo_inurba_marseille","lat":43.231794,"lon":5.400052,"is_reserved":false,"is_disabled":false,"rental_uris":{"android":"levelo://app?vid=46e85755-7f44-4770-9e69-88e3e5d2d0d4","ios":"levelo://app?vid=46e85755-7f44-4770-9e69-88e3e5d2d0d4"},"vehicle_type_id":"4","last_reported":1702548464,"current_range_meters":17600,"station_id":"ce4bhn12rcd13ifvqgqg","pricing_plan_id":"free"},{"bike_id":"5d66a1e1-407e-43b7-8a1f-b43437a90341","system_id":"levelo_inurba_marseille","lat":43.231794,"lon":5.400052,"is_reserved":false,"is_disabled":false,"rental_uris":{"android":"levelo://app?vid=5d66a1e1-407e-43b7-8a1f-b43437a90341","ios":"levelo://app?vid=5d66a1e1-407e-43b7-8a1f-b43437a90341"},"vehicle_type_id":"4","last_reported":1702548464,"current_range_meters":31200,"station_id":"ce4bhn12rcd13ifvqgqg","pricing_plan_id":"free"},{"bike_id":"049d02e2-9958-4e13-bca6-c44732f291a9","system_id":"levelo_inurba_marseille","lat":43.231562,"lon":5.436933,"is_reserved":false,"is_disabled":false,"rental_uris":{"android":"levelo://app?vid=049d02e2-9958-4e13-bca6-c44732f291a9","ios":"levelo://app?vid=049d02e2-9958-4e13-bca6-c44732f291a9"},"vehicle_type_id":"4","last_reported":1702548464,"current_range_meters":8000,"station_id":"ce4bhmp2rcd13ifvqgog","pricing_plan_id":"free"},{"bike_id":"0f5119d3-99ee-4eca-86bf-ffe25c328d95","system_id":"levelo_inurba_marseille","lat":43.231562,"lon":5.436933,"is_reserved":false,"is_disabled":false,"rental_uris":{"android":"levelo://app?vid=0f5119d3-99ee-4eca-86bf-ffe25c328d95","ios":"levelo://app?vid=0f5119d3-99ee-4eca-86bf-ffe25c328d95"},"vehicle_type_id":"4","last_reported":1702548464,"current_range_meters":24800,"station_id":"ce4bhmp2rcd13ifvqgog","pricing_plan_id":"free"},{"bike_id":"8cbffd70-1c71-4ae7-8282-3bf4479ed0ee","system_id":"levelo_inurba_marseille","lat":43.23154,"lon":5.43716,"is_reserved":false,"is_disabled":false,"rental_uris":{"android":"levelo://app?vid=8cbffd70-1c71-4ae7-8282-3bf4479ed0ee","ios":"levelo://app?vid=8cbffd70-1c71-4ae7-8282-3bf4479ed0ee"},"vehicle_type_id":"4","last_reported":1702548464,"current_range_meters":10800,"station_id":"ce4bhmp2rcd13ifvqgog","pricing_plan_id":"free"},{"bike_id":"6016208a-e6f9-4246-9258-6df793e310a7","system_id":"levelo_inurba_marseille","lat":43.231562,"lon":5.436933,"is_reserved":false,"is_disabled":false,"rental_uris":{"android":"levelo://app?vid=6016208a-e6f9-4246-9258-6df793e310a7","ios":"levelo://app?vid=6016208a-e6f9-4246-9258-6df793e310a7"},"vehicle_type_id":"4","last_reported":1702548464,"current_range_meters":15200,"station_id":"ce4bhmp2rcd13ifvqgog","pricing_plan_id":"free"},{"bike_id":"7031c03b-3bfa-4baa-9211-167183c251e6","system_id":"levelo_inurba_marseille","lat":43.23154,"lon":5.43717,"is_reserved":false,"is_disabled":false,"rental_uris":{"android":"levelo://app?vid=7031c03b-3bfa-4baa-9211-167183c251e6","ios":"levelo://app?vid=7031c03b-3bfa-4baa-9211-167183c251e6"},"vehicle_type_id":"4","last_reported":1702548464,"current_range_meters":25200,"station_id":"ce4bhmp2rcd13ifvqgog","pricing_plan_id":"free"},{"bike_id":"76fcf11d-04ed-4c3c-bb8e-807e5fae03f7","system_id":"levelo_inurba_marseille","lat":43.231562,"lon":5.436933,"is_reserved":false,"is_disabled":false,"rental_uris":{"android":"levelo://app?vid=76fcf11d-04ed-4c3c-bb8e-807e5fae03f7","ios":"levelo://app?vid=76fcf11d-04ed-4c3c-bb8e-807e5fae03f7"},"vehicle_type_id":"4","last_reported":1702548464,"current_range_meters":26000,"station_id":"ce4bhmp2rcd13ifvqgog","pricing_plan_id":"free"},{"bike_id":"ea1d44ce-ecda-408e-b7cd-e4e9e704b3fe","system_id":"levelo_inurba_marseille","lat":43.231562,"lon":5.436933,"is_reserved":false,"is_disabled":false,"rental_uris":{"android":"levelo://app?vid=ea1d44ce-ecda-408e-b7cd-e4e9e704b3fe","ios":"levelo://app?vid=ea1d44ce-ecda-408e-b7cd-e4e9e704b3fe"},"vehicle_type_id":"4","last_reported":1702548464,"current_range_meters":24000,"station_id":"ce4bhmp2rcd13ifvqgog","pricing_plan_id":"free"},{"bike_id":"c7667cbb-4ebc-4ff0-8cc3-d90f64a1a989","system_id":"levelo_inurba_marseille","lat":43.231562,"lon":5.436933,"is_reserved":false,"is_disabled":false,"rental_uris":{"android":"levelo://app?vid=c7667cbb-4ebc-4ff0-8cc3-d90f64a1a989","ios":"levelo://app?vid=c7667cbb-4ebc-4ff0-8cc3-d90f64a1a989"},"vehicle_type_id":"4","last_reported":1702548464,"current_range_meters":30800,"station_id":"ce4bhmp2rcd13ifvqgog","pricing_plan_id":"free"}]}}