{"last_updated":1690740402,"ttl":30,"version":"2.2","data":{"bikes":[{"bike_id":"e526d4e2-849c-44ae-a0d7-5572a62df909","system_id":"levelo_inurba_marseille","lat":43.312239,"lon":5.368562,"is_reserved":false,"is_disabled":false,"rental_uris":{"android":"levelo://app?vid=e526d4e2-849c-44ae-a0d7-5572a62df909","ios":"levelo://app?vid=e526d4e2-849c-44ae-a0d7-5572a62df909"},"vehicle_type_id":"4","last_reported":1690740403,"current_range_meters":22400,"station_id":"ce4bgl92rcd13ifvqbq0","pricing_plan_id":"free"},{"bike_id":"387e0385-a89f-428f-b42b-973fa8b4f3fa","system_id":"levelo_inurba_marseille","lat":43.314811,"lon":5.373103,"is_reserved":false,"is_disabled":false,"rental_uris":{"android":"levelo://app?vid=387e0385-a89f-428f-b42b-973fa8b4f3fa","ios":"levelo://app?vid=387e0385-a89f-428f-b42b-973fa8b4f3fa"},"vehicle_type_id":"4","last_reported":1690740403,"current_range_meters":18000,"station_id":"ce4bgt12rcd13ifvqcd0","pricing_plan_id":"free"},{"bike_id":"5ab83c38-2d23-42c8-83a8-ca65b3cf5f6d","system_id":"levelo_inurba_marseille","lat":43.309039,"lon":5.371797,"is_reserved":false,"is_disabled":false,"rental_uris":{"android":"levelo://app?vid=5ab83c38-2d23-42c8-83a8-ca65b3cf5f6d","ios":"levelo://app?vid=5ab83c38-2d23-42c8-83a8-ca65b3cf5f6d"},"vehicle_type_id":"4","last_reported":1690740403,"current_range_meters":800,"station_id":"ce4bguh2rcd13ifvqckg","pricing_plan_id":"free"},{"bike_id":"37201168-481f-4b35-858b-1264eee94a6b","system_id":"levelo_inurba_marseille","lat":43.30595,"lon":5.37154,"is_reserved":false,"is_disabled":false,"rental_uris":{"android":"levelo://app?vid=37201168-481f-4b35-858b-1264eee94a6b","ios":"levelo://app?vid=37201168-481f-4b35-858b-1264eee94a6b"},"vehicle_type_id":"4","last_reported":1690740403,"current_range_meters":17600,"station_id":"","pricing_plan_id":"free"},{"bike_id":"f20ea888-8740-440b-bfeb-8eb2a7c1f652","system_id":"levelo_inurba_marseille","lat":43.305989,"lon":5.37225,"is_reserved":false,"is_disabled":false,"rental_uris":{"android":"levelo://app?vid=f20ea888-8740-440b-bfeb-8eb2a7c1f652","ios":"levelo://app?vid=f20ea888-8740-440b-bfeb-8eb2a7c1f652"},"vehicle_type_id":"4","last_reported":1690740403,"current_range_meters":24400,"station_id":"ce4bgqh2rcd13ifvqc4g","pricing_plan_id":"free"},{"bike_id":"64f5b622-f9b8-4350-bb97-a22a7bdc0f46","system_id":"levelo_inurba_marseille","lat":43.311125,"lon":5.377624,"is_reserved":false,"is_disabled":false,"rental_uris":{"android":"levelo://app?vid=64f5b622-f9b8-4350-bb97-a22a7bdc0f46","ios":"levelo://app?vid=64f5b622-f9b8-4350-bb97-a22a7bdc0f46"},"vehicle_type_id":"4","last_reported":1690740403,"current_range_meters":8000,"station_id":"ce4bgt92rcd13ifvqcg0","pricing_plan_id":"free"},{"bike_id":"f82e6c74-9c76-469c-a6fa-53fce827d21f","system_id":"levelo_inurba_marseille","lat":43.317075,"lon":5.377367,"is_reserved":false,"is_disabled":false,"rental_uris":{"android":"levelo://app?vid=f82e6c74-9c76-469c-a6fa-53fce827d21f","ios":"levelo://app?vid=f82e6c74-9c76-469c-a6fa-53fce827d21f"},"vehicle_type_id":"4","last_reported":1690740403,"current_range_meters":28400,"station_id":"ce4bgth2rcd13ifvqch0","pricing_plan_id":"free"},{"bike_id":"faf2c4c4-a88f-4e4f-9fd7-3bc59f517c6e","system_id":"levelo_inurba_marseille","lat":43.30968,"lon":5.37955,"is_reserved":false,"is_disabled":false,"rental_uris":{"android":"levelo://app?vid=faf2c4c4-a88f-4e4f-9fd7-3bc59f517c6e","ios":"levelo://app?vid=faf2c4c4-a88f-4e4f-9fd7-3bc59f517c6e"},"vehicle_type_id":"4","last_reported":1690740403,"current_range_meters":27600,"station_id":"","pricing_plan_id":"free"},{"bike_id":"9c1a6130-32ab-4254-82e7-e05de6b38888","system_id":"levelo_inurba_marseille","lat":43.315293,"lon":5.380349,"is_reserved":false,"is_disabled":false,"rental_uris":{"android":"levelo://app?vid=9c1a6130-32ab-4254-82e7-e05de6b38888","ios":"levelo://app?vid=9c1a6130-32ab-4254-82e7-e05de6b38888"},"vehicle_type_id":"4","last_reported":1690740403,"current_range_meters":24000,"station_id":"ce4bhsp2rcd13ifvqi50","pricing_plan_id":"free"},{"bike_id":"3ec2b989-e246-445e-a06d-d6b69c6625dc","system_id":"levelo_inurba_marseille","lat":43.315293,"lon":5.380349,"is_reserved":false,"is_disabled":false,"rental_uris":{"android":"levelo://app?vid=3ec2b989-e246-445e-a06d-d6b69c6625dc","ios":"levelo://app?vid=3ec2b989-e246-445e-a06d-d6b69c6625dc"},"vehicle_type_id":"4","last_reported":1690740403,"current_range_meters":18000,"station_id":"ce4bhsp2rcd13ifvqi50","pricing_plan_id":"free"},{"bike_id":"e53aed83-c0f4-4e20-a148-fb34729ce561","system_id":"levelo_inurba_marseille","lat":43.30084,"lon":5.36951,"is_reserved":false,"is_disabled":false,"rental_uris":{"android":"levelo://app?vid=e53aed83-c0f4-4e20-a148-fb34729ce561","ios":"levelo://app?vid=e53aed83-c0f4-4e20-a148-fb34729ce561"},"vehicle_type_id":"4","last_reported":1690740403,"current_range_meters":20000,"station_id":"","pricing_plan_id":"free"},{"bike_id":"cc218e5e-0049-466b-b408-97140d61d650","system_id":"levelo_inurba_marseille","lat":43.302784,"lon":5.377158,"is_reserved":false,"is_disabled":false,"rental_uris":{"android":"levelo://app?vid=cc218e5e-0049-466b-b408-97140d61d650","ios":"levelo://app?vid=cc218e5e-0049-466b-b408-97140d61d650"},"vehicle_type_id":"4","last_reported":1690740403,"current_range_meters":15200,"station_id":"ce4bguh2rcd13ifvqcj0","pricing_plan_id":"free"},{"bike_id":"4f35c9e7-a8ce-4817-83d1-7dae8f34fee3","system_id":"levelo_inurba_marseille","lat":43.32003,"lon":5.38155,"is_reserved":false,"is_disabled":false,"rental_uris":{"android":"levelo://app?vid=4f35c9e7-a8ce-4817-83d1-7dae8f34fee3","ios":"levelo://app?vid=4f35c9e7-a8ce-4817-83d1-7dae8f34fee3"},"vehicle_type_id":"4","last_reported":1690740403,"current_range_meters":4800,"station_id":"ce4bhr12rcd13ifvqhpg","pricing_plan_id":"free"},{"bike_id":"95449424-a00c-4245-9133-655692c8a7e9","system_id":"levelo_inurba_marseille","lat":43.32005,"lon":5.381633,"is_reserved":false,"is_disabled":false,"rental_uris":{"android":"levelo://app?vid=95449424-a00c-4245-9133-655692c8a7e9","ios":"levelo://app?vid=95449424-a00c-4245-9133-655692c8a7e9"},"vehicle_type_id":"4","last_reported":1690740403,"current_range_meters":7600,"station_id":"ce4bhr12rcd13ifvqhpg","pricing_plan_id":"free"},{"bike_id":"6fcfba4f-e7d9-492a-9595-9e41287b056d","system_id":"levelo_inurba_marseille","lat":43.309589,"lon":5.390258,"is_reserved":false,"is_disabled":false,"rental_uris":{"android":"levelo://app?vid=6fcfba4f-e7d9-492a-9595-9e41287b056d","ios":"levelo://app?vid=6fcfba4f-e7d9-492a-9595-9e41287b056d"},"vehicle_type_id":"4","last_reported":1690740403,"current_range_meters":16000,"station_id":"ce4bgup2rcd13ifvqco0","pricing_plan_id":"free"},{"bike_id":"30537d43-af02-4a10-b928-7b9b8cf633d2","system_id":"levelo_inurba_marseille","lat":43.305364,"lon":5.384119,"is_reserved":false,"is_disabled":false,"rental_uris":{"android":"levelo://app?vid=30537d43-af02-4a10-b928-7b9b8cf633d2","ios":"levelo://app?vid=30537d43-af02-4a10-b928-7b9b8cf633d2"},"vehicle_type_id":"4","last_reported":1690740403,"current_range_meters":30000,"station_id":"ce4bgg92rcd13ifvqb30","pricing_plan_id":"free"},{"bike_id":"4f7b72de-7353-4491-a1bb-fc50f25e3bb1","system_id":"levelo_inurba_marseille","lat":43.311722,"lon":5.387247,"is_reserved":false,"is_disabled":false,"rental_uris":{"android":"levelo://app?vid=4f7b72de-7353-4491-a1bb-fc50f25e3bb1","ios":"levelo://app?vid=4f7b72de-7353-4491-a1bb-fc50f25e3bb1"},"vehicle_type_id":"4","last_reported":1690740403,"current_range_meters":27600,"station_id":"ce4bgv12rcd13ifvqcp0","pricing_plan_id":"free"},{"bike_id":"3b551b7d-674c-454a-92ac-ed6f9352d166","system_id":"levelo_inurba_marseille","lat":43.311722,"lon":5.387247,"is_reserved":false,"is_disabled":false,"rental_uris":{"android":"levelo://app?vid=3b551b7d-674c-454a-92ac-ed6f9352d166","ios":"levelo://app?vid=3b551b7d-674c-454a-92ac-ed6f9352d166"},"vehicle_type_id":"4","last_reported":1690740403,"current_range_meters":20800,"station_id":"ce4bgv12rcd13ifvqcp0","pricing_plan_id":"free"},{"bike_id":"fabd4f61-a1b9-4e79-a875-c396e44aab5c","system_id":"levelo_inurba_marseille","lat":43.311722,"lon":5.387247,"is_reserved":false,"is_disabled":false,"rental_uris":{"android":"levelo://app?vid=fabd4f61-a1b9-4e79-a875-c396e44aab5c","ios":"levelo://app?vid=fabd4f61-a1b9-4e79-a875-c396e44aab5c"},"vehicle_type_id":"4","last_reported":1690740403,"current_range_meters":28000,"station_id":"ce4bgv12rcd13ifvqcp0","pricing_plan_id":"free"},{"bike_id":"490a4039-415e-4102-b7f6-ea2674f2e93c","system_id":"levelo_inurba_marseille","lat":43.311722,"lon":5.387247,"is_reserved":false,"is_disabled":false,"rental_uris":{"android":"levelo://app?vid=490a4039-415e-4102-b7f6-ea2674f2e93c","ios":"levelo://app?vid=490a4039-415e-4102-b7f6-ea2674f2e93c"},"vehicle_type_id":"4","last_reported":1690740403,"current_range_meters":17200,"station_id":"ce4bgv12rcd13ifvqcp0","pricing_plan_id":"free"},{"bike_id":"31b59a2b-fc72-4204-ab59-4023c7994329","system_id":"levelo_inurba_marseille","lat":43.311722,"lon":5.387247,"is_reserved":false,"is_disabled":false,"rental_uris":{"android":"levelo://app?vid=31b59a2b-fc72-4204-ab59-4023c7994329","ios":"levelo://app?vid=31b59a2b-fc72-4204-ab59-4023c7994329"},"vehicle_type_id":"4","last_reported":1690740403,"current_range_meters":20800,"station_id":"ce4bgv12rcd13ifvqcp0","pricing_plan_id":"free"},{"bike_id":"e1fe9ed6-3076-4694-b411-397bd7584984","system_id":"levelo_inurba_marseille","lat":43.311722,"lon":5.387247,"is_reserved":false,"is_disabled":false,"rental_uris":{"android":"levelo://app?vid=e1fe9ed6-3076-4694-b411-397bd7584984","ios":"levelo://app?vid=e1fe9ed6-3076-4694-b411-397bd7584984"},"vehicle_type_id":"4","last_reported":1690740403,"current_range_meters":10400,"station_id":"ce4bgv12rcd13ifvqcp0","pricing_plan_id":"free"},{"bike_id":"b69c5160-b89c-49fa-94bd-bbe3ba3d141f","system_id":"levelo_inurba_marseille","lat":43.311722,"lon":5.387247,"is_reserved":false,"is_disabled":false,"rental_uris":{"android":"levelo://app?vid=b69c5160-b89c-49fa-94bd-bbe3ba3d141f","ios":"levelo://app?vid=b69c5160-b89c-49fa-94bd-bbe3ba3d141f"},"vehicle_type_id":"4","last_reported":1690740403,"current_range_meters":27200,"station_id":"ce4bgv12rcd13ifvqcp0","pricing_plan_id":"free"},{"bike_id":"a87c3d89-8ecc-4c20-a387-7842b25267e1","system_id":"levelo_inurba_marseille","lat":43.32296,"lon":5.38258,"is_reserved":false,"is_disabled":false,"rental_uris":{"android":"levelo://app?vid=a87c3d89-8ecc-4c20-a387-7842b25267e1","ios":"levelo://app?vid=a87c3d89-8ecc-4c20-a387-7842b25267e1"},"vehicle_type_id":"4","last_reported":1690740403,"current_range_meters":28000,"station_id":"ce4bhr12rcd13ifvqhqg","pricing_plan_id":"free"},{"bike_id":"79bf6da4-5f08-488b-96b1-6e23f74ec5ec","system_id":"levelo_inurba_marseille","lat":43.32299,"lon":5.38255,"is_reserved":false,"is_disabled":false,"rental_uris":{"android":"levelo://app?vid=79bf6da4-5f08-488b-96b1-6e23f74ec5ec","ios":"levelo://app?vid=79bf6da4-5f08-488b-96b1-6e23f74ec5ec"},"vehicle_type_id":"4","last_reported":1690740403,"current_range_meters":31200,"station_id":"ce4bhr12rcd13ifvqhqg","pricing_plan_id":"free"},{"bike_id":"a196dbb0-0ca2-44b0-8b03-b7d3a734d20c","system_id":"levelo_inurba_marseille","lat":43.322872,"lon":5.382756,"is_reserved":false,"is_disabled":false,"rental_uris":{"android":"levelo://app?vid=a196dbb0-0ca2-44b0-8b03-b7d3a734d20c","ios":"levelo://app?vid=a196dbb0-0ca2-44b0-8b03-b7d3a734d20c"},"vehicle_type_id":"4","last_reported":1690740403,"current_range_meters":23600,"station_id":"ce4bhr12rcd13ifvqhqg","pricing_plan_id":"free"},{"bike_id":"82f1e03d-e4c3-4aac-b6f0-c9fc3950fe62","system_id":"levelo_inurba_marseille","lat":43.322919,"lon":5.382674,"is_reserved":false,"is_disabled":false,"rental_uris":{"android":"levelo://app?vid=82f1e03d-e4c3-4aac-b6f0-c9fc3950fe62","ios":"levelo://app?vid=82f1e03d-e4c3-4aac-b6f0-c9fc3950fe62"},"vehicle_type_id":"4","last_reported":1690740403,"current_range_meters":20000,"station_id":"","pricing_plan_id":"free"},{"bike_id":"aff0017d-8d19-4b8c-8490-dfc322af04d7","system_id":"levelo_inurba_marseille","lat":43.32291,"lon":5.38269,"is_reserved":false,"is_disabled":false,"rental_uris":{"android":"levelo://app?vid=aff0017d-8d19-4b8c-8490-dfc322af04d7","ios":"levelo://app?vid=aff0017d-8d19-4b8c-8490-dfc322af04d7"},"vehicle_type_id":"4","last_reported":1690740403,"current_range_meters":31200,"station_id":"ce4bhr12rcd13ifvqhqg","pricing_plan_id":"free"},{"bike_id":"dd789220-e7b5-42c1-b9dc-dc4243148021","system_id":"levelo_inurba_marseille","lat":43.297163,"lon":5.365866,"is_reserved":false,"is_disabled":false,"rental_uris":{"android":"levelo://app?vid=dd789220-e7b5-42c1-b9dc-dc4243148021","ios":"levelo://app?vid=dd789220-e7b5-42c1-b9dc-dc4243148021"},"vehicle_type_id":"4","last_reported":1690740403,"current_range_meters":31200,"station_id":"ce4bgn12rcd13ifvqbt0","pricing_plan_id":"free"},{"bike_id":"01a92df2-30d8-4d69-b89b-17d687523372","system_id":"levelo_inurba_marseille","lat":43.296935,"lon":5.376544,"is_reserved":false,"is_disabled":false,"rental_uris":{"android":"levelo://app?vid=01a92df2-30d8-4d69-b89b-17d687523372","ios":"levelo://app?vid=01a92df2-30d8-4d69-b89b-17d687523372"},"vehicle_type_id":"4","last_reported":1690740403,"current_range_meters":0,"station_id":"ce4bgkh2rcd13ifvqbl0","pricing_plan_id":"free"},{"bike_id":"cf411e02-e758-4911-8564-cb72baaf55c7","system_id":"levelo_inurba_marseille","lat":43.296935,"lon":5.376544,"is_reserved":false,"is_disabled":false,"rental_uris":{"android":"levelo://app?vid=cf411e02-e758-4911-8564-cb72baaf55c7","ios":"levelo://app?vid=cf411e02-e758-4911-8564-cb72baaf55c7"},"vehicle_type_id":"4","last_reported":1690740403,"current_range_meters":20000,"station_id":"ce4bgkh2rcd13ifvqbl0","pricing_plan_id":"free"},{"bike_id":"b5ab0d1a-c121-4dae-a4da-4a74467b67aa","system_id":"levelo_inurba_marseille","lat":43.296921,"lon":5.376579,"is_reserved":false,"is_disabled":false,"rental_uris":{"android":"levelo://app?vid=b5ab0d1a-c121-4dae-a4da-4a74467b67aa","ios":"levelo://app?vid=b5ab0d1a-c121-4dae-a4da-4a74467b67aa"},"vehicle_type_id":"4","last_reported":1690740403,"current_range_meters":14800,"station_id":"ce4bgkh2rcd13ifvqbl0","pricing_plan_id":"free"},{"bike_id":"f0b1921d-8fc5-42f6-8214-26455e772ce5","system_id":"levelo_inurba_marseille","lat":43.309589,"lon":5.390258,"is_reserved":false,"is_disabled":false,"rental_uris":{"android":"levelo://app?vid=f0b1921d-8fc5-42f6-8214-26455e772ce5","ios":"levelo://app?vid=f0b1921d-8fc5-42f6-8214-26455e772ce5"},"vehicle_type_id":"4","last_reported":1690740403,"current_range_meters":28000,"station_id":"ce4bgup2rcd13ifvqco0","pricing_plan_id":"free"},{"bike_id":"d7d4ce60-80f4-43da-8443-98e2248587e6","system_id":"levelo_inurba_marseille","lat":43.317557,"lon":5.390173,"is_reserved":false,"is_disabled":false,"rental_uris":{"android":"levelo://app?vid=d7d4ce60-80f4-43da-8443-98e2248587e6","ios":"levelo://app?vid=d7d4ce60-80f4-43da-8443-98e2248587e6"},"vehicle_type_id":"4","last_reported":1690740403,"current_range_meters":23600,"station_id":"ce4bhqp2rcd13ifvqhng","pricing_plan_id":"free"},{"bike_id":"ae41f180-b2df-42a0-8bad-65bfb9af75de","system_id":"levelo_inurba_marseille","lat":43.30433,"lon":5.38886,"is_reserved":false,"is_disabled":false,"rental_uris":{"android":"levelo://app?vid=ae41f180-b2df-42a0-8bad-65bfb9af75de","ios":"levelo://app?vid=ae41f180-b2df-42a0-8bad-65bfb9af75de"},"vehicle_type_id":"4","last_reported":1690740403,"current_range_meters":14400,"station_id":"ce4bgk12rcd13ifvqbi0","pricing_plan_id":"free"},{"bike_id":"b121f626-0fcd-4e79-924f-1f5300ce5e15","system_id":"levelo_inurba_marseille","lat":43.298037,"lon":5.381066,"is_reserved":false,"is_disabled":false,"rental_uris":{"android":"levelo://app?vid=b121f626-0fcd-4e79-924f-1f5300ce5e15","ios":"levelo://app?vid=b121f626-0fcd-4e79-924f-1f5300ce5e15"},"vehicle_type_id":"4","last_reported":1690740403,"current_range_meters":22800,"station_id":"ce4bgip2rcd13ifvqbb0","pricing_plan_id":"free"},{"bike_id":"b67e5053-ec61-485e-84bd-df5ba1544170","system_id":"levelo_inurba_marseille","lat":43.29774,"lon":5.38121,"is_reserved":false,"is_disabled":false,"rental_uris":{"android":"levelo://app?vid=b67e5053-ec61-485e-84bd-df5ba1544170","ios":"levelo://app?vid=b67e5053-ec61-485e-84bd-df5ba1544170"},"vehicle_type_id":"4","last_reported":1690740403,"current_range_meters":14400,"station_id":"ce4bgip2rcd13ifvqbb0","pricing_plan_id":"free"},{"bike_id":"c1e8aca1-b3ae-41f8-a8c9-93237a759f78","system_id":"levelo_inurba_marseille","lat":43.299707,"lon":5.384859,"is_reserved":false,"is_disabled":false,"rental_uris":{"android":"levelo://app?vid=c1e8aca1-b3ae-41f8-a8c9-93237a759f78","ios":"levelo://app?vid=c1e8aca1-b3ae-41f8-a8c9-93237a759f78"},"vehicle_type_id":"4","last_reported":1690740403,"current_range_meters":0,"station_id":"ce4bgj92rcd13ifvqbd0","pricing_plan_id":"free"},{"bike_id":"eeb263b1-85bf-45c1-9ae9-d4f39665097c","system_id":"levelo_inurba_marseille","lat":43.32367,"lon":5.388836,"is_reserved":false,"is_disabled":false,"rental_uris":{"android":"levelo://app?vid=eeb263b1-85bf-45c1-9ae9-d4f39665097c","ios":"levelo://app?vid=eeb263b1-85bf-45c1-9ae9-d4f39665097c"},"vehicle_type_id":"4","last_reported":1690740403,"current_range_meters":21200,"station_id":"ce4bhqp2rcd13ifvqhog","pricing_plan_id":"free"},{"bike_id":"d6268ade-21df-460f-aaea-6e4a09b78f23","system_id":"levelo_inurba_marseille","lat":43.32369,"lon":5.38886,"is_reserved":false,"is_disabled":false,"rental_uris":{"android":"levelo://app?vid=d6268ade-21df-460f-aaea-6e4a09b78f23","ios":"levelo://app?vid=d6268ade-21df-460f-aaea-6e4a09b78f23"},"vehicle_type_id":"4","last_reported":1690740403,"current_range_meters":3600,"station_id":"ce4bhqp2rcd13ifvqhog","pricing_plan_id":"free"},{"bike_id":"97698f66-65f2-48c9-88ed-016f09f0a1e6","system_id":"levelo_inurba_marseille","lat":43.293249,"lon":5.371578,"is_reserved":false,"is_disabled":false,"rental_uris":{"android":"levelo://app?vid=97698f66-65f2-48c9-88ed-016f09f0a1e6","ios":"levelo://app?vid=97698f66-65f2-48c9-88ed-016f09f0a1e6"},"vehicle_type_id":"4","last_reported":1690740403,"current_range_meters":18000,"station_id":"ce4bgh92rcd13ifvqb40","pricing_plan_id":"free"},{"bike_id":"cabe560a-d9ea-49f6-97f7-3b62786cb30a","system_id":"levelo_inurba_marseille","lat":43.292749,"lon":5.368398,"is_reserved":false,"is_disabled":false,"rental_uris":{"android":"levelo://app?vid=cabe560a-d9ea-49f6-97f7-3b62786cb30a","ios":"levelo://app?vid=cabe560a-d9ea-49f6-97f7-3b62786cb30a"},"vehicle_type_id":"4","last_reported":1690740403,"current_range_meters":21200,"station_id":"ce4bhbp2rcd13ifvqesg","pricing_plan_id":"free"},{"bike_id":"67c03f51-be79-416e-a04c-2dd7bcee2886","system_id":"levelo_inurba_marseille","lat":43.305994,"lon":5.393687,"is_reserved":false,"is_disabled":false,"rental_uris":{"android":"levelo://app?vid=67c03f51-be79-416e-a04c-2dd7bcee2886","ios":"levelo://app?vid=67c03f51-be79-416e-a04c-2dd7bcee2886"},"vehicle_type_id":"4","last_reported":1690740403,"current_range_meters":8800,"station_id":"ce4bh0p2rcd13ifvqd80","pricing_plan_id":"free"},{"bike_id":"aa20147c-af57-4502-9b64-3a65c4110fe5","system_id":"levelo_inurba_marseille","lat":43.305994,"lon":5.393687,"is_reserved":false,"is_disabled":false,"rental_uris":{"android":"levelo://app?vid=aa20147c-af57-4502-9b64-3a65c4110fe5","ios":"levelo://app?vid=aa20147c-af57-4502-9b64-3a65c4110fe5"},"vehicle_type_id":"4","last_reported":1690740403,"current_range_meters":26800,"station_id":"ce4bh0p2rcd13ifvqd80","pricing_plan_id":"free"},{"bike_id":"042f52a7-b33a-473e-8099-339ccd7aad8d","system_id":"levelo_inurba_marseille","lat":43.293009,"lon":5.374584,"is_reserved":false,"is_disabled":false,"rental_uris":{"android":"levelo://app?vid=042f52a7-b33a-473e-8099-339ccd7aad8d","ios":"levelo://app?vid=042f52a7-b33a-473e-8099-339ccd7aad8d"},"vehicle_type_id":"4","last_reported":1690740403,"current_range_meters":0,"station_id":"ce4bgi12rcd13ifvqb70","pricing_plan_id":"free"},{"bike_id":"39b87462-2b9c-4d98-8644-248d2b167817","system_id":"levelo_inurba_marseille","lat":43.30304,"lon":5.39209,"is_reserved":false,"is_disabled":false,"rental_uris":{"android":"levelo://app?vid=39b87462-2b9c-4d98-8644-248d2b167817","ios":"levelo://app?vid=39b87462-2b9c-4d98-8644-248d2b167817"},"vehicle_type_id":"4","last_reported":1690740403,"current_range_meters":13600,"station_id":"ce4bgkh2rcd13ifvqbk0","pricing_plan_id":"free"},{"bike_id":"bf435865-a058-472a-8502-e260b60c7e45","system_id":"levelo_inurba_marseille","lat":43.30307,"lon":5.39212,"is_reserved":false,"is_disabled":false,"rental_uris":{"android":"levelo://app?vid=bf435865-a058-472a-8502-e260b60c7e45","ios":"levelo://app?vid=bf435865-a058-472a-8502-e260b60c7e45"},"vehicle_type_id":"4","last_reported":1690740403,"current_range_meters":18800,"station_id":"ce4bgkh2rcd13ifvqbk0","pricing_plan_id":"free"},{"bike_id":"226121fa-6d96-4f1a-b994-a7cf684cbd72","system_id":"levelo_inurba_marseille","lat":43.30304,"lon":5.39211,"is_reserved":false,"is_disabled":false,"rental_uris":{"android":"levelo://app?vid=226121fa-6d96-4f1a-b994-a7cf684cbd72","ios":"levelo://app?vid=226121fa-6d96-4f1a-b994-a7cf684cbd72"},"vehicle_type_id":"4","last_reported":1690740403,"current_range_meters":0,"station_id":"ce4bgkh2rcd13ifvqbk0","pricing_plan_id":"free"},{"bike_id":"a380f500-59a0-4a1d-b980-b4bf17988dc4","system_id":"levelo_inurba_marseille","lat":43.30294,"lon":5.39209,"is_reserved":false,"is_disabled":false,"rental_uris":{"android":"levelo://app?vid=a380f500-59a0-4a1d-b980-b4bf17988dc4","ios":"levelo://app?vid=a380f500-59a0-4a1d-b980-b4bf17988dc4"},"vehicle_type_id":"4","last_reported":1690740403,"current_range_meters":20000,"station_id":"ce4bgkh2rcd13ifvqbk0","pricing_plan_id":"free"},{"bike_id":"9592ea96-7154-4a67-bfe6-f6cf18e45877","system_id":"levelo_inurba_marseille","lat":43.30295,"lon":5.39212,"is_reserved":false,"is_disabled":false,"rental_uris":{"android":"levelo://app?vid=9592ea96-7154-4a67-bfe6-f6cf18e45877","ios":"levelo://app?vid=9592ea96-7154-4a67-bfe6-f6cf18e45877"},"vehicle_type_id":"4","last_reported":1690740403,"current_range_meters":18800,"station_id":"ce4bgkh2rcd13ifvqbk0","pricing_plan_id":"free"},{"bike_id":"827512e9-6253-4bd3-a85e-b147cbd09836","system_id":"levelo_inurba_marseille","lat":43.30085,"lon":5.390856,"is_reserved":false,"is_disabled":false,"rental_uris":{"android":"levelo://app?vid=827512e9-6253-4bd3-a85e-b147cbd09836","ios":"levelo://app?vid=827512e9-6253-4bd3-a85e-b147cbd09836"},"vehicle_type_id":"4","last_reported":1690740403,"current_range_meters":12800,"station_id":"ce4bh192rcd13ifvqdb0","pricing_plan_id":"free"},{"bike_id":"c0eb2e17-f5d1-4608-96cb-69850c9e7629","system_id":"levelo_inurba_marseille","lat":43.298764,"lon":5.388973,"is_reserved":false,"is_disabled":false,"rental_uris":{"android":"levelo://app?vid=c0eb2e17-f5d1-4608-96cb-69850c9e7629","ios":"levelo://app?vid=c0eb2e17-f5d1-4608-96cb-69850c9e7629"},"vehicle_type_id":"4","last_reported":1690740403,"current_range_meters":12800,"station_id":"ce4bh392rcd13ifvqdl0","pricing_plan_id":"free"},{"bike_id":"863be538-aca5-4215-a74f-279061f1ea3a","system_id":"levelo_inurba_marseille","lat":43.29529,"lon":5.385581,"is_reserved":false,"is_disabled":false,"rental_uris":{"android":"levelo://app?vid=863be538-aca5-4215-a74f-279061f1ea3a","ios":"levelo://app?vid=863be538-aca5-4215-a74f-279061f1ea3a"},"vehicle_type_id":"4","last_reported":1690740403,"current_range_meters":18000,"station_id":"ce4bgih2rcd13ifvqba0","pricing_plan_id":"free"},{"bike_id":"700f93cb-6d06-46a1-a7f7-0fc5d03925b7","system_id":"levelo_inurba_marseille","lat":43.29529,"lon":5.385581,"is_reserved":false,"is_disabled":false,"rental_uris":{"android":"levelo://app?vid=700f93cb-6d06-46a1-a7f7-0fc5d03925b7","ios":"levelo://app?vid=700f93cb-6d06-46a1-a7f7-0fc5d03925b7"},"vehicle_type_id":"4","last_reported":1690740403,"current_range_meters":22400,"station_id":"ce4bgih2rcd13ifvqba0","pricing_plan_id":"free"},{"bike_id":"697cb2dc-5c18-41c3-b185-3da266d2ba67","system_id":"levelo_inurba_marseille","lat":43.29191,"lon":5.35715,"is_reserved":false,"is_disabled":false,"rental_uris":{"android":"levelo://app?vid=697cb2dc-5c18-41c3-b185-3da266d2ba67","ios":"levelo://app?vid=697cb2dc-5c18-41c3-b185-3da266d2ba67"},"vehicle_type_id":"4","last_reported":1690740403,"current_range_meters":24000,"station_id":"ce4bhb12rcd13ifvqel0","pricing_plan_id":"free"},{"bike_id":"7fc73175-f2dc-4747-a315-4da7447ca6ec","system_id":"levelo_inurba_marseille","lat":43.29529,"lon":5.385581,"is_reserved":false,"is_disabled":false,"rental_uris":{"android":"levelo://app?vid=7fc73175-f2dc-4747-a315-4da7447ca6ec","ios":"levelo://app?vid=7fc73175-f2dc-4747-a315-4da7447ca6ec"},"vehicle_type_id":"4","last_reported":1690740403,"current_range_meters":24400,"station_id":"ce4bgih2rcd13ifvqba0","pricing_plan_id":"free"},{"bike_id":"9d780a25-c783-444e-8072-25b892d50f61","system_id":"levelo_inurba_marseille","lat":43.29528,"lon":5.38536,"is_reserved":false,"is_disabled":false,"rental_uris":{"android":"levelo://app?vid=9d780a25-c783-444e-8072-25b892d50f61","ios":"levelo://app?vid=9d780a25-c783-444e-8072-25b892d50f61"},"vehicle_type_id":"4","last_reported":1690740403,"current_range_meters":0,"station_id":"ce4bgih2rcd13ifvqba0","pricing_plan_id":"free"},{"bike_id":"b5f4db1c-3920-4d79-989a-06bfb2a96494","system_id":"levelo_inurba_marseille","lat":43.29528,"lon":5.38537,"is_reserved":false,"is_disabled":false,"rental_uris":{"android":"levelo://app?vid=b5f4db1c-3920-4d79-989a-06bfb2a96494","ios":"levelo://app?vid=b5f4db1c-3920-4d79-989a-06bfb2a96494"},"vehicle_type_id":"4","last_reported":1690740403,"current_range_meters":14800,"station_id":"","pricing_plan_id":"free"},{"bike_id":"b6d23b0c-872a-4226-a0bb-d099b6292c7d","system_id":"levelo_inurba_marseille","lat":43.295282,"lon":5.385403,"is_reserved":false,"is_disabled":false,"rental_uris":{"android":"levelo://app?vid=b6d23b0c-872a-4226-a0bb-d099b6292c7d","ios":"levelo://app?vid=b6d23b0c-872a-4226-a0bb-d099b6292c7d"},"vehicle_type_id":"4","last_reported":1690740403,"current_range_meters":8400,"station_id":"ce4bgih2rcd13ifvqba0","pricing_plan_id":"free"},{"bike_id":"f1926456-fc7c-49fa-95b8-10e53a11ff3e","system_id":"levelo_inurba_marseille","lat":43.29523,"lon":5.38536,"is_reserved":false,"is_disabled":false,"rental_uris":{"android":"levelo://app?vid=f1926456-fc7c-49fa-95b8-10e53a11ff3e","ios":"levelo://app?vid=f1926456-fc7c-49fa-95b8-10e53a11ff3e"},"vehicle_type_id":"4","last_reported":1690740403,"current_range_meters":0,"station_id":"ce4bgih2rcd13ifvqba0","pricing_plan_id":"free"},{"bike_id":"bf903d8d-b76e-4a62-bed7-2892c6e9730a","system_id":"levelo_inurba_marseille","lat":43.302008,"lon":5.394694,"is_reserved":false,"is_disabled":false,"rental_uris":{"android":"levelo://app?vid=bf903d8d-b76e-4a62-bed7-2892c6e9730a","ios":"levelo://app?vid=bf903d8d-b76e-4a62-bed7-2892c6e9730a"},"vehicle_type_id":"4","last_reported":1690740403,"current_range_meters":12400,"station_id":"ce4bh0p2rcd13ifvqd70","pricing_plan_id":"free"},{"bike_id":"756da559-096d-4f5a-88b5-b9b8437bc540","system_id":"levelo_inurba_marseille","lat":43.294162,"lon":5.386292,"is_reserved":false,"is_disabled":false,"rental_uris":{"android":"levelo://app?vid=756da559-096d-4f5a-88b5-b9b8437bc540","ios":"levelo://app?vid=756da559-096d-4f5a-88b5-b9b8437bc540"},"vehicle_type_id":"4","last_reported":1690740403,"current_range_meters":22400,"station_id":"ce4bh2h2rcd13ifvqdh0","pricing_plan_id":"free"},{"bike_id":"0f73b616-0c7c-4479-98ca-a2005aece322","system_id":"levelo_inurba_marseille","lat":43.294153,"lon":5.386305,"is_reserved":false,"is_disabled":false,"rental_uris":{"android":"levelo://app?vid=0f73b616-0c7c-4479-98ca-a2005aece322","ios":"levelo://app?vid=0f73b616-0c7c-4479-98ca-a2005aece322"},"vehicle_type_id":"4","last_reported":1690740403,"current_range_meters":2000,"station_id":"ce4bh2h2rcd13ifvqdh0","pricing_plan_id":"free"},{"bike_id":"160e8980-b636-4ff9-a7f3-c235adcf83f7","system_id":"levelo_inurba_marseille","lat":43.294153,"lon":5.386305,"is_reserved":false,"is_disabled":false,"rental_uris":{"android":"levelo://app?vid=160e8980-b636-4ff9-a7f3-c235adcf83f7","ios":"levelo://app?vid=160e8980-b636-4ff9-a7f3-c235adcf83f7"},"vehicle_type_id":"4","last_reported":1690740403,"current_range_meters":18000,"station_id":"ce4bh2h2rcd13ifvqdh0","pricing_plan_id":"free"},{"bike_id":"fdf87e08-e64f-4cda-a2c2-64e1f9f6bc72","system_id":"levelo_inurba_marseille","lat":43.289184,"lon":5.366408,"is_reserved":false,"is_disabled":false,"rental_uris":{"android":"levelo://app?vid=fdf87e08-e64f-4cda-a2c2-64e1f9f6bc72","ios":"levelo://app?vid=fdf87e08-e64f-4cda-a2c2-64e1f9f6bc72"},"vehicle_type_id":"4","last_reported":1690740403,"current_range_meters":24800,"station_id":"ce4bhap2rcd13ifvqek0","pricing_plan_id":"free"},{"bike_id":"b3064c09-09bc-4e0f-b3aa-dd0d2ec7a41b","system_id":"levelo_inurba_marseille","lat":43.294162,"lon":5.386292,"is_reserved":false,"is_disabled":false,"rental_uris":{"android":"levelo://app?vid=b3064c09-09bc-4e0f-b3aa-dd0d2ec7a41b","ios":"levelo://app?vid=b3064c09-09bc-4e0f-b3aa-dd0d2ec7a41b"},"vehicle_type_id":"4","last_reported":1690740403,"current_range_meters":22800,"station_id":"ce4bh2h2rcd13ifvqdh0","pricing_plan_id":"free"},{"bike_id":"19c9144c-b565-49f2-af1f-f6776d031a25","system_id":"levelo_inurba_marseille","lat":43.290327,"lon":5.375711,"is_reserved":false,"is_disabled":false,"rental_uris":{"android":"levelo://app?vid=19c9144c-b565-49f2-af1f-f6776d031a25","ios":"levelo://app?vid=19c9144c-b565-49f2-af1f-f6776d031a25"},"vehicle_type_id":"4","last_reported":1690740403,"current_range_meters":20000,"station_id":"ce4bh692rcd13ifvqe90","pricing_plan_id":"free"},{"bike_id":"90727f2b-de06-4352-b8f6-76742096e3ee","system_id":"levelo_inurba_marseille","lat":43.292644,"lon":5.384257,"is_reserved":false,"is_disabled":false,"rental_uris":{"android":"levelo://app?vid=90727f2b-de06-4352-b8f6-76742096e3ee","ios":"levelo://app?vid=90727f2b-de06-4352-b8f6-76742096e3ee"},"vehicle_type_id":"4","last_reported":1690740403,"current_range_meters":26800,"station_id":"ce4bh692rcd13ifvqea0","pricing_plan_id":"free"},{"bike_id":"86ef0163-002b-4fd3-a1dc-edac01a8afdd","system_id":"levelo_inurba_marseille","lat":43.292644,"lon":5.384257,"is_reserved":false,"is_disabled":false,"rental_uris":{"android":"levelo://app?vid=86ef0163-002b-4fd3-a1dc-edac01a8afdd","ios":"levelo://app?vid=86ef0163-002b-4fd3-a1dc-edac01a8afdd"},"vehicle_type_id":"4","last_reported":1690740403,"current_range_meters":17200,"station_id":"ce4bh692rcd13ifvqea0","pricing_plan_id":"free"},{"bike_id":"0a36d92f-3dea-4012-a1a5-7d6826fb70e1","system_id":"levelo_inurba_marseille","lat":43.292642,"lon":5.384254,"is_reserved":false,"is_disabled":false,"rental_uris":{"android":"levelo://app?vid=0a36d92f-3dea-4012-a1a5-7d6826fb70e1","ios":"levelo://app?vid=0a36d92f-3dea-4012-a1a5-7d6826fb70e1"},"vehicle_type_id":"4","last_reported":1690740403,"current_range_meters":24400,"station_id":"ce4bh692rcd13ifvqea0","pricing_plan_id":"free"},{"bike_id":"db3083ee-51ff-4e0f-b8fa-611378876237","system_id":"levelo_inurba_marseille","lat":43.304296,"lon":5.397513,"is_reserved":false,"is_disabled":false,"rental_uris":{"android":"levelo://app?vid=db3083ee-51ff-4e0f-b8fa-611378876237","ios":"levelo://app?vid=db3083ee-51ff-4e0f-b8fa-611378876237"},"vehicle_type_id":"4","last_reported":1690740403,"current_range_meters":10800,"station_id":"ce4bh092rcd13ifvqd20","pricing_plan_id":"free"},{"bike_id":"316dc780-79a7-4a48-925a-1bb7b108529a","system_id":"levelo_inurba_marseille","lat":43.292642,"lon":5.384254,"is_reserved":false,"is_disabled":false,"rental_uris":{"android":"levelo://app?vid=316dc780-79a7-4a48-925a-1bb7b108529a","ios":"levelo://app?vid=316dc780-79a7-4a48-925a-1bb7b108529a"},"vehicle_type_id":"4","last_reported":1690740403,"current_range_meters":4400,"station_id":"ce4bh692rcd13ifvqea0","pricing_plan_id":"free"},{"bike_id":"5738edd5-1986-4c25-bd61-284c967a8bfb","system_id":"levelo_inurba_marseille","lat":43.2926,"lon":5.38448,"is_reserved":false,"is_disabled":false,"rental_uris":{"android":"levelo://app?vid=5738edd5-1986-4c25-bd61-284c967a8bfb","ios":"levelo://app?vid=5738edd5-1986-4c25-bd61-284c967a8bfb"},"vehicle_type_id":"4","last_reported":1690740403,"current_range_meters":21600,"station_id":"ce4bh692rcd13ifvqea0","pricing_plan_id":"free"},{"bike_id":"15826b93-93a4-4083-bb32-5201a2212194","system_id":"levelo_inurba_marseille","lat":43.3304,"lon":5.38918,"is_reserved":false,"is_disabled":false,"rental_uris":{"android":"levelo://app?vid=15826b93-93a4-4083-bb32-5201a2212194","ios":"levelo://app?vid=15826b93-93a4-4083-bb32-5201a2212194"},"vehicle_type_id":"4","last_reported":1690740403,"current_range_meters":30000,"station_id":"ce4bhr92rcd13ifvqhrg","pricing_plan_id":"free"},{"bike_id":"69a8e766-d630-406e-908c-1d835a36b4a5","system_id":"levelo_inurba_marseille","lat":43.290104,"lon":5.356111,"is_reserved":false,"is_disabled":false,"rental_uris":{"android":"levelo://app?vid=69a8e766-d630-406e-908c-1d835a36b4a5","ios":"levelo://app?vid=69a8e766-d630-406e-908c-1d835a36b4a5"},"vehicle_type_id":"4","last_reported":1690740403,"current_range_meters":12800,"station_id":"ce4bhb92rcd13ifvqen0","pricing_plan_id":"free"},{"bike_id":"134ef223-0af9-48f2-bbd1-4d84dd8cb35c","system_id":"levelo_inurba_marseille","lat":43.29009,"lon":5.35611,"is_reserved":false,"is_disabled":false,"rental_uris":{"android":"levelo://app?vid=134ef223-0af9-48f2-bbd1-4d84dd8cb35c","ios":"levelo://app?vid=134ef223-0af9-48f2-bbd1-4d84dd8cb35c"},"vehicle_type_id":"4","last_reported":1690740403,"current_range_meters":31200,"station_id":"ce4bhb92rcd13ifvqen0","pricing_plan_id":"free"},{"bike_id":"cbc2cbea-01e9-4203-9f6a-1e8c18a3926b","system_id":"levelo_inurba_marseille","lat":43.29009,"lon":5.35611,"is_reserved":false,"is_disabled":false,"rental_uris":{"android":"levelo://app?vid=cbc2cbea-01e9-4203-9f6a-1e8c18a3926b","ios":"levelo://app?vid=cbc2cbea-01e9-4203-9f6a-1e8c18a3926b"},"vehicle_type_id":"4","last_reported":1690740403,"current_range_meters":17600,"station_id":"ce4bhb92rcd13ifvqen0","pricing_plan_id":"free"},{"bike_id":"4031e07c-3812-4dd4-9840-651d80dc70e1","system_id":"levelo_inurba_marseille","lat":43.33045,"lon":5.38916,"is_reserved":false,"is_disabled":false,"rental_uris":{"android":"levelo://app?vid=4031e07c-3812-4dd4-9840-651d80dc70e1","ios":"levelo://app?vid=4031e07c-3812-4dd4-9840-651d80dc70e1"},"vehicle_type_id":"4","last_reported":1690740403,"current_range_meters":30400,"station_id":"ce4bhr92rcd13ifvqhrg","pricing_plan_id":"free"},{"bike_id":"f4b8a937-478a-4113-a141-eec483a34759","system_id":"levelo_inurba_marseille","lat":43.29516,"lon":5.38941,"is_reserved":false,"is_disabled":false,"rental_uris":{"android":"levelo://app?vid=f4b8a937-478a-4113-a141-eec483a34759","ios":"levelo://app?vid=f4b8a937-478a-4113-a141-eec483a34759"},"vehicle_type_id":"4","last_reported":1690740403,"current_range_meters":8800,"station_id":"","pricing_plan_id":"free"},{"bike_id":"05bf2cc0-c80b-4d3b-9303-5cea93148e89","system_id":"levelo_inurba_marseille","lat":43.290995,"lon":5.381361,"is_reserved":false,"is_disabled":false,"rental_uris":{"android":"levelo://app?vid=05bf2cc0-c80b-4d3b-9303-5cea93148e89","ios":"levelo://app?vid=05bf2cc0-c80b-4d3b-9303-5cea93148e89"},"vehicle_type_id":"4","last_reported":1690740403,"current_range_meters":29600,"station_id":"ce4bh512rcd13ifvqe2g","pricing_plan_id":"free"},{"bike_id":"d4b1bd1e-687b-4bd5-a3f4-b68af9c98282","system_id":"levelo_inurba_marseille","lat":43.290995,"lon":5.381361,"is_reserved":false,"is_disabled":false,"rental_uris":{"android":"levelo://app?vid=d4b1bd1e-687b-4bd5-a3f4-b68af9c98282","ios":"levelo://app?vid=d4b1bd1e-687b-4bd5-a3f4-b68af9c98282"},"vehicle_type_id":"4","last_reported":1690740403,"current_range_meters":10400,"station_id":"ce4bh512rcd13ifvqe2g","pricing_plan_id":"free"},{"bike_id":"cfc3b9cf-0588-49a5-be09-dfdd0d30782a","system_id":"levelo_inurba_marseille","lat":43.29095,"lon":5.38144,"is_reserved":false,"is_disabled":false,"rental_uris":{"android":"levelo://app?vid=cfc3b9cf-0588-49a5-be09-dfdd0d30782a","ios":"levelo://app?vid=cfc3b9cf-0588-49a5-be09-dfdd0d30782a"},"vehicle_type_id":"4","last_reported":1690740403,"current_range_meters":0,"station_id":"ce4bh512rcd13ifvqe2g","pricing_plan_id":"free"},{"bike_id":"6d8b26a9-8341-4220-aab3-d7722cb8abee","system_id":"levelo_inurba_marseille","lat":43.295169,"lon":5.390426,"is_reserved":false,"is_disabled":false,"rental_uris":{"android":"levelo://app?vid=6d8b26a9-8341-4220-aab3-d7722cb8abee","ios":"levelo://app?vid=6d8b26a9-8341-4220-aab3-d7722cb8abee"},"vehicle_type_id":"4","last_reported":1690740403,"current_range_meters":30000,"station_id":"ce4bh3p2rcd13ifvqdp0","pricing_plan_id":"free"},{"bike_id":"3d01b93e-3206-4753-814e-fae352f65668","system_id":"levelo_inurba_marseille","lat":43.295169,"lon":5.390426,"is_reserved":false,"is_disabled":false,"rental_uris":{"android":"levelo://app?vid=3d01b93e-3206-4753-814e-fae352f65668","ios":"levelo://app?vid=3d01b93e-3206-4753-814e-fae352f65668"},"vehicle_type_id":"4","last_reported":1690740403,"current_range_meters":0,"station_id":"ce4bh3p2rcd13ifvqdp0","pricing_plan_id":"free"},{"bike_id":"01bea9d5-120d-4e33-905f-f63c34af6dd2","system_id":"levelo_inurba_marseille","lat":43.295169,"lon":5.390426,"is_reserved":false,"is_disabled":false,"rental_uris":{"android":"levelo://app?vid=01bea9d5-120d-4e33-905f-f63c34af6dd2","ios":"levelo://app?vid=01bea9d5-120d-4e33-905f-f63c34af6dd2"},"vehicle_type_id":"4","last_reported":1690740403,"current_range_meters":2400,"station_id":"ce4bh3p2rcd13ifvqdp0","pricing_plan_id":"free"},{"bike_id":"5a7a6c5d-c7eb-422c-8a07-fad184a38874","system_id":"levelo_inurba_marseille","lat":43.286039,"lon":5.370681,"is_reserved":false,"is_disabled":false,"rental_uris":{"android":"levelo://app?vid=5a7a6c5d-c7eb-422c-8a07-fad184a38874","ios":"levelo://app?vid=5a7a6c5d-c7eb-422c-8a07-fad184a38874"},"vehicle_type_id":"4","last_reported":1690740403,"current_range_meters":18400,"station_id":"ce4bht12rcd13ifvqi60","pricing_plan_id":"free"},{"bike_id":"06ce72b6-119d-438f-a7e2-7f82ae133172","system_id":"levelo_inurba_marseille","lat":43.30658,"lon":5.40096,"is_reserved":false,"is_disabled":false,"rental_uris":{"android":"levelo://app?vid=06ce72b6-119d-438f-a7e2-7f82ae133172","ios":"levelo://app?vid=06ce72b6-119d-438f-a7e2-7f82ae133172"},"vehicle_type_id":"4","last_reported":1690740403,"current_range_meters":3600,"station_id":"ce4bh112rcd13ifvqda0","pricing_plan_id":"free"},{"bike_id":"b5ff6e5b-ceaa-4404-8785-10b5425540de","system_id":"levelo_inurba_marseille","lat":43.298681,"lon":5.397225,"is_reserved":false,"is_disabled":false,"rental_uris":{"android":"levelo://app?vid=b5ff6e5b-ceaa-4404-8785-10b5425540de","ios":"levelo://app?vid=b5ff6e5b-ceaa-4404-8785-10b5425540de"},"vehicle_type_id":"4","last_reported":1690740403,"current_range_meters":9200,"station_id":"ce4bh0h2rcd13ifvqd50","pricing_plan_id":"free"},{"bike_id":"5eba81bb-3104-48e3-84c6-b8b53092af3f","system_id":"levelo_inurba_marseille","lat":43.286961,"lon":5.373785,"is_reserved":false,"is_disabled":false,"rental_uris":{"android":"levelo://app?vid=5eba81bb-3104-48e3-84c6-b8b53092af3f","ios":"levelo://app?vid=5eba81bb-3104-48e3-84c6-b8b53092af3f"},"vehicle_type_id":"4","last_reported":1690740403,"current_range_meters":30800,"station_id":"ce4bh3p2rcd13ifvqdq0","pricing_plan_id":"free"},{"bike_id":"809b77fb-a4d7-4927-9862-5897bb90843e","system_id":"levelo_inurba_marseille","lat":43.298681,"lon":5.397225,"is_reserved":false,"is_disabled":false,"rental_uris":{"android":"levelo://app?vid=809b77fb-a4d7-4927-9862-5897bb90843e","ios":"levelo://app?vid=809b77fb-a4d7-4927-9862-5897bb90843e"},"vehicle_type_id":"4","last_reported":1690740403,"current_range_meters":25200,"station_id":"ce4bh0h2rcd13ifvqd50","pricing_plan_id":"free"},{"bike_id":"cf805aa7-9da8-4f98-b54b-3765031a0323","system_id":"levelo_inurba_marseille","lat":43.287002,"lon":5.373758,"is_reserved":false,"is_disabled":false,"rental_uris":{"android":"levelo://app?vid=cf805aa7-9da8-4f98-b54b-3765031a0323","ios":"levelo://app?vid=cf805aa7-9da8-4f98-b54b-3765031a0323"},"vehicle_type_id":"4","last_reported":1690740403,"current_range_meters":11200,"station_id":"ce4bh3p2rcd13ifvqdq0","pricing_plan_id":"free"},{"bike_id":"75199276-b705-4ad7-b6a9-49aeaa84628a","system_id":"levelo_inurba_marseille","lat":43.286593,"lon":5.363346,"is_reserved":false,"is_disabled":false,"rental_uris":{"android":"levelo://app?vid=75199276-b705-4ad7-b6a9-49aeaa84628a","ios":"levelo://app?vid=75199276-b705-4ad7-b6a9-49aeaa84628a"},"vehicle_type_id":"4","last_reported":1690740403,"current_range_meters":31200,"station_id":"ce4bhah2rcd13ifvqej0","pricing_plan_id":"free"},{"bike_id":"74d84c2b-d285-41ee-a905-581851073b93","system_id":"levelo_inurba_marseille","lat":43.295196,"lon":5.39397,"is_reserved":false,"is_disabled":false,"rental_uris":{"android":"levelo://app?vid=74d84c2b-d285-41ee-a905-581851073b93","ios":"levelo://app?vid=74d84c2b-d285-41ee-a905-581851073b93"},"vehicle_type_id":"4","last_reported":1690740403,"current_range_meters":17600,"station_id":"ce4bh292rcd13ifvqdf0","pricing_plan_id":"free"},{"bike_id":"13d2bb90-56b7-4ea6-9dbf-9780cc891409","system_id":"levelo_inurba_marseille","lat":43.286961,"lon":5.373785,"is_reserved":false,"is_disabled":false,"rental_uris":{"android":"levelo://app?vid=13d2bb90-56b7-4ea6-9dbf-9780cc891409","ios":"levelo://app?vid=13d2bb90-56b7-4ea6-9dbf-9780cc891409"},"vehicle_type_id":"4","last_reported":1690740403,"current_range_meters":6000,"station_id":"ce4bh3p2rcd13ifvqdq0","pricing_plan_id":"free"},{"bike_id":"23909cc9-112e-441e-a897-4321a6696620","system_id":"levelo_inurba_marseille","lat":43.302759,"lon":5.400793,"is_reserved":false,"is_disabled":false,"rental_uris":{"android":"levelo://app?vid=23909cc9-112e-441e-a897-4321a6696620","ios":"levelo://app?vid=23909cc9-112e-441e-a897-4321a6696620"},"vehicle_type_id":"4","last_reported":1690740403,"current_range_meters":11600,"station_id":"ce4bgvh2rcd13ifvqcs0","pricing_plan_id":"free"},{"bike_id":"abd3cff5-2b5d-4b6e-8def-d45282a79296","system_id":"levelo_inurba_marseille","lat":43.290345,"lon":5.38646,"is_reserved":false,"is_disabled":false,"rental_uris":{"android":"levelo://app?vid=abd3cff5-2b5d-4b6e-8def-d45282a79296","ios":"levelo://app?vid=abd3cff5-2b5d-4b6e-8def-d45282a79296"},"vehicle_type_id":"4","last_reported":1690740403,"current_range_meters":20400,"station_id":"ce4bh4p2rcd13ifvqe0g","pricing_plan_id":"free"},{"bike_id":"2af4d9d5-7c0a-4f6f-8ba2-f25c31ae2f9a","system_id":"levelo_inurba_marseille","lat":43.29022,"lon":5.38629,"is_reserved":false,"is_disabled":false,"rental_uris":{"android":"levelo://app?vid=2af4d9d5-7c0a-4f6f-8ba2-f25c31ae2f9a","ios":"levelo://app?vid=2af4d9d5-7c0a-4f6f-8ba2-f25c31ae2f9a"},"vehicle_type_id":"4","last_reported":1690740403,"current_range_meters":25600,"station_id":"ce4bh4p2rcd13ifvqe0g","pricing_plan_id":"free"},{"bike_id":"957bc4cd-062c-4b9b-84f3-cf4f85be6748","system_id":"levelo_inurba_marseille","lat":43.302759,"lon":5.400793,"is_reserved":false,"is_disabled":false,"rental_uris":{"android":"levelo://app?vid=957bc4cd-062c-4b9b-84f3-cf4f85be6748","ios":"levelo://app?vid=957bc4cd-062c-4b9b-84f3-cf4f85be6748"},"vehicle_type_id":"4","last_reported":1690740403,"current_range_meters":26000,"station_id":"ce4bgvh2rcd13ifvqcs0","pricing_plan_id":"free"},{"bike_id":"ade95481-3e22-4c21-998a-a2d30a55eb66","system_id":"levelo_inurba_marseille","lat":43.286147,"lon":5.370636,"is_reserved":false,"is_disabled":false,"rental_uris":{"android":"levelo://app?vid=ade95481-3e22-4c21-998a-a2d30a55eb66","ios":"levelo://app?vid=ade95481-3e22-4c21-998a-a2d30a55eb66"},"vehicle_type_id":"4","last_reported":1690740403,"current_range_meters":14400,"station_id":"","pricing_plan_id":"free"},{"bike_id":"19c8bce1-36bc-4ac9-9d37-d436719cba93","system_id":"levelo_inurba_marseille","lat":43.287185,"lon":5.379373,"is_reserved":false,"is_disabled":false,"rental_uris":{"android":"levelo://app?vid=19c8bce1-36bc-4ac9-9d37-d436719cba93","ios":"levelo://app?vid=19c8bce1-36bc-4ac9-9d37-d436719cba93"},"vehicle_type_id":"4","last_reported":1690740403,"current_range_meters":12800,"station_id":"ce4bh9p2rcd13ifvqec0","pricing_plan_id":"free"},{"bike_id":"c6363034-fc2a-4f41-82f4-1f5220ca0514","system_id":"levelo_inurba_marseille","lat":43.31418,"lon":5.40426,"is_reserved":false,"is_disabled":false,"rental_uris":{"android":"levelo://app?vid=c6363034-fc2a-4f41-82f4-1f5220ca0514","ios":"levelo://app?vid=c6363034-fc2a-4f41-82f4-1f5220ca0514"},"vehicle_type_id":"4","last_reported":1690740403,"current_range_meters":24800,"station_id":"","pricing_plan_id":"free"},{"bike_id":"023251d4-1386-48e2-80a6-0cfc06549ba5","system_id":"levelo_inurba_marseille","lat":43.31653,"lon":5.40436,"is_reserved":false,"is_disabled":false,"rental_uris":{"android":"levelo://app?vid=023251d4-1386-48e2-80a6-0cfc06549ba5","ios":"levelo://app?vid=023251d4-1386-48e2-80a6-0cfc06549ba5"},"vehicle_type_id":"4","last_reported":1690740403,"current_range_meters":18000,"station_id":"ce4bh012rcd13ifvqd00","pricing_plan_id":"free"},{"bike_id":"99c50597-4800-4e25-bd3e-243b23cee58b","system_id":"levelo_inurba_marseille","lat":43.29192,"lon":5.39313,"is_reserved":false,"is_disabled":false,"rental_uris":{"android":"levelo://app?vid=99c50597-4800-4e25-bd3e-243b23cee58b","ios":"levelo://app?vid=99c50597-4800-4e25-bd3e-243b23cee58b"},"vehicle_type_id":"4","last_reported":1690740403,"current_range_meters":0,"station_id":"ce4bh192rcd13ifvqdd0","pricing_plan_id":"free"},{"bike_id":"5b112069-dd75-4a1c-a0d8-84fb8f414b25","system_id":"levelo_inurba_marseille","lat":43.285856,"lon":5.350771,"is_reserved":false,"is_disabled":false,"rental_uris":{"android":"levelo://app?vid=5b112069-dd75-4a1c-a0d8-84fb8f414b25","ios":"levelo://app?vid=5b112069-dd75-4a1c-a0d8-84fb8f414b25"},"vehicle_type_id":"4","last_reported":1690740403,"current_range_meters":24800,"station_id":"ce4bhch2rcd13ifvqeug","pricing_plan_id":"free"},{"bike_id":"d9e64e89-b46c-48e4-b3ef-bf33315bca12","system_id":"levelo_inurba_marseille","lat":43.283998,"lon":5.375062,"is_reserved":false,"is_disabled":false,"rental_uris":{"android":"levelo://app?vid=d9e64e89-b46c-48e4-b3ef-bf33315bca12","ios":"levelo://app?vid=d9e64e89-b46c-48e4-b3ef-bf33315bca12"},"vehicle_type_id":"4","last_reported":1690740403,"current_range_meters":26000,"station_id":"ce4bh412rcd13ifvqds0","pricing_plan_id":"free"},{"bike_id":"96705f7b-38e5-43f0-aadd-611ad001df37","system_id":"levelo_inurba_marseille","lat":43.283998,"lon":5.375062,"is_reserved":false,"is_disabled":false,"rental_uris":{"android":"levelo://app?vid=96705f7b-38e5-43f0-aadd-611ad001df37","ios":"levelo://app?vid=96705f7b-38e5-43f0-aadd-611ad001df37"},"vehicle_type_id":"4","last_reported":1690740403,"current_range_meters":6800,"station_id":"ce4bh412rcd13ifvqds0","pricing_plan_id":"free"},{"bike_id":"84b988b3-a9d7-4c06-824b-4e76a004ea8a","system_id":"levelo_inurba_marseille","lat":43.283998,"lon":5.375062,"is_reserved":false,"is_disabled":false,"rental_uris":{"android":"levelo://app?vid=84b988b3-a9d7-4c06-824b-4e76a004ea8a","ios":"levelo://app?vid=84b988b3-a9d7-4c06-824b-4e76a004ea8a"},"vehicle_type_id":"4","last_reported":1690740403,"current_range_meters":14800,"station_id":"ce4bh412rcd13ifvqds0","pricing_plan_id":"free"},{"bike_id":"706cd693-768b-4551-afd5-87f70e826c5c","system_id":"levelo_inurba_marseille","lat":43.283998,"lon":5.375062,"is_reserved":false,"is_disabled":false,"rental_uris":{"android":"levelo://app?vid=706cd693-768b-4551-afd5-87f70e826c5c","ios":"levelo://app?vid=706cd693-768b-4551-afd5-87f70e826c5c"},"vehicle_type_id":"4","last_reported":1690740403,"current_range_meters":15600,"station_id":"ce4bh412rcd13ifvqds0","pricing_plan_id":"free"},{"bike_id":"cc9e9eff-323c-48a8-9417-1f7b5ae1dabe","system_id":"levelo_inurba_marseille","lat":43.283998,"lon":5.375062,"is_reserved":false,"is_disabled":false,"rental_uris":{"android":"levelo://app?vid=cc9e9eff-323c-48a8-9417-1f7b5ae1dabe","ios":"levelo://app?vid=cc9e9eff-323c-48a8-9417-1f7b5ae1dabe"},"vehicle_type_id":"4","last_reported":1690740403,"current_range_meters":10400,"station_id":"ce4bh412rcd13ifvqds0","pricing_plan_id":"free"},{"bike_id":"d0d63584-54f3-4ef4-95cc-b51c9cdb1c8b","system_id":"levelo_inurba_marseille","lat":43.31505,"lon":5.40744,"is_reserved":false,"is_disabled":false,"rental_uris":{"android":"levelo://app?vid=d0d63584-54f3-4ef4-95cc-b51c9cdb1c8b","ios":"levelo://app?vid=d0d63584-54f3-4ef4-95cc-b51c9cdb1c8b"},"vehicle_type_id":"4","last_reported":1690740403,"current_range_meters":17600,"station_id":"ce4bh012rcd13ifvqd00","pricing_plan_id":"free"},{"bike_id":"ca37d3e9-6e31-4c42-9d14-ec8628912080","system_id":"levelo_inurba_marseille","lat":43.286595,"lon":5.386795,"is_reserved":false,"is_disabled":false,"rental_uris":{"android":"levelo://app?vid=ca37d3e9-6e31-4c42-9d14-ec8628912080","ios":"levelo://app?vid=ca37d3e9-6e31-4c42-9d14-ec8628912080"},"vehicle_type_id":"4","last_reported":1690740403,"current_range_meters":17600,"station_id":"ce4bh492rcd13ifvqdug","pricing_plan_id":"free"},{"bike_id":"3f9236a9-c384-4e91-9115-f58ba48f353c","system_id":"levelo_inurba_marseille","lat":43.286595,"lon":5.386795,"is_reserved":false,"is_disabled":false,"rental_uris":{"android":"levelo://app?vid=3f9236a9-c384-4e91-9115-f58ba48f353c","ios":"levelo://app?vid=3f9236a9-c384-4e91-9115-f58ba48f353c"},"vehicle_type_id":"4","last_reported":1690740403,"current_range_meters":18000,"station_id":"ce4bh492rcd13ifvqdug","pricing_plan_id":"free"},{"bike_id":"72858313-781e-49ea-b039-ec94c0e50849","system_id":"levelo_inurba_marseille","lat":43.286595,"lon":5.386795,"is_reserved":false,"is_disabled":false,"rental_uris":{"android":"levelo://app?vid=72858313-781e-49ea-b039-ec94c0e50849","ios":"levelo://app?vid=72858313-781e-49ea-b039-ec94c0e50849"},"vehicle_type_id":"4","last_reported":1690740403,"current_range_meters":4800,"station_id":"ce4bh492rcd13ifvqdug","pricing_plan_id":"free"},{"bike_id":"26bfcad4-2dc6-43bb-9f00-91622fd750a3","system_id":"levelo_inurba_marseille","lat":43.323464,"lon":5.406297,"is_reserved":false,"is_disabled":false,"rental_uris":{"android":"levelo://app?vid=26bfcad4-2dc6-43bb-9f00-91622fd750a3","ios":"levelo://app?vid=26bfcad4-2dc6-43bb-9f00-91622fd750a3"},"vehicle_type_id":"4","last_reported":1690740403,"current_range_meters":31200,"station_id":"ce4bhq92rcd13ifvqhjg","pricing_plan_id":"free"},{"bike_id":"014d9948-2b3b-488a-86be-736137fe4ad2","system_id":"levelo_inurba_marseille","lat":43.32338,"lon":5.4062,"is_reserved":false,"is_disabled":false,"rental_uris":{"android":"levelo://app?vid=014d9948-2b3b-488a-86be-736137fe4ad2","ios":"levelo://app?vid=014d9948-2b3b-488a-86be-736137fe4ad2"},"vehicle_type_id":"4","last_reported":1690740403,"current_range_meters":20800,"station_id":"ce4bhq92rcd13ifvqhjg","pricing_plan_id":"free"},{"bike_id":"4a59383e-c24a-49eb-b341-b501111dd738","system_id":"levelo_inurba_marseille","lat":43.323464,"lon":5.406297,"is_reserved":false,"is_disabled":false,"rental_uris":{"android":"levelo://app?vid=4a59383e-c24a-49eb-b341-b501111dd738","ios":"levelo://app?vid=4a59383e-c24a-49eb-b341-b501111dd738"},"vehicle_type_id":"4","last_reported":1690740403,"current_range_meters":12400,"station_id":"ce4bhq92rcd13ifvqhjg","pricing_plan_id":"free"},{"bike_id":"1cd10330-8c82-4645-9e31-791aa547d0aa","system_id":"levelo_inurba_marseille","lat":43.33728,"lon":5.39186,"is_reserved":false,"is_disabled":false,"rental_uris":{"android":"levelo://app?vid=1cd10330-8c82-4645-9e31-791aa547d0aa","ios":"levelo://app?vid=1cd10330-8c82-4645-9e31-791aa547d0aa"},"vehicle_type_id":"4","last_reported":1690740403,"current_range_meters":25200,"station_id":"ce4bhr92rcd13ifvqhsg","pricing_plan_id":"free"},{"bike_id":"e78794ab-1147-4e07-9747-4f03804e7014","system_id":"levelo_inurba_marseille","lat":43.33732,"lon":5.39186,"is_reserved":false,"is_disabled":false,"rental_uris":{"android":"levelo://app?vid=e78794ab-1147-4e07-9747-4f03804e7014","ios":"levelo://app?vid=e78794ab-1147-4e07-9747-4f03804e7014"},"vehicle_type_id":"4","last_reported":1690740403,"current_range_meters":24000,"station_id":"ce4bhr92rcd13ifvqhsg","pricing_plan_id":"free"},{"bike_id":"c214d605-66d3-4e2d-8d08-d523874da159","system_id":"levelo_inurba_marseille","lat":43.33734,"lon":5.39183,"is_reserved":false,"is_disabled":false,"rental_uris":{"android":"levelo://app?vid=c214d605-66d3-4e2d-8d08-d523874da159","ios":"levelo://app?vid=c214d605-66d3-4e2d-8d08-d523874da159"},"vehicle_type_id":"4","last_reported":1690740403,"current_range_meters":20400,"station_id":"ce4bhr92rcd13ifvqhsg","pricing_plan_id":"free"},{"bike_id":"b703b0d3-eb96-4d1b-bf5d-ad75014699f1","system_id":"levelo_inurba_marseille","lat":43.284787,"lon":5.384116,"is_reserved":false,"is_disabled":false,"rental_uris":{"android":"levelo://app?vid=b703b0d3-eb96-4d1b-bf5d-ad75014699f1","ios":"levelo://app?vid=b703b0d3-eb96-4d1b-bf5d-ad75014699f1"},"vehicle_type_id":"4","last_reported":1690740403,"current_range_meters":16000,"station_id":"ce4bh512rcd13ifvqe3g","pricing_plan_id":"free"},{"bike_id":"443be46a-de1d-40d9-9f16-84573960e0f7","system_id":"levelo_inurba_marseille","lat":43.283494,"lon":5.380945,"is_reserved":false,"is_disabled":false,"rental_uris":{"android":"levelo://app?vid=443be46a-de1d-40d9-9f16-84573960e0f7","ios":"levelo://app?vid=443be46a-de1d-40d9-9f16-84573960e0f7"},"vehicle_type_id":"4","last_reported":1690740403,"current_range_meters":13600,"station_id":"ce4bh412rcd13ifvqdr0","pricing_plan_id":"free"},{"bike_id":"b0ee4943-81f1-4f7d-a21f-de541042fbf0","system_id":"levelo_inurba_marseille","lat":43.283494,"lon":5.380945,"is_reserved":false,"is_disabled":false,"rental_uris":{"android":"levelo://app?vid=b0ee4943-81f1-4f7d-a21f-de541042fbf0","ios":"levelo://app?vid=b0ee4943-81f1-4f7d-a21f-de541042fbf0"},"vehicle_type_id":"4","last_reported":1690740403,"current_range_meters":26400,"station_id":"ce4bh412rcd13ifvqdr0","pricing_plan_id":"free"},{"bike_id":"6596692d-8f21-4a82-9afa-441fdca709cf","system_id":"levelo_inurba_marseille","lat":43.2835,"lon":5.38103,"is_reserved":false,"is_disabled":false,"rental_uris":{"android":"levelo://app?vid=6596692d-8f21-4a82-9afa-441fdca709cf","ios":"levelo://app?vid=6596692d-8f21-4a82-9afa-441fdca709cf"},"vehicle_type_id":"4","last_reported":1690740403,"current_range_meters":12400,"station_id":"","pricing_plan_id":"free"},{"bike_id":"796f2c71-a09b-46ed-9c50-5a4c4155340d","system_id":"levelo_inurba_marseille","lat":43.288497,"lon":5.393089,"is_reserved":false,"is_disabled":false,"rental_uris":{"android":"levelo://app?vid=796f2c71-a09b-46ed-9c50-5a4c4155340d","ios":"levelo://app?vid=796f2c71-a09b-46ed-9c50-5a4c4155340d"},"vehicle_type_id":"4","last_reported":1690740403,"current_range_meters":14000,"station_id":"ce4bh2p2rcd13ifvqdi0","pricing_plan_id":"free"},{"bike_id":"76146022-26f1-46d9-a017-b4574500e81d","system_id":"levelo_inurba_marseille","lat":43.283494,"lon":5.380945,"is_reserved":false,"is_disabled":false,"rental_uris":{"android":"levelo://app?vid=76146022-26f1-46d9-a017-b4574500e81d","ios":"levelo://app?vid=76146022-26f1-46d9-a017-b4574500e81d"},"vehicle_type_id":"4","last_reported":1690740403,"current_range_meters":9200,"station_id":"ce4bh412rcd13ifvqdr0","pricing_plan_id":"free"},{"bike_id":"be94d331-fcb7-444b-b181-916de1051656","system_id":"levelo_inurba_marseille","lat":43.284219,"lon":5.3497,"is_reserved":false,"is_disabled":false,"rental_uris":{"android":"levelo://app?vid=be94d331-fcb7-444b-b181-916de1051656","ios":"levelo://app?vid=be94d331-fcb7-444b-b181-916de1051656"},"vehicle_type_id":"4","last_reported":1690740403,"current_range_meters":800,"station_id":"ce4bhbh2rcd13ifvqepg","pricing_plan_id":"free"},{"bike_id":"ec550b79-ab97-4469-9c76-1cd987dbfc1b","system_id":"levelo_inurba_marseille","lat":43.284171,"lon":5.349685,"is_reserved":false,"is_disabled":false,"rental_uris":{"android":"levelo://app?vid=ec550b79-ab97-4469-9c76-1cd987dbfc1b","ios":"levelo://app?vid=ec550b79-ab97-4469-9c76-1cd987dbfc1b"},"vehicle_type_id":"4","last_reported":1690740403,"current_range_meters":25600,"station_id":"","pricing_plan_id":"free"},{"bike_id":"42f9b6cc-2177-499b-9a6b-db28569ab164","system_id":"levelo_inurba_marseille","lat":43.289363,"lon":5.396322,"is_reserved":false,"is_disabled":false,"rental_uris":{"android":"levelo://app?vid=42f9b6cc-2177-499b-9a6b-db28569ab164","ios":"levelo://app?vid=42f9b6cc-2177-499b-9a6b-db28569ab164"},"vehicle_type_id":"4","last_reported":1690740403,"current_range_meters":16000,"station_id":"ce4bh3h2rcd13ifvqdn0","pricing_plan_id":"free"},{"bike_id":"47908fa3-9a52-4c0b-afa4-d29c2ad4c907","system_id":"levelo_inurba_marseille","lat":43.292724,"lon":5.401131,"is_reserved":false,"is_disabled":false,"rental_uris":{"android":"levelo://app?vid=47908fa3-9a52-4c0b-afa4-d29c2ad4c907","ios":"levelo://app?vid=47908fa3-9a52-4c0b-afa4-d29c2ad4c907"},"vehicle_type_id":"4","last_reported":1690740403,"current_range_meters":15200,"station_id":"ce4bh312rcd13ifvqdk0","pricing_plan_id":"free"},{"bike_id":"782066c7-631c-4a31-91be-14d3b6fb0855","system_id":"levelo_inurba_marseille","lat":43.292724,"lon":5.401131,"is_reserved":false,"is_disabled":false,"rental_uris":{"android":"levelo://app?vid=782066c7-631c-4a31-91be-14d3b6fb0855","ios":"levelo://app?vid=782066c7-631c-4a31-91be-14d3b6fb0855"},"vehicle_type_id":"4","last_reported":1690740403,"current_range_meters":13600,"station_id":"ce4bh312rcd13ifvqdk0","pricing_plan_id":"free"},{"bike_id":"310116e4-c066-4845-b90e-d028b7280339","system_id":"levelo_inurba_marseille","lat":43.282744,"lon":5.350533,"is_reserved":false,"is_disabled":false,"rental_uris":{"android":"levelo://app?vid=310116e4-c066-4845-b90e-d028b7280339","ios":"levelo://app?vid=310116e4-c066-4845-b90e-d028b7280339"},"vehicle_type_id":"4","last_reported":1690740403,"current_range_meters":31600,"station_id":"ce4bhbp2rcd13ifvqerg","pricing_plan_id":"free"},{"bike_id":"a8c24d88-705a-4bf2-a8b4-3b0d309f6402","system_id":"levelo_inurba_marseille","lat":43.32497,"lon":5.40818,"is_reserved":false,"is_disabled":false,"rental_uris":{"android":"levelo://app?vid=a8c24d88-705a-4bf2-a8b4-3b0d309f6402","ios":"levelo://app?vid=a8c24d88-705a-4bf2-a8b4-3b0d309f6402"},"vehicle_type_id":"4","last_reported":1690740403,"current_range_meters":7600,"station_id":"","pricing_plan_id":"free"},{"bike_id":"0dc84bcf-4504-4a84-b464-3cce0aa53099","system_id":"levelo_inurba_marseille","lat":43.28115,"lon":5.37841,"is_reserved":false,"is_disabled":false,"rental_uris":{"android":"levelo://app?vid=0dc84bcf-4504-4a84-b464-3cce0aa53099","ios":"levelo://app?vid=0dc84bcf-4504-4a84-b464-3cce0aa53099"},"vehicle_type_id":"4","last_reported":1690740403,"current_range_meters":11600,"station_id":"ce4bha12rcd13ifvqee0","pricing_plan_id":"free"},{"bike_id":"2da11330-b1ef-469c-83e0-8863df14ada1","system_id":"levelo_inurba_marseille","lat":43.281044,"lon":5.378308,"is_reserved":false,"is_disabled":false,"rental_uris":{"android":"levelo://app?vid=2da11330-b1ef-469c-83e0-8863df14ada1","ios":"levelo://app?vid=2da11330-b1ef-469c-83e0-8863df14ada1"},"vehicle_type_id":"4","last_reported":1690740403,"current_range_meters":26400,"station_id":"ce4bha12rcd13ifvqee0","pricing_plan_id":"free"},{"bike_id":"29567aef-feb0-4790-a955-fb1c0c223335","system_id":"levelo_inurba_marseille","lat":43.28105,"lon":5.37829,"is_reserved":false,"is_disabled":false,"rental_uris":{"android":"levelo://app?vid=29567aef-feb0-4790-a955-fb1c0c223335","ios":"levelo://app?vid=29567aef-feb0-4790-a955-fb1c0c223335"},"vehicle_type_id":"4","last_reported":1690740403,"current_range_meters":18800,"station_id":"ce4bha12rcd13ifvqee0","pricing_plan_id":"free"},{"bike_id":"d8606206-16f5-4f97-96ca-04f650a0cedb","system_id":"levelo_inurba_marseille","lat":43.28103,"lon":5.3783,"is_reserved":false,"is_disabled":false,"rental_uris":{"android":"levelo://app?vid=d8606206-16f5-4f97-96ca-04f650a0cedb","ios":"levelo://app?vid=d8606206-16f5-4f97-96ca-04f650a0cedb"},"vehicle_type_id":"4","last_reported":1690740403,"current_range_meters":1200,"station_id":"ce4bha12rcd13ifvqee0","pricing_plan_id":"free"},{"bike_id":"6e7ae75b-5c38-4cfb-8ad2-4f8525131e65","system_id":"levelo_inurba_marseille","lat":43.28447,"lon":5.39207,"is_reserved":false,"is_disabled":false,"rental_uris":{"android":"levelo://app?vid=6e7ae75b-5c38-4cfb-8ad2-4f8525131e65","ios":"levelo://app?vid=6e7ae75b-5c38-4cfb-8ad2-4f8525131e65"},"vehicle_type_id":"4","last_reported":1690740403,"current_range_meters":22400,"station_id":"","pricing_plan_id":"free"},{"bike_id":"2c4f1299-601e-4755-a4c0-830c20076443","system_id":"levelo_inurba_marseille","lat":43.284462,"lon":5.392121,"is_reserved":false,"is_disabled":false,"rental_uris":{"android":"levelo://app?vid=2c4f1299-601e-4755-a4c0-830c20076443","ios":"levelo://app?vid=2c4f1299-601e-4755-a4c0-830c20076443"},"vehicle_type_id":"4","last_reported":1690740403,"current_range_meters":16400,"station_id":"ce4bhoh2rcd13ifvqh5g","pricing_plan_id":"free"},{"bike_id":"16004d7a-e6f4-4ec3-b16a-952c9d4c5a72","system_id":"levelo_inurba_marseille","lat":43.28573,"lon":5.394992,"is_reserved":false,"is_disabled":false,"rental_uris":{"android":"levelo://app?vid=16004d7a-e6f4-4ec3-b16a-952c9d4c5a72","ios":"levelo://app?vid=16004d7a-e6f4-4ec3-b16a-952c9d4c5a72"},"vehicle_type_id":"4","last_reported":1690740403,"current_range_meters":9200,"station_id":"ce4bh292rcd13ifvqdg0","pricing_plan_id":"free"},{"bike_id":"337b8747-a12c-4d7a-8817-34fe5a700046","system_id":"levelo_inurba_marseille","lat":43.285742,"lon":5.395004,"is_reserved":false,"is_disabled":false,"rental_uris":{"android":"levelo://app?vid=337b8747-a12c-4d7a-8817-34fe5a700046","ios":"levelo://app?vid=337b8747-a12c-4d7a-8817-34fe5a700046"},"vehicle_type_id":"4","last_reported":1690740403,"current_range_meters":30000,"station_id":"ce4bh292rcd13ifvqdg0","pricing_plan_id":"free"},{"bike_id":"5fc62844-38f1-43ca-9b6d-b74675103304","system_id":"levelo_inurba_marseille","lat":43.32529,"lon":5.41,"is_reserved":false,"is_disabled":false,"rental_uris":{"android":"levelo://app?vid=5fc62844-38f1-43ca-9b6d-b74675103304","ios":"levelo://app?vid=5fc62844-38f1-43ca-9b6d-b74675103304"},"vehicle_type_id":"4","last_reported":1690740403,"current_range_meters":4800,"station_id":"","pricing_plan_id":"free"},{"bike_id":"f05f9cee-e9dc-4877-b6c2-883bd5735414","system_id":"levelo_inurba_marseille","lat":43.284462,"lon":5.392121,"is_reserved":false,"is_disabled":false,"rental_uris":{"android":"levelo://app?vid=f05f9cee-e9dc-4877-b6c2-883bd5735414","ios":"levelo://app?vid=f05f9cee-e9dc-4877-b6c2-883bd5735414"},"vehicle_type_id":"4","last_reported":1690740403,"current_range_meters":19600,"station_id":"ce4bhoh2rcd13ifvqh5g","pricing_plan_id":"free"},{"bike_id":"f19a235d-96c6-47c7-b8c1-c7c2a524feb2","system_id":"levelo_inurba_marseille","lat":43.304188,"lon":5.412904,"is_reserved":false,"is_disabled":false,"rental_uris":{"android":"levelo://app?vid=f19a235d-96c6-47c7-b8c1-c7c2a524feb2","ios":"levelo://app?vid=f19a235d-96c6-47c7-b8c1-c7c2a524feb2"},"vehicle_type_id":"4","last_reported":1690740403,"current_range_meters":14400,"station_id":"ce4bhop2rcd13ifvqh8g","pricing_plan_id":"free"},{"bike_id":"d03d8388-4975-42d5-b2de-23bbd97f3128","system_id":"levelo_inurba_marseille","lat":43.304188,"lon":5.412904,"is_reserved":false,"is_disabled":false,"rental_uris":{"android":"levelo://app?vid=d03d8388-4975-42d5-b2de-23bbd97f3128","ios":"levelo://app?vid=d03d8388-4975-42d5-b2de-23bbd97f3128"},"vehicle_type_id":"4","last_reported":1690740403,"current_range_meters":0,"station_id":"ce4bhop2rcd13ifvqh8g","pricing_plan_id":"free"},{"bike_id":"4ee69007-33b1-435a-8958-ca88268097c1","system_id":"levelo_inurba_marseille","lat":43.304188,"lon":5.412904,"is_reserved":false,"is_disabled":false,"rental_uris":{"android":"levelo://app?vid=4ee69007-33b1-435a-8958-ca88268097c1","ios":"levelo://app?vid=4ee69007-33b1-435a-8958-ca88268097c1"},"vehicle_type_id":"4","last_reported":1690740403,"current_range_meters":20400,"station_id":"ce4bhop2rcd13ifvqh8g","pricing_plan_id":"free"},{"bike_id":"8f775cc2-222d-42fc-826f-4e1a1c2a8857","system_id":"levelo_inurba_marseille","lat":43.304188,"lon":5.412904,"is_reserved":false,"is_disabled":false,"rental_uris":{"android":"levelo://app?vid=8f775cc2-222d-42fc-826f-4e1a1c2a8857","ios":"levelo://app?vid=8f775cc2-222d-42fc-826f-4e1a1c2a8857"},"vehicle_type_id":"4","last_reported":1690740403,"current_range_meters":27200,"station_id":"ce4bhop2rcd13ifvqh8g","pricing_plan_id":"free"},{"bike_id":"20da83d1-2254-4617-81d1-964ed61ccff4","system_id":"levelo_inurba_marseille","lat":43.304188,"lon":5.412904,"is_reserved":false,"is_disabled":false,"rental_uris":{"android":"levelo://app?vid=20da83d1-2254-4617-81d1-964ed61ccff4","ios":"levelo://app?vid=20da83d1-2254-4617-81d1-964ed61ccff4"},"vehicle_type_id":"4","last_reported":1690740403,"current_range_meters":23600,"station_id":"ce4bhop2rcd13ifvqh8g","pricing_plan_id":"free"},{"bike_id":"51b64500-38d2-44f7-9c34-e23bab07d631","system_id":"levelo_inurba_marseille","lat":43.304188,"lon":5.412904,"is_reserved":false,"is_disabled":false,"rental_uris":{"android":"levelo://app?vid=51b64500-38d2-44f7-9c34-e23bab07d631","ios":"levelo://app?vid=51b64500-38d2-44f7-9c34-e23bab07d631"},"vehicle_type_id":"4","last_reported":1690740403,"current_range_meters":26000,"station_id":"ce4bhop2rcd13ifvqh8g","pricing_plan_id":"free"},{"bike_id":"7295ee2e-c698-4fe2-b7c6-23085dc12954","system_id":"levelo_inurba_marseille","lat":43.304188,"lon":5.412904,"is_reserved":false,"is_disabled":false,"rental_uris":{"android":"levelo://app?vid=7295ee2e-c698-4fe2-b7c6-23085dc12954","ios":"levelo://app?vid=7295ee2e-c698-4fe2-b7c6-23085dc12954"},"vehicle_type_id":"4","last_reported":1690740403,"current_range_meters":16800,"station_id":"ce4bhop2rcd13ifvqh8g","pricing_plan_id":"free"},{"bike_id":"eed76af5-7551-4120-9f50-473af2e72d82","system_id":"levelo_inurba_marseille","lat":43.279087,"lon":5.380114,"is_reserved":false,"is_disabled":false,"rental_uris":{"android":"levelo://app?vid=eed76af5-7551-4120-9f50-473af2e72d82","ios":"levelo://app?vid=eed76af5-7551-4120-9f50-473af2e72d82"},"vehicle_type_id":"4","last_reported":1690740403,"current_range_meters":22800,"station_id":"ce4bhf92rcd13ifvqf50","pricing_plan_id":"free"},{"bike_id":"de40488c-3917-4716-9aea-01c92728bec9","system_id":"levelo_inurba_marseille","lat":43.279087,"lon":5.380114,"is_reserved":false,"is_disabled":false,"rental_uris":{"android":"levelo://app?vid=de40488c-3917-4716-9aea-01c92728bec9","ios":"levelo://app?vid=de40488c-3917-4716-9aea-01c92728bec9"},"vehicle_type_id":"4","last_reported":1690740403,"current_range_meters":29200,"station_id":"ce4bhf92rcd13ifvqf50","pricing_plan_id":"free"},{"bike_id":"a8f6b29a-9759-4dab-96a3-f719585fc376","system_id":"levelo_inurba_marseille","lat":43.279087,"lon":5.380114,"is_reserved":false,"is_disabled":false,"rental_uris":{"android":"levelo://app?vid=a8f6b29a-9759-4dab-96a3-f719585fc376","ios":"levelo://app?vid=a8f6b29a-9759-4dab-96a3-f719585fc376"},"vehicle_type_id":"4","last_reported":1690740403,"current_range_meters":16000,"station_id":"ce4bhf92rcd13ifvqf50","pricing_plan_id":"free"},{"bike_id":"e960f587-778a-46d3-8510-5b0917c582e8","system_id":"levelo_inurba_marseille","lat":43.279087,"lon":5.380114,"is_reserved":false,"is_disabled":false,"rental_uris":{"android":"levelo://app?vid=e960f587-778a-46d3-8510-5b0917c582e8","ios":"levelo://app?vid=e960f587-778a-46d3-8510-5b0917c582e8"},"vehicle_type_id":"4","last_reported":1690740403,"current_range_meters":0,"station_id":"ce4bhf92rcd13ifvqf50","pricing_plan_id":"free"},{"bike_id":"da74851f-183f-4ed8-bc32-44e1d656b516","system_id":"levelo_inurba_marseille","lat":43.32095,"lon":5.41512,"is_reserved":false,"is_disabled":false,"rental_uris":{"android":"levelo://app?vid=da74851f-183f-4ed8-bc32-44e1d656b516","ios":"levelo://app?vid=da74851f-183f-4ed8-bc32-44e1d656b516"},"vehicle_type_id":"4","last_reported":1690740403,"current_range_meters":18000,"station_id":"","pricing_plan_id":"free"},{"bike_id":"e9fbe7f4-c376-4a74-9a01-c2dfa71d30c2","system_id":"levelo_inurba_marseille","lat":43.3209,"lon":5.41514,"is_reserved":false,"is_disabled":false,"rental_uris":{"android":"levelo://app?vid=e9fbe7f4-c376-4a74-9a01-c2dfa71d30c2","ios":"levelo://app?vid=e9fbe7f4-c376-4a74-9a01-c2dfa71d30c2"},"vehicle_type_id":"4","last_reported":1690740403,"current_range_meters":14400,"station_id":"","pricing_plan_id":"free"},{"bike_id":"f98c244a-9348-4646-bb55-fbffddefc91e","system_id":"levelo_inurba_marseille","lat":43.32043,"lon":5.41531,"is_reserved":false,"is_disabled":false,"rental_uris":{"android":"levelo://app?vid=f98c244a-9348-4646-bb55-fbffddefc91e","ios":"levelo://app?vid=f98c244a-9348-4646-bb55-fbffddefc91e"},"vehicle_type_id":"4","last_reported":1690740403,"current_range_meters":4400,"station_id":"ce4bhq92rcd13ifvqhkg","pricing_plan_id":"free"},{"bike_id":"39bfc890-c530-4457-ac62-976f6049a2e0","system_id":"levelo_inurba_marseille","lat":43.299579,"lon":5.413255,"is_reserved":false,"is_disabled":false,"rental_uris":{"android":"levelo://app?vid=39bfc890-c530-4457-ac62-976f6049a2e0","ios":"levelo://app?vid=39bfc890-c530-4457-ac62-976f6049a2e0"},"vehicle_type_id":"4","last_reported":1690740403,"current_range_meters":28000,"station_id":"ce4bhp12rcd13ifvqh9g","pricing_plan_id":"free"},{"bike_id":"94f9bd9a-8376-4f9a-9803-375b36e777e7","system_id":"levelo_inurba_marseille","lat":43.299579,"lon":5.413255,"is_reserved":false,"is_disabled":false,"rental_uris":{"android":"levelo://app?vid=94f9bd9a-8376-4f9a-9803-375b36e777e7","ios":"levelo://app?vid=94f9bd9a-8376-4f9a-9803-375b36e777e7"},"vehicle_type_id":"4","last_reported":1690740403,"current_range_meters":31200,"station_id":"ce4bhp12rcd13ifvqh9g","pricing_plan_id":"free"},{"bike_id":"cdcd753a-4a9a-455e-a5ca-a773fea8741e","system_id":"levelo_inurba_marseille","lat":43.299577,"lon":5.413277,"is_reserved":false,"is_disabled":false,"rental_uris":{"android":"levelo://app?vid=cdcd753a-4a9a-455e-a5ca-a773fea8741e","ios":"levelo://app?vid=cdcd753a-4a9a-455e-a5ca-a773fea8741e"},"vehicle_type_id":"4","last_reported":1690740403,"current_range_meters":31200,"station_id":"ce4bhp12rcd13ifvqh9g","pricing_plan_id":"free"},{"bike_id":"5c3747dc-84c8-4dbd-a8e4-3d5d5d848bfb","system_id":"levelo_inurba_marseille","lat":43.299577,"lon":5.413277,"is_reserved":false,"is_disabled":false,"rental_uris":{"android":"levelo://app?vid=5c3747dc-84c8-4dbd-a8e4-3d5d5d848bfb","ios":"levelo://app?vid=5c3747dc-84c8-4dbd-a8e4-3d5d5d848bfb"},"vehicle_type_id":"4","last_reported":1690740403,"current_range_meters":30400,"station_id":"ce4bhp12rcd13ifvqh9g","pricing_plan_id":"free"},{"bike_id":"33c7135b-8ed9-4a24-82b7-5fb6d41c6cf8","system_id":"levelo_inurba_marseille","lat":43.299579,"lon":5.413255,"is_reserved":false,"is_disabled":false,"rental_uris":{"android":"levelo://app?vid=33c7135b-8ed9-4a24-82b7-5fb6d41c6cf8","ios":"levelo://app?vid=33c7135b-8ed9-4a24-82b7-5fb6d41c6cf8"},"vehicle_type_id":"4","last_reported":1690740403,"current_range_meters":24000,"station_id":"ce4bhp12rcd13ifvqh9g","pricing_plan_id":"free"},{"bike_id":"cdd464ed-6ff0-4c3f-9d3a-bf9f64d1413e","system_id":"levelo_inurba_marseille","lat":43.320045,"lon":5.415048,"is_reserved":false,"is_disabled":false,"rental_uris":{"android":"levelo://app?vid=cdd464ed-6ff0-4c3f-9d3a-bf9f64d1413e","ios":"levelo://app?vid=cdd464ed-6ff0-4c3f-9d3a-bf9f64d1413e"},"vehicle_type_id":"4","last_reported":1690740403,"current_range_meters":12000,"station_id":"ce4bhq92rcd13ifvqhkg","pricing_plan_id":"free"},{"bike_id":"fe0aeb37-703a-4806-b442-c17908df6970","system_id":"levelo_inurba_marseille","lat":43.320045,"lon":5.415048,"is_reserved":false,"is_disabled":false,"rental_uris":{"android":"levelo://app?vid=fe0aeb37-703a-4806-b442-c17908df6970","ios":"levelo://app?vid=fe0aeb37-703a-4806-b442-c17908df6970"},"vehicle_type_id":"4","last_reported":1690740403,"current_range_meters":18800,"station_id":"ce4bhq92rcd13ifvqhkg","pricing_plan_id":"free"},{"bike_id":"099c8c2b-fed6-445e-bb82-c6284d248fe6","system_id":"levelo_inurba_marseille","lat":43.320045,"lon":5.415048,"is_reserved":false,"is_disabled":false,"rental_uris":{"android":"levelo://app?vid=099c8c2b-fed6-445e-bb82-c6284d248fe6","ios":"levelo://app?vid=099c8c2b-fed6-445e-bb82-c6284d248fe6"},"vehicle_type_id":"4","last_reported":1690740403,"current_range_meters":31200,"station_id":"ce4bhq92rcd13ifvqhkg","pricing_plan_id":"free"},{"bike_id":"3c781b42-eca4-47ee-b44f-eb22bf358600","system_id":"levelo_inurba_marseille","lat":43.320045,"lon":5.415046,"is_reserved":false,"is_disabled":false,"rental_uris":{"android":"levelo://app?vid=3c781b42-eca4-47ee-b44f-eb22bf358600","ios":"levelo://app?vid=3c781b42-eca4-47ee-b44f-eb22bf358600"},"vehicle_type_id":"4","last_reported":1690740403,"current_range_meters":16000,"station_id":"ce4bhq92rcd13ifvqhkg","pricing_plan_id":"free"},{"bike_id":"c327718a-8fe6-4791-a349-aba0f8f94e82","system_id":"levelo_inurba_marseille","lat":43.279742,"lon":5.38744,"is_reserved":false,"is_disabled":false,"rental_uris":{"android":"levelo://app?vid=c327718a-8fe6-4791-a349-aba0f8f94e82","ios":"levelo://app?vid=c327718a-8fe6-4791-a349-aba0f8f94e82"},"vehicle_type_id":"4","last_reported":1690740403,"current_range_meters":28400,"station_id":"ce4bhg12rcd13ifvqf80","pricing_plan_id":"free"},{"bike_id":"6742ca77-d2ae-4700-bae0-7a79047a4159","system_id":"levelo_inurba_marseille","lat":43.292571,"lon":5.409107,"is_reserved":false,"is_disabled":false,"rental_uris":{"android":"levelo://app?vid=6742ca77-d2ae-4700-bae0-7a79047a4159","ios":"levelo://app?vid=6742ca77-d2ae-4700-bae0-7a79047a4159"},"vehicle_type_id":"4","last_reported":1690740403,"current_range_meters":13200,"station_id":"ce4bh192rcd13ifvqdc0","pricing_plan_id":"free"},{"bike_id":"465fb45a-b779-4b6b-951b-b9465cf9c06b","system_id":"levelo_inurba_marseille","lat":43.292571,"lon":5.409107,"is_reserved":false,"is_disabled":false,"rental_uris":{"android":"levelo://app?vid=465fb45a-b779-4b6b-951b-b9465cf9c06b","ios":"levelo://app?vid=465fb45a-b779-4b6b-951b-b9465cf9c06b"},"vehicle_type_id":"4","last_reported":1690740403,"current_range_meters":18400,"station_id":"ce4bh192rcd13ifvqdc0","pricing_plan_id":"free"},{"bike_id":"ae210abf-d0f6-463c-9cc6-f8de562e187b","system_id":"levelo_inurba_marseille","lat":43.29254,"lon":5.40906,"is_reserved":false,"is_disabled":false,"rental_uris":{"android":"levelo://app?vid=ae210abf-d0f6-463c-9cc6-f8de562e187b","ios":"levelo://app?vid=ae210abf-d0f6-463c-9cc6-f8de562e187b"},"vehicle_type_id":"4","last_reported":1690740403,"current_range_meters":13600,"station_id":"ce4bh192rcd13ifvqdc0","pricing_plan_id":"free"},{"bike_id":"89e2adad-9a39-401c-ac34-d2bb4a9d1bca","system_id":"levelo_inurba_marseille","lat":43.292571,"lon":5.409107,"is_reserved":false,"is_disabled":false,"rental_uris":{"android":"levelo://app?vid=89e2adad-9a39-401c-ac34-d2bb4a9d1bca","ios":"levelo://app?vid=89e2adad-9a39-401c-ac34-d2bb4a9d1bca"},"vehicle_type_id":"4","last_reported":1690740403,"current_range_meters":7600,"station_id":"ce4bh192rcd13ifvqdc0","pricing_plan_id":"free"},{"bike_id":"58f51ee5-b2ce-47d6-9f90-83c8a1442fa2","system_id":"levelo_inurba_marseille","lat":43.303837,"lon":5.418724,"is_reserved":false,"is_disabled":false,"rental_uris":{"android":"levelo://app?vid=58f51ee5-b2ce-47d6-9f90-83c8a1442fa2","ios":"levelo://app?vid=58f51ee5-b2ce-47d6-9f90-83c8a1442fa2"},"vehicle_type_id":"4","last_reported":1690740403,"current_range_meters":17600,"station_id":"ce4bhop2rcd13ifvqh7g","pricing_plan_id":"free"},{"bike_id":"400808d9-69d4-446f-ba9d-ac7da748abe4","system_id":"levelo_inurba_marseille","lat":43.278401,"lon":5.392152,"is_reserved":false,"is_disabled":false,"rental_uris":{"android":"levelo://app?vid=400808d9-69d4-446f-ba9d-ac7da748abe4","ios":"levelo://app?vid=400808d9-69d4-446f-ba9d-ac7da748abe4"},"vehicle_type_id":"4","last_reported":1690740403,"current_range_meters":15200,"station_id":"ce4bhjp2rcd13ifvqga0","pricing_plan_id":"free"},{"bike_id":"f6b39411-8994-4bcd-b3d0-557f65d9180c","system_id":"levelo_inurba_marseille","lat":43.27838,"lon":5.39217,"is_reserved":false,"is_disabled":false,"rental_uris":{"android":"levelo://app?vid=f6b39411-8994-4bcd-b3d0-557f65d9180c","ios":"levelo://app?vid=f6b39411-8994-4bcd-b3d0-557f65d9180c"},"vehicle_type_id":"4","last_reported":1690740403,"current_range_meters":12000,"station_id":"ce4bhjp2rcd13ifvqga0","pricing_plan_id":"free"},{"bike_id":"5f91e56f-584e-4027-a7e4-488a82d81f9b","system_id":"levelo_inurba_marseille","lat":43.278399,"lon":5.392139,"is_reserved":false,"is_disabled":false,"rental_uris":{"android":"levelo://app?vid=5f91e56f-584e-4027-a7e4-488a82d81f9b","ios":"levelo://app?vid=5f91e56f-584e-4027-a7e4-488a82d81f9b"},"vehicle_type_id":"4","last_reported":1690740403,"current_range_meters":31200,"station_id":"ce4bhjp2rcd13ifvqga0","pricing_plan_id":"free"},{"bike_id":"e1f7bcad-cb04-429e-b23a-3897dad3da98","system_id":"levelo_inurba_marseille","lat":43.273613,"lon":5.362705,"is_reserved":false,"is_disabled":false,"rental_uris":{"android":"levelo://app?vid=e1f7bcad-cb04-429e-b23a-3897dad3da98","ios":"levelo://app?vid=e1f7bcad-cb04-429e-b23a-3897dad3da98"},"vehicle_type_id":"4","last_reported":1690740403,"current_range_meters":400,"station_id":"ce4bhbh2rcd13ifvqeo0","pricing_plan_id":"free"},{"bike_id":"13facb60-3981-46fb-aef5-17e34a6cea54","system_id":"levelo_inurba_marseille","lat":43.33612,"lon":5.410321,"is_reserved":false,"is_disabled":false,"rental_uris":{"android":"levelo://app?vid=13facb60-3981-46fb-aef5-17e34a6cea54","ios":"levelo://app?vid=13facb60-3981-46fb-aef5-17e34a6cea54"},"vehicle_type_id":"4","last_reported":1690740403,"current_range_meters":27600,"station_id":"ce4bhqh2rcd13ifvqhmg","pricing_plan_id":"free"},{"bike_id":"7a2d7973-8084-441e-a750-703944129287","system_id":"levelo_inurba_marseille","lat":43.33612,"lon":5.41019,"is_reserved":false,"is_disabled":false,"rental_uris":{"android":"levelo://app?vid=7a2d7973-8084-441e-a750-703944129287","ios":"levelo://app?vid=7a2d7973-8084-441e-a750-703944129287"},"vehicle_type_id":"4","last_reported":1690740403,"current_range_meters":24800,"station_id":"ce4bhqh2rcd13ifvqhmg","pricing_plan_id":"free"},{"bike_id":"5000baa7-2a60-49f1-b849-5973b94e74ba","system_id":"levelo_inurba_marseille","lat":43.33612,"lon":5.410321,"is_reserved":false,"is_disabled":false,"rental_uris":{"android":"levelo://app?vid=5000baa7-2a60-49f1-b849-5973b94e74ba","ios":"levelo://app?vid=5000baa7-2a60-49f1-b849-5973b94e74ba"},"vehicle_type_id":"4","last_reported":1690740403,"current_range_meters":10800,"station_id":"ce4bhqh2rcd13ifvqhmg","pricing_plan_id":"free"},{"bike_id":"5ded7c3e-4538-4211-8e7f-85d8322a2d9d","system_id":"levelo_inurba_marseille","lat":43.33612,"lon":5.410321,"is_reserved":false,"is_disabled":false,"rental_uris":{"android":"levelo://app?vid=5ded7c3e-4538-4211-8e7f-85d8322a2d9d","ios":"levelo://app?vid=5ded7c3e-4538-4211-8e7f-85d8322a2d9d"},"vehicle_type_id":"4","last_reported":1690740403,"current_range_meters":31200,"station_id":"ce4bhqh2rcd13ifvqhmg","pricing_plan_id":"free"},{"bike_id":"978e0ebb-8e80-4ad5-b953-d6477f5b92fd","system_id":"levelo_inurba_marseille","lat":43.27667,"lon":5.38879,"is_reserved":false,"is_disabled":false,"rental_uris":{"android":"levelo://app?vid=978e0ebb-8e80-4ad5-b953-d6477f5b92fd","ios":"levelo://app?vid=978e0ebb-8e80-4ad5-b953-d6477f5b92fd"},"vehicle_type_id":"4","last_reported":1690740403,"current_range_meters":400,"station_id":"","pricing_plan_id":"free"},{"bike_id":"dd27cd58-e614-4dbe-a374-8e3d0be345cb","system_id":"levelo_inurba_marseille","lat":43.317121,"lon":5.423936,"is_reserved":false,"is_disabled":false,"rental_uris":{"android":"levelo://app?vid=dd27cd58-e614-4dbe-a374-8e3d0be345cb","ios":"levelo://app?vid=dd27cd58-e614-4dbe-a374-8e3d0be345cb"},"vehicle_type_id":"4","last_reported":1690740403,"current_range_meters":31200,"station_id":"ce4bhp92rcd13ifvqhbg","pricing_plan_id":"free"},{"bike_id":"eb098a7d-a877-46db-b003-7cf445c6a5bb","system_id":"levelo_inurba_marseille","lat":43.317121,"lon":5.423936,"is_reserved":false,"is_disabled":false,"rental_uris":{"android":"levelo://app?vid=eb098a7d-a877-46db-b003-7cf445c6a5bb","ios":"levelo://app?vid=eb098a7d-a877-46db-b003-7cf445c6a5bb"},"vehicle_type_id":"4","last_reported":1690740403,"current_range_meters":31200,"station_id":"ce4bhp92rcd13ifvqhbg","pricing_plan_id":"free"},{"bike_id":"c643885f-2a05-4fa0-b91d-35ad6a474d95","system_id":"levelo_inurba_marseille","lat":43.317121,"lon":5.423936,"is_reserved":false,"is_disabled":false,"rental_uris":{"android":"levelo://app?vid=c643885f-2a05-4fa0-b91d-35ad6a474d95","ios":"levelo://app?vid=c643885f-2a05-4fa0-b91d-35ad6a474d95"},"vehicle_type_id":"4","last_reported":1690740403,"current_range_meters":12400,"station_id":"ce4bhp92rcd13ifvqhbg","pricing_plan_id":"free"},{"bike_id":"62418d0c-39c7-423b-9533-ef4d0b347d01","system_id":"levelo_inurba_marseille","lat":43.317121,"lon":5.423936,"is_reserved":false,"is_disabled":false,"rental_uris":{"android":"levelo://app?vid=62418d0c-39c7-423b-9533-ef4d0b347d01","ios":"levelo://app?vid=62418d0c-39c7-423b-9533-ef4d0b347d01"},"vehicle_type_id":"4","last_reported":1690740403,"current_range_meters":31600,"station_id":"ce4bhp92rcd13ifvqhbg","pricing_plan_id":"free"},{"bike_id":"7d098a68-7d4b-41fa-bc1e-4dd1cfce6dd2","system_id":"levelo_inurba_marseille","lat":43.317121,"lon":5.423936,"is_reserved":false,"is_disabled":false,"rental_uris":{"android":"levelo://app?vid=7d098a68-7d4b-41fa-bc1e-4dd1cfce6dd2","ios":"levelo://app?vid=7d098a68-7d4b-41fa-bc1e-4dd1cfce6dd2"},"vehicle_type_id":"4","last_reported":1690740403,"current_range_meters":31600,"station_id":"ce4bhp92rcd13ifvqhbg","pricing_plan_id":"free"},{"bike_id":"d3e2a09c-f903-47b2-bf78-aa8a7ca501bb","system_id":"levelo_inurba_marseille","lat":43.317121,"lon":5.423936,"is_reserved":false,"is_disabled":false,"rental_uris":{"android":"levelo://app?vid=d3e2a09c-f903-47b2-bf78-aa8a7ca501bb","ios":"levelo://app?vid=d3e2a09c-f903-47b2-bf78-aa8a7ca501bb"},"vehicle_type_id":"4","last_reported":1690740403,"current_range_meters":31200,"station_id":"ce4bhp92rcd13ifvqhbg","pricing_plan_id":"free"},{"bike_id":"4563c54b-bf53-4d59-9404-1abdb43e3843","system_id":"levelo_inurba_marseille","lat":43.310785,"lon":5.424305,"is_reserved":false,"is_disabled":false,"rental_uris":{"android":"levelo://app?vid=4563c54b-bf53-4d59-9404-1abdb43e3843","ios":"levelo://app?vid=4563c54b-bf53-4d59-9404-1abdb43e3843"},"vehicle_type_id":"4","last_reported":1690740403,"current_range_meters":16800,"station_id":"ce4bhp92rcd13ifvqhag","pricing_plan_id":"free"},{"bike_id":"5ce721e4-ed1a-4860-89e6-4a736700eb75","system_id":"levelo_inurba_marseille","lat":43.310785,"lon":5.424305,"is_reserved":false,"is_disabled":false,"rental_uris":{"android":"levelo://app?vid=5ce721e4-ed1a-4860-89e6-4a736700eb75","ios":"levelo://app?vid=5ce721e4-ed1a-4860-89e6-4a736700eb75"},"vehicle_type_id":"4","last_reported":1690740403,"current_range_meters":31200,"station_id":"ce4bhp92rcd13ifvqhag","pricing_plan_id":"free"},{"bike_id":"fe5d6467-1b05-46a7-8949-cb3a94d13230","system_id":"levelo_inurba_marseille","lat":43.310785,"lon":5.424305,"is_reserved":false,"is_disabled":false,"rental_uris":{"android":"levelo://app?vid=fe5d6467-1b05-46a7-8949-cb3a94d13230","ios":"levelo://app?vid=fe5d6467-1b05-46a7-8949-cb3a94d13230"},"vehicle_type_id":"4","last_reported":1690740403,"current_range_meters":31200,"station_id":"ce4bhp92rcd13ifvqhag","pricing_plan_id":"free"},{"bike_id":"1416199d-8f6b-41b4-b9a6-5a983d00b057","system_id":"levelo_inurba_marseille","lat":43.310785,"lon":5.424305,"is_reserved":false,"is_disabled":false,"rental_uris":{"android":"levelo://app?vid=1416199d-8f6b-41b4-b9a6-5a983d00b057","ios":"levelo://app?vid=1416199d-8f6b-41b4-b9a6-5a983d00b057"},"vehicle_type_id":"4","last_reported":1690740403,"current_range_meters":29600,"station_id":"ce4bhp92rcd13ifvqhag","pricing_plan_id":"free"},{"bike_id":"4eb1c21a-7c62-4a68-9ada-c2575cb8f9a3","system_id":"levelo_inurba_marseille","lat":43.341373,"lon":5.409101,"is_reserved":false,"is_disabled":false,"rental_uris":{"android":"levelo://app?vid=4eb1c21a-7c62-4a68-9ada-c2575cb8f9a3","ios":"levelo://app?vid=4eb1c21a-7c62-4a68-9ada-c2575cb8f9a3"},"vehicle_type_id":"4","last_reported":1690740403,"current_range_meters":26800,"station_id":"","pricing_plan_id":"free"},{"bike_id":"6d98a089-8961-42e4-a6fa-7de81c6742c8","system_id":"levelo_inurba_marseille","lat":43.34143,"lon":5.40905,"is_reserved":false,"is_disabled":false,"rental_uris":{"android":"levelo://app?vid=6d98a089-8961-42e4-a6fa-7de81c6742c8","ios":"levelo://app?vid=6d98a089-8961-42e4-a6fa-7de81c6742c8"},"vehicle_type_id":"4","last_reported":1690740403,"current_range_meters":22400,"station_id":"ce4bhqh2rcd13ifvqhlg","pricing_plan_id":"free"},{"bike_id":"d7a9aee2-ab15-4766-b9ef-2d9ae48e963b","system_id":"levelo_inurba_marseille","lat":43.34145,"lon":5.40907,"is_reserved":false,"is_disabled":false,"rental_uris":{"android":"levelo://app?vid=d7a9aee2-ab15-4766-b9ef-2d9ae48e963b","ios":"levelo://app?vid=d7a9aee2-ab15-4766-b9ef-2d9ae48e963b"},"vehicle_type_id":"4","last_reported":1690740403,"current_range_meters":28000,"station_id":"ce4bhqh2rcd13ifvqhlg","pricing_plan_id":"free"},{"bike_id":"0ed3a11c-92c3-46e9-9d4a-814c95af0e42","system_id":"levelo_inurba_marseille","lat":43.274189,"lon":5.394184,"is_reserved":false,"is_disabled":false,"rental_uris":{"android":"levelo://app?vid=0ed3a11c-92c3-46e9-9d4a-814c95af0e42","ios":"levelo://app?vid=0ed3a11c-92c3-46e9-9d4a-814c95af0e42"},"vehicle_type_id":"4","last_reported":1690740403,"current_range_meters":1600,"station_id":"","pricing_plan_id":"free"},{"bike_id":"4d0b9c6e-cae4-41a6-be89-e70e7a256cdc","system_id":"levelo_inurba_marseille","lat":43.30417,"lon":5.42549,"is_reserved":false,"is_disabled":false,"rental_uris":{"android":"levelo://app?vid=4d0b9c6e-cae4-41a6-be89-e70e7a256cdc","ios":"levelo://app?vid=4d0b9c6e-cae4-41a6-be89-e70e7a256cdc"},"vehicle_type_id":"4","last_reported":1690740403,"current_range_meters":13200,"station_id":"ce4bhoh2rcd13ifvqh6g","pricing_plan_id":"free"},{"bike_id":"098f8732-c971-46e5-aff7-dd03b719432d","system_id":"levelo_inurba_marseille","lat":43.295511,"lon":5.422926,"is_reserved":false,"is_disabled":false,"rental_uris":{"android":"levelo://app?vid=098f8732-c971-46e5-aff7-dd03b719432d","ios":"levelo://app?vid=098f8732-c971-46e5-aff7-dd03b719432d"},"vehicle_type_id":"4","last_reported":1690740403,"current_range_meters":31200,"station_id":"ce4bhph2rcd13ifvqhdg","pricing_plan_id":"free"},{"bike_id":"019545f2-4c73-47e8-95a8-790fd5a71bbc","system_id":"levelo_inurba_marseille","lat":43.295658,"lon":5.422919,"is_reserved":false,"is_disabled":false,"rental_uris":{"android":"levelo://app?vid=019545f2-4c73-47e8-95a8-790fd5a71bbc","ios":"levelo://app?vid=019545f2-4c73-47e8-95a8-790fd5a71bbc"},"vehicle_type_id":"4","last_reported":1690740403,"current_range_meters":26800,"station_id":"ce4bhph2rcd13ifvqhdg","pricing_plan_id":"free"},{"bike_id":"b1324863-3e2d-4130-b980-0f229ea285ab","system_id":"levelo_inurba_marseille","lat":43.29565,"lon":5.422926,"is_reserved":false,"is_disabled":false,"rental_uris":{"android":"levelo://app?vid=b1324863-3e2d-4130-b980-0f229ea285ab","ios":"levelo://app?vid=b1324863-3e2d-4130-b980-0f229ea285ab"},"vehicle_type_id":"4","last_reported":1690740403,"current_range_meters":31200,"station_id":"ce4bhph2rcd13ifvqhdg","pricing_plan_id":"free"},{"bike_id":"09b1299f-b74f-459c-8c16-d0d5b963e0e6","system_id":"levelo_inurba_marseille","lat":43.29559,"lon":5.42292,"is_reserved":false,"is_disabled":false,"rental_uris":{"android":"levelo://app?vid=09b1299f-b74f-459c-8c16-d0d5b963e0e6","ios":"levelo://app?vid=09b1299f-b74f-459c-8c16-d0d5b963e0e6"},"vehicle_type_id":"4","last_reported":1690740403,"current_range_meters":26400,"station_id":"ce4bhph2rcd13ifvqhdg","pricing_plan_id":"free"},{"bike_id":"f3f4aa26-03ca-46f5-aa3c-093e513d0fff","system_id":"levelo_inurba_marseille","lat":43.295511,"lon":5.422926,"is_reserved":false,"is_disabled":false,"rental_uris":{"android":"levelo://app?vid=f3f4aa26-03ca-46f5-aa3c-093e513d0fff","ios":"levelo://app?vid=f3f4aa26-03ca-46f5-aa3c-093e513d0fff"},"vehicle_type_id":"4","last_reported":1690740403,"current_range_meters":10400,"station_id":"ce4bhph2rcd13ifvqhdg","pricing_plan_id":"free"},{"bike_id":"b5d425e3-94b3-4aa3-b7f8-0dcdc76ad302","system_id":"levelo_inurba_marseille","lat":43.29552,"lon":5.42291,"is_reserved":false,"is_disabled":false,"rental_uris":{"android":"levelo://app?vid=b5d425e3-94b3-4aa3-b7f8-0dcdc76ad302","ios":"levelo://app?vid=b5d425e3-94b3-4aa3-b7f8-0dcdc76ad302"},"vehicle_type_id":"4","last_reported":1690740403,"current_range_meters":31200,"station_id":"ce4bhph2rcd13ifvqhdg","pricing_plan_id":"free"},{"bike_id":"56da9aba-5d68-4b2c-8674-1ed9e2c04e2b","system_id":"levelo_inurba_marseille","lat":43.278128,"lon":5.407195,"is_reserved":false,"is_disabled":false,"rental_uris":{"android":"levelo://app?vid=56da9aba-5d68-4b2c-8674-1ed9e2c04e2b","ios":"levelo://app?vid=56da9aba-5d68-4b2c-8674-1ed9e2c04e2b"},"vehicle_type_id":"4","last_reported":1690740403,"current_range_meters":21200,"station_id":"ce4bhnh2rcd13ifvqgtg","pricing_plan_id":"free"},{"bike_id":"7ca67f7f-791a-445f-a1f4-8087aa031e76","system_id":"levelo_inurba_marseille","lat":43.278128,"lon":5.407195,"is_reserved":false,"is_disabled":false,"rental_uris":{"android":"levelo://app?vid=7ca67f7f-791a-445f-a1f4-8087aa031e76","ios":"levelo://app?vid=7ca67f7f-791a-445f-a1f4-8087aa031e76"},"vehicle_type_id":"4","last_reported":1690740403,"current_range_meters":11200,"station_id":"ce4bhnh2rcd13ifvqgtg","pricing_plan_id":"free"},{"bike_id":"a997dcf8-0c4f-4b9c-93e8-cd6dff6f4f1e","system_id":"levelo_inurba_marseille","lat":43.278128,"lon":5.407195,"is_reserved":false,"is_disabled":false,"rental_uris":{"android":"levelo://app?vid=a997dcf8-0c4f-4b9c-93e8-cd6dff6f4f1e","ios":"levelo://app?vid=a997dcf8-0c4f-4b9c-93e8-cd6dff6f4f1e"},"vehicle_type_id":"4","last_reported":1690740403,"current_range_meters":23200,"station_id":"ce4bhnh2rcd13ifvqgtg","pricing_plan_id":"free"},{"bike_id":"f7bd9ac9-a038-4c1d-a739-c7d00d5ee12d","system_id":"levelo_inurba_marseille","lat":43.278128,"lon":5.407195,"is_reserved":false,"is_disabled":false,"rental_uris":{"android":"levelo://app?vid=f7bd9ac9-a038-4c1d-a739-c7d00d5ee12d","ios":"levelo://app?vid=f7bd9ac9-a038-4c1d-a739-c7d00d5ee12d"},"vehicle_type_id":"4","last_reported":1690740403,"current_range_meters":5200,"station_id":"ce4bhnh2rcd13ifvqgtg","pricing_plan_id":"free"},{"bike_id":"5d122c9c-5700-44f7-b2f2-19c8af5ae129","system_id":"levelo_inurba_marseille","lat":43.278128,"lon":5.407195,"is_reserved":false,"is_disabled":false,"rental_uris":{"android":"levelo://app?vid=5d122c9c-5700-44f7-b2f2-19c8af5ae129","ios":"levelo://app?vid=5d122c9c-5700-44f7-b2f2-19c8af5ae129"},"vehicle_type_id":"4","last_reported":1690740403,"current_range_meters":10800,"station_id":"ce4bhnh2rcd13ifvqgtg","pricing_plan_id":"free"},{"bike_id":"008a809c-fef9-4228-9680-cf3b858912bd","system_id":"levelo_inurba_marseille","lat":43.278128,"lon":5.407195,"is_reserved":false,"is_disabled":false,"rental_uris":{"android":"levelo://app?vid=008a809c-fef9-4228-9680-cf3b858912bd","ios":"levelo://app?vid=008a809c-fef9-4228-9680-cf3b858912bd"},"vehicle_type_id":"4","last_reported":1690740403,"current_range_meters":19200,"station_id":"ce4bhnh2rcd13ifvqgtg","pricing_plan_id":"free"},{"bike_id":"834ee541-0f42-4cc3-9f7a-fb8cc543a066","system_id":"levelo_inurba_marseille","lat":43.26681,"lon":5.382694,"is_reserved":false,"is_disabled":false,"rental_uris":{"android":"levelo://app?vid=834ee541-0f42-4cc3-9f7a-fb8cc543a066","ios":"levelo://app?vid=834ee541-0f42-4cc3-9f7a-fb8cc543a066"},"vehicle_type_id":"4","last_reported":1690740403,"current_range_meters":6800,"station_id":"ce4bhg92rcd13ifvqf90","pricing_plan_id":"free"},{"bike_id":"0e333828-c476-4a93-acbf-88839121bacc","system_id":"levelo_inurba_marseille","lat":43.26681,"lon":5.382694,"is_reserved":false,"is_disabled":false,"rental_uris":{"android":"levelo://app?vid=0e333828-c476-4a93-acbf-88839121bacc","ios":"levelo://app?vid=0e333828-c476-4a93-acbf-88839121bacc"},"vehicle_type_id":"4","last_reported":1690740403,"current_range_meters":22800,"station_id":"ce4bhg92rcd13ifvqf90","pricing_plan_id":"free"},{"bike_id":"9e232837-75f9-4a9d-8065-386a00c5fe85","system_id":"levelo_inurba_marseille","lat":43.30807,"lon":5.43532,"is_reserved":false,"is_disabled":false,"rental_uris":{"android":"levelo://app?vid=9e232837-75f9-4a9d-8065-386a00c5fe85","ios":"levelo://app?vid=9e232837-75f9-4a9d-8065-386a00c5fe85"},"vehicle_type_id":"4","last_reported":1690740403,"current_range_meters":0,"station_id":"ce4bhph2rcd13ifvqheg","pricing_plan_id":"free"},{"bike_id":"c735d591-1926-4a41-885b-65f506188752","system_id":"levelo_inurba_marseille","lat":43.3171,"lon":5.43699,"is_reserved":false,"is_disabled":false,"rental_uris":{"android":"levelo://app?vid=c735d591-1926-4a41-885b-65f506188752","ios":"levelo://app?vid=c735d591-1926-4a41-885b-65f506188752"},"vehicle_type_id":"4","last_reported":1690740403,"current_range_meters":1600,"station_id":"ce4bhp92rcd13ifvqhcg","pricing_plan_id":"free"},{"bike_id":"340ed399-2387-47dd-8cbd-19f636836a11","system_id":"levelo_inurba_marseille","lat":43.317194,"lon":5.437028,"is_reserved":false,"is_disabled":false,"rental_uris":{"android":"levelo://app?vid=340ed399-2387-47dd-8cbd-19f636836a11","ios":"levelo://app?vid=340ed399-2387-47dd-8cbd-19f636836a11"},"vehicle_type_id":"4","last_reported":1690740403,"current_range_meters":31200,"station_id":"ce4bhp92rcd13ifvqhcg","pricing_plan_id":"free"},{"bike_id":"f56901e9-df25-4481-9aa4-1d7989c40f65","system_id":"levelo_inurba_marseille","lat":43.317163,"lon":5.437069,"is_reserved":false,"is_disabled":false,"rental_uris":{"android":"levelo://app?vid=f56901e9-df25-4481-9aa4-1d7989c40f65","ios":"levelo://app?vid=f56901e9-df25-4481-9aa4-1d7989c40f65"},"vehicle_type_id":"4","last_reported":1690740403,"current_range_meters":22800,"station_id":"ce4bhp92rcd13ifvqhcg","pricing_plan_id":"free"},{"bike_id":"3638d18e-c92c-468b-9d0e-ddf4b6535058","system_id":"levelo_inurba_marseille","lat":43.3173,"lon":5.43707,"is_reserved":false,"is_disabled":false,"rental_uris":{"android":"levelo://app?vid=3638d18e-c92c-468b-9d0e-ddf4b6535058","ios":"levelo://app?vid=3638d18e-c92c-468b-9d0e-ddf4b6535058"},"vehicle_type_id":"4","last_reported":1690740403,"current_range_meters":5200,"station_id":"ce4bhp92rcd13ifvqhcg","pricing_plan_id":"free"},{"bike_id":"84cd6ee6-5bf8-4445-b49e-c907381c77e2","system_id":"levelo_inurba_marseille","lat":43.317185,"lon":5.437092,"is_reserved":false,"is_disabled":false,"rental_uris":{"android":"levelo://app?vid=84cd6ee6-5bf8-4445-b49e-c907381c77e2","ios":"levelo://app?vid=84cd6ee6-5bf8-4445-b49e-c907381c77e2"},"vehicle_type_id":"4","last_reported":1690740403,"current_range_meters":0,"station_id":"ce4bhp92rcd13ifvqhcg","pricing_plan_id":"free"},{"bike_id":"fb653906-b9ae-4192-91e9-675de5f2100a","system_id":"levelo_inurba_marseille","lat":43.27194,"lon":5.40983,"is_reserved":false,"is_disabled":false,"rental_uris":{"android":"levelo://app?vid=fb653906-b9ae-4192-91e9-675de5f2100a","ios":"levelo://app?vid=fb653906-b9ae-4192-91e9-675de5f2100a"},"vehicle_type_id":"4","last_reported":1690740403,"current_range_meters":5600,"station_id":"","pricing_plan_id":"free"},{"bike_id":"5df4c426-4f49-4393-a1cc-1b2a1bf2bff6","system_id":"levelo_inurba_marseille","lat":43.27176,"lon":5.40994,"is_reserved":false,"is_disabled":false,"rental_uris":{"android":"levelo://app?vid=5df4c426-4f49-4393-a1cc-1b2a1bf2bff6","ios":"levelo://app?vid=5df4c426-4f49-4393-a1cc-1b2a1bf2bff6"},"vehicle_type_id":"4","last_reported":1690740403,"current_range_meters":28000,"station_id":"","pricing_plan_id":"free"},{"bike_id":"324a802c-6ab6-43f2-b46c-8a5a028e684a","system_id":"levelo_inurba_marseille","lat":43.267959,"lon":5.402687,"is_reserved":false,"is_disabled":false,"rental_uris":{"android":"levelo://app?vid=324a802c-6ab6-43f2-b46c-8a5a028e684a","ios":"levelo://app?vid=324a802c-6ab6-43f2-b46c-8a5a028e684a"},"vehicle_type_id":"4","last_reported":1690740403,"current_range_meters":29600,"station_id":"ce501612rcd8frsf0b60","pricing_plan_id":"free"},{"bike_id":"4c401a1b-5646-4d71-ba36-cac67e4e431d","system_id":"levelo_inurba_marseille","lat":43.267959,"lon":5.402687,"is_reserved":false,"is_disabled":false,"rental_uris":{"android":"levelo://app?vid=4c401a1b-5646-4d71-ba36-cac67e4e431d","ios":"levelo://app?vid=4c401a1b-5646-4d71-ba36-cac67e4e431d"},"vehicle_type_id":"4","last_reported":1690740403,"current_range_meters":12400,"station_id":"ce501612rcd8frsf0b60","pricing_plan_id":"free"},{"bike_id":"02d1c8a1-7381-40ed-9514-cfc58970b3fc","system_id":"levelo_inurba_marseille","lat":43.298768,"lon":5.43643,"is_reserved":false,"is_disabled":false,"rental_uris":{"android":"levelo://app?vid=02d1c8a1-7381-40ed-9514-cfc58970b3fc","ios":"levelo://app?vid=02d1c8a1-7381-40ed-9514-cfc58970b3fc"},"vehicle_type_id":"4","last_reported":1690740403,"current_range_meters":17200,"station_id":"ce4bhpp2rcd13ifvqhfg","pricing_plan_id":"free"},{"bike_id":"4c778b19-e2b2-40f9-8cc4-b0dfe5dfa8f7","system_id":"levelo_inurba_marseille","lat":43.298768,"lon":5.43643,"is_reserved":false,"is_disabled":false,"rental_uris":{"android":"levelo://app?vid=4c778b19-e2b2-40f9-8cc4-b0dfe5dfa8f7","ios":"levelo://app?vid=4c778b19-e2b2-40f9-8cc4-b0dfe5dfa8f7"},"vehicle_type_id":"4","last_reported":1690740403,"current_range_meters":31200,"station_id":"ce4bhpp2rcd13ifvqhfg","pricing_plan_id":"free"},{"bike_id":"8fc7ff9a-cd8a-4361-9dad-eb0ac4a9c22d","system_id":"levelo_inurba_marseille","lat":43.298768,"lon":5.43643,"is_reserved":false,"is_disabled":false,"rental_uris":{"android":"levelo://app?vid=8fc7ff9a-cd8a-4361-9dad-eb0ac4a9c22d","ios":"levelo://app?vid=8fc7ff9a-cd8a-4361-9dad-eb0ac4a9c22d"},"vehicle_type_id":"4","last_reported":1690740403,"current_range_meters":4400,"station_id":"ce4bhpp2rcd13ifvqhfg","pricing_plan_id":"free"},{"bike_id":"731ec1ad-3717-4f81-8a0b-99485392202a","system_id":"levelo_inurba_marseille","lat":43.298768,"lon":5.43643,"is_reserved":false,"is_disabled":false,"rental_uris":{"android":"levelo://app?vid=731ec1ad-3717-4f81-8a0b-99485392202a","ios":"levelo://app?vid=731ec1ad-3717-4f81-8a0b-99485392202a"},"vehicle_type_id":"4","last_reported":1690740403,"current_range_meters":31200,"station_id":"ce4bhpp2rcd13ifvqhfg","pricing_plan_id":"free"},{"bike_id":"eb2bc1ca-a957-4b3f-94ce-90205802373f","system_id":"levelo_inurba_marseille","lat":43.27962,"lon":5.42318,"is_reserved":false,"is_disabled":false,"rental_uris":{"android":"levelo://app?vid=eb2bc1ca-a957-4b3f-94ce-90205802373f","ios":"levelo://app?vid=eb2bc1ca-a957-4b3f-94ce-90205802373f"},"vehicle_type_id":"4","last_reported":1690740403,"current_range_meters":6400,"station_id":"","pricing_plan_id":"free"},{"bike_id":"7809146c-f764-4fb5-a8af-0d5a1392c682","system_id":"levelo_inurba_marseille","lat":43.26035,"lon":5.37546,"is_reserved":false,"is_disabled":false,"rental_uris":{"android":"levelo://app?vid=7809146c-f764-4fb5-a8af-0d5a1392c682","ios":"levelo://app?vid=7809146c-f764-4fb5-a8af-0d5a1392c682"},"vehicle_type_id":"4","last_reported":1690740403,"current_range_meters":29200,"station_id":"","pricing_plan_id":"free"},{"bike_id":"191bca93-f1e6-4a5d-82c9-1b22068944f5","system_id":"levelo_inurba_marseille","lat":43.260219,"lon":5.37546,"is_reserved":false,"is_disabled":false,"rental_uris":{"android":"levelo://app?vid=191bca93-f1e6-4a5d-82c9-1b22068944f5","ios":"levelo://app?vid=191bca93-f1e6-4a5d-82c9-1b22068944f5"},"vehicle_type_id":"4","last_reported":1690740403,"current_range_meters":31200,"station_id":"ce4bhgh2rcd13ifvqfa0","pricing_plan_id":"free"},{"bike_id":"e75c72c5-ccce-4732-a968-a9ed300fd94f","system_id":"levelo_inurba_marseille","lat":43.275028,"lon":5.424534,"is_reserved":false,"is_disabled":false,"rental_uris":{"android":"levelo://app?vid=e75c72c5-ccce-4732-a968-a9ed300fd94f","ios":"levelo://app?vid=e75c72c5-ccce-4732-a968-a9ed300fd94f"},"vehicle_type_id":"4","last_reported":1690740403,"current_range_meters":21600,"station_id":"ce4bhn92rcd13ifvqgrg","pricing_plan_id":"free"},