{"last_updated":1721340435,"ttl":30,"version":"2.2","data":{"bikes":[{"bike_id":"d1d81e54-fed9-443c-944a-6820c8a62e66","system_id":"levelo_inurba_marseille","lat":43.31251,"lon":5.36793,"is_reserved":false,"is_disabled":false,"rental_uris":{"android":"levelo://app?vid=d1d81e54-fed9-443c-944a-6820c8a62e66","ios":"levelo://app?vid=d1d81e54-fed9-443c-944a-6820c8a62e66"},"vehicle_type_id":"4","last_reported":1721340435,"current_range_meters":6800,"station_id":"","pricing_plan_id":"cebpf4jnsgd1na2vs0mg"},{"bike_id":"c00e81c1-319b-4058-9ebe-5586e7b7b856","system_id":"levelo_inurba_marseille","lat":43.312239,"lon":5.368562,"is_reserved":false,"is_disabled":false,"rental_uris":{"android":"levelo://app?vid=c00e81c1-319b-4058-9ebe-5586e7b7b856","ios":"levelo://app?vid=c00e81c1-319b-4058-9ebe-5586e7b7b856"},"vehicle_type_id":"4","last_reported":1721340435,"current_range_meters":30400,"station_id":"ce4bgl92rcd13ifvqbq0","pricing_plan_id":"cebpf4jnsgd1na2vs0mg"},{"bike_id":"96885520-ccb7-4449-a2b0-71eb04a68296","system_id":"levelo_inurba_marseille","lat":43.309076,"lon":5.368465,"is_reserved":false,"is_disabled":false,"rental_uris":{"android":"levelo://app?vid=96885520-ccb7-4449-a2b0-71eb04a68296","ios":"levelo://app?vid=96885520-ccb7-4449-a2b0-71eb04a68296"},"vehicle_type_id":"4","last_reported":1721340435,"current_range_meters":7600,"station_id":"ce4bgn92rcd13ifvqbvg","pricing_plan_id":"cebpf4jnsgd1na2vs0mg"},{"bike_id":"23937873-a315-4b79-b74c-50d089110ff5","system_id":"levelo_inurba_marseille","lat":43.309076,"lon":5.368465,"is_reserved":false,"is_disabled":false,"rental_uris":{"android":"levelo://app?vid=23937873-a315-4b79-b74c-50d089110ff5","ios":"levelo://app?vid=23937873-a315-4b79-b74c-50d089110ff5"},"vehicle_type_id":"4","last_reported":1721340435,"current_range_meters":21200,"station_id":"ce4bgn92rcd13ifvqbvg","pricing_plan_id":"cebpf4jnsgd1na2vs0mg"},{"bike_id":"df8b382c-1372-452b-9444-87f0e6482eeb","system_id":"levelo_inurba_marseille","lat":43.314811,"lon":5.373103,"is_reserved":false,"is_disabled":false,"rental_uris":{"android":"levelo://app?vid=df8b382c-1372-452b-9444-87f0e6482eeb","ios":"levelo://app?vid=df8b382c-1372-452b-9444-87f0e6482eeb"},"vehicle_type_id":"4","last_reported":1721340435,"current_range_meters":6000,"station_id":"ce4bgt12rcd13ifvqcd0","pricing_plan_id":"cebpf4jnsgd1na2vs0mg"},{"bike_id":"932145f7-b7f2-4edd-8b20-04cebfeeccfd","system_id":"levelo_inurba_marseille","lat":43.314811,"lon":5.373103,"is_reserved":false,"is_disabled":false,"rental_uris":{"android":"levelo://app?vid=932145f7-b7f2-4edd-8b20-04cebfeeccfd","ios":"levelo://app?vid=932145f7-b7f2-4edd-8b20-04cebfeeccfd"},"vehicle_type_id":"4","last_reported":1721340435,"current_range_meters":31200,"station_id":"ce4bgt12rcd13ifvqcd0","pricing_plan_id":"cebpf4jnsgd1na2vs0mg"},{"bike_id":"863a06fc-f749-4e15-9a82-d61c58c9211c","system_id":"levelo_inurba_marseille","lat":43.314811,"lon":5.373103,"is_reserved":false,"is_disabled":false,"rental_uris":{"android":"levelo://app?vid=863a06fc-f749-4e15-9a82-d61c58c9211c","ios":"levelo://app?vid=863a06fc-f749-4e15-9a82-d61c58c9211c"},"vehicle_type_id":"4","last_reported":1721340435,"current_range_meters":9200,"station_id":"ce4bgt12rcd13ifvqcd0","pricing_plan_id":"cebpf4jnsgd1na2vs0mg"},{"bike_id":"fbd7b1e9-f71e-4026-bbb7-d252cc09f6e3","system_id":"levelo_inurba_marseille","lat":43.314811,"lon":5.373104,"is_reserved":false,"is_disabled":false,"rental_uris":{"android":"levelo://app?vid=fbd7b1e9-f71e-4026-bbb7-d252cc09f6e3","ios":"levelo://app?vid=fbd7b1e9-f71e-4026-bbb7-d252cc09f6e3"},"vehicle_type_id":"4","last_reported":1721340435,"current_range_meters":28000,"station_id":"ce4bgt12rcd13ifvqcd0","pricing_plan_id":"cebpf4jnsgd1na2vs0mg"},{"bike_id":"5a04dd7c-d395-40f1-902d-e5c5fed6de80","system_id":"levelo_inurba_marseille","lat":43.314811,"lon":5.373103,"is_reserved":false,"is_disabled":false,"rental_uris":{"android":"levelo://app?vid=5a04dd7c-d395-40f1-902d-e5c5fed6de80","ios":"levelo://app?vid=5a04dd7c-d395-40f1-902d-e5c5fed6de80"},"vehicle_type_id":"4","last_reported":1721340435,"current_range_meters":20000,"station_id":"ce4bgt12rcd13ifvqcd0","pricing_plan_id":"cebpf4jnsgd1na2vs0mg"},{"bike_id":"146a404b-2318-4b7a-916c-211f8b4a3880","system_id":"levelo_inurba_marseille","lat":43.309034,"lon":5.371783,"is_reserved":false,"is_disabled":false,"rental_uris":{"android":"levelo://app?vid=146a404b-2318-4b7a-916c-211f8b4a3880","ios":"levelo://app?vid=146a404b-2318-4b7a-916c-211f8b4a3880"},"vehicle_type_id":"4","last_reported":1721340435,"current_range_meters":25200,"station_id":"ce4bguh2rcd13ifvqckg","pricing_plan_id":"cebpf4jnsgd1na2vs0mg"},{"bike_id":"5456c9d6-161f-4af7-a821-6987daefbea3","system_id":"levelo_inurba_marseille","lat":43.309034,"lon":5.371783,"is_reserved":false,"is_disabled":false,"rental_uris":{"android":"levelo://app?vid=5456c9d6-161f-4af7-a821-6987daefbea3","ios":"levelo://app?vid=5456c9d6-161f-4af7-a821-6987daefbea3"},"vehicle_type_id":"4","last_reported":1721340435,"current_range_meters":0,"station_id":"ce4bguh2rcd13ifvqckg","pricing_plan_id":"cebpf4jnsgd1na2vs0mg"},{"bike_id":"7df8dd4a-c865-4f29-b768-21740d0daaaa","system_id":"levelo_inurba_marseille","lat":43.314386,"lon":5.373888,"is_reserved":false,"is_disabled":false,"rental_uris":{"android":"levelo://app?vid=7df8dd4a-c865-4f29-b768-21740d0daaaa","ios":"levelo://app?vid=7df8dd4a-c865-4f29-b768-21740d0daaaa"},"vehicle_type_id":"4","last_reported":1721340435,"current_range_meters":27200,"station_id":"","pricing_plan_id":"cebpf4jnsgd1na2vs0mg"},{"bike_id":"594fadbb-a981-40cd-bda7-ad2b731b8482","system_id":"levelo_inurba_marseille","lat":43.31453,"lon":5.37386,"is_reserved":false,"is_disabled":false,"rental_uris":{"android":"levelo://app?vid=594fadbb-a981-40cd-bda7-ad2b731b8482","ios":"levelo://app?vid=594fadbb-a981-40cd-bda7-ad2b731b8482"},"vehicle_type_id":"4","last_reported":1721340435,"current_range_meters":16400,"station_id":"","pricing_plan_id":"cebpf4jnsgd1na2vs0mg"},{"bike_id":"c66bd768-3ef3-470c-9d79-69f87724f401","system_id":"levelo_inurba_marseille","lat":43.309039,"lon":5.371797,"is_reserved":false,"is_disabled":false,"rental_uris":{"android":"levelo://app?vid=c66bd768-3ef3-470c-9d79-69f87724f401","ios":"levelo://app?vid=c66bd768-3ef3-470c-9d79-69f87724f401"},"vehicle_type_id":"4","last_reported":1721340435,"current_range_meters":9600,"station_id":"ce4bguh2rcd13ifvqckg","pricing_plan_id":"cebpf4jnsgd1na2vs0mg"},{"bike_id":"4f843a89-c095-43ad-810f-70f65d0849d5","system_id":"levelo_inurba_marseille","lat":43.31848,"lon":5.36264,"is_reserved":false,"is_disabled":false,"rental_uris":{"android":"levelo://app?vid=4f843a89-c095-43ad-810f-70f65d0849d5","ios":"levelo://app?vid=4f843a89-c095-43ad-810f-70f65d0849d5"},"vehicle_type_id":"4","last_reported":1721340435,"current_range_meters":15200,"station_id":"","pricing_plan_id":"cebpf4jnsgd1na2vs0mg"},{"bike_id":"486b143b-aa38-4b69-9f4f-9f2fa1f59879","system_id":"levelo_inurba_marseille","lat":43.305442,"lon":5.365332,"is_reserved":false,"is_disabled":false,"rental_uris":{"android":"levelo://app?vid=486b143b-aa38-4b69-9f4f-9f2fa1f59879","ios":"levelo://app?vid=486b143b-aa38-4b69-9f4f-9f2fa1f59879"},"vehicle_type_id":"4","last_reported":1721340435,"current_range_meters":0,"station_id":"ce4bgs12rcd13ifvqcag","pricing_plan_id":"cebpf4jnsgd1na2vs0mg"},{"bike_id":"70465c97-b6ce-4cce-97b8-8a7b5d6bd44e","system_id":"levelo_inurba_marseille","lat":43.3053,"lon":5.36652,"is_reserved":false,"is_disabled":false,"rental_uris":{"android":"levelo://app?vid=70465c97-b6ce-4cce-97b8-8a7b5d6bd44e","ios":"levelo://app?vid=70465c97-b6ce-4cce-97b8-8a7b5d6bd44e"},"vehicle_type_id":"4","last_reported":1721340435,"current_range_meters":4000,"station_id":"","pricing_plan_id":"cebpf4jnsgd1na2vs0mg"},{"bike_id":"ef9b37e6-3a78-415d-b275-1690bdbcf488","system_id":"levelo_inurba_marseille","lat":43.305989,"lon":5.37225,"is_reserved":false,"is_disabled":false,"rental_uris":{"android":"levelo://app?vid=ef9b37e6-3a78-415d-b275-1690bdbcf488","ios":"levelo://app?vid=ef9b37e6-3a78-415d-b275-1690bdbcf488"},"vehicle_type_id":"4","last_reported":1721340435,"current_range_meters":15200,"station_id":"ce4bgqh2rcd13ifvqc4g","pricing_plan_id":"cebpf4jnsgd1na2vs0mg"},{"bike_id":"851caf3c-a51d-4b93-9544-71c39bebf7e1","system_id":"levelo_inurba_marseille","lat":43.30599,"lon":5.37232,"is_reserved":false,"is_disabled":false,"rental_uris":{"android":"levelo://app?vid=851caf3c-a51d-4b93-9544-71c39bebf7e1","ios":"levelo://app?vid=851caf3c-a51d-4b93-9544-71c39bebf7e1"},"vehicle_type_id":"4","last_reported":1721340435,"current_range_meters":4000,"station_id":"ce4bgqh2rcd13ifvqc4g","pricing_plan_id":"cebpf4jnsgd1na2vs0mg"},{"bike_id":"b3a0794e-ced4-41f9-948f-bb5385d85110","system_id":"levelo_inurba_marseille","lat":43.311125,"lon":5.377624,"is_reserved":false,"is_disabled":false,"rental_uris":{"android":"levelo://app?vid=b3a0794e-ced4-41f9-948f-bb5385d85110","ios":"levelo://app?vid=b3a0794e-ced4-41f9-948f-bb5385d85110"},"vehicle_type_id":"4","last_reported":1721340435,"current_range_meters":11200,"station_id":"ce4bgt92rcd13ifvqcg0","pricing_plan_id":"cebpf4jnsgd1na2vs0mg"},{"bike_id":"cbc2e90a-d90b-4e78-87c0-e82d5dcd35d2","system_id":"levelo_inurba_marseille","lat":43.306392,"lon":5.374225,"is_reserved":false,"is_disabled":false,"rental_uris":{"android":"levelo://app?vid=cbc2e90a-d90b-4e78-87c0-e82d5dcd35d2","ios":"levelo://app?vid=cbc2e90a-d90b-4e78-87c0-e82d5dcd35d2"},"vehicle_type_id":"4","last_reported":1721340435,"current_range_meters":4800,"station_id":"","pricing_plan_id":"cebpf4jnsgd1na2vs0mg"},{"bike_id":"246fae45-698e-4953-9327-5bde9919547d","system_id":"levelo_inurba_marseille","lat":43.317075,"lon":5.377367,"is_reserved":false,"is_disabled":false,"rental_uris":{"android":"levelo://app?vid=246fae45-698e-4953-9327-5bde9919547d","ios":"levelo://app?vid=246fae45-698e-4953-9327-5bde9919547d"},"vehicle_type_id":"4","last_reported":1721340435,"current_range_meters":30400,"station_id":"ce4bgth2rcd13ifvqch0","pricing_plan_id":"cebpf4jnsgd1na2vs0mg"},{"bike_id":"90f0c65e-f3ba-4b8c-aa10-31f1b6f3dd4a","system_id":"levelo_inurba_marseille","lat":43.317075,"lon":5.377367,"is_reserved":false,"is_disabled":false,"rental_uris":{"android":"levelo://app?vid=90f0c65e-f3ba-4b8c-aa10-31f1b6f3dd4a","ios":"levelo://app?vid=90f0c65e-f3ba-4b8c-aa10-31f1b6f3dd4a"},"vehicle_type_id":"4","last_reported":1721340435,"current_range_meters":21200,"station_id":"ce4bgth2rcd13ifvqch0","pricing_plan_id":"cebpf4jnsgd1na2vs0mg"},{"bike_id":"18095e67-fbdb-4378-ad96-f9aa18839d5a","system_id":"levelo_inurba_marseille","lat":43.317075,"lon":5.377367,"is_reserved":false,"is_disabled":false,"rental_uris":{"android":"levelo://app?vid=18095e67-fbdb-4378-ad96-f9aa18839d5a","ios":"levelo://app?vid=18095e67-fbdb-4378-ad96-f9aa18839d5a"},"vehicle_type_id":"4","last_reported":1721340435,"current_range_meters":17600,"station_id":"ce4bgth2rcd13ifvqch0","pricing_plan_id":"cebpf4jnsgd1na2vs0mg"},{"bike_id":"e821fce2-2604-48dd-9702-1d1b4e38ddfc","system_id":"levelo_inurba_marseille","lat":43.30306,"lon":5.36886,"is_reserved":false,"is_disabled":false,"rental_uris":{"android":"levelo://app?vid=e821fce2-2604-48dd-9702-1d1b4e38ddfc","ios":"levelo://app?vid=e821fce2-2604-48dd-9702-1d1b4e38ddfc"},"vehicle_type_id":"4","last_reported":1721340435,"current_range_meters":14800,"station_id":"ce4bgqh2rcd13ifvqc5g","pricing_plan_id":"cebpf4jnsgd1na2vs0mg"},{"bike_id":"8b1ab5ae-3a23-47c8-a7df-296d7a195604","system_id":"levelo_inurba_marseille","lat":43.303077,"lon":5.369037,"is_reserved":false,"is_disabled":false,"rental_uris":{"android":"levelo://app?vid=8b1ab5ae-3a23-47c8-a7df-296d7a195604","ios":"levelo://app?vid=8b1ab5ae-3a23-47c8-a7df-296d7a195604"},"vehicle_type_id":"4","last_reported":1721340435,"current_range_meters":0,"station_id":"ce4bgqh2rcd13ifvqc5g","pricing_plan_id":"cebpf4jnsgd1na2vs0mg"},{"bike_id":"823932b1-edd3-44bd-8118-9764c794168c","system_id":"levelo_inurba_marseille","lat":43.30304,"lon":5.368987,"is_reserved":false,"is_disabled":false,"rental_uris":{"android":"levelo://app?vid=823932b1-edd3-44bd-8118-9764c794168c","ios":"levelo://app?vid=823932b1-edd3-44bd-8118-9764c794168c"},"vehicle_type_id":"4","last_reported":1721340435,"current_range_meters":7600,"station_id":"ce4bgqh2rcd13ifvqc5g","pricing_plan_id":"cebpf4jnsgd1na2vs0mg"},{"bike_id":"73f16c0e-fc86-462a-a37a-93f6ff7274f5","system_id":"levelo_inurba_marseille","lat":43.303046,"lon":5.368981,"is_reserved":false,"is_disabled":false,"rental_uris":{"android":"levelo://app?vid=73f16c0e-fc86-462a-a37a-93f6ff7274f5","ios":"levelo://app?vid=73f16c0e-fc86-462a-a37a-93f6ff7274f5"},"vehicle_type_id":"4","last_reported":1721340435,"current_range_meters":14400,"station_id":"ce4bgqh2rcd13ifvqc5g","pricing_plan_id":"cebpf4jnsgd1na2vs0mg"},{"bike_id":"29d308ea-a890-449c-866f-6d0bed3101d5","system_id":"levelo_inurba_marseille","lat":43.315289,"lon":5.380349,"is_reserved":false,"is_disabled":false,"rental_uris":{"android":"levelo://app?vid=29d308ea-a890-449c-866f-6d0bed3101d5","ios":"levelo://app?vid=29d308ea-a890-449c-866f-6d0bed3101d5"},"vehicle_type_id":"4","last_reported":1721340435,"current_range_meters":22000,"station_id":"ce4bhsp2rcd13ifvqi50","pricing_plan_id":"cebpf4jnsgd1na2vs0mg"},{"bike_id":"63e72ca1-4674-45ff-836e-af89efb8794c","system_id":"levelo_inurba_marseille","lat":43.315289,"lon":5.380349,"is_reserved":false,"is_disabled":false,"rental_uris":{"android":"levelo://app?vid=63e72ca1-4674-45ff-836e-af89efb8794c","ios":"levelo://app?vid=63e72ca1-4674-45ff-836e-af89efb8794c"},"vehicle_type_id":"4","last_reported":1721340435,"current_range_meters":20000,"station_id":"ce4bhsp2rcd13ifvqi50","pricing_plan_id":"cebpf4jnsgd1na2vs0mg"},{"bike_id":"4269ced6-a68f-4ee7-b8f9-4ad26a0a25c6","system_id":"levelo_inurba_marseille","lat":43.315289,"lon":5.380349,"is_reserved":false,"is_disabled":false,"rental_uris":{"android":"levelo://app?vid=4269ced6-a68f-4ee7-b8f9-4ad26a0a25c6","ios":"levelo://app?vid=4269ced6-a68f-4ee7-b8f9-4ad26a0a25c6"},"vehicle_type_id":"4","last_reported":1721340435,"current_range_meters":4400,"station_id":"ce4bhsp2rcd13ifvqi50","pricing_plan_id":"cebpf4jnsgd1na2vs0mg"},{"bike_id":"99e1bcf8-afa1-4687-b927-2fd010acc7a4","system_id":"levelo_inurba_marseille","lat":43.301939,"lon":5.366286,"is_reserved":false,"is_disabled":false,"rental_uris":{"android":"levelo://app?vid=99e1bcf8-afa1-4687-b927-2fd010acc7a4","ios":"levelo://app?vid=99e1bcf8-afa1-4687-b927-2fd010acc7a4"},"vehicle_type_id":"4","last_reported":1721340435,"current_range_meters":6000,"station_id":"ce4bgrh2rcd13ifvqc8g","pricing_plan_id":"cebpf4jnsgd1na2vs0mg"},{"bike_id":"94c01bfc-0359-487c-9356-c61b8c9f4fea","system_id":"levelo_inurba_marseille","lat":43.308012,"lon":5.381511,"is_reserved":false,"is_disabled":false,"rental_uris":{"android":"levelo://app?vid=94c01bfc-0359-487c-9356-c61b8c9f4fea","ios":"levelo://app?vid=94c01bfc-0359-487c-9356-c61b8c9f4fea"},"vehicle_type_id":"4","last_reported":1721340435,"current_range_meters":4400,"station_id":"ce4bgt12rcd13ifvqce0","pricing_plan_id":"cebpf4jnsgd1na2vs0mg"},{"bike_id":"036fca14-c92d-4e5f-be55-0369aebd0c06","system_id":"levelo_inurba_marseille","lat":43.308012,"lon":5.381511,"is_reserved":false,"is_disabled":false,"rental_uris":{"android":"levelo://app?vid=036fca14-c92d-4e5f-be55-0369aebd0c06","ios":"levelo://app?vid=036fca14-c92d-4e5f-be55-0369aebd0c06"},"vehicle_type_id":"4","last_reported":1721340435,"current_range_meters":6000,"station_id":"ce4bgt12rcd13ifvqce0","pricing_plan_id":"cebpf4jnsgd1na2vs0mg"},{"bike_id":"9d3ad9e9-768f-4d74-9053-c832934ce231","system_id":"levelo_inurba_marseille","lat":43.308012,"lon":5.381511,"is_reserved":false,"is_disabled":false,"rental_uris":{"android":"levelo://app?vid=9d3ad9e9-768f-4d74-9053-c832934ce231","ios":"levelo://app?vid=9d3ad9e9-768f-4d74-9053-c832934ce231"},"vehicle_type_id":"4","last_reported":1721340435,"current_range_meters":10800,"station_id":"ce4bgt12rcd13ifvqce0","pricing_plan_id":"cebpf4jnsgd1na2vs0mg"},{"bike_id":"a4ee2d92-495c-4607-8bdb-33b5d5e55ada","system_id":"levelo_inurba_marseille","lat":43.308012,"lon":5.381511,"is_reserved":false,"is_disabled":false,"rental_uris":{"android":"levelo://app?vid=a4ee2d92-495c-4607-8bdb-33b5d5e55ada","ios":"levelo://app?vid=a4ee2d92-495c-4607-8bdb-33b5d5e55ada"},"vehicle_type_id":"4","last_reported":1721340435,"current_range_meters":22000,"station_id":"ce4bgt12rcd13ifvqce0","pricing_plan_id":"cebpf4jnsgd1na2vs0mg"},{"bike_id":"0c53b59e-8a41-4567-83a9-22377a32c8bd","system_id":"levelo_inurba_marseille","lat":43.308012,"lon":5.381511,"is_reserved":false,"is_disabled":false,"rental_uris":{"android":"levelo://app?vid=0c53b59e-8a41-4567-83a9-22377a32c8bd","ios":"levelo://app?vid=0c53b59e-8a41-4567-83a9-22377a32c8bd"},"vehicle_type_id":"4","last_reported":1721340435,"current_range_meters":17200,"station_id":"ce4bgt12rcd13ifvqce0","pricing_plan_id":"cebpf4jnsgd1na2vs0mg"},{"bike_id":"aae7f301-7ae9-46c1-908e-a55f00abbb75","system_id":"levelo_inurba_marseille","lat":43.308012,"lon":5.381511,"is_reserved":false,"is_disabled":false,"rental_uris":{"android":"levelo://app?vid=aae7f301-7ae9-46c1-908e-a55f00abbb75","ios":"levelo://app?vid=aae7f301-7ae9-46c1-908e-a55f00abbb75"},"vehicle_type_id":"4","last_reported":1721340435,"current_range_meters":10400,"station_id":"ce4bgt12rcd13ifvqce0","pricing_plan_id":"cebpf4jnsgd1na2vs0mg"},{"bike_id":"8254c128-093f-4ab7-8493-f745979d26d1","system_id":"levelo_inurba_marseille","lat":43.308012,"lon":5.381511,"is_reserved":false,"is_disabled":false,"rental_uris":{"android":"levelo://app?vid=8254c128-093f-4ab7-8493-f745979d26d1","ios":"levelo://app?vid=8254c128-093f-4ab7-8493-f745979d26d1"},"vehicle_type_id":"4","last_reported":1721340435,"current_range_meters":4400,"station_id":"ce4bgt12rcd13ifvqce0","pricing_plan_id":"cebpf4jnsgd1na2vs0mg"},{"bike_id":"b451ada9-d662-464d-a8f2-9ec49065366f","system_id":"levelo_inurba_marseille","lat":43.304606,"lon":5.379026,"is_reserved":false,"is_disabled":false,"rental_uris":{"android":"levelo://app?vid=b451ada9-d662-464d-a8f2-9ec49065366f","ios":"levelo://app?vid=b451ada9-d662-464d-a8f2-9ec49065366f"},"vehicle_type_id":"4","last_reported":1721340435,"current_range_meters":4400,"station_id":"ce4bgup2rcd13ifvqcn0","pricing_plan_id":"cebpf4jnsgd1na2vs0mg"},{"bike_id":"fda79ac7-0534-4e36-a424-50fe1a588c73","system_id":"levelo_inurba_marseille","lat":43.3046,"lon":5.37908,"is_reserved":false,"is_disabled":false,"rental_uris":{"android":"levelo://app?vid=fda79ac7-0534-4e36-a424-50fe1a588c73","ios":"levelo://app?vid=fda79ac7-0534-4e36-a424-50fe1a588c73"},"vehicle_type_id":"4","last_reported":1721340435,"current_range_meters":0,"station_id":"ce4bgup2rcd13ifvqcn0","pricing_plan_id":"cebpf4jnsgd1na2vs0mg"},{"bike_id":"8f962ede-c569-4563-8b57-1cf223c13657","system_id":"levelo_inurba_marseille","lat":43.324771,"lon":5.36557,"is_reserved":false,"is_disabled":false,"rental_uris":{"android":"levelo://app?vid=8f962ede-c569-4563-8b57-1cf223c13657","ios":"levelo://app?vid=8f962ede-c569-4563-8b57-1cf223c13657"},"vehicle_type_id":"4","last_reported":1721340435,"current_range_meters":18400,"station_id":"ce4bhs12rcd13ifvqhvg","pricing_plan_id":"cebpf4jnsgd1na2vs0mg"},{"bike_id":"d2049865-496c-4ca9-bdf6-68c3cbe7fb10","system_id":"levelo_inurba_marseille","lat":43.32477,"lon":5.36587,"is_reserved":false,"is_disabled":false,"rental_uris":{"android":"levelo://app?vid=d2049865-496c-4ca9-bdf6-68c3cbe7fb10","ios":"levelo://app?vid=d2049865-496c-4ca9-bdf6-68c3cbe7fb10"},"vehicle_type_id":"4","last_reported":1721340435,"current_range_meters":31200,"station_id":"ce4bhs12rcd13ifvqhvg","pricing_plan_id":"cebpf4jnsgd1na2vs0mg"},{"bike_id":"843acb09-ec00-42a4-8f8a-3a11a4562824","system_id":"levelo_inurba_marseille","lat":43.324771,"lon":5.36557,"is_reserved":false,"is_disabled":false,"rental_uris":{"android":"levelo://app?vid=843acb09-ec00-42a4-8f8a-3a11a4562824","ios":"levelo://app?vid=843acb09-ec00-42a4-8f8a-3a11a4562824"},"vehicle_type_id":"4","last_reported":1721340435,"current_range_meters":22800,"station_id":"ce4bhs12rcd13ifvqhvg","pricing_plan_id":"cebpf4jnsgd1na2vs0mg"},{"bike_id":"0d7a37ce-b0f3-4121-b10b-b171f38a5a1a","system_id":"levelo_inurba_marseille","lat":43.324771,"lon":5.36557,"is_reserved":false,"is_disabled":false,"rental_uris":{"android":"levelo://app?vid=0d7a37ce-b0f3-4121-b10b-b171f38a5a1a","ios":"levelo://app?vid=0d7a37ce-b0f3-4121-b10b-b171f38a5a1a"},"vehicle_type_id":"4","last_reported":1721340435,"current_range_meters":10800,"station_id":"ce4bhs12rcd13ifvqhvg","pricing_plan_id":"cebpf4jnsgd1na2vs0mg"},{"bike_id":"5129ef68-2e3a-4dae-a87c-926fecb8057d","system_id":"levelo_inurba_marseille","lat":43.324771,"lon":5.36557,"is_reserved":false,"is_disabled":false,"rental_uris":{"android":"levelo://app?vid=5129ef68-2e3a-4dae-a87c-926fecb8057d","ios":"levelo://app?vid=5129ef68-2e3a-4dae-a87c-926fecb8057d"},"vehicle_type_id":"4","last_reported":1721340435,"current_range_meters":25200,"station_id":"ce4bhs12rcd13ifvqhvg","pricing_plan_id":"cebpf4jnsgd1na2vs0mg"},{"bike_id":"b264075c-aa4c-43c8-beff-c6ca08094da2","system_id":"levelo_inurba_marseille","lat":43.324771,"lon":5.36557,"is_reserved":false,"is_disabled":false,"rental_uris":{"android":"levelo://app?vid=b264075c-aa4c-43c8-beff-c6ca08094da2","ios":"levelo://app?vid=b264075c-aa4c-43c8-beff-c6ca08094da2"},"vehicle_type_id":"4","last_reported":1721340435,"current_range_meters":26800,"station_id":"ce4bhs12rcd13ifvqhvg","pricing_plan_id":"cebpf4jnsgd1na2vs0mg"},{"bike_id":"4916e7b9-ad42-444d-bdf5-d4cbd7d19856","system_id":"levelo_inurba_marseille","lat":43.32483,"lon":5.36564,"is_reserved":false,"is_disabled":false,"rental_uris":{"android":"levelo://app?vid=4916e7b9-ad42-444d-bdf5-d4cbd7d19856","ios":"levelo://app?vid=4916e7b9-ad42-444d-bdf5-d4cbd7d19856"},"vehicle_type_id":"4","last_reported":1721340435,"current_range_meters":2400,"station_id":"ce4bhs12rcd13ifvqhvg","pricing_plan_id":"cebpf4jnsgd1na2vs0mg"},{"bike_id":"00960f7d-bfdd-411d-80f2-35f20852eea9","system_id":"levelo_inurba_marseille","lat":43.324771,"lon":5.36557,"is_reserved":false,"is_disabled":false,"rental_uris":{"android":"levelo://app?vid=00960f7d-bfdd-411d-80f2-35f20852eea9","ios":"levelo://app?vid=00960f7d-bfdd-411d-80f2-35f20852eea9"},"vehicle_type_id":"4","last_reported":1721340435,"current_range_meters":10400,"station_id":"ce4bhs12rcd13ifvqhvg","pricing_plan_id":"cebpf4jnsgd1na2vs0mg"},{"bike_id":"a8f1ca17-6e4d-48aa-b55a-f310177df4a2","system_id":"levelo_inurba_marseille","lat":43.310804,"lon":5.38359,"is_reserved":false,"is_disabled":false,"rental_uris":{"android":"levelo://app?vid=a8f1ca17-6e4d-48aa-b55a-f310177df4a2","ios":"levelo://app?vid=a8f1ca17-6e4d-48aa-b55a-f310177df4a2"},"vehicle_type_id":"4","last_reported":1721340435,"current_range_meters":400,"station_id":"ce4bgv92rcd13ifvqcr0","pricing_plan_id":"cebpf4jnsgd1na2vs0mg"},{"bike_id":"b1fda80f-9b9e-4698-a360-270f53df2371","system_id":"levelo_inurba_marseille","lat":43.310804,"lon":5.38359,"is_reserved":false,"is_disabled":false,"rental_uris":{"android":"levelo://app?vid=b1fda80f-9b9e-4698-a360-270f53df2371","ios":"levelo://app?vid=b1fda80f-9b9e-4698-a360-270f53df2371"},"vehicle_type_id":"4","last_reported":1721340435,"current_range_meters":30800,"station_id":"ce4bgv92rcd13ifvqcr0","pricing_plan_id":"cebpf4jnsgd1na2vs0mg"},{"bike_id":"1c0c3b36-b045-48e7-89c0-acaff41f26b6","system_id":"levelo_inurba_marseille","lat":43.310804,"lon":5.38359,"is_reserved":false,"is_disabled":false,"rental_uris":{"android":"levelo://app?vid=1c0c3b36-b045-48e7-89c0-acaff41f26b6","ios":"levelo://app?vid=1c0c3b36-b045-48e7-89c0-acaff41f26b6"},"vehicle_type_id":"4","last_reported":1721340435,"current_range_meters":17200,"station_id":"ce4bgv92rcd13ifvqcr0","pricing_plan_id":"cebpf4jnsgd1na2vs0mg"},{"bike_id":"2095c7d8-8376-44c1-a937-2f9e55cc9457","system_id":"levelo_inurba_marseille","lat":43.319935,"lon":5.381699,"is_reserved":false,"is_disabled":false,"rental_uris":{"android":"levelo://app?vid=2095c7d8-8376-44c1-a937-2f9e55cc9457","ios":"levelo://app?vid=2095c7d8-8376-44c1-a937-2f9e55cc9457"},"vehicle_type_id":"4","last_reported":1721340435,"current_range_meters":27600,"station_id":"ce4bhr12rcd13ifvqhpg","pricing_plan_id":"cebpf4jnsgd1na2vs0mg"},{"bike_id":"6153fb7f-1038-4e02-bdc0-6171be917c4a","system_id":"levelo_inurba_marseille","lat":43.319935,"lon":5.381699,"is_reserved":false,"is_disabled":false,"rental_uris":{"android":"levelo://app?vid=6153fb7f-1038-4e02-bdc0-6171be917c4a","ios":"levelo://app?vid=6153fb7f-1038-4e02-bdc0-6171be917c4a"},"vehicle_type_id":"4","last_reported":1721340435,"current_range_meters":27600,"station_id":"ce4bhr12rcd13ifvqhpg","pricing_plan_id":"cebpf4jnsgd1na2vs0mg"},{"bike_id":"84475e7d-7a1a-4bd7-a0a7-ff9491d3a01f","system_id":"levelo_inurba_marseille","lat":43.313571,"lon":5.384829,"is_reserved":false,"is_disabled":false,"rental_uris":{"android":"levelo://app?vid=84475e7d-7a1a-4bd7-a0a7-ff9491d3a01f","ios":"levelo://app?vid=84475e7d-7a1a-4bd7-a0a7-ff9491d3a01f"},"vehicle_type_id":"4","last_reported":1721340435,"current_range_meters":20000,"station_id":"ce4bgt92rcd13ifvqcf0","pricing_plan_id":"cebpf4jnsgd1na2vs0mg"},{"bike_id":"55a9c8a4-cf21-40f8-a4fd-ed0e3ff73d83","system_id":"levelo_inurba_marseille","lat":43.313571,"lon":5.384829,"is_reserved":false,"is_disabled":false,"rental_uris":{"android":"levelo://app?vid=55a9c8a4-cf21-40f8-a4fd-ed0e3ff73d83","ios":"levelo://app?vid=55a9c8a4-cf21-40f8-a4fd-ed0e3ff73d83"},"vehicle_type_id":"4","last_reported":1721340435,"current_range_meters":0,"station_id":"ce4bgt92rcd13ifvqcf0","pricing_plan_id":"cebpf4jnsgd1na2vs0mg"},{"bike_id":"41492762-12a5-4033-aa10-ec72c15738dd","system_id":"levelo_inurba_marseille","lat":43.296277,"lon":5.377108,"is_reserved":false,"is_disabled":false,"rental_uris":{"android":"levelo://app?vid=41492762-12a5-4033-aa10-ec72c15738dd","ios":"levelo://app?vid=41492762-12a5-4033-aa10-ec72c15738dd"},"vehicle_type_id":"4","last_reported":1721340435,"current_range_meters":5200,"station_id":"ce4bgi92rcd13ifvqb90","pricing_plan_id":"cebpf4jnsgd1na2vs0mg"},{"bike_id":"82d251d5-e1b0-4b5a-8608-752d45735ca0","system_id":"levelo_inurba_marseille","lat":43.305364,"lon":5.384119,"is_reserved":false,"is_disabled":false,"rental_uris":{"android":"levelo://app?vid=82d251d5-e1b0-4b5a-8608-752d45735ca0","ios":"levelo://app?vid=82d251d5-e1b0-4b5a-8608-752d45735ca0"},"vehicle_type_id":"4","last_reported":1721340435,"current_range_meters":800,"station_id":"ce4bgg92rcd13ifvqb30","pricing_plan_id":"cebpf4jnsgd1na2vs0mg"},{"bike_id":"9eca5a76-10ec-424b-b5dd-88c3fcf758ff","system_id":"levelo_inurba_marseille","lat":43.305364,"lon":5.384119,"is_reserved":false,"is_disabled":false,"rental_uris":{"android":"levelo://app?vid=9eca5a76-10ec-424b-b5dd-88c3fcf758ff","ios":"levelo://app?vid=9eca5a76-10ec-424b-b5dd-88c3fcf758ff"},"vehicle_type_id":"4","last_reported":1721340435,"current_range_meters":13200,"station_id":"ce4bgg92rcd13ifvqb30","pricing_plan_id":"cebpf4jnsgd1na2vs0mg"},{"bike_id":"b4d76a9e-6c89-4057-8447-ad782a2561bd","system_id":"levelo_inurba_marseille","lat":43.298433,"lon":5.362774,"is_reserved":false,"is_disabled":false,"rental_uris":{"android":"levelo://app?vid=b4d76a9e-6c89-4057-8447-ad782a2561bd","ios":"levelo://app?vid=b4d76a9e-6c89-4057-8447-ad782a2561bd"},"vehicle_type_id":"4","last_reported":1721340435,"current_range_meters":400,"station_id":"ce4bgpp2rcd13ifvqc3g","pricing_plan_id":"cebpf4jnsgd1na2vs0mg"},{"bike_id":"6e28101b-0367-41f0-8d61-f184dbf6427d","system_id":"levelo_inurba_marseille","lat":43.299243,"lon":5.37481,"is_reserved":false,"is_disabled":false,"rental_uris":{"android":"levelo://app?vid=6e28101b-0367-41f0-8d61-f184dbf6427d","ios":"levelo://app?vid=6e28101b-0367-41f0-8d61-f184dbf6427d"},"vehicle_type_id":"4","last_reported":1721340435,"current_range_meters":20800,"station_id":"ce4bgjh2rcd13ifvqbg0","pricing_plan_id":"cebpf4jnsgd1na2vs0mg"},{"bike_id":"fbdb890b-1bea-42c5-bb9f-06b114efb281","system_id":"levelo_inurba_marseille","lat":43.311722,"lon":5.387247,"is_reserved":false,"is_disabled":false,"rental_uris":{"android":"levelo://app?vid=fbdb890b-1bea-42c5-bb9f-06b114efb281","ios":"levelo://app?vid=fbdb890b-1bea-42c5-bb9f-06b114efb281"},"vehicle_type_id":"4","last_reported":1721340435,"current_range_meters":31200,"station_id":"ce4bgv12rcd13ifvqcp0","pricing_plan_id":"cebpf4jnsgd1na2vs0mg"},{"bike_id":"47af5039-5e09-404e-8434-fb66ac27c507","system_id":"levelo_inurba_marseille","lat":43.311722,"lon":5.387247,"is_reserved":false,"is_disabled":false,"rental_uris":{"android":"levelo://app?vid=47af5039-5e09-404e-8434-fb66ac27c507","ios":"levelo://app?vid=47af5039-5e09-404e-8434-fb66ac27c507"},"vehicle_type_id":"4","last_reported":1721340435,"current_range_meters":14000,"station_id":"ce4bgv12rcd13ifvqcp0","pricing_plan_id":"cebpf4jnsgd1na2vs0mg"},{"bike_id":"d2d81174-6c80-4db9-af08-9295460183b7","system_id":"levelo_inurba_marseille","lat":43.31168,"lon":5.38714,"is_reserved":false,"is_disabled":false,"rental_uris":{"android":"levelo://app?vid=d2d81174-6c80-4db9-af08-9295460183b7","ios":"levelo://app?vid=d2d81174-6c80-4db9-af08-9295460183b7"},"vehicle_type_id":"4","last_reported":1721340435,"current_range_meters":18400,"station_id":"ce4bgv12rcd13ifvqcp0","pricing_plan_id":"cebpf4jnsgd1na2vs0mg"},{"bike_id":"02d4ff43-6a6d-4587-9584-531f60039aae","system_id":"levelo_inurba_marseille","lat":43.311722,"lon":5.387247,"is_reserved":false,"is_disabled":false,"rental_uris":{"android":"levelo://app?vid=02d4ff43-6a6d-4587-9584-531f60039aae","ios":"levelo://app?vid=02d4ff43-6a6d-4587-9584-531f60039aae"},"vehicle_type_id":"4","last_reported":1721340435,"current_range_meters":22400,"station_id":"ce4bgv12rcd13ifvqcp0","pricing_plan_id":"cebpf4jnsgd1na2vs0mg"},{"bike_id":"dcd9e157-7f0b-4a83-919f-368ed910f379","system_id":"levelo_inurba_marseille","lat":43.311722,"lon":5.387247,"is_reserved":false,"is_disabled":false,"rental_uris":{"android":"levelo://app?vid=dcd9e157-7f0b-4a83-919f-368ed910f379","ios":"levelo://app?vid=dcd9e157-7f0b-4a83-919f-368ed910f379"},"vehicle_type_id":"4","last_reported":1721340435,"current_range_meters":30000,"station_id":"ce4bgv12rcd13ifvqcp0","pricing_plan_id":"cebpf4jnsgd1na2vs0mg"},{"bike_id":"996b0c7f-950a-42f6-b89e-0df5b10dbbc3","system_id":"levelo_inurba_marseille","lat":43.311722,"lon":5.387247,"is_reserved":false,"is_disabled":false,"rental_uris":{"android":"levelo://app?vid=996b0c7f-950a-42f6-b89e-0df5b10dbbc3","ios":"levelo://app?vid=996b0c7f-950a-42f6-b89e-0df5b10dbbc3"},"vehicle_type_id":"4","last_reported":1721340435,"current_range_meters":26400,"station_id":"ce4bgv12rcd13ifvqcp0","pricing_plan_id":"cebpf4jnsgd1na2vs0mg"},{"bike_id":"72e04d50-ed27-445c-b2af-47e059f049d1","system_id":"levelo_inurba_marseille","lat":43.311722,"lon":5.387247,"is_reserved":false,"is_disabled":false,"rental_uris":{"android":"levelo://app?vid=72e04d50-ed27-445c-b2af-47e059f049d1","ios":"levelo://app?vid=72e04d50-ed27-445c-b2af-47e059f049d1"},"vehicle_type_id":"4","last_reported":1721340435,"current_range_meters":25600,"station_id":"ce4bgv12rcd13ifvqcp0","pricing_plan_id":"cebpf4jnsgd1na2vs0mg"},{"bike_id":"0c622c80-3852-498e-b3ae-18d0f88f6d14","system_id":"levelo_inurba_marseille","lat":43.311722,"lon":5.387247,"is_reserved":false,"is_disabled":false,"rental_uris":{"android":"levelo://app?vid=0c622c80-3852-498e-b3ae-18d0f88f6d14","ios":"levelo://app?vid=0c622c80-3852-498e-b3ae-18d0f88f6d14"},"vehicle_type_id":"4","last_reported":1721340435,"current_range_meters":5200,"station_id":"ce4bgv12rcd13ifvqcp0","pricing_plan_id":"cebpf4jnsgd1na2vs0mg"},{"bike_id":"9de3d0fc-cfac-4baa-bd62-9d5a7487cccf","system_id":"levelo_inurba_marseille","lat":43.311722,"lon":5.387247,"is_reserved":false,"is_disabled":false,"rental_uris":{"android":"levelo://app?vid=9de3d0fc-cfac-4baa-bd62-9d5a7487cccf","ios":"levelo://app?vid=9de3d0fc-cfac-4baa-bd62-9d5a7487cccf"},"vehicle_type_id":"4","last_reported":1721340435,"current_range_meters":3600,"station_id":"ce4bgv12rcd13ifvqcp0","pricing_plan_id":"cebpf4jnsgd1na2vs0mg"},{"bike_id":"5820f94b-d0d1-47e3-b954-d0b0c05867c8","system_id":"levelo_inurba_marseille","lat":43.311722,"lon":5.387247,"is_reserved":false,"is_disabled":false,"rental_uris":{"android":"levelo://app?vid=5820f94b-d0d1-47e3-b954-d0b0c05867c8","ios":"levelo://app?vid=5820f94b-d0d1-47e3-b954-d0b0c05867c8"},"vehicle_type_id":"4","last_reported":1721340435,"current_range_meters":29600,"station_id":"ce4bgv12rcd13ifvqcp0","pricing_plan_id":"cebpf4jnsgd1na2vs0mg"},{"bike_id":"3a1d8f75-7d6d-45e0-bb7a-3a254943d9ff","system_id":"levelo_inurba_marseille","lat":43.3117,"lon":5.38723,"is_reserved":false,"is_disabled":false,"rental_uris":{"android":"levelo://app?vid=3a1d8f75-7d6d-45e0-bb7a-3a254943d9ff","ios":"levelo://app?vid=3a1d8f75-7d6d-45e0-bb7a-3a254943d9ff"},"vehicle_type_id":"4","last_reported":1721340435,"current_range_meters":31200,"station_id":"ce4bgv12rcd13ifvqcp0","pricing_plan_id":"cebpf4jnsgd1na2vs0mg"},{"bike_id":"5f395515-9639-4682-8f97-96082297907f","system_id":"levelo_inurba_marseille","lat":43.311722,"lon":5.387247,"is_reserved":false,"is_disabled":false,"rental_uris":{"android":"levelo://app?vid=5f395515-9639-4682-8f97-96082297907f","ios":"levelo://app?vid=5f395515-9639-4682-8f97-96082297907f"},"vehicle_type_id":"4","last_reported":1721340435,"current_range_meters":22000,"station_id":"ce4bgv12rcd13ifvqcp0","pricing_plan_id":"cebpf4jnsgd1na2vs0mg"},{"bike_id":"c15ab3db-9672-4009-87ff-e0a92851ce6d","system_id":"levelo_inurba_marseille","lat":43.311722,"lon":5.387247,"is_reserved":false,"is_disabled":false,"rental_uris":{"android":"levelo://app?vid=c15ab3db-9672-4009-87ff-e0a92851ce6d","ios":"levelo://app?vid=c15ab3db-9672-4009-87ff-e0a92851ce6d"},"vehicle_type_id":"4","last_reported":1721340435,"current_range_meters":20800,"station_id":"ce4bgv12rcd13ifvqcp0","pricing_plan_id":"cebpf4jnsgd1na2vs0mg"},{"bike_id":"3189f065-5745-41b6-acea-f4c021241b91","system_id":"levelo_inurba_marseille","lat":43.311712,"lon":5.387296,"is_reserved":false,"is_disabled":false,"rental_uris":{"android":"levelo://app?vid=3189f065-5745-41b6-acea-f4c021241b91","ios":"levelo://app?vid=3189f065-5745-41b6-acea-f4c021241b91"},"vehicle_type_id":"4","last_reported":1721340435,"current_range_meters":30800,"station_id":"ce4bgv12rcd13ifvqcp0","pricing_plan_id":"cebpf4jnsgd1na2vs0mg"},{"bike_id":"2ba1cd19-4d4f-45ac-aae7-9679f5682841","system_id":"levelo_inurba_marseille","lat":43.32279,"lon":5.38254,"is_reserved":false,"is_disabled":false,"rental_uris":{"android":"levelo://app?vid=2ba1cd19-4d4f-45ac-aae7-9679f5682841","ios":"levelo://app?vid=2ba1cd19-4d4f-45ac-aae7-9679f5682841"},"vehicle_type_id":"4","last_reported":1721340435,"current_range_meters":30000,"station_id":"ce4bhr12rcd13ifvqhqg","pricing_plan_id":"cebpf4jnsgd1na2vs0mg"},{"bike_id":"5359900e-fe23-4ab6-82cf-78baf044e566","system_id":"levelo_inurba_marseille","lat":43.32287,"lon":5.382598,"is_reserved":false,"is_disabled":false,"rental_uris":{"android":"levelo://app?vid=5359900e-fe23-4ab6-82cf-78baf044e566","ios":"levelo://app?vid=5359900e-fe23-4ab6-82cf-78baf044e566"},"vehicle_type_id":"4","last_reported":1721340435,"current_range_meters":31200,"station_id":"ce4bhr12rcd13ifvqhqg","pricing_plan_id":"cebpf4jnsgd1na2vs0mg"},{"bike_id":"2f97dda1-141c-4d5f-924f-b73292f8c15f","system_id":"levelo_inurba_marseille","lat":43.32286,"lon":5.3827,"is_reserved":false,"is_disabled":false,"rental_uris":{"android":"levelo://app?vid=2f97dda1-141c-4d5f-924f-b73292f8c15f","ios":"levelo://app?vid=2f97dda1-141c-4d5f-924f-b73292f8c15f"},"vehicle_type_id":"4","last_reported":1721340435,"current_range_meters":12400,"station_id":"ce4bhr12rcd13ifvqhqg","pricing_plan_id":"cebpf4jnsgd1na2vs0mg"},{"bike_id":"4bcf8e1b-d8ba-4d3b-9ac1-1cd9106afb3d","system_id":"levelo_inurba_marseille","lat":43.30799,"lon":5.38787,"is_reserved":false,"is_disabled":false,"rental_uris":{"android":"levelo://app?vid=4bcf8e1b-d8ba-4d3b-9ac1-1cd9106afb3d","ios":"levelo://app?vid=4bcf8e1b-d8ba-4d3b-9ac1-1cd9106afb3d"},"vehicle_type_id":"4","last_reported":1721340435,"current_range_meters":6000,"station_id":"","pricing_plan_id":"cebpf4jnsgd1na2vs0mg"},{"bike_id":"2baca4ef-0d69-4564-91f0-6aa88a9ace5b","system_id":"levelo_inurba_marseille","lat":43.32526,"lon":5.38161,"is_reserved":false,"is_disabled":false,"rental_uris":{"android":"levelo://app?vid=2baca4ef-0d69-4564-91f0-6aa88a9ace5b","ios":"levelo://app?vid=2baca4ef-0d69-4564-91f0-6aa88a9ace5b"},"vehicle_type_id":"4","last_reported":1721340435,"current_range_meters":20400,"station_id":"","pricing_plan_id":"cebpf4jnsgd1na2vs0mg"},{"bike_id":"48535de0-1e71-4f79-8f03-ea7a21ef4378","system_id":"levelo_inurba_marseille","lat":43.29963,"lon":5.38082,"is_reserved":false,"is_disabled":false,"rental_uris":{"android":"levelo://app?vid=48535de0-1e71-4f79-8f03-ea7a21ef4378","ios":"levelo://app?vid=48535de0-1e71-4f79-8f03-ea7a21ef4378"},"vehicle_type_id":"4","last_reported":1721340435,"current_range_meters":26000,"station_id":"","pricing_plan_id":"cebpf4jnsgd1na2vs0mg"},{"bike_id":"cbea3b45-f0b8-43bf-b4b4-9074f71ea3ff","system_id":"levelo_inurba_marseille","lat":43.299028,"lon":5.381509,"is_reserved":false,"is_disabled":false,"rental_uris":{"android":"levelo://app?vid=cbea3b45-f0b8-43bf-b4b4-9074f71ea3ff","ios":"levelo://app?vid=cbea3b45-f0b8-43bf-b4b4-9074f71ea3ff"},"vehicle_type_id":"4","last_reported":1721340435,"current_range_meters":16400,"station_id":"ce4bgj12rcd13ifvqbc0","pricing_plan_id":"cebpf4jnsgd1na2vs0mg"},{"bike_id":"ec32fbb8-6cd9-4ccb-adb6-126a4b41897f","system_id":"levelo_inurba_marseille","lat":43.317557,"lon":5.390173,"is_reserved":false,"is_disabled":false,"rental_uris":{"android":"levelo://app?vid=ec32fbb8-6cd9-4ccb-adb6-126a4b41897f","ios":"levelo://app?vid=ec32fbb8-6cd9-4ccb-adb6-126a4b41897f"},"vehicle_type_id":"4","last_reported":1721340435,"current_range_meters":25600,"station_id":"ce4bhqp2rcd13ifvqhng","pricing_plan_id":"cebpf4jnsgd1na2vs0mg"},{"bike_id":"3d7a7244-b7f6-42bb-ac81-94474055678f","system_id":"levelo_inurba_marseille","lat":43.317557,"lon":5.390173,"is_reserved":false,"is_disabled":false,"rental_uris":{"android":"levelo://app?vid=3d7a7244-b7f6-42bb-ac81-94474055678f","ios":"levelo://app?vid=3d7a7244-b7f6-42bb-ac81-94474055678f"},"vehicle_type_id":"4","last_reported":1721340435,"current_range_meters":26400,"station_id":"ce4bhqp2rcd13ifvqhng","pricing_plan_id":"cebpf4jnsgd1na2vs0mg"},{"bike_id":"2cac684d-eb84-4925-9548-848fc7c20900","system_id":"levelo_inurba_marseille","lat":43.31755,"lon":5.39023,"is_reserved":false,"is_disabled":false,"rental_uris":{"android":"levelo://app?vid=2cac684d-eb84-4925-9548-848fc7c20900","ios":"levelo://app?vid=2cac684d-eb84-4925-9548-848fc7c20900"},"vehicle_type_id":"4","last_reported":1721340435,"current_range_meters":24400,"station_id":"ce4bhqp2rcd13ifvqhng","pricing_plan_id":"cebpf4jnsgd1na2vs0mg"},{"bike_id":"7769eaa8-7fbc-428c-a729-31fb361b8e27","system_id":"levelo_inurba_marseille","lat":43.31755,"lon":5.390236,"is_reserved":false,"is_disabled":false,"rental_uris":{"android":"levelo://app?vid=7769eaa8-7fbc-428c-a729-31fb361b8e27","ios":"levelo://app?vid=7769eaa8-7fbc-428c-a729-31fb361b8e27"},"vehicle_type_id":"4","last_reported":1721340435,"current_range_meters":31200,"station_id":"ce4bhqp2rcd13ifvqhng","pricing_plan_id":"cebpf4jnsgd1na2vs0mg"},{"bike_id":"e44905fb-4dd6-46bc-8494-1f5448efdd1c","system_id":"levelo_inurba_marseille","lat":43.304274,"lon":5.388873,"is_reserved":false,"is_disabled":false,"rental_uris":{"android":"levelo://app?vid=e44905fb-4dd6-46bc-8494-1f5448efdd1c","ios":"levelo://app?vid=e44905fb-4dd6-46bc-8494-1f5448efdd1c"},"vehicle_type_id":"4","last_reported":1721340435,"current_range_meters":31600,"station_id":"ce4bgk12rcd13ifvqbi0","pricing_plan_id":"cebpf4jnsgd1na2vs0mg"},{"bike_id":"3cc87580-a1f0-4f8a-a016-75659396745f","system_id":"levelo_inurba_marseille","lat":43.304274,"lon":5.388873,"is_reserved":false,"is_disabled":false,"rental_uris":{"android":"levelo://app?vid=3cc87580-a1f0-4f8a-a016-75659396745f","ios":"levelo://app?vid=3cc87580-a1f0-4f8a-a016-75659396745f"},"vehicle_type_id":"4","last_reported":1721340435,"current_range_meters":6800,"station_id":"ce4bgk12rcd13ifvqbi0","pricing_plan_id":"cebpf4jnsgd1na2vs0mg"},{"bike_id":"ff6181b2-84fc-4d72-b7f0-f375029a5cbe","system_id":"levelo_inurba_marseille","lat":43.298037,"lon":5.381066,"is_reserved":false,"is_disabled":false,"rental_uris":{"android":"levelo://app?vid=ff6181b2-84fc-4d72-b7f0-f375029a5cbe","ios":"levelo://app?vid=ff6181b2-84fc-4d72-b7f0-f375029a5cbe"},"vehicle_type_id":"4","last_reported":1721340435,"current_range_meters":30400,"station_id":"ce4bgip2rcd13ifvqbb0","pricing_plan_id":"cebpf4jnsgd1na2vs0mg"},{"bike_id":"b61347bd-c1de-425b-9f03-c31510042e95","system_id":"levelo_inurba_marseille","lat":43.304274,"lon":5.388873,"is_reserved":false,"is_disabled":false,"rental_uris":{"android":"levelo://app?vid=b61347bd-c1de-425b-9f03-c31510042e95","ios":"levelo://app?vid=b61347bd-c1de-425b-9f03-c31510042e95"},"vehicle_type_id":"4","last_reported":1721340435,"current_range_meters":20800,"station_id":"ce4bgk12rcd13ifvqbi0","pricing_plan_id":"cebpf4jnsgd1na2vs0mg"},{"bike_id":"4b08eabf-5a21-4f7e-a820-d395bd387e65","system_id":"levelo_inurba_marseille","lat":43.304274,"lon":5.388873,"is_reserved":false,"is_disabled":false,"rental_uris":{"android":"levelo://app?vid=4b08eabf-5a21-4f7e-a820-d395bd387e65","ios":"levelo://app?vid=4b08eabf-5a21-4f7e-a820-d395bd387e65"},"vehicle_type_id":"4","last_reported":1721340435,"current_range_meters":10400,"station_id":"ce4bgk12rcd13ifvqbi0","pricing_plan_id":"cebpf4jnsgd1na2vs0mg"},{"bike_id":"829d74cc-a23b-45b8-9f4a-f96d108fdca3","system_id":"levelo_inurba_marseille","lat":43.304278,"lon":5.388868,"is_reserved":false,"is_disabled":false,"rental_uris":{"android":"levelo://app?vid=829d74cc-a23b-45b8-9f4a-f96d108fdca3","ios":"levelo://app?vid=829d74cc-a23b-45b8-9f4a-f96d108fdca3"},"vehicle_type_id":"4","last_reported":1721340435,"current_range_meters":4800,"station_id":"ce4bgk12rcd13ifvqbi0","pricing_plan_id":"cebpf4jnsgd1na2vs0mg"},{"bike_id":"d41606e5-fe6f-4591-8139-aa47896b1c49","system_id":"levelo_inurba_marseille","lat":43.304274,"lon":5.388873,"is_reserved":false,"is_disabled":false,"rental_uris":{"android":"levelo://app?vid=d41606e5-fe6f-4591-8139-aa47896b1c49","ios":"levelo://app?vid=d41606e5-fe6f-4591-8139-aa47896b1c49"},"vehicle_type_id":"4","last_reported":1721340435,"current_range_meters":10800,"station_id":"ce4bgk12rcd13ifvqbi0","pricing_plan_id":"cebpf4jnsgd1na2vs0mg"},{"bike_id":"f2fb8065-5425-4452-b2ea-b11621f1b367","system_id":"levelo_inurba_marseille","lat":43.304278,"lon":5.388868,"is_reserved":false,"is_disabled":false,"rental_uris":{"android":"levelo://app?vid=f2fb8065-5425-4452-b2ea-b11621f1b367","ios":"levelo://app?vid=f2fb8065-5425-4452-b2ea-b11621f1b367"},"vehicle_type_id":"4","last_reported":1721340435,"current_range_meters":8400,"station_id":"ce4bgk12rcd13ifvqbi0","pricing_plan_id":"cebpf4jnsgd1na2vs0mg"},{"bike_id":"e7e9af4b-8421-4b43-84f2-751d4d6487f6","system_id":"levelo_inurba_marseille","lat":43.298037,"lon":5.381066,"is_reserved":false,"is_disabled":false,"rental_uris":{"android":"levelo://app?vid=e7e9af4b-8421-4b43-84f2-751d4d6487f6","ios":"levelo://app?vid=e7e9af4b-8421-4b43-84f2-751d4d6487f6"},"vehicle_type_id":"4","last_reported":1721340435,"current_range_meters":3600,"station_id":"ce4bgip2rcd13ifvqbb0","pricing_plan_id":"cebpf4jnsgd1na2vs0mg"},{"bike_id":"e17ce841-e7d0-4712-bf51-e486b9ebd7e2","system_id":"levelo_inurba_marseille","lat":43.29508,"lon":5.37404,"is_reserved":false,"is_disabled":false,"rental_uris":{"android":"levelo://app?vid=e17ce841-e7d0-4712-bf51-e486b9ebd7e2","ios":"levelo://app?vid=e17ce841-e7d0-4712-bf51-e486b9ebd7e2"},"vehicle_type_id":"4","last_reported":1721340435,"current_range_meters":2400,"station_id":"","pricing_plan_id":"cebpf4jnsgd1na2vs0mg"},{"bike_id":"a7a75af7-8683-4832-a90c-b07fff407e24","system_id":"levelo_inurba_marseille","lat":43.299717,"lon":5.384845,"is_reserved":false,"is_disabled":false,"rental_uris":{"android":"levelo://app?vid=a7a75af7-8683-4832-a90c-b07fff407e24","ios":"levelo://app?vid=a7a75af7-8683-4832-a90c-b07fff407e24"},"vehicle_type_id":"4","last_reported":1721340435,"current_range_meters":21600,"station_id":"ce4bgj92rcd13ifvqbd0","pricing_plan_id":"cebpf4jnsgd1na2vs0mg"},{"bike_id":"305ce6f0-430a-4faa-b783-35ca85cf3f33","system_id":"levelo_inurba_marseille","lat":43.299724,"lon":5.384848,"is_reserved":false,"is_disabled":false,"rental_uris":{"android":"levelo://app?vid=305ce6f0-430a-4faa-b783-35ca85cf3f33","ios":"levelo://app?vid=305ce6f0-430a-4faa-b783-35ca85cf3f33"},"vehicle_type_id":"4","last_reported":1721340435,"current_range_meters":26800,"station_id":"ce4bgj92rcd13ifvqbd0","pricing_plan_id":"cebpf4jnsgd1na2vs0mg"},{"bike_id":"18491e9b-089a-423d-92a6-2224fb4ac1cb","system_id":"levelo_inurba_marseille","lat":43.30473,"lon":5.39011,"is_reserved":false,"is_disabled":false,"rental_uris":{"android":"levelo://app?vid=18491e9b-089a-423d-92a6-2224fb4ac1cb","ios":"levelo://app?vid=18491e9b-089a-423d-92a6-2224fb4ac1cb"},"vehicle_type_id":"4","last_reported":1721340435,"current_range_meters":10000,"station_id":"","pricing_plan_id":"cebpf4jnsgd1na2vs0mg"},{"bike_id":"5b0d7f22-bf94-48f7-a16b-85502b586a4c","system_id":"levelo_inurba_marseille","lat":43.302784,"lon":5.377158,"is_reserved":false,"is_disabled":false,"rental_uris":{"android":"levelo://app?vid=5b0d7f22-bf94-48f7-a16b-85502b586a4c","ios":"levelo://app?vid=5b0d7f22-bf94-48f7-a16b-85502b586a4c"},"vehicle_type_id":"4","last_reported":1721340435,"current_range_meters":20000,"station_id":"ce4bguh2rcd13ifvqcj0","pricing_plan_id":"cebpf4jnsgd1na2vs0mg"},{"bike_id":"b84b6b34-15d1-47f1-b9ac-92c1fe8631b3","system_id":"levelo_inurba_marseille","lat":43.301396,"lon":5.387812,"is_reserved":false,"is_disabled":false,"rental_uris":{"android":"levelo://app?vid=b84b6b34-15d1-47f1-b9ac-92c1fe8631b3","ios":"levelo://app?vid=b84b6b34-15d1-47f1-b9ac-92c1fe8631b3"},"vehicle_type_id":"4","last_reported":1721340435,"current_range_meters":10800,"station_id":"ce4bghh2rcd13ifvqb60","pricing_plan_id":"cebpf4jnsgd1na2vs0mg"},{"bike_id":"2371b97d-64d9-4849-a3f7-a4346b8a895b","system_id":"levelo_inurba_marseille","lat":43.30133,"lon":5.38794,"is_reserved":false,"is_disabled":false,"rental_uris":{"android":"levelo://app?vid=2371b97d-64d9-4849-a3f7-a4346b8a895b","ios":"levelo://app?vid=2371b97d-64d9-4849-a3f7-a4346b8a895b"},"vehicle_type_id":"4","last_reported":1721340435,"current_range_meters":0,"station_id":"ce4bghh2rcd13ifvqb60","pricing_plan_id":"cebpf4jnsgd1na2vs0mg"},{"bike_id":"41d7001d-30d8-433b-9dec-ec69ddf78ae8","system_id":"levelo_inurba_marseille","lat":43.307586,"lon":5.392403,"is_reserved":false,"is_disabled":false,"rental_uris":{"android":"levelo://app?vid=41d7001d-30d8-433b-9dec-ec69ddf78ae8","ios":"levelo://app?vid=41d7001d-30d8-433b-9dec-ec69ddf78ae8"},"vehicle_type_id":"4","last_reported":1721340435,"current_range_meters":31200,"station_id":"","pricing_plan_id":"cebpf4jnsgd1na2vs0mg"},{"bike_id":"ba514446-4531-4ecf-9c09-350be85521cf","system_id":"levelo_inurba_marseille","lat":43.32367,"lon":5.388836,"is_reserved":false,"is_disabled":false,"rental_uris":{"android":"levelo://app?vid=ba514446-4531-4ecf-9c09-350be85521cf","ios":"levelo://app?vid=ba514446-4531-4ecf-9c09-350be85521cf"},"vehicle_type_id":"4","last_reported":1721340435,"current_range_meters":30400,"station_id":"ce4bhqp2rcd13ifvqhog","pricing_plan_id":"cebpf4jnsgd1na2vs0mg"},{"bike_id":"e6b19f64-210b-4b8f-8d7a-ff002aa99a45","system_id":"levelo_inurba_marseille","lat":43.32367,"lon":5.388836,"is_reserved":false,"is_disabled":false,"rental_uris":{"android":"levelo://app?vid=e6b19f64-210b-4b8f-8d7a-ff002aa99a45","ios":"levelo://app?vid=e6b19f64-210b-4b8f-8d7a-ff002aa99a45"},"vehicle_type_id":"4","last_reported":1721340435,"current_range_meters":6400,"station_id":"ce4bhqp2rcd13ifvqhog","pricing_plan_id":"cebpf4jnsgd1na2vs0mg"},{"bike_id":"cb415f3a-3da3-41e9-a39a-1fa5903ada5d","system_id":"levelo_inurba_marseille","lat":43.2964,"lon":5.38114,"is_reserved":false,"is_disabled":false,"rental_uris":{"android":"levelo://app?vid=cb415f3a-3da3-41e9-a39a-1fa5903ada5d","ios":"levelo://app?vid=cb415f3a-3da3-41e9-a39a-1fa5903ada5d"},"vehicle_type_id":"4","last_reported":1721340435,"current_range_meters":22800,"station_id":"ce4bgl12rcd13ifvqbo0","pricing_plan_id":"cebpf4jnsgd1na2vs0mg"},{"bike_id":"ed894eb1-9ee4-49d3-9948-71fe65977c89","system_id":"levelo_inurba_marseille","lat":43.32367,"lon":5.38887,"is_reserved":false,"is_disabled":false,"rental_uris":{"android":"levelo://app?vid=ed894eb1-9ee4-49d3-9948-71fe65977c89","ios":"levelo://app?vid=ed894eb1-9ee4-49d3-9948-71fe65977c89"},"vehicle_type_id":"4","last_reported":1721340435,"current_range_meters":31200,"station_id":"ce4bhqp2rcd13ifvqhog","pricing_plan_id":"cebpf4jnsgd1na2vs0mg"},{"bike_id":"7f71fb99-5d29-44c0-8587-6e0b02576e25","system_id":"levelo_inurba_marseille","lat":43.32367,"lon":5.388836,"is_reserved":false,"is_disabled":false,"rental_uris":{"android":"levelo://app?vid=7f71fb99-5d29-44c0-8587-6e0b02576e25","ios":"levelo://app?vid=7f71fb99-5d29-44c0-8587-6e0b02576e25"},"vehicle_type_id":"4","last_reported":1721340435,"current_range_meters":20400,"station_id":"ce4bhqp2rcd13ifvqhog","pricing_plan_id":"cebpf4jnsgd1na2vs0mg"},{"bike_id":"c5fc3fdf-6e20-4243-a3ff-b983bac1c9e4","system_id":"levelo_inurba_marseille","lat":43.32367,"lon":5.388836,"is_reserved":false,"is_disabled":false,"rental_uris":{"android":"levelo://app?vid=c5fc3fdf-6e20-4243-a3ff-b983bac1c9e4","ios":"levelo://app?vid=c5fc3fdf-6e20-4243-a3ff-b983bac1c9e4"},"vehicle_type_id":"4","last_reported":1721340435,"current_range_meters":6400,"station_id":"ce4bhqp2rcd13ifvqhog","pricing_plan_id":"cebpf4jnsgd1na2vs0mg"},{"bike_id":"25b8aa59-691b-4ac9-b9a9-fb683857b682","system_id":"levelo_inurba_marseille","lat":43.32363,"lon":5.38892,"is_reserved":false,"is_disabled":false,"rental_uris":{"android":"levelo://app?vid=25b8aa59-691b-4ac9-b9a9-fb683857b682","ios":"levelo://app?vid=25b8aa59-691b-4ac9-b9a9-fb683857b682"},"vehicle_type_id":"4","last_reported":1721340435,"current_range_meters":7600,"station_id":"ce4bhqp2rcd13ifvqhog","pricing_plan_id":"cebpf4jnsgd1na2vs0mg"},{"bike_id":"2aeaaab9-ad82-417d-8e44-8375dffaf90a","system_id":"levelo_inurba_marseille","lat":43.30747,"lon":5.39261,"is_reserved":false,"is_disabled":false,"rental_uris":{"android":"levelo://app?vid=2aeaaab9-ad82-417d-8e44-8375dffaf90a","ios":"levelo://app?vid=2aeaaab9-ad82-417d-8e44-8375dffaf90a"},"vehicle_type_id":"4","last_reported":1721340435,"current_range_meters":15600,"station_id":"","pricing_plan_id":"cebpf4jnsgd1na2vs0mg"},{"bike_id":"60b63fba-7841-4762-974a-d84ca35764d7","system_id":"levelo_inurba_marseille","lat":43.292749,"lon":5.368402,"is_reserved":false,"is_disabled":false,"rental_uris":{"android":"levelo://app?vid=60b63fba-7841-4762-974a-d84ca35764d7","ios":"levelo://app?vid=60b63fba-7841-4762-974a-d84ca35764d7"},"vehicle_type_id":"4","last_reported":1721340435,"current_range_meters":0,"station_id":"ce4bhbp2rcd13ifvqesg","pricing_plan_id":"cebpf4jnsgd1na2vs0mg"},{"bike_id":"3aef7c01-1394-4f94-8d92-ddb2d3ea6b9b","system_id":"levelo_inurba_marseille","lat":43.293259,"lon":5.371586,"is_reserved":false,"is_disabled":false,"rental_uris":{"android":"levelo://app?vid=3aef7c01-1394-4f94-8d92-ddb2d3ea6b9b","ios":"levelo://app?vid=3aef7c01-1394-4f94-8d92-ddb2d3ea6b9b"},"vehicle_type_id":"4","last_reported":1721340435,"current_range_meters":2000,"station_id":"ce4bgh92rcd13ifvqb40","pricing_plan_id":"cebpf4jnsgd1na2vs0mg"},{"bike_id":"8138a7f7-148d-4bea-bf02-1ccf01697dbe","system_id":"levelo_inurba_marseille","lat":43.292749,"lon":5.368402,"is_reserved":false,"is_disabled":false,"rental_uris":{"android":"levelo://app?vid=8138a7f7-148d-4bea-bf02-1ccf01697dbe","ios":"levelo://app?vid=8138a7f7-148d-4bea-bf02-1ccf01697dbe"},"vehicle_type_id":"4","last_reported":1721340435,"current_range_meters":0,"station_id":"ce4bhbp2rcd13ifvqesg","pricing_plan_id":"cebpf4jnsgd1na2vs0mg"},{"bike_id":"14c19bd0-f07c-431c-831e-99dd779506dc","system_id":"levelo_inurba_marseille","lat":43.302992,"lon":5.392136,"is_reserved":false,"is_disabled":false,"rental_uris":{"android":"levelo://app?vid=14c19bd0-f07c-431c-831e-99dd779506dc","ios":"levelo://app?vid=14c19bd0-f07c-431c-831e-99dd779506dc"},"vehicle_type_id":"4","last_reported":1721340435,"current_range_meters":0,"station_id":"ce4bgkh2rcd13ifvqbk0","pricing_plan_id":"cebpf4jnsgd1na2vs0mg"},{"bike_id":"c7d9ecee-ff4f-4006-bf7b-b365ef743de0","system_id":"levelo_inurba_marseille","lat":43.29244,"lon":5.36622,"is_reserved":false,"is_disabled":false,"rental_uris":{"android":"levelo://app?vid=c7d9ecee-ff4f-4006-bf7b-b365ef743de0","ios":"levelo://app?vid=c7d9ecee-ff4f-4006-bf7b-b365ef743de0"},"vehicle_type_id":"4","last_reported":1721340435,"current_range_meters":0,"station_id":"","pricing_plan_id":"cebpf4jnsgd1na2vs0mg"},{"bike_id":"24701c3d-5b2e-48b7-9a38-2ed8a7944397","system_id":"levelo_inurba_marseille","lat":43.29295,"lon":5.3746,"is_reserved":false,"is_disabled":false,"rental_uris":{"android":"levelo://app?vid=24701c3d-5b2e-48b7-9a38-2ed8a7944397","ios":"levelo://app?vid=24701c3d-5b2e-48b7-9a38-2ed8a7944397"},"vehicle_type_id":"4","last_reported":1721340435,"current_range_meters":1600,"station_id":"","pricing_plan_id":"cebpf4jnsgd1na2vs0mg"},{"bike_id":"a1a5332a-aeae-4001-b441-32efb4be1cd8","system_id":"levelo_inurba_marseille","lat":43.303002,"lon":5.392142,"is_reserved":false,"is_disabled":false,"rental_uris":{"android":"levelo://app?vid=a1a5332a-aeae-4001-b441-32efb4be1cd8","ios":"levelo://app?vid=a1a5332a-aeae-4001-b441-32efb4be1cd8"},"vehicle_type_id":"4","last_reported":1721340435,"current_range_meters":30000,"station_id":"ce4bgkh2rcd13ifvqbk0","pricing_plan_id":"cebpf4jnsgd1na2vs0mg"},{"bike_id":"a8f10877-e8e3-4807-80ae-32f332451fcc","system_id":"levelo_inurba_marseille","lat":43.29378,"lon":5.37861,"is_reserved":false,"is_disabled":false,"rental_uris":{"android":"levelo://app?vid=a8f10877-e8e3-4807-80ae-32f332451fcc","ios":"levelo://app?vid=a8f10877-e8e3-4807-80ae-32f332451fcc"},"vehicle_type_id":"4","last_reported":1721340435,"current_range_meters":0,"station_id":"ce4bgjh2rcd13ifvqbf0","pricing_plan_id":"cebpf4jnsgd1na2vs0mg"},{"bike_id":"7adeccca-27ea-423e-b301-9d7b9d80c4b2","system_id":"levelo_inurba_marseille","lat":43.302992,"lon":5.392136,"is_reserved":false,"is_disabled":false,"rental_uris":{"android":"levelo://app?vid=7adeccca-27ea-423e-b301-9d7b9d80c4b2","ios":"levelo://app?vid=7adeccca-27ea-423e-b301-9d7b9d80c4b2"},"vehicle_type_id":"4","last_reported":1721340435,"current_range_meters":2000,"station_id":"ce4bgkh2rcd13ifvqbk0","pricing_plan_id":"cebpf4jnsgd1na2vs0mg"},{"bike_id":"47817b32-fce0-4397-bb81-43b3d472d1a6","system_id":"levelo_inurba_marseille","lat":43.326507,"lon":5.38864,"is_reserved":false,"is_disabled":false,"rental_uris":{"android":"levelo://app?vid=47817b32-fce0-4397-bb81-43b3d472d1a6","ios":"levelo://app?vid=47817b32-fce0-4397-bb81-43b3d472d1a6"},"vehicle_type_id":"4","last_reported":1721340435,"current_range_meters":2400,"station_id":"","pricing_plan_id":"cebpf4jnsgd1na2vs0mg"},{"bike_id":"a910bdf2-3359-47ed-aa00-07bbd4907499","system_id":"levelo_inurba_marseille","lat":43.30085,"lon":5.390856,"is_reserved":false,"is_disabled":false,"rental_uris":{"android":"levelo://app?vid=a910bdf2-3359-47ed-aa00-07bbd4907499","ios":"levelo://app?vid=a910bdf2-3359-47ed-aa00-07bbd4907499"},"vehicle_type_id":"4","last_reported":1721340435,"current_range_meters":16400,"station_id":"ce4bh192rcd13ifvqdb0","pricing_plan_id":"cebpf4jnsgd1na2vs0mg"},{"bike_id":"6148e393-c8fa-413c-b543-2f86776d8dd5","system_id":"levelo_inurba_marseille","lat":43.292175,"lon":5.360735,"is_reserved":false,"is_disabled":false,"rental_uris":{"android":"levelo://app?vid=6148e393-c8fa-413c-b543-2f86776d8dd5","ios":"levelo://app?vid=6148e393-c8fa-413c-b543-2f86776d8dd5"},"vehicle_type_id":"4","last_reported":1721340435,"current_range_meters":0,"station_id":"ce4bhbh2rcd13ifvqeqg","pricing_plan_id":"cebpf4jnsgd1na2vs0mg"},{"bike_id":"5eb587df-b639-4e34-9023-ef7e6a3c2557","system_id":"levelo_inurba_marseille","lat":43.309038,"lon":5.396546,"is_reserved":false,"is_disabled":false,"rental_uris":{"android":"levelo://app?vid=5eb587df-b639-4e34-9023-ef7e6a3c2557","ios":"levelo://app?vid=5eb587df-b639-4e34-9023-ef7e6a3c2557"},"vehicle_type_id":"4","last_reported":1721340435,"current_range_meters":8000,"station_id":"ce4bh012rcd13ifvqcv0","pricing_plan_id":"cebpf4jnsgd1na2vs0mg"},{"bike_id":"cf732074-2be0-4509-98f1-37ff8e9b5cd5","system_id":"levelo_inurba_marseille","lat":43.298764,"lon":5.388973,"is_reserved":false,"is_disabled":false,"rental_uris":{"android":"levelo://app?vid=cf732074-2be0-4509-98f1-37ff8e9b5cd5","ios":"levelo://app?vid=cf732074-2be0-4509-98f1-37ff8e9b5cd5"},"vehicle_type_id":"4","last_reported":1721340435,"current_range_meters":0,"station_id":"ce4bh392rcd13ifvqdl0","pricing_plan_id":"cebpf4jnsgd1na2vs0mg"},{"bike_id":"d34487f0-31cd-4057-8287-3e5aacc31800","system_id":"levelo_inurba_marseille","lat":43.291671,"lon":5.371575,"is_reserved":false,"is_disabled":false,"rental_uris":{"android":"levelo://app?vid=d34487f0-31cd-4057-8287-3e5aacc31800","ios":"levelo://app?vid=d34487f0-31cd-4057-8287-3e5aacc31800"},"vehicle_type_id":"4","last_reported":1721340435,"current_range_meters":0,"station_id":"ce4bha92rcd13ifvqeh0","pricing_plan_id":"cebpf4jnsgd1na2vs0mg"},{"bike_id":"ef24ada0-99be-4aa2-86c3-e80a21d2d7ec","system_id":"levelo_inurba_marseille","lat":43.298764,"lon":5.388973,"is_reserved":false,"is_disabled":false,"rental_uris":{"android":"levelo://app?vid=ef24ada0-99be-4aa2-86c3-e80a21d2d7ec","ios":"levelo://app?vid=ef24ada0-99be-4aa2-86c3-e80a21d2d7ec"},"vehicle_type_id":"4","last_reported":1721340435,"current_range_meters":24400,"station_id":"ce4bh392rcd13ifvqdl0","pricing_plan_id":"cebpf4jnsgd1na2vs0mg"},{"bike_id":"e2d661f0-ee78-4a33-8ca7-850d6cfbaaf9","system_id":"levelo_inurba_marseille","lat":43.298764,"lon":5.388973,"is_reserved":false,"is_disabled":false,"rental_uris":{"android":"levelo://app?vid=e2d661f0-ee78-4a33-8ca7-850d6cfbaaf9","ios":"levelo://app?vid=e2d661f0-ee78-4a33-8ca7-850d6cfbaaf9"},"vehicle_type_id":"4","last_reported":1721340435,"current_range_meters":2400,"station_id":"ce4bh392rcd13ifvqdl0","pricing_plan_id":"cebpf4jnsgd1na2vs0mg"},{"bike_id":"c6d77443-6315-4f37-8d2f-f8add7604441","system_id":"levelo_inurba_marseille","lat":43.290995,"lon":5.381361,"is_reserved":false,"is_disabled":false,"rental_uris":{"android":"levelo://app?vid=c6d77443-6315-4f37-8d2f-f8add7604441","ios":"levelo://app?vid=c6d77443-6315-4f37-8d2f-f8add7604441"},"vehicle_type_id":"4","last_reported":1721340435,"current_range_meters":0,"station_id":"ce4bh512rcd13ifvqe2g","pricing_plan_id":"cebpf4jnsgd1na2vs0mg"},{"bike_id":"9bd643a2-ed7a-4a19-90e7-85c9f85dcda7","system_id":"levelo_inurba_marseille","lat":43.291994,"lon":5.357886,"is_reserved":false,"is_disabled":false,"rental_uris":{"android":"levelo://app?vid=9bd643a2-ed7a-4a19-90e7-85c9f85dcda7","ios":"levelo://app?vid=9bd643a2-ed7a-4a19-90e7-85c9f85dcda7"},"vehicle_type_id":"4","last_reported":1721340435,"current_range_meters":16400,"station_id":"ce4bhb12rcd13ifvqel0","pricing_plan_id":"cebpf4jnsgd1na2vs0mg"},{"bike_id":"8baf8ce0-3047-4ae2-aee9-efeb943c565b","system_id":"levelo_inurba_marseille","lat":43.313291,"lon":5.396838,"is_reserved":false,"is_disabled":false,"rental_uris":{"android":"levelo://app?vid=8baf8ce0-3047-4ae2-aee9-efeb943c565b","ios":"levelo://app?vid=8baf8ce0-3047-4ae2-aee9-efeb943c565b"},"vehicle_type_id":"4","last_reported":1721340435,"current_range_meters":10000,"station_id":"ce4bgvp2rcd13ifvqcu0","pricing_plan_id":"cebpf4jnsgd1na2vs0mg"},{"bike_id":"91af5e2b-a812-40e4-bf0d-f11b0536383a","system_id":"levelo_inurba_marseille","lat":43.313291,"lon":5.396838,"is_reserved":false,"is_disabled":false,"rental_uris":{"android":"levelo://app?vid=91af5e2b-a812-40e4-bf0d-f11b0536383a","ios":"levelo://app?vid=91af5e2b-a812-40e4-bf0d-f11b0536383a"},"vehicle_type_id":"4","last_reported":1721340435,"current_range_meters":31200,"station_id":"ce4bgvp2rcd13ifvqcu0","pricing_plan_id":"cebpf4jnsgd1na2vs0mg"},{"bike_id":"f2b99047-1ee4-4060-992e-a3cb04dabd27","system_id":"levelo_inurba_marseille","lat":43.313291,"lon":5.396838,"is_reserved":false,"is_disabled":false,"rental_uris":{"android":"levelo://app?vid=f2b99047-1ee4-4060-992e-a3cb04dabd27","ios":"levelo://app?vid=f2b99047-1ee4-4060-992e-a3cb04dabd27"},"vehicle_type_id":"4","last_reported":1721340435,"current_range_meters":5200,"station_id":"ce4bgvp2rcd13ifvqcu0","pricing_plan_id":"cebpf4jnsgd1na2vs0mg"},{"bike_id":"4fb1654e-6342-43a7-b1a9-01b9841ece9b","system_id":"levelo_inurba_marseille","lat":43.313291,"lon":5.396838,"is_reserved":false,"is_disabled":false,"rental_uris":{"android":"levelo://app?vid=4fb1654e-6342-43a7-b1a9-01b9841ece9b","ios":"levelo://app?vid=4fb1654e-6342-43a7-b1a9-01b9841ece9b"},"vehicle_type_id":"4","last_reported":1721340435,"current_range_meters":16000,"station_id":"ce4bgvp2rcd13ifvqcu0","pricing_plan_id":"cebpf4jnsgd1na2vs0mg"},{"bike_id":"365d47f2-f8b0-4229-a755-e600b8c16949","system_id":"levelo_inurba_marseille","lat":43.309038,"lon":5.396546,"is_reserved":false,"is_disabled":false,"rental_uris":{"android":"levelo://app?vid=365d47f2-f8b0-4229-a755-e600b8c16949","ios":"levelo://app?vid=365d47f2-f8b0-4229-a755-e600b8c16949"},"vehicle_type_id":"4","last_reported":1721340435,"current_range_meters":31200,"station_id":"ce4bh012rcd13ifvqcv0","pricing_plan_id":"cebpf4jnsgd1na2vs0mg"},{"bike_id":"a0f50e4b-426b-4c0b-a44e-d97c03151737","system_id":"levelo_inurba_marseille","lat":43.313291,"lon":5.396838,"is_reserved":false,"is_disabled":false,"rental_uris":{"android":"levelo://app?vid=a0f50e4b-426b-4c0b-a44e-d97c03151737","ios":"levelo://app?vid=a0f50e4b-426b-4c0b-a44e-d97c03151737"},"vehicle_type_id":"4","last_reported":1721340435,"current_range_meters":31200,"station_id":"ce4bgvp2rcd13ifvqcu0","pricing_plan_id":"cebpf4jnsgd1na2vs0mg"},{"bike_id":"0f42d172-6d27-4971-89cd-1d062ab9258a","system_id":"levelo_inurba_marseille","lat":43.309038,"lon":5.396546,"is_reserved":false,"is_disabled":false,"rental_uris":{"android":"levelo://app?vid=0f42d172-6d27-4971-89cd-1d062ab9258a","ios":"levelo://app?vid=0f42d172-6d27-4971-89cd-1d062ab9258a"},"vehicle_type_id":"4","last_reported":1721340435,"current_range_meters":17600,"station_id":"ce4bh012rcd13ifvqcv0","pricing_plan_id":"cebpf4jnsgd1na2vs0mg"},{"bike_id":"4065b95a-65a4-42f9-bbd8-6159bef428f1","system_id":"levelo_inurba_marseille","lat":43.309047,"lon":5.396551,"is_reserved":false,"is_disabled":false,"rental_uris":{"android":"levelo://app?vid=4065b95a-65a4-42f9-bbd8-6159bef428f1","ios":"levelo://app?vid=4065b95a-65a4-42f9-bbd8-6159bef428f1"},"vehicle_type_id":"4","last_reported":1721340435,"current_range_meters":29200,"station_id":"ce4bh012rcd13ifvqcv0","pricing_plan_id":"cebpf4jnsgd1na2vs0mg"},{"bike_id":"b4554ab1-1e80-4a3a-8307-25cd59b5fdf3","system_id":"levelo_inurba_marseille","lat":43.313291,"lon":5.396838,"is_reserved":false,"is_disabled":false,"rental_uris":{"android":"levelo://app?vid=b4554ab1-1e80-4a3a-8307-25cd59b5fdf3","ios":"levelo://app?vid=b4554ab1-1e80-4a3a-8307-25cd59b5fdf3"},"vehicle_type_id":"4","last_reported":1721340435,"current_range_meters":0,"station_id":"ce4bgvp2rcd13ifvqcu0","pricing_plan_id":"cebpf4jnsgd1na2vs0mg"},{"bike_id":"4182fe1c-a865-4d17-a880-653cbecc42ca","system_id":"levelo_inurba_marseille","lat":43.313291,"lon":5.396838,"is_reserved":false,"is_disabled":false,"rental_uris":{"android":"levelo://app?vid=4182fe1c-a865-4d17-a880-653cbecc42ca","ios":"levelo://app?vid=4182fe1c-a865-4d17-a880-653cbecc42ca"},"vehicle_type_id":"4","last_reported":1721340435,"current_range_meters":30800,"station_id":"ce4bgvp2rcd13ifvqcu0","pricing_plan_id":"cebpf4jnsgd1na2vs0mg"},{"bike_id":"34aefc52-00ae-47c2-98cb-bfdfd81e818b","system_id":"levelo_inurba_marseille","lat":43.313291,"lon":5.396838,"is_reserved":false,"is_disabled":false,"rental_uris":{"android":"levelo://app?vid=34aefc52-00ae-47c2-98cb-bfdfd81e818b","ios":"levelo://app?vid=34aefc52-00ae-47c2-98cb-bfdfd81e818b"},"vehicle_type_id":"4","last_reported":1721340435,"current_range_meters":17600,"station_id":"ce4bgvp2rcd13ifvqcu0","pricing_plan_id":"cebpf4jnsgd1na2vs0mg"},{"bike_id":"fd8be52c-2fbc-479a-8d1d-a5693a96fda7","system_id":"levelo_inurba_marseille","lat":43.313291,"lon":5.396838,"is_reserved":false,"is_disabled":false,"rental_uris":{"android":"levelo://app?vid=fd8be52c-2fbc-479a-8d1d-a5693a96fda7","ios":"levelo://app?vid=fd8be52c-2fbc-479a-8d1d-a5693a96fda7"},"vehicle_type_id":"4","last_reported":1721340435,"current_range_meters":12800,"station_id":"ce4bgvp2rcd13ifvqcu0","pricing_plan_id":"cebpf4jnsgd1na2vs0mg"},{"bike_id":"808e28f0-e1b3-4972-8219-2afc9a36bb2e","system_id":"levelo_inurba_marseille","lat":43.313291,"lon":5.396838,"is_reserved":false,"is_disabled":false,"rental_uris":{"android":"levelo://app?vid=808e28f0-e1b3-4972-8219-2afc9a36bb2e","ios":"levelo://app?vid=808e28f0-e1b3-4972-8219-2afc9a36bb2e"},"vehicle_type_id":"4","last_reported":1721340435,"current_range_meters":23600,"station_id":"ce4bgvp2rcd13ifvqcu0","pricing_plan_id":"cebpf4jnsgd1na2vs0mg"},{"bike_id":"49b5b1a2-bf4d-43a9-804c-b7f533af79d4","system_id":"levelo_inurba_marseille","lat":43.309038,"lon":5.396546,"is_reserved":false,"is_disabled":false,"rental_uris":{"android":"levelo://app?vid=49b5b1a2-bf4d-43a9-804c-b7f533af79d4","ios":"levelo://app?vid=49b5b1a2-bf4d-43a9-804c-b7f533af79d4"},"vehicle_type_id":"4","last_reported":1721340435,"current_range_meters":9200,"station_id":"ce4bh012rcd13ifvqcv0","pricing_plan_id":"cebpf4jnsgd1na2vs0mg"},{"bike_id":"15a480e2-534f-49e8-b2dd-a9cde722049e","system_id":"levelo_inurba_marseille","lat":43.3132,"lon":5.39704,"is_reserved":false,"is_disabled":false,"rental_uris":{"android":"levelo://app?vid=15a480e2-534f-49e8-b2dd-a9cde722049e","ios":"levelo://app?vid=15a480e2-534f-49e8-b2dd-a9cde722049e"},"vehicle_type_id":"4","last_reported":1721340435,"current_range_meters":31200,"station_id":"ce4bgvp2rcd13ifvqcu0","pricing_plan_id":"cebpf4jnsgd1na2vs0mg"},{"bike_id":"13305073-55a9-4a21-9083-4e3eac327d10","system_id":"levelo_inurba_marseille","lat":43.309038,"lon":5.396546,"is_reserved":false,"is_disabled":false,"rental_uris":{"android":"levelo://app?vid=13305073-55a9-4a21-9083-4e3eac327d10","ios":"levelo://app?vid=13305073-55a9-4a21-9083-4e3eac327d10"},"vehicle_type_id":"4","last_reported":1721340435,"current_range_meters":30800,"station_id":"ce4bh012rcd13ifvqcv0","pricing_plan_id":"cebpf4jnsgd1na2vs0mg"},{"bike_id":"6769f0ac-189a-46db-98fa-64f3b344b3a0","system_id":"levelo_inurba_marseille","lat":43.295283,"lon":5.385383,"is_reserved":false,"is_disabled":false,"rental_uris":{"android":"levelo://app?vid=6769f0ac-189a-46db-98fa-64f3b344b3a0","ios":"levelo://app?vid=6769f0ac-189a-46db-98fa-64f3b344b3a0"},"vehicle_type_id":"4","last_reported":1721340435,"current_range_meters":8000,"station_id":"ce4bgih2rcd13ifvqba0","pricing_plan_id":"cebpf4jnsgd1na2vs0mg"},{"bike_id":"855ab6c6-fc6f-42c5-9b7d-61b452a8954d","system_id":"levelo_inurba_marseille","lat":43.29529,"lon":5.385581,"is_reserved":false,"is_disabled":false,"rental_uris":{"android":"levelo://app?vid=855ab6c6-fc6f-42c5-9b7d-61b452a8954d","ios":"levelo://app?vid=855ab6c6-fc6f-42c5-9b7d-61b452a8954d"},"vehicle_type_id":"4","last_reported":1721340435,"current_range_meters":8800,"station_id":"ce4bgih2rcd13ifvqba0","pricing_plan_id":"cebpf4jnsgd1na2vs0mg"},{"bike_id":"728b0075-312f-4e1d-9c2c-a8d960a0169b","system_id":"levelo_inurba_marseille","lat":43.309038,"lon":5.396546,"is_reserved":false,"is_disabled":false,"rental_uris":{"android":"levelo://app?vid=728b0075-312f-4e1d-9c2c-a8d960a0169b","ios":"levelo://app?vid=728b0075-312f-4e1d-9c2c-a8d960a0169b"},"vehicle_type_id":"4","last_reported":1721340435,"current_range_meters":26000,"station_id":"ce4bh012rcd13ifvqcv0","pricing_plan_id":"cebpf4jnsgd1na2vs0mg"},{"bike_id":"682b8e3c-f9e8-4012-be60-0cbe31168562","system_id":"levelo_inurba_marseille","lat":43.291539,"lon":5.355708,"is_reserved":false,"is_disabled":false,"rental_uris":{"android":"levelo://app?vid=682b8e3c-f9e8-4012-be60-0cbe31168562","ios":"levelo://app?vid=682b8e3c-f9e8-4012-be60-0cbe31168562"},"vehicle_type_id":"4","last_reported":1721340435,"current_range_meters":19200,"station_id":"","pricing_plan_id":"cebpf4jnsgd1na2vs0mg"},{"bike_id":"88710a6e-49fc-4df8-9dc1-ef5bb99cc1d8","system_id":"levelo_inurba_marseille","lat":43.302008,"lon":5.394694,"is_reserved":false,"is_disabled":false,"rental_uris":{"android":"levelo://app?vid=88710a6e-49fc-4df8-9dc1-ef5bb99cc1d8","ios":"levelo://app?vid=88710a6e-49fc-4df8-9dc1-ef5bb99cc1d8"},"vehicle_type_id":"4","last_reported":1721340435,"current_range_meters":0,"station_id":"ce4bh0p2rcd13ifvqd70","pricing_plan_id":"cebpf4jnsgd1na2vs0mg"},{"bike_id":"ae673cdb-d528-4521-8655-836b8c5f4e56","system_id":"levelo_inurba_marseille","lat":43.302008,"lon":5.394694,"is_reserved":false,"is_disabled":false,"rental_uris":{"android":"levelo://app?vid=ae673cdb-d528-4521-8655-836b8c5f4e56","ios":"levelo://app?vid=ae673cdb-d528-4521-8655-836b8c5f4e56"},"vehicle_type_id":"4","last_reported":1721340435,"current_range_meters":4000,"station_id":"ce4bh0p2rcd13ifvqd70","pricing_plan_id":"cebpf4jnsgd1na2vs0mg"},{"bike_id":"d007757a-2e88-4083-8151-f9a2e50f2e6e","system_id":"levelo_inurba_marseille","lat":43.305364,"lon":5.384119,"is_reserved":false,"is_disabled":false,"rental_uris":{"android":"levelo://app?vid=d007757a-2e88-4083-8151-f9a2e50f2e6e","ios":"levelo://app?vid=d007757a-2e88-4083-8151-f9a2e50f2e6e"},"vehicle_type_id":"4","last_reported":1721340435,"current_range_meters":400,"station_id":"ce4bgg92rcd13ifvqb30","pricing_plan_id":"cebpf4jnsgd1na2vs0mg"},{"bike_id":"42a5a711-7e74-46f5-83c5-5b2881c1124d","system_id":"levelo_inurba_marseille","lat":43.269319,"lon":5.389397,"is_reserved":false,"is_disabled":false,"rental_uris":{"android":"levelo://app?vid=42a5a711-7e74-46f5-83c5-5b2881c1124d","ios":"levelo://app?vid=42a5a711-7e74-46f5-83c5-5b2881c1124d"},"vehicle_type_id":"4","last_reported":1721340435,"current_range_meters":800,"station_id":"ce4bhhh2rcd13ifvqfl0","pricing_plan_id":"cebpf4jnsgd1na2vs0mg"},{"bike_id":"39742a33-40ba-44e0-b65d-5e9958a5cd46","system_id":"levelo_inurba_marseille","lat":43.29419,"lon":5.38625,"is_reserved":false,"is_disabled":false,"rental_uris":{"android":"levelo://app?vid=39742a33-40ba-44e0-b65d-5e9958a5cd46","ios":"levelo://app?vid=39742a33-40ba-44e0-b65d-5e9958a5cd46"},"vehicle_type_id":"4","last_reported":1721340435,"current_range_meters":31200,"station_id":"ce4bh2h2rcd13ifvqdh0","pricing_plan_id":"cebpf4jnsgd1na2vs0mg"},{"bike_id":"e8e373fe-9052-4a2b-ab57-43a2310e5583","system_id":"levelo_inurba_marseille","lat":43.294153,"lon":5.386305,"is_reserved":false,"is_disabled":false,"rental_uris":{"android":"levelo://app?vid=e8e373fe-9052-4a2b-ab57-43a2310e5583","ios":"levelo://app?vid=e8e373fe-9052-4a2b-ab57-43a2310e5583"},"vehicle_type_id":"4","last_reported":1721340435,"current_range_meters":5600,"station_id":"ce4bh2h2rcd13ifvqdh0","pricing_plan_id":"cebpf4jnsgd1na2vs0mg"},{"bike_id":"f602595c-ae18-4dd5-837b-d2d3b40b7985","system_id":"levelo_inurba_marseille","lat":43.29419,"lon":5.38627,"is_reserved":false,"is_disabled":false,"rental_uris":{"android":"levelo://app?vid=f602595c-ae18-4dd5-837b-d2d3b40b7985","ios":"levelo://app?vid=f602595c-ae18-4dd5-837b-d2d3b40b7985"},"vehicle_type_id":"4","last_reported":1721340435,"current_range_meters":19600,"station_id":"ce4bh2h2rcd13ifvqdh0","pricing_plan_id":"cebpf4jnsgd1na2vs0mg"},{"bike_id":"24a828b2-6f43-4468-8594-49fd65914807","system_id":"levelo_inurba_marseille","lat":43.289184,"lon":5.366408,"is_reserved":false,"is_disabled":false,"rental_uris":{"android":"levelo://app?vid=24a828b2-6f43-4468-8594-49fd65914807","ios":"levelo://app?vid=24a828b2-6f43-4468-8594-49fd65914807"},"vehicle_type_id":"4","last_reported":1721340435,"current_range_meters":23200,"station_id":"ce4bhap2rcd13ifvqek0","pricing_plan_id":"cebpf4jnsgd1na2vs0mg"},{"bike_id":"c47b72c9-91a8-4e08-a247-5b50e1b90994","system_id":"levelo_inurba_marseille","lat":43.289184,"lon":5.366408,"is_reserved":false,"is_disabled":false,"rental_uris":{"android":"levelo://app?vid=c47b72c9-91a8-4e08-a247-5b50e1b90994","ios":"levelo://app?vid=c47b72c9-91a8-4e08-a247-5b50e1b90994"},"vehicle_type_id":"4","last_reported":1721340435,"current_range_meters":0,"station_id":"ce4bhap2rcd13ifvqek0","pricing_plan_id":"cebpf4jnsgd1na2vs0mg"},{"bike_id":"761d7508-0885-4225-a9fc-e29d72f94cbc","system_id":"levelo_inurba_marseille","lat":43.2942,"lon":5.38631,"is_reserved":false,"is_disabled":false,"rental_uris":{"android":"levelo://app?vid=761d7508-0885-4225-a9fc-e29d72f94cbc","ios":"levelo://app?vid=761d7508-0885-4225-a9fc-e29d72f94cbc"},"vehicle_type_id":"4","last_reported":1721340435,"current_range_meters":8400,"station_id":"ce4bh2h2rcd13ifvqdh0","pricing_plan_id":"cebpf4jnsgd1na2vs0mg"},{"bike_id":"3055d85a-b0c1-44b7-b06e-5bc5919bead5","system_id":"levelo_inurba_marseille","lat":43.29417,"lon":5.38626,"is_reserved":false,"is_disabled":false,"rental_uris":{"android":"levelo://app?vid=3055d85a-b0c1-44b7-b06e-5bc5919bead5","ios":"levelo://app?vid=3055d85a-b0c1-44b7-b06e-5bc5919bead5"},"vehicle_type_id":"4","last_reported":1721340435,"current_range_meters":0,"station_id":"ce4bh2h2rcd13ifvqdh0","pricing_plan_id":"cebpf4jnsgd1na2vs0mg"},{"bike_id":"c0878a82-1465-47fb-8397-d5503126e42e","system_id":"levelo_inurba_marseille","lat":43.29418,"lon":5.38628,"is_reserved":false,"is_disabled":false,"rental_uris":{"android":"levelo://app?vid=c0878a82-1465-47fb-8397-d5503126e42e","ios":"levelo://app?vid=c0878a82-1465-47fb-8397-d5503126e42e"},"vehicle_type_id":"4","last_reported":1721340435,"current_range_meters":15200,"station_id":"ce4bh2h2rcd13ifvqdh0","pricing_plan_id":"cebpf4jnsgd1na2vs0mg"},{"bike_id":"d375ae41-3f0d-4f15-b82c-ff69bdaf4c51","system_id":"levelo_inurba_marseille","lat":43.294153,"lon":5.386305,"is_reserved":false,"is_disabled":false,"rental_uris":{"android":"levelo://app?vid=d375ae41-3f0d-4f15-b82c-ff69bdaf4c51","ios":"levelo://app?vid=d375ae41-3f0d-4f15-b82c-ff69bdaf4c51"},"vehicle_type_id":"4","last_reported":1721340435,"current_range_meters":2800,"station_id":"ce4bh2h2rcd13ifvqdh0","pricing_plan_id":"cebpf4jnsgd1na2vs0mg"},{"bike_id":"bceaa1a0-a975-4901-a1ab-62efa0495b6e","system_id":"levelo_inurba_marseille","lat":43.29416,"lon":5.38625,"is_reserved":false,"is_disabled":false,"rental_uris":{"android":"levelo://app?vid=bceaa1a0-a975-4901-a1ab-62efa0495b6e","ios":"levelo://app?vid=bceaa1a0-a975-4901-a1ab-62efa0495b6e"},"vehicle_type_id":"4","last_reported":1721340435,"current_range_meters":0,"station_id":"ce4bh2h2rcd13ifvqdh0","pricing_plan_id":"cebpf4jnsgd1na2vs0mg"},{"bike_id":"2c3bee46-1bc4-4398-9b85-c8e8ecb46faf","system_id":"levelo_inurba_marseille","lat":43.294162,"lon":5.386292,"is_reserved":false,"is_disabled":false,"rental_uris":{"android":"levelo://app?vid=2c3bee46-1bc4-4398-9b85-c8e8ecb46faf","ios":"levelo://app?vid=2c3bee46-1bc4-4398-9b85-c8e8ecb46faf"},"vehicle_type_id":"4","last_reported":1721340435,"current_range_meters":0,"station_id":"ce4bh2h2rcd13ifvqdh0","pricing_plan_id":"cebpf4jnsgd1na2vs0mg"},{"bike_id":"6935c10f-8e20-4c5d-bd98-2bea2509aeb4","system_id":"levelo_inurba_marseille","lat":43.294157,"lon":5.38625,"is_reserved":false,"is_disabled":false,"rental_uris":{"android":"levelo://app?vid=6935c10f-8e20-4c5d-bd98-2bea2509aeb4","ios":"levelo://app?vid=6935c10f-8e20-4c5d-bd98-2bea2509aeb4"},"vehicle_type_id":"4","last_reported":1721340435,"current_range_meters":27200,"station_id":"ce4bh2h2rcd13ifvqdh0","pricing_plan_id":"cebpf4jnsgd1na2vs0mg"},{"bike_id":"fc857f15-1231-4b85-9a2f-2f2b84611f4a","system_id":"levelo_inurba_marseille","lat":43.29417,"lon":5.38628,"is_reserved":false,"is_disabled":false,"rental_uris":{"android":"levelo://app?vid=fc857f15-1231-4b85-9a2f-2f2b84611f4a","ios":"levelo://app?vid=fc857f15-1231-4b85-9a2f-2f2b84611f4a"},"vehicle_type_id":"4","last_reported":1721340435,"current_range_meters":6800,"station_id":"ce4bh2h2rcd13ifvqdh0","pricing_plan_id":"cebpf4jnsgd1na2vs0mg"},{"bike_id":"2791a04e-d3b8-4be9-b8cc-e8fdc8f0dcc5","system_id":"levelo_inurba_marseille","lat":43.29415,"lon":5.38625,"is_reserved":false,"is_disabled":false,"rental_uris":{"android":"levelo://app?vid=2791a04e-d3b8-4be9-b8cc-e8fdc8f0dcc5","ios":"levelo://app?vid=2791a04e-d3b8-4be9-b8cc-e8fdc8f0dcc5"},"vehicle_type_id":"4","last_reported":1721340435,"current_range_meters":31200,"station_id":"ce4bh2h2rcd13ifvqdh0","pricing_plan_id":"cebpf4jnsgd1na2vs0mg"},{"bike_id":"9bc2a25f-bae0-4377-ad4a-9a8574557a78","system_id":"levelo_inurba_marseille","lat":43.29415,"lon":5.38626,"is_reserved":false,"is_disabled":false,"rental_uris":{"android":"levelo://app?vid=9bc2a25f-bae0-4377-ad4a-9a8574557a78","ios":"levelo://app?vid=9bc2a25f-bae0-4377-ad4a-9a8574557a78"},"vehicle_type_id":"4","last_reported":1721340435,"current_range_meters":20400,"station_id":"ce4bh2h2rcd13ifvqdh0","pricing_plan_id":"cebpf4jnsgd1na2vs0mg"},{"bike_id":"e606f9b2-2132-48d4-ad23-e4a68b774e3f","system_id":"levelo_inurba_marseille","lat":43.294162,"lon":5.386292,"is_reserved":false,"is_disabled":false,"rental_uris":{"android":"levelo://app?vid=e606f9b2-2132-48d4-ad23-e4a68b774e3f","ios":"levelo://app?vid=e606f9b2-2132-48d4-ad23-e4a68b774e3f"},"vehicle_type_id":"4","last_reported":1721340435,"current_range_meters":30000,"station_id":"ce4bh2h2rcd13ifvqdh0","pricing_plan_id":"cebpf4jnsgd1na2vs0mg"},{"bike_id":"279c9503-4661-4fe1-9404-61affebc4168","system_id":"levelo_inurba_marseille","lat":43.294153,"lon":5.386305,"is_reserved":false,"is_disabled":false,"rental_uris":{"android":"levelo://app?vid=279c9503-4661-4fe1-9404-61affebc4168","ios":"levelo://app?vid=279c9503-4661-4fe1-9404-61affebc4168"},"vehicle_type_id":"4","last_reported":1721340435,"current_range_meters":23600,"station_id":"ce4bh2h2rcd13ifvqdh0","pricing_plan_id":"cebpf4jnsgd1na2vs0mg"},{"bike_id":"748cced9-c241-4aad-99b9-99f8f2d4ca61","system_id":"levelo_inurba_marseille","lat":43.29414,"lon":5.38627,"is_reserved":false,"is_disabled":false,"rental_uris":{"android":"levelo://app?vid=748cced9-c241-4aad-99b9-99f8f2d4ca61","ios":"levelo://app?vid=748cced9-c241-4aad-99b9-99f8f2d4ca61"},"vehicle_type_id":"4","last_reported":1721340435,"current_range_meters":31200,"station_id":"ce4bh2h2rcd13ifvqdh0","pricing_plan_id":"cebpf4jnsgd1na2vs0mg"},{"bike_id":"b4722ea8-dfbf-470e-92ca-f7be32822ffd","system_id":"levelo_inurba_marseille","lat":43.29417,"lon":5.38633,"is_reserved":false,"is_disabled":false,"rental_uris":{"android":"levelo://app?vid=b4722ea8-dfbf-470e-92ca-f7be32822ffd","ios":"levelo://app?vid=b4722ea8-dfbf-470e-92ca-f7be32822ffd"},"vehicle_type_id":"4","last_reported":1721340435,"current_range_meters":5600,"station_id":"ce4bh2h2rcd13ifvqdh0","pricing_plan_id":"cebpf4jnsgd1na2vs0mg"},{"bike_id":"96ef53ea-94e9-497c-b3bc-db3af9a33fca","system_id":"levelo_inurba_marseille","lat":43.294153,"lon":5.386305,"is_reserved":false,"is_disabled":false,"rental_uris":{"android":"levelo://app?vid=96ef53ea-94e9-497c-b3bc-db3af9a33fca","ios":"levelo://app?vid=96ef53ea-94e9-497c-b3bc-db3af9a33fca"},"vehicle_type_id":"4","last_reported":1721340435,"current_range_meters":19200,"station_id":"ce4bh2h2rcd13ifvqdh0","pricing_plan_id":"cebpf4jnsgd1na2vs0mg"},{"bike_id":"b61d6394-6970-407f-8a74-b4cb317466a2","system_id":"levelo_inurba_marseille","lat":43.294162,"lon":5.386292,"is_reserved":false,"is_disabled":false,"rental_uris":{"android":"levelo://app?vid=b61d6394-6970-407f-8a74-b4cb317466a2","ios":"levelo://app?vid=b61d6394-6970-407f-8a74-b4cb317466a2"},"vehicle_type_id":"4","last_reported":1721340435,"current_range_meters":28800,"station_id":"ce4bh2h2rcd13ifvqdh0","pricing_plan_id":"cebpf4jnsgd1na2vs0mg"},{"bike_id":"45a52ccd-3ea6-4122-829c-6f78ea0d2409","system_id":"levelo_inurba_marseille","lat":43.294162,"lon":5.386292,"is_reserved":false,"is_disabled":false,"rental_uris":{"android":"levelo://app?vid=45a52ccd-3ea6-4122-829c-6f78ea0d2409","ios":"levelo://app?vid=45a52ccd-3ea6-4122-829c-6f78ea0d2409"},"vehicle_type_id":"4","last_reported":1721340435,"current_range_meters":2400,"station_id":"ce4bh2h2rcd13ifvqdh0","pricing_plan_id":"cebpf4jnsgd1na2vs0mg"},{"bike_id":"272b2be2-4c51-4be6-825a-3f05a1e8e73b","system_id":"levelo_inurba_marseille","lat":43.289468,"lon":5.363719,"is_reserved":false,"is_disabled":false,"rental_uris":{"android":"levelo://app?vid=272b2be2-4c51-4be6-825a-3f05a1e8e73b","ios":"levelo://app?vid=272b2be2-4c51-4be6-825a-3f05a1e8e73b"},"vehicle_type_id":"4","last_reported":1721340435,"current_range_meters":29200,"station_id":"ce4bhc92rcd13ifvqetg","pricing_plan_id":"cebpf4jnsgd1na2vs0mg"},{"bike_id":"544d4679-95c2-461a-ba31-1de7e5897ff5","system_id":"levelo_inurba_marseille","lat":43.292644,"lon":5.384257,"is_reserved":false,"is_disabled":false,"rental_uris":{"android":"levelo://app?vid=544d4679-95c2-461a-ba31-1de7e5897ff5","ios":"levelo://app?vid=544d4679-95c2-461a-ba31-1de7e5897ff5"},"vehicle_type_id":"4","last_reported":1721340435,"current_range_meters":9600,"station_id":"ce4bh692rcd13ifvqea0","pricing_plan_id":"cebpf4jnsgd1na2vs0mg"},{"bike_id":"dc720f6a-2a94-4aeb-a7ea-9abb71ffed28","system_id":"levelo_inurba_marseille","lat":43.30431,"lon":5.3976,"is_reserved":false,"is_disabled":false,"rental_uris":{"android":"levelo://app?vid=dc720f6a-2a94-4aeb-a7ea-9abb71ffed28","ios":"levelo://app?vid=dc720f6a-2a94-4aeb-a7ea-9abb71ffed28"},"vehicle_type_id":"4","last_reported":1721340435,"current_range_meters":0,"station_id":"ce4bh092rcd13ifvqd20","pricing_plan_id":"cebpf4jnsgd1na2vs0mg"},{"bike_id":"44dea83d-432d-4792-8980-180228f3f2fd","system_id":"levelo_inurba_marseille","lat":43.30415,"lon":5.39756,"is_reserved":false,"is_disabled":false,"rental_uris":{"android":"levelo://app?vid=44dea83d-432d-4792-8980-180228f3f2fd","ios":"levelo://app?vid=44dea83d-432d-4792-8980-180228f3f2fd"},"vehicle_type_id":"4","last_reported":1721340435,"current_range_meters":0,"station_id":"ce4bh092rcd13ifvqd20","pricing_plan_id":"cebpf4jnsgd1na2vs0mg"},{"bike_id":"d8f5f2da-d069-4755-8e23-8232e3c49afb","system_id":"levelo_inurba_marseille","lat":43.290995,"lon":5.381361,"is_reserved":false,"is_disabled":false,"rental_uris":{"android":"levelo://app?vid=d8f5f2da-d069-4755-8e23-8232e3c49afb","ios":"levelo://app?vid=d8f5f2da-d069-4755-8e23-8232e3c49afb"},"vehicle_type_id":"4","last_reported":1721340435,"current_range_meters":800,"station_id":"ce4bh512rcd13ifvqe2g","pricing_plan_id":"cebpf4jnsgd1na2vs0mg"},{"bike_id":"9726a15c-0542-41ad-9c4c-82134287cdc2","system_id":"levelo_inurba_marseille","lat":43.297807,"lon":5.393533,"is_reserved":false,"is_disabled":false,"rental_uris":{"android":"levelo://app?vid=9726a15c-0542-41ad-9c4c-82134287cdc2","ios":"levelo://app?vid=9726a15c-0542-41ad-9c4c-82134287cdc2"},"vehicle_type_id":"4","last_reported":1721340435,"current_range_meters":12800,"station_id":"chh1huq6cuj3fo74tm60","pricing_plan_id":"cebpf4jnsgd1na2vs0mg"},{"bike_id":"611d30b8-8fbf-403e-ac97-27003f10f74a","system_id":"levelo_inurba_marseille","lat":43.297815,"lon":5.393548,"is_reserved":false,"is_disabled":false,"rental_uris":{"android":"levelo://app?vid=611d30b8-8fbf-403e-ac97-27003f10f74a","ios":"levelo://app?vid=611d30b8-8fbf-403e-ac97-27003f10f74a"},"vehicle_type_id":"4","last_reported":1721340435,"current_range_meters":6000,"station_id":"chh1huq6cuj3fo74tm60","pricing_plan_id":"cebpf4jnsgd1na2vs0mg"},{"bike_id":"af288619-70e2-4b1c-a281-8bc023be0c35","system_id":"levelo_inurba_marseille","lat":43.297807,"lon":5.393533,"is_reserved":false,"is_disabled":false,"rental_uris":{"android":"levelo://app?vid=af288619-70e2-4b1c-a281-8bc023be0c35","ios":"levelo://app?vid=af288619-70e2-4b1c-a281-8bc023be0c35"},"vehicle_type_id":"4","last_reported":1721340435,"current_range_meters":15200,"station_id":"chh1huq6cuj3fo74tm60","pricing_plan_id":"cebpf4jnsgd1na2vs0mg"},{"bike_id":"c2f66e85-5ba5-4fe9-9ac9-2e661a999afa","system_id":"levelo_inurba_marseille","lat":43.297807,"lon":5.393533,"is_reserved":false,"is_disabled":false,"rental_uris":{"android":"levelo://app?vid=c2f66e85-5ba5-4fe9-9ac9-2e661a999afa","ios":"levelo://app?vid=c2f66e85-5ba5-4fe9-9ac9-2e661a999afa"},"vehicle_type_id":"4","last_reported":1721340435,"current_range_meters":7200,"station_id":"chh1huq6cuj3fo74tm60","pricing_plan_id":"cebpf4jnsgd1na2vs0mg"},{"bike_id":"a7c755a8-66fb-44e3-af40-1cd0ec5dad20","system_id":"levelo_inurba_marseille","lat":43.297807,"lon":5.393533,"is_reserved":false,"is_disabled":false,"rental_uris":{"android":"levelo://app?vid=a7c755a8-66fb-44e3-af40-1cd0ec5dad20","ios":"levelo://app?vid=a7c755a8-66fb-44e3-af40-1cd0ec5dad20"},"vehicle_type_id":"4","last_reported":1721340435,"current_range_meters":28000,"station_id":"chh1huq6cuj3fo74tm60","pricing_plan_id":"cebpf4jnsgd1na2vs0mg"},{"bike_id":"02813619-596e-4ee1-b0f8-8df4c96a01c2","system_id":"levelo_inurba_marseille","lat":43.297807,"lon":5.393533,"is_reserved":false,"is_disabled":false,"rental_uris":{"android":"levelo://app?vid=02813619-596e-4ee1-b0f8-8df4c96a01c2","ios":"levelo://app?vid=02813619-596e-4ee1-b0f8-8df4c96a01c2"},"vehicle_type_id":"4","last_reported":1721340435,"current_range_meters":6800,"station_id":"chh1huq6cuj3fo74tm60","pricing_plan_id":"cebpf4jnsgd1na2vs0mg"},{"bike_id":"d7b7ea34-6605-4af5-9ebc-e8b99a8f6d65","system_id":"levelo_inurba_marseille","lat":43.330442,"lon":5.389148,"is_reserved":false,"is_disabled":false,"rental_uris":{"android":"levelo://app?vid=d7b7ea34-6605-4af5-9ebc-e8b99a8f6d65","ios":"levelo://app?vid=d7b7ea34-6605-4af5-9ebc-e8b99a8f6d65"},"vehicle_type_id":"4","last_reported":1721340435,"current_range_meters":27600,"station_id":"ce4bhr92rcd13ifvqhrg","pricing_plan_id":"cebpf4jnsgd1na2vs0mg"},{"bike_id":"5508c3c2-3461-4239-84a6-8010ce652f46","system_id":"levelo_inurba_marseille","lat":43.289741,"lon":5.378306,"is_reserved":false,"is_disabled":false,"rental_uris":{"android":"levelo://app?vid=5508c3c2-3461-4239-84a6-8010ce652f46","ios":"levelo://app?vid=5508c3c2-3461-4239-84a6-8010ce652f46"},"vehicle_type_id":"4","last_reported":1721340435,"current_range_meters":0,"station_id":"ce4bh9p2rcd13ifvqed0","pricing_plan_id":"cebpf4jnsgd1na2vs0mg"},{"bike_id":"76b67f71-14ca-4292-bbc8-c8bef0671c9b","system_id":"levelo_inurba_marseille","lat":43.297807,"lon":5.393533,"is_reserved":false,"is_disabled":false,"rental_uris":{"android":"levelo://app?vid=76b67f71-14ca-4292-bbc8-c8bef0671c9b","ios":"levelo://app?vid=76b67f71-14ca-4292-bbc8-c8bef0671c9b"},"vehicle_type_id":"4","last_reported":1721340435,"current_range_meters":16800,"station_id":"chh1huq6cuj3fo74tm60","pricing_plan_id":"cebpf4jnsgd1na2vs0mg"},{"bike_id":"a10d8976-a76c-45ba-aa14-6f3b465289f5","system_id":"levelo_inurba_marseille","lat":43.29784,"lon":5.39348,"is_reserved":false,"is_disabled":false,"rental_uris":{"android":"levelo://app?vid=a10d8976-a76c-45ba-aa14-6f3b465289f5","ios":"levelo://app?vid=a10d8976-a76c-45ba-aa14-6f3b465289f5"},"vehicle_type_id":"4","last_reported":1721340435,"current_range_meters":0,"station_id":"chh1huq6cuj3fo74tm60","pricing_plan_id":"cebpf4jnsgd1na2vs0mg"},{"bike_id":"7a2e5899-adcf-4ca4-8637-bf0d2f323685","system_id":"levelo_inurba_marseille","lat":43.297807,"lon":5.393533,"is_reserved":false,"is_disabled":false,"rental_uris":{"android":"levelo://app?vid=7a2e5899-adcf-4ca4-8637-bf0d2f323685","ios":"levelo://app?vid=7a2e5899-adcf-4ca4-8637-bf0d2f323685"},"vehicle_type_id":"4","last_reported":1721340435,"current_range_meters":11200,"station_id":"chh1huq6cuj3fo74tm60","pricing_plan_id":"cebpf4jnsgd1na2vs0mg"},{"bike_id":"62e5dd16-6a60-4306-b948-f41db0af116f","system_id":"levelo_inurba_marseille","lat":43.3302,"lon":5.39038,"is_reserved":false,"is_disabled":false,"rental_uris":{"android":"levelo://app?vid=62e5dd16-6a60-4306-b948-f41db0af116f","ios":"levelo://app?vid=62e5dd16-6a60-4306-b948-f41db0af116f"},"vehicle_type_id":"4","last_reported":1721340435,"current_range_meters":31200,"station_id":"ce4bhr92rcd13ifvqhrg","pricing_plan_id":"cebpf4jnsgd1na2vs0mg"},{"bike_id":"f29299a6-afa0-4213-9f35-6bfaf8a78c44","system_id":"levelo_inurba_marseille","lat":43.33019,"lon":5.3904,"is_reserved":false,"is_disabled":false,"rental_uris":{"android":"levelo://app?vid=f29299a6-afa0-4213-9f35-6bfaf8a78c44","ios":"levelo://app?vid=f29299a6-afa0-4213-9f35-6bfaf8a78c44"},"vehicle_type_id":"4","last_reported":1721340435,"current_range_meters":19200,"station_id":"ce4bhr92rcd13ifvqhrg","pricing_plan_id":"cebpf4jnsgd1na2vs0mg"},{"bike_id":"d3d897d2-e119-4082-b48f-a6170b8e8e73","system_id":"levelo_inurba_marseille","lat":43.33022,"lon":5.39039,"is_reserved":false,"is_disabled":false,"rental_uris":{"android":"levelo://app?vid=d3d897d2-e119-4082-b48f-a6170b8e8e73","ios":"levelo://app?vid=d3d897d2-e119-4082-b48f-a6170b8e8e73"},"vehicle_type_id":"4","last_reported":1721340435,"current_range_meters":21200,"station_id":"ce4bhr92rcd13ifvqhrg","pricing_plan_id":"cebpf4jnsgd1na2vs0mg"},{"bike_id":"e3f21a78-2af2-47c0-ae01-fc6145242378","system_id":"levelo_inurba_marseille","lat":43.28975,"lon":5.3783,"is_reserved":false,"is_disabled":false,"rental_uris":{"android":"levelo://app?vid=e3f21a78-2af2-47c0-ae01-fc6145242378","ios":"levelo://app?vid=e3f21a78-2af2-47c0-ae01-fc6145242378"},"vehicle_type_id":"4","last_reported":1721340435,"current_range_meters":0,"station_id":"ce4bh9p2rcd13ifvqed0","pricing_plan_id":"cebpf4jnsgd1na2vs0mg"},{"bike_id":"88594f8b-d435-4f0f-a7f4-449ae581634e","system_id":"levelo_inurba_marseille","lat":43.33023,"lon":5.39039,"is_reserved":false,"is_disabled":false,"rental_uris":{"android":"levelo://app?vid=88594f8b-d435-4f0f-a7f4-449ae581634e","ios":"levelo://app?vid=88594f8b-d435-4f0f-a7f4-449ae581634e"},"vehicle_type_id":"4","last_reported":1721340435,"current_range_meters":31200,"station_id":"ce4bhr92rcd13ifvqhrg","pricing_plan_id":"cebpf4jnsgd1na2vs0mg"},{"bike_id":"a9ad4661-91cd-4451-a392-958fb6078a81","system_id":"levelo_inurba_marseille","lat":43.330442,"lon":5.389148,"is_reserved":false,"is_disabled":false,"rental_uris":{"android":"levelo://app?vid=a9ad4661-91cd-4451-a392-958fb6078a81","ios":"levelo://app?vid=a9ad4661-91cd-4451-a392-958fb6078a81"},"vehicle_type_id":"4","last_reported":1721340435,"current_range_meters":15600,"station_id":"ce4bhr92rcd13ifvqhrg","pricing_plan_id":"cebpf4jnsgd1na2vs0mg"},{"bike_id":"9eddf5fe-63fc-4930-8995-0209b42d2410","system_id":"levelo_inurba_marseille","lat":43.33021,"lon":5.39043,"is_reserved":false,"is_disabled":false,"rental_uris":{"android":"levelo://app?vid=9eddf5fe-63fc-4930-8995-0209b42d2410","ios":"levelo://app?vid=9eddf5fe-63fc-4930-8995-0209b42d2410"},"vehicle_type_id":"4","last_reported":1721340435,"current_range_meters":25600,"station_id":"ce4bhr92rcd13ifvqhrg","pricing_plan_id":"cebpf4jnsgd1na2vs0mg"},{"bike_id":"8d0aeca1-60bf-4514-ad24-02e94937587c","system_id":"levelo_inurba_marseille","lat":43.330442,"lon":5.389148,"is_reserved":false,"is_disabled":false,"rental_uris":{"android":"levelo://app?vid=8d0aeca1-60bf-4514-ad24-02e94937587c","ios":"levelo://app?vid=8d0aeca1-60bf-4514-ad24-02e94937587c"},"vehicle_type_id":"4","last_reported":1721340435,"current_range_meters":16000,"station_id":"ce4bhr92rcd13ifvqhrg","pricing_plan_id":"cebpf4jnsgd1na2vs0mg"},{"bike_id":"8a06b9d3-2808-4674-8d92-52e94026c358","system_id":"levelo_inurba_marseille","lat":43.29529,"lon":5.39048,"is_reserved":false,"is_disabled":false,"rental_uris":{"android":"levelo://app?vid=8a06b9d3-2808-4674-8d92-52e94026c358","ios":"levelo://app?vid=8a06b9d3-2808-4674-8d92-52e94026c358"},"vehicle_type_id":"4","last_reported":1721340435,"current_range_meters":8800,"station_id":"ce4bh3p2rcd13ifvqdp0","pricing_plan_id":"cebpf4jnsgd1na2vs0mg"},{"bike_id":"9de5f53c-6fc7-4e9a-9c4f-b830640f4835","system_id":"levelo_inurba_marseille","lat":43.33024,"lon":5.39042,"is_reserved":false,"is_disabled":false,"rental_uris":{"android":"levelo://app?vid=9de5f53c-6fc7-4e9a-9c4f-b830640f4835","ios":"levelo://app?vid=9de5f53c-6fc7-4e9a-9c4f-b830640f4835"},"vehicle_type_id":"4","last_reported":1721340435,"current_range_meters":30400,"station_id":"ce4bhr92rcd13ifvqhrg","pricing_plan_id":"cebpf4jnsgd1na2vs0mg"},{"bike_id":"91e00107-0ac1-43e3-8e2f-9cd6c2312e5a","system_id":"levelo_inurba_marseille","lat":43.295169,"lon":5.390426,"is_reserved":false,"is_disabled":false,"rental_uris":{"android":"levelo://app?vid=91e00107-0ac1-43e3-8e2f-9cd6c2312e5a","ios":"levelo://app?vid=91e00107-0ac1-43e3-8e2f-9cd6c2312e5a"},"vehicle_type_id":"4","last_reported":1721340435,"current_range_meters":4000,"station_id":"ce4bh3p2rcd13ifvqdp0","pricing_plan_id":"cebpf4jnsgd1na2vs0mg"},{"bike_id":"45899d14-93d8-4261-bd61-482f2d6637b3","system_id":"levelo_inurba_marseille","lat":43.330442,"lon":5.389148,"is_reserved":false,"is_disabled":false,"rental_uris":{"android":"levelo://app?vid=45899d14-93d8-4261-bd61-482f2d6637b3","ios":"levelo://app?vid=45899d14-93d8-4261-bd61-482f2d6637b3"},"vehicle_type_id":"4","last_reported":1721340435,"current_range_meters":26800,"station_id":"ce4bhr92rcd13ifvqhrg","pricing_plan_id":"cebpf4jnsgd1na2vs0mg"},{"bike_id":"05332e47-6b64-47a1-87c1-769626f935c5","system_id":"levelo_inurba_marseille","lat":43.309371,"lon":5.401449,"is_reserved":false,"is_disabled":false,"rental_uris":{"android":"levelo://app?vid=05332e47-6b64-47a1-87c1-769626f935c5","ios":"levelo://app?vid=05332e47-6b64-47a1-87c1-769626f935c5"},"vehicle_type_id":"4","last_reported":1721340435,"current_range_meters":5200,"station_id":"ce4bgvp2rcd13ifvqct0","pricing_plan_id":"cebpf4jnsgd1na2vs0mg"},{"bike_id":"28f1d35c-437d-416b-a1fd-c93dfc3fc006","system_id":"levelo_inurba_marseille","lat":43.312609,"lon":5.401662,"is_reserved":false,"is_disabled":false,"rental_uris":{"android":"levelo://app?vid=28f1d35c-437d-416b-a1fd-c93dfc3fc006","ios":"levelo://app?vid=28f1d35c-437d-416b-a1fd-c93dfc3fc006"},"vehicle_type_id":"4","last_reported":1721340435,"current_range_meters":4800,"station_id":"ce4bh092rcd13ifvqd30","pricing_plan_id":"cebpf4jnsgd1na2vs0mg"},{"bike_id":"65f61a66-cbc3-4a71-b317-e09dd96a1ab2","system_id":"levelo_inurba_marseille","lat":43.312609,"lon":5.401662,"is_reserved":false,"is_disabled":false,"rental_uris":{"android":"levelo://app?vid=65f61a66-cbc3-4a71-b317-e09dd96a1ab2","ios":"levelo://app?vid=65f61a66-cbc3-4a71-b317-e09dd96a1ab2"},"vehicle_type_id":"4","last_reported":1721340435,"current_range_meters":19600,"station_id":"ce4bh092rcd13ifvqd30","pricing_plan_id":"cebpf4jnsgd1na2vs0mg"},{"bike_id":"a6c55683-4f2d-4918-89c1-417ee0b7466c","system_id":"levelo_inurba_marseille","lat":43.31278,"lon":5.40167,"is_reserved":false,"is_disabled":false,"rental_uris":{"android":"levelo://app?vid=a6c55683-4f2d-4918-89c1-417ee0b7466c","ios":"levelo://app?vid=a6c55683-4f2d-4918-89c1-417ee0b7466c"},"vehicle_type_id":"4","last_reported":1721340435,"current_range_meters":7600,"station_id":"ce4bh092rcd13ifvqd30","pricing_plan_id":"cebpf4jnsgd1na2vs0mg"},{"bike_id":"52bbf952-ed42-4af3-a26d-af3c1a264dff","system_id":"levelo_inurba_marseille","lat":43.312609,"lon":5.401662,"is_reserved":false,"is_disabled":false,"rental_uris":{"android":"levelo://app?vid=52bbf952-ed42-4af3-a26d-af3c1a264dff","ios":"levelo://app?vid=52bbf952-ed42-4af3-a26d-af3c1a264dff"},"vehicle_type_id":"4","last_reported":1721340435,"current_range_meters":26400,"station_id":"ce4bh092rcd13ifvqd30","pricing_plan_id":"cebpf4jnsgd1na2vs0mg"},{"bike_id":"d702b83b-02ae-421b-a367-b37c792c73c1","system_id":"levelo_inurba_marseille","lat":43.323464,"lon":5.406297,"is_reserved":false,"is_disabled":false,"rental_uris":{"android":"levelo://app?vid=d702b83b-02ae-421b-a367-b37c792c73c1","ios":"levelo://app?vid=d702b83b-02ae-421b-a367-b37c792c73c1"},"vehicle_type_id":"4","last_reported":1721340435,"current_range_meters":1200,"station_id":"ce4bhq92rcd13ifvqhjg","pricing_plan_id":"cebpf4jnsgd1na2vs0mg"},{"bike_id":"fc1985b8-5314-41fe-8e24-abd61fd01251","system_id":"levelo_inurba_marseille","lat":43.337466,"lon":5.374604,"is_reserved":false,"is_disabled":false,"rental_uris":{"android":"levelo://app?vid=fc1985b8-5314-41fe-8e24-abd61fd01251","ios":"levelo://app?vid=fc1985b8-5314-41fe-8e24-abd61fd01251"},"vehicle_type_id":"4","last_reported":1721340435,"current_range_meters":27200,"station_id":"","pricing_plan_id":"cebpf4jnsgd1na2vs0mg"},{"bike_id":"1aa90c05-6d54-443c-8fe7-139f03d2afd6","system_id":"levelo_inurba_marseille","lat":43.31279,"lon":5.4018,"is_reserved":false,"is_disabled":false,"rental_uris":{"android":"levelo://app?vid=1aa90c05-6d54-443c-8fe7-139f03d2afd6","ios":"levelo://app?vid=1aa90c05-6d54-443c-8fe7-139f03d2afd6"},"vehicle_type_id":"4","last_reported":1721340435,"current_range_meters":10400,"station_id":"ce4bh092rcd13ifvqd30","pricing_plan_id":"cebpf4jnsgd1na2vs0mg"},{"bike_id":"4b622032-ed40-48c1-b12f-05d4710b3a34","system_id":"levelo_inurba_marseille","lat":43.312609,"lon":5.401662,"is_reserved":false,"is_disabled":false,"rental_uris":{"android":"levelo://app?vid=4b622032-ed40-48c1-b12f-05d4710b3a34","ios":"levelo://app?vid=4b622032-ed40-48c1-b12f-05d4710b3a34"},"vehicle_type_id":"4","last_reported":1721340435,"current_range_meters":8400,"station_id":"ce4bh092rcd13ifvqd30","pricing_plan_id":"cebpf4jnsgd1na2vs0mg"},{"bike_id":"241d666c-dfd7-4426-8dfc-fba405eb68f7","system_id":"levelo_inurba_marseille","lat":43.337521,"lon":5.374456,"is_reserved":false,"is_disabled":false,"rental_uris":{"android":"levelo://app?vid=241d666c-dfd7-4426-8dfc-fba405eb68f7","ios":"levelo://app?vid=241d666c-dfd7-4426-8dfc-fba405eb68f7"},"vehicle_type_id":"4","last_reported":1721340435,"current_range_meters":30000,"station_id":"","pricing_plan_id":"cebpf4jnsgd1na2vs0mg"},{"bike_id":"f7e90ce6-84a1-4b24-9d1c-db0618efebb8","system_id":"levelo_inurba_marseille","lat":43.309371,"lon":5.401449,"is_reserved":false,"is_disabled":false,"rental_uris":{"android":"levelo://app?vid=f7e90ce6-84a1-4b24-9d1c-db0618efebb8","ios":"levelo://app?vid=f7e90ce6-84a1-4b24-9d1c-db0618efebb8"},"vehicle_type_id":"4","last_reported":1721340435,"current_range_meters":30800,"station_id":"ce4bgvp2rcd13ifvqct0","pricing_plan_id":"cebpf4jnsgd1na2vs0mg"},{"bike_id":"32a27fdb-206f-4040-8e65-977bfb9bd1c9","system_id":"levelo_inurba_marseille","lat":43.309371,"lon":5.401449,"is_reserved":false,"is_disabled":false,"rental_uris":{"android":"levelo://app?vid=32a27fdb-206f-4040-8e65-977bfb9bd1c9","ios":"levelo://app?vid=32a27fdb-206f-4040-8e65-977bfb9bd1c9"},"vehicle_type_id":"4","last_reported":1721340435,"current_range_meters":19200,"station_id":"ce4bgvp2rcd13ifvqct0","pricing_plan_id":"cebpf4jnsgd1na2vs0mg"},{"bike_id":"aa1a2ae2-3c28-4fb8-8594-57ae62765dbf","system_id":"levelo_inurba_marseille","lat":43.309371,"lon":5.401449,"is_reserved":false,"is_disabled":false,"rental_uris":{"android":"levelo://app?vid=aa1a2ae2-3c28-4fb8-8594-57ae62765dbf","ios":"levelo://app?vid=aa1a2ae2-3c28-4fb8-8594-57ae62765dbf"},"vehicle_type_id":"4","last_reported":1721340435,"current_range_meters":29600,"station_id":"ce4bgvp2rcd13ifvqct0","pricing_plan_id":"cebpf4jnsgd1na2vs0mg"},{"bike_id":"42880c5f-0374-44c5-8f6a-9475743bf4ac","system_id":"levelo_inurba_marseille","lat":43.309371,"lon":5.401449,"is_reserved":false,"is_disabled":false,"rental_uris":{"android":"levelo://app?vid=42880c5f-0374-44c5-8f6a-9475743bf4ac","ios":"levelo://app?vid=42880c5f-0374-44c5-8f6a-9475743bf4ac"},"vehicle_type_id":"4","last_reported":1721340435,"current_range_meters":18400,"station_id":"ce4bgvp2rcd13ifvqct0","pricing_plan_id":"cebpf4jnsgd1na2vs0mg"},{"bike_id":"49b12528-7ed9-421c-bb6c-e2925b510d09","system_id":"levelo_inurba_marseille","lat":43.30652,"lon":5.40079,"is_reserved":false,"is_disabled":false,"rental_uris":{"android":"levelo://app?vid=49b12528-7ed9-421c-bb6c-e2925b510d09","ios":"levelo://app?vid=49b12528-7ed9-421c-bb6c-e2925b510d09"},"vehicle_type_id":"4","last_reported":1721340435,"current_range_meters":14400,"station_id":"ce4bh112rcd13ifvqda0","pricing_plan_id":"cebpf4jnsgd1na2vs0mg"},