{"last_updated":1746720752,"ttl":60,"version":"2.2","data":{"bikes":[{"bike_id":"f355ef7d-ddc6-4ed6-b604-3aa234bfbb3c","system_id":"levelo_inurba_marseille","lat":43.30462,"lon":5.37889,"is_reserved":false,"is_disabled":true,"rental_uris":{"android":"levelo://app?vid=f355ef7d-ddc6-4ed6-b604-3aa234bfbb3c","ios":"levelo://app?vid=f355ef7d-ddc6-4ed6-b604-3aa234bfbb3c"},"vehicle_type_id":"4","last_reported":1746720752,"current_range_meters":2800,"station_id":"ce4bgup2rcd13ifvqcn0","pricing_plan_id":"cebpf4jnsgd1na2vs0mg"},{"bike_id":"954c2eb2-9a4d-4d7c-940a-b04bcbb47f39","system_id":"levelo_inurba_marseille","lat":43.275548,"lon":5.359931,"is_reserved":false,"is_disabled":false,"rental_uris":{"android":"levelo://app?vid=954c2eb2-9a4d-4d7c-940a-b04bcbb47f39","ios":"levelo://app?vid=954c2eb2-9a4d-4d7c-940a-b04bcbb47f39"},"vehicle_type_id":"4","last_reported":1746720752,"current_range_meters":2800,"station_id":"ce4bgj92rcd13ifvqbe0","pricing_plan_id":"cebpf4jnsgd1na2vs0mg"},{"bike_id":"5831e2db-66c0-4918-9394-cfea915d9b5a","system_id":"levelo_inurba_marseille","lat":43.27204,"lon":5.39187,"is_reserved":false,"is_disabled":false,"rental_uris":{"android":"levelo://app?vid=5831e2db-66c0-4918-9394-cfea915d9b5a","ios":"levelo://app?vid=5831e2db-66c0-4918-9394-cfea915d9b5a"},"vehicle_type_id":"4","last_reported":1746720752,"current_range_meters":2800,"station_id":"ce4bhhp2rcd13ifvqfm0","pricing_plan_id":"cebpf4jnsgd1na2vs0mg"},{"bike_id":"05a925d7-8855-44b1-b070-69ae1184b907","system_id":"levelo_inurba_marseille","lat":43.29959,"lon":5.37143,"is_reserved":false,"is_disabled":false,"rental_uris":{"android":"levelo://app?vid=05a925d7-8855-44b1-b070-69ae1184b907","ios":"levelo://app?vid=05a925d7-8855-44b1-b070-69ae1184b907"},"vehicle_type_id":"4","last_reported":1746720752,"current_range_meters":2800,"station_id":"ce4bgr92rcd13ifvqc7g","pricing_plan_id":"cebpf4jnsgd1na2vs0mg"},{"bike_id":"d7a0f6da-2420-4e56-af96-00120efe606f","system_id":"levelo_inurba_marseille","lat":43.29616,"lon":5.3715,"is_reserved":false,"is_disabled":false,"rental_uris":{"android":"levelo://app?vid=d7a0f6da-2420-4e56-af96-00120efe606f","ios":"levelo://app?vid=d7a0f6da-2420-4e56-af96-00120efe606f"},"vehicle_type_id":"4","last_reported":1746720752,"current_range_meters":2800,"station_id":"ce4bgnh2rcd13ifvqc0g","pricing_plan_id":"cebpf4jnsgd1na2vs0mg"},{"bike_id":"62c6cbf9-49dc-437b-874c-eefefc9e3a75","system_id":"levelo_inurba_marseille","lat":43.30295,"lon":5.39198,"is_reserved":false,"is_disabled":false,"rental_uris":{"android":"levelo://app?vid=62c6cbf9-49dc-437b-874c-eefefc9e3a75","ios":"levelo://app?vid=62c6cbf9-49dc-437b-874c-eefefc9e3a75"},"vehicle_type_id":"4","last_reported":1746720752,"current_range_meters":2000,"station_id":"ce4bgkh2rcd13ifvqbk0","pricing_plan_id":"cebpf4jnsgd1na2vs0mg"},{"bike_id":"1b4f31cc-51b8-4c41-bf98-adc88eb1f91b","system_id":"levelo_inurba_marseille","lat":43.30134,"lon":5.38776,"is_reserved":false,"is_disabled":false,"rental_uris":{"android":"levelo://app?vid=1b4f31cc-51b8-4c41-bf98-adc88eb1f91b","ios":"levelo://app?vid=1b4f31cc-51b8-4c41-bf98-adc88eb1f91b"},"vehicle_type_id":"4","last_reported":1746720752,"current_range_meters":2800,"station_id":"ce4bghh2rcd13ifvqb60","pricing_plan_id":"cebpf4jnsgd1na2vs0mg"},{"bike_id":"02b81ecb-3271-49ef-a09d-867a045fe485","system_id":"levelo_inurba_marseille","lat":43.30948,"lon":5.39028,"is_reserved":false,"is_disabled":false,"rental_uris":{"android":"levelo://app?vid=02b81ecb-3271-49ef-a09d-867a045fe485","ios":"levelo://app?vid=02b81ecb-3271-49ef-a09d-867a045fe485"},"vehicle_type_id":"4","last_reported":1746720752,"current_range_meters":3200,"station_id":"ce4bgup2rcd13ifvqco0","pricing_plan_id":"cebpf4jnsgd1na2vs0mg"},{"bike_id":"7cd45d01-7622-42d3-a472-2de93c6abe39","system_id":"levelo_inurba_marseille","lat":43.296234,"lon":5.377197,"is_reserved":false,"is_disabled":false,"rental_uris":{"android":"levelo://app?vid=7cd45d01-7622-42d3-a472-2de93c6abe39","ios":"levelo://app?vid=7cd45d01-7622-42d3-a472-2de93c6abe39"},"vehicle_type_id":"4","last_reported":1746720752,"current_range_meters":3200,"station_id":"ce4bgi92rcd13ifvqb90","pricing_plan_id":"cebpf4jnsgd1na2vs0mg"},{"bike_id":"37e7522e-935d-4961-8867-288df3143a81","system_id":"levelo_inurba_marseille","lat":43.31498,"lon":5.37302,"is_reserved":false,"is_disabled":false,"rental_uris":{"android":"levelo://app?vid=37e7522e-935d-4961-8867-288df3143a81","ios":"levelo://app?vid=37e7522e-935d-4961-8867-288df3143a81"},"vehicle_type_id":"4","last_reported":1746720752,"current_range_meters":3200,"station_id":"ce4bgt12rcd13ifvqcd0","pricing_plan_id":"cebpf4jnsgd1na2vs0mg"},{"bike_id":"c79a4308-45f3-4416-8970-0ddf83d49f43","system_id":"levelo_inurba_marseille","lat":43.29382,"lon":5.37872,"is_reserved":false,"is_disabled":false,"rental_uris":{"android":"levelo://app?vid=c79a4308-45f3-4416-8970-0ddf83d49f43","ios":"levelo://app?vid=c79a4308-45f3-4416-8970-0ddf83d49f43"},"vehicle_type_id":"4","last_reported":1746720752,"current_range_meters":3200,"station_id":"ce4bgjh2rcd13ifvqbf0","pricing_plan_id":"cebpf4jnsgd1na2vs0mg"},{"bike_id":"285c8d4d-f189-41de-a54b-7a1d4a02cd31","system_id":"levelo_inurba_marseille","lat":43.33114,"lon":5.38224,"is_reserved":false,"is_disabled":false,"rental_uris":{"android":"levelo://app?vid=285c8d4d-f189-41de-a54b-7a1d4a02cd31","ios":"levelo://app?vid=285c8d4d-f189-41de-a54b-7a1d4a02cd31"},"vehicle_type_id":"4","last_reported":1746720752,"current_range_meters":3200,"station_id":"","pricing_plan_id":"cebpf4jnsgd1na2vs0mg"},{"bike_id":"a976ac4a-3f01-4522-9f15-d2fbaf62f07e","system_id":"levelo_inurba_marseille","lat":43.28943,"lon":5.39643,"is_reserved":false,"is_disabled":false,"rental_uris":{"android":"levelo://app?vid=a976ac4a-3f01-4522-9f15-d2fbaf62f07e","ios":"levelo://app?vid=a976ac4a-3f01-4522-9f15-d2fbaf62f07e"},"vehicle_type_id":"4","last_reported":1746720752,"current_range_meters":2800,"station_id":"ce4bh3h2rcd13ifvqdn0","pricing_plan_id":"cebpf4jnsgd1na2vs0mg"},{"bike_id":"7f5d8745-4169-4c94-9017-22e39cc966a6","system_id":"levelo_inurba_marseille","lat":43.26203,"lon":5.37923,"is_reserved":false,"is_disabled":false,"rental_uris":{"android":"levelo://app?vid=7f5d8745-4169-4c94-9017-22e39cc966a6","ios":"levelo://app?vid=7f5d8745-4169-4c94-9017-22e39cc966a6"},"vehicle_type_id":"4","last_reported":1746720752,"current_range_meters":3200,"station_id":"ce4bhjp2rcd13ifvqg90","pricing_plan_id":"cebpf4jnsgd1na2vs0mg"},{"bike_id":"5916c6b2-84e1-46a0-a08f-0fbfa004371f","system_id":"levelo_inurba_marseille","lat":43.28405,"lon":5.37516,"is_reserved":false,"is_disabled":false,"rental_uris":{"android":"levelo://app?vid=5916c6b2-84e1-46a0-a08f-0fbfa004371f","ios":"levelo://app?vid=5916c6b2-84e1-46a0-a08f-0fbfa004371f"},"vehicle_type_id":"4","last_reported":1746720752,"current_range_meters":2800,"station_id":"ce4bh412rcd13ifvqds0","pricing_plan_id":"cebpf4jnsgd1na2vs0mg"},{"bike_id":"89c8fa70-4735-41bb-8b4f-0cb11978a7c4","system_id":"levelo_inurba_marseille","lat":43.30434,"lon":5.38896,"is_reserved":false,"is_disabled":false,"rental_uris":{"android":"levelo://app?vid=89c8fa70-4735-41bb-8b4f-0cb11978a7c4","ios":"levelo://app?vid=89c8fa70-4735-41bb-8b4f-0cb11978a7c4"},"vehicle_type_id":"4","last_reported":1746720752,"current_range_meters":3200,"station_id":"ce4bgk12rcd13ifvqbi0","pricing_plan_id":"cebpf4jnsgd1na2vs0mg"},{"bike_id":"9e0c05f6-d785-4f0b-bed3-7fbf18cfa918","system_id":"levelo_inurba_marseille","lat":43.23073,"lon":5.35506,"is_reserved":false,"is_disabled":false,"rental_uris":{"android":"levelo://app?vid=9e0c05f6-d785-4f0b-bed3-7fbf18cfa918","ios":"levelo://app?vid=9e0c05f6-d785-4f0b-bed3-7fbf18cfa918"},"vehicle_type_id":"4","last_reported":1746720752,"current_range_meters":3600,"station_id":"cpo3342slgdg3j2ifvpg","pricing_plan_id":"cebpf4jnsgd1na2vs0mg"},{"bike_id":"d8231970-e78d-429c-940d-cfc07b9ba7ea","system_id":"levelo_inurba_marseille","lat":43.30161,"lon":5.38073,"is_reserved":false,"is_disabled":false,"rental_uris":{"android":"levelo://app?vid=d8231970-e78d-429c-940d-cfc07b9ba7ea","ios":"levelo://app?vid=d8231970-e78d-429c-940d-cfc07b9ba7ea"},"vehicle_type_id":"4","last_reported":1746720752,"current_range_meters":3200,"station_id":"ce4bgjp2rcd13ifvqbh0","pricing_plan_id":"cebpf4jnsgd1na2vs0mg"},{"bike_id":"6a9c7142-60a4-4840-b4a8-1755dbfb0f02","system_id":"levelo_inurba_marseille","lat":43.2978,"lon":5.39335,"is_reserved":false,"is_disabled":false,"rental_uris":{"android":"levelo://app?vid=6a9c7142-60a4-4840-b4a8-1755dbfb0f02","ios":"levelo://app?vid=6a9c7142-60a4-4840-b4a8-1755dbfb0f02"},"vehicle_type_id":"4","last_reported":1746720752,"current_range_meters":3600,"station_id":"chh1huq6cuj3fo74tm60","pricing_plan_id":"cebpf4jnsgd1na2vs0mg"},{"bike_id":"cc29afb6-2dd4-431f-9e81-e464f78d7046","system_id":"levelo_inurba_marseille","lat":43.27209,"lon":5.39187,"is_reserved":false,"is_disabled":false,"rental_uris":{"android":"levelo://app?vid=cc29afb6-2dd4-431f-9e81-e464f78d7046","ios":"levelo://app?vid=cc29afb6-2dd4-431f-9e81-e464f78d7046"},"vehicle_type_id":"4","last_reported":1746720752,"current_range_meters":4000,"station_id":"ce4bhhp2rcd13ifvqfm0","pricing_plan_id":"cebpf4jnsgd1na2vs0mg"},{"bike_id":"70134673-2636-4a25-9383-080aadc8b386","system_id":"levelo_inurba_marseille","lat":43.29796,"lon":5.40408,"is_reserved":false,"is_disabled":false,"rental_uris":{"android":"levelo://app?vid=70134673-2636-4a25-9383-080aadc8b386","ios":"levelo://app?vid=70134673-2636-4a25-9383-080aadc8b386"},"vehicle_type_id":"4","last_reported":1746720752,"current_range_meters":4000,"station_id":"ce4bh112rcd13ifvqd90","pricing_plan_id":"cebpf4jnsgd1na2vs0mg"},{"bike_id":"80ac4d3f-01a8-4f82-a151-9e1a09939072","system_id":"levelo_inurba_marseille","lat":43.26481,"lon":5.39523,"is_reserved":false,"is_disabled":false,"rental_uris":{"android":"levelo://app?vid=80ac4d3f-01a8-4f82-a151-9e1a09939072","ios":"levelo://app?vid=80ac4d3f-01a8-4f82-a151-9e1a09939072"},"vehicle_type_id":"4","last_reported":1746720752,"current_range_meters":4400,"station_id":"ce4bhi12rcd13ifvqfq0","pricing_plan_id":"cebpf4jnsgd1na2vs0mg"},{"bike_id":"e98945cb-074c-4770-87a8-e2449ba9e65c","system_id":"levelo_inurba_marseille","lat":43.2251,"lon":5.34792,"is_reserved":false,"is_disabled":false,"rental_uris":{"android":"levelo://app?vid=e98945cb-074c-4770-87a8-e2449ba9e65c","ios":"levelo://app?vid=e98945cb-074c-4770-87a8-e2449ba9e65c"},"vehicle_type_id":"4","last_reported":1746720752,"current_range_meters":4400,"station_id":"st_cvj5dfep6f1abm77gieg","pricing_plan_id":"cebpf4jnsgd1na2vs0mg"},{"bike_id":"036fa848-7792-4a24-beb6-71ee67f27303","system_id":"levelo_inurba_marseille","lat":43.22937,"lon":5.3538,"is_reserved":false,"is_disabled":false,"rental_uris":{"android":"levelo://app?vid=036fa848-7792-4a24-beb6-71ee67f27303","ios":"levelo://app?vid=036fa848-7792-4a24-beb6-71ee67f27303"},"vehicle_type_id":"4","last_reported":1746720752,"current_range_meters":4400,"station_id":"cpo3532slgdg3j2ikp40","pricing_plan_id":"cebpf4jnsgd1na2vs0mg"},{"bike_id":"3a77f55f-90fd-4102-a330-c2972041a5e4","system_id":"levelo_inurba_marseille","lat":43.296182,"lon":5.377146,"is_reserved":false,"is_disabled":false,"rental_uris":{"android":"levelo://app?vid=3a77f55f-90fd-4102-a330-c2972041a5e4","ios":"levelo://app?vid=3a77f55f-90fd-4102-a330-c2972041a5e4"},"vehicle_type_id":"4","last_reported":1746720752,"current_range_meters":4400,"station_id":"ce4bgi92rcd13ifvqb90","pricing_plan_id":"cebpf4jnsgd1na2vs0mg"},{"bike_id":"4cd3a911-b468-4766-83d0-21b4a755ba9b","system_id":"levelo_inurba_marseille","lat":43.29253,"lon":5.36634,"is_reserved":false,"is_disabled":false,"rental_uris":{"android":"levelo://app?vid=4cd3a911-b468-4766-83d0-21b4a755ba9b","ios":"levelo://app?vid=4cd3a911-b468-4766-83d0-21b4a755ba9b"},"vehicle_type_id":"4","last_reported":1746720752,"current_range_meters":4800,"station_id":"","pricing_plan_id":"cebpf4jnsgd1na2vs0mg"},{"bike_id":"ef37e240-708a-4128-a096-f569770ba477","system_id":"levelo_inurba_marseille","lat":43.27689,"lon":5.38868,"is_reserved":false,"is_disabled":false,"rental_uris":{"android":"levelo://app?vid=ef37e240-708a-4128-a096-f569770ba477","ios":"levelo://app?vid=ef37e240-708a-4128-a096-f569770ba477"},"vehicle_type_id":"4","last_reported":1746720752,"current_range_meters":4800,"station_id":"ce4bhi12rcd13ifvqfo0","pricing_plan_id":"cebpf4jnsgd1na2vs0mg"},{"bike_id":"48f96d72-aa76-4beb-b7e5-018803c11dc8","system_id":"levelo_inurba_marseille","lat":43.29969,"lon":5.38491,"is_reserved":false,"is_disabled":false,"rental_uris":{"android":"levelo://app?vid=48f96d72-aa76-4beb-b7e5-018803c11dc8","ios":"levelo://app?vid=48f96d72-aa76-4beb-b7e5-018803c11dc8"},"vehicle_type_id":"4","last_reported":1746720752,"current_range_meters":4400,"station_id":"ce4bgj92rcd13ifvqbd0","pricing_plan_id":"cebpf4jnsgd1na2vs0mg"},{"bike_id":"747baedf-8ae4-4a34-9edb-d34e5acb2d69","system_id":"levelo_inurba_marseille","lat":43.26956,"lon":5.38699,"is_reserved":false,"is_disabled":false,"rental_uris":{"android":"levelo://app?vid=747baedf-8ae4-4a34-9edb-d34e5acb2d69","ios":"levelo://app?vid=747baedf-8ae4-4a34-9edb-d34e5acb2d69"},"vehicle_type_id":"4","last_reported":1746720752,"current_range_meters":4800,"station_id":"ce4bhh92rcd13ifvqfh0","pricing_plan_id":"cebpf4jnsgd1na2vs0mg"},{"bike_id":"62367927-c4f0-445b-9d18-b064c77a4b2f","system_id":"levelo_inurba_marseille","lat":43.28852,"lon":5.3932,"is_reserved":false,"is_disabled":false,"rental_uris":{"android":"levelo://app?vid=62367927-c4f0-445b-9d18-b064c77a4b2f","ios":"levelo://app?vid=62367927-c4f0-445b-9d18-b064c77a4b2f"},"vehicle_type_id":"4","last_reported":1746720752,"current_range_meters":4800,"station_id":"ce4bh2p2rcd13ifvqdi0","pricing_plan_id":"cebpf4jnsgd1na2vs0mg"},{"bike_id":"ddba5977-6246-4f91-9a24-b1d6e5b289f9","system_id":"levelo_inurba_marseille","lat":43.29031,"lon":5.38643,"is_reserved":false,"is_disabled":false,"rental_uris":{"android":"levelo://app?vid=ddba5977-6246-4f91-9a24-b1d6e5b289f9","ios":"levelo://app?vid=ddba5977-6246-4f91-9a24-b1d6e5b289f9"},"vehicle_type_id":"4","last_reported":1746720752,"current_range_meters":5600,"station_id":"ce4bh4p2rcd13ifvqe0g","pricing_plan_id":"cebpf4jnsgd1na2vs0mg"},{"bike_id":"66a492eb-4ee6-4756-a0fd-fa90a027ae55","system_id":"levelo_inurba_marseille","lat":43.26193,"lon":5.37451,"is_reserved":false,"is_disabled":false,"rental_uris":{"android":"levelo://app?vid=66a492eb-4ee6-4756-a0fd-fa90a027ae55","ios":"levelo://app?vid=66a492eb-4ee6-4756-a0fd-fa90a027ae55"},"vehicle_type_id":"4","last_reported":1746720752,"current_range_meters":5600,"station_id":"ce4bhgp2rcd13ifvqfc0","pricing_plan_id":"cebpf4jnsgd1na2vs0mg"},{"bike_id":"2e946f00-de50-48b5-ae79-b4cf8d87389a","system_id":"levelo_inurba_marseille","lat":43.2919,"lon":5.35817,"is_reserved":false,"is_disabled":false,"rental_uris":{"android":"levelo://app?vid=2e946f00-de50-48b5-ae79-b4cf8d87389a","ios":"levelo://app?vid=2e946f00-de50-48b5-ae79-b4cf8d87389a"},"vehicle_type_id":"4","last_reported":1746720752,"current_range_meters":5600,"station_id":"ce4bhb12rcd13ifvqel0","pricing_plan_id":"cebpf4jnsgd1na2vs0mg"},{"bike_id":"29249696-5353-415c-ac69-fb20da548c67","system_id":"levelo_inurba_marseille","lat":43.28672,"lon":5.36355,"is_reserved":false,"is_disabled":false,"rental_uris":{"android":"levelo://app?vid=29249696-5353-415c-ac69-fb20da548c67","ios":"levelo://app?vid=29249696-5353-415c-ac69-fb20da548c67"},"vehicle_type_id":"4","last_reported":1746720752,"current_range_meters":5600,"station_id":"ce4bhah2rcd13ifvqej0","pricing_plan_id":"cebpf4jnsgd1na2vs0mg"},{"bike_id":"3bad184a-1567-45eb-bc31-e7ea1f0e01fc","system_id":"levelo_inurba_marseille","lat":43.22926,"lon":5.35378,"is_reserved":false,"is_disabled":false,"rental_uris":{"android":"levelo://app?vid=3bad184a-1567-45eb-bc31-e7ea1f0e01fc","ios":"levelo://app?vid=3bad184a-1567-45eb-bc31-e7ea1f0e01fc"},"vehicle_type_id":"4","last_reported":1746720752,"current_range_meters":6000,"station_id":"cpo3532slgdg3j2ikp40","pricing_plan_id":"cebpf4jnsgd1na2vs0mg"},{"bike_id":"23fb6424-9cdf-40d8-94e9-df96a98463b3","system_id":"levelo_inurba_marseille","lat":43.26576,"lon":5.3901,"is_reserved":false,"is_disabled":false,"rental_uris":{"android":"levelo://app?vid=23fb6424-9cdf-40d8-94e9-df96a98463b3","ios":"levelo://app?vid=23fb6424-9cdf-40d8-94e9-df96a98463b3"},"vehicle_type_id":"4","last_reported":1746720752,"current_range_meters":6000,"station_id":"ce4bhe12rcd13ifvqf30","pricing_plan_id":"cebpf4jnsgd1na2vs0mg"},{"bike_id":"59d14697-8cac-4b7d-b27c-9cae0d900aac","system_id":"levelo_inurba_marseille","lat":43.30962,"lon":5.39068,"is_reserved":false,"is_disabled":false,"rental_uris":{"android":"levelo://app?vid=59d14697-8cac-4b7d-b27c-9cae0d900aac","ios":"levelo://app?vid=59d14697-8cac-4b7d-b27c-9cae0d900aac"},"vehicle_type_id":"4","last_reported":1746720752,"current_range_meters":6000,"station_id":"ce4bgup2rcd13ifvqco0","pricing_plan_id":"cebpf4jnsgd1na2vs0mg"},{"bike_id":"95076552-981f-4d5e-bf4d-a6356c7476e2","system_id":"levelo_inurba_marseille","lat":43.29,"lon":5.35607,"is_reserved":false,"is_disabled":false,"rental_uris":{"android":"levelo://app?vid=95076552-981f-4d5e-bf4d-a6356c7476e2","ios":"levelo://app?vid=95076552-981f-4d5e-bf4d-a6356c7476e2"},"vehicle_type_id":"4","last_reported":1746720752,"current_range_meters":6000,"station_id":"ce4bhb92rcd13ifvqen0","pricing_plan_id":"cebpf4jnsgd1na2vs0mg"},{"bike_id":"2d98b451-b4ef-46aa-9841-fcc618d362e6","system_id":"levelo_inurba_marseille","lat":43.251,"lon":5.40321,"is_reserved":false,"is_disabled":false,"rental_uris":{"android":"levelo://app?vid=2d98b451-b4ef-46aa-9841-fcc618d362e6","ios":"levelo://app?vid=2d98b451-b4ef-46aa-9841-fcc618d362e6"},"vehicle_type_id":"4","last_reported":1746720752,"current_range_meters":6000,"station_id":"ce4bhlh2rcd13ifvqgig","pricing_plan_id":"cebpf4jnsgd1na2vs0mg"},{"bike_id":"546a21cf-da65-435e-acc7-67ef5f438b65","system_id":"levelo_inurba_marseille","lat":43.29889,"lon":5.43669,"is_reserved":false,"is_disabled":false,"rental_uris":{"android":"levelo://app?vid=546a21cf-da65-435e-acc7-67ef5f438b65","ios":"levelo://app?vid=546a21cf-da65-435e-acc7-67ef5f438b65"},"vehicle_type_id":"4","last_reported":1746720752,"current_range_meters":6400,"station_id":"ce4bhpp2rcd13ifvqhfg","pricing_plan_id":"cebpf4jnsgd1na2vs0mg"},{"bike_id":"5d97afa3-75c8-4720-9690-7157f6b19de8","system_id":"levelo_inurba_marseille","lat":43.33619,"lon":5.40993,"is_reserved":false,"is_disabled":false,"rental_uris":{"android":"levelo://app?vid=5d97afa3-75c8-4720-9690-7157f6b19de8","ios":"levelo://app?vid=5d97afa3-75c8-4720-9690-7157f6b19de8"},"vehicle_type_id":"4","last_reported":1746720752,"current_range_meters":6400,"station_id":"ce4bhqh2rcd13ifvqhmg","pricing_plan_id":"cebpf4jnsgd1na2vs0mg"},{"bike_id":"d051b13d-9ce2-4a59-8e99-1d34abef42de","system_id":"levelo_inurba_marseille","lat":43.26562,"lon":5.37279,"is_reserved":false,"is_disabled":false,"rental_uris":{"android":"levelo://app?vid=d051b13d-9ce2-4a59-8e99-1d34abef42de","ios":"levelo://app?vid=d051b13d-9ce2-4a59-8e99-1d34abef42de"},"vehicle_type_id":"4","last_reported":1746720752,"current_range_meters":6400,"station_id":"ce4bhg12rcd13ifvqf70","pricing_plan_id":"cebpf4jnsgd1na2vs0mg"},{"bike_id":"b1020e27-dc98-466c-a8b2-93b967c3711f","system_id":"levelo_inurba_marseille","lat":43.3362,"lon":5.41045,"is_reserved":false,"is_disabled":false,"rental_uris":{"android":"levelo://app?vid=b1020e27-dc98-466c-a8b2-93b967c3711f","ios":"levelo://app?vid=b1020e27-dc98-466c-a8b2-93b967c3711f"},"vehicle_type_id":"4","last_reported":1746720752,"current_range_meters":6400,"station_id":"ce4bhqh2rcd13ifvqhmg","pricing_plan_id":"cebpf4jnsgd1na2vs0mg"},{"bike_id":"6c05eb24-09e2-4a0d-b901-0ab800d3a0ec","system_id":"levelo_inurba_marseille","lat":43.26209,"lon":5.37444,"is_reserved":false,"is_disabled":false,"rental_uris":{"android":"levelo://app?vid=6c05eb24-09e2-4a0d-b901-0ab800d3a0ec","ios":"levelo://app?vid=6c05eb24-09e2-4a0d-b901-0ab800d3a0ec"},"vehicle_type_id":"4","last_reported":1746720752,"current_range_meters":6400,"station_id":"ce4bhgp2rcd13ifvqfc0","pricing_plan_id":"cebpf4jnsgd1na2vs0mg"},{"bike_id":"a297e50c-bb28-4d8d-97f5-57738833cd8f","system_id":"levelo_inurba_marseille","lat":43.225,"lon":5.34786,"is_reserved":false,"is_disabled":false,"rental_uris":{"android":"levelo://app?vid=a297e50c-bb28-4d8d-97f5-57738833cd8f","ios":"levelo://app?vid=a297e50c-bb28-4d8d-97f5-57738833cd8f"},"vehicle_type_id":"4","last_reported":1746720752,"current_range_meters":6400,"station_id":"st_cvj5dfep6f1abm77gieg","pricing_plan_id":"cebpf4jnsgd1na2vs0mg"},{"bike_id":"60a7dfb9-c107-4f15-b294-483f4a50f271","system_id":"levelo_inurba_marseille","lat":43.30934,"lon":5.40141,"is_reserved":false,"is_disabled":false,"rental_uris":{"android":"levelo://app?vid=60a7dfb9-c107-4f15-b294-483f4a50f271","ios":"levelo://app?vid=60a7dfb9-c107-4f15-b294-483f4a50f271"},"vehicle_type_id":"4","last_reported":1746720752,"current_range_meters":6800,"station_id":"ce4bgvp2rcd13ifvqct0","pricing_plan_id":"cebpf4jnsgd1na2vs0mg"},{"bike_id":"86a7b74d-dc8f-4d47-96fc-df56df6ba403","system_id":"levelo_inurba_marseille","lat":43.27945,"lon":5.41052,"is_reserved":false,"is_disabled":false,"rental_uris":{"android":"levelo://app?vid=86a7b74d-dc8f-4d47-96fc-df56df6ba403","ios":"levelo://app?vid=86a7b74d-dc8f-4d47-96fc-df56df6ba403"},"vehicle_type_id":"4","last_reported":1746720752,"current_range_meters":6800,"station_id":"ce4bhnp2rcd13ifvqh0g","pricing_plan_id":"cebpf4jnsgd1na2vs0mg"},{"bike_id":"b7bdbe3a-b7ec-4256-908f-dfa71835a5d1","system_id":"levelo_inurba_marseille","lat":43.291425,"lon":5.380875,"is_reserved":false,"is_disabled":false,"rental_uris":{"android":"levelo://app?vid=b7bdbe3a-b7ec-4256-908f-dfa71835a5d1","ios":"levelo://app?vid=b7bdbe3a-b7ec-4256-908f-dfa71835a5d1"},"vehicle_type_id":"4","last_reported":1746720752,"current_range_meters":6800,"station_id":"","pricing_plan_id":"cebpf4jnsgd1na2vs0mg"},{"bike_id":"d62dc8a8-c301-4e4c-8b32-89bceaa0949e","system_id":"levelo_inurba_marseille","lat":43.27373,"lon":5.36262,"is_reserved":false,"is_disabled":false,"rental_uris":{"android":"levelo://app?vid=d62dc8a8-c301-4e4c-8b32-89bceaa0949e","ios":"levelo://app?vid=d62dc8a8-c301-4e4c-8b32-89bceaa0949e"},"vehicle_type_id":"4","last_reported":1746720752,"current_range_meters":7200,"station_id":"","pricing_plan_id":"cebpf4jnsgd1na2vs0mg"},{"bike_id":"0205c6c8-588c-44b5-9154-26e8c2a479b8","system_id":"levelo_inurba_marseille","lat":43.32364,"lon":5.38906,"is_reserved":false,"is_disabled":false,"rental_uris":{"android":"levelo://app?vid=0205c6c8-588c-44b5-9154-26e8c2a479b8","ios":"levelo://app?vid=0205c6c8-588c-44b5-9154-26e8c2a479b8"},"vehicle_type_id":"4","last_reported":1746720752,"current_range_meters":7200,"station_id":"ce4bhqp2rcd13ifvqhog","pricing_plan_id":"cebpf4jnsgd1na2vs0mg"},{"bike_id":"19b497f5-022e-48df-8516-8db4d8bb7cc4","system_id":"levelo_inurba_marseille","lat":43.27076,"lon":5.4231,"is_reserved":false,"is_disabled":false,"rental_uris":{"android":"levelo://app?vid=19b497f5-022e-48df-8516-8db4d8bb7cc4","ios":"levelo://app?vid=19b497f5-022e-48df-8516-8db4d8bb7cc4"},"vehicle_type_id":"4","last_reported":1746720752,"current_range_meters":7200,"station_id":"ce4bhk92rcd13ifvqgb0","pricing_plan_id":"cebpf4jnsgd1na2vs0mg"},{"bike_id":"913a3be8-6e6b-42f7-847e-c669f3910e5a","system_id":"levelo_inurba_marseille","lat":43.25495,"lon":5.37653,"is_reserved":false,"is_disabled":false,"rental_uris":{"android":"levelo://app?vid=913a3be8-6e6b-42f7-847e-c669f3910e5a","ios":"levelo://app?vid=913a3be8-6e6b-42f7-847e-c669f3910e5a"},"vehicle_type_id":"4","last_reported":1746720752,"current_range_meters":7200,"station_id":"ce4bhh12rcd13ifvqff0","pricing_plan_id":"cebpf4jnsgd1na2vs0mg"},{"bike_id":"ec0b9493-0d0e-4089-bfc7-297014a1dc7c","system_id":"levelo_inurba_marseille","lat":43.28151,"lon":5.42646,"is_reserved":false,"is_disabled":false,"rental_uris":{"android":"levelo://app?vid=ec0b9493-0d0e-4089-bfc7-297014a1dc7c","ios":"levelo://app?vid=ec0b9493-0d0e-4089-bfc7-297014a1dc7c"},"vehicle_type_id":"4","last_reported":1746720752,"current_range_meters":7200,"station_id":"ce4bhnh2rcd13ifvqgug","pricing_plan_id":"cebpf4jnsgd1na2vs0mg"},{"bike_id":"b969d874-4c24-4be0-ac19-3501ac4b8ba2","system_id":"levelo_inurba_marseille","lat":43.295044,"lon":5.393697,"is_reserved":false,"is_disabled":false,"rental_uris":{"android":"levelo://app?vid=b969d874-4c24-4be0-ac19-3501ac4b8ba2","ios":"levelo://app?vid=b969d874-4c24-4be0-ac19-3501ac4b8ba2"},"vehicle_type_id":"4","last_reported":1746720752,"current_range_meters":6800,"station_id":"ce4bh3h2rcd13ifvqdo0","pricing_plan_id":"cebpf4jnsgd1na2vs0mg"},{"bike_id":"e9f801ec-7add-4982-a59e-f7474c91af23","system_id":"levelo_inurba_marseille","lat":43.30219,"lon":5.394691,"is_reserved":false,"is_disabled":false,"rental_uris":{"android":"levelo://app?vid=e9f801ec-7add-4982-a59e-f7474c91af23","ios":"levelo://app?vid=e9f801ec-7add-4982-a59e-f7474c91af23"},"vehicle_type_id":"4","last_reported":1746720752,"current_range_meters":8000,"station_id":"ce4bh0p2rcd13ifvqd70","pricing_plan_id":"cebpf4jnsgd1na2vs0mg"},{"bike_id":"9f42b570-5e26-4ea5-b53a-e37a19e5c975","system_id":"levelo_inurba_marseille","lat":43.28035,"lon":5.36944,"is_reserved":false,"is_disabled":false,"rental_uris":{"android":"levelo://app?vid=9f42b570-5e26-4ea5-b53a-e37a19e5c975","ios":"levelo://app?vid=9f42b570-5e26-4ea5-b53a-e37a19e5c975"},"vehicle_type_id":"4","last_reported":1746720752,"current_range_meters":8000,"station_id":"ce4bha12rcd13ifvqef0","pricing_plan_id":"cebpf4jnsgd1na2vs0mg"},{"bike_id":"c91b378d-26a5-4ed8-99d4-6b3ec43dd75e","system_id":"levelo_inurba_marseille","lat":43.24085,"lon":5.3775,"is_reserved":false,"is_disabled":false,"rental_uris":{"android":"levelo://app?vid=c91b378d-26a5-4ed8-99d4-6b3ec43dd75e","ios":"levelo://app?vid=c91b378d-26a5-4ed8-99d4-6b3ec43dd75e"},"vehicle_type_id":"4","last_reported":1746720752,"current_range_meters":8000,"station_id":"ce4bhnp2rcd13ifvqgvg","pricing_plan_id":"cebpf4jnsgd1na2vs0mg"},{"bike_id":"f6a63c85-34de-4909-bae2-4a543aefe001","system_id":"levelo_inurba_marseille","lat":43.2621,"lon":5.37901,"is_reserved":false,"is_disabled":false,"rental_uris":{"android":"levelo://app?vid=f6a63c85-34de-4909-bae2-4a543aefe001","ios":"levelo://app?vid=f6a63c85-34de-4909-bae2-4a543aefe001"},"vehicle_type_id":"4","last_reported":1746720752,"current_range_meters":8000,"station_id":"ce4bhjp2rcd13ifvqg90","pricing_plan_id":"cebpf4jnsgd1na2vs0mg"},{"bike_id":"38125369-ce27-4760-abed-d89c73ebcf16","system_id":"levelo_inurba_marseille","lat":43.24082,"lon":5.37764,"is_reserved":false,"is_disabled":false,"rental_uris":{"android":"levelo://app?vid=38125369-ce27-4760-abed-d89c73ebcf16","ios":"levelo://app?vid=38125369-ce27-4760-abed-d89c73ebcf16"},"vehicle_type_id":"4","last_reported":1746720752,"current_range_meters":8000,"station_id":"ce4bhnp2rcd13ifvqgvg","pricing_plan_id":"cebpf4jnsgd1na2vs0mg"},{"bike_id":"ab4b5ef9-36cd-4aa2-a6d1-5871bcc19196","system_id":"levelo_inurba_marseille","lat":43.231935,"lon":5.355475,"is_reserved":false,"is_disabled":false,"rental_uris":{"android":"levelo://app?vid=ab4b5ef9-36cd-4aa2-a6d1-5871bcc19196","ios":"levelo://app?vid=ab4b5ef9-36cd-4aa2-a6d1-5871bcc19196"},"vehicle_type_id":"4","last_reported":1746720752,"current_range_meters":8000,"station_id":"ce4bhu92rcd13ifvqi70","pricing_plan_id":"cebpf4jnsgd1na2vs0mg"},{"bike_id":"3262ca26-828c-474b-a435-d274d8bcf921","system_id":"levelo_inurba_marseille","lat":43.26679,"lon":5.38269,"is_reserved":false,"is_disabled":false,"rental_uris":{"android":"levelo://app?vid=3262ca26-828c-474b-a435-d274d8bcf921","ios":"levelo://app?vid=3262ca26-828c-474b-a435-d274d8bcf921"},"vehicle_type_id":"4","last_reported":1746720752,"current_range_meters":8000,"station_id":"ce4bhg92rcd13ifvqf90","pricing_plan_id":"cebpf4jnsgd1na2vs0mg"},{"bike_id":"1383fd74-3fc2-4403-bdc6-1145f4e34acc","system_id":"levelo_inurba_marseille","lat":43.25087,"lon":5.395103,"is_reserved":false,"is_disabled":false,"rental_uris":{"android":"levelo://app?vid=1383fd74-3fc2-4403-bdc6-1145f4e34acc","ios":"levelo://app?vid=1383fd74-3fc2-4403-bdc6-1145f4e34acc"},"vehicle_type_id":"4","last_reported":1746720752,"current_range_meters":8000,"station_id":"ce4bhm12rcd13ifvqgkg","pricing_plan_id":"cebpf4jnsgd1na2vs0mg"},{"bike_id":"a3253472-aa8c-49f2-8a6e-e3ac874bc347","system_id":"levelo_inurba_marseille","lat":43.26227,"lon":5.37469,"is_reserved":false,"is_disabled":false,"rental_uris":{"android":"levelo://app?vid=a3253472-aa8c-49f2-8a6e-e3ac874bc347","ios":"levelo://app?vid=a3253472-aa8c-49f2-8a6e-e3ac874bc347"},"vehicle_type_id":"4","last_reported":1746720752,"current_range_meters":8000,"station_id":"","pricing_plan_id":"cebpf4jnsgd1na2vs0mg"},{"bike_id":"62b04cda-8492-408c-a94a-d4d5bc8c00e7","system_id":"levelo_inurba_marseille","lat":43.27495,"lon":5.42449,"is_reserved":false,"is_disabled":false,"rental_uris":{"android":"levelo://app?vid=62b04cda-8492-408c-a94a-d4d5bc8c00e7","ios":"levelo://app?vid=62b04cda-8492-408c-a94a-d4d5bc8c00e7"},"vehicle_type_id":"4","last_reported":1746720752,"current_range_meters":8000,"station_id":"ce4bhn92rcd13ifvqgrg","pricing_plan_id":"cebpf4jnsgd1na2vs0mg"},{"bike_id":"cc117085-1f70-45b1-b30a-6672164cfd16","system_id":"levelo_inurba_marseille","lat":43.28421,"lon":5.34992,"is_reserved":false,"is_disabled":false,"rental_uris":{"android":"levelo://app?vid=cc117085-1f70-45b1-b30a-6672164cfd16","ios":"levelo://app?vid=cc117085-1f70-45b1-b30a-6672164cfd16"},"vehicle_type_id":"4","last_reported":1746720752,"current_range_meters":8400,"station_id":"ce4bhbh2rcd13ifvqepg","pricing_plan_id":"cebpf4jnsgd1na2vs0mg"},{"bike_id":"1bd14362-1c43-462a-a68c-607ad621dd31","system_id":"levelo_inurba_marseille","lat":43.29184,"lon":5.35802,"is_reserved":false,"is_disabled":false,"rental_uris":{"android":"levelo://app?vid=1bd14362-1c43-462a-a68c-607ad621dd31","ios":"levelo://app?vid=1bd14362-1c43-462a-a68c-607ad621dd31"},"vehicle_type_id":"4","last_reported":1746720752,"current_range_meters":8400,"station_id":"ce4bhb12rcd13ifvqel0","pricing_plan_id":"cebpf4jnsgd1na2vs0mg"},{"bike_id":"481c477f-5285-4df6-bf62-57efd836465f","system_id":"levelo_inurba_marseille","lat":43.26211,"lon":5.37439,"is_reserved":false,"is_disabled":false,"rental_uris":{"android":"levelo://app?vid=481c477f-5285-4df6-bf62-57efd836465f","ios":"levelo://app?vid=481c477f-5285-4df6-bf62-57efd836465f"},"vehicle_type_id":"4","last_reported":1746720752,"current_range_meters":8400,"station_id":"ce4bhgp2rcd13ifvqfc0","pricing_plan_id":"cebpf4jnsgd1na2vs0mg"},{"bike_id":"e7059eaa-a2bf-4d3e-b6b9-3565e021c8a3","system_id":"levelo_inurba_marseille","lat":43.231844,"lon":5.35576,"is_reserved":false,"is_disabled":false,"rental_uris":{"android":"levelo://app?vid=e7059eaa-a2bf-4d3e-b6b9-3565e021c8a3","ios":"levelo://app?vid=e7059eaa-a2bf-4d3e-b6b9-3565e021c8a3"},"vehicle_type_id":"4","last_reported":1746720752,"current_range_meters":8400,"station_id":"ce4bhu92rcd13ifvqi70","pricing_plan_id":"cebpf4jnsgd1na2vs0mg"},{"bike_id":"5d9f688a-2523-4473-99eb-185c2062213b","system_id":"levelo_inurba_marseille","lat":43.26057,"lon":5.39383,"is_reserved":false,"is_disabled":false,"rental_uris":{"android":"levelo://app?vid=5d9f688a-2523-4473-99eb-185c2062213b","ios":"levelo://app?vid=5d9f688a-2523-4473-99eb-185c2062213b"},"vehicle_type_id":"4","last_reported":1746720752,"current_range_meters":8400,"station_id":"ce4bhh92rcd13ifvqfj0","pricing_plan_id":"cebpf4jnsgd1na2vs0mg"},{"bike_id":"4ae7a83c-4508-4420-bdfc-fc011c19b67a","system_id":"levelo_inurba_marseille","lat":43.33764,"lon":5.3748,"is_reserved":false,"is_disabled":false,"rental_uris":{"android":"levelo://app?vid=4ae7a83c-4508-4420-bdfc-fc011c19b67a","ios":"levelo://app?vid=4ae7a83c-4508-4420-bdfc-fc011c19b67a"},"vehicle_type_id":"4","last_reported":1746720752,"current_range_meters":8000,"station_id":"","pricing_plan_id":"cebpf4jnsgd1na2vs0mg"},{"bike_id":"b15fe93b-1059-4d75-abd3-040e349ce402","system_id":"levelo_inurba_marseille","lat":43.30121,"lon":5.36983,"is_reserved":false,"is_disabled":false,"rental_uris":{"android":"levelo://app?vid=b15fe93b-1059-4d75-abd3-040e349ce402","ios":"levelo://app?vid=b15fe93b-1059-4d75-abd3-040e349ce402"},"vehicle_type_id":"4","last_reported":1746720752,"current_range_meters":8400,"station_id":"","pricing_plan_id":"cebpf4jnsgd1na2vs0mg"},{"bike_id":"76e1acab-2733-42e1-96ce-1e9d2e7c5123","system_id":"levelo_inurba_marseille","lat":43.28613,"lon":5.35101,"is_reserved":false,"is_disabled":false,"rental_uris":{"android":"levelo://app?vid=76e1acab-2733-42e1-96ce-1e9d2e7c5123","ios":"levelo://app?vid=76e1acab-2733-42e1-96ce-1e9d2e7c5123"},"vehicle_type_id":"4","last_reported":1746720752,"current_range_meters":8400,"station_id":"ce4bhch2rcd13ifvqeug","pricing_plan_id":"cebpf4jnsgd1na2vs0mg"},{"bike_id":"dd6c4715-e8d2-452f-a5eb-5decb59b02a5","system_id":"levelo_inurba_marseille","lat":43.27379,"lon":5.3626,"is_reserved":false,"is_disabled":false,"rental_uris":{"android":"levelo://app?vid=dd6c4715-e8d2-452f-a5eb-5decb59b02a5","ios":"levelo://app?vid=dd6c4715-e8d2-452f-a5eb-5decb59b02a5"},"vehicle_type_id":"4","last_reported":1746720752,"current_range_meters":8000,"station_id":"ce4bhbh2rcd13ifvqeo0","pricing_plan_id":"cebpf4jnsgd1na2vs0mg"},{"bike_id":"489cfef9-1769-4142-bf9c-26d72ceefad0","system_id":"levelo_inurba_marseille","lat":43.30965,"lon":5.39062,"is_reserved":false,"is_disabled":false,"rental_uris":{"android":"levelo://app?vid=489cfef9-1769-4142-bf9c-26d72ceefad0","ios":"levelo://app?vid=489cfef9-1769-4142-bf9c-26d72ceefad0"},"vehicle_type_id":"4","last_reported":1746720752,"current_range_meters":8400,"station_id":"ce4bgup2rcd13ifvqco0","pricing_plan_id":"cebpf4jnsgd1na2vs0mg"},{"bike_id":"2c15db65-0317-488a-8776-ac9f1bd08654","system_id":"levelo_inurba_marseille","lat":43.29882,"lon":5.39762,"is_reserved":false,"is_disabled":false,"rental_uris":{"android":"levelo://app?vid=2c15db65-0317-488a-8776-ac9f1bd08654","ios":"levelo://app?vid=2c15db65-0317-488a-8776-ac9f1bd08654"},"vehicle_type_id":"4","last_reported":1746720752,"current_range_meters":8800,"station_id":"ce4bh0h2rcd13ifvqd50","pricing_plan_id":"cebpf4jnsgd1na2vs0mg"},{"bike_id":"2a2bde27-fb40-4201-ad99-951eff9ad1c0","system_id":"levelo_inurba_marseille","lat":43.23188,"lon":5.35555,"is_reserved":false,"is_disabled":true,"rental_uris":{"android":"levelo://app?vid=2a2bde27-fb40-4201-ad99-951eff9ad1c0","ios":"levelo://app?vid=2a2bde27-fb40-4201-ad99-951eff9ad1c0"},"vehicle_type_id":"4","last_reported":1746720752,"current_range_meters":8800,"station_id":"ce4bhu92rcd13ifvqi70","pricing_plan_id":"cebpf4jnsgd1na2vs0mg"},{"bike_id":"19ebb71e-1597-49ba-9a89-7d42bb03019f","system_id":"levelo_inurba_marseille","lat":43.25572,"lon":5.38231,"is_reserved":false,"is_disabled":false,"rental_uris":{"android":"levelo://app?vid=19ebb71e-1597-49ba-9a89-7d42bb03019f","ios":"levelo://app?vid=19ebb71e-1597-49ba-9a89-7d42bb03019f"},"vehicle_type_id":"4","last_reported":1746720752,"current_range_meters":8800,"station_id":"ce4bhih2rcd13ifvqfs0","pricing_plan_id":"cebpf4jnsgd1na2vs0mg"},{"bike_id":"82567baf-3eb4-4986-8b68-3479a8231b26","system_id":"levelo_inurba_marseille","lat":43.29573,"lon":5.37528,"is_reserved":false,"is_disabled":false,"rental_uris":{"android":"levelo://app?vid=82567baf-3eb4-4986-8b68-3479a8231b26","ios":"levelo://app?vid=82567baf-3eb4-4986-8b68-3479a8231b26"},"vehicle_type_id":"4","last_reported":1746720752,"current_range_meters":8800,"station_id":"ce4bgh92rcd13ifvqb50","pricing_plan_id":"cebpf4jnsgd1na2vs0mg"},{"bike_id":"9caa80b0-08d4-4b6e-adf6-ac75b1f1cb4f","system_id":"levelo_inurba_marseille","lat":43.24662,"lon":5.38167,"is_reserved":false,"is_disabled":false,"rental_uris":{"android":"levelo://app?vid=9caa80b0-08d4-4b6e-adf6-ac75b1f1cb4f","ios":"levelo://app?vid=9caa80b0-08d4-4b6e-adf6-ac75b1f1cb4f"},"vehicle_type_id":"4","last_reported":1746720752,"current_range_meters":8800,"station_id":"ce4bhih2rcd13ifvqfr0","pricing_plan_id":"cebpf4jnsgd1na2vs0mg"},{"bike_id":"1b34466f-a118-46f6-a5f5-227f007ae3a7","system_id":"levelo_inurba_marseille","lat":43.23193,"lon":5.35571,"is_reserved":false,"is_disabled":false,"rental_uris":{"android":"levelo://app?vid=1b34466f-a118-46f6-a5f5-227f007ae3a7","ios":"levelo://app?vid=1b34466f-a118-46f6-a5f5-227f007ae3a7"},"vehicle_type_id":"4","last_reported":1746720752,"current_range_meters":8800,"station_id":"ce4bhu92rcd13ifvqi70","pricing_plan_id":"cebpf4jnsgd1na2vs0mg"},{"bike_id":"e5ba6d5b-7eb1-436e-9fbd-aae1d3d46e11","system_id":"levelo_inurba_marseille","lat":43.29046,"lon":5.3996,"is_reserved":false,"is_disabled":false,"rental_uris":{"android":"levelo://app?vid=e5ba6d5b-7eb1-436e-9fbd-aae1d3d46e11","ios":"levelo://app?vid=e5ba6d5b-7eb1-436e-9fbd-aae1d3d46e11"},"vehicle_type_id":"4","last_reported":1746720752,"current_range_meters":8800,"station_id":"ce4bh392rcd13ifvqdm0","pricing_plan_id":"cebpf4jnsgd1na2vs0mg"},{"bike_id":"8c1eac8a-64ae-4a4f-9905-e539607be87e","system_id":"levelo_inurba_marseille","lat":43.30948,"lon":5.39034,"is_reserved":false,"is_disabled":true,"rental_uris":{"android":"levelo://app?vid=8c1eac8a-64ae-4a4f-9905-e539607be87e","ios":"levelo://app?vid=8c1eac8a-64ae-4a4f-9905-e539607be87e"},"vehicle_type_id":"4","last_reported":1746720752,"current_range_meters":8800,"station_id":"ce4bgup2rcd13ifvqco0","pricing_plan_id":"cebpf4jnsgd1na2vs0mg"},{"bike_id":"aae478cb-81eb-4736-88a3-4663d9b7b8a5","system_id":"levelo_inurba_marseille","lat":43.291858,"lon":5.3582,"is_reserved":false,"is_disabled":false,"rental_uris":{"android":"levelo://app?vid=aae478cb-81eb-4736-88a3-4663d9b7b8a5","ios":"levelo://app?vid=aae478cb-81eb-4736-88a3-4663d9b7b8a5"},"vehicle_type_id":"4","last_reported":1746720752,"current_range_meters":8800,"station_id":"ce4bhb12rcd13ifvqel0","pricing_plan_id":"cebpf4jnsgd1na2vs0mg"},{"bike_id":"67b2dbec-a1a0-4813-9079-68a3606edd75","system_id":"levelo_inurba_marseille","lat":43.30143,"lon":5.38071,"is_reserved":false,"is_disabled":false,"rental_uris":{"android":"levelo://app?vid=67b2dbec-a1a0-4813-9079-68a3606edd75","ios":"levelo://app?vid=67b2dbec-a1a0-4813-9079-68a3606edd75"},"vehicle_type_id":"4","last_reported":1746720752,"current_range_meters":8400,"station_id":"ce4bgjp2rcd13ifvqbh0","pricing_plan_id":"cebpf4jnsgd1na2vs0mg"},{"bike_id":"1a6065bc-7571-469f-9d44-2e624a93a2ca","system_id":"levelo_inurba_marseille","lat":43.29023,"lon":5.38645,"is_reserved":false,"is_disabled":false,"rental_uris":{"android":"levelo://app?vid=1a6065bc-7571-469f-9d44-2e624a93a2ca","ios":"levelo://app?vid=1a6065bc-7571-469f-9d44-2e624a93a2ca"},"vehicle_type_id":"4","last_reported":1746720752,"current_range_meters":9200,"station_id":"ce4bh4p2rcd13ifvqe0g","pricing_plan_id":"cebpf4jnsgd1na2vs0mg"},{"bike_id":"82d2f740-8e04-412e-8792-05ca4f58ec9e","system_id":"levelo_inurba_marseille","lat":43.30789,"lon":5.37647,"is_reserved":false,"is_disabled":false,"rental_uris":{"android":"levelo://app?vid=82d2f740-8e04-412e-8792-05ca4f58ec9e","ios":"levelo://app?vid=82d2f740-8e04-412e-8792-05ca4f58ec9e"},"vehicle_type_id":"4","last_reported":1746720752,"current_range_meters":9200,"station_id":"ce4bgv92rcd13ifvqcq0","pricing_plan_id":"cebpf4jnsgd1na2vs0mg"},{"bike_id":"d259cd07-da30-4e21-81de-f294e4ea0ad8","system_id":"levelo_inurba_marseille","lat":43.30594,"lon":5.39362,"is_reserved":false,"is_disabled":false,"rental_uris":{"android":"levelo://app?vid=d259cd07-da30-4e21-81de-f294e4ea0ad8","ios":"levelo://app?vid=d259cd07-da30-4e21-81de-f294e4ea0ad8"},"vehicle_type_id":"4","last_reported":1746720752,"current_range_meters":9200,"station_id":"ce4bh0p2rcd13ifvqd80","pricing_plan_id":"cebpf4jnsgd1na2vs0mg"},{"bike_id":"aecc2400-6f65-4a59-ae54-f262d7ba9f6c","system_id":"levelo_inurba_marseille","lat":43.255797,"lon":5.382407,"is_reserved":false,"is_disabled":false,"rental_uris":{"android":"levelo://app?vid=aecc2400-6f65-4a59-ae54-f262d7ba9f6c","ios":"levelo://app?vid=aecc2400-6f65-4a59-ae54-f262d7ba9f6c"},"vehicle_type_id":"4","last_reported":1746720752,"current_range_meters":9200,"station_id":"ce4bhih2rcd13ifvqfs0","pricing_plan_id":"cebpf4jnsgd1na2vs0mg"},{"bike_id":"61e7ecaf-7d78-414b-aeaf-08885d142b45","system_id":"levelo_inurba_marseille","lat":43.30248,"lon":5.40056,"is_reserved":false,"is_disabled":false,"rental_uris":{"android":"levelo://app?vid=61e7ecaf-7d78-414b-aeaf-08885d142b45","ios":"levelo://app?vid=61e7ecaf-7d78-414b-aeaf-08885d142b45"},"vehicle_type_id":"4","last_reported":1746720752,"current_range_meters":8800,"station_id":"ce4bgvh2rcd13ifvqcs0","pricing_plan_id":"cebpf4jnsgd1na2vs0mg"},{"bike_id":"ef1b8487-0300-465b-b5a1-54bb27c4ccd9","system_id":"levelo_inurba_marseille","lat":43.28624,"lon":5.35107,"is_reserved":false,"is_disabled":false,"rental_uris":{"android":"levelo://app?vid=ef1b8487-0300-465b-b5a1-54bb27c4ccd9","ios":"levelo://app?vid=ef1b8487-0300-465b-b5a1-54bb27c4ccd9"},"vehicle_type_id":"4","last_reported":1746720752,"current_range_meters":9600,"station_id":"ce4bhch2rcd13ifvqeug","pricing_plan_id":"cebpf4jnsgd1na2vs0mg"},{"bike_id":"c492477d-b9ac-445e-93da-964e25a23066","system_id":"levelo_inurba_marseille","lat":43.25938,"lon":5.40907,"is_reserved":false,"is_disabled":false,"rental_uris":{"android":"levelo://app?vid=c492477d-b9ac-445e-93da-964e25a23066","ios":"levelo://app?vid=c492477d-b9ac-445e-93da-964e25a23066"},"vehicle_type_id":"4","last_reported":1746720752,"current_range_meters":9600,"station_id":"ce4bhm92rcd13ifvqglg","pricing_plan_id":"cebpf4jnsgd1na2vs0mg"},{"bike_id":"fc55d6ee-688c-4174-9a4e-40319fa1a495","system_id":"levelo_inurba_marseille","lat":43.27218,"lon":5.39216,"is_reserved":false,"is_disabled":false,"rental_uris":{"android":"levelo://app?vid=fc55d6ee-688c-4174-9a4e-40319fa1a495","ios":"levelo://app?vid=fc55d6ee-688c-4174-9a4e-40319fa1a495"},"vehicle_type_id":"4","last_reported":1746720752,"current_range_meters":10000,"station_id":"ce4bhhp2rcd13ifvqfm0","pricing_plan_id":"cebpf4jnsgd1na2vs0mg"},{"bike_id":"67520ec0-05d7-4df6-8293-e016fbd73e0c","system_id":"levelo_inurba_marseille","lat":43.29933,"lon":5.37493,"is_reserved":false,"is_disabled":false,"rental_uris":{"android":"levelo://app?vid=67520ec0-05d7-4df6-8293-e016fbd73e0c","ios":"levelo://app?vid=67520ec0-05d7-4df6-8293-e016fbd73e0c"},"vehicle_type_id":"4","last_reported":1746720752,"current_range_meters":10800,"station_id":"ce4bgjh2rcd13ifvqbg0","pricing_plan_id":"cebpf4jnsgd1na2vs0mg"},{"bike_id":"c7fd23b2-2d75-484e-8353-3f29dbce9213","system_id":"levelo_inurba_marseille","lat":43.30321,"lon":5.40439,"is_reserved":false,"is_disabled":false,"rental_uris":{"android":"levelo://app?vid=c7fd23b2-2d75-484e-8353-3f29dbce9213","ios":"levelo://app?vid=c7fd23b2-2d75-484e-8353-3f29dbce9213"},"vehicle_type_id":"4","last_reported":1746720752,"current_range_meters":10800,"station_id":"ce4bh012rcd13ifvqd10","pricing_plan_id":"cebpf4jnsgd1na2vs0mg"},{"bike_id":"73d32ca4-324c-4b8b-a1c7-b1d9bc4e654e","system_id":"levelo_inurba_marseille","lat":43.27073,"lon":5.42278,"is_reserved":false,"is_disabled":false,"rental_uris":{"android":"levelo://app?vid=73d32ca4-324c-4b8b-a1c7-b1d9bc4e654e","ios":"levelo://app?vid=73d32ca4-324c-4b8b-a1c7-b1d9bc4e654e"},"vehicle_type_id":"4","last_reported":1746720752,"current_range_meters":10800,"station_id":"ce4bhk92rcd13ifvqgb0","pricing_plan_id":"cebpf4jnsgd1na2vs0mg"},{"bike_id":"f97fd8d0-1569-4ce6-ae13-079372b0f294","system_id":"levelo_inurba_marseille","lat":43.33027,"lon":5.39039,"is_reserved":false,"is_disabled":false,"rental_uris":{"android":"levelo://app?vid=f97fd8d0-1569-4ce6-ae13-079372b0f294","ios":"levelo://app?vid=f97fd8d0-1569-4ce6-ae13-079372b0f294"},"vehicle_type_id":"4","last_reported":1746720752,"current_range_meters":10800,"station_id":"ce4bhr92rcd13ifvqhrg","pricing_plan_id":"cebpf4jnsgd1na2vs0mg"},{"bike_id":"8ded56e8-5a3b-43a9-82a4-38d5cf753950","system_id":"levelo_inurba_marseille","lat":43.28423,"lon":5.34991,"is_reserved":false,"is_disabled":false,"rental_uris":{"android":"levelo://app?vid=8ded56e8-5a3b-43a9-82a4-38d5cf753950","ios":"levelo://app?vid=8ded56e8-5a3b-43a9-82a4-38d5cf753950"},"vehicle_type_id":"4","last_reported":1746720752,"current_range_meters":11200,"station_id":"ce4bhbh2rcd13ifvqepg","pricing_plan_id":"cebpf4jnsgd1na2vs0mg"},{"bike_id":"35e8d545-8f0a-4b08-81d3-1acb9b10f3ac","system_id":"levelo_inurba_marseille","lat":43.21748,"lon":5.346017,"is_reserved":false,"is_disabled":false,"rental_uris":{"android":"levelo://app?vid=35e8d545-8f0a-4b08-81d3-1acb9b10f3ac","ios":"levelo://app?vid=35e8d545-8f0a-4b08-81d3-1acb9b10f3ac"},"vehicle_type_id":"4","last_reported":1746720752,"current_range_meters":11200,"station_id":"","pricing_plan_id":"cebpf4jnsgd1na2vs0mg"},{"bike_id":"809c8673-c032-46b9-aa07-62c38e26d44e","system_id":"levelo_inurba_marseille","lat":43.250623,"lon":5.387977,"is_reserved":false,"is_disabled":false,"rental_uris":{"android":"levelo://app?vid=809c8673-c032-46b9-aa07-62c38e26d44e","ios":"levelo://app?vid=809c8673-c032-46b9-aa07-62c38e26d44e"},"vehicle_type_id":"4","last_reported":1746720752,"current_range_meters":11600,"station_id":"","pricing_plan_id":"cebpf4jnsgd1na2vs0mg"},{"bike_id":"29db9e8b-b1a2-4a94-a925-b3a3ca9be8f9","system_id":"levelo_inurba_marseille","lat":43.29296,"lon":5.37471,"is_reserved":false,"is_disabled":false,"rental_uris":{"android":"levelo://app?vid=29db9e8b-b1a2-4a94-a925-b3a3ca9be8f9","ios":"levelo://app?vid=29db9e8b-b1a2-4a94-a925-b3a3ca9be8f9"},"vehicle_type_id":"4","last_reported":1746720752,"current_range_meters":11600,"station_id":"ce4bgi12rcd13ifvqb70","pricing_plan_id":"cebpf4jnsgd1na2vs0mg"},{"bike_id":"5e507869-6493-468e-8508-ab1ed99c058f","system_id":"levelo_inurba_marseille","lat":43.31072,"lon":5.42448,"is_reserved":false,"is_disabled":false,"rental_uris":{"android":"levelo://app?vid=5e507869-6493-468e-8508-ab1ed99c058f","ios":"levelo://app?vid=5e507869-6493-468e-8508-ab1ed99c058f"},"vehicle_type_id":"4","last_reported":1746720752,"current_range_meters":11600,"station_id":"ce4bhp92rcd13ifvqhag","pricing_plan_id":"cebpf4jnsgd1na2vs0mg"},{"bike_id":"386b6ddb-e79a-4339-861f-0278d98ae05a","system_id":"levelo_inurba_marseille","lat":43.292297,"lon":5.360729,"is_reserved":false,"is_disabled":false,"rental_uris":{"android":"levelo://app?vid=386b6ddb-e79a-4339-861f-0278d98ae05a","ios":"levelo://app?vid=386b6ddb-e79a-4339-861f-0278d98ae05a"},"vehicle_type_id":"4","last_reported":1746720752,"current_range_meters":12000,"station_id":"ce4bhbh2rcd13ifvqeqg","pricing_plan_id":"cebpf4jnsgd1na2vs0mg"},{"bike_id":"45e601c7-6bbe-4f66-bf6d-40e5c693b333","system_id":"levelo_inurba_marseille","lat":43.26218,"lon":5.37486,"is_reserved":false,"is_disabled":false,"rental_uris":{"android":"levelo://app?vid=45e601c7-6bbe-4f66-bf6d-40e5c693b333","ios":"levelo://app?vid=45e601c7-6bbe-4f66-bf6d-40e5c693b333"},"vehicle_type_id":"4","last_reported":1746720752,"current_range_meters":12400,"station_id":"","pricing_plan_id":"cebpf4jnsgd1na2vs0mg"},{"bike_id":"c602ca3d-780b-46f1-aca5-a4bc825b0c4f","system_id":"levelo_inurba_marseille","lat":43.24392,"lon":5.37061,"is_reserved":false,"is_disabled":false,"rental_uris":{"android":"levelo://app?vid=c602ca3d-780b-46f1-aca5-a4bc825b0c4f","ios":"levelo://app?vid=c602ca3d-780b-46f1-aca5-a4bc825b0c4f"},"vehicle_type_id":"4","last_reported":1746720752,"current_range_meters":12000,"station_id":"ce4bhhh2rcd13ifvqfk0","pricing_plan_id":"cebpf4jnsgd1na2vs0mg"},{"bike_id":"7ca096e2-2869-4d98-bb36-14c77f37202d","system_id":"levelo_inurba_marseille","lat":43.2737,"lon":5.36264,"is_reserved":false,"is_disabled":false,"rental_uris":{"android":"levelo://app?vid=7ca096e2-2869-4d98-bb36-14c77f37202d","ios":"levelo://app?vid=7ca096e2-2869-4d98-bb36-14c77f37202d"},"vehicle_type_id":"4","last_reported":1746720752,"current_range_meters":12400,"station_id":"ce4bhbh2rcd13ifvqeo0","pricing_plan_id":"cebpf4jnsgd1na2vs0mg"},{"bike_id":"44c6d094-699b-43f6-a4e0-21c10399396b","system_id":"levelo_inurba_marseille","lat":43.28273,"lon":5.3505,"is_reserved":false,"is_disabled":false,"rental_uris":{"android":"levelo://app?vid=44c6d094-699b-43f6-a4e0-21c10399396b","ios":"levelo://app?vid=44c6d094-699b-43f6-a4e0-21c10399396b"},"vehicle_type_id":"4","last_reported":1746720752,"current_range_meters":12400,"station_id":"ce4bhbp2rcd13ifvqerg","pricing_plan_id":"cebpf4jnsgd1na2vs0mg"},{"bike_id":"6971f759-8594-489e-a8f6-9153c9a9c438","system_id":"levelo_inurba_marseille","lat":43.27668,"lon":5.41959,"is_reserved":false,"is_disabled":false,"rental_uris":{"android":"levelo://app?vid=6971f759-8594-489e-a8f6-9153c9a9c438","ios":"levelo://app?vid=6971f759-8594-489e-a8f6-9153c9a9c438"},"vehicle_type_id":"4","last_reported":1746720752,"current_range_meters":12400,"station_id":"","pricing_plan_id":"cebpf4jnsgd1na2vs0mg"},{"bike_id":"b59c9fad-7f4c-4fa7-9a7f-2f13160eb57f","system_id":"levelo_inurba_marseille","lat":43.30357,"lon":5.41879,"is_reserved":false,"is_disabled":false,"rental_uris":{"android":"levelo://app?vid=b59c9fad-7f4c-4fa7-9a7f-2f13160eb57f","ios":"levelo://app?vid=b59c9fad-7f4c-4fa7-9a7f-2f13160eb57f"},"vehicle_type_id":"4","last_reported":1746720752,"current_range_meters":12400,"station_id":"ce4bhop2rcd13ifvqh7g","pricing_plan_id":"cebpf4jnsgd1na2vs0mg"},{"bike_id":"64fdd185-25f8-4f12-ac31-4e0cd189f721","system_id":"levelo_inurba_marseille","lat":43.30961,"lon":5.39065,"is_reserved":false,"is_disabled":false,"rental_uris":{"android":"levelo://app?vid=64fdd185-25f8-4f12-ac31-4e0cd189f721","ios":"levelo://app?vid=64fdd185-25f8-4f12-ac31-4e0cd189f721"},"vehicle_type_id":"4","last_reported":1746720752,"current_range_meters":12400,"station_id":"ce4bgup2rcd13ifvqco0","pricing_plan_id":"cebpf4jnsgd1na2vs0mg"},{"bike_id":"79ce68e4-bddb-4180-bd5f-7b5e696ec883","system_id":"levelo_inurba_marseille","lat":43.31927,"lon":5.40743,"is_reserved":false,"is_disabled":false,"rental_uris":{"android":"levelo://app?vid=79ce68e4-bddb-4180-bd5f-7b5e696ec883","ios":"levelo://app?vid=79ce68e4-bddb-4180-bd5f-7b5e696ec883"},"vehicle_type_id":"4","last_reported":1746720752,"current_range_meters":12800,"station_id":"ce4bhq12rcd13ifvqhig","pricing_plan_id":"cebpf4jnsgd1na2vs0mg"},{"bike_id":"75200d60-3f3c-4607-b5b3-211836553b54","system_id":"levelo_inurba_marseille","lat":43.29205,"lon":5.39335,"is_reserved":false,"is_disabled":false,"rental_uris":{"android":"levelo://app?vid=75200d60-3f3c-4607-b5b3-211836553b54","ios":"levelo://app?vid=75200d60-3f3c-4607-b5b3-211836553b54"},"vehicle_type_id":"4","last_reported":1746720752,"current_range_meters":13600,"station_id":"ce4bh192rcd13ifvqdd0","pricing_plan_id":"cebpf4jnsgd1na2vs0mg"},{"bike_id":"0d16664e-5952-4ed1-9889-9bd62dc4922e","system_id":"levelo_inurba_marseille","lat":43.30797,"lon":5.43522,"is_reserved":false,"is_disabled":false,"rental_uris":{"android":"levelo://app?vid=0d16664e-5952-4ed1-9889-9bd62dc4922e","ios":"levelo://app?vid=0d16664e-5952-4ed1-9889-9bd62dc4922e"},"vehicle_type_id":"4","last_reported":1746720752,"current_range_meters":13600,"station_id":"ce4bhph2rcd13ifvqheg","pricing_plan_id":"cebpf4jnsgd1na2vs0mg"},{"bike_id":"caccb556-2ad0-45b8-84b8-819024dd44e6","system_id":"levelo_inurba_marseille","lat":43.29817,"lon":5.36808,"is_reserved":false,"is_disabled":false,"rental_uris":{"android":"levelo://app?vid=caccb556-2ad0-45b8-84b8-819024dd44e6","ios":"levelo://app?vid=caccb556-2ad0-45b8-84b8-819024dd44e6"},"vehicle_type_id":"4","last_reported":1746720752,"current_range_meters":13600,"station_id":"","pricing_plan_id":"cebpf4jnsgd1na2vs0mg"},{"bike_id":"88a29932-c682-4681-a307-404e864546c0","system_id":"levelo_inurba_marseille","lat":43.3019,"lon":5.36636,"is_reserved":false,"is_disabled":false,"rental_uris":{"android":"levelo://app?vid=88a29932-c682-4681-a307-404e864546c0","ios":"levelo://app?vid=88a29932-c682-4681-a307-404e864546c0"},"vehicle_type_id":"4","last_reported":1746720752,"current_range_meters":12800,"station_id":"ce4bgrh2rcd13ifvqc8g","pricing_plan_id":"cebpf4jnsgd1na2vs0mg"},{"bike_id":"102f9627-7f0e-460d-839e-05fa2363f2f9","system_id":"levelo_inurba_marseille","lat":43.291569,"lon":5.382964,"is_reserved":false,"is_disabled":false,"rental_uris":{"android":"levelo://app?vid=102f9627-7f0e-460d-839e-05fa2363f2f9","ios":"levelo://app?vid=102f9627-7f0e-460d-839e-05fa2363f2f9"},"vehicle_type_id":"4","last_reported":1746720752,"current_range_meters":13600,"station_id":"ce4bh692rcd13ifvqea0","pricing_plan_id":"cebpf4jnsgd1na2vs0mg"},{"bike_id":"bb7d02db-3cb3-4281-90e5-d5a7bdbfa927","system_id":"levelo_inurba_marseille","lat":43.25582,"lon":5.38232,"is_reserved":false,"is_disabled":false,"rental_uris":{"android":"levelo://app?vid=bb7d02db-3cb3-4281-90e5-d5a7bdbfa927","ios":"levelo://app?vid=bb7d02db-3cb3-4281-90e5-d5a7bdbfa927"},"vehicle_type_id":"4","last_reported":1746720752,"current_range_meters":13600,"station_id":"ce4bhih2rcd13ifvqfs0","pricing_plan_id":"cebpf4jnsgd1na2vs0mg"},{"bike_id":"89f953df-2061-408d-8f0d-6a2938e5443a","system_id":"levelo_inurba_marseille","lat":43.23652,"lon":5.40329,"is_reserved":false,"is_disabled":false,"rental_uris":{"android":"levelo://app?vid=89f953df-2061-408d-8f0d-6a2938e5443a","ios":"levelo://app?vid=89f953df-2061-408d-8f0d-6a2938e5443a"},"vehicle_type_id":"4","last_reported":1746720752,"current_range_meters":14000,"station_id":"","pricing_plan_id":"cebpf4jnsgd1na2vs0mg"},{"bike_id":"e6282093-23fb-41a9-859d-c0d9ad966535","system_id":"levelo_inurba_marseille","lat":43.316353,"lon":5.382217,"is_reserved":false,"is_disabled":false,"rental_uris":{"android":"levelo://app?vid=e6282093-23fb-41a9-859d-c0d9ad966535","ios":"levelo://app?vid=e6282093-23fb-41a9-859d-c0d9ad966535"},"vehicle_type_id":"4","last_reported":1746720752,"current_range_meters":14000,"station_id":"","pricing_plan_id":"cebpf4jnsgd1na2vs0mg"},{"bike_id":"f05b8c28-2949-42ee-a5e5-28dd4c27608f","system_id":"levelo_inurba_marseille","lat":43.286267,"lon":5.35099,"is_reserved":false,"is_disabled":false,"rental_uris":{"android":"levelo://app?vid=f05b8c28-2949-42ee-a5e5-28dd4c27608f","ios":"levelo://app?vid=f05b8c28-2949-42ee-a5e5-28dd4c27608f"},"vehicle_type_id":"4","last_reported":1746720752,"current_range_meters":14000,"station_id":"ce4bhch2rcd13ifvqeug","pricing_plan_id":"cebpf4jnsgd1na2vs0mg"},{"bike_id":"73da968e-c2b0-4b0f-9fce-cddbc9974b66","system_id":"levelo_inurba_marseille","lat":43.25582,"lon":5.38236,"is_reserved":false,"is_disabled":false,"rental_uris":{"android":"levelo://app?vid=73da968e-c2b0-4b0f-9fce-cddbc9974b66","ios":"levelo://app?vid=73da968e-c2b0-4b0f-9fce-cddbc9974b66"},"vehicle_type_id":"4","last_reported":1746720752,"current_range_meters":14000,"station_id":"ce4bhih2rcd13ifvqfs0","pricing_plan_id":"cebpf4jnsgd1na2vs0mg"},{"bike_id":"a2309e80-b2ba-42c9-9c60-147f0babf9f9","system_id":"levelo_inurba_marseille","lat":43.30893,"lon":5.37093,"is_reserved":false,"is_disabled":false,"rental_uris":{"android":"levelo://app?vid=a2309e80-b2ba-42c9-9c60-147f0babf9f9","ios":"levelo://app?vid=a2309e80-b2ba-42c9-9c60-147f0babf9f9"},"vehicle_type_id":"4","last_reported":1746720752,"current_range_meters":14400,"station_id":"","pricing_plan_id":"cebpf4jnsgd1na2vs0mg"},{"bike_id":"e04816ed-a5d6-4112-a2dd-ef4658e78bb0","system_id":"levelo_inurba_marseille","lat":43.28414,"lon":5.37505,"is_reserved":false,"is_disabled":false,"rental_uris":{"android":"levelo://app?vid=e04816ed-a5d6-4112-a2dd-ef4658e78bb0","ios":"levelo://app?vid=e04816ed-a5d6-4112-a2dd-ef4658e78bb0"},"vehicle_type_id":"4","last_reported":1746720752,"current_range_meters":14400,"station_id":"ce4bh412rcd13ifvqds0","pricing_plan_id":"cebpf4jnsgd1na2vs0mg"},{"bike_id":"f343cf39-3599-4023-9a93-e753d06f17b6","system_id":"levelo_inurba_marseille","lat":43.32042,"lon":5.383077,"is_reserved":false,"is_disabled":false,"rental_uris":{"android":"levelo://app?vid=f343cf39-3599-4023-9a93-e753d06f17b6","ios":"levelo://app?vid=f343cf39-3599-4023-9a93-e753d06f17b6"},"vehicle_type_id":"4","last_reported":1746720752,"current_range_meters":14400,"station_id":"ce4bhr12rcd13ifvqhqg","pricing_plan_id":"cebpf4jnsgd1na2vs0mg"},{"bike_id":"3895cb9d-38b9-4699-ad99-e9c14abbec52","system_id":"levelo_inurba_marseille","lat":43.255787,"lon":5.382412,"is_reserved":false,"is_disabled":false,"rental_uris":{"android":"levelo://app?vid=3895cb9d-38b9-4699-ad99-e9c14abbec52","ios":"levelo://app?vid=3895cb9d-38b9-4699-ad99-e9c14abbec52"},"vehicle_type_id":"4","last_reported":1746720752,"current_range_meters":14400,"station_id":"ce4bhih2rcd13ifvqfs0","pricing_plan_id":"cebpf4jnsgd1na2vs0mg"},{"bike_id":"7be97228-e0e6-48bc-b962-753781b7510c","system_id":"levelo_inurba_marseille","lat":43.26573,"lon":5.3901,"is_reserved":false,"is_disabled":false,"rental_uris":{"android":"levelo://app?vid=7be97228-e0e6-48bc-b962-753781b7510c","ios":"levelo://app?vid=7be97228-e0e6-48bc-b962-753781b7510c"},"vehicle_type_id":"4","last_reported":1746720752,"current_range_meters":14400,"station_id":"ce4bhe12rcd13ifvqf30","pricing_plan_id":"cebpf4jnsgd1na2vs0mg"},{"bike_id":"92c7833c-75ff-46fa-b93d-a8a904157187","system_id":"levelo_inurba_marseille","lat":43.29017,"lon":5.38651,"is_reserved":false,"is_disabled":false,"rental_uris":{"android":"levelo://app?vid=92c7833c-75ff-46fa-b93d-a8a904157187","ios":"levelo://app?vid=92c7833c-75ff-46fa-b93d-a8a904157187"},"vehicle_type_id":"4","last_reported":1746720752,"current_range_meters":14000,"station_id":"ce4bh4p2rcd13ifvqe0g","pricing_plan_id":"cebpf4jnsgd1na2vs0mg"},{"bike_id":"7c946773-75a1-431d-9844-85471d6ece70","system_id":"levelo_inurba_marseille","lat":43.29007,"lon":5.35608,"is_reserved":false,"is_disabled":false,"rental_uris":{"android":"levelo://app?vid=7c946773-75a1-431d-9844-85471d6ece70","ios":"levelo://app?vid=7c946773-75a1-431d-9844-85471d6ece70"},"vehicle_type_id":"4","last_reported":1746720752,"current_range_meters":14800,"station_id":"ce4bhb92rcd13ifvqen0","pricing_plan_id":"cebpf4jnsgd1na2vs0mg"},{"bike_id":"bc8e1f22-a008-4bdb-b8df-e72375de6871","system_id":"levelo_inurba_marseille","lat":43.261976,"lon":5.374484,"is_reserved":false,"is_disabled":false,"rental_uris":{"android":"levelo://app?vid=bc8e1f22-a008-4bdb-b8df-e72375de6871","ios":"levelo://app?vid=bc8e1f22-a008-4bdb-b8df-e72375de6871"},"vehicle_type_id":"4","last_reported":1746720752,"current_range_meters":14800,"station_id":"ce4bhgp2rcd13ifvqfc0","pricing_plan_id":"cebpf4jnsgd1na2vs0mg"},{"bike_id":"b1b4baef-ec3e-49a5-ad1c-02b005f3d256","system_id":"levelo_inurba_marseille","lat":43.28127,"lon":5.44299,"is_reserved":false,"is_disabled":false,"rental_uris":{"android":"levelo://app?vid=b1b4baef-ec3e-49a5-ad1c-02b005f3d256","ios":"levelo://app?vid=b1b4baef-ec3e-49a5-ad1c-02b005f3d256"},"vehicle_type_id":"4","last_reported":1746720752,"current_range_meters":14800,"station_id":"","pricing_plan_id":"cebpf4jnsgd1na2vs0mg"},{"bike_id":"81184c5b-6212-4355-a3b5-812a7c60b408","system_id":"levelo_inurba_marseille","lat":43.299054,"lon":5.380909,"is_reserved":false,"is_disabled":false,"rental_uris":{"android":"levelo://app?vid=81184c5b-6212-4355-a3b5-812a7c60b408","ios":"levelo://app?vid=81184c5b-6212-4355-a3b5-812a7c60b408"},"vehicle_type_id":"4","last_reported":1746720752,"current_range_meters":14800,"station_id":"ce4bgj12rcd13ifvqbc0","pricing_plan_id":"cebpf4jnsgd1na2vs0mg"},{"bike_id":"6fe4edd0-5f22-45d0-9b9f-de7ebc144107","system_id":"levelo_inurba_marseille","lat":43.28044,"lon":5.36937,"is_reserved":false,"is_disabled":true,"rental_uris":{"android":"levelo://app?vid=6fe4edd0-5f22-45d0-9b9f-de7ebc144107","ios":"levelo://app?vid=6fe4edd0-5f22-45d0-9b9f-de7ebc144107"},"vehicle_type_id":"4","last_reported":1746720752,"current_range_meters":14800,"station_id":"ce4bha12rcd13ifvqef0","pricing_plan_id":"cebpf4jnsgd1na2vs0mg"},{"bike_id":"6f2e4d37-d44b-4f98-93fb-218cb657a04a","system_id":"levelo_inurba_marseille","lat":43.30899,"lon":5.368369,"is_reserved":false,"is_disabled":false,"rental_uris":{"android":"levelo://app?vid=6f2e4d37-d44b-4f98-93fb-218cb657a04a","ios":"levelo://app?vid=6f2e4d37-d44b-4f98-93fb-218cb657a04a"},"vehicle_type_id":"4","last_reported":1746720752,"current_range_meters":14800,"station_id":"ce4bgn92rcd13ifvqbvg","pricing_plan_id":"cebpf4jnsgd1na2vs0mg"},{"bike_id":"aef05296-ee83-4ccf-8371-78de2312e533","system_id":"levelo_inurba_marseille","lat":43.25824,"lon":5.39444,"is_reserved":false,"is_disabled":false,"rental_uris":{"android":"levelo://app?vid=aef05296-ee83-4ccf-8371-78de2312e533","ios":"levelo://app?vid=aef05296-ee83-4ccf-8371-78de2312e533"},"vehicle_type_id":"4","last_reported":1746720752,"current_range_meters":14800,"station_id":"ce4bhip2rcd13ifvqft0","pricing_plan_id":"cebpf4jnsgd1na2vs0mg"},{"bike_id":"6bae91e5-703b-45ea-822c-d03ff8f2d704","system_id":"levelo_inurba_marseille","lat":43.301642,"lon":5.380898,"is_reserved":false,"is_disabled":false,"rental_uris":{"android":"levelo://app?vid=6bae91e5-703b-45ea-822c-d03ff8f2d704","ios":"levelo://app?vid=6bae91e5-703b-45ea-822c-d03ff8f2d704"},"vehicle_type_id":"4","last_reported":1746720752,"current_range_meters":15200,"station_id":"ce4bgjp2rcd13ifvqbh0","pricing_plan_id":"cebpf4jnsgd1na2vs0mg"},{"bike_id":"7115133a-0fd0-405e-809e-52cad7e4f5dd","system_id":"levelo_inurba_marseille","lat":43.23964,"lon":5.36635,"is_reserved":false,"is_disabled":false,"rental_uris":{"android":"levelo://app?vid=7115133a-0fd0-405e-809e-52cad7e4f5dd","ios":"levelo://app?vid=7115133a-0fd0-405e-809e-52cad7e4f5dd"},"vehicle_type_id":"4","last_reported":1746720752,"current_range_meters":15200,"station_id":"ce4bhi12rcd13ifvqfp0","pricing_plan_id":"cebpf4jnsgd1na2vs0mg"},{"bike_id":"f1888712-ef56-4057-977e-654bb15bba7f","system_id":"levelo_inurba_marseille","lat":43.2797,"lon":5.38743,"is_reserved":false,"is_disabled":false,"rental_uris":{"android":"levelo://app?vid=f1888712-ef56-4057-977e-654bb15bba7f","ios":"levelo://app?vid=f1888712-ef56-4057-977e-654bb15bba7f"},"vehicle_type_id":"4","last_reported":1746720752,"current_range_meters":15200,"station_id":"ce4bhg12rcd13ifvqf80","pricing_plan_id":"cebpf4jnsgd1na2vs0mg"},{"bike_id":"c51630b4-73f7-45c3-8f30-15ce8b3f4efb","system_id":"levelo_inurba_marseille","lat":43.30431,"lon":5.3889,"is_reserved":false,"is_disabled":false,"rental_uris":{"android":"levelo://app?vid=c51630b4-73f7-45c3-8f30-15ce8b3f4efb","ios":"levelo://app?vid=c51630b4-73f7-45c3-8f30-15ce8b3f4efb"},"vehicle_type_id":"4","last_reported":1746720752,"current_range_meters":15200,"station_id":"ce4bgk12rcd13ifvqbi0","pricing_plan_id":"cebpf4jnsgd1na2vs0mg"},{"bike_id":"0c68df8c-d99f-444d-8086-656a3339c6c6","system_id":"levelo_inurba_marseille","lat":43.25104,"lon":5.40328,"is_reserved":false,"is_disabled":false,"rental_uris":{"android":"levelo://app?vid=0c68df8c-d99f-444d-8086-656a3339c6c6","ios":"levelo://app?vid=0c68df8c-d99f-444d-8086-656a3339c6c6"},"vehicle_type_id":"4","last_reported":1746720752,"current_range_meters":15200,"station_id":"ce4bhlh2rcd13ifvqgig","pricing_plan_id":"cebpf4jnsgd1na2vs0mg"},{"bike_id":"8268aa66-4d3b-4f5f-a5a2-cbc42061b178","system_id":"levelo_inurba_marseille","lat":43.32052,"lon":5.41545,"is_reserved":false,"is_disabled":false,"rental_uris":{"android":"levelo://app?vid=8268aa66-4d3b-4f5f-a5a2-cbc42061b178","ios":"levelo://app?vid=8268aa66-4d3b-4f5f-a5a2-cbc42061b178"},"vehicle_type_id":"4","last_reported":1746720752,"current_range_meters":16000,"station_id":"ce4bhq92rcd13ifvqhkg","pricing_plan_id":"cebpf4jnsgd1na2vs0mg"},{"bike_id":"a2aa26a6-f4c9-4aeb-a72f-ce9f542c9e5e","system_id":"levelo_inurba_marseille","lat":43.28851,"lon":5.35863,"is_reserved":false,"is_disabled":false,"rental_uris":{"android":"levelo://app?vid=a2aa26a6-f4c9-4aeb-a72f-ce9f542c9e5e","ios":"levelo://app?vid=a2aa26a6-f4c9-4aeb-a72f-ce9f542c9e5e"},"vehicle_type_id":"4","last_reported":1746720752,"current_range_meters":16000,"station_id":"ce4bhb12rcd13ifvqem0","pricing_plan_id":"cebpf4jnsgd1na2vs0mg"},{"bike_id":"d4f841b9-e40e-488c-8358-e427588b95c8","system_id":"levelo_inurba_marseille","lat":43.30828,"lon":5.38179,"is_reserved":false,"is_disabled":false,"rental_uris":{"android":"levelo://app?vid=d4f841b9-e40e-488c-8358-e427588b95c8","ios":"levelo://app?vid=d4f841b9-e40e-488c-8358-e427588b95c8"},"vehicle_type_id":"4","last_reported":1746720752,"current_range_meters":16000,"station_id":"ce4bgt12rcd13ifvqce0","pricing_plan_id":"cebpf4jnsgd1na2vs0mg"},{"bike_id":"d268af14-3f43-4f16-bb18-eb92ea3075ca","system_id":"levelo_inurba_marseille","lat":43.30818,"lon":5.37344,"is_reserved":false,"is_disabled":false,"rental_uris":{"android":"levelo://app?vid=d268af14-3f43-4f16-bb18-eb92ea3075ca","ios":"levelo://app?vid=d268af14-3f43-4f16-bb18-eb92ea3075ca"},"vehicle_type_id":"4","last_reported":1746720752,"current_range_meters":16000,"station_id":"","pricing_plan_id":"cebpf4jnsgd1na2vs0mg"},{"bike_id":"c968c0a6-8c4c-429d-bb56-48500ff1e6ba","system_id":"levelo_inurba_marseille","lat":43.2306,"lon":5.35489,"is_reserved":false,"is_disabled":false,"rental_uris":{"android":"levelo://app?vid=c968c0a6-8c4c-429d-bb56-48500ff1e6ba","ios":"levelo://app?vid=c968c0a6-8c4c-429d-bb56-48500ff1e6ba"},"vehicle_type_id":"4","last_reported":1746720752,"current_range_meters":16000,"station_id":"cpo3342slgdg3j2ifvpg","pricing_plan_id":"cebpf4jnsgd1na2vs0mg"},{"bike_id":"d9bfad59-4479-40c1-b2aa-975cbaa07104","system_id":"levelo_inurba_marseille","lat":43.272209,"lon":5.391925,"is_reserved":false,"is_disabled":false,"rental_uris":{"android":"levelo://app?vid=d9bfad59-4479-40c1-b2aa-975cbaa07104","ios":"levelo://app?vid=d9bfad59-4479-40c1-b2aa-975cbaa07104"},"vehicle_type_id":"4","last_reported":1746720752,"current_range_meters":16000,"station_id":"ce4bhhp2rcd13ifvqfm0","pricing_plan_id":"cebpf4jnsgd1na2vs0mg"},{"bike_id":"060e4578-e8d3-44ed-8966-4910616c5e3d","system_id":"levelo_inurba_marseille","lat":43.26213,"lon":5.37453,"is_reserved":false,"is_disabled":false,"rental_uris":{"android":"levelo://app?vid=060e4578-e8d3-44ed-8966-4910616c5e3d","ios":"levelo://app?vid=060e4578-e8d3-44ed-8966-4910616c5e3d"},"vehicle_type_id":"4","last_reported":1746720752,"current_range_meters":16400,"station_id":"ce4bhgp2rcd13ifvqfc0","pricing_plan_id":"cebpf4jnsgd1na2vs0mg"},{"bike_id":"76743a09-7465-4b71-a153-a958d1223e43","system_id":"levelo_inurba_marseille","lat":43.28857,"lon":5.35849,"is_reserved":false,"is_disabled":false,"rental_uris":{"android":"levelo://app?vid=76743a09-7465-4b71-a153-a958d1223e43","ios":"levelo://app?vid=76743a09-7465-4b71-a153-a958d1223e43"},"vehicle_type_id":"4","last_reported":1746720752,"current_range_meters":16400,"station_id":"ce4bhb12rcd13ifvqem0","pricing_plan_id":"cebpf4jnsgd1na2vs0mg"},{"bike_id":"2cf088a9-07fe-4591-b064-bf0b17878109","system_id":"levelo_inurba_marseille","lat":43.29707,"lon":5.36616,"is_reserved":false,"is_disabled":false,"rental_uris":{"android":"levelo://app?vid=2cf088a9-07fe-4591-b064-bf0b17878109","ios":"levelo://app?vid=2cf088a9-07fe-4591-b064-bf0b17878109"},"vehicle_type_id":"4","last_reported":1746720752,"current_range_meters":16800,"station_id":"ce4bgn12rcd13ifvqbt0","pricing_plan_id":"cebpf4jnsgd1na2vs0mg"},{"bike_id":"4207bf7e-d7d2-445b-aeed-9bc85cb6b6d6","system_id":"levelo_inurba_marseille","lat":43.28604,"lon":5.35102,"is_reserved":false,"is_disabled":false,"rental_uris":{"android":"levelo://app?vid=4207bf7e-d7d2-445b-aeed-9bc85cb6b6d6","ios":"levelo://app?vid=4207bf7e-d7d2-445b-aeed-9bc85cb6b6d6"},"vehicle_type_id":"4","last_reported":1746720752,"current_range_meters":16800,"station_id":"ce4bhch2rcd13ifvqeug","pricing_plan_id":"cebpf4jnsgd1na2vs0mg"},{"bike_id":"4f4a8f61-23cd-4e1d-a64c-ed613b642900","system_id":"levelo_inurba_marseille","lat":43.29003,"lon":5.35582,"is_reserved":false,"is_disabled":false,"rental_uris":{"android":"levelo://app?vid=4f4a8f61-23cd-4e1d-a64c-ed613b642900","ios":"levelo://app?vid=4f4a8f61-23cd-4e1d-a64c-ed613b642900"},"vehicle_type_id":"4","last_reported":1746720752,"current_range_meters":16400,"station_id":"ce4bhb92rcd13ifvqen0","pricing_plan_id":"cebpf4jnsgd1na2vs0mg"},{"bike_id":"d53f71b4-3d98-49dd-9669-b16d566d02b6","system_id":"levelo_inurba_marseille","lat":43.29561,"lon":5.36545,"is_reserved":false,"is_disabled":false,"rental_uris":{"android":"levelo://app?vid=d53f71b4-3d98-49dd-9669-b16d566d02b6","ios":"levelo://app?vid=d53f71b4-3d98-49dd-9669-b16d566d02b6"},"vehicle_type_id":"4","last_reported":1746720752,"current_range_meters":16800,"station_id":"","pricing_plan_id":"cebpf4jnsgd1na2vs0mg"},{"bike_id":"e0906d5e-6015-4e2c-9c75-aab015baf0f2","system_id":"levelo_inurba_marseille","lat":43.2894,"lon":5.36638,"is_reserved":false,"is_disabled":false,"rental_uris":{"android":"levelo://app?vid=e0906d5e-6015-4e2c-9c75-aab015baf0f2","ios":"levelo://app?vid=e0906d5e-6015-4e2c-9c75-aab015baf0f2"},"vehicle_type_id":"4","last_reported":1746720752,"current_range_meters":16800,"station_id":"ce4bhap2rcd13ifvqek0","pricing_plan_id":"cebpf4jnsgd1na2vs0mg"},{"bike_id":"492fc969-b2e3-4d0f-af21-0e8c557fc35e","system_id":"levelo_inurba_marseille","lat":43.25579,"lon":5.3823,"is_reserved":false,"is_disabled":false,"rental_uris":{"android":"levelo://app?vid=492fc969-b2e3-4d0f-af21-0e8c557fc35e","ios":"levelo://app?vid=492fc969-b2e3-4d0f-af21-0e8c557fc35e"},"vehicle_type_id":"4","last_reported":1746720752,"current_range_meters":16800,"station_id":"ce4bhih2rcd13ifvqfs0","pricing_plan_id":"cebpf4jnsgd1na2vs0mg"},{"bike_id":"21139dd4-c9e3-434a-91eb-a5a81b7f1e06","system_id":"levelo_inurba_marseille","lat":43.290985,"lon":5.381364,"is_reserved":false,"is_disabled":false,"rental_uris":{"android":"levelo://app?vid=21139dd4-c9e3-434a-91eb-a5a81b7f1e06","ios":"levelo://app?vid=21139dd4-c9e3-434a-91eb-a5a81b7f1e06"},"vehicle_type_id":"4","last_reported":1746720752,"current_range_meters":17200,"station_id":"ce4bh512rcd13ifvqe2g","pricing_plan_id":"cebpf4jnsgd1na2vs0mg"},{"bike_id":"6fad7043-ebe9-4fcc-97a9-95257aefecfb","system_id":"levelo_inurba_marseille","lat":43.330197,"lon":5.391452,"is_reserved":false,"is_disabled":false,"rental_uris":{"android":"levelo://app?vid=6fad7043-ebe9-4fcc-97a9-95257aefecfb","ios":"levelo://app?vid=6fad7043-ebe9-4fcc-97a9-95257aefecfb"},"vehicle_type_id":"4","last_reported":1746720752,"current_range_meters":17200,"station_id":"","pricing_plan_id":"cebpf4jnsgd1na2vs0mg"},{"bike_id":"3a79d98c-848a-41f9-bb2c-fdc8ae4969ed","system_id":"levelo_inurba_marseille","lat":43.28856,"lon":5.35858,"is_reserved":false,"is_disabled":false,"rental_uris":{"android":"levelo://app?vid=3a79d98c-848a-41f9-bb2c-fdc8ae4969ed","ios":"levelo://app?vid=3a79d98c-848a-41f9-bb2c-fdc8ae4969ed"},"vehicle_type_id":"4","last_reported":1746720752,"current_range_meters":17600,"station_id":"ce4bhb12rcd13ifvqem0","pricing_plan_id":"cebpf4jnsgd1na2vs0mg"},{"bike_id":"ef882f1d-d8e4-4590-b59a-ec781113f528","system_id":"levelo_inurba_marseille","lat":43.31077,"lon":5.38364,"is_reserved":false,"is_disabled":false,"rental_uris":{"android":"levelo://app?vid=ef882f1d-d8e4-4590-b59a-ec781113f528","ios":"levelo://app?vid=ef882f1d-d8e4-4590-b59a-ec781113f528"},"vehicle_type_id":"4","last_reported":1746720752,"current_range_meters":17600,"station_id":"ce4bgv92rcd13ifvqcr0","pricing_plan_id":"cebpf4jnsgd1na2vs0mg"},{"bike_id":"9e8fde5d-f5f2-4f27-ac63-d16690853d73","system_id":"levelo_inurba_marseille","lat":43.27387,"lon":5.36275,"is_reserved":false,"is_disabled":false,"rental_uris":{"android":"levelo://app?vid=9e8fde5d-f5f2-4f27-ac63-d16690853d73","ios":"levelo://app?vid=9e8fde5d-f5f2-4f27-ac63-d16690853d73"},"vehicle_type_id":"4","last_reported":1746720752,"current_range_meters":17600,"station_id":"ce4bhbh2rcd13ifvqeo0","pricing_plan_id":"cebpf4jnsgd1na2vs0mg"},{"bike_id":"59c9eee2-2711-40e5-ad57-f78d6a66b9e3","system_id":"levelo_inurba_marseille","lat":43.25914,"lon":5.40898,"is_reserved":false,"is_disabled":false,"rental_uris":{"android":"levelo://app?vid=59c9eee2-2711-40e5-ad57-f78d6a66b9e3","ios":"levelo://app?vid=59c9eee2-2711-40e5-ad57-f78d6a66b9e3"},"vehicle_type_id":"4","last_reported":1746720752,"current_range_meters":18000,"station_id":"ce4bhm92rcd13ifvqglg","pricing_plan_id":"cebpf4jnsgd1na2vs0mg"},{"bike_id":"21adced6-337a-47e7-b9b7-9a7cd4b7149c","system_id":"levelo_inurba_marseille","lat":43.28615,"lon":5.35099,"is_reserved":false,"is_disabled":false,"rental_uris":{"android":"levelo://app?vid=21adced6-337a-47e7-b9b7-9a7cd4b7149c","ios":"levelo://app?vid=21adced6-337a-47e7-b9b7-9a7cd4b7149c"},"vehicle_type_id":"4","last_reported":1746720752,"current_range_meters":18000,"station_id":"ce4bhch2rcd13ifvqeug","pricing_plan_id":"cebpf4jnsgd1na2vs0mg"},{"bike_id":"568ade89-84eb-46d8-b9a2-cf4e4d6171d9","system_id":"levelo_inurba_marseille","lat":43.22507,"lon":5.34782,"is_reserved":false,"is_disabled":false,"rental_uris":{"android":"levelo://app?vid=568ade89-84eb-46d8-b9a2-cf4e4d6171d9","ios":"levelo://app?vid=568ade89-84eb-46d8-b9a2-cf4e4d6171d9"},"vehicle_type_id":"4","last_reported":1746720752,"current_range_meters":18000,"station_id":"st_cvj5dfep6f1abm77gieg","pricing_plan_id":"cebpf4jnsgd1na2vs0mg"},{"bike_id":"5a4fc0af-88b3-4efd-9173-a8855afb3b30","system_id":"levelo_inurba_marseille","lat":43.30041,"lon":5.36549,"is_reserved":false,"is_disabled":false,"rental_uris":{"android":"levelo://app?vid=5a4fc0af-88b3-4efd-9173-a8855afb3b30","ios":"levelo://app?vid=5a4fc0af-88b3-4efd-9173-a8855afb3b30"},"vehicle_type_id":"4","last_reported":1746720752,"current_range_meters":18000,"station_id":"","pricing_plan_id":"cebpf4jnsgd1na2vs0mg"},{"bike_id":"a5e93638-fd65-4041-acd2-1fa408a23755","system_id":"levelo_inurba_marseille","lat":43.306278,"lon":5.372045,"is_reserved":false,"is_disabled":false,"rental_uris":{"android":"levelo://app?vid=a5e93638-fd65-4041-acd2-1fa408a23755","ios":"levelo://app?vid=a5e93638-fd65-4041-acd2-1fa408a23755"},"vehicle_type_id":"4","last_reported":1746720752,"current_range_meters":18000,"station_id":"ce4bgqh2rcd13ifvqc4g","pricing_plan_id":"cebpf4jnsgd1na2vs0mg"},{"bike_id":"7394547f-7f62-422e-a62f-d415d8cf921f","system_id":"levelo_inurba_marseille","lat":43.28155,"lon":5.42644,"is_reserved":false,"is_disabled":false,"rental_uris":{"android":"levelo://app?vid=7394547f-7f62-422e-a62f-d415d8cf921f","ios":"levelo://app?vid=7394547f-7f62-422e-a62f-d415d8cf921f"},"vehicle_type_id":"4","last_reported":1746720752,"current_range_meters":18800,"station_id":"ce4bhnh2rcd13ifvqgug","pricing_plan_id":"cebpf4jnsgd1na2vs0mg"},{"bike_id":"0375a289-523a-4819-95bf-38dddf4b81d4","system_id":"levelo_inurba_marseille","lat":43.28486,"lon":5.38414,"is_reserved":false,"is_disabled":false,"rental_uris":{"android":"levelo://app?vid=0375a289-523a-4819-95bf-38dddf4b81d4","ios":"levelo://app?vid=0375a289-523a-4819-95bf-38dddf4b81d4"},"vehicle_type_id":"4","last_reported":1746720752,"current_range_meters":18800,"station_id":"ce4bh512rcd13ifvqe3g","pricing_plan_id":"cebpf4jnsgd1na2vs0mg"},{"bike_id":"5ed18b6b-f0db-4f69-a428-8608a651fb52","system_id":"levelo_inurba_marseille","lat":43.308603,"lon":5.369727,"is_reserved":false,"is_disabled":false,"rental_uris":{"android":"levelo://app?vid=5ed18b6b-f0db-4f69-a428-8608a651fb52","ios":"levelo://app?vid=5ed18b6b-f0db-4f69-a428-8608a651fb52"},"vehicle_type_id":"4","last_reported":1746720752,"current_range_meters":18800,"station_id":"","pricing_plan_id":"cebpf4jnsgd1na2vs0mg"},{"bike_id":"cd519b04-5eb4-46ef-9ae0-3aa139ced54d","system_id":"levelo_inurba_marseille","lat":43.26678,"lon":5.38267,"is_reserved":false,"is_disabled":false,"rental_uris":{"android":"levelo://app?vid=cd519b04-5eb4-46ef-9ae0-3aa139ced54d","ios":"levelo://app?vid=cd519b04-5eb4-46ef-9ae0-3aa139ced54d"},"vehicle_type_id":"4","last_reported":1746720752,"current_range_meters":18800,"station_id":"ce4bhg92rcd13ifvqf90","pricing_plan_id":"cebpf4jnsgd1na2vs0mg"},{"bike_id":"0078ca13-4ec3-4482-b6e3-c12aea215be3","system_id":"levelo_inurba_marseille","lat":43.31789,"lon":5.39044,"is_reserved":false,"is_disabled":false,"rental_uris":{"android":"levelo://app?vid=0078ca13-4ec3-4482-b6e3-c12aea215be3","ios":"levelo://app?vid=0078ca13-4ec3-4482-b6e3-c12aea215be3"},"vehicle_type_id":"4","last_reported":1746720752,"current_range_meters":19200,"station_id":"ce4bhqp2rcd13ifvqhng","pricing_plan_id":"cebpf4jnsgd1na2vs0mg"},{"bike_id":"d1d8508e-8423-4747-b3b8-7dea8b2ec0e0","system_id":"levelo_inurba_marseille","lat":43.267848,"lon":5.394178,"is_reserved":false,"is_disabled":false,"rental_uris":{"android":"levelo://app?vid=d1d8508e-8423-4747-b3b8-7dea8b2ec0e0","ios":"levelo://app?vid=d1d8508e-8423-4747-b3b8-7dea8b2ec0e0"},"vehicle_type_id":"4","last_reported":1746720752,"current_range_meters":19200,"station_id":"ce4bhh12rcd13ifvqfg0","pricing_plan_id":"cebpf4jnsgd1na2vs0mg"},{"bike_id":"b0c54ead-2c9a-4d45-904a-5e1b9abf7338","system_id":"levelo_inurba_marseille","lat":43.27501,"lon":5.42449,"is_reserved":false,"is_disabled":false,"rental_uris":{"android":"levelo://app?vid=b0c54ead-2c9a-4d45-904a-5e1b9abf7338","ios":"levelo://app?vid=b0c54ead-2c9a-4d45-904a-5e1b9abf7338"},"vehicle_type_id":"4","last_reported":1746720752,"current_range_meters":19200,"station_id":"ce4bhn92rcd13ifvqgrg","pricing_plan_id":"cebpf4jnsgd1na2vs0mg"},{"bike_id":"b1199efd-1094-4994-a099-0800ce67719f","system_id":"levelo_inurba_marseille","lat":43.23203,"lon":5.35553,"is_reserved":false,"is_disabled":false,"rental_uris":{"android":"levelo://app?vid=b1199efd-1094-4994-a099-0800ce67719f","ios":"levelo://app?vid=b1199efd-1094-4994-a099-0800ce67719f"},"vehicle_type_id":"4","last_reported":1746720752,"current_range_meters":19200,"station_id":"ce4bhu92rcd13ifvqi70","pricing_plan_id":"cebpf4jnsgd1na2vs0mg"},{"bike_id":"6e8013f6-e1f6-41a0-841c-5ab9050ba383","system_id":"levelo_inurba_marseille","lat":43.29007,"lon":5.35608,"is_reserved":false,"is_disabled":false,"rental_uris":{"android":"levelo://app?vid=6e8013f6-e1f6-41a0-841c-5ab9050ba383","ios":"levelo://app?vid=6e8013f6-e1f6-41a0-841c-5ab9050ba383"},"vehicle_type_id":"4","last_reported":1746720752,"current_range_meters":19600,"station_id":"ce4bhb92rcd13ifvqen0","pricing_plan_id":"cebpf4jnsgd1na2vs0mg"},{"bike_id":"042de0fa-0c0c-4d34-9efe-bfe5dfdc71cd","system_id":"levelo_inurba_marseille","lat":43.33026,"lon":5.39048,"is_reserved":false,"is_disabled":false,"rental_uris":{"android":"levelo://app?vid=042de0fa-0c0c-4d34-9efe-bfe5dfdc71cd","ios":"levelo://app?vid=042de0fa-0c0c-4d34-9efe-bfe5dfdc71cd"},"vehicle_type_id":"4","last_reported":1746720752,"current_range_meters":19600,"station_id":"ce4bhr92rcd13ifvqhrg","pricing_plan_id":"cebpf4jnsgd1na2vs0mg"},{"bike_id":"6204a72c-53e3-47f3-8bd8-5ea3539274f0","system_id":"levelo_inurba_marseille","lat":43.31529,"lon":5.38028,"is_reserved":false,"is_disabled":false,"rental_uris":{"android":"levelo://app?vid=6204a72c-53e3-47f3-8bd8-5ea3539274f0","ios":"levelo://app?vid=6204a72c-53e3-47f3-8bd8-5ea3539274f0"},"vehicle_type_id":"4","last_reported":1746720752,"current_range_meters":20000,"station_id":"ce4bhsp2rcd13ifvqi50","pricing_plan_id":"cebpf4jnsgd1na2vs0mg"},{"bike_id":"4057c94e-3384-425c-974e-d5a1504c85ce","system_id":"levelo_inurba_marseille","lat":43.22541,"lon":5.34797,"is_reserved":false,"is_disabled":false,"rental_uris":{"android":"levelo://app?vid=4057c94e-3384-425c-974e-d5a1504c85ce","ios":"levelo://app?vid=4057c94e-3384-425c-974e-d5a1504c85ce"},"vehicle_type_id":"4","last_reported":1746720752,"current_range_meters":20000,"station_id":"st_cvj5dfep6f1abm77gieg","pricing_plan_id":"cebpf4jnsgd1na2vs0mg"},{"bike_id":"da0aa971-4fa6-4d67-80b0-52a37d499fee","system_id":"levelo_inurba_marseille","lat":43.26212,"lon":5.37443,"is_reserved":false,"is_disabled":false,"rental_uris":{"android":"levelo://app?vid=da0aa971-4fa6-4d67-80b0-52a37d499fee","ios":"levelo://app?vid=da0aa971-4fa6-4d67-80b0-52a37d499fee"},"vehicle_type_id":"4","last_reported":1746720752,"current_range_meters":20400,"station_id":"ce4bhgp2rcd13ifvqfc0","pricing_plan_id":"cebpf4jnsgd1na2vs0mg"},{"bike_id":"3e231668-abeb-4d37-9da3-9c2d927f3f9f","system_id":"levelo_inurba_marseille","lat":43.2558,"lon":5.38248,"is_reserved":false,"is_disabled":false,"rental_uris":{"android":"levelo://app?vid=3e231668-abeb-4d37-9da3-9c2d927f3f9f","ios":"levelo://app?vid=3e231668-abeb-4d37-9da3-9c2d927f3f9f"},"vehicle_type_id":"4","last_reported":1746720752,"current_range_meters":20800,"station_id":"ce4bhih2rcd13ifvqfs0","pricing_plan_id":"cebpf4jnsgd1na2vs0mg"},{"bike_id":"c1041c9f-2085-470a-b13c-f88fd8323115","system_id":"levelo_inurba_marseille","lat":43.27769,"lon":5.38693,"is_reserved":false,"is_disabled":false,"rental_uris":{"android":"levelo://app?vid=c1041c9f-2085-470a-b13c-f88fd8323115","ios":"levelo://app?vid=c1041c9f-2085-470a-b13c-f88fd8323115"},"vehicle_type_id":"4","last_reported":1746720752,"current_range_meters":20800,"station_id":"","pricing_plan_id":"cebpf4jnsgd1na2vs0mg"},{"bike_id":"d1107ecd-be4f-458d-a1cd-17553b1323a8","system_id":"levelo_inurba_marseille","lat":43.21474,"lon":5.34815,"is_reserved":false,"is_disabled":false,"rental_uris":{"android":"levelo://app?vid=d1107ecd-be4f-458d-a1cd-17553b1323a8","ios":"levelo://app?vid=d1107ecd-be4f-458d-a1cd-17553b1323a8"},"vehicle_type_id":"4","last_reported":1746720752,"current_range_meters":20800,"station_id":"","pricing_plan_id":"cebpf4jnsgd1na2vs0mg"},{"bike_id":"c90af433-8b7b-4951-b094-248e213417a4","system_id":"levelo_inurba_marseille","lat":43.241669,"lon":5.363932,"is_reserved":false,"is_disabled":false,"rental_uris":{"android":"levelo://app?vid=c90af433-8b7b-4951-b094-248e213417a4","ios":"levelo://app?vid=c90af433-8b7b-4951-b094-248e213417a4"},"vehicle_type_id":"4","last_reported":1746720752,"current_range_meters":20800,"station_id":"cpo36qri1sfpv3e86is0","pricing_plan_id":"cebpf4jnsgd1na2vs0mg"},{"bike_id":"cf7adb44-ce82-4cdd-9b58-a91d7d824449","system_id":"levelo_inurba_marseille","lat":43.33607,"lon":5.41029,"is_reserved":false,"is_disabled":false,"rental_uris":{"android":"levelo://app?vid=cf7adb44-ce82-4cdd-9b58-a91d7d824449","ios":"levelo://app?vid=cf7adb44-ce82-4cdd-9b58-a91d7d824449"},"vehicle_type_id":"4","last_reported":1746720752,"current_range_meters":20400,"station_id":"ce4bhqh2rcd13ifvqhmg","pricing_plan_id":"cebpf4jnsgd1na2vs0mg"},{"bike_id":"4372716d-0d0e-4720-a072-7675ae8144e1","system_id":"levelo_inurba_marseille","lat":43.33027,"lon":5.39043,"is_reserved":false,"is_disabled":false,"rental_uris":{"android":"levelo://app?vid=4372716d-0d0e-4720-a072-7675ae8144e1","ios":"levelo://app?vid=4372716d-0d0e-4720-a072-7675ae8144e1"},"vehicle_type_id":"4","last_reported":1746720752,"current_range_meters":20800,"station_id":"ce4bhr92rcd13ifvqhrg","pricing_plan_id":"cebpf4jnsgd1na2vs0mg"},{"bike_id":"0cb542d0-661d-4a86-904d-249f6866850a","system_id":"levelo_inurba_marseille","lat":43.25707,"lon":5.4111,"is_reserved":false,"is_disabled":false,"rental_uris":{"android":"levelo://app?vid=0cb542d0-661d-4a86-904d-249f6866850a","ios":"levelo://app?vid=0cb542d0-661d-4a86-904d-249f6866850a"},"vehicle_type_id":"4","last_reported":1746720752,"current_range_meters":21600,"station_id":"ce4bhkp2rcd13ifvqgd0","pricing_plan_id":"cebpf4jnsgd1na2vs0mg"},{"bike_id":"a710abbc-9db1-444e-b3d3-b05144a6caa0","system_id":"levelo_inurba_marseille","lat":43.24158,"lon":5.36399,"is_reserved":false,"is_disabled":false,"rental_uris":{"android":"levelo://app?vid=a710abbc-9db1-444e-b3d3-b05144a6caa0","ios":"levelo://app?vid=a710abbc-9db1-444e-b3d3-b05144a6caa0"},"vehicle_type_id":"4","last_reported":1746720752,"current_range_meters":21600,"station_id":"cpo36qri1sfpv3e86is0","pricing_plan_id":"cebpf4jnsgd1na2vs0mg"},{"bike_id":"1b777302-ae90-4a59-b60e-385d578c6fb6","system_id":"levelo_inurba_marseille","lat":43.25117,"lon":5.40323,"is_reserved":false,"is_disabled":false,"rental_uris":{"android":"levelo://app?vid=1b777302-ae90-4a59-b60e-385d578c6fb6","ios":"levelo://app?vid=1b777302-ae90-4a59-b60e-385d578c6fb6"},"vehicle_type_id":"4","last_reported":1746720752,"current_range_meters":21600,"station_id":"ce4bhlh2rcd13ifvqgig","pricing_plan_id":"cebpf4jnsgd1na2vs0mg"},{"bike_id":"006a9bae-6769-42bf-a4fd-663aa8e1b386","system_id":"levelo_inurba_marseille","lat":43.30959,"lon":5.39035,"is_reserved":false,"is_disabled":false,"rental_uris":{"android":"levelo://app?vid=006a9bae-6769-42bf-a4fd-663aa8e1b386","ios":"levelo://app?vid=006a9bae-6769-42bf-a4fd-663aa8e1b386"},"vehicle_type_id":"4","last_reported":1746720752,"current_range_meters":21600,"station_id":"ce4bgup2rcd13ifvqco0","pricing_plan_id":"cebpf4jnsgd1na2vs0mg"},{"bike_id":"019f9646-9590-4e53-a3ad-01a235681097","system_id":"levelo_inurba_marseille","lat":43.27447,"lon":5.39228,"is_reserved":false,"is_disabled":false,"rental_uris":{"android":"levelo://app?vid=019f9646-9590-4e53-a3ad-01a235681097","ios":"levelo://app?vid=019f9646-9590-4e53-a3ad-01a235681097"},"vehicle_type_id":"4","last_reported":1746720752,"current_range_meters":21600,"station_id":"ce4bhdp2rcd13ifvqf20","pricing_plan_id":"cebpf4jnsgd1na2vs0mg"},{"bike_id":"61637d90-3b91-4de7-8ec1-0d4356c1f9ac","system_id":"levelo_inurba_marseille","lat":43.24388,"lon":5.37059,"is_reserved":false,"is_disabled":false,"rental_uris":{"android":"levelo://app?vid=61637d90-3b91-4de7-8ec1-0d4356c1f9ac","ios":"levelo://app?vid=61637d90-3b91-4de7-8ec1-0d4356c1f9ac"},"vehicle_type_id":"4","last_reported":1746720752,"current_range_meters":22000,"station_id":"ce4bhhh2rcd13ifvqfk0","pricing_plan_id":"cebpf4jnsgd1na2vs0mg"},{"bike_id":"c403544c-98cb-4088-863a-212591896984","system_id":"levelo_inurba_marseille","lat":43.24182,"lon":5.3973,"is_reserved":false,"is_disabled":false,"rental_uris":{"android":"levelo://app?vid=c403544c-98cb-4088-863a-212591896984","ios":"levelo://app?vid=c403544c-98cb-4088-863a-212591896984"},"vehicle_type_id":"4","last_reported":1746720752,"current_range_meters":22000,"station_id":"ce4bhn12rcd13ifvqgpg","pricing_plan_id":"cebpf4jnsgd1na2vs0mg"},{"bike_id":"ec05e51b-410a-43c7-826e-cac26b09ed11","system_id":"levelo_inurba_marseille","lat":43.28424,"lon":5.34987,"is_reserved":false,"is_disabled":false,"rental_uris":{"android":"levelo://app?vid=ec05e51b-410a-43c7-826e-cac26b09ed11","ios":"levelo://app?vid=ec05e51b-410a-43c7-826e-cac26b09ed11"},"vehicle_type_id":"4","last_reported":1746720752,"current_range_meters":22000,"station_id":"ce4bhbh2rcd13ifvqepg","pricing_plan_id":"cebpf4jnsgd1na2vs0mg"},{"bike_id":"c1e9a841-7f0c-480c-aa87-7b75d1aadd4c","system_id":"levelo_inurba_marseille","lat":43.25575,"lon":5.38242,"is_reserved":false,"is_disabled":false,"rental_uris":{"android":"levelo://app?vid=c1e9a841-7f0c-480c-aa87-7b75d1aadd4c","ios":"levelo://app?vid=c1e9a841-7f0c-480c-aa87-7b75d1aadd4c"},"vehicle_type_id":"4","last_reported":1746720752,"current_range_meters":22000,"station_id":"ce4bhih2rcd13ifvqfs0","pricing_plan_id":"cebpf4jnsgd1na2vs0mg"},{"bike_id":"9b84e65f-2424-4f8e-b51b-21355d123536","system_id":"levelo_inurba_marseille","lat":43.31534,"lon":5.37293,"is_reserved":false,"is_disabled":false,"rental_uris":{"android":"levelo://app?vid=9b84e65f-2424-4f8e-b51b-21355d123536","ios":"levelo://app?vid=9b84e65f-2424-4f8e-b51b-21355d123536"},"vehicle_type_id":"4","last_reported":1746720752,"current_range_meters":22400,"station_id":"","pricing_plan_id":"cebpf4jnsgd1na2vs0mg"},{"bike_id":"cf9125ff-9b86-4821-8c5b-53642baa5d70","system_id":"levelo_inurba_marseille","lat":43.30189,"lon":5.3662,"is_reserved":false,"is_disabled":false,"rental_uris":{"android":"levelo://app?vid=cf9125ff-9b86-4821-8c5b-53642baa5d70","ios":"levelo://app?vid=cf9125ff-9b86-4821-8c5b-53642baa5d70"},"vehicle_type_id":"4","last_reported":1746720752,"current_range_meters":22400,"station_id":"ce4bgrh2rcd13ifvqc8g","pricing_plan_id":"cebpf4jnsgd1na2vs0mg"},{"bike_id":"3de47e0b-2105-496b-b902-25a55960cb53","system_id":"levelo_inurba_marseille","lat":43.27615,"lon":5.36103,"is_reserved":false,"is_disabled":false,"rental_uris":{"android":"levelo://app?vid=3de47e0b-2105-496b-b902-25a55960cb53","ios":"levelo://app?vid=3de47e0b-2105-496b-b902-25a55960cb53"},"vehicle_type_id":"4","last_reported":1746720752,"current_range_meters":22400,"station_id":"ce4bgj92rcd13ifvqbe0","pricing_plan_id":"cebpf4jnsgd1na2vs0mg"},{"bike_id":"e00b46e9-32e6-4d72-b4ca-5446b87fee76","system_id":"levelo_inurba_marseille","lat":43.29682,"lon":5.37296,"is_reserved":false,"is_disabled":false,"rental_uris":{"android":"levelo://app?vid=e00b46e9-32e6-4d72-b4ca-5446b87fee76","ios":"levelo://app?vid=e00b46e9-32e6-4d72-b4ca-5446b87fee76"},"vehicle_type_id":"4","last_reported":1746720752,"current_range_meters":22400,"station_id":"ce4bgk12rcd13ifvqbj0","pricing_plan_id":"cebpf4jnsgd1na2vs0mg"},{"bike_id":"e2415b0b-0897-4baf-b85b-c7243cc158c2","system_id":"levelo_inurba_marseille","lat":43.23196,"lon":5.35584,"is_reserved":false,"is_disabled":false,"rental_uris":{"android":"levelo://app?vid=e2415b0b-0897-4baf-b85b-c7243cc158c2","ios":"levelo://app?vid=e2415b0b-0897-4baf-b85b-c7243cc158c2"},"vehicle_type_id":"4","last_reported":1746720752,"current_range_meters":22400,"station_id":"ce4bhu92rcd13ifvqi70","pricing_plan_id":"cebpf4jnsgd1na2vs0mg"},{"bike_id":"837579b6-74cb-44f5-ba4f-7f504eb5b2c2","system_id":"levelo_inurba_marseille","lat":43.33024,"lon":5.3906,"is_reserved":false,"is_disabled":false,"rental_uris":{"android":"levelo://app?vid=837579b6-74cb-44f5-ba4f-7f504eb5b2c2","ios":"levelo://app?vid=837579b6-74cb-44f5-ba4f-7f504eb5b2c2"},"vehicle_type_id":"4","last_reported":1746720752,"current_range_meters":22400,"station_id":"ce4bhr92rcd13ifvqhrg","pricing_plan_id":"cebpf4jnsgd1na2vs0mg"},{"bike_id":"679502ea-e209-4ef7-803c-369dd3d971bf","system_id":"levelo_inurba_marseille","lat":43.23234,"lon":5.35604,"is_reserved":false,"is_disabled":false,"rental_uris":{"android":"levelo://app?vid=679502ea-e209-4ef7-803c-369dd3d971bf","ios":"levelo://app?vid=679502ea-e209-4ef7-803c-369dd3d971bf"},"vehicle_type_id":"4","last_reported":1746720752,"current_range_meters":22400,"station_id":"","pricing_plan_id":"cebpf4jnsgd1na2vs0mg"},{"bike_id":"af07f2ba-567d-41f6-80a1-9b5cec286faf","system_id":"levelo_inurba_marseille","lat":43.22953,"lon":5.35404,"is_reserved":false,"is_disabled":true,"rental_uris":{"android":"levelo://app?vid=af07f2ba-567d-41f6-80a1-9b5cec286faf","ios":"levelo://app?vid=af07f2ba-567d-41f6-80a1-9b5cec286faf"},"vehicle_type_id":"4","last_reported":1746720752,"current_range_meters":22400,"station_id":"cpo3532slgdg3j2ikp40","pricing_plan_id":"cebpf4jnsgd1na2vs0mg"},{"bike_id":"4ea4249f-c305-4e89-937e-97ae36b4e394","system_id":"levelo_inurba_marseille","lat":43.27836,"lon":5.392077,"is_reserved":false,"is_disabled":false,"rental_uris":{"android":"levelo://app?vid=4ea4249f-c305-4e89-937e-97ae36b4e394","ios":"levelo://app?vid=4ea4249f-c305-4e89-937e-97ae36b4e394"},"vehicle_type_id":"4","last_reported":1746720752,"current_range_meters":22800,"station_id":"ce4bhjp2rcd13ifvqga0","pricing_plan_id":"cebpf4jnsgd1na2vs0mg"},{"bike_id":"98e91a31-d0fc-4975-93c9-73ece3d746c4","system_id":"levelo_inurba_marseille","lat":43.28158,"lon":5.42647,"is_reserved":false,"is_disabled":false,"rental_uris":{"android":"levelo://app?vid=98e91a31-d0fc-4975-93c9-73ece3d746c4","ios":"levelo://app?vid=98e91a31-d0fc-4975-93c9-73ece3d746c4"},"vehicle_type_id":"4","last_reported":1746720752,"current_range_meters":22800,"station_id":"ce4bhnh2rcd13ifvqgug","pricing_plan_id":"cebpf4jnsgd1na2vs0mg"},{"bike_id":"c4201cb9-366f-43f1-9c4b-d8c7e4a5af22","system_id":"levelo_inurba_marseille","lat":43.24074,"lon":5.37762,"is_reserved":false,"is_disabled":false,"rental_uris":{"android":"levelo://app?vid=c4201cb9-366f-43f1-9c4b-d8c7e4a5af22","ios":"levelo://app?vid=c4201cb9-366f-43f1-9c4b-d8c7e4a5af22"},"vehicle_type_id":"4","last_reported":1746720752,"current_range_meters":22800,"station_id":"ce4bhnp2rcd13ifvqgvg","pricing_plan_id":"cebpf4jnsgd1na2vs0mg"},{"bike_id":"81b1461a-b964-4157-bc4d-845e8c44053d","system_id":"levelo_inurba_marseille","lat":43.25441,"lon":5.41853,"is_reserved":false,"is_disabled":false,"rental_uris":{"android":"levelo://app?vid=81b1461a-b964-4157-bc4d-845e8c44053d","ios":"levelo://app?vid=81b1461a-b964-4157-bc4d-845e8c44053d"},"vehicle_type_id":"4","last_reported":1746720752,"current_range_meters":22800,"station_id":"","pricing_plan_id":"cebpf4jnsgd1na2vs0mg"},{"bike_id":"545e5687-b7df-4883-81be-75a8925d5f91","system_id":"levelo_inurba_marseille","lat":43.337444,"lon":5.374475,"is_reserved":false,"is_disabled":false,"rental_uris":{"android":"levelo://app?vid=545e5687-b7df-4883-81be-75a8925d5f91","ios":"levelo://app?vid=545e5687-b7df-4883-81be-75a8925d5f91"},"vehicle_type_id":"4","last_reported":1746720752,"current_range_meters":22800,"station_id":"","pricing_plan_id":"cebpf4jnsgd1na2vs0mg"},{"bike_id":"666e97cf-b0ff-4d3f-83c5-aa793097a771","system_id":"levelo_inurba_marseille","lat":43.26223,"lon":5.37447,"is_reserved":false,"is_disabled":false,"rental_uris":{"android":"levelo://app?vid=666e97cf-b0ff-4d3f-83c5-aa793097a771","ios":"levelo://app?vid=666e97cf-b0ff-4d3f-83c5-aa793097a771"},"vehicle_type_id":"4","last_reported":1746720752,"current_range_meters":23200,"station_id":"ce4bhgp2rcd13ifvqfc0","pricing_plan_id":"cebpf4jnsgd1na2vs0mg"},{"bike_id":"fc2577e7-1497-425b-9d4f-ab8d7dc843c6","system_id":"levelo_inurba_marseille","lat":43.33771,"lon":5.37485,"is_reserved":false,"is_disabled":false,"rental_uris":{"android":"levelo://app?vid=fc2577e7-1497-425b-9d4f-ab8d7dc843c6","ios":"levelo://app?vid=fc2577e7-1497-425b-9d4f-ab8d7dc843c6"},"vehicle_type_id":"4","last_reported":1746720752,"current_range_meters":23200,"station_id":"","pricing_plan_id":"cebpf4jnsgd1na2vs0mg"},{"bike_id":"3e7c6aae-b2bc-4dc1-ae18-e8b01d55045f","system_id":"levelo_inurba_marseille","lat":43.24641,"lon":5.43656,"is_reserved":false,"is_disabled":false,"rental_uris":{"android":"levelo://app?vid=3e7c6aae-b2bc-4dc1-ae18-e8b01d55045f","ios":"levelo://app?vid=3e7c6aae-b2bc-4dc1-ae18-e8b01d55045f"},"vehicle_type_id":"4","last_reported":1746720752,"current_range_meters":23200,"station_id":"","pricing_plan_id":"cebpf4jnsgd1na2vs0mg"},{"bike_id":"f9d447c0-4467-435d-bbd3-c52a801469ec","system_id":"levelo_inurba_marseille","lat":43.24077,"lon":5.37763,"is_reserved":false,"is_disabled":false,"rental_uris":{"android":"levelo://app?vid=f9d447c0-4467-435d-bbd3-c52a801469ec","ios":"levelo://app?vid=f9d447c0-4467-435d-bbd3-c52a801469ec"},"vehicle_type_id":"4","last_reported":1746720752,"current_range_meters":23200,"station_id":"ce4bhnp2rcd13ifvqgvg","pricing_plan_id":"cebpf4jnsgd1na2vs0mg"},{"bike_id":"11f313b6-04d8-45e0-91f7-190576e0bbaa","system_id":"levelo_inurba_marseille","lat":43.29531,"lon":5.38546,"is_reserved":false,"is_disabled":false,"rental_uris":{"android":"levelo://app?vid=11f313b6-04d8-45e0-91f7-190576e0bbaa","ios":"levelo://app?vid=11f313b6-04d8-45e0-91f7-190576e0bbaa"},"vehicle_type_id":"4","last_reported":1746720752,"current_range_meters":22800,"station_id":"ce4bgih2rcd13ifvqba0","pricing_plan_id":"cebpf4jnsgd1na2vs0mg"},{"bike_id":"97befefa-5a57-41c3-b05f-992b5ed1c603","system_id":"levelo_inurba_marseille","lat":43.24088,"lon":5.37755,"is_reserved":false,"is_disabled":false,"rental_uris":{"android":"levelo://app?vid=97befefa-5a57-41c3-b05f-992b5ed1c603","ios":"levelo://app?vid=97befefa-5a57-41c3-b05f-992b5ed1c603"},"vehicle_type_id":"4","last_reported":1746720752,"current_range_meters":23200,"station_id":"ce4bhnp2rcd13ifvqgvg","pricing_plan_id":"cebpf4jnsgd1na2vs0mg"},{"bike_id":"2cc064af-f94e-444a-b863-077139755f62","system_id":"levelo_inurba_marseille","lat":43.27678,"lon":5.38877,"is_reserved":false,"is_disabled":false,"rental_uris":{"android":"levelo://app?vid=2cc064af-f94e-444a-b863-077139755f62","ios":"levelo://app?vid=2cc064af-f94e-444a-b863-077139755f62"},"vehicle_type_id":"4","last_reported":1746720752,"current_range_meters":24000,"station_id":"ce4bhi12rcd13ifvqfo0","pricing_plan_id":"cebpf4jnsgd1na2vs0mg"},{"bike_id":"f51922ed-f3e4-4622-bac0-d83ff949c95b","system_id":"levelo_inurba_marseille","lat":43.241777,"lon":5.364514,"is_reserved":false,"is_disabled":false,"rental_uris":{"android":"levelo://app?vid=f51922ed-f3e4-4622-bac0-d83ff949c95b","ios":"levelo://app?vid=f51922ed-f3e4-4622-bac0-d83ff949c95b"},"vehicle_type_id":"4","last_reported":1746720752,"current_range_meters":24000,"station_id":"cpo36qri1sfpv3e86is0","pricing_plan_id":"cebpf4jnsgd1na2vs0mg"},{"bike_id":"294de5ab-b59e-4bb1-8678-c79143c7f942","system_id":"levelo_inurba_marseille","lat":43.27379,"lon":5.36265,"is_reserved":false,"is_disabled":false,"rental_uris":{"android":"levelo://app?vid=294de5ab-b59e-4bb1-8678-c79143c7f942","ios":"levelo://app?vid=294de5ab-b59e-4bb1-8678-c79143c7f942"},"vehicle_type_id":"4","last_reported":1746720752,"current_range_meters":24000,"station_id":"ce4bhbh2rcd13ifvqeo0","pricing_plan_id":"cebpf4jnsgd1na2vs0mg"},{"bike_id":"ac1ddd42-b2b2-4d2b-bee2-a5f648559394","system_id":"levelo_inurba_marseille","lat":43.231967,"lon":5.355487,"is_reserved":false,"is_disabled":false,"rental_uris":{"android":"levelo://app?vid=ac1ddd42-b2b2-4d2b-bee2-a5f648559394","ios":"levelo://app?vid=ac1ddd42-b2b2-4d2b-bee2-a5f648559394"},"vehicle_type_id":"4","last_reported":1746720752,"current_range_meters":24000,"station_id":"ce4bhu92rcd13ifvqi70","pricing_plan_id":"cebpf4jnsgd1na2vs0mg"},{"bike_id":"320445d7-aaf7-43ec-baaf-4e67030e8b62","system_id":"levelo_inurba_marseille","lat":43.27168,"lon":5.4057,"is_reserved":false,"is_disabled":false,"rental_uris":{"android":"levelo://app?vid=320445d7-aaf7-43ec-baaf-4e67030e8b62","ios":"levelo://app?vid=320445d7-aaf7-43ec-baaf-4e67030e8b62"},"vehicle_type_id":"4","last_reported":1746720752,"current_range_meters":24400,"station_id":"","pricing_plan_id":"cebpf4jnsgd1na2vs0mg"},{"bike_id":"b38e69d5-ba7d-455f-b575-aa4130f572a1","system_id":"levelo_inurba_marseille","lat":43.22501,"lon":5.34785,"is_reserved":false,"is_disabled":false,"rental_uris":{"android":"levelo://app?vid=b38e69d5-ba7d-455f-b575-aa4130f572a1","ios":"levelo://app?vid=b38e69d5-ba7d-455f-b575-aa4130f572a1"},"vehicle_type_id":"4","last_reported":1746720752,"current_range_meters":24400,"station_id":"st_cvj5dfep6f1abm77gieg","pricing_plan_id":"cebpf4jnsgd1na2vs0mg"},{"bike_id":"fa1b1f66-7519-42e8-92aa-be43cf3d9e34","system_id":"levelo_inurba_marseille","lat":43.22503,"lon":5.34778,"is_reserved":false,"is_disabled":true,"rental_uris":{"android":"levelo://app?vid=fa1b1f66-7519-42e8-92aa-be43cf3d9e34","ios":"levelo://app?vid=fa1b1f66-7519-42e8-92aa-be43cf3d9e34"},"vehicle_type_id":"4","last_reported":1746720752,"current_range_meters":24400,"station_id":"st_cvj5dfep6f1abm77gieg","pricing_plan_id":"cebpf4jnsgd1na2vs0mg"},{"bike_id":"6d1c8082-5f26-439f-a25a-926dc2c821b7","system_id":"levelo_inurba_marseille","lat":43.29001,"lon":5.35606,"is_reserved":false,"is_disabled":false,"rental_uris":{"android":"levelo://app?vid=6d1c8082-5f26-439f-a25a-926dc2c821b7","ios":"levelo://app?vid=6d1c8082-5f26-439f-a25a-926dc2c821b7"},"vehicle_type_id":"4","last_reported":1746720752,"current_range_meters":24400,"station_id":"ce4bhb92rcd13ifvqen0","pricing_plan_id":"cebpf4jnsgd1na2vs0mg"},{"bike_id":"ddda9be5-8495-4441-93b9-d1781506a90e","system_id":"levelo_inurba_marseille","lat":43.308028,"lon":5.381515,"is_reserved":false,"is_disabled":true,"rental_uris":{"android":"levelo://app?vid=ddda9be5-8495-4441-93b9-d1781506a90e","ios":"levelo://app?vid=ddda9be5-8495-4441-93b9-d1781506a90e"},"vehicle_type_id":"4","last_reported":1746720752,"current_range_meters":24400,"station_id":"ce4bgt12rcd13ifvqce0","pricing_plan_id":"cebpf4jnsgd1na2vs0mg"},{"bike_id":"d5ceca40-7910-4044-9175-fd197bd2a157","system_id":"levelo_inurba_marseille","lat":43.22934,"lon":5.35391,"is_reserved":false,"is_disabled":false,"rental_uris":{"android":"levelo://app?vid=d5ceca40-7910-4044-9175-fd197bd2a157","ios":"levelo://app?vid=d5ceca40-7910-4044-9175-fd197bd2a157"},"vehicle_type_id":"4","last_reported":1746720752,"current_range_meters":24400,"station_id":"cpo3532slgdg3j2ikp40","pricing_plan_id":"cebpf4jnsgd1na2vs0mg"},{"bike_id":"45c23590-ac23-4bac-84d1-1f409a1595f7","system_id":"levelo_inurba_marseille","lat":43.316925,"lon":5.404969,"is_reserved":false,"is_disabled":false,"rental_uris":{"android":"levelo://app?vid=45c23590-ac23-4bac-84d1-1f409a1595f7","ios":"levelo://app?vid=45c23590-ac23-4bac-84d1-1f409a1595f7"},"vehicle_type_id":"4","last_reported":1746720752,"current_range_meters":24400,"station_id":"","pricing_plan_id":"cebpf4jnsgd1na2vs0mg"},