{"last_updated":1756179335,"ttl":60,"version":"2.2","data":{"bikes":[{"bike_id":"e31e9df9-7cf4-4041-849a-55499646b54e","system_id":"levelo_inurba_marseille","lat":43.21192,"lon":5.35079,"is_reserved":false,"is_disabled":false,"rental_uris":{"android":"levelo://app?vid=e31e9df9-7cf4-4041-849a-55499646b54e","ios":"levelo://app?vid=e31e9df9-7cf4-4041-849a-55499646b54e"},"vehicle_type_id":"4","last_reported":1756179335,"current_range_meters":3200,"station_id":"st_cvj6sg6p6f1abm77japg","pricing_plan_id":"cebpf4jnsgd1na2vs0mg"},{"bike_id":"b6733401-ff29-4d35-984e-5af9cc97dfb2","system_id":"levelo_inurba_marseille","lat":43.21225,"lon":5.35077,"is_reserved":false,"is_disabled":false,"rental_uris":{"android":"levelo://app?vid=b6733401-ff29-4d35-984e-5af9cc97dfb2","ios":"levelo://app?vid=b6733401-ff29-4d35-984e-5af9cc97dfb2"},"vehicle_type_id":"4","last_reported":1756179335,"current_range_meters":3200,"station_id":"","pricing_plan_id":"cebpf4jnsgd1na2vs0mg"},{"bike_id":"c4ccc10f-8ccd-44be-a00a-f6ebdc6ec159","system_id":"levelo_inurba_marseille","lat":43.30411,"lon":5.43437,"is_reserved":false,"is_disabled":false,"rental_uris":{"android":"levelo://app?vid=c4ccc10f-8ccd-44be-a00a-f6ebdc6ec159","ios":"levelo://app?vid=c4ccc10f-8ccd-44be-a00a-f6ebdc6ec159"},"vehicle_type_id":"4","last_reported":1756179335,"current_range_meters":4000,"station_id":"","pricing_plan_id":"cebpf4jnsgd1na2vs0mg"},{"bike_id":"5a94cd1f-5ae1-47d0-a15d-d5554856827f","system_id":"levelo_inurba_marseille","lat":43.30591,"lon":5.37574,"is_reserved":false,"is_disabled":false,"rental_uris":{"android":"levelo://app?vid=5a94cd1f-5ae1-47d0-a15d-d5554856827f","ios":"levelo://app?vid=5a94cd1f-5ae1-47d0-a15d-d5554856827f"},"vehicle_type_id":"4","last_reported":1756179335,"current_range_meters":4800,"station_id":"","pricing_plan_id":"cebpf4jnsgd1na2vs0mg"},{"bike_id":"158fe4a9-48cc-491f-95fd-2aa73bd55cc0","system_id":"levelo_inurba_marseille","lat":43.30566,"lon":5.36905,"is_reserved":false,"is_disabled":false,"rental_uris":{"android":"levelo://app?vid=158fe4a9-48cc-491f-95fd-2aa73bd55cc0","ios":"levelo://app?vid=158fe4a9-48cc-491f-95fd-2aa73bd55cc0"},"vehicle_type_id":"4","last_reported":1756179335,"current_range_meters":4800,"station_id":"","pricing_plan_id":"cebpf4jnsgd1na2vs0mg"},{"bike_id":"0490c530-845d-44f9-bf75-09a8b4d2b9b9","system_id":"levelo_inurba_marseille","lat":43.29768,"lon":5.38082,"is_reserved":false,"is_disabled":true,"rental_uris":{"android":"levelo://app?vid=0490c530-845d-44f9-bf75-09a8b4d2b9b9","ios":"levelo://app?vid=0490c530-845d-44f9-bf75-09a8b4d2b9b9"},"vehicle_type_id":"4","last_reported":1756179335,"current_range_meters":5600,"station_id":"ce4bgip2rcd13ifvqbb0","pricing_plan_id":"cebpf4jnsgd1na2vs0mg"},{"bike_id":"bdfcbd9f-91ba-4aff-afdd-0d6c5d79a03f","system_id":"levelo_inurba_marseille","lat":43.24808,"lon":5.37497,"is_reserved":false,"is_disabled":true,"rental_uris":{"android":"levelo://app?vid=bdfcbd9f-91ba-4aff-afdd-0d6c5d79a03f","ios":"levelo://app?vid=bdfcbd9f-91ba-4aff-afdd-0d6c5d79a03f"},"vehicle_type_id":"4","last_reported":1756179335,"current_range_meters":5600,"station_id":"ce4bhgh2rcd13ifvqfb0","pricing_plan_id":"cebpf4jnsgd1na2vs0mg"},{"bike_id":"8278d03d-5584-48a8-a86a-7847a162c713","system_id":"levelo_inurba_marseille","lat":43.30947,"lon":5.38166,"is_reserved":false,"is_disabled":false,"rental_uris":{"android":"levelo://app?vid=8278d03d-5584-48a8-a86a-7847a162c713","ios":"levelo://app?vid=8278d03d-5584-48a8-a86a-7847a162c713"},"vehicle_type_id":"4","last_reported":1756179335,"current_range_meters":6000,"station_id":"","pricing_plan_id":"cebpf4jnsgd1na2vs0mg"},{"bike_id":"3fcb1ecf-014d-414b-8e46-6cb5a3a18d8d","system_id":"levelo_inurba_marseille","lat":43.27102,"lon":5.38722,"is_reserved":false,"is_disabled":false,"rental_uris":{"android":"levelo://app?vid=3fcb1ecf-014d-414b-8e46-6cb5a3a18d8d","ios":"levelo://app?vid=3fcb1ecf-014d-414b-8e46-6cb5a3a18d8d"},"vehicle_type_id":"4","last_reported":1756179335,"current_range_meters":6800,"station_id":"","pricing_plan_id":"cebpf4jnsgd1na2vs0mg"},{"bike_id":"318a994a-51ff-465f-b40c-534a36bf7044","system_id":"levelo_inurba_marseille","lat":43.30183,"lon":5.38276,"is_reserved":false,"is_disabled":false,"rental_uris":{"android":"levelo://app?vid=318a994a-51ff-465f-b40c-534a36bf7044","ios":"levelo://app?vid=318a994a-51ff-465f-b40c-534a36bf7044"},"vehicle_type_id":"4","last_reported":1756179335,"current_range_meters":6800,"station_id":"","pricing_plan_id":"cebpf4jnsgd1na2vs0mg"},{"bike_id":"47085855-ec30-482c-8880-0593aad5795a","system_id":"levelo_inurba_marseille","lat":43.283373,"lon":5.381159,"is_reserved":false,"is_disabled":false,"rental_uris":{"android":"levelo://app?vid=47085855-ec30-482c-8880-0593aad5795a","ios":"levelo://app?vid=47085855-ec30-482c-8880-0593aad5795a"},"vehicle_type_id":"4","last_reported":1756179335,"current_range_meters":6800,"station_id":"ce4bh412rcd13ifvqdr0","pricing_plan_id":"cebpf4jnsgd1na2vs0mg"},{"bike_id":"5460667f-33c3-4e8d-8ece-a4e491713ed9","system_id":"levelo_inurba_marseille","lat":43.29691,"lon":5.40381,"is_reserved":false,"is_disabled":false,"rental_uris":{"android":"levelo://app?vid=5460667f-33c3-4e8d-8ece-a4e491713ed9","ios":"levelo://app?vid=5460667f-33c3-4e8d-8ece-a4e491713ed9"},"vehicle_type_id":"4","last_reported":1756179335,"current_range_meters":7200,"station_id":"","pricing_plan_id":"cebpf4jnsgd1na2vs0mg"},{"bike_id":"8518bded-4733-4e5e-9522-f030c96f848a","system_id":"levelo_inurba_marseille","lat":43.21208,"lon":5.3507,"is_reserved":false,"is_disabled":true,"rental_uris":{"android":"levelo://app?vid=8518bded-4733-4e5e-9522-f030c96f848a","ios":"levelo://app?vid=8518bded-4733-4e5e-9522-f030c96f848a"},"vehicle_type_id":"4","last_reported":1756179335,"current_range_meters":7200,"station_id":"","pricing_plan_id":"cebpf4jnsgd1na2vs0mg"},{"bike_id":"0b42a87e-ca99-4043-bf70-87766099e6b4","system_id":"levelo_inurba_marseille","lat":43.25825,"lon":5.39428,"is_reserved":false,"is_disabled":false,"rental_uris":{"android":"levelo://app?vid=0b42a87e-ca99-4043-bf70-87766099e6b4","ios":"levelo://app?vid=0b42a87e-ca99-4043-bf70-87766099e6b4"},"vehicle_type_id":"4","last_reported":1756179335,"current_range_meters":8000,"station_id":"ce4bhip2rcd13ifvqft0","pricing_plan_id":"cebpf4jnsgd1na2vs0mg"},{"bike_id":"fb0ecd7c-2c0f-42f1-9e73-9448c9893367","system_id":"levelo_inurba_marseille","lat":43.264761,"lon":5.37033,"is_reserved":false,"is_disabled":false,"rental_uris":{"android":"levelo://app?vid=fb0ecd7c-2c0f-42f1-9e73-9448c9893367","ios":"levelo://app?vid=fb0ecd7c-2c0f-42f1-9e73-9448c9893367"},"vehicle_type_id":"4","last_reported":1756179335,"current_range_meters":8000,"station_id":"","pricing_plan_id":"cebpf4jnsgd1na2vs0mg"},{"bike_id":"9dd5a823-7071-4558-8ed1-a8dd971538f0","system_id":"levelo_inurba_marseille","lat":43.29567,"lon":5.399726,"is_reserved":false,"is_disabled":false,"rental_uris":{"android":"levelo://app?vid=9dd5a823-7071-4558-8ed1-a8dd971538f0","ios":"levelo://app?vid=9dd5a823-7071-4558-8ed1-a8dd971538f0"},"vehicle_type_id":"4","last_reported":1756179335,"current_range_meters":8400,"station_id":"ce4bh312rcd13ifvqdj0","pricing_plan_id":"cebpf4jnsgd1na2vs0mg"},{"bike_id":"4a532269-48cb-427e-b43b-efabb500b7dd","system_id":"levelo_inurba_marseille","lat":43.287206,"lon":5.399805,"is_reserved":false,"is_disabled":false,"rental_uris":{"android":"levelo://app?vid=4a532269-48cb-427e-b43b-efabb500b7dd","ios":"levelo://app?vid=4a532269-48cb-427e-b43b-efabb500b7dd"},"vehicle_type_id":"4","last_reported":1756179335,"current_range_meters":8400,"station_id":"ce4bho92rcd13ifvqh3g","pricing_plan_id":"cebpf4jnsgd1na2vs0mg"},{"bike_id":"e8eb7a1e-ea14-4883-a1e0-2f92f1badc7e","system_id":"levelo_inurba_marseille","lat":43.32979,"lon":5.35896,"is_reserved":false,"is_disabled":false,"rental_uris":{"android":"levelo://app?vid=e8eb7a1e-ea14-4883-a1e0-2f92f1badc7e","ios":"levelo://app?vid=e8eb7a1e-ea14-4883-a1e0-2f92f1badc7e"},"vehicle_type_id":"4","last_reported":1756179335,"current_range_meters":8400,"station_id":"","pricing_plan_id":"cebpf4jnsgd1na2vs0mg"},{"bike_id":"b85a6338-8ff9-4885-8639-3483d4a7fbc6","system_id":"levelo_inurba_marseille","lat":43.284133,"lon":5.34988,"is_reserved":false,"is_disabled":false,"rental_uris":{"android":"levelo://app?vid=b85a6338-8ff9-4885-8639-3483d4a7fbc6","ios":"levelo://app?vid=b85a6338-8ff9-4885-8639-3483d4a7fbc6"},"vehicle_type_id":"4","last_reported":1756179335,"current_range_meters":8400,"station_id":"ce4bhbh2rcd13ifvqepg","pricing_plan_id":"cebpf4jnsgd1na2vs0mg"},{"bike_id":"b1e6d255-7568-4d44-9d1d-7da52b84bc98","system_id":"levelo_inurba_marseille","lat":43.27907,"lon":5.39588,"is_reserved":false,"is_disabled":false,"rental_uris":{"android":"levelo://app?vid=b1e6d255-7568-4d44-9d1d-7da52b84bc98","ios":"levelo://app?vid=b1e6d255-7568-4d44-9d1d-7da52b84bc98"},"vehicle_type_id":"4","last_reported":1756179335,"current_range_meters":8400,"station_id":"ce4bhf92rcd13ifvqf40","pricing_plan_id":"cebpf4jnsgd1na2vs0mg"},{"bike_id":"f1fe5379-1bdf-4970-ae21-6bf7f8fac95a","system_id":"levelo_inurba_marseille","lat":43.29527,"lon":5.37567,"is_reserved":false,"is_disabled":false,"rental_uris":{"android":"levelo://app?vid=f1fe5379-1bdf-4970-ae21-6bf7f8fac95a","ios":"levelo://app?vid=f1fe5379-1bdf-4970-ae21-6bf7f8fac95a"},"vehicle_type_id":"4","last_reported":1756179335,"current_range_meters":9600,"station_id":"","pricing_plan_id":"cebpf4jnsgd1na2vs0mg"},{"bike_id":"bdf9cdaf-1841-4395-9aa4-66303e07210c","system_id":"levelo_inurba_marseille","lat":43.28949,"lon":5.3662,"is_reserved":false,"is_disabled":false,"rental_uris":{"android":"levelo://app?vid=bdf9cdaf-1841-4395-9aa4-66303e07210c","ios":"levelo://app?vid=bdf9cdaf-1841-4395-9aa4-66303e07210c"},"vehicle_type_id":"4","last_reported":1756179335,"current_range_meters":9600,"station_id":"ce4bhap2rcd13ifvqek0","pricing_plan_id":"cebpf4jnsgd1na2vs0mg"},{"bike_id":"236f1a17-bd84-4b8e-977f-7df7d8cf402c","system_id":"levelo_inurba_marseille","lat":43.308,"lon":5.43512,"is_reserved":false,"is_disabled":true,"rental_uris":{"android":"levelo://app?vid=236f1a17-bd84-4b8e-977f-7df7d8cf402c","ios":"levelo://app?vid=236f1a17-bd84-4b8e-977f-7df7d8cf402c"},"vehicle_type_id":"4","last_reported":1756179335,"current_range_meters":9600,"station_id":"ce4bhph2rcd13ifvqheg","pricing_plan_id":"cebpf4jnsgd1na2vs0mg"},{"bike_id":"4df71f0f-c74e-4ac3-acf8-818e23b9a99b","system_id":"levelo_inurba_marseille","lat":43.293004,"lon":5.385245,"is_reserved":false,"is_disabled":false,"rental_uris":{"android":"levelo://app?vid=4df71f0f-c74e-4ac3-acf8-818e23b9a99b","ios":"levelo://app?vid=4df71f0f-c74e-4ac3-acf8-818e23b9a99b"},"vehicle_type_id":"4","last_reported":1756179335,"current_range_meters":9600,"station_id":"","pricing_plan_id":"cebpf4jnsgd1na2vs0mg"},{"bike_id":"b51c34df-7c13-47a2-9d8a-255bd54d8cdd","system_id":"levelo_inurba_marseille","lat":43.28712,"lon":5.37403,"is_reserved":false,"is_disabled":false,"rental_uris":{"android":"levelo://app?vid=b51c34df-7c13-47a2-9d8a-255bd54d8cdd","ios":"levelo://app?vid=b51c34df-7c13-47a2-9d8a-255bd54d8cdd"},"vehicle_type_id":"4","last_reported":1756179335,"current_range_meters":9600,"station_id":"ce4bh3p2rcd13ifvqdq0","pricing_plan_id":"cebpf4jnsgd1na2vs0mg"},{"bike_id":"3598888f-9da8-460a-8709-59830f09bd72","system_id":"levelo_inurba_marseille","lat":43.317108,"lon":5.437083,"is_reserved":false,"is_disabled":false,"rental_uris":{"android":"levelo://app?vid=3598888f-9da8-460a-8709-59830f09bd72","ios":"levelo://app?vid=3598888f-9da8-460a-8709-59830f09bd72"},"vehicle_type_id":"4","last_reported":1756179335,"current_range_meters":9600,"station_id":"ce4bhp92rcd13ifvqhcg","pricing_plan_id":"cebpf4jnsgd1na2vs0mg"},{"bike_id":"5bc159b2-6625-4331-8d47-866182c3fe54","system_id":"levelo_inurba_marseille","lat":43.286999,"lon":5.37407,"is_reserved":false,"is_disabled":false,"rental_uris":{"android":"levelo://app?vid=5bc159b2-6625-4331-8d47-866182c3fe54","ios":"levelo://app?vid=5bc159b2-6625-4331-8d47-866182c3fe54"},"vehicle_type_id":"4","last_reported":1756179335,"current_range_meters":10000,"station_id":"ce4bh3p2rcd13ifvqdq0","pricing_plan_id":"cebpf4jnsgd1na2vs0mg"},{"bike_id":"7203aa12-6f27-4868-bb54-60c3b620f3ff","system_id":"levelo_inurba_marseille","lat":43.29511,"lon":5.3941,"is_reserved":false,"is_disabled":true,"rental_uris":{"android":"levelo://app?vid=7203aa12-6f27-4868-bb54-60c3b620f3ff","ios":"levelo://app?vid=7203aa12-6f27-4868-bb54-60c3b620f3ff"},"vehicle_type_id":"4","last_reported":1756179335,"current_range_meters":10000,"station_id":"ce4bh292rcd13ifvqdf0","pricing_plan_id":"cebpf4jnsgd1na2vs0mg"},{"bike_id":"df75f1fa-75ae-4074-a5b6-5911a8c1b6a8","system_id":"levelo_inurba_marseille","lat":43.30752,"lon":5.37172,"is_reserved":false,"is_disabled":false,"rental_uris":{"android":"levelo://app?vid=df75f1fa-75ae-4074-a5b6-5911a8c1b6a8","ios":"levelo://app?vid=df75f1fa-75ae-4074-a5b6-5911a8c1b6a8"},"vehicle_type_id":"4","last_reported":1756179335,"current_range_meters":10000,"station_id":"","pricing_plan_id":"cebpf4jnsgd1na2vs0mg"},{"bike_id":"a4a408b3-aa81-4fa0-99b2-8d0a08e384bc","system_id":"levelo_inurba_marseille","lat":43.32138,"lon":5.36769,"is_reserved":false,"is_disabled":true,"rental_uris":{"android":"levelo://app?vid=a4a408b3-aa81-4fa0-99b2-8d0a08e384bc","ios":"levelo://app?vid=a4a408b3-aa81-4fa0-99b2-8d0a08e384bc"},"vehicle_type_id":"4","last_reported":1756179335,"current_range_meters":10000,"station_id":"","pricing_plan_id":"cebpf4jnsgd1na2vs0mg"},{"bike_id":"d94a3e2d-afbd-4e20-9e99-a5beeae0f186","system_id":"levelo_inurba_marseille","lat":43.281504,"lon":5.4263,"is_reserved":false,"is_disabled":false,"rental_uris":{"android":"levelo://app?vid=d94a3e2d-afbd-4e20-9e99-a5beeae0f186","ios":"levelo://app?vid=d94a3e2d-afbd-4e20-9e99-a5beeae0f186"},"vehicle_type_id":"4","last_reported":1756179335,"current_range_meters":10800,"station_id":"ce4bhnh2rcd13ifvqgug","pricing_plan_id":"cebpf4jnsgd1na2vs0mg"},{"bike_id":"6d9902ab-ef79-4f70-9701-f427eba3d159","system_id":"levelo_inurba_marseille","lat":43.303887,"lon":5.373754,"is_reserved":false,"is_disabled":false,"rental_uris":{"android":"levelo://app?vid=6d9902ab-ef79-4f70-9701-f427eba3d159","ios":"levelo://app?vid=6d9902ab-ef79-4f70-9701-f427eba3d159"},"vehicle_type_id":"4","last_reported":1756179335,"current_range_meters":10800,"station_id":"","pricing_plan_id":"cebpf4jnsgd1na2vs0mg"},{"bike_id":"37ee34ea-f1e1-4241-a19a-4060e53b71a9","system_id":"levelo_inurba_marseille","lat":43.273656,"lon":5.362333,"is_reserved":false,"is_disabled":false,"rental_uris":{"android":"levelo://app?vid=37ee34ea-f1e1-4241-a19a-4060e53b71a9","ios":"levelo://app?vid=37ee34ea-f1e1-4241-a19a-4060e53b71a9"},"vehicle_type_id":"4","last_reported":1756179335,"current_range_meters":10800,"station_id":"ce4bhbh2rcd13ifvqeo0","pricing_plan_id":"cebpf4jnsgd1na2vs0mg"},{"bike_id":"3c46655d-5c33-4f09-b01b-e21ce7ab58bf","system_id":"levelo_inurba_marseille","lat":43.3091,"lon":5.40147,"is_reserved":false,"is_disabled":false,"rental_uris":{"android":"levelo://app?vid=3c46655d-5c33-4f09-b01b-e21ce7ab58bf","ios":"levelo://app?vid=3c46655d-5c33-4f09-b01b-e21ce7ab58bf"},"vehicle_type_id":"4","last_reported":1756179335,"current_range_meters":10800,"station_id":"ce4bgvp2rcd13ifvqct0","pricing_plan_id":"cebpf4jnsgd1na2vs0mg"},{"bike_id":"1cd21559-399f-4936-b4ac-cb1d7223c9c3","system_id":"levelo_inurba_marseille","lat":43.24,"lon":5.36265,"is_reserved":false,"is_disabled":false,"rental_uris":{"android":"levelo://app?vid=1cd21559-399f-4936-b4ac-cb1d7223c9c3","ios":"levelo://app?vid=1cd21559-399f-4936-b4ac-cb1d7223c9c3"},"vehicle_type_id":"4","last_reported":1756179335,"current_range_meters":10800,"station_id":"","pricing_plan_id":"cebpf4jnsgd1na2vs0mg"},{"bike_id":"13ca7797-00d8-41a0-8d1a-2644e37419ca","system_id":"levelo_inurba_marseille","lat":43.28617,"lon":5.35092,"is_reserved":false,"is_disabled":true,"rental_uris":{"android":"levelo://app?vid=13ca7797-00d8-41a0-8d1a-2644e37419ca","ios":"levelo://app?vid=13ca7797-00d8-41a0-8d1a-2644e37419ca"},"vehicle_type_id":"4","last_reported":1756179335,"current_range_meters":11200,"station_id":"ce4bhch2rcd13ifvqeug","pricing_plan_id":"cebpf4jnsgd1na2vs0mg"},{"bike_id":"7189d6f5-1678-4c32-8153-93fc07bd4708","system_id":"levelo_inurba_marseille","lat":43.287056,"lon":5.399864,"is_reserved":false,"is_disabled":false,"rental_uris":{"android":"levelo://app?vid=7189d6f5-1678-4c32-8153-93fc07bd4708","ios":"levelo://app?vid=7189d6f5-1678-4c32-8153-93fc07bd4708"},"vehicle_type_id":"4","last_reported":1756179335,"current_range_meters":11200,"station_id":"ce4bho92rcd13ifvqh3g","pricing_plan_id":"cebpf4jnsgd1na2vs0mg"},{"bike_id":"4cfc7ebb-2e37-4eb4-9f4a-a2bf119cb585","system_id":"levelo_inurba_marseille","lat":43.32,"lon":5.38153,"is_reserved":false,"is_disabled":false,"rental_uris":{"android":"levelo://app?vid=4cfc7ebb-2e37-4eb4-9f4a-a2bf119cb585","ios":"levelo://app?vid=4cfc7ebb-2e37-4eb4-9f4a-a2bf119cb585"},"vehicle_type_id":"4","last_reported":1756179335,"current_range_meters":11200,"station_id":"ce4bhr12rcd13ifvqhpg","pricing_plan_id":"cebpf4jnsgd1na2vs0mg"},{"bike_id":"d0999127-b16f-4437-8178-2bcfe37baaed","system_id":"levelo_inurba_marseille","lat":43.27793,"lon":5.40714,"is_reserved":false,"is_disabled":false,"rental_uris":{"android":"levelo://app?vid=d0999127-b16f-4437-8178-2bcfe37baaed","ios":"levelo://app?vid=d0999127-b16f-4437-8178-2bcfe37baaed"},"vehicle_type_id":"4","last_reported":1756179335,"current_range_meters":11200,"station_id":"ce4bhnh2rcd13ifvqgtg","pricing_plan_id":"cebpf4jnsgd1na2vs0mg"},{"bike_id":"a20d683d-8885-43a3-9284-1accd6c15422","system_id":"levelo_inurba_marseille","lat":43.2928,"lon":5.4012,"is_reserved":false,"is_disabled":false,"rental_uris":{"android":"levelo://app?vid=a20d683d-8885-43a3-9284-1accd6c15422","ios":"levelo://app?vid=a20d683d-8885-43a3-9284-1accd6c15422"},"vehicle_type_id":"4","last_reported":1756179335,"current_range_meters":8800,"station_id":"ce4bh312rcd13ifvqdk0","pricing_plan_id":"cebpf4jnsgd1na2vs0mg"},{"bike_id":"01a29392-8b5c-42c8-9a48-f0ad02749a8b","system_id":"levelo_inurba_marseille","lat":43.273311,"lon":5.390887,"is_reserved":false,"is_disabled":true,"rental_uris":{"android":"levelo://app?vid=01a29392-8b5c-42c8-9a48-f0ad02749a8b","ios":"levelo://app?vid=01a29392-8b5c-42c8-9a48-f0ad02749a8b"},"vehicle_type_id":"4","last_reported":1756179335,"current_range_meters":11600,"station_id":"ce4bhgp2rcd13ifvqfe0","pricing_plan_id":"cebpf4jnsgd1na2vs0mg"},{"bike_id":"1118c831-1f09-4f60-a5eb-2f9581fe4163","system_id":"levelo_inurba_marseille","lat":43.23157,"lon":5.4371,"is_reserved":false,"is_disabled":false,"rental_uris":{"android":"levelo://app?vid=1118c831-1f09-4f60-a5eb-2f9581fe4163","ios":"levelo://app?vid=1118c831-1f09-4f60-a5eb-2f9581fe4163"},"vehicle_type_id":"4","last_reported":1756179335,"current_range_meters":11600,"station_id":"ce4bhmp2rcd13ifvqgog","pricing_plan_id":"cebpf4jnsgd1na2vs0mg"},{"bike_id":"0fdfa7ce-260e-4c83-baf2-39b1904c43e5","system_id":"levelo_inurba_marseille","lat":43.303735,"lon":5.424871,"is_reserved":false,"is_disabled":false,"rental_uris":{"android":"levelo://app?vid=0fdfa7ce-260e-4c83-baf2-39b1904c43e5","ios":"levelo://app?vid=0fdfa7ce-260e-4c83-baf2-39b1904c43e5"},"vehicle_type_id":"4","last_reported":1756179335,"current_range_meters":12000,"station_id":"ce4bhoh2rcd13ifvqh6g","pricing_plan_id":"cebpf4jnsgd1na2vs0mg"},{"bike_id":"fd4a67e8-6ee6-48ff-a9f2-0b08e1c025de","system_id":"levelo_inurba_marseille","lat":43.25107,"lon":5.40333,"is_reserved":false,"is_disabled":true,"rental_uris":{"android":"levelo://app?vid=fd4a67e8-6ee6-48ff-a9f2-0b08e1c025de","ios":"levelo://app?vid=fd4a67e8-6ee6-48ff-a9f2-0b08e1c025de"},"vehicle_type_id":"4","last_reported":1756179335,"current_range_meters":12000,"station_id":"ce4bhlh2rcd13ifvqgig","pricing_plan_id":"cebpf4jnsgd1na2vs0mg"},{"bike_id":"23000702-b747-46d6-b1b0-02936b2436a2","system_id":"levelo_inurba_marseille","lat":43.317106,"lon":5.437106,"is_reserved":false,"is_disabled":false,"rental_uris":{"android":"levelo://app?vid=23000702-b747-46d6-b1b0-02936b2436a2","ios":"levelo://app?vid=23000702-b747-46d6-b1b0-02936b2436a2"},"vehicle_type_id":"4","last_reported":1756179335,"current_range_meters":12000,"station_id":"ce4bhp92rcd13ifvqhcg","pricing_plan_id":"cebpf4jnsgd1na2vs0mg"},{"bike_id":"c676dccd-ea96-467b-a7a4-8b7521ddd99d","system_id":"levelo_inurba_marseille","lat":43.251062,"lon":5.403175,"is_reserved":false,"is_disabled":false,"rental_uris":{"android":"levelo://app?vid=c676dccd-ea96-467b-a7a4-8b7521ddd99d","ios":"levelo://app?vid=c676dccd-ea96-467b-a7a4-8b7521ddd99d"},"vehicle_type_id":"4","last_reported":1756179335,"current_range_meters":12000,"station_id":"ce4bhlh2rcd13ifvqgig","pricing_plan_id":"cebpf4jnsgd1na2vs0mg"},{"bike_id":"78c01866-7c31-4b0c-93fb-94177f5e298a","system_id":"levelo_inurba_marseille","lat":43.229438,"lon":5.353847,"is_reserved":false,"is_disabled":false,"rental_uris":{"android":"levelo://app?vid=78c01866-7c31-4b0c-93fb-94177f5e298a","ios":"levelo://app?vid=78c01866-7c31-4b0c-93fb-94177f5e298a"},"vehicle_type_id":"4","last_reported":1756179335,"current_range_meters":12000,"station_id":"cpo3532slgdg3j2ikp40","pricing_plan_id":"cebpf4jnsgd1na2vs0mg"},{"bike_id":"268cd559-7a2d-4e5c-bedb-fd24d5efe9ac","system_id":"levelo_inurba_marseille","lat":43.326618,"lon":5.409951,"is_reserved":false,"is_disabled":false,"rental_uris":{"android":"levelo://app?vid=268cd559-7a2d-4e5c-bedb-fd24d5efe9ac","ios":"levelo://app?vid=268cd559-7a2d-4e5c-bedb-fd24d5efe9ac"},"vehicle_type_id":"4","last_reported":1756179335,"current_range_meters":12000,"station_id":"ce4bhpp2rcd13ifvqhgg","pricing_plan_id":"cebpf4jnsgd1na2vs0mg"},{"bike_id":"8857da2d-18c4-4517-ab0f-603ccd2730ac","system_id":"levelo_inurba_marseille","lat":43.30456,"lon":5.37906,"is_reserved":false,"is_disabled":true,"rental_uris":{"android":"levelo://app?vid=8857da2d-18c4-4517-ab0f-603ccd2730ac","ios":"levelo://app?vid=8857da2d-18c4-4517-ab0f-603ccd2730ac"},"vehicle_type_id":"4","last_reported":1756179335,"current_range_meters":12400,"station_id":"ce4bgup2rcd13ifvqcn0","pricing_plan_id":"cebpf4jnsgd1na2vs0mg"},{"bike_id":"2cb3c564-fbdd-46e4-9a16-b8f4e6f31c63","system_id":"levelo_inurba_marseille","lat":43.26066,"lon":5.393958,"is_reserved":false,"is_disabled":true,"rental_uris":{"android":"levelo://app?vid=2cb3c564-fbdd-46e4-9a16-b8f4e6f31c63","ios":"levelo://app?vid=2cb3c564-fbdd-46e4-9a16-b8f4e6f31c63"},"vehicle_type_id":"4","last_reported":1756179335,"current_range_meters":12400,"station_id":"ce4bhh92rcd13ifvqfj0","pricing_plan_id":"cebpf4jnsgd1na2vs0mg"},{"bike_id":"b2eac224-e1a4-4f6b-85d7-10a7f3c85e0e","system_id":"levelo_inurba_marseille","lat":43.29295,"lon":5.3746,"is_reserved":false,"is_disabled":false,"rental_uris":{"android":"levelo://app?vid=b2eac224-e1a4-4f6b-85d7-10a7f3c85e0e","ios":"levelo://app?vid=b2eac224-e1a4-4f6b-85d7-10a7f3c85e0e"},"vehicle_type_id":"4","last_reported":1756179335,"current_range_meters":12400,"station_id":"ce4bgi12rcd13ifvqb70","pricing_plan_id":"cebpf4jnsgd1na2vs0mg"},{"bike_id":"4cd2ed9d-9748-4d2b-8c25-a7961f22d388","system_id":"levelo_inurba_marseille","lat":43.30106,"lon":5.39061,"is_reserved":false,"is_disabled":false,"rental_uris":{"android":"levelo://app?vid=4cd2ed9d-9748-4d2b-8c25-a7961f22d388","ios":"levelo://app?vid=4cd2ed9d-9748-4d2b-8c25-a7961f22d388"},"vehicle_type_id":"4","last_reported":1756179335,"current_range_meters":12400,"station_id":"ce4bh192rcd13ifvqdb0","pricing_plan_id":"cebpf4jnsgd1na2vs0mg"},{"bike_id":"959685c0-6d9e-49e3-a405-c30ec1616e26","system_id":"levelo_inurba_marseille","lat":43.24629,"lon":5.3897,"is_reserved":false,"is_disabled":false,"rental_uris":{"android":"levelo://app?vid=959685c0-6d9e-49e3-a405-c30ec1616e26","ios":"levelo://app?vid=959685c0-6d9e-49e3-a405-c30ec1616e26"},"vehicle_type_id":"4","last_reported":1756179335,"current_range_meters":12400,"station_id":"","pricing_plan_id":"cebpf4jnsgd1na2vs0mg"},{"bike_id":"8b09d6e8-3175-46a4-a882-3f13b9ad4be3","system_id":"levelo_inurba_marseille","lat":43.246361,"lon":5.431411,"is_reserved":false,"is_disabled":false,"rental_uris":{"android":"levelo://app?vid=8b09d6e8-3175-46a4-a882-3f13b9ad4be3","ios":"levelo://app?vid=8b09d6e8-3175-46a4-a882-3f13b9ad4be3"},"vehicle_type_id":"4","last_reported":1756179335,"current_range_meters":12400,"station_id":"st_d2m6c4gdas8pm72e190g","pricing_plan_id":"cebpf4jnsgd1na2vs0mg"},{"bike_id":"89f7b340-1be7-40f8-a3ee-1bb5c0729786","system_id":"levelo_inurba_marseille","lat":43.32532,"lon":5.41438,"is_reserved":false,"is_disabled":true,"rental_uris":{"android":"levelo://app?vid=89f7b340-1be7-40f8-a3ee-1bb5c0729786","ios":"levelo://app?vid=89f7b340-1be7-40f8-a3ee-1bb5c0729786"},"vehicle_type_id":"4","last_reported":1756179335,"current_range_meters":12400,"station_id":"ce4bhq12rcd13ifvqhhg","pricing_plan_id":"cebpf4jnsgd1na2vs0mg"},{"bike_id":"66fe0d3d-3f11-4f9b-b708-9233fa227550","system_id":"levelo_inurba_marseille","lat":43.31441,"lon":5.3739,"is_reserved":false,"is_disabled":false,"rental_uris":{"android":"levelo://app?vid=66fe0d3d-3f11-4f9b-b708-9233fa227550","ios":"levelo://app?vid=66fe0d3d-3f11-4f9b-b708-9233fa227550"},"vehicle_type_id":"4","last_reported":1756179335,"current_range_meters":12800,"station_id":"","pricing_plan_id":"cebpf4jnsgd1na2vs0mg"},{"bike_id":"999f1b99-11e2-4673-abf1-59581d0753f4","system_id":"levelo_inurba_marseille","lat":43.217555,"lon":5.346139,"is_reserved":false,"is_disabled":true,"rental_uris":{"android":"levelo://app?vid=999f1b99-11e2-4673-abf1-59581d0753f4","ios":"levelo://app?vid=999f1b99-11e2-4673-abf1-59581d0753f4"},"vehicle_type_id":"4","last_reported":1756179335,"current_range_meters":12800,"station_id":"st_cvj6r9ubvosntc0bgbag","pricing_plan_id":"cebpf4jnsgd1na2vs0mg"},{"bike_id":"909f8a34-207c-47bc-a045-0789f6825cce","system_id":"levelo_inurba_marseille","lat":43.21745,"lon":5.34601,"is_reserved":false,"is_disabled":true,"rental_uris":{"android":"levelo://app?vid=909f8a34-207c-47bc-a045-0789f6825cce","ios":"levelo://app?vid=909f8a34-207c-47bc-a045-0789f6825cce"},"vehicle_type_id":"4","last_reported":1756179335,"current_range_meters":12800,"station_id":"st_cvj6r9ubvosntc0bgbag","pricing_plan_id":"cebpf4jnsgd1na2vs0mg"},{"bike_id":"3e3169e7-1702-48fc-825b-2fcd7adf6998","system_id":"levelo_inurba_marseille","lat":43.31323,"lon":5.396897,"is_reserved":false,"is_disabled":false,"rental_uris":{"android":"levelo://app?vid=3e3169e7-1702-48fc-825b-2fcd7adf6998","ios":"levelo://app?vid=3e3169e7-1702-48fc-825b-2fcd7adf6998"},"vehicle_type_id":"4","last_reported":1756179335,"current_range_meters":13600,"station_id":"ce4bgvp2rcd13ifvqcu0","pricing_plan_id":"cebpf4jnsgd1na2vs0mg"},{"bike_id":"61affd02-ee6c-42a4-8ae8-897d493e2a12","system_id":"levelo_inurba_marseille","lat":43.317079,"lon":5.43701,"is_reserved":false,"is_disabled":false,"rental_uris":{"android":"levelo://app?vid=61affd02-ee6c-42a4-8ae8-897d493e2a12","ios":"levelo://app?vid=61affd02-ee6c-42a4-8ae8-897d493e2a12"},"vehicle_type_id":"4","last_reported":1756179335,"current_range_meters":13600,"station_id":"ce4bhp92rcd13ifvqhcg","pricing_plan_id":"cebpf4jnsgd1na2vs0mg"},{"bike_id":"c8f19ab0-2650-42bf-bf99-315bb14cecb1","system_id":"levelo_inurba_marseille","lat":43.32366,"lon":5.36762,"is_reserved":false,"is_disabled":false,"rental_uris":{"android":"levelo://app?vid=c8f19ab0-2650-42bf-bf99-315bb14cecb1","ios":"levelo://app?vid=c8f19ab0-2650-42bf-bf99-315bb14cecb1"},"vehicle_type_id":"4","last_reported":1756179335,"current_range_meters":13600,"station_id":"ce4bhsh2rcd13ifvqi2g","pricing_plan_id":"cebpf4jnsgd1na2vs0mg"},{"bike_id":"be11ee8e-d6e8-4b5a-9526-c98af2d376fa","system_id":"levelo_inurba_marseille","lat":43.28151,"lon":5.42641,"is_reserved":false,"is_disabled":false,"rental_uris":{"android":"levelo://app?vid=be11ee8e-d6e8-4b5a-9526-c98af2d376fa","ios":"levelo://app?vid=be11ee8e-d6e8-4b5a-9526-c98af2d376fa"},"vehicle_type_id":"4","last_reported":1756179335,"current_range_meters":13600,"station_id":"ce4bhnh2rcd13ifvqgug","pricing_plan_id":"cebpf4jnsgd1na2vs0mg"},{"bike_id":"7cb5e8c7-fe03-4b52-8367-5703b85f88d7","system_id":"levelo_inurba_marseille","lat":43.25118,"lon":5.40331,"is_reserved":false,"is_disabled":false,"rental_uris":{"android":"levelo://app?vid=7cb5e8c7-fe03-4b52-8367-5703b85f88d7","ios":"levelo://app?vid=7cb5e8c7-fe03-4b52-8367-5703b85f88d7"},"vehicle_type_id":"4","last_reported":1756179335,"current_range_meters":13600,"station_id":"ce4bhlh2rcd13ifvqgig","pricing_plan_id":"cebpf4jnsgd1na2vs0mg"},{"bike_id":"7b43efcb-8762-4c7d-8e32-a6fa51130619","system_id":"levelo_inurba_marseille","lat":43.284114,"lon":5.375007,"is_reserved":false,"is_disabled":false,"rental_uris":{"android":"levelo://app?vid=7b43efcb-8762-4c7d-8e32-a6fa51130619","ios":"levelo://app?vid=7b43efcb-8762-4c7d-8e32-a6fa51130619"},"vehicle_type_id":"4","last_reported":1756179335,"current_range_meters":13600,"station_id":"ce4bh412rcd13ifvqds0","pricing_plan_id":"cebpf4jnsgd1na2vs0mg"},{"bike_id":"f6ab8208-fdff-4e27-a025-d00fe690f9b7","system_id":"levelo_inurba_marseille","lat":43.27814,"lon":5.407076,"is_reserved":false,"is_disabled":false,"rental_uris":{"android":"levelo://app?vid=f6ab8208-fdff-4e27-a025-d00fe690f9b7","ios":"levelo://app?vid=f6ab8208-fdff-4e27-a025-d00fe690f9b7"},"vehicle_type_id":"4","last_reported":1756179335,"current_range_meters":14000,"station_id":"ce4bhnh2rcd13ifvqgtg","pricing_plan_id":"cebpf4jnsgd1na2vs0mg"},{"bike_id":"1e717a90-c853-4831-a30a-21a593345e4c","system_id":"levelo_inurba_marseille","lat":43.284609,"lon":5.358707,"is_reserved":false,"is_disabled":false,"rental_uris":{"android":"levelo://app?vid=1e717a90-c853-4831-a30a-21a593345e4c","ios":"levelo://app?vid=1e717a90-c853-4831-a30a-21a593345e4c"},"vehicle_type_id":"4","last_reported":1756179335,"current_range_meters":14000,"station_id":"ce4bhah2rcd13ifvqei0","pricing_plan_id":"cebpf4jnsgd1na2vs0mg"},{"bike_id":"3e130ff4-87da-4c51-a264-44d1f277fd66","system_id":"levelo_inurba_marseille","lat":43.321089,"lon":5.36774,"is_reserved":false,"is_disabled":false,"rental_uris":{"android":"levelo://app?vid=3e130ff4-87da-4c51-a264-44d1f277fd66","ios":"levelo://app?vid=3e130ff4-87da-4c51-a264-44d1f277fd66"},"vehicle_type_id":"4","last_reported":1756179335,"current_range_meters":14000,"station_id":"ce4bhrh2rcd13ifvqhug","pricing_plan_id":"cebpf4jnsgd1na2vs0mg"},{"bike_id":"e2b0f307-cfe9-4ad5-b104-d661fcb0d809","system_id":"levelo_inurba_marseille","lat":43.229236,"lon":5.353745,"is_reserved":false,"is_disabled":false,"rental_uris":{"android":"levelo://app?vid=e2b0f307-cfe9-4ad5-b104-d661fcb0d809","ios":"levelo://app?vid=e2b0f307-cfe9-4ad5-b104-d661fcb0d809"},"vehicle_type_id":"4","last_reported":1756179335,"current_range_meters":14400,"station_id":"cpo3532slgdg3j2ikp40","pricing_plan_id":"cebpf4jnsgd1na2vs0mg"},{"bike_id":"6030ebdc-126c-463d-a229-e3b8a84b3c35","system_id":"levelo_inurba_marseille","lat":43.297839,"lon":5.393465,"is_reserved":false,"is_disabled":false,"rental_uris":{"android":"levelo://app?vid=6030ebdc-126c-463d-a229-e3b8a84b3c35","ios":"levelo://app?vid=6030ebdc-126c-463d-a229-e3b8a84b3c35"},"vehicle_type_id":"4","last_reported":1756179335,"current_range_meters":14400,"station_id":"chh1huq6cuj3fo74tm60","pricing_plan_id":"cebpf4jnsgd1na2vs0mg"},{"bike_id":"a67896b0-6111-4549-bbcd-9680519517b0","system_id":"levelo_inurba_marseille","lat":43.30604,"lon":5.39345,"is_reserved":false,"is_disabled":false,"rental_uris":{"android":"levelo://app?vid=a67896b0-6111-4549-bbcd-9680519517b0","ios":"levelo://app?vid=a67896b0-6111-4549-bbcd-9680519517b0"},"vehicle_type_id":"4","last_reported":1756179335,"current_range_meters":14400,"station_id":"ce4bh0p2rcd13ifvqd80","pricing_plan_id":"cebpf4jnsgd1na2vs0mg"},{"bike_id":"278443b4-269a-4082-9316-7b2e5ce64d5e","system_id":"levelo_inurba_marseille","lat":43.25113,"lon":5.40346,"is_reserved":false,"is_disabled":true,"rental_uris":{"android":"levelo://app?vid=278443b4-269a-4082-9316-7b2e5ce64d5e","ios":"levelo://app?vid=278443b4-269a-4082-9316-7b2e5ce64d5e"},"vehicle_type_id":"4","last_reported":1756179335,"current_range_meters":14400,"station_id":"ce4bhlh2rcd13ifvqgig","pricing_plan_id":"cebpf4jnsgd1na2vs0mg"},{"bike_id":"e71013d2-dbe3-4826-8a5b-4baa1d2a4ed9","system_id":"levelo_inurba_marseille","lat":43.292793,"lon":5.401181,"is_reserved":false,"is_disabled":false,"rental_uris":{"android":"levelo://app?vid=e71013d2-dbe3-4826-8a5b-4baa1d2a4ed9","ios":"levelo://app?vid=e71013d2-dbe3-4826-8a5b-4baa1d2a4ed9"},"vehicle_type_id":"4","last_reported":1756179335,"current_range_meters":14400,"station_id":"ce4bh312rcd13ifvqdk0","pricing_plan_id":"cebpf4jnsgd1na2vs0mg"},{"bike_id":"c30b301c-7f7b-494a-8ee4-1d6c5f9cce1b","system_id":"levelo_inurba_marseille","lat":43.28444,"lon":5.37519,"is_reserved":false,"is_disabled":true,"rental_uris":{"android":"levelo://app?vid=c30b301c-7f7b-494a-8ee4-1d6c5f9cce1b","ios":"levelo://app?vid=c30b301c-7f7b-494a-8ee4-1d6c5f9cce1b"},"vehicle_type_id":"4","last_reported":1756179335,"current_range_meters":14400,"station_id":"ce4bh412rcd13ifvqds0","pricing_plan_id":"cebpf4jnsgd1na2vs0mg"},{"bike_id":"8ea70c9a-6664-4e1d-9b58-499929bd3925","system_id":"levelo_inurba_marseille","lat":43.2871,"lon":5.3738,"is_reserved":false,"is_disabled":false,"rental_uris":{"android":"levelo://app?vid=8ea70c9a-6664-4e1d-9b58-499929bd3925","ios":"levelo://app?vid=8ea70c9a-6664-4e1d-9b58-499929bd3925"},"vehicle_type_id":"4","last_reported":1756179335,"current_range_meters":14400,"station_id":"ce4bh3p2rcd13ifvqdq0","pricing_plan_id":"cebpf4jnsgd1na2vs0mg"},{"bike_id":"43e3b119-bc6d-43d6-bd47-b924c0bea29c","system_id":"levelo_inurba_marseille","lat":43.27965,"lon":5.4104,"is_reserved":false,"is_disabled":false,"rental_uris":{"android":"levelo://app?vid=43e3b119-bc6d-43d6-bd47-b924c0bea29c","ios":"levelo://app?vid=43e3b119-bc6d-43d6-bd47-b924c0bea29c"},"vehicle_type_id":"4","last_reported":1756179335,"current_range_meters":14400,"station_id":"ce4bhnp2rcd13ifvqh0g","pricing_plan_id":"cebpf4jnsgd1na2vs0mg"},{"bike_id":"af732ca8-2cea-448a-9928-59e03d12656f","system_id":"levelo_inurba_marseille","lat":43.3358,"lon":5.35884,"is_reserved":false,"is_disabled":false,"rental_uris":{"android":"levelo://app?vid=af732ca8-2cea-448a-9928-59e03d12656f","ios":"levelo://app?vid=af732ca8-2cea-448a-9928-59e03d12656f"},"vehicle_type_id":"4","last_reported":1756179335,"current_range_meters":14400,"station_id":"","pricing_plan_id":"cebpf4jnsgd1na2vs0mg"},{"bike_id":"c8fdabc5-2920-449f-b01a-8b4bf7317060","system_id":"levelo_inurba_marseille","lat":43.310834,"lon":5.424299,"is_reserved":false,"is_disabled":false,"rental_uris":{"android":"levelo://app?vid=c8fdabc5-2920-449f-b01a-8b4bf7317060","ios":"levelo://app?vid=c8fdabc5-2920-449f-b01a-8b4bf7317060"},"vehicle_type_id":"4","last_reported":1756179335,"current_range_meters":14400,"station_id":"ce4bhp92rcd13ifvqhag","pricing_plan_id":"cebpf4jnsgd1na2vs0mg"},{"bike_id":"fc44c56e-ee5a-45a6-935e-59b3ec343322","system_id":"levelo_inurba_marseille","lat":43.251068,"lon":5.403186,"is_reserved":false,"is_disabled":false,"rental_uris":{"android":"levelo://app?vid=fc44c56e-ee5a-45a6-935e-59b3ec343322","ios":"levelo://app?vid=fc44c56e-ee5a-45a6-935e-59b3ec343322"},"vehicle_type_id":"4","last_reported":1756179335,"current_range_meters":14400,"station_id":"ce4bhlh2rcd13ifvqgig","pricing_plan_id":"cebpf4jnsgd1na2vs0mg"},{"bike_id":"b375d41b-9575-4c77-a6a9-d089747042e7","system_id":"levelo_inurba_marseille","lat":43.32265,"lon":5.36798,"is_reserved":false,"is_disabled":false,"rental_uris":{"android":"levelo://app?vid=b375d41b-9575-4c77-a6a9-d089747042e7","ios":"levelo://app?vid=b375d41b-9575-4c77-a6a9-d089747042e7"},"vehicle_type_id":"4","last_reported":1756179335,"current_range_meters":14800,"station_id":"","pricing_plan_id":"cebpf4jnsgd1na2vs0mg"},{"bike_id":"8733bc97-b5b4-42d3-a568-2a1441d07ef6","system_id":"levelo_inurba_marseille","lat":43.253343,"lon":5.421861,"is_reserved":false,"is_disabled":false,"rental_uris":{"android":"levelo://app?vid=8733bc97-b5b4-42d3-a568-2a1441d07ef6","ios":"levelo://app?vid=8733bc97-b5b4-42d3-a568-2a1441d07ef6"},"vehicle_type_id":"4","last_reported":1756179335,"current_range_meters":14800,"station_id":"st_d2m65c5bi1j21697t3ng","pricing_plan_id":"cebpf4jnsgd1na2vs0mg"},{"bike_id":"a14433c3-7aa9-4f80-9c97-d039e5623647","system_id":"levelo_inurba_marseille","lat":43.28744,"lon":5.37398,"is_reserved":false,"is_disabled":false,"rental_uris":{"android":"levelo://app?vid=a14433c3-7aa9-4f80-9c97-d039e5623647","ios":"levelo://app?vid=a14433c3-7aa9-4f80-9c97-d039e5623647"},"vehicle_type_id":"4","last_reported":1756179335,"current_range_meters":14800,"station_id":"","pricing_plan_id":"cebpf4jnsgd1na2vs0mg"},{"bike_id":"170ef36c-201a-489d-a9be-a9c1604b7974","system_id":"levelo_inurba_marseille","lat":43.31756,"lon":5.39028,"is_reserved":false,"is_disabled":false,"rental_uris":{"android":"levelo://app?vid=170ef36c-201a-489d-a9be-a9c1604b7974","ios":"levelo://app?vid=170ef36c-201a-489d-a9be-a9c1604b7974"},"vehicle_type_id":"4","last_reported":1756179335,"current_range_meters":14800,"station_id":"ce4bhqp2rcd13ifvqhng","pricing_plan_id":"cebpf4jnsgd1na2vs0mg"},{"bike_id":"a02c36f2-5c73-4274-9dab-3dcfac8b6d0b","system_id":"levelo_inurba_marseille","lat":43.32344,"lon":5.36747,"is_reserved":false,"is_disabled":false,"rental_uris":{"android":"levelo://app?vid=a02c36f2-5c73-4274-9dab-3dcfac8b6d0b","ios":"levelo://app?vid=a02c36f2-5c73-4274-9dab-3dcfac8b6d0b"},"vehicle_type_id":"4","last_reported":1756179335,"current_range_meters":14800,"station_id":"ce4bhsh2rcd13ifvqi2g","pricing_plan_id":"cebpf4jnsgd1na2vs0mg"},{"bike_id":"f4fba232-4930-4e91-8de2-5f5c7be7bbb4","system_id":"levelo_inurba_marseille","lat":43.25717,"lon":5.41113,"is_reserved":false,"is_disabled":false,"rental_uris":{"android":"levelo://app?vid=f4fba232-4930-4e91-8de2-5f5c7be7bbb4","ios":"levelo://app?vid=f4fba232-4930-4e91-8de2-5f5c7be7bbb4"},"vehicle_type_id":"4","last_reported":1756179335,"current_range_meters":14400,"station_id":"ce4bhkp2rcd13ifvqgd0","pricing_plan_id":"cebpf4jnsgd1na2vs0mg"},{"bike_id":"b1f682f1-38f8-4e96-bb40-1a1cf64d4120","system_id":"levelo_inurba_marseille","lat":43.28743,"lon":5.36101,"is_reserved":false,"is_disabled":false,"rental_uris":{"android":"levelo://app?vid=b1f682f1-38f8-4e96-bb40-1a1cf64d4120","ios":"levelo://app?vid=b1f682f1-38f8-4e96-bb40-1a1cf64d4120"},"vehicle_type_id":"4","last_reported":1756179335,"current_range_meters":15200,"station_id":"cki0cbj6b192h4jlfktg","pricing_plan_id":"cebpf4jnsgd1na2vs0mg"},{"bike_id":"b06438df-c376-4130-9282-bf253197da57","system_id":"levelo_inurba_marseille","lat":43.28269,"lon":5.35064,"is_reserved":false,"is_disabled":false,"rental_uris":{"android":"levelo://app?vid=b06438df-c376-4130-9282-bf253197da57","ios":"levelo://app?vid=b06438df-c376-4130-9282-bf253197da57"},"vehicle_type_id":"4","last_reported":1756179335,"current_range_meters":14800,"station_id":"ce4bhbp2rcd13ifvqerg","pricing_plan_id":"cebpf4jnsgd1na2vs0mg"},{"bike_id":"db16d4d4-f1c0-49b8-bedf-0696ab0e7778","system_id":"levelo_inurba_marseille","lat":43.286109,"lon":5.351001,"is_reserved":false,"is_disabled":false,"rental_uris":{"android":"levelo://app?vid=db16d4d4-f1c0-49b8-bedf-0696ab0e7778","ios":"levelo://app?vid=db16d4d4-f1c0-49b8-bedf-0696ab0e7778"},"vehicle_type_id":"4","last_reported":1756179335,"current_range_meters":15200,"station_id":"ce4bhch2rcd13ifvqeug","pricing_plan_id":"cebpf4jnsgd1na2vs0mg"},{"bike_id":"0d502687-08ef-4491-8893-8a03d8688be8","system_id":"levelo_inurba_marseille","lat":43.29614,"lon":5.36098,"is_reserved":false,"is_disabled":false,"rental_uris":{"android":"levelo://app?vid=0d502687-08ef-4491-8893-8a03d8688be8","ios":"levelo://app?vid=0d502687-08ef-4491-8893-8a03d8688be8"},"vehicle_type_id":"4","last_reported":1756179335,"current_range_meters":15200,"station_id":"","pricing_plan_id":"cebpf4jnsgd1na2vs0mg"},{"bike_id":"f84f46c8-243d-42cd-b308-2b289e4c09d3","system_id":"levelo_inurba_marseille","lat":43.334514,"lon":5.356717,"is_reserved":false,"is_disabled":false,"rental_uris":{"android":"levelo://app?vid=f84f46c8-243d-42cd-b308-2b289e4c09d3","ios":"levelo://app?vid=f84f46c8-243d-42cd-b308-2b289e4c09d3"},"vehicle_type_id":"4","last_reported":1756179335,"current_range_meters":15200,"station_id":"","pricing_plan_id":"cebpf4jnsgd1na2vs0mg"},{"bike_id":"70db2b27-b25c-40d9-8b24-f8f8eeee2569","system_id":"levelo_inurba_marseille","lat":43.2417,"lon":5.3967,"is_reserved":false,"is_disabled":false,"rental_uris":{"android":"levelo://app?vid=70db2b27-b25c-40d9-8b24-f8f8eeee2569","ios":"levelo://app?vid=70db2b27-b25c-40d9-8b24-f8f8eeee2569"},"vehicle_type_id":"4","last_reported":1756179335,"current_range_meters":15200,"station_id":"ce4bhn12rcd13ifvqgpg","pricing_plan_id":"cebpf4jnsgd1na2vs0mg"},{"bike_id":"43988c87-51ce-4992-a481-25f525deb229","system_id":"levelo_inurba_marseille","lat":43.30809,"lon":5.38137,"is_reserved":false,"is_disabled":false,"rental_uris":{"android":"levelo://app?vid=43988c87-51ce-4992-a481-25f525deb229","ios":"levelo://app?vid=43988c87-51ce-4992-a481-25f525deb229"},"vehicle_type_id":"4","last_reported":1756179335,"current_range_meters":15200,"station_id":"ce4bgt12rcd13ifvqce0","pricing_plan_id":"cebpf4jnsgd1na2vs0mg"},{"bike_id":"535493b9-9b4b-40c7-897d-6d281b59befb","system_id":"levelo_inurba_marseille","lat":43.258255,"lon":5.394259,"is_reserved":false,"is_disabled":false,"rental_uris":{"android":"levelo://app?vid=535493b9-9b4b-40c7-897d-6d281b59befb","ios":"levelo://app?vid=535493b9-9b4b-40c7-897d-6d281b59befb"},"vehicle_type_id":"4","last_reported":1756179335,"current_range_meters":15200,"station_id":"ce4bhip2rcd13ifvqft0","pricing_plan_id":"cebpf4jnsgd1na2vs0mg"},{"bike_id":"34b05bf9-5565-47a9-a704-66fe97becf52","system_id":"levelo_inurba_marseille","lat":43.3062,"lon":5.37196,"is_reserved":false,"is_disabled":false,"rental_uris":{"android":"levelo://app?vid=34b05bf9-5565-47a9-a704-66fe97becf52","ios":"levelo://app?vid=34b05bf9-5565-47a9-a704-66fe97becf52"},"vehicle_type_id":"4","last_reported":1756179335,"current_range_meters":16000,"station_id":"ce4bgqh2rcd13ifvqc4g","pricing_plan_id":"cebpf4jnsgd1na2vs0mg"},{"bike_id":"9e570ae1-33db-425d-9529-cbab626f0414","system_id":"levelo_inurba_marseille","lat":43.31376,"lon":5.38483,"is_reserved":false,"is_disabled":false,"rental_uris":{"android":"levelo://app?vid=9e570ae1-33db-425d-9529-cbab626f0414","ios":"levelo://app?vid=9e570ae1-33db-425d-9529-cbab626f0414"},"vehicle_type_id":"4","last_reported":1756179335,"current_range_meters":16000,"station_id":"ce4bgt92rcd13ifvqcf0","pricing_plan_id":"cebpf4jnsgd1na2vs0mg"},{"bike_id":"aa977a45-e946-4525-9cd1-e2a5ac5b0bcb","system_id":"levelo_inurba_marseille","lat":43.292799,"lon":5.40117,"is_reserved":false,"is_disabled":false,"rental_uris":{"android":"levelo://app?vid=aa977a45-e946-4525-9cd1-e2a5ac5b0bcb","ios":"levelo://app?vid=aa977a45-e946-4525-9cd1-e2a5ac5b0bcb"},"vehicle_type_id":"4","last_reported":1756179335,"current_range_meters":16000,"station_id":"ce4bh312rcd13ifvqdk0","pricing_plan_id":"cebpf4jnsgd1na2vs0mg"},{"bike_id":"e022ebb3-e2b1-4623-9b6a-f0e8d1502cf0","system_id":"levelo_inurba_marseille","lat":43.26235,"lon":5.40473,"is_reserved":false,"is_disabled":false,"rental_uris":{"android":"levelo://app?vid=e022ebb3-e2b1-4623-9b6a-f0e8d1502cf0","ios":"levelo://app?vid=e022ebb3-e2b1-4623-9b6a-f0e8d1502cf0"},"vehicle_type_id":"4","last_reported":1756179335,"current_range_meters":16000,"station_id":"ce4bhmh2rcd13ifvqgmg","pricing_plan_id":"cebpf4jnsgd1na2vs0mg"},{"bike_id":"b891d3ff-c9da-40a4-99de-c8abd0aa5eb1","system_id":"levelo_inurba_marseille","lat":43.243908,"lon":5.370632,"is_reserved":false,"is_disabled":true,"rental_uris":{"android":"levelo://app?vid=b891d3ff-c9da-40a4-99de-c8abd0aa5eb1","ios":"levelo://app?vid=b891d3ff-c9da-40a4-99de-c8abd0aa5eb1"},"vehicle_type_id":"4","last_reported":1756179335,"current_range_meters":16000,"station_id":"ce4bhhh2rcd13ifvqfk0","pricing_plan_id":"cebpf4jnsgd1na2vs0mg"},{"bike_id":"2198d534-1e4e-4e7b-b2b3-d1e3dccee066","system_id":"levelo_inurba_marseille","lat":43.32102,"lon":5.36775,"is_reserved":false,"is_disabled":false,"rental_uris":{"android":"levelo://app?vid=2198d534-1e4e-4e7b-b2b3-d1e3dccee066","ios":"levelo://app?vid=2198d534-1e4e-4e7b-b2b3-d1e3dccee066"},"vehicle_type_id":"4","last_reported":1756179335,"current_range_meters":16000,"station_id":"ce4bhrh2rcd13ifvqhug","pricing_plan_id":"cebpf4jnsgd1na2vs0mg"},{"bike_id":"c47b2876-c564-417f-9d7f-97cdd2f94270","system_id":"levelo_inurba_marseille","lat":43.24169,"lon":5.36392,"is_reserved":false,"is_disabled":false,"rental_uris":{"android":"levelo://app?vid=c47b2876-c564-417f-9d7f-97cdd2f94270","ios":"levelo://app?vid=c47b2876-c564-417f-9d7f-97cdd2f94270"},"vehicle_type_id":"4","last_reported":1756179335,"current_range_meters":16000,"station_id":"cpo36qri1sfpv3e86is0","pricing_plan_id":"cebpf4jnsgd1na2vs0mg"},{"bike_id":"dac8b466-89b3-423b-b5dc-feecee9dfc11","system_id":"levelo_inurba_marseille","lat":43.30137,"lon":5.38752,"is_reserved":false,"is_disabled":false,"rental_uris":{"android":"levelo://app?vid=dac8b466-89b3-423b-b5dc-feecee9dfc11","ios":"levelo://app?vid=dac8b466-89b3-423b-b5dc-feecee9dfc11"},"vehicle_type_id":"4","last_reported":1756179335,"current_range_meters":16000,"station_id":"ce4bghh2rcd13ifvqb60","pricing_plan_id":"cebpf4jnsgd1na2vs0mg"},{"bike_id":"7612c145-8535-4ccf-96ee-de62f40b9550","system_id":"levelo_inurba_marseille","lat":43.323757,"lon":5.389704,"is_reserved":false,"is_disabled":false,"rental_uris":{"android":"levelo://app?vid=7612c145-8535-4ccf-96ee-de62f40b9550","ios":"levelo://app?vid=7612c145-8535-4ccf-96ee-de62f40b9550"},"vehicle_type_id":"4","last_reported":1756179335,"current_range_meters":16000,"station_id":"","pricing_plan_id":"cebpf4jnsgd1na2vs0mg"},{"bike_id":"51842e17-ef10-4624-a23e-c8a182427991","system_id":"levelo_inurba_marseille","lat":43.31583,"lon":5.38208,"is_reserved":false,"is_disabled":false,"rental_uris":{"android":"levelo://app?vid=51842e17-ef10-4624-a23e-c8a182427991","ios":"levelo://app?vid=51842e17-ef10-4624-a23e-c8a182427991"},"vehicle_type_id":"4","last_reported":1756179335,"current_range_meters":16000,"station_id":"","pricing_plan_id":"cebpf4jnsgd1na2vs0mg"},{"bike_id":"5f9365e2-60dc-4158-a2c3-0e40911a7a32","system_id":"levelo_inurba_marseille","lat":43.33402,"lon":5.40054,"is_reserved":false,"is_disabled":false,"rental_uris":{"android":"levelo://app?vid=5f9365e2-60dc-4158-a2c3-0e40911a7a32","ios":"levelo://app?vid=5f9365e2-60dc-4158-a2c3-0e40911a7a32"},"vehicle_type_id":"4","last_reported":1756179335,"current_range_meters":16000,"station_id":"","pricing_plan_id":"cebpf4jnsgd1na2vs0mg"},{"bike_id":"8524e8c9-f334-4849-b5f4-ee765f7a5f70","system_id":"levelo_inurba_marseille","lat":43.32336,"lon":5.4061,"is_reserved":false,"is_disabled":false,"rental_uris":{"android":"levelo://app?vid=8524e8c9-f334-4849-b5f4-ee765f7a5f70","ios":"levelo://app?vid=8524e8c9-f334-4849-b5f4-ee765f7a5f70"},"vehicle_type_id":"4","last_reported":1756179335,"current_range_meters":16400,"station_id":"ce4bhq92rcd13ifvqhjg","pricing_plan_id":"cebpf4jnsgd1na2vs0mg"},{"bike_id":"943d95a7-9535-411f-ba22-8068aaf6ac69","system_id":"levelo_inurba_marseille","lat":43.29627,"lon":5.38111,"is_reserved":false,"is_disabled":true,"rental_uris":{"android":"levelo://app?vid=943d95a7-9535-411f-ba22-8068aaf6ac69","ios":"levelo://app?vid=943d95a7-9535-411f-ba22-8068aaf6ac69"},"vehicle_type_id":"4","last_reported":1756179335,"current_range_meters":16400,"station_id":"ce4bgl12rcd13ifvqbo0","pricing_plan_id":"cebpf4jnsgd1na2vs0mg"},{"bike_id":"cac50b5f-bb71-496c-93cc-73c499b51346","system_id":"levelo_inurba_marseille","lat":43.26487,"lon":5.39539,"is_reserved":false,"is_disabled":false,"rental_uris":{"android":"levelo://app?vid=cac50b5f-bb71-496c-93cc-73c499b51346","ios":"levelo://app?vid=cac50b5f-bb71-496c-93cc-73c499b51346"},"vehicle_type_id":"4","last_reported":1756179335,"current_range_meters":16400,"station_id":"ce4bhi12rcd13ifvqfq0","pricing_plan_id":"cebpf4jnsgd1na2vs0mg"},{"bike_id":"1c889b09-8cad-434d-bfd5-5f7e6198ad13","system_id":"levelo_inurba_marseille","lat":43.2318,"lon":5.39989,"is_reserved":false,"is_disabled":false,"rental_uris":{"android":"levelo://app?vid=1c889b09-8cad-434d-bfd5-5f7e6198ad13","ios":"levelo://app?vid=1c889b09-8cad-434d-bfd5-5f7e6198ad13"},"vehicle_type_id":"4","last_reported":1756179335,"current_range_meters":16400,"station_id":"ce4bhn12rcd13ifvqgqg","pricing_plan_id":"cebpf4jnsgd1na2vs0mg"},{"bike_id":"a15a1c44-718b-407d-acaa-0383628c87d7","system_id":"levelo_inurba_marseille","lat":43.32693,"lon":5.39188,"is_reserved":false,"is_disabled":false,"rental_uris":{"android":"levelo://app?vid=a15a1c44-718b-407d-acaa-0383628c87d7","ios":"levelo://app?vid=a15a1c44-718b-407d-acaa-0383628c87d7"},"vehicle_type_id":"4","last_reported":1756179335,"current_range_meters":16400,"station_id":"","pricing_plan_id":"cebpf4jnsgd1na2vs0mg"},{"bike_id":"f50e029c-78e4-4943-96e6-f587e062386c","system_id":"levelo_inurba_marseille","lat":43.317168,"lon":5.424142,"is_reserved":false,"is_disabled":false,"rental_uris":{"android":"levelo://app?vid=f50e029c-78e4-4943-96e6-f587e062386c","ios":"levelo://app?vid=f50e029c-78e4-4943-96e6-f587e062386c"},"vehicle_type_id":"4","last_reported":1756179335,"current_range_meters":16400,"station_id":"ce4bhp92rcd13ifvqhbg","pricing_plan_id":"cebpf4jnsgd1na2vs0mg"},{"bike_id":"31fef4f9-2338-49d8-a486-1abcacc2b1f5","system_id":"levelo_inurba_marseille","lat":43.32346,"lon":5.40623,"is_reserved":false,"is_disabled":false,"rental_uris":{"android":"levelo://app?vid=31fef4f9-2338-49d8-a486-1abcacc2b1f5","ios":"levelo://app?vid=31fef4f9-2338-49d8-a486-1abcacc2b1f5"},"vehicle_type_id":"4","last_reported":1756179335,"current_range_meters":16400,"station_id":"ce4bhq92rcd13ifvqhjg","pricing_plan_id":"cebpf4jnsgd1na2vs0mg"},{"bike_id":"04197f1a-52bc-43b8-9d74-c5e9c8571af6","system_id":"levelo_inurba_marseille","lat":43.278267,"lon":5.392078,"is_reserved":false,"is_disabled":false,"rental_uris":{"android":"levelo://app?vid=04197f1a-52bc-43b8-9d74-c5e9c8571af6","ios":"levelo://app?vid=04197f1a-52bc-43b8-9d74-c5e9c8571af6"},"vehicle_type_id":"4","last_reported":1756179335,"current_range_meters":16400,"station_id":"ce4bhjp2rcd13ifvqga0","pricing_plan_id":"cebpf4jnsgd1na2vs0mg"},{"bike_id":"c52af379-7ffc-4800-a6f9-6e5ea70df2d5","system_id":"levelo_inurba_marseille","lat":43.24651,"lon":5.38156,"is_reserved":false,"is_disabled":false,"rental_uris":{"android":"levelo://app?vid=c52af379-7ffc-4800-a6f9-6e5ea70df2d5","ios":"levelo://app?vid=c52af379-7ffc-4800-a6f9-6e5ea70df2d5"},"vehicle_type_id":"4","last_reported":1756179335,"current_range_meters":16400,"station_id":"ce4bhih2rcd13ifvqfr0","pricing_plan_id":"cebpf4jnsgd1na2vs0mg"},{"bike_id":"96a0eeab-9497-4ad3-944b-4bedd9f0993a","system_id":"levelo_inurba_marseille","lat":43.3248,"lon":5.36564,"is_reserved":false,"is_disabled":true,"rental_uris":{"android":"levelo://app?vid=96a0eeab-9497-4ad3-944b-4bedd9f0993a","ios":"levelo://app?vid=96a0eeab-9497-4ad3-944b-4bedd9f0993a"},"vehicle_type_id":"4","last_reported":1756179335,"current_range_meters":16800,"station_id":"ce4bhs12rcd13ifvqhvg","pricing_plan_id":"cebpf4jnsgd1na2vs0mg"},{"bike_id":"72f6893b-e1a6-4741-aa57-e762849eda44","system_id":"levelo_inurba_marseille","lat":43.31748,"lon":5.39024,"is_reserved":false,"is_disabled":true,"rental_uris":{"android":"levelo://app?vid=72f6893b-e1a6-4741-aa57-e762849eda44","ios":"levelo://app?vid=72f6893b-e1a6-4741-aa57-e762849eda44"},"vehicle_type_id":"4","last_reported":1756179335,"current_range_meters":16800,"station_id":"ce4bhqp2rcd13ifvqhng","pricing_plan_id":"cebpf4jnsgd1na2vs0mg"},{"bike_id":"00749c5a-2954-4755-9f4f-2b966581ffb4","system_id":"levelo_inurba_marseille","lat":43.25006,"lon":5.38929,"is_reserved":false,"is_disabled":false,"rental_uris":{"android":"levelo://app?vid=00749c5a-2954-4755-9f4f-2b966581ffb4","ios":"levelo://app?vid=00749c5a-2954-4755-9f4f-2b966581ffb4"},"vehicle_type_id":"4","last_reported":1756179335,"current_range_meters":16800,"station_id":"ce4bhgp2rcd13ifvqfd0","pricing_plan_id":"cebpf4jnsgd1na2vs0mg"},{"bike_id":"90106b61-39ba-4550-9728-cd6a51353a17","system_id":"levelo_inurba_marseille","lat":43.212022,"lon":5.350602,"is_reserved":false,"is_disabled":false,"rental_uris":{"android":"levelo://app?vid=90106b61-39ba-4550-9728-cd6a51353a17","ios":"levelo://app?vid=90106b61-39ba-4550-9728-cd6a51353a17"},"vehicle_type_id":"4","last_reported":1756179335,"current_range_meters":16800,"station_id":"st_cvj6sg6p6f1abm77japg","pricing_plan_id":"cebpf4jnsgd1na2vs0mg"},{"bike_id":"96b831ad-46a8-4a91-bc52-948869fed356","system_id":"levelo_inurba_marseille","lat":43.27919,"lon":5.39571,"is_reserved":false,"is_disabled":false,"rental_uris":{"android":"levelo://app?vid=96b831ad-46a8-4a91-bc52-948869fed356","ios":"levelo://app?vid=96b831ad-46a8-4a91-bc52-948869fed356"},"vehicle_type_id":"4","last_reported":1756179335,"current_range_meters":16800,"station_id":"ce4bhf92rcd13ifvqf40","pricing_plan_id":"cebpf4jnsgd1na2vs0mg"},{"bike_id":"d158d3e1-3007-4b2d-94e4-d04fa529d77a","system_id":"levelo_inurba_marseille","lat":43.29851,"lon":5.36276,"is_reserved":false,"is_disabled":false,"rental_uris":{"android":"levelo://app?vid=d158d3e1-3007-4b2d-94e4-d04fa529d77a","ios":"levelo://app?vid=d158d3e1-3007-4b2d-94e4-d04fa529d77a"},"vehicle_type_id":"4","last_reported":1756179335,"current_range_meters":16800,"station_id":"ce4bgpp2rcd13ifvqc3g","pricing_plan_id":"cebpf4jnsgd1na2vs0mg"},{"bike_id":"b08d0d63-d495-4173-8c85-a055b48de9dc","system_id":"levelo_inurba_marseille","lat":43.28998,"lon":5.35608,"is_reserved":false,"is_disabled":true,"rental_uris":{"android":"levelo://app?vid=b08d0d63-d495-4173-8c85-a055b48de9dc","ios":"levelo://app?vid=b08d0d63-d495-4173-8c85-a055b48de9dc"},"vehicle_type_id":"4","last_reported":1756179335,"current_range_meters":16800,"station_id":"ce4bhb92rcd13ifvqen0","pricing_plan_id":"cebpf4jnsgd1na2vs0mg"},{"bike_id":"50080086-5ad6-41c2-b993-d4f4d5e2439a","system_id":"levelo_inurba_marseille","lat":43.329439,"lon":5.389591,"is_reserved":false,"is_disabled":false,"rental_uris":{"android":"levelo://app?vid=50080086-5ad6-41c2-b993-d4f4d5e2439a","ios":"levelo://app?vid=50080086-5ad6-41c2-b993-d4f4d5e2439a"},"vehicle_type_id":"4","last_reported":1756179335,"current_range_meters":17200,"station_id":"ce4bhr92rcd13ifvqhrg","pricing_plan_id":"cebpf4jnsgd1na2vs0mg"},{"bike_id":"0c915175-057c-4921-a940-8dded6e797b0","system_id":"levelo_inurba_marseille","lat":43.24803,"lon":5.37456,"is_reserved":false,"is_disabled":false,"rental_uris":{"android":"levelo://app?vid=0c915175-057c-4921-a940-8dded6e797b0","ios":"levelo://app?vid=0c915175-057c-4921-a940-8dded6e797b0"},"vehicle_type_id":"4","last_reported":1756179335,"current_range_meters":17200,"station_id":"ce4bhgh2rcd13ifvqfb0","pricing_plan_id":"cebpf4jnsgd1na2vs0mg"},{"bike_id":"826f9c0a-980b-43d8-bf4c-e43d77c221ed","system_id":"levelo_inurba_marseille","lat":43.23185,"lon":5.39999,"is_reserved":false,"is_disabled":false,"rental_uris":{"android":"levelo://app?vid=826f9c0a-980b-43d8-bf4c-e43d77c221ed","ios":"levelo://app?vid=826f9c0a-980b-43d8-bf4c-e43d77c221ed"},"vehicle_type_id":"4","last_reported":1756179335,"current_range_meters":17200,"station_id":"ce4bhn12rcd13ifvqgqg","pricing_plan_id":"cebpf4jnsgd1na2vs0mg"},{"bike_id":"f0c85809-eae3-4667-93f3-6a8b97e55bc3","system_id":"levelo_inurba_marseille","lat":43.287671,"lon":5.429347,"is_reserved":false,"is_disabled":false,"rental_uris":{"android":"levelo://app?vid=f0c85809-eae3-4667-93f3-6a8b97e55bc3","ios":"levelo://app?vid=f0c85809-eae3-4667-93f3-6a8b97e55bc3"},"vehicle_type_id":"4","last_reported":1756179335,"current_range_meters":17200,"station_id":"","pricing_plan_id":"cebpf4jnsgd1na2vs0mg"},{"bike_id":"d9c96678-e9a6-40c1-9b5b-5ec6c324790d","system_id":"levelo_inurba_marseille","lat":43.28554,"lon":5.39471,"is_reserved":false,"is_disabled":false,"rental_uris":{"android":"levelo://app?vid=d9c96678-e9a6-40c1-9b5b-5ec6c324790d","ios":"levelo://app?vid=d9c96678-e9a6-40c1-9b5b-5ec6c324790d"},"vehicle_type_id":"4","last_reported":1756179335,"current_range_meters":17200,"station_id":"ce4bh292rcd13ifvqdg0","pricing_plan_id":"cebpf4jnsgd1na2vs0mg"},{"bike_id":"ff1cb3c0-6938-4213-b3d9-db0ef56b8bd3","system_id":"levelo_inurba_marseille","lat":43.312686,"lon":5.401748,"is_reserved":false,"is_disabled":false,"rental_uris":{"android":"levelo://app?vid=ff1cb3c0-6938-4213-b3d9-db0ef56b8bd3","ios":"levelo://app?vid=ff1cb3c0-6938-4213-b3d9-db0ef56b8bd3"},"vehicle_type_id":"4","last_reported":1756179335,"current_range_meters":17200,"station_id":"ce4bh092rcd13ifvqd30","pricing_plan_id":"cebpf4jnsgd1na2vs0mg"},{"bike_id":"bc4fabc1-49d3-4d30-ae41-26261331568a","system_id":"levelo_inurba_marseille","lat":43.281516,"lon":5.426388,"is_reserved":false,"is_disabled":false,"rental_uris":{"android":"levelo://app?vid=bc4fabc1-49d3-4d30-ae41-26261331568a","ios":"levelo://app?vid=bc4fabc1-49d3-4d30-ae41-26261331568a"},"vehicle_type_id":"4","last_reported":1756179335,"current_range_meters":17200,"station_id":"ce4bhnh2rcd13ifvqgug","pricing_plan_id":"cebpf4jnsgd1na2vs0mg"},{"bike_id":"db7d3d83-f39a-4469-8445-29697e69fec4","system_id":"levelo_inurba_marseille","lat":43.32228,"lon":5.38566,"is_reserved":false,"is_disabled":false,"rental_uris":{"android":"levelo://app?vid=db7d3d83-f39a-4469-8445-29697e69fec4","ios":"levelo://app?vid=db7d3d83-f39a-4469-8445-29697e69fec4"},"vehicle_type_id":"4","last_reported":1756179335,"current_range_meters":17200,"station_id":"","pricing_plan_id":"cebpf4jnsgd1na2vs0mg"},{"bike_id":"f0400c37-c7f6-4929-b1ac-d92430ff6f2d","system_id":"levelo_inurba_marseille","lat":43.27669,"lon":5.3974,"is_reserved":false,"is_disabled":false,"rental_uris":{"android":"levelo://app?vid=f0400c37-c7f6-4929-b1ac-d92430ff6f2d","ios":"levelo://app?vid=f0400c37-c7f6-4929-b1ac-d92430ff6f2d"},"vehicle_type_id":"4","last_reported":1756179335,"current_range_meters":17600,"station_id":"","pricing_plan_id":"cebpf4jnsgd1na2vs0mg"},{"bike_id":"709d0951-ebff-42c5-b9f9-92d89de2f8fb","system_id":"levelo_inurba_marseille","lat":43.29593,"lon":5.37671,"is_reserved":false,"is_disabled":true,"rental_uris":{"android":"levelo://app?vid=709d0951-ebff-42c5-b9f9-92d89de2f8fb","ios":"levelo://app?vid=709d0951-ebff-42c5-b9f9-92d89de2f8fb"},"vehicle_type_id":"4","last_reported":1756179335,"current_range_meters":17600,"station_id":"","pricing_plan_id":"cebpf4jnsgd1na2vs0mg"},{"bike_id":"a7cf380d-ca55-46f9-88ca-c0606390f591","system_id":"levelo_inurba_marseille","lat":43.2408,"lon":5.37764,"is_reserved":false,"is_disabled":false,"rental_uris":{"android":"levelo://app?vid=a7cf380d-ca55-46f9-88ca-c0606390f591","ios":"levelo://app?vid=a7cf380d-ca55-46f9-88ca-c0606390f591"},"vehicle_type_id":"4","last_reported":1756179335,"current_range_meters":17600,"station_id":"ce4bhnp2rcd13ifvqgvg","pricing_plan_id":"cebpf4jnsgd1na2vs0mg"},{"bike_id":"ecb43efe-4976-4c63-bc05-65cd8f38e28b","system_id":"levelo_inurba_marseille","lat":43.29281,"lon":5.40129,"is_reserved":false,"is_disabled":false,"rental_uris":{"android":"levelo://app?vid=ecb43efe-4976-4c63-bc05-65cd8f38e28b","ios":"levelo://app?vid=ecb43efe-4976-4c63-bc05-65cd8f38e28b"},"vehicle_type_id":"4","last_reported":1756179335,"current_range_meters":17600,"station_id":"ce4bh312rcd13ifvqdk0","pricing_plan_id":"cebpf4jnsgd1na2vs0mg"},{"bike_id":"db84aae5-bd74-44c2-877e-c6a4b9a0199c","system_id":"levelo_inurba_marseille","lat":43.2933,"lon":5.37188,"is_reserved":false,"is_disabled":true,"rental_uris":{"android":"levelo://app?vid=db84aae5-bd74-44c2-877e-c6a4b9a0199c","ios":"levelo://app?vid=db84aae5-bd74-44c2-877e-c6a4b9a0199c"},"vehicle_type_id":"4","last_reported":1756179335,"current_range_meters":17600,"station_id":"ce4bgh92rcd13ifvqb40","pricing_plan_id":"cebpf4jnsgd1na2vs0mg"},{"bike_id":"150e78ac-a5f4-4248-9747-4c3d95090267","system_id":"levelo_inurba_marseille","lat":43.309318,"lon":5.40142,"is_reserved":false,"is_disabled":false,"rental_uris":{"android":"levelo://app?vid=150e78ac-a5f4-4248-9747-4c3d95090267","ios":"levelo://app?vid=150e78ac-a5f4-4248-9747-4c3d95090267"},"vehicle_type_id":"4","last_reported":1756179335,"current_range_meters":17600,"station_id":"ce4bgvp2rcd13ifvqct0","pricing_plan_id":"cebpf4jnsgd1na2vs0mg"},{"bike_id":"e627202f-33fe-48e9-b420-92cf3279a2e7","system_id":"levelo_inurba_marseille","lat":43.30955,"lon":5.40148,"is_reserved":false,"is_disabled":false,"rental_uris":{"android":"levelo://app?vid=e627202f-33fe-48e9-b420-92cf3279a2e7","ios":"levelo://app?vid=e627202f-33fe-48e9-b420-92cf3279a2e7"},"vehicle_type_id":"4","last_reported":1756179335,"current_range_meters":17600,"station_id":"ce4bgvp2rcd13ifvqct0","pricing_plan_id":"cebpf4jnsgd1na2vs0mg"},{"bike_id":"de66a995-ebeb-45b9-b3d9-e37c2103b9b5","system_id":"levelo_inurba_marseille","lat":43.27179,"lon":5.409883,"is_reserved":false,"is_disabled":false,"rental_uris":{"android":"levelo://app?vid=de66a995-ebeb-45b9-b3d9-e37c2103b9b5","ios":"levelo://app?vid=de66a995-ebeb-45b9-b3d9-e37c2103b9b5"},"vehicle_type_id":"4","last_reported":1756179335,"current_range_meters":17600,"station_id":"ce4bhl12rcd13ifvqgf0","pricing_plan_id":"cebpf4jnsgd1na2vs0mg"},{"bike_id":"547e9b96-9c55-431a-bfba-68a5bf6594bc","system_id":"levelo_inurba_marseille","lat":43.289988,"lon":5.356229,"is_reserved":false,"is_disabled":true,"rental_uris":{"android":"levelo://app?vid=547e9b96-9c55-431a-bfba-68a5bf6594bc","ios":"levelo://app?vid=547e9b96-9c55-431a-bfba-68a5bf6594bc"},"vehicle_type_id":"4","last_reported":1756179335,"current_range_meters":17600,"station_id":"ce4bhb92rcd13ifvqen0","pricing_plan_id":"cebpf4jnsgd1na2vs0mg"},{"bike_id":"c074df6b-f094-42e8-9430-f2f34f0ef1eb","system_id":"levelo_inurba_marseille","lat":43.29856,"lon":5.36286,"is_reserved":false,"is_disabled":true,"rental_uris":{"android":"levelo://app?vid=c074df6b-f094-42e8-9430-f2f34f0ef1eb","ios":"levelo://app?vid=c074df6b-f094-42e8-9430-f2f34f0ef1eb"},"vehicle_type_id":"4","last_reported":1756179335,"current_range_meters":17600,"station_id":"ce4bgpp2rcd13ifvqc3g","pricing_plan_id":"cebpf4jnsgd1na2vs0mg"},{"bike_id":"777a8c83-aed8-4881-84b6-34465956e738","system_id":"levelo_inurba_marseille","lat":43.25718,"lon":5.40995,"is_reserved":false,"is_disabled":false,"rental_uris":{"android":"levelo://app?vid=777a8c83-aed8-4881-84b6-34465956e738","ios":"levelo://app?vid=777a8c83-aed8-4881-84b6-34465956e738"},"vehicle_type_id":"4","last_reported":1756179335,"current_range_meters":17600,"station_id":"","pricing_plan_id":"cebpf4jnsgd1na2vs0mg"},{"bike_id":"507bfa7a-77ad-4faf-874f-5e94ad334f53","system_id":"levelo_inurba_marseille","lat":43.23205,"lon":5.40019,"is_reserved":false,"is_disabled":false,"rental_uris":{"android":"levelo://app?vid=507bfa7a-77ad-4faf-874f-5e94ad334f53","ios":"levelo://app?vid=507bfa7a-77ad-4faf-874f-5e94ad334f53"},"vehicle_type_id":"4","last_reported":1756179335,"current_range_meters":17600,"station_id":"ce4bhn12rcd13ifvqgqg","pricing_plan_id":"cebpf4jnsgd1na2vs0mg"},{"bike_id":"a18ffe87-a63c-4033-9747-cc2551813b2c","system_id":"levelo_inurba_marseille","lat":43.31218,"lon":5.38605,"is_reserved":false,"is_disabled":false,"rental_uris":{"android":"levelo://app?vid=a18ffe87-a63c-4033-9747-cc2551813b2c","ios":"levelo://app?vid=a18ffe87-a63c-4033-9747-cc2551813b2c"},"vehicle_type_id":"4","last_reported":1756179335,"current_range_meters":17600,"station_id":"","pricing_plan_id":"cebpf4jnsgd1na2vs0mg"},{"bike_id":"af744081-2681-4d1e-9525-a9843cca33d2","system_id":"levelo_inurba_marseille","lat":43.325379,"lon":5.364644,"is_reserved":false,"is_disabled":false,"rental_uris":{"android":"levelo://app?vid=af744081-2681-4d1e-9525-a9843cca33d2","ios":"levelo://app?vid=af744081-2681-4d1e-9525-a9843cca33d2"},"vehicle_type_id":"4","last_reported":1756179335,"current_range_meters":17600,"station_id":"","pricing_plan_id":"cebpf4jnsgd1na2vs0mg"},{"bike_id":"070c5c08-8102-4233-9aa2-6dc44cc7988e","system_id":"levelo_inurba_marseille","lat":43.302906,"lon":5.384192,"is_reserved":false,"is_disabled":false,"rental_uris":{"android":"levelo://app?vid=070c5c08-8102-4233-9aa2-6dc44cc7988e","ios":"levelo://app?vid=070c5c08-8102-4233-9aa2-6dc44cc7988e"},"vehicle_type_id":"4","last_reported":1756179335,"current_range_meters":18000,"station_id":"","pricing_plan_id":"cebpf4jnsgd1na2vs0mg"},{"bike_id":"39665dfe-0da4-401a-a163-a7c2423711a2","system_id":"levelo_inurba_marseille","lat":43.28758,"lon":5.37394,"is_reserved":false,"is_disabled":false,"rental_uris":{"android":"levelo://app?vid=39665dfe-0da4-401a-a163-a7c2423711a2","ios":"levelo://app?vid=39665dfe-0da4-401a-a163-a7c2423711a2"},"vehicle_type_id":"4","last_reported":1756179335,"current_range_meters":18000,"station_id":"","pricing_plan_id":"cebpf4jnsgd1na2vs0mg"},{"bike_id":"12b52f93-1c3a-4d46-9ac3-2c24be81660a","system_id":"levelo_inurba_marseille","lat":43.211848,"lon":5.350803,"is_reserved":false,"is_disabled":false,"rental_uris":{"android":"levelo://app?vid=12b52f93-1c3a-4d46-9ac3-2c24be81660a","ios":"levelo://app?vid=12b52f93-1c3a-4d46-9ac3-2c24be81660a"},"vehicle_type_id":"4","last_reported":1756179335,"current_range_meters":18000,"station_id":"st_cvj6sg6p6f1abm77japg","pricing_plan_id":"cebpf4jnsgd1na2vs0mg"},{"bike_id":"67e8b54b-a1a6-4abf-820c-93867c6e5613","system_id":"levelo_inurba_marseille","lat":43.284495,"lon":5.359007,"is_reserved":false,"is_disabled":false,"rental_uris":{"android":"levelo://app?vid=67e8b54b-a1a6-4abf-820c-93867c6e5613","ios":"levelo://app?vid=67e8b54b-a1a6-4abf-820c-93867c6e5613"},"vehicle_type_id":"4","last_reported":1756179335,"current_range_meters":18000,"station_id":"ce4bhah2rcd13ifvqei0","pricing_plan_id":"cebpf4jnsgd1na2vs0mg"},{"bike_id":"b753ccd6-6b24-49a3-8eb7-d5bd3bbe2779","system_id":"levelo_inurba_marseille","lat":43.31687,"lon":5.40472,"is_reserved":false,"is_disabled":false,"rental_uris":{"android":"levelo://app?vid=b753ccd6-6b24-49a3-8eb7-d5bd3bbe2779","ios":"levelo://app?vid=b753ccd6-6b24-49a3-8eb7-d5bd3bbe2779"},"vehicle_type_id":"4","last_reported":1756179335,"current_range_meters":18000,"station_id":"ce4bh012rcd13ifvqd00","pricing_plan_id":"cebpf4jnsgd1na2vs0mg"},{"bike_id":"a5e51e24-ab9a-41f2-b8a9-101abf1cf291","system_id":"levelo_inurba_marseille","lat":43.26073,"lon":5.39374,"is_reserved":false,"is_disabled":true,"rental_uris":{"android":"levelo://app?vid=a5e51e24-ab9a-41f2-b8a9-101abf1cf291","ios":"levelo://app?vid=a5e51e24-ab9a-41f2-b8a9-101abf1cf291"},"vehicle_type_id":"4","last_reported":1756179335,"current_range_meters":18000,"station_id":"ce4bhh92rcd13ifvqfj0","pricing_plan_id":"cebpf4jnsgd1na2vs0mg"},{"bike_id":"b999567b-fb99-4c3c-b2b0-ef1bc7a89235","system_id":"levelo_inurba_marseille","lat":43.30111,"lon":5.39043,"is_reserved":false,"is_disabled":false,"rental_uris":{"android":"levelo://app?vid=b999567b-fb99-4c3c-b2b0-ef1bc7a89235","ios":"levelo://app?vid=b999567b-fb99-4c3c-b2b0-ef1bc7a89235"},"vehicle_type_id":"4","last_reported":1756179335,"current_range_meters":18000,"station_id":"ce4bh192rcd13ifvqdb0","pricing_plan_id":"cebpf4jnsgd1na2vs0mg"},{"bike_id":"17c022af-d289-46e8-9b3f-6c6dca80c62d","system_id":"levelo_inurba_marseille","lat":43.30772,"lon":5.37654,"is_reserved":false,"is_disabled":false,"rental_uris":{"android":"levelo://app?vid=17c022af-d289-46e8-9b3f-6c6dca80c62d","ios":"levelo://app?vid=17c022af-d289-46e8-9b3f-6c6dca80c62d"},"vehicle_type_id":"4","last_reported":1756179335,"current_range_meters":18800,"station_id":"ce4bgv92rcd13ifvqcq0","pricing_plan_id":"cebpf4jnsgd1na2vs0mg"},{"bike_id":"f9182c4b-ce39-4e98-b64b-2897f40a8141","system_id":"levelo_inurba_marseille","lat":43.313303,"lon":5.397093,"is_reserved":false,"is_disabled":false,"rental_uris":{"android":"levelo://app?vid=f9182c4b-ce39-4e98-b64b-2897f40a8141","ios":"levelo://app?vid=f9182c4b-ce39-4e98-b64b-2897f40a8141"},"vehicle_type_id":"4","last_reported":1756179335,"current_range_meters":18800,"station_id":"ce4bgvp2rcd13ifvqcu0","pricing_plan_id":"cebpf4jnsgd1na2vs0mg"},{"bike_id":"7be24791-031e-4449-ae63-6f7c90c7de96","system_id":"levelo_inurba_marseille","lat":43.30644,"lon":5.40072,"is_reserved":false,"is_disabled":false,"rental_uris":{"android":"levelo://app?vid=7be24791-031e-4449-ae63-6f7c90c7de96","ios":"levelo://app?vid=7be24791-031e-4449-ae63-6f7c90c7de96"},"vehicle_type_id":"4","last_reported":1756179335,"current_range_meters":18800,"station_id":"ce4bh112rcd13ifvqda0","pricing_plan_id":"cebpf4jnsgd1na2vs0mg"},{"bike_id":"162441e5-2e3b-4dc8-93f8-80ae2457d49c","system_id":"levelo_inurba_marseille","lat":43.281009,"lon":5.378517,"is_reserved":false,"is_disabled":true,"rental_uris":{"android":"levelo://app?vid=162441e5-2e3b-4dc8-93f8-80ae2457d49c","ios":"levelo://app?vid=162441e5-2e3b-4dc8-93f8-80ae2457d49c"},"vehicle_type_id":"4","last_reported":1756179335,"current_range_meters":18800,"station_id":"ce4bha12rcd13ifvqee0","pricing_plan_id":"cebpf4jnsgd1na2vs0mg"},{"bike_id":"0005b112-9341-46f3-983d-4174eb3a8e0b","system_id":"levelo_inurba_marseille","lat":43.30304,"lon":5.39198,"is_reserved":false,"is_disabled":true,"rental_uris":{"android":"levelo://app?vid=0005b112-9341-46f3-983d-4174eb3a8e0b","ios":"levelo://app?vid=0005b112-9341-46f3-983d-4174eb3a8e0b"},"vehicle_type_id":"4","last_reported":1756179335,"current_range_meters":18800,"station_id":"ce4bgkh2rcd13ifvqbk0","pricing_plan_id":"cebpf4jnsgd1na2vs0mg"},{"bike_id":"1f8abda0-b398-458e-b1d4-8f630b737e5e","system_id":"levelo_inurba_marseille","lat":43.257237,"lon":5.411177,"is_reserved":false,"is_disabled":false,"rental_uris":{"android":"levelo://app?vid=1f8abda0-b398-458e-b1d4-8f630b737e5e","ios":"levelo://app?vid=1f8abda0-b398-458e-b1d4-8f630b737e5e"},"vehicle_type_id":"4","last_reported":1756179335,"current_range_meters":18800,"station_id":"ce4bhkp2rcd13ifvqgd0","pricing_plan_id":"cebpf4jnsgd1na2vs0mg"},{"bike_id":"1c9aa376-cf03-43e6-bd79-a69ad984688d","system_id":"levelo_inurba_marseille","lat":43.270733,"lon":5.422716,"is_reserved":false,"is_disabled":false,"rental_uris":{"android":"levelo://app?vid=1c9aa376-cf03-43e6-bd79-a69ad984688d","ios":"levelo://app?vid=1c9aa376-cf03-43e6-bd79-a69ad984688d"},"vehicle_type_id":"4","last_reported":1756179335,"current_range_meters":18800,"station_id":"ce4bhk92rcd13ifvqgb0","pricing_plan_id":"cebpf4jnsgd1na2vs0mg"},{"bike_id":"b4330464-2203-4dca-a614-3112ed0839a1","system_id":"levelo_inurba_marseille","lat":43.287054,"lon":5.399848,"is_reserved":false,"is_disabled":false,"rental_uris":{"android":"levelo://app?vid=b4330464-2203-4dca-a614-3112ed0839a1","ios":"levelo://app?vid=b4330464-2203-4dca-a614-3112ed0839a1"},"vehicle_type_id":"4","last_reported":1756179335,"current_range_meters":18800,"station_id":"ce4bho92rcd13ifvqh3g","pricing_plan_id":"cebpf4jnsgd1na2vs0mg"},{"bike_id":"0c05f254-89c0-4f94-abdb-f664c97a78a0","system_id":"levelo_inurba_marseille","lat":43.306092,"lon":5.372021,"is_reserved":false,"is_disabled":false,"rental_uris":{"android":"levelo://app?vid=0c05f254-89c0-4f94-abdb-f664c97a78a0","ios":"levelo://app?vid=0c05f254-89c0-4f94-abdb-f664c97a78a0"},"vehicle_type_id":"4","last_reported":1756179335,"current_range_meters":18800,"station_id":"ce4bgqh2rcd13ifvqc4g","pricing_plan_id":"cebpf4jnsgd1na2vs0mg"},{"bike_id":"9ff18348-555f-4cde-bb7b-dc1f37d18527","system_id":"levelo_inurba_marseille","lat":43.28348,"lon":5.3811,"is_reserved":false,"is_disabled":false,"rental_uris":{"android":"levelo://app?vid=9ff18348-555f-4cde-bb7b-dc1f37d18527","ios":"levelo://app?vid=9ff18348-555f-4cde-bb7b-dc1f37d18527"},"vehicle_type_id":"4","last_reported":1756179335,"current_range_meters":18800,"station_id":"ce4bh412rcd13ifvqdr0","pricing_plan_id":"cebpf4jnsgd1na2vs0mg"},{"bike_id":"d8eaf8ad-6c3f-4888-8227-c610affa2d19","system_id":"levelo_inurba_marseille","lat":43.30164,"lon":5.39875,"is_reserved":false,"is_disabled":true,"rental_uris":{"android":"levelo://app?vid=d8eaf8ad-6c3f-4888-8227-c610affa2d19","ios":"levelo://app?vid=d8eaf8ad-6c3f-4888-8227-c610affa2d19"},"vehicle_type_id":"4","last_reported":1756179335,"current_range_meters":18800,"station_id":"ce4bh0h2rcd13ifvqd40","pricing_plan_id":"cebpf4jnsgd1na2vs0mg"},{"bike_id":"03fbdc52-e58a-47b6-96a9-5694cce10130","system_id":"levelo_inurba_marseille","lat":43.30666,"lon":5.4007,"is_reserved":false,"is_disabled":false,"rental_uris":{"android":"levelo://app?vid=03fbdc52-e58a-47b6-96a9-5694cce10130","ios":"levelo://app?vid=03fbdc52-e58a-47b6-96a9-5694cce10130"},"vehicle_type_id":"4","last_reported":1756179335,"current_range_meters":18800,"station_id":"ce4bh112rcd13ifvqda0","pricing_plan_id":"cebpf4jnsgd1na2vs0mg"},{"bike_id":"7bcee3a5-b2f0-40b3-ac35-58ad6f7aa7c7","system_id":"levelo_inurba_marseille","lat":43.28016,"lon":5.36562,"is_reserved":false,"is_disabled":false,"rental_uris":{"android":"levelo://app?vid=7bcee3a5-b2f0-40b3-ac35-58ad6f7aa7c7","ios":"levelo://app?vid=7bcee3a5-b2f0-40b3-ac35-58ad6f7aa7c7"},"vehicle_type_id":"4","last_reported":1756179335,"current_range_meters":18800,"station_id":"","pricing_plan_id":"cebpf4jnsgd1na2vs0mg"},{"bike_id":"fd29ef02-0c4c-4676-a7e3-a84467b88cf7","system_id":"levelo_inurba_marseille","lat":43.283429,"lon":5.381056,"is_reserved":false,"is_disabled":true,"rental_uris":{"android":"levelo://app?vid=fd29ef02-0c4c-4676-a7e3-a84467b88cf7","ios":"levelo://app?vid=fd29ef02-0c4c-4676-a7e3-a84467b88cf7"},"vehicle_type_id":"4","last_reported":1756179335,"current_range_meters":18800,"station_id":"ce4bh412rcd13ifvqdr0","pricing_plan_id":"cebpf4jnsgd1na2vs0mg"},{"bike_id":"6c8e8031-16a8-4701-b066-f68e8ef4c022","system_id":"levelo_inurba_marseille","lat":43.291215,"lon":5.431049,"is_reserved":false,"is_disabled":false,"rental_uris":{"android":"levelo://app?vid=6c8e8031-16a8-4701-b066-f68e8ef4c022","ios":"levelo://app?vid=6c8e8031-16a8-4701-b066-f68e8ef4c022"},"vehicle_type_id":"4","last_reported":1756179335,"current_range_meters":19200,"station_id":"","pricing_plan_id":"cebpf4jnsgd1na2vs0mg"},{"bike_id":"21c37970-c9a1-4ed2-b171-97ab7e4a15a1","system_id":"levelo_inurba_marseille","lat":43.28973,"lon":5.36402,"is_reserved":false,"is_disabled":false,"rental_uris":{"android":"levelo://app?vid=21c37970-c9a1-4ed2-b171-97ab7e4a15a1","ios":"levelo://app?vid=21c37970-c9a1-4ed2-b171-97ab7e4a15a1"},"vehicle_type_id":"4","last_reported":1756179335,"current_range_meters":19200,"station_id":"ce4bhc92rcd13ifvqetg","pricing_plan_id":"cebpf4jnsgd1na2vs0mg"},{"bike_id":"534df56e-9c38-4341-9dfd-f105fa072c74","system_id":"levelo_inurba_marseille","lat":43.30101,"lon":5.3912,"is_reserved":false,"is_disabled":false,"rental_uris":{"android":"levelo://app?vid=534df56e-9c38-4341-9dfd-f105fa072c74","ios":"levelo://app?vid=534df56e-9c38-4341-9dfd-f105fa072c74"},"vehicle_type_id":"4","last_reported":1756179335,"current_range_meters":19200,"station_id":"ce4bh192rcd13ifvqdb0","pricing_plan_id":"cebpf4jnsgd1na2vs0mg"},{"bike_id":"b6769fe8-4c93-4d75-b2a3-a0ccd2ec704d","system_id":"levelo_inurba_marseille","lat":43.324694,"lon":5.365826,"is_reserved":false,"is_disabled":true,"rental_uris":{"android":"levelo://app?vid=b6769fe8-4c93-4d75-b2a3-a0ccd2ec704d","ios":"levelo://app?vid=b6769fe8-4c93-4d75-b2a3-a0ccd2ec704d"},"vehicle_type_id":"4","last_reported":1756179335,"current_range_meters":19200,"station_id":"ce4bhs12rcd13ifvqhvg","pricing_plan_id":"cebpf4jnsgd1na2vs0mg"},{"bike_id":"3dff11d5-3872-4ffe-8cce-b5631d6c6058","system_id":"levelo_inurba_marseille","lat":43.32698,"lon":5.39212,"is_reserved":false,"is_disabled":false,"rental_uris":{"android":"levelo://app?vid=3dff11d5-3872-4ffe-8cce-b5631d6c6058","ios":"levelo://app?vid=3dff11d5-3872-4ffe-8cce-b5631d6c6058"},"vehicle_type_id":"4","last_reported":1756179335,"current_range_meters":19200,"station_id":"","pricing_plan_id":"cebpf4jnsgd1na2vs0mg"},{"bike_id":"48e7ad94-900b-4776-bfff-ead3cff25a01","system_id":"levelo_inurba_marseille","lat":43.29548,"lon":5.39051,"is_reserved":false,"is_disabled":false,"rental_uris":{"android":"levelo://app?vid=48e7ad94-900b-4776-bfff-ead3cff25a01","ios":"levelo://app?vid=48e7ad94-900b-4776-bfff-ead3cff25a01"},"vehicle_type_id":"4","last_reported":1756179335,"current_range_meters":19200,"station_id":"ce4bh3p2rcd13ifvqdp0","pricing_plan_id":"cebpf4jnsgd1na2vs0mg"},{"bike_id":"5a315ff6-b7d1-467e-964f-872dfd26b43c","system_id":"levelo_inurba_marseille","lat":43.292824,"lon":5.401261,"is_reserved":false,"is_disabled":false,"rental_uris":{"android":"levelo://app?vid=5a315ff6-b7d1-467e-964f-872dfd26b43c","ios":"levelo://app?vid=5a315ff6-b7d1-467e-964f-872dfd26b43c"},"vehicle_type_id":"4","last_reported":1756179335,"current_range_meters":19600,"station_id":"ce4bh312rcd13ifvqdk0","pricing_plan_id":"cebpf4jnsgd1na2vs0mg"},{"bike_id":"c521bf79-f50a-4594-af3a-4a8af984b289","system_id":"levelo_inurba_marseille","lat":43.30666,"lon":5.40078,"is_reserved":false,"is_disabled":false,"rental_uris":{"android":"levelo://app?vid=c521bf79-f50a-4594-af3a-4a8af984b289","ios":"levelo://app?vid=c521bf79-f50a-4594-af3a-4a8af984b289"},"vehicle_type_id":"4","last_reported":1756179335,"current_range_meters":19600,"station_id":"ce4bh112rcd13ifvqda0","pricing_plan_id":"cebpf4jnsgd1na2vs0mg"},{"bike_id":"fd0865b3-af49-4c3e-86f4-49934bd2d289","system_id":"levelo_inurba_marseille","lat":43.29713,"lon":5.366175,"is_reserved":false,"is_disabled":true,"rental_uris":{"android":"levelo://app?vid=fd0865b3-af49-4c3e-86f4-49934bd2d289","ios":"levelo://app?vid=fd0865b3-af49-4c3e-86f4-49934bd2d289"},"vehicle_type_id":"4","last_reported":1756179335,"current_range_meters":19600,"station_id":"ce4bgn12rcd13ifvqbt0","pricing_plan_id":"cebpf4jnsgd1na2vs0mg"},{"bike_id":"47cf70c5-3c91-432b-bb96-5ee5c72cde9c","system_id":"levelo_inurba_marseille","lat":43.305499,"lon":5.38445,"is_reserved":false,"is_disabled":false,"rental_uris":{"android":"levelo://app?vid=47cf70c5-3c91-432b-bb96-5ee5c72cde9c","ios":"levelo://app?vid=47cf70c5-3c91-432b-bb96-5ee5c72cde9c"},"vehicle_type_id":"4","last_reported":1756179335,"current_range_meters":19600,"station_id":"ce4bgg92rcd13ifvqb30","pricing_plan_id":"cebpf4jnsgd1na2vs0mg"},{"bike_id":"01475f28-2a66-4fe3-a338-cba308225507","system_id":"levelo_inurba_marseille","lat":43.298775,"lon":5.397257,"is_reserved":false,"is_disabled":false,"rental_uris":{"android":"levelo://app?vid=01475f28-2a66-4fe3-a338-cba308225507","ios":"levelo://app?vid=01475f28-2a66-4fe3-a338-cba308225507"},"vehicle_type_id":"4","last_reported":1756179335,"current_range_meters":20000,"station_id":"","pricing_plan_id":"cebpf4jnsgd1na2vs0mg"},{"bike_id":"08b09a1a-1f01-450b-9d92-bd0ae6c252cd","system_id":"levelo_inurba_marseille","lat":43.30627,"lon":5.37205,"is_reserved":false,"is_disabled":false,"rental_uris":{"android":"levelo://app?vid=08b09a1a-1f01-450b-9d92-bd0ae6c252cd","ios":"levelo://app?vid=08b09a1a-1f01-450b-9d92-bd0ae6c252cd"},"vehicle_type_id":"4","last_reported":1756179335,"current_range_meters":20000,"station_id":"ce4bgqh2rcd13ifvqc4g","pricing_plan_id":"cebpf4jnsgd1na2vs0mg"},{"bike_id":"abaf99ca-5823-4460-ba5c-ff01280743d0","system_id":"levelo_inurba_marseille","lat":43.27077,"lon":5.42303,"is_reserved":false,"is_disabled":false,"rental_uris":{"android":"levelo://app?vid=abaf99ca-5823-4460-ba5c-ff01280743d0","ios":"levelo://app?vid=abaf99ca-5823-4460-ba5c-ff01280743d0"},"vehicle_type_id":"4","last_reported":1756179335,"current_range_meters":20000,"station_id":"ce4bhk92rcd13ifvqgb0","pricing_plan_id":"cebpf4jnsgd1na2vs0mg"},{"bike_id":"0ee329fa-d181-4774-99d7-504535030df1","system_id":"levelo_inurba_marseille","lat":43.29188,"lon":5.38515,"is_reserved":false,"is_disabled":false,"rental_uris":{"android":"levelo://app?vid=0ee329fa-d181-4774-99d7-504535030df1","ios":"levelo://app?vid=0ee329fa-d181-4774-99d7-504535030df1"},"vehicle_type_id":"4","last_reported":1756179335,"current_range_meters":20000,"station_id":"","pricing_plan_id":"cebpf4jnsgd1na2vs0mg"},{"bike_id":"4dd066a3-5039-4c08-96e4-92ee4cbb306d","system_id":"levelo_inurba_marseille","lat":43.23201,"lon":5.35558,"is_reserved":false,"is_disabled":false,"rental_uris":{"android":"levelo://app?vid=4dd066a3-5039-4c08-96e4-92ee4cbb306d","ios":"levelo://app?vid=4dd066a3-5039-4c08-96e4-92ee4cbb306d"},"vehicle_type_id":"4","last_reported":1756179335,"current_range_meters":20000,"station_id":"ce4bhu92rcd13ifvqi70","pricing_plan_id":"cebpf4jnsgd1na2vs0mg"},{"bike_id":"7a9e3a50-b3f7-4c6f-a2bc-dcd59ceb22bf","system_id":"levelo_inurba_marseille","lat":43.2896,"lon":5.36378,"is_reserved":false,"is_disabled":false,"rental_uris":{"android":"levelo://app?vid=7a9e3a50-b3f7-4c6f-a2bc-dcd59ceb22bf","ios":"levelo://app?vid=7a9e3a50-b3f7-4c6f-a2bc-dcd59ceb22bf"},"vehicle_type_id":"4","last_reported":1756179335,"current_range_meters":20400,"station_id":"ce4bhc92rcd13ifvqetg","pricing_plan_id":"cebpf4jnsgd1na2vs0mg"},{"bike_id":"156a2f4b-7edf-4406-87c9-26d8ef4d8c3c","system_id":"levelo_inurba_marseille","lat":43.265782,"lon":5.390115,"is_reserved":false,"is_disabled":false,"rental_uris":{"android":"levelo://app?vid=156a2f4b-7edf-4406-87c9-26d8ef4d8c3c","ios":"levelo://app?vid=156a2f4b-7edf-4406-87c9-26d8ef4d8c3c"},"vehicle_type_id":"4","last_reported":1756179335,"current_range_meters":20400,"station_id":"ce4bhe12rcd13ifvqf30","pricing_plan_id":"cebpf4jnsgd1na2vs0mg"},{"bike_id":"9d2a3508-c255-4785-aa96-f3f2314a5c2a","system_id":"levelo_inurba_marseille","lat":43.32371,"lon":5.3887,"is_reserved":false,"is_disabled":false,"rental_uris":{"android":"levelo://app?vid=9d2a3508-c255-4785-aa96-f3f2314a5c2a","ios":"levelo://app?vid=9d2a3508-c255-4785-aa96-f3f2314a5c2a"},"vehicle_type_id":"4","last_reported":1756179335,"current_range_meters":20400,"station_id":"ce4bhqp2rcd13ifvqhog","pricing_plan_id":"cebpf4jnsgd1na2vs0mg"},{"bike_id":"4c8b79b7-987c-400b-9e41-e8e9a6baaf03","system_id":"levelo_inurba_marseille","lat":43.3032,"lon":5.404406,"is_reserved":false,"is_disabled":false,"rental_uris":{"android":"levelo://app?vid=4c8b79b7-987c-400b-9e41-e8e9a6baaf03","ios":"levelo://app?vid=4c8b79b7-987c-400b-9e41-e8e9a6baaf03"},"vehicle_type_id":"4","last_reported":1756179335,"current_range_meters":20400,"station_id":"ce4bh012rcd13ifvqd10","pricing_plan_id":"cebpf4jnsgd1na2vs0mg"},{"bike_id":"55e366fc-40f8-4879-9031-d7d131c436f8","system_id":"levelo_inurba_marseille","lat":43.250988,"lon":5.40321,"is_reserved":false,"is_disabled":false,"rental_uris":{"android":"levelo://app?vid=55e366fc-40f8-4879-9031-d7d131c436f8","ios":"levelo://app?vid=55e366fc-40f8-4879-9031-d7d131c436f8"},"vehicle_type_id":"4","last_reported":1756179335,"current_range_meters":20400,"station_id":"ce4bhlh2rcd13ifvqgig","pricing_plan_id":"cebpf4jnsgd1na2vs0mg"},{"bike_id":"94631eae-f3ac-4496-92b1-7b0edd1a685e","system_id":"levelo_inurba_marseille","lat":43.297918,"lon":5.393512,"is_reserved":false,"is_disabled":false,"rental_uris":{"android":"levelo://app?vid=94631eae-f3ac-4496-92b1-7b0edd1a685e","ios":"levelo://app?vid=94631eae-f3ac-4496-92b1-7b0edd1a685e"},"vehicle_type_id":"4","last_reported":1756179335,"current_range_meters":20400,"station_id":"chh1huq6cuj3fo74tm60","pricing_plan_id":"cebpf4jnsgd1na2vs0mg"},{"bike_id":"758b2606-6f80-4b27-b596-019d40336b10","system_id":"levelo_inurba_marseille","lat":43.29795,"lon":5.39357,"is_reserved":false,"is_disabled":false,"rental_uris":{"android":"levelo://app?vid=758b2606-6f80-4b27-b596-019d40336b10","ios":"levelo://app?vid=758b2606-6f80-4b27-b596-019d40336b10"},"vehicle_type_id":"4","last_reported":1756179335,"current_range_meters":20800,"station_id":"chh1huq6cuj3fo74tm60","pricing_plan_id":"cebpf4jnsgd1na2vs0mg"},{"bike_id":"e5eabf25-4e1c-476e-b130-9f83cdcfc80c","system_id":"levelo_inurba_marseille","lat":43.298084,"lon":5.417051,"is_reserved":false,"is_disabled":false,"rental_uris":{"android":"levelo://app?vid=e5eabf25-4e1c-476e-b130-9f83cdcfc80c","ios":"levelo://app?vid=e5eabf25-4e1c-476e-b130-9f83cdcfc80c"},"vehicle_type_id":"4","last_reported":1756179335,"current_range_meters":20800,"station_id":"","pricing_plan_id":"cebpf4jnsgd1na2vs0mg"},{"bike_id":"0acc39f7-82d9-4ee5-99e0-3bcf19e8b8e4","system_id":"levelo_inurba_marseille","lat":43.245443,"lon":5.395118,"is_reserved":false,"is_disabled":true,"rental_uris":{"android":"levelo://app?vid=0acc39f7-82d9-4ee5-99e0-3bcf19e8b8e4","ios":"levelo://app?vid=0acc39f7-82d9-4ee5-99e0-3bcf19e8b8e4"},"vehicle_type_id":"4","last_reported":1756179335,"current_range_meters":20800,"station_id":"ce4bhlp2rcd13ifvqgjg","pricing_plan_id":"cebpf4jnsgd1na2vs0mg"},{"bike_id":"6355010b-1d26-4978-803a-670fe4481e66","system_id":"levelo_inurba_marseille","lat":43.3176,"lon":5.3902,"is_reserved":false,"is_disabled":false,"rental_uris":{"android":"levelo://app?vid=6355010b-1d26-4978-803a-670fe4481e66","ios":"levelo://app?vid=6355010b-1d26-4978-803a-670fe4481e66"},"vehicle_type_id":"4","last_reported":1756179335,"current_range_meters":20800,"station_id":"ce4bhqp2rcd13ifvqhng","pricing_plan_id":"cebpf4jnsgd1na2vs0mg"},{"bike_id":"b3007b48-5401-4609-8301-f77d26f9a255","system_id":"levelo_inurba_marseille","lat":43.256422,"lon":5.386165,"is_reserved":false,"is_disabled":false,"rental_uris":{"android":"levelo://app?vid=b3007b48-5401-4609-8301-f77d26f9a255","ios":"levelo://app?vid=b3007b48-5401-4609-8301-f77d26f9a255"},"vehicle_type_id":"4","last_reported":1756179335,"current_range_meters":20800,"station_id":"","pricing_plan_id":"cebpf4jnsgd1na2vs0mg"},{"bike_id":"fe366e63-c4d4-4a27-b93a-4e8b46eaa93b","system_id":"levelo_inurba_marseille","lat":43.279471,"lon":5.410435,"is_reserved":false,"is_disabled":false,"rental_uris":{"android":"levelo://app?vid=fe366e63-c4d4-4a27-b93a-4e8b46eaa93b","ios":"levelo://app?vid=fe366e63-c4d4-4a27-b93a-4e8b46eaa93b"},"vehicle_type_id":"4","last_reported":1756179335,"current_range_meters":20800,"station_id":"ce4bhnp2rcd13ifvqh0g","pricing_plan_id":"cebpf4jnsgd1na2vs0mg"},{"bike_id":"5c26a54e-1e97-4ad3-a16d-614ad930b130","system_id":"levelo_inurba_marseille","lat":43.32109,"lon":5.36773,"is_reserved":false,"is_disabled":false,"rental_uris":{"android":"levelo://app?vid=5c26a54e-1e97-4ad3-a16d-614ad930b130","ios":"levelo://app?vid=5c26a54e-1e97-4ad3-a16d-614ad930b130"},"vehicle_type_id":"4","last_reported":1756179335,"current_range_meters":21600,"station_id":"ce4bhrh2rcd13ifvqhug","pricing_plan_id":"cebpf4jnsgd1na2vs0mg"},{"bike_id":"e6dfd505-b8fc-41ba-a42c-873433ef4234","system_id":"levelo_inurba_marseille","lat":43.21204,"lon":5.3508,"is_reserved":false,"is_disabled":false,"rental_uris":{"android":"levelo://app?vid=e6dfd505-b8fc-41ba-a42c-873433ef4234","ios":"levelo://app?vid=e6dfd505-b8fc-41ba-a42c-873433ef4234"},"vehicle_type_id":"4","last_reported":1756179335,"current_range_meters":21600,"station_id":"st_cvj6sg6p6f1abm77japg","pricing_plan_id":"cebpf4jnsgd1na2vs0mg"},{"bike_id":"3115c199-1541-45cb-a98a-f6ff5bbd4b1f","system_id":"levelo_inurba_marseille","lat":43.308093,"lon":5.369938,"is_reserved":false,"is_disabled":false,"rental_uris":{"android":"levelo://app?vid=3115c199-1541-45cb-a98a-f6ff5bbd4b1f","ios":"levelo://app?vid=3115c199-1541-45cb-a98a-f6ff5bbd4b1f"},"vehicle_type_id":"4","last_reported":1756179335,"current_range_meters":21600,"station_id":"","pricing_plan_id":"cebpf4jnsgd1na2vs0mg"},{"bike_id":"a7374ad5-1b64-41d9-baf9-2cb1c79e3304","system_id":"levelo_inurba_marseille","lat":43.31991,"lon":5.38158,"is_reserved":false,"is_disabled":false,"rental_uris":{"android":"levelo://app?vid=a7374ad5-1b64-41d9-baf9-2cb1c79e3304","ios":"levelo://app?vid=a7374ad5-1b64-41d9-baf9-2cb1c79e3304"},"vehicle_type_id":"4","last_reported":1756179335,"current_range_meters":21600,"station_id":"ce4bhr12rcd13ifvqhpg","pricing_plan_id":"cebpf4jnsgd1na2vs0mg"},{"bike_id":"a9d83b21-9821-4029-bb59-40c830188146","system_id":"levelo_inurba_marseille","lat":43.32346,"lon":5.36683,"is_reserved":false,"is_disabled":false,"rental_uris":{"android":"levelo://app?vid=a9d83b21-9821-4029-bb59-40c830188146","ios":"levelo://app?vid=a9d83b21-9821-4029-bb59-40c830188146"},"vehicle_type_id":"4","last_reported":1756179335,"current_range_meters":21600,"station_id":"","pricing_plan_id":"cebpf4jnsgd1na2vs0mg"},{"bike_id":"8baf0c10-60f7-4c5f-b6db-cc324b5801b0","system_id":"levelo_inurba_marseille","lat":43.30826,"lon":5.3767,"is_reserved":false,"is_disabled":false,"rental_uris":{"android":"levelo://app?vid=8baf0c10-60f7-4c5f-b6db-cc324b5801b0","ios":"levelo://app?vid=8baf0c10-60f7-4c5f-b6db-cc324b5801b0"},"vehicle_type_id":"4","last_reported":1756179335,"current_range_meters":21600,"station_id":"ce4bgv92rcd13ifvqcq0","pricing_plan_id":"cebpf4jnsgd1na2vs0mg"},{"bike_id":"5a232c00-9796-46d0-8e0d-a6c26d0e8a4c","system_id":"levelo_inurba_marseille","lat":43.3081,"lon":5.38124,"is_reserved":false,"is_disabled":false,"rental_uris":{"android":"levelo://app?vid=5a232c00-9796-46d0-8e0d-a6c26d0e8a4c","ios":"levelo://app?vid=5a232c00-9796-46d0-8e0d-a6c26d0e8a4c"},"vehicle_type_id":"4","last_reported":1756179335,"current_range_meters":21600,"station_id":"ce4bgt12rcd13ifvqce0","pricing_plan_id":"cebpf4jnsgd1na2vs0mg"},{"bike_id":"af6caebb-061d-46d3-b2cb-03df68e94fce","system_id":"levelo_inurba_marseille","lat":43.28734,"lon":5.37969,"is_reserved":false,"is_disabled":false,"rental_uris":{"android":"levelo://app?vid=af6caebb-061d-46d3-b2cb-03df68e94fce","ios":"levelo://app?vid=af6caebb-061d-46d3-b2cb-03df68e94fce"},"vehicle_type_id":"4","last_reported":1756179335,"current_range_meters":21600,"station_id":"ce4bh9p2rcd13ifvqec0","pricing_plan_id":"cebpf4jnsgd1na2vs0mg"},{"bike_id":"3c4876c0-7670-4af2-8017-9035f4c63e4e","system_id":"levelo_inurba_marseille","lat":43.23149,"lon":5.43681,"is_reserved":false,"is_disabled":false,"rental_uris":{"android":"levelo://app?vid=3c4876c0-7670-4af2-8017-9035f4c63e4e","ios":"levelo://app?vid=3c4876c0-7670-4af2-8017-9035f4c63e4e"},"vehicle_type_id":"4","last_reported":1756179335,"current_range_meters":21600,"station_id":"ce4bhmp2rcd13ifvqgog","pricing_plan_id":"cebpf4jnsgd1na2vs0mg"},{"bike_id":"22d37b03-64c1-44b3-a429-9f0476ecd808","system_id":"levelo_inurba_marseille","lat":43.29522,"lon":5.37678,"is_reserved":false,"is_disabled":false,"rental_uris":{"android":"levelo://app?vid=22d37b03-64c1-44b3-a429-9f0476ecd808","ios":"levelo://app?vid=22d37b03-64c1-44b3-a429-9f0476ecd808"},"vehicle_type_id":"4","last_reported":1756179335,"current_range_meters":21600,"station_id":"","pricing_plan_id":"cebpf4jnsgd1na2vs0mg"},{"bike_id":"cb33e38f-38d6-4ceb-8fbf-31dfa003a345","system_id":"levelo_inurba_marseille","lat":43.31273,"lon":5.40179,"is_reserved":false,"is_disabled":false,"rental_uris":{"android":"levelo://app?vid=cb33e38f-38d6-4ceb-8fbf-31dfa003a345","ios":"levelo://app?vid=cb33e38f-38d6-4ceb-8fbf-31dfa003a345"},"vehicle_type_id":"4","last_reported":1756179335,"current_range_meters":22000,"station_id":"ce4bh092rcd13ifvqd30","pricing_plan_id":"cebpf4jnsgd1na2vs0mg"},{"bike_id":"71136ea1-3aaf-4521-8084-554abe261412","system_id":"levelo_inurba_marseille","lat":43.303037,"lon":5.369059,"is_reserved":false,"is_disabled":true,"rental_uris":{"android":"levelo://app?vid=71136ea1-3aaf-4521-8084-554abe261412","ios":"levelo://app?vid=71136ea1-3aaf-4521-8084-554abe261412"},"vehicle_type_id":"4","last_reported":1756179335,"current_range_meters":22000,"station_id":"","pricing_plan_id":"cebpf4jnsgd1na2vs0mg"},{"bike_id":"f67c8e5e-7af8-4847-a4ce-1e12088b4291","system_id":"levelo_inurba_marseille","lat":43.325224,"lon":5.368489,"is_reserved":false,"is_disabled":false,"rental_uris":{"android":"levelo://app?vid=f67c8e5e-7af8-4847-a4ce-1e12088b4291","ios":"levelo://app?vid=f67c8e5e-7af8-4847-a4ce-1e12088b4291"},"vehicle_type_id":"4","last_reported":1756179335,"current_range_meters":22000,"station_id":"","pricing_plan_id":"cebpf4jnsgd1na2vs0mg"},{"bike_id":"d2042780-aaf7-41dd-933e-c79aad9932d4","system_id":"levelo_inurba_marseille","lat":43.31998,"lon":5.38156,"is_reserved":false,"is_disabled":false,"rental_uris":{"android":"levelo://app?vid=d2042780-aaf7-41dd-933e-c79aad9932d4","ios":"levelo://app?vid=d2042780-aaf7-41dd-933e-c79aad9932d4"},"vehicle_type_id":"4","last_reported":1756179335,"current_range_meters":22000,"station_id":"ce4bhr12rcd13ifvqhpg","pricing_plan_id":"cebpf4jnsgd1na2vs0mg"},{"bike_id":"dd41e063-4427-41be-9241-1bfef015b040","system_id":"levelo_inurba_marseille","lat":43.29282,"lon":5.40117,"is_reserved":false,"is_disabled":false,"rental_uris":{"android":"levelo://app?vid=dd41e063-4427-41be-9241-1bfef015b040","ios":"levelo://app?vid=dd41e063-4427-41be-9241-1bfef015b040"},"vehicle_type_id":"4","last_reported":1756179335,"current_range_meters":22400,"station_id":"ce4bh312rcd13ifvqdk0","pricing_plan_id":"cebpf4jnsgd1na2vs0mg"},{"bike_id":"37415c4c-6902-4725-bd68-fd8e14dfcd7b","system_id":"levelo_inurba_marseille","lat":43.31078,"lon":5.38355,"is_reserved":false,"is_disabled":false,"rental_uris":{"android":"levelo://app?vid=37415c4c-6902-4725-bd68-fd8e14dfcd7b","ios":"levelo://app?vid=37415c4c-6902-4725-bd68-fd8e14dfcd7b"},"vehicle_type_id":"4","last_reported":1756179335,"current_range_meters":22400,"station_id":"ce4bgv92rcd13ifvqcr0","pricing_plan_id":"cebpf4jnsgd1na2vs0mg"},{"bike_id":"f465d329-9faa-4625-b804-031f6863c900","system_id":"levelo_inurba_marseille","lat":43.281,"lon":5.37872,"is_reserved":false,"is_disabled":false,"rental_uris":{"android":"levelo://app?vid=f465d329-9faa-4625-b804-031f6863c900","ios":"levelo://app?vid=f465d329-9faa-4625-b804-031f6863c900"},"vehicle_type_id":"4","last_reported":1756179335,"current_range_meters":22400,"station_id":"ce4bha12rcd13ifvqee0","pricing_plan_id":"cebpf4jnsgd1na2vs0mg"},{"bike_id":"3f81db94-7619-4195-93e2-55f1b0472c28","system_id":"levelo_inurba_marseille","lat":43.311565,"lon":5.394577,"is_reserved":false,"is_disabled":false,"rental_uris":{"android":"levelo://app?vid=3f81db94-7619-4195-93e2-55f1b0472c28","ios":"levelo://app?vid=3f81db94-7619-4195-93e2-55f1b0472c28"},"vehicle_type_id":"4","last_reported":1756179335,"current_range_meters":22800,"station_id":"","pricing_plan_id":"cebpf4jnsgd1na2vs0mg"},{"bike_id":"fbe375f8-4853-469f-9d8c-76e6e1952cb0","system_id":"levelo_inurba_marseille","lat":43.29547,"lon":5.39037,"is_reserved":false,"is_disabled":true,"rental_uris":{"android":"levelo://app?vid=fbe375f8-4853-469f-9d8c-76e6e1952cb0","ios":"levelo://app?vid=fbe375f8-4853-469f-9d8c-76e6e1952cb0"},"vehicle_type_id":"4","last_reported":1756179335,"current_range_meters":22800,"station_id":"ce4bh3p2rcd13ifvqdp0","pricing_plan_id":"cebpf4jnsgd1na2vs0mg"},{"bike_id":"d5c57a1a-928a-455d-918b-cbd133cfbe71","system_id":"levelo_inurba_marseille","lat":43.217503,"lon":5.346065,"is_reserved":false,"is_disabled":false,"rental_uris":{"android":"levelo://app?vid=d5c57a1a-928a-455d-918b-cbd133cfbe71","ios":"levelo://app?vid=d5c57a1a-928a-455d-918b-cbd133cfbe71"},"vehicle_type_id":"4","last_reported":1756179335,"current_range_meters":22800,"station_id":"","pricing_plan_id":"cebpf4jnsgd1na2vs0mg"},{"bike_id":"fbf0e9b4-0244-4455-89e8-bb336b1646cf","system_id":"levelo_inurba_marseille","lat":43.23185,"lon":5.40023,"is_reserved":false,"is_disabled":false,"rental_uris":{"android":"levelo://app?vid=fbf0e9b4-0244-4455-89e8-bb336b1646cf","ios":"levelo://app?vid=fbf0e9b4-0244-4455-89e8-bb336b1646cf"},"vehicle_type_id":"4","last_reported":1756179335,"current_range_meters":22800,"station_id":"ce4bhn12rcd13ifvqgqg","pricing_plan_id":"cebpf4jnsgd1na2vs0mg"},{"bike_id":"6ec13116-c36a-4378-902c-b54ad735392c","system_id":"levelo_inurba_marseille","lat":43.269831,"lon":5.392782,"is_reserved":false,"is_disabled":false,"rental_uris":{"android":"levelo://app?vid=6ec13116-c36a-4378-902c-b54ad735392c","ios":"levelo://app?vid=6ec13116-c36a-4378-902c-b54ad735392c"},"vehicle_type_id":"4","last_reported":1756179335,"current_range_meters":22800,"station_id":"","pricing_plan_id":"cebpf4jnsgd1na2vs0mg"},{"bike_id":"9f2bb7dc-bd4f-42d8-99ee-fec2cba10242","system_id":"levelo_inurba_marseille","lat":43.29968,"lon":5.37896,"is_reserved":false,"is_disabled":false,"rental_uris":{"android":"levelo://app?vid=9f2bb7dc-bd4f-42d8-99ee-fec2cba10242","ios":"levelo://app?vid=9f2bb7dc-bd4f-42d8-99ee-fec2cba10242"},"vehicle_type_id":"4","last_reported":1756179335,"current_range_meters":22800,"station_id":"","pricing_plan_id":"cebpf4jnsgd1na2vs0mg"},{"bike_id":"9c1cbeb7-2526-42aa-9362-7a18b6419b01","system_id":"levelo_inurba_marseille","lat":43.28714,"lon":5.37921,"is_reserved":false,"is_disabled":false,"rental_uris":{"android":"levelo://app?vid=9c1cbeb7-2526-42aa-9362-7a18b6419b01","ios":"levelo://app?vid=9c1cbeb7-2526-42aa-9362-7a18b6419b01"},"vehicle_type_id":"4","last_reported":1756179335,"current_range_meters":22800,"station_id":"ce4bh9p2rcd13ifvqec0","pricing_plan_id":"cebpf4jnsgd1na2vs0mg"},{"bike_id":"c4e46423-e8b3-4587-a24a-8871d3769d47","system_id":"levelo_inurba_marseille","lat":43.31698,"lon":5.40483,"is_reserved":false,"is_disabled":false,"rental_uris":{"android":"levelo://app?vid=c4e46423-e8b3-4587-a24a-8871d3769d47","ios":"levelo://app?vid=c4e46423-e8b3-4587-a24a-8871d3769d47"},"vehicle_type_id":"4","last_reported":1756179335,"current_range_meters":22800,"station_id":"ce4bh012rcd13ifvqd00","pricing_plan_id":"cebpf4jnsgd1na2vs0mg"},{"bike_id":"bd4376ea-7d2d-4cf4-9dc1-caf98f82dced","system_id":"levelo_inurba_marseille","lat":43.33318,"lon":5.39743,"is_reserved":false,"is_disabled":false,"rental_uris":{"android":"levelo://app?vid=bd4376ea-7d2d-4cf4-9dc1-caf98f82dced","ios":"levelo://app?vid=bd4376ea-7d2d-4cf4-9dc1-caf98f82dced"},"vehicle_type_id":"4","last_reported":1756179335,"current_range_meters":23200,"station_id":"","pricing_plan_id":"cebpf4jnsgd1na2vs0mg"},{"bike_id":"368e0887-8352-45f7-9647-e6859b155226","system_id":"levelo_inurba_marseille","lat":43.31374,"lon":5.38496,"is_reserved":false,"is_disabled":false,"rental_uris":{"android":"levelo://app?vid=368e0887-8352-45f7-9647-e6859b155226","ios":"levelo://app?vid=368e0887-8352-45f7-9647-e6859b155226"},"vehicle_type_id":"4","last_reported":1756179335,"current_range_meters":23200,"station_id":"ce4bgt92rcd13ifvqcf0","pricing_plan_id":"cebpf4jnsgd1na2vs0mg"},{"bike_id":"de7abd2e-78fd-4383-b6d9-8c7fdadfccaa","system_id":"levelo_inurba_marseille","lat":43.25584,"lon":5.38225,"is_reserved":false,"is_disabled":false,"rental_uris":{"android":"levelo://app?vid=de7abd2e-78fd-4383-b6d9-8c7fdadfccaa","ios":"levelo://app?vid=de7abd2e-78fd-4383-b6d9-8c7fdadfccaa"},"vehicle_type_id":"4","last_reported":1756179335,"current_range_meters":23200,"station_id":"ce4bhih2rcd13ifvqfs0","pricing_plan_id":"cebpf4jnsgd1na2vs0mg"},{"bike_id":"83e8be8a-f061-44f1-a45d-d7981ea56d85","system_id":"levelo_inurba_marseille","lat":43.284555,"lon":5.391926,"is_reserved":false,"is_disabled":true,"rental_uris":{"android":"levelo://app?vid=83e8be8a-f061-44f1-a45d-d7981ea56d85","ios":"levelo://app?vid=83e8be8a-f061-44f1-a45d-d7981ea56d85"},"vehicle_type_id":"4","last_reported":1756179335,"current_range_meters":23200,"station_id":"ce4bhoh2rcd13ifvqh5g","pricing_plan_id":"cebpf4jnsgd1na2vs0mg"},{"bike_id":"59bdc1e9-0498-466f-a2ce-2d741ef2070e","system_id":"levelo_inurba_marseille","lat":43.26904,"lon":5.4252,"is_reserved":false,"is_disabled":false,"rental_uris":{"android":"levelo://app?vid=59bdc1e9-0498-466f-a2ce-2d741ef2070e","ios":"levelo://app?vid=59bdc1e9-0498-466f-a2ce-2d741ef2070e"},"vehicle_type_id":"4","last_reported":1756179335,"current_range_meters":23200,"station_id":"","pricing_plan_id":"cebpf4jnsgd1na2vs0mg"},{"bike_id":"4c82beab-1cad-46f7-a8ca-eb8dcbd949ef","system_id":"levelo_inurba_marseille","lat":43.27643,"lon":5.39701,"is_reserved":false,"is_disabled":false,"rental_uris":{"android":"levelo://app?vid=4c82beab-1cad-46f7-a8ca-eb8dcbd949ef","ios":"levelo://app?vid=4c82beab-1cad-46f7-a8ca-eb8dcbd949ef"},"vehicle_type_id":"4","last_reported":1756179335,"current_range_meters":23200,"station_id":"","pricing_plan_id":"cebpf4jnsgd1na2vs0mg"},{"bike_id":"0b56a93b-e284-4698-9a80-9c054c2fc3c9","system_id":"levelo_inurba_marseille","lat":43.26817,"lon":5.39059,"is_reserved":false,"is_disabled":false,"rental_uris":{"android":"levelo://app?vid=0b56a93b-e284-4698-9a80-9c054c2fc3c9","ios":"levelo://app?vid=0b56a93b-e284-4698-9a80-9c054c2fc3c9"},"vehicle_type_id":"4","last_reported":1756179335,"current_range_meters":23200,"station_id":"","pricing_plan_id":"cebpf4jnsgd1na2vs0mg"},