{"last_updated":1705428549,"ttl":30,"version":"2.2","data":{"bikes":[{"bike_id":"0c4011a3-f297-474d-a0f9-49fd95d20fe8","system_id":"levelo_inurba_marseille","lat":43.312239,"lon":5.368562,"is_reserved":false,"is_disabled":false,"rental_uris":{"android":"levelo://app?vid=0c4011a3-f297-474d-a0f9-49fd95d20fe8","ios":"levelo://app?vid=0c4011a3-f297-474d-a0f9-49fd95d20fe8"},"vehicle_type_id":"4","last_reported":1705428549,"current_range_meters":31200,"station_id":"ce4bgl92rcd13ifvqbq0","pricing_plan_id":"free"},{"bike_id":"9ffcac50-392b-4db2-ab50-89df4d455aaf","system_id":"levelo_inurba_marseille","lat":43.312239,"lon":5.368562,"is_reserved":false,"is_disabled":false,"rental_uris":{"android":"levelo://app?vid=9ffcac50-392b-4db2-ab50-89df4d455aaf","ios":"levelo://app?vid=9ffcac50-392b-4db2-ab50-89df4d455aaf"},"vehicle_type_id":"4","last_reported":1705428549,"current_range_meters":31200,"station_id":"ce4bgl92rcd13ifvqbq0","pricing_plan_id":"free"},{"bike_id":"48502f52-6f38-4f67-a3f8-08f6523d2cb3","system_id":"levelo_inurba_marseille","lat":43.312239,"lon":5.368562,"is_reserved":false,"is_disabled":false,"rental_uris":{"android":"levelo://app?vid=48502f52-6f38-4f67-a3f8-08f6523d2cb3","ios":"levelo://app?vid=48502f52-6f38-4f67-a3f8-08f6523d2cb3"},"vehicle_type_id":"4","last_reported":1705428549,"current_range_meters":28800,"station_id":"ce4bgl92rcd13ifvqbq0","pricing_plan_id":"free"},{"bike_id":"c65ad0ca-4f19-47de-924d-edf455894b13","system_id":"levelo_inurba_marseille","lat":43.31225,"lon":5.368767,"is_reserved":false,"is_disabled":false,"rental_uris":{"android":"levelo://app?vid=c65ad0ca-4f19-47de-924d-edf455894b13","ios":"levelo://app?vid=c65ad0ca-4f19-47de-924d-edf455894b13"},"vehicle_type_id":"4","last_reported":1705428549,"current_range_meters":26000,"station_id":"ce4bgl92rcd13ifvqbq0","pricing_plan_id":"free"},{"bike_id":"5cfbd835-d738-49b3-8445-8dabc181197c","system_id":"levelo_inurba_marseille","lat":43.312239,"lon":5.368562,"is_reserved":false,"is_disabled":false,"rental_uris":{"android":"levelo://app?vid=5cfbd835-d738-49b3-8445-8dabc181197c","ios":"levelo://app?vid=5cfbd835-d738-49b3-8445-8dabc181197c"},"vehicle_type_id":"4","last_reported":1705428549,"current_range_meters":30000,"station_id":"ce4bgl92rcd13ifvqbq0","pricing_plan_id":"free"},{"bike_id":"2751fe63-7b8e-4a23-aa70-8680c00ee2b6","system_id":"levelo_inurba_marseille","lat":43.310805,"lon":5.372601,"is_reserved":false,"is_disabled":false,"rental_uris":{"android":"levelo://app?vid=2751fe63-7b8e-4a23-aa70-8680c00ee2b6","ios":"levelo://app?vid=2751fe63-7b8e-4a23-aa70-8680c00ee2b6"},"vehicle_type_id":"4","last_reported":1705428549,"current_range_meters":2000,"station_id":"","pricing_plan_id":"free"},{"bike_id":"5bc1cbb5-e1f5-48bb-9225-750ff49d8a42","system_id":"levelo_inurba_marseille","lat":43.314811,"lon":5.373104,"is_reserved":false,"is_disabled":false,"rental_uris":{"android":"levelo://app?vid=5bc1cbb5-e1f5-48bb-9225-750ff49d8a42","ios":"levelo://app?vid=5bc1cbb5-e1f5-48bb-9225-750ff49d8a42"},"vehicle_type_id":"4","last_reported":1705428549,"current_range_meters":19600,"station_id":"ce4bgt12rcd13ifvqcd0","pricing_plan_id":"free"},{"bike_id":"bee7247e-59d8-4156-80ed-e35d0b3826a8","system_id":"levelo_inurba_marseille","lat":43.305954,"lon":5.36548,"is_reserved":false,"is_disabled":false,"rental_uris":{"android":"levelo://app?vid=bee7247e-59d8-4156-80ed-e35d0b3826a8","ios":"levelo://app?vid=bee7247e-59d8-4156-80ed-e35d0b3826a8"},"vehicle_type_id":"4","last_reported":1705428549,"current_range_meters":7200,"station_id":"ce4bgs12rcd13ifvqcag","pricing_plan_id":"free"},{"bike_id":"c521ce2d-571b-436c-94db-0e87eaccab37","system_id":"levelo_inurba_marseille","lat":43.305714,"lon":5.365633,"is_reserved":false,"is_disabled":false,"rental_uris":{"android":"levelo://app?vid=c521ce2d-571b-436c-94db-0e87eaccab37","ios":"levelo://app?vid=c521ce2d-571b-436c-94db-0e87eaccab37"},"vehicle_type_id":"4","last_reported":1705428549,"current_range_meters":0,"station_id":"ce4bgs12rcd13ifvqcag","pricing_plan_id":"free"},{"bike_id":"b89f9c66-1202-49ca-901f-a470dfeaa39b","system_id":"levelo_inurba_marseille","lat":43.30597,"lon":5.37206,"is_reserved":false,"is_disabled":false,"rental_uris":{"android":"levelo://app?vid=b89f9c66-1202-49ca-901f-a470dfeaa39b","ios":"levelo://app?vid=b89f9c66-1202-49ca-901f-a470dfeaa39b"},"vehicle_type_id":"4","last_reported":1705428549,"current_range_meters":14000,"station_id":"ce4bgqh2rcd13ifvqc4g","pricing_plan_id":"free"},{"bike_id":"b7caad5d-4051-43d5-a2c4-f8f1a38569c0","system_id":"levelo_inurba_marseille","lat":43.30597,"lon":5.37217,"is_reserved":false,"is_disabled":false,"rental_uris":{"android":"levelo://app?vid=b7caad5d-4051-43d5-a2c4-f8f1a38569c0","ios":"levelo://app?vid=b7caad5d-4051-43d5-a2c4-f8f1a38569c0"},"vehicle_type_id":"4","last_reported":1705428549,"current_range_meters":1200,"station_id":"ce4bgqh2rcd13ifvqc4g","pricing_plan_id":"free"},{"bike_id":"aa725c59-fedd-4070-9973-519b66d77694","system_id":"levelo_inurba_marseille","lat":43.31119,"lon":5.37763,"is_reserved":false,"is_disabled":false,"rental_uris":{"android":"levelo://app?vid=aa725c59-fedd-4070-9973-519b66d77694","ios":"levelo://app?vid=aa725c59-fedd-4070-9973-519b66d77694"},"vehicle_type_id":"4","last_reported":1705428549,"current_range_meters":800,"station_id":"ce4bgt92rcd13ifvqcg0","pricing_plan_id":"free"},{"bike_id":"29de0205-2074-4d12-a979-af3a6c0b76b2","system_id":"levelo_inurba_marseille","lat":43.31119,"lon":5.37764,"is_reserved":false,"is_disabled":false,"rental_uris":{"android":"levelo://app?vid=29de0205-2074-4d12-a979-af3a6c0b76b2","ios":"levelo://app?vid=29de0205-2074-4d12-a979-af3a6c0b76b2"},"vehicle_type_id":"4","last_reported":1705428549,"current_range_meters":0,"station_id":"ce4bgt92rcd13ifvqcg0","pricing_plan_id":"free"},{"bike_id":"3fdc473b-faab-40d4-a0a7-81a6e0243e8f","system_id":"levelo_inurba_marseille","lat":43.307945,"lon":5.376487,"is_reserved":false,"is_disabled":false,"rental_uris":{"android":"levelo://app?vid=3fdc473b-faab-40d4-a0a7-81a6e0243e8f","ios":"levelo://app?vid=3fdc473b-faab-40d4-a0a7-81a6e0243e8f"},"vehicle_type_id":"4","last_reported":1705428549,"current_range_meters":11600,"station_id":"ce4bgv92rcd13ifvqcq0","pricing_plan_id":"free"},{"bike_id":"a92f397f-e9c5-4d43-b3f8-cba9e09b8146","system_id":"levelo_inurba_marseille","lat":43.307945,"lon":5.376487,"is_reserved":false,"is_disabled":false,"rental_uris":{"android":"levelo://app?vid=a92f397f-e9c5-4d43-b3f8-cba9e09b8146","ios":"levelo://app?vid=a92f397f-e9c5-4d43-b3f8-cba9e09b8146"},"vehicle_type_id":"4","last_reported":1705428549,"current_range_meters":18400,"station_id":"ce4bgv92rcd13ifvqcq0","pricing_plan_id":"free"},{"bike_id":"1e2d7a73-2ddb-4b79-b038-54dc026a50d8","system_id":"levelo_inurba_marseille","lat":43.307945,"lon":5.376487,"is_reserved":false,"is_disabled":false,"rental_uris":{"android":"levelo://app?vid=1e2d7a73-2ddb-4b79-b038-54dc026a50d8","ios":"levelo://app?vid=1e2d7a73-2ddb-4b79-b038-54dc026a50d8"},"vehicle_type_id":"4","last_reported":1705428549,"current_range_meters":0,"station_id":"ce4bgv92rcd13ifvqcq0","pricing_plan_id":"free"},{"bike_id":"37d18a4a-9730-4497-b948-e2d7d62a4985","system_id":"levelo_inurba_marseille","lat":43.303046,"lon":5.368981,"is_reserved":false,"is_disabled":false,"rental_uris":{"android":"levelo://app?vid=37d18a4a-9730-4497-b948-e2d7d62a4985","ios":"levelo://app?vid=37d18a4a-9730-4497-b948-e2d7d62a4985"},"vehicle_type_id":"4","last_reported":1705428549,"current_range_meters":7600,"station_id":"ce4bgqh2rcd13ifvqc5g","pricing_plan_id":"free"},{"bike_id":"6e59f1cd-44c6-406e-bc75-33f5e34c1e6c","system_id":"levelo_inurba_marseille","lat":43.303046,"lon":5.368981,"is_reserved":false,"is_disabled":false,"rental_uris":{"android":"levelo://app?vid=6e59f1cd-44c6-406e-bc75-33f5e34c1e6c","ios":"levelo://app?vid=6e59f1cd-44c6-406e-bc75-33f5e34c1e6c"},"vehicle_type_id":"4","last_reported":1705428549,"current_range_meters":5600,"station_id":"ce4bgqh2rcd13ifvqc5g","pricing_plan_id":"free"},{"bike_id":"7b1cb862-4ede-4bf3-820b-6eee16b11db6","system_id":"levelo_inurba_marseille","lat":43.303046,"lon":5.368981,"is_reserved":false,"is_disabled":false,"rental_uris":{"android":"levelo://app?vid=7b1cb862-4ede-4bf3-820b-6eee16b11db6","ios":"levelo://app?vid=7b1cb862-4ede-4bf3-820b-6eee16b11db6"},"vehicle_type_id":"4","last_reported":1705428549,"current_range_meters":8800,"station_id":"ce4bgqh2rcd13ifvqc5g","pricing_plan_id":"free"},{"bike_id":"bbb8bf5f-9a12-4802-8c25-a94f0250be61","system_id":"levelo_inurba_marseille","lat":43.301939,"lon":5.366286,"is_reserved":false,"is_disabled":false,"rental_uris":{"android":"levelo://app?vid=bbb8bf5f-9a12-4802-8c25-a94f0250be61","ios":"levelo://app?vid=bbb8bf5f-9a12-4802-8c25-a94f0250be61"},"vehicle_type_id":"4","last_reported":1705428549,"current_range_meters":21600,"station_id":"ce4bgrh2rcd13ifvqc8g","pricing_plan_id":"free"},{"bike_id":"69ea7d13-c1de-4886-8f03-12fdf11ea15d","system_id":"levelo_inurba_marseille","lat":43.301939,"lon":5.366286,"is_reserved":false,"is_disabled":false,"rental_uris":{"android":"levelo://app?vid=69ea7d13-c1de-4886-8f03-12fdf11ea15d","ios":"levelo://app?vid=69ea7d13-c1de-4886-8f03-12fdf11ea15d"},"vehicle_type_id":"4","last_reported":1705428549,"current_range_meters":16000,"station_id":"ce4bgrh2rcd13ifvqc8g","pricing_plan_id":"free"},{"bike_id":"ac5d471c-cf27-4620-b51f-d7d984dcd5f5","system_id":"levelo_inurba_marseille","lat":43.301939,"lon":5.366286,"is_reserved":false,"is_disabled":false,"rental_uris":{"android":"levelo://app?vid=ac5d471c-cf27-4620-b51f-d7d984dcd5f5","ios":"levelo://app?vid=ac5d471c-cf27-4620-b51f-d7d984dcd5f5"},"vehicle_type_id":"4","last_reported":1705428549,"current_range_meters":7600,"station_id":"ce4bgrh2rcd13ifvqc8g","pricing_plan_id":"free"},{"bike_id":"fc3ae537-28c3-4882-ac2b-7ca5f1ed11cf","system_id":"levelo_inurba_marseille","lat":43.30287,"lon":5.37414,"is_reserved":false,"is_disabled":false,"rental_uris":{"android":"levelo://app?vid=fc3ae537-28c3-4882-ac2b-7ca5f1ed11cf","ios":"levelo://app?vid=fc3ae537-28c3-4882-ac2b-7ca5f1ed11cf"},"vehicle_type_id":"4","last_reported":1705428549,"current_range_meters":5200,"station_id":"","pricing_plan_id":"free"},{"bike_id":"c1dc90fd-fcf8-4c13-b607-ab99b74b6ca7","system_id":"levelo_inurba_marseille","lat":43.308012,"lon":5.381511,"is_reserved":false,"is_disabled":false,"rental_uris":{"android":"levelo://app?vid=c1dc90fd-fcf8-4c13-b607-ab99b74b6ca7","ios":"levelo://app?vid=c1dc90fd-fcf8-4c13-b607-ab99b74b6ca7"},"vehicle_type_id":"4","last_reported":1705428549,"current_range_meters":25200,"station_id":"ce4bgt12rcd13ifvqce0","pricing_plan_id":"free"},{"bike_id":"84bcd74b-8191-4970-ab68-f4d42d3ed2f3","system_id":"levelo_inurba_marseille","lat":43.304606,"lon":5.379026,"is_reserved":false,"is_disabled":false,"rental_uris":{"android":"levelo://app?vid=84bcd74b-8191-4970-ab68-f4d42d3ed2f3","ios":"levelo://app?vid=84bcd74b-8191-4970-ab68-f4d42d3ed2f3"},"vehicle_type_id":"4","last_reported":1705428549,"current_range_meters":11200,"station_id":"ce4bgup2rcd13ifvqcn0","pricing_plan_id":"free"},{"bike_id":"68af099e-8eb5-4985-9bef-04c30fa5c4f5","system_id":"levelo_inurba_marseille","lat":43.324771,"lon":5.36557,"is_reserved":false,"is_disabled":false,"rental_uris":{"android":"levelo://app?vid=68af099e-8eb5-4985-9bef-04c30fa5c4f5","ios":"levelo://app?vid=68af099e-8eb5-4985-9bef-04c30fa5c4f5"},"vehicle_type_id":"4","last_reported":1705428549,"current_range_meters":15600,"station_id":"ce4bhs12rcd13ifvqhvg","pricing_plan_id":"free"},{"bike_id":"fab5683d-901c-4385-b79e-36496d4de85c","system_id":"levelo_inurba_marseille","lat":43.283998,"lon":5.375062,"is_reserved":false,"is_disabled":false,"rental_uris":{"android":"levelo://app?vid=fab5683d-901c-4385-b79e-36496d4de85c","ios":"levelo://app?vid=fab5683d-901c-4385-b79e-36496d4de85c"},"vehicle_type_id":"4","last_reported":1705428549,"current_range_meters":19200,"station_id":"ce4bh412rcd13ifvqds0","pricing_plan_id":"free"},{"bike_id":"b6665513-6ca2-42dc-9baf-3c5b43a49768","system_id":"levelo_inurba_marseille","lat":43.324771,"lon":5.36557,"is_reserved":false,"is_disabled":false,"rental_uris":{"android":"levelo://app?vid=b6665513-6ca2-42dc-9baf-3c5b43a49768","ios":"levelo://app?vid=b6665513-6ca2-42dc-9baf-3c5b43a49768"},"vehicle_type_id":"4","last_reported":1705428549,"current_range_meters":28800,"station_id":"ce4bhs12rcd13ifvqhvg","pricing_plan_id":"free"},{"bike_id":"61a6e069-1738-4fb4-914c-71544c263cb0","system_id":"levelo_inurba_marseille","lat":43.324771,"lon":5.36557,"is_reserved":false,"is_disabled":false,"rental_uris":{"android":"levelo://app?vid=61a6e069-1738-4fb4-914c-71544c263cb0","ios":"levelo://app?vid=61a6e069-1738-4fb4-914c-71544c263cb0"},"vehicle_type_id":"4","last_reported":1705428549,"current_range_meters":9600,"station_id":"ce4bhs12rcd13ifvqhvg","pricing_plan_id":"free"},{"bike_id":"46c6befd-1978-4025-b46c-362d658f43fa","system_id":"levelo_inurba_marseille","lat":43.324771,"lon":5.36557,"is_reserved":false,"is_disabled":false,"rental_uris":{"android":"levelo://app?vid=46c6befd-1978-4025-b46c-362d658f43fa","ios":"levelo://app?vid=46c6befd-1978-4025-b46c-362d658f43fa"},"vehicle_type_id":"4","last_reported":1705428549,"current_range_meters":30800,"station_id":"ce4bhs12rcd13ifvqhvg","pricing_plan_id":"free"},{"bike_id":"c30f5091-ebb1-40bc-a3a9-a9652fa8570c","system_id":"levelo_inurba_marseille","lat":43.30285,"lon":5.37697,"is_reserved":false,"is_disabled":false,"rental_uris":{"android":"levelo://app?vid=c30f5091-ebb1-40bc-a3a9-a9652fa8570c","ios":"levelo://app?vid=c30f5091-ebb1-40bc-a3a9-a9652fa8570c"},"vehicle_type_id":"4","last_reported":1705428549,"current_range_meters":8000,"station_id":"","pricing_plan_id":"free"},{"bike_id":"ce203f00-9b61-4792-a072-366e23c0f704","system_id":"levelo_inurba_marseille","lat":43.302838,"lon":5.376993,"is_reserved":false,"is_disabled":false,"rental_uris":{"android":"levelo://app?vid=ce203f00-9b61-4792-a072-366e23c0f704","ios":"levelo://app?vid=ce203f00-9b61-4792-a072-366e23c0f704"},"vehicle_type_id":"4","last_reported":1705428549,"current_range_meters":30800,"station_id":"","pricing_plan_id":"free"},{"bike_id":"ddfbe85a-0697-4b51-a5b8-ec77ba980d8d","system_id":"levelo_inurba_marseille","lat":43.30276,"lon":5.377,"is_reserved":false,"is_disabled":false,"rental_uris":{"android":"levelo://app?vid=ddfbe85a-0697-4b51-a5b8-ec77ba980d8d","ios":"levelo://app?vid=ddfbe85a-0697-4b51-a5b8-ec77ba980d8d"},"vehicle_type_id":"4","last_reported":1705428549,"current_range_meters":17600,"station_id":"","pricing_plan_id":"free"},{"bike_id":"c73ddcba-bf06-4c8a-b03a-01a77791c1a6","system_id":"levelo_inurba_marseille","lat":43.301429,"lon":5.37413,"is_reserved":false,"is_disabled":false,"rental_uris":{"android":"levelo://app?vid=c73ddcba-bf06-4c8a-b03a-01a77791c1a6","ios":"levelo://app?vid=c73ddcba-bf06-4c8a-b03a-01a77791c1a6"},"vehicle_type_id":"4","last_reported":1705428549,"current_range_meters":26400,"station_id":"ce4bgs92rcd13ifvqcc0","pricing_plan_id":"free"},{"bike_id":"1c65a641-d2da-46e7-a24e-d0311880e83a","system_id":"levelo_inurba_marseille","lat":43.301429,"lon":5.37413,"is_reserved":false,"is_disabled":false,"rental_uris":{"android":"levelo://app?vid=1c65a641-d2da-46e7-a24e-d0311880e83a","ios":"levelo://app?vid=1c65a641-d2da-46e7-a24e-d0311880e83a"},"vehicle_type_id":"4","last_reported":1705428549,"current_range_meters":20400,"station_id":"ce4bgs92rcd13ifvqcc0","pricing_plan_id":"free"},{"bike_id":"93c5329f-d839-429d-99f3-d61ed9852c97","system_id":"levelo_inurba_marseille","lat":43.30143,"lon":5.37413,"is_reserved":false,"is_disabled":false,"rental_uris":{"android":"levelo://app?vid=93c5329f-d839-429d-99f3-d61ed9852c97","ios":"levelo://app?vid=93c5329f-d839-429d-99f3-d61ed9852c97"},"vehicle_type_id":"4","last_reported":1705428549,"current_range_meters":15600,"station_id":"ce4bgs92rcd13ifvqcc0","pricing_plan_id":"free"},{"bike_id":"05e7bf18-c01a-4d0f-af28-ec5522fcca76","system_id":"levelo_inurba_marseille","lat":43.31995,"lon":5.38145,"is_reserved":false,"is_disabled":false,"rental_uris":{"android":"levelo://app?vid=05e7bf18-c01a-4d0f-af28-ec5522fcca76","ios":"levelo://app?vid=05e7bf18-c01a-4d0f-af28-ec5522fcca76"},"vehicle_type_id":"4","last_reported":1705428549,"current_range_meters":11200,"station_id":"ce4bhr12rcd13ifvqhpg","pricing_plan_id":"free"},{"bike_id":"108030ef-e04f-40d2-aca4-48abb3cb5aa3","system_id":"levelo_inurba_marseille","lat":43.32,"lon":5.38145,"is_reserved":false,"is_disabled":false,"rental_uris":{"android":"levelo://app?vid=108030ef-e04f-40d2-aca4-48abb3cb5aa3","ios":"levelo://app?vid=108030ef-e04f-40d2-aca4-48abb3cb5aa3"},"vehicle_type_id":"4","last_reported":1705428549,"current_range_meters":10800,"station_id":"ce4bhr12rcd13ifvqhpg","pricing_plan_id":"free"},{"bike_id":"26fb0bd6-1ab7-43fe-824c-80f1a4097f4e","system_id":"levelo_inurba_marseille","lat":43.31992,"lon":5.38155,"is_reserved":false,"is_disabled":false,"rental_uris":{"android":"levelo://app?vid=26fb0bd6-1ab7-43fe-824c-80f1a4097f4e","ios":"levelo://app?vid=26fb0bd6-1ab7-43fe-824c-80f1a4097f4e"},"vehicle_type_id":"4","last_reported":1705428549,"current_range_meters":0,"station_id":"","pricing_plan_id":"free"},{"bike_id":"be41e6b3-2b16-4590-8097-ecde01390478","system_id":"levelo_inurba_marseille","lat":43.319997,"lon":5.381518,"is_reserved":false,"is_disabled":false,"rental_uris":{"android":"levelo://app?vid=be41e6b3-2b16-4590-8097-ecde01390478","ios":"levelo://app?vid=be41e6b3-2b16-4590-8097-ecde01390478"},"vehicle_type_id":"4","last_reported":1705428549,"current_range_meters":3600,"station_id":"ce4bhr12rcd13ifvqhpg","pricing_plan_id":"free"},{"bike_id":"d05be7e6-caaa-4779-8fd5-fb8ec23c81a0","system_id":"levelo_inurba_marseille","lat":43.313571,"lon":5.384829,"is_reserved":false,"is_disabled":false,"rental_uris":{"android":"levelo://app?vid=d05be7e6-caaa-4779-8fd5-fb8ec23c81a0","ios":"levelo://app?vid=d05be7e6-caaa-4779-8fd5-fb8ec23c81a0"},"vehicle_type_id":"4","last_reported":1705428549,"current_range_meters":26800,"station_id":"ce4bgt92rcd13ifvqcf0","pricing_plan_id":"free"},{"bike_id":"3202f5a3-a344-481c-9bdc-a5265d5e0516","system_id":"levelo_inurba_marseille","lat":43.299222,"lon":5.365554,"is_reserved":false,"is_disabled":false,"rental_uris":{"android":"levelo://app?vid=3202f5a3-a344-481c-9bdc-a5265d5e0516","ios":"levelo://app?vid=3202f5a3-a344-481c-9bdc-a5265d5e0516"},"vehicle_type_id":"4","last_reported":1705428549,"current_range_meters":26800,"station_id":"ce4bgm92rcd13ifvqbr0","pricing_plan_id":"free"},{"bike_id":"9a0833ed-00d6-4926-b15d-facb845541ff","system_id":"levelo_inurba_marseille","lat":43.29938,"lon":5.3655,"is_reserved":false,"is_disabled":false,"rental_uris":{"android":"levelo://app?vid=9a0833ed-00d6-4926-b15d-facb845541ff","ios":"levelo://app?vid=9a0833ed-00d6-4926-b15d-facb845541ff"},"vehicle_type_id":"4","last_reported":1705428549,"current_range_meters":0,"station_id":"ce4bgm92rcd13ifvqbr0","pricing_plan_id":"free"},{"bike_id":"27d224bc-e240-47a8-a8fa-999177c89891","system_id":"levelo_inurba_marseille","lat":43.299222,"lon":5.365554,"is_reserved":false,"is_disabled":false,"rental_uris":{"android":"levelo://app?vid=27d224bc-e240-47a8-a8fa-999177c89891","ios":"levelo://app?vid=27d224bc-e240-47a8-a8fa-999177c89891"},"vehicle_type_id":"4","last_reported":1705428549,"current_range_meters":20800,"station_id":"ce4bgm92rcd13ifvqbr0","pricing_plan_id":"free"},{"bike_id":"0b112b8d-82d4-44e4-9214-4b701457ffaf","system_id":"levelo_inurba_marseille","lat":43.299222,"lon":5.365554,"is_reserved":false,"is_disabled":false,"rental_uris":{"android":"levelo://app?vid=0b112b8d-82d4-44e4-9214-4b701457ffaf","ios":"levelo://app?vid=0b112b8d-82d4-44e4-9214-4b701457ffaf"},"vehicle_type_id":"4","last_reported":1705428549,"current_range_meters":26000,"station_id":"ce4bgm92rcd13ifvqbr0","pricing_plan_id":"free"},{"bike_id":"cbb43631-6cd3-48cd-9416-98e040748e81","system_id":"levelo_inurba_marseille","lat":43.29934,"lon":5.36537,"is_reserved":false,"is_disabled":false,"rental_uris":{"android":"levelo://app?vid=cbb43631-6cd3-48cd-9416-98e040748e81","ios":"levelo://app?vid=cbb43631-6cd3-48cd-9416-98e040748e81"},"vehicle_type_id":"4","last_reported":1705428549,"current_range_meters":31200,"station_id":"ce4bgm92rcd13ifvqbr0","pricing_plan_id":"free"},{"bike_id":"98a0778f-e8cf-4d5d-ab26-5f5542599ec5","system_id":"levelo_inurba_marseille","lat":43.299222,"lon":5.365554,"is_reserved":false,"is_disabled":false,"rental_uris":{"android":"levelo://app?vid=98a0778f-e8cf-4d5d-ab26-5f5542599ec5","ios":"levelo://app?vid=98a0778f-e8cf-4d5d-ab26-5f5542599ec5"},"vehicle_type_id":"4","last_reported":1705428549,"current_range_meters":17200,"station_id":"ce4bgm92rcd13ifvqbr0","pricing_plan_id":"free"},{"bike_id":"e9d48811-0301-47f9-b209-35b2add686ad","system_id":"levelo_inurba_marseille","lat":43.299222,"lon":5.365554,"is_reserved":false,"is_disabled":false,"rental_uris":{"android":"levelo://app?vid=e9d48811-0301-47f9-b209-35b2add686ad","ios":"levelo://app?vid=e9d48811-0301-47f9-b209-35b2add686ad"},"vehicle_type_id":"4","last_reported":1705428549,"current_range_meters":28000,"station_id":"ce4bgm92rcd13ifvqbr0","pricing_plan_id":"free"},{"bike_id":"33a1df11-82ca-4ffc-b978-a357253496e2","system_id":"levelo_inurba_marseille","lat":43.299222,"lon":5.365554,"is_reserved":false,"is_disabled":false,"rental_uris":{"android":"levelo://app?vid=33a1df11-82ca-4ffc-b978-a357253496e2","ios":"levelo://app?vid=33a1df11-82ca-4ffc-b978-a357253496e2"},"vehicle_type_id":"4","last_reported":1705428549,"current_range_meters":26800,"station_id":"ce4bgm92rcd13ifvqbr0","pricing_plan_id":"free"},{"bike_id":"ffadc66d-21c1-48c0-bb83-0911b55a5fd0","system_id":"levelo_inurba_marseille","lat":43.299222,"lon":5.365554,"is_reserved":false,"is_disabled":false,"rental_uris":{"android":"levelo://app?vid=ffadc66d-21c1-48c0-bb83-0911b55a5fd0","ios":"levelo://app?vid=ffadc66d-21c1-48c0-bb83-0911b55a5fd0"},"vehicle_type_id":"4","last_reported":1705428549,"current_range_meters":14800,"station_id":"ce4bgm92rcd13ifvqbr0","pricing_plan_id":"free"},{"bike_id":"228768d5-6148-4687-864d-66f6f3128de0","system_id":"levelo_inurba_marseille","lat":43.299724,"lon":5.371829,"is_reserved":false,"is_disabled":false,"rental_uris":{"android":"levelo://app?vid=228768d5-6148-4687-864d-66f6f3128de0","ios":"levelo://app?vid=228768d5-6148-4687-864d-66f6f3128de0"},"vehicle_type_id":"4","last_reported":1705428549,"current_range_meters":6800,"station_id":"ce4bgr92rcd13ifvqc7g","pricing_plan_id":"free"},{"bike_id":"282d4f24-ba10-48d9-86f1-50c2d2029589","system_id":"levelo_inurba_marseille","lat":43.299222,"lon":5.365554,"is_reserved":false,"is_disabled":false,"rental_uris":{"android":"levelo://app?vid=282d4f24-ba10-48d9-86f1-50c2d2029589","ios":"levelo://app?vid=282d4f24-ba10-48d9-86f1-50c2d2029589"},"vehicle_type_id":"4","last_reported":1705428549,"current_range_meters":30800,"station_id":"ce4bgm92rcd13ifvqbr0","pricing_plan_id":"free"},{"bike_id":"7ba4e8e1-fc44-4123-9e7d-84d86b0e12e1","system_id":"levelo_inurba_marseille","lat":43.299724,"lon":5.371829,"is_reserved":false,"is_disabled":false,"rental_uris":{"android":"levelo://app?vid=7ba4e8e1-fc44-4123-9e7d-84d86b0e12e1","ios":"levelo://app?vid=7ba4e8e1-fc44-4123-9e7d-84d86b0e12e1"},"vehicle_type_id":"4","last_reported":1705428549,"current_range_meters":18800,"station_id":"ce4bgr92rcd13ifvqc7g","pricing_plan_id":"free"},{"bike_id":"4e0c899c-0769-4185-b3d8-beeb2628f5b3","system_id":"levelo_inurba_marseille","lat":43.299724,"lon":5.371829,"is_reserved":false,"is_disabled":false,"rental_uris":{"android":"levelo://app?vid=4e0c899c-0769-4185-b3d8-beeb2628f5b3","ios":"levelo://app?vid=4e0c899c-0769-4185-b3d8-beeb2628f5b3"},"vehicle_type_id":"4","last_reported":1705428549,"current_range_meters":0,"station_id":"ce4bgr92rcd13ifvqc7g","pricing_plan_id":"free"},{"bike_id":"9574bbc4-d4ad-468b-8130-58f5e78d654e","system_id":"levelo_inurba_marseille","lat":43.305364,"lon":5.384119,"is_reserved":false,"is_disabled":false,"rental_uris":{"android":"levelo://app?vid=9574bbc4-d4ad-468b-8130-58f5e78d654e","ios":"levelo://app?vid=9574bbc4-d4ad-468b-8130-58f5e78d654e"},"vehicle_type_id":"4","last_reported":1705428549,"current_range_meters":10000,"station_id":"ce4bgg92rcd13ifvqb30","pricing_plan_id":"free"},{"bike_id":"0b8a7ee4-5855-4256-b5ee-aaaade85bab0","system_id":"levelo_inurba_marseille","lat":43.299243,"lon":5.374807,"is_reserved":false,"is_disabled":false,"rental_uris":{"android":"levelo://app?vid=0b8a7ee4-5855-4256-b5ee-aaaade85bab0","ios":"levelo://app?vid=0b8a7ee4-5855-4256-b5ee-aaaade85bab0"},"vehicle_type_id":"4","last_reported":1705428549,"current_range_meters":30000,"station_id":"ce4bgjh2rcd13ifvqbg0","pricing_plan_id":"free"},{"bike_id":"c6b5025d-a05a-451d-8f0a-97720d57778c","system_id":"levelo_inurba_marseille","lat":43.311722,"lon":5.387247,"is_reserved":false,"is_disabled":false,"rental_uris":{"android":"levelo://app?vid=c6b5025d-a05a-451d-8f0a-97720d57778c","ios":"levelo://app?vid=c6b5025d-a05a-451d-8f0a-97720d57778c"},"vehicle_type_id":"4","last_reported":1705428549,"current_range_meters":4800,"station_id":"ce4bgv12rcd13ifvqcp0","pricing_plan_id":"free"},{"bike_id":"4006fc07-368f-41e0-9726-fda2985b5621","system_id":"levelo_inurba_marseille","lat":43.298433,"lon":5.362774,"is_reserved":false,"is_disabled":false,"rental_uris":{"android":"levelo://app?vid=4006fc07-368f-41e0-9726-fda2985b5621","ios":"levelo://app?vid=4006fc07-368f-41e0-9726-fda2985b5621"},"vehicle_type_id":"4","last_reported":1705428549,"current_range_meters":31200,"station_id":"ce4bgpp2rcd13ifvqc3g","pricing_plan_id":"free"},{"bike_id":"d0a16ab1-b004-46c3-a641-ac4bec568202","system_id":"levelo_inurba_marseille","lat":43.297794,"lon":5.370888,"is_reserved":false,"is_disabled":false,"rental_uris":{"android":"levelo://app?vid=d0a16ab1-b004-46c3-a641-ac4bec568202","ios":"levelo://app?vid=d0a16ab1-b004-46c3-a641-ac4bec568202"},"vehicle_type_id":"4","last_reported":1705428549,"current_range_meters":16000,"station_id":"ce4bgop2rcd13ifvqc1g","pricing_plan_id":"free"},{"bike_id":"0d666429-792d-477e-b03b-8d07152545bb","system_id":"levelo_inurba_marseille","lat":43.322882,"lon":5.382609,"is_reserved":false,"is_disabled":false,"rental_uris":{"android":"levelo://app?vid=0d666429-792d-477e-b03b-8d07152545bb","ios":"levelo://app?vid=0d666429-792d-477e-b03b-8d07152545bb"},"vehicle_type_id":"4","last_reported":1705428549,"current_range_meters":7600,"station_id":"ce4bhr12rcd13ifvqhqg","pricing_plan_id":"free"},{"bike_id":"f675b702-73f1-40c0-8188-e4784f2816f9","system_id":"levelo_inurba_marseille","lat":43.322872,"lon":5.382756,"is_reserved":false,"is_disabled":false,"rental_uris":{"android":"levelo://app?vid=f675b702-73f1-40c0-8188-e4784f2816f9","ios":"levelo://app?vid=f675b702-73f1-40c0-8188-e4784f2816f9"},"vehicle_type_id":"4","last_reported":1705428549,"current_range_meters":30000,"station_id":"ce4bhr12rcd13ifvqhqg","pricing_plan_id":"free"},{"bike_id":"34c8b400-5074-46e3-aa02-f5d274dfaa4f","system_id":"levelo_inurba_marseille","lat":43.32291,"lon":5.3826,"is_reserved":false,"is_disabled":false,"rental_uris":{"android":"levelo://app?vid=34c8b400-5074-46e3-aa02-f5d274dfaa4f","ios":"levelo://app?vid=34c8b400-5074-46e3-aa02-f5d274dfaa4f"},"vehicle_type_id":"4","last_reported":1705428549,"current_range_meters":19600,"station_id":"ce4bhr12rcd13ifvqhqg","pricing_plan_id":"free"},{"bike_id":"f85a4350-761e-4ac5-924d-f795e652d954","system_id":"levelo_inurba_marseille","lat":43.322877,"lon":5.382648,"is_reserved":false,"is_disabled":false,"rental_uris":{"android":"levelo://app?vid=f85a4350-761e-4ac5-924d-f795e652d954","ios":"levelo://app?vid=f85a4350-761e-4ac5-924d-f795e652d954"},"vehicle_type_id":"4","last_reported":1705428549,"current_range_meters":1200,"station_id":"ce4bhr12rcd13ifvqhqg","pricing_plan_id":"free"},{"bike_id":"8eef6caf-4da6-4a23-8753-2c8018e70387","system_id":"levelo_inurba_marseille","lat":43.297794,"lon":5.370888,"is_reserved":false,"is_disabled":false,"rental_uris":{"android":"levelo://app?vid=8eef6caf-4da6-4a23-8753-2c8018e70387","ios":"levelo://app?vid=8eef6caf-4da6-4a23-8753-2c8018e70387"},"vehicle_type_id":"4","last_reported":1705428549,"current_range_meters":18400,"station_id":"ce4bgop2rcd13ifvqc1g","pricing_plan_id":"free"},{"bike_id":"c59e915a-05cb-49b2-8b19-dcae4465ebcc","system_id":"levelo_inurba_marseille","lat":43.32288,"lon":5.38269,"is_reserved":false,"is_disabled":false,"rental_uris":{"android":"levelo://app?vid=c59e915a-05cb-49b2-8b19-dcae4465ebcc","ios":"levelo://app?vid=c59e915a-05cb-49b2-8b19-dcae4465ebcc"},"vehicle_type_id":"4","last_reported":1705428549,"current_range_meters":0,"station_id":"ce4bhr12rcd13ifvqhqg","pricing_plan_id":"free"},{"bike_id":"98c634c7-bdbe-4fde-8a9e-66ae5ba58bf4","system_id":"levelo_inurba_marseille","lat":43.322872,"lon":5.382756,"is_reserved":false,"is_disabled":false,"rental_uris":{"android":"levelo://app?vid=98c634c7-bdbe-4fde-8a9e-66ae5ba58bf4","ios":"levelo://app?vid=98c634c7-bdbe-4fde-8a9e-66ae5ba58bf4"},"vehicle_type_id":"4","last_reported":1705428549,"current_range_meters":13600,"station_id":"ce4bhr12rcd13ifvqhqg","pricing_plan_id":"free"},{"bike_id":"26f91de3-6627-4706-9d59-9aefca0a07fd","system_id":"levelo_inurba_marseille","lat":43.322872,"lon":5.382756,"is_reserved":false,"is_disabled":false,"rental_uris":{"android":"levelo://app?vid=26f91de3-6627-4706-9d59-9aefca0a07fd","ios":"levelo://app?vid=26f91de3-6627-4706-9d59-9aefca0a07fd"},"vehicle_type_id":"4","last_reported":1705428549,"current_range_meters":31200,"station_id":"ce4bhr12rcd13ifvqhqg","pricing_plan_id":"free"},{"bike_id":"eb82efee-7e46-4cef-a643-d731882b95f4","system_id":"levelo_inurba_marseille","lat":43.328225,"lon":5.366775,"is_reserved":false,"is_disabled":false,"rental_uris":{"android":"levelo://app?vid=eb82efee-7e46-4cef-a643-d731882b95f4","ios":"levelo://app?vid=eb82efee-7e46-4cef-a643-d731882b95f4"},"vehicle_type_id":"4","last_reported":1705428549,"current_range_meters":13600,"station_id":"ce4bhs92rcd13ifvqi0g","pricing_plan_id":"free"},{"bike_id":"02f97db8-1e1e-4f38-89f3-11868234f7c3","system_id":"levelo_inurba_marseille","lat":43.32825,"lon":5.36668,"is_reserved":false,"is_disabled":false,"rental_uris":{"android":"levelo://app?vid=02f97db8-1e1e-4f38-89f3-11868234f7c3","ios":"levelo://app?vid=02f97db8-1e1e-4f38-89f3-11868234f7c3"},"vehicle_type_id":"4","last_reported":1705428549,"current_range_meters":21600,"station_id":"ce4bhs92rcd13ifvqi0g","pricing_plan_id":"free"},{"bike_id":"8463d0da-e03a-4a02-8a84-4dd7b137838e","system_id":"levelo_inurba_marseille","lat":43.328273,"lon":5.366836,"is_reserved":false,"is_disabled":false,"rental_uris":{"android":"levelo://app?vid=8463d0da-e03a-4a02-8a84-4dd7b137838e","ios":"levelo://app?vid=8463d0da-e03a-4a02-8a84-4dd7b137838e"},"vehicle_type_id":"4","last_reported":1705428549,"current_range_meters":24000,"station_id":"ce4bhs92rcd13ifvqi0g","pricing_plan_id":"free"},{"bike_id":"09621f87-561a-4138-9bcf-5568c59432a9","system_id":"levelo_inurba_marseille","lat":43.328275,"lon":5.366742,"is_reserved":false,"is_disabled":false,"rental_uris":{"android":"levelo://app?vid=09621f87-561a-4138-9bcf-5568c59432a9","ios":"levelo://app?vid=09621f87-561a-4138-9bcf-5568c59432a9"},"vehicle_type_id":"4","last_reported":1705428549,"current_range_meters":4400,"station_id":"ce4bhs92rcd13ifvqi0g","pricing_plan_id":"free"},{"bike_id":"d8681efd-1708-409a-ac48-2cd4f14c5861","system_id":"levelo_inurba_marseille","lat":43.32828,"lon":5.36687,"is_reserved":false,"is_disabled":false,"rental_uris":{"android":"levelo://app?vid=d8681efd-1708-409a-ac48-2cd4f14c5861","ios":"levelo://app?vid=d8681efd-1708-409a-ac48-2cd4f14c5861"},"vehicle_type_id":"4","last_reported":1705428549,"current_range_meters":19600,"station_id":"ce4bhs92rcd13ifvqi0g","pricing_plan_id":"free"},{"bike_id":"947a5c0b-0299-4cd2-aecd-5f351114aaf8","system_id":"levelo_inurba_marseille","lat":43.32828,"lon":5.36678,"is_reserved":false,"is_disabled":false,"rental_uris":{"android":"levelo://app?vid=947a5c0b-0299-4cd2-aecd-5f351114aaf8","ios":"levelo://app?vid=947a5c0b-0299-4cd2-aecd-5f351114aaf8"},"vehicle_type_id":"4","last_reported":1705428549,"current_range_meters":25200,"station_id":"ce4bhs92rcd13ifvqi0g","pricing_plan_id":"free"},{"bike_id":"85cedcff-9e9a-415d-8415-195178ea3cb7","system_id":"levelo_inurba_marseille","lat":43.328281,"lon":5.366814,"is_reserved":false,"is_disabled":false,"rental_uris":{"android":"levelo://app?vid=85cedcff-9e9a-415d-8415-195178ea3cb7","ios":"levelo://app?vid=85cedcff-9e9a-415d-8415-195178ea3cb7"},"vehicle_type_id":"4","last_reported":1705428549,"current_range_meters":24400,"station_id":"ce4bhs92rcd13ifvqi0g","pricing_plan_id":"free"},{"bike_id":"9e10fca8-afff-413a-a971-97b89741c75b","system_id":"levelo_inurba_marseille","lat":43.328286,"lon":5.366789,"is_reserved":false,"is_disabled":false,"rental_uris":{"android":"levelo://app?vid=9e10fca8-afff-413a-a971-97b89741c75b","ios":"levelo://app?vid=9e10fca8-afff-413a-a971-97b89741c75b"},"vehicle_type_id":"4","last_reported":1705428549,"current_range_meters":12800,"station_id":"ce4bhs92rcd13ifvqi0g","pricing_plan_id":"free"},{"bike_id":"ea0178f3-2c6b-4af6-b062-91b0b8dde1df","system_id":"levelo_inurba_marseille","lat":43.328288,"lon":5.366803,"is_reserved":false,"is_disabled":false,"rental_uris":{"android":"levelo://app?vid=ea0178f3-2c6b-4af6-b062-91b0b8dde1df","ios":"levelo://app?vid=ea0178f3-2c6b-4af6-b062-91b0b8dde1df"},"vehicle_type_id":"4","last_reported":1705428549,"current_range_meters":10400,"station_id":"ce4bhs92rcd13ifvqi0g","pricing_plan_id":"free"},{"bike_id":"9cda7071-0b99-4f13-a66f-99ee8455accb","system_id":"levelo_inurba_marseille","lat":43.328301,"lon":5.366745,"is_reserved":false,"is_disabled":false,"rental_uris":{"android":"levelo://app?vid=9cda7071-0b99-4f13-a66f-99ee8455accb","ios":"levelo://app?vid=9cda7071-0b99-4f13-a66f-99ee8455accb"},"vehicle_type_id":"4","last_reported":1705428549,"current_range_meters":22000,"station_id":"ce4bhs92rcd13ifvqi0g","pricing_plan_id":"free"},{"bike_id":"d6e71fc0-c662-46a4-9ce2-a4da97cef68b","system_id":"levelo_inurba_marseille","lat":43.328302,"lon":5.366784,"is_reserved":false,"is_disabled":false,"rental_uris":{"android":"levelo://app?vid=d6e71fc0-c662-46a4-9ce2-a4da97cef68b","ios":"levelo://app?vid=d6e71fc0-c662-46a4-9ce2-a4da97cef68b"},"vehicle_type_id":"4","last_reported":1705428549,"current_range_meters":19600,"station_id":"ce4bhs92rcd13ifvqi0g","pricing_plan_id":"free"},{"bike_id":"be5c14c2-d069-4824-b2b4-323fba6ab1b5","system_id":"levelo_inurba_marseille","lat":43.328305,"lon":5.366795,"is_reserved":false,"is_disabled":false,"rental_uris":{"android":"levelo://app?vid=be5c14c2-d069-4824-b2b4-323fba6ab1b5","ios":"levelo://app?vid=be5c14c2-d069-4824-b2b4-323fba6ab1b5"},"vehicle_type_id":"4","last_reported":1705428549,"current_range_meters":8800,"station_id":"ce4bhs92rcd13ifvqi0g","pricing_plan_id":"free"},{"bike_id":"db79623b-2d08-46cb-b464-e412386772a7","system_id":"levelo_inurba_marseille","lat":43.32831,"lon":5.3668,"is_reserved":false,"is_disabled":false,"rental_uris":{"android":"levelo://app?vid=db79623b-2d08-46cb-b464-e412386772a7","ios":"levelo://app?vid=db79623b-2d08-46cb-b464-e412386772a7"},"vehicle_type_id":"4","last_reported":1705428549,"current_range_meters":31200,"station_id":"ce4bhs92rcd13ifvqi0g","pricing_plan_id":"free"},{"bike_id":"1782ad4d-7cbc-4ac0-af82-b65688e9d34c","system_id":"levelo_inurba_marseille","lat":43.32831,"lon":5.36677,"is_reserved":false,"is_disabled":false,"rental_uris":{"android":"levelo://app?vid=1782ad4d-7cbc-4ac0-af82-b65688e9d34c","ios":"levelo://app?vid=1782ad4d-7cbc-4ac0-af82-b65688e9d34c"},"vehicle_type_id":"4","last_reported":1705428549,"current_range_meters":29200,"station_id":"ce4bhs92rcd13ifvqi0g","pricing_plan_id":"free"},{"bike_id":"6b4ea496-3016-42db-af64-ba8beb6e73fc","system_id":"levelo_inurba_marseille","lat":43.328371,"lon":5.366909,"is_reserved":false,"is_disabled":false,"rental_uris":{"android":"levelo://app?vid=6b4ea496-3016-42db-af64-ba8beb6e73fc","ios":"levelo://app?vid=6b4ea496-3016-42db-af64-ba8beb6e73fc"},"vehicle_type_id":"4","last_reported":1705428549,"current_range_meters":28000,"station_id":"ce4bhs92rcd13ifvqi0g","pricing_plan_id":"free"},{"bike_id":"641739e6-19de-47df-9491-35da26c3c9da","system_id":"levelo_inurba_marseille","lat":43.328371,"lon":5.366909,"is_reserved":false,"is_disabled":false,"rental_uris":{"android":"levelo://app?vid=641739e6-19de-47df-9491-35da26c3c9da","ios":"levelo://app?vid=641739e6-19de-47df-9491-35da26c3c9da"},"vehicle_type_id":"4","last_reported":1705428549,"current_range_meters":5600,"station_id":"ce4bhs92rcd13ifvqi0g","pricing_plan_id":"free"},{"bike_id":"88638e12-da12-4596-b7e2-600ab2f62219","system_id":"levelo_inurba_marseille","lat":43.328328,"lon":5.366725,"is_reserved":false,"is_disabled":false,"rental_uris":{"android":"levelo://app?vid=88638e12-da12-4596-b7e2-600ab2f62219","ios":"levelo://app?vid=88638e12-da12-4596-b7e2-600ab2f62219"},"vehicle_type_id":"4","last_reported":1705428549,"current_range_meters":14000,"station_id":"ce4bhs92rcd13ifvqi0g","pricing_plan_id":"free"},{"bike_id":"9949c318-cd33-4e7f-93e5-9b978c57ddec","system_id":"levelo_inurba_marseille","lat":43.32834,"lon":5.36672,"is_reserved":false,"is_disabled":false,"rental_uris":{"android":"levelo://app?vid=9949c318-cd33-4e7f-93e5-9b978c57ddec","ios":"levelo://app?vid=9949c318-cd33-4e7f-93e5-9b978c57ddec"},"vehicle_type_id":"4","last_reported":1705428549,"current_range_meters":24800,"station_id":"ce4bhs92rcd13ifvqi0g","pricing_plan_id":"free"},{"bike_id":"ee39d909-d441-40f5-bb66-dbc0cf434d89","system_id":"levelo_inurba_marseille","lat":43.32835,"lon":5.36674,"is_reserved":false,"is_disabled":false,"rental_uris":{"android":"levelo://app?vid=ee39d909-d441-40f5-bb66-dbc0cf434d89","ios":"levelo://app?vid=ee39d909-d441-40f5-bb66-dbc0cf434d89"},"vehicle_type_id":"4","last_reported":1705428549,"current_range_meters":6000,"station_id":"ce4bhs92rcd13ifvqi0g","pricing_plan_id":"free"},{"bike_id":"38082c03-fac1-44d3-a79f-5142b4a113a9","system_id":"levelo_inurba_marseille","lat":43.328373,"lon":5.366902,"is_reserved":false,"is_disabled":false,"rental_uris":{"android":"levelo://app?vid=38082c03-fac1-44d3-a79f-5142b4a113a9","ios":"levelo://app?vid=38082c03-fac1-44d3-a79f-5142b4a113a9"},"vehicle_type_id":"4","last_reported":1705428549,"current_range_meters":26800,"station_id":"ce4bhs92rcd13ifvqi0g","pricing_plan_id":"free"},{"bike_id":"c77693c5-b726-45a5-a04f-1a7d264e0392","system_id":"levelo_inurba_marseille","lat":43.297163,"lon":5.365866,"is_reserved":false,"is_disabled":false,"rental_uris":{"android":"levelo://app?vid=c77693c5-b726-45a5-a04f-1a7d264e0392","ios":"levelo://app?vid=c77693c5-b726-45a5-a04f-1a7d264e0392"},"vehicle_type_id":"4","last_reported":1705428549,"current_range_meters":2800,"station_id":"ce4bgn12rcd13ifvqbt0","pricing_plan_id":"free"},{"bike_id":"0c8b77e6-b7b3-45a1-8f3b-7c57b479a853","system_id":"levelo_inurba_marseille","lat":43.297163,"lon":5.365866,"is_reserved":false,"is_disabled":false,"rental_uris":{"android":"levelo://app?vid=0c8b77e6-b7b3-45a1-8f3b-7c57b479a853","ios":"levelo://app?vid=0c8b77e6-b7b3-45a1-8f3b-7c57b479a853"},"vehicle_type_id":"4","last_reported":1705428549,"current_range_meters":17600,"station_id":"ce4bgn12rcd13ifvqbt0","pricing_plan_id":"free"},{"bike_id":"c4e81f57-16e9-4e1e-a985-c90520ed7512","system_id":"levelo_inurba_marseille","lat":43.297163,"lon":5.365866,"is_reserved":false,"is_disabled":false,"rental_uris":{"android":"levelo://app?vid=c4e81f57-16e9-4e1e-a985-c90520ed7512","ios":"levelo://app?vid=c4e81f57-16e9-4e1e-a985-c90520ed7512"},"vehicle_type_id":"4","last_reported":1705428549,"current_range_meters":6400,"station_id":"ce4bgn12rcd13ifvqbt0","pricing_plan_id":"free"},{"bike_id":"eadfac06-64a4-4133-aaa5-1219f56c9de3","system_id":"levelo_inurba_marseille","lat":43.2968,"lon":5.37291,"is_reserved":false,"is_disabled":false,"rental_uris":{"android":"levelo://app?vid=eadfac06-64a4-4133-aaa5-1219f56c9de3","ios":"levelo://app?vid=eadfac06-64a4-4133-aaa5-1219f56c9de3"},"vehicle_type_id":"4","last_reported":1705428549,"current_range_meters":10800,"station_id":"ce4bgk12rcd13ifvqbj0","pricing_plan_id":"free"},{"bike_id":"d91bc121-ba03-4a79-af47-a3f48344b0c9","system_id":"levelo_inurba_marseille","lat":43.29598,"lon":5.36793,"is_reserved":false,"is_disabled":false,"rental_uris":{"android":"levelo://app?vid=d91bc121-ba03-4a79-af47-a3f48344b0c9","ios":"levelo://app?vid=d91bc121-ba03-4a79-af47-a3f48344b0c9"},"vehicle_type_id":"4","last_reported":1705428549,"current_range_meters":24400,"station_id":"","pricing_plan_id":"free"},{"bike_id":"b6bf26e3-76fb-4e79-8c3c-be9dc38807fc","system_id":"levelo_inurba_marseille","lat":43.296129,"lon":5.370777,"is_reserved":false,"is_disabled":false,"rental_uris":{"android":"levelo://app?vid=b6bf26e3-76fb-4e79-8c3c-be9dc38807fc","ios":"levelo://app?vid=b6bf26e3-76fb-4e79-8c3c-be9dc38807fc"},"vehicle_type_id":"4","last_reported":1705428549,"current_range_meters":30000,"station_id":"ce4bgnh2rcd13ifvqc0g","pricing_plan_id":"free"},{"bike_id":"3d8b657b-78e9-4261-9ac9-e8ba06b7056b","system_id":"levelo_inurba_marseille","lat":43.29727,"lon":5.37687,"is_reserved":false,"is_disabled":false,"rental_uris":{"android":"levelo://app?vid=3d8b657b-78e9-4261-9ac9-e8ba06b7056b","ios":"levelo://app?vid=3d8b657b-78e9-4261-9ac9-e8ba06b7056b"},"vehicle_type_id":"4","last_reported":1705428549,"current_range_meters":0,"station_id":"ce4bgkh2rcd13ifvqbl0","pricing_plan_id":"free"},{"bike_id":"470705a6-1fa2-415d-96ea-f7dd75b0a78e","system_id":"levelo_inurba_marseille","lat":43.309589,"lon":5.390258,"is_reserved":false,"is_disabled":false,"rental_uris":{"android":"levelo://app?vid=470705a6-1fa2-415d-96ea-f7dd75b0a78e","ios":"levelo://app?vid=470705a6-1fa2-415d-96ea-f7dd75b0a78e"},"vehicle_type_id":"4","last_reported":1705428549,"current_range_meters":14000,"station_id":"ce4bgup2rcd13ifvqco0","pricing_plan_id":"free"},{"bike_id":"13940331-954e-481b-91eb-2ad80cdb8f9a","system_id":"levelo_inurba_marseille","lat":43.299028,"lon":5.381509,"is_reserved":false,"is_disabled":false,"rental_uris":{"android":"levelo://app?vid=13940331-954e-481b-91eb-2ad80cdb8f9a","ios":"levelo://app?vid=13940331-954e-481b-91eb-2ad80cdb8f9a"},"vehicle_type_id":"4","last_reported":1705428549,"current_range_meters":14000,"station_id":"ce4bgj12rcd13ifvqbc0","pricing_plan_id":"free"},{"bike_id":"b1579a07-cb83-46d0-9072-ae6db8dfc285","system_id":"levelo_inurba_marseille","lat":43.317557,"lon":5.390173,"is_reserved":false,"is_disabled":false,"rental_uris":{"android":"levelo://app?vid=b1579a07-cb83-46d0-9072-ae6db8dfc285","ios":"levelo://app?vid=b1579a07-cb83-46d0-9072-ae6db8dfc285"},"vehicle_type_id":"4","last_reported":1705428549,"current_range_meters":23200,"station_id":"ce4bhqp2rcd13ifvqhng","pricing_plan_id":"free"},{"bike_id":"379dfe06-41ae-4fdc-8842-c3e09097f1d4","system_id":"levelo_inurba_marseille","lat":43.298037,"lon":5.381066,"is_reserved":false,"is_disabled":false,"rental_uris":{"android":"levelo://app?vid=379dfe06-41ae-4fdc-8842-c3e09097f1d4","ios":"levelo://app?vid=379dfe06-41ae-4fdc-8842-c3e09097f1d4"},"vehicle_type_id":"4","last_reported":1705428549,"current_range_meters":23600,"station_id":"ce4bgip2rcd13ifvqbb0","pricing_plan_id":"free"},{"bike_id":"0d536e83-c9e5-45b2-866e-d7dfc413fc54","system_id":"levelo_inurba_marseille","lat":43.298037,"lon":5.381066,"is_reserved":false,"is_disabled":false,"rental_uris":{"android":"levelo://app?vid=0d536e83-c9e5-45b2-866e-d7dfc413fc54","ios":"levelo://app?vid=0d536e83-c9e5-45b2-866e-d7dfc413fc54"},"vehicle_type_id":"4","last_reported":1705428549,"current_range_meters":10000,"station_id":"ce4bgip2rcd13ifvqbb0","pricing_plan_id":"free"},{"bike_id":"cf8fe6a8-a970-4b3d-a9e3-62dfa8f06f6c","system_id":"levelo_inurba_marseille","lat":43.298037,"lon":5.381066,"is_reserved":false,"is_disabled":false,"rental_uris":{"android":"levelo://app?vid=cf8fe6a8-a970-4b3d-a9e3-62dfa8f06f6c","ios":"levelo://app?vid=cf8fe6a8-a970-4b3d-a9e3-62dfa8f06f6c"},"vehicle_type_id":"4","last_reported":1705428549,"current_range_meters":11200,"station_id":"ce4bgip2rcd13ifvqbb0","pricing_plan_id":"free"},{"bike_id":"a4c936cb-badc-48b2-a30a-24b8aa09ad64","system_id":"levelo_inurba_marseille","lat":43.304274,"lon":5.388873,"is_reserved":false,"is_disabled":false,"rental_uris":{"android":"levelo://app?vid=a4c936cb-badc-48b2-a30a-24b8aa09ad64","ios":"levelo://app?vid=a4c936cb-badc-48b2-a30a-24b8aa09ad64"},"vehicle_type_id":"4","last_reported":1705428549,"current_range_meters":21600,"station_id":"ce4bgk12rcd13ifvqbi0","pricing_plan_id":"free"},{"bike_id":"bb0a5d44-b560-4401-bd2f-ad648d67d252","system_id":"levelo_inurba_marseille","lat":43.298037,"lon":5.381066,"is_reserved":false,"is_disabled":false,"rental_uris":{"android":"levelo://app?vid=bb0a5d44-b560-4401-bd2f-ad648d67d252","ios":"levelo://app?vid=bb0a5d44-b560-4401-bd2f-ad648d67d252"},"vehicle_type_id":"4","last_reported":1705428549,"current_range_meters":4400,"station_id":"ce4bgip2rcd13ifvqbb0","pricing_plan_id":"free"},{"bike_id":"09cd9af3-b417-4fbd-abd8-76b9b319b221","system_id":"levelo_inurba_marseille","lat":43.295748,"lon":5.37522,"is_reserved":false,"is_disabled":false,"rental_uris":{"android":"levelo://app?vid=09cd9af3-b417-4fbd-abd8-76b9b319b221","ios":"levelo://app?vid=09cd9af3-b417-4fbd-abd8-76b9b319b221"},"vehicle_type_id":"4","last_reported":1705428549,"current_range_meters":0,"station_id":"ce4bgh92rcd13ifvqb50","pricing_plan_id":"free"},{"bike_id":"3b645083-9dfb-4be0-80d9-ec7616e20cdc","system_id":"levelo_inurba_marseille","lat":43.296277,"lon":5.377108,"is_reserved":false,"is_disabled":false,"rental_uris":{"android":"levelo://app?vid=3b645083-9dfb-4be0-80d9-ec7616e20cdc","ios":"levelo://app?vid=3b645083-9dfb-4be0-80d9-ec7616e20cdc"},"vehicle_type_id":"4","last_reported":1705428549,"current_range_meters":22800,"station_id":"ce4bgi92rcd13ifvqb90","pricing_plan_id":"free"},{"bike_id":"aa1ef269-e1d4-4f42-b6cb-5559791dcc3f","system_id":"levelo_inurba_marseille","lat":43.299707,"lon":5.384859,"is_reserved":false,"is_disabled":false,"rental_uris":{"android":"levelo://app?vid=aa1ef269-e1d4-4f42-b6cb-5559791dcc3f","ios":"levelo://app?vid=aa1ef269-e1d4-4f42-b6cb-5559791dcc3f"},"vehicle_type_id":"4","last_reported":1705428549,"current_range_meters":31200,"station_id":"ce4bgj92rcd13ifvqbd0","pricing_plan_id":"free"},{"bike_id":"996a913c-2a4f-45f8-8f56-2455f1b51084","system_id":"levelo_inurba_marseille","lat":43.29533,"lon":5.375,"is_reserved":false,"is_disabled":false,"rental_uris":{"android":"levelo://app?vid=996a913c-2a4f-45f8-8f56-2455f1b51084","ios":"levelo://app?vid=996a913c-2a4f-45f8-8f56-2455f1b51084"},"vehicle_type_id":"4","last_reported":1705428549,"current_range_meters":0,"station_id":"ce4bgkp2rcd13ifvqbmg","pricing_plan_id":"free"},{"bike_id":"31f292c3-a0c0-47b7-84b9-e581a7e5bd8b","system_id":"levelo_inurba_marseille","lat":43.299724,"lon":5.384848,"is_reserved":false,"is_disabled":false,"rental_uris":{"android":"levelo://app?vid=31f292c3-a0c0-47b7-84b9-e581a7e5bd8b","ios":"levelo://app?vid=31f292c3-a0c0-47b7-84b9-e581a7e5bd8b"},"vehicle_type_id":"4","last_reported":1705428549,"current_range_meters":0,"station_id":"ce4bgj92rcd13ifvqbd0","pricing_plan_id":"free"},{"bike_id":"ff53480e-de14-4a22-ba68-c727cbba4c04","system_id":"levelo_inurba_marseille","lat":43.299707,"lon":5.384859,"is_reserved":false,"is_disabled":false,"rental_uris":{"android":"levelo://app?vid=ff53480e-de14-4a22-ba68-c727cbba4c04","ios":"levelo://app?vid=ff53480e-de14-4a22-ba68-c727cbba4c04"},"vehicle_type_id":"4","last_reported":1705428549,"current_range_meters":5200,"station_id":"ce4bgj92rcd13ifvqbd0","pricing_plan_id":"free"},{"bike_id":"12393621-0ab6-402b-a3e0-006f80f1f1bf","system_id":"levelo_inurba_marseille","lat":43.299707,"lon":5.384859,"is_reserved":false,"is_disabled":false,"rental_uris":{"android":"levelo://app?vid=12393621-0ab6-402b-a3e0-006f80f1f1bf","ios":"levelo://app?vid=12393621-0ab6-402b-a3e0-006f80f1f1bf"},"vehicle_type_id":"4","last_reported":1705428549,"current_range_meters":19600,"station_id":"ce4bgj92rcd13ifvqbd0","pricing_plan_id":"free"},{"bike_id":"bbb846d2-d7de-4413-811a-50fb711a6792","system_id":"levelo_inurba_marseille","lat":43.29969,"lon":5.38492,"is_reserved":false,"is_disabled":false,"rental_uris":{"android":"levelo://app?vid=bbb846d2-d7de-4413-811a-50fb711a6792","ios":"levelo://app?vid=bbb846d2-d7de-4413-811a-50fb711a6792"},"vehicle_type_id":"4","last_reported":1705428549,"current_range_meters":0,"station_id":"ce4bgj92rcd13ifvqbd0","pricing_plan_id":"free"},{"bike_id":"33788cc1-a778-45f8-be13-0999bc971653","system_id":"levelo_inurba_marseille","lat":43.32365,"lon":5.38878,"is_reserved":false,"is_disabled":false,"rental_uris":{"android":"levelo://app?vid=33788cc1-a778-45f8-be13-0999bc971653","ios":"levelo://app?vid=33788cc1-a778-45f8-be13-0999bc971653"},"vehicle_type_id":"4","last_reported":1705428549,"current_range_meters":28400,"station_id":"ce4bhqp2rcd13ifvqhog","pricing_plan_id":"free"},{"bike_id":"a4eeb908-619b-47fe-8e5b-c4c9538b360a","system_id":"levelo_inurba_marseille","lat":43.32366,"lon":5.3888,"is_reserved":false,"is_disabled":false,"rental_uris":{"android":"levelo://app?vid=a4eeb908-619b-47fe-8e5b-c4c9538b360a","ios":"levelo://app?vid=a4eeb908-619b-47fe-8e5b-c4c9538b360a"},"vehicle_type_id":"4","last_reported":1705428549,"current_range_meters":13600,"station_id":"ce4bhqp2rcd13ifvqhog","pricing_plan_id":"free"},{"bike_id":"93a7541d-594c-4713-9c37-84d0b76dd655","system_id":"levelo_inurba_marseille","lat":43.32363,"lon":5.38883,"is_reserved":false,"is_disabled":false,"rental_uris":{"android":"levelo://app?vid=93a7541d-594c-4713-9c37-84d0b76dd655","ios":"levelo://app?vid=93a7541d-594c-4713-9c37-84d0b76dd655"},"vehicle_type_id":"4","last_reported":1705428549,"current_range_meters":23600,"station_id":"ce4bhqp2rcd13ifvqhog","pricing_plan_id":"free"},{"bike_id":"a90e87df-2bac-4bf9-957b-70605969781d","system_id":"levelo_inurba_marseille","lat":43.32363,"lon":5.38884,"is_reserved":false,"is_disabled":false,"rental_uris":{"android":"levelo://app?vid=a90e87df-2bac-4bf9-957b-70605969781d","ios":"levelo://app?vid=a90e87df-2bac-4bf9-957b-70605969781d"},"vehicle_type_id":"4","last_reported":1705428549,"current_range_meters":4000,"station_id":"ce4bhqp2rcd13ifvqhog","pricing_plan_id":"free"},{"bike_id":"6c828aad-37a3-40f1-90ac-283510bdc01d","system_id":"levelo_inurba_marseille","lat":43.32367,"lon":5.38881,"is_reserved":false,"is_disabled":false,"rental_uris":{"android":"levelo://app?vid=6c828aad-37a3-40f1-90ac-283510bdc01d","ios":"levelo://app?vid=6c828aad-37a3-40f1-90ac-283510bdc01d"},"vehicle_type_id":"4","last_reported":1705428549,"current_range_meters":28000,"station_id":"ce4bhqp2rcd13ifvqhog","pricing_plan_id":"free"},{"bike_id":"4ed8488a-f05c-4119-bfec-f892cce04e14","system_id":"levelo_inurba_marseille","lat":43.323664,"lon":5.388851,"is_reserved":false,"is_disabled":false,"rental_uris":{"android":"levelo://app?vid=4ed8488a-f05c-4119-bfec-f892cce04e14","ios":"levelo://app?vid=4ed8488a-f05c-4119-bfec-f892cce04e14"},"vehicle_type_id":"4","last_reported":1705428549,"current_range_meters":3200,"station_id":"ce4bhqp2rcd13ifvqhog","pricing_plan_id":"free"},{"bike_id":"2ec4001f-5cf2-4614-bbfc-ffc6c5b765c3","system_id":"levelo_inurba_marseille","lat":43.323653,"lon":5.388893,"is_reserved":false,"is_disabled":false,"rental_uris":{"android":"levelo://app?vid=2ec4001f-5cf2-4614-bbfc-ffc6c5b765c3","ios":"levelo://app?vid=2ec4001f-5cf2-4614-bbfc-ffc6c5b765c3"},"vehicle_type_id":"4","last_reported":1705428549,"current_range_meters":28400,"station_id":"ce4bhqp2rcd13ifvqhog","pricing_plan_id":"free"},{"bike_id":"65200528-92c8-43dc-a28c-65f22643d5f6","system_id":"levelo_inurba_marseille","lat":43.323674,"lon":5.388879,"is_reserved":false,"is_disabled":false,"rental_uris":{"android":"levelo://app?vid=65200528-92c8-43dc-a28c-65f22643d5f6","ios":"levelo://app?vid=65200528-92c8-43dc-a28c-65f22643d5f6"},"vehicle_type_id":"4","last_reported":1705428549,"current_range_meters":14800,"station_id":"ce4bhqp2rcd13ifvqhog","pricing_plan_id":"free"},{"bike_id":"b7beb6a5-b030-4fe2-a25b-ee6b5b88bebb","system_id":"levelo_inurba_marseille","lat":43.32372,"lon":5.38888,"is_reserved":false,"is_disabled":false,"rental_uris":{"android":"levelo://app?vid=b7beb6a5-b030-4fe2-a25b-ee6b5b88bebb","ios":"levelo://app?vid=b7beb6a5-b030-4fe2-a25b-ee6b5b88bebb"},"vehicle_type_id":"4","last_reported":1705428549,"current_range_meters":2400,"station_id":"ce4bhqp2rcd13ifvqhog","pricing_plan_id":"free"},{"bike_id":"9ae5c9cf-cd0d-4626-8645-e16166aa3a37","system_id":"levelo_inurba_marseille","lat":43.29601,"lon":5.381084,"is_reserved":false,"is_disabled":false,"rental_uris":{"android":"levelo://app?vid=9ae5c9cf-cd0d-4626-8645-e16166aa3a37","ios":"levelo://app?vid=9ae5c9cf-cd0d-4626-8645-e16166aa3a37"},"vehicle_type_id":"4","last_reported":1705428549,"current_range_meters":13200,"station_id":"ce4bgl12rcd13ifvqbo0","pricing_plan_id":"free"},{"bike_id":"913eb26c-92b8-404d-9ac2-dc676554715e","system_id":"levelo_inurba_marseille","lat":43.29602,"lon":5.381084,"is_reserved":false,"is_disabled":false,"rental_uris":{"android":"levelo://app?vid=913eb26c-92b8-404d-9ac2-dc676554715e","ios":"levelo://app?vid=913eb26c-92b8-404d-9ac2-dc676554715e"},"vehicle_type_id":"4","last_reported":1705428549,"current_range_meters":26000,"station_id":"ce4bgl12rcd13ifvqbo0","pricing_plan_id":"free"},{"bike_id":"765d01d5-32bf-4ed3-a6e8-2608dac2010f","system_id":"levelo_inurba_marseille","lat":43.302992,"lon":5.392136,"is_reserved":false,"is_disabled":false,"rental_uris":{"android":"levelo://app?vid=765d01d5-32bf-4ed3-a6e8-2608dac2010f","ios":"levelo://app?vid=765d01d5-32bf-4ed3-a6e8-2608dac2010f"},"vehicle_type_id":"4","last_reported":1705428549,"current_range_meters":12400,"station_id":"ce4bgkh2rcd13ifvqbk0","pricing_plan_id":"free"},{"bike_id":"f23a3d56-c7ec-46b3-ab98-bd1ee687af98","system_id":"levelo_inurba_marseille","lat":43.2936,"lon":5.37835,"is_reserved":false,"is_disabled":false,"rental_uris":{"android":"levelo://app?vid=f23a3d56-c7ec-46b3-ab98-bd1ee687af98","ios":"levelo://app?vid=f23a3d56-c7ec-46b3-ab98-bd1ee687af98"},"vehicle_type_id":"4","last_reported":1705428549,"current_range_meters":21200,"station_id":"ce4bgjh2rcd13ifvqbf0","pricing_plan_id":"free"},{"bike_id":"e02a8d63-3b6f-4bc6-a617-bb33e97d9a75","system_id":"levelo_inurba_marseille","lat":43.292311,"lon":5.360731,"is_reserved":false,"is_disabled":false,"rental_uris":{"android":"levelo://app?vid=e02a8d63-3b6f-4bc6-a617-bb33e97d9a75","ios":"levelo://app?vid=e02a8d63-3b6f-4bc6-a617-bb33e97d9a75"},"vehicle_type_id":"4","last_reported":1705428549,"current_range_meters":12800,"station_id":"ce4bhbh2rcd13ifvqeqg","pricing_plan_id":"free"},{"bike_id":"893d6395-9f4a-494b-b763-9935b569007a","system_id":"levelo_inurba_marseille","lat":43.30304,"lon":5.368987,"is_reserved":false,"is_disabled":false,"rental_uris":{"android":"levelo://app?vid=893d6395-9f4a-494b-b763-9935b569007a","ios":"levelo://app?vid=893d6395-9f4a-494b-b763-9935b569007a"},"vehicle_type_id":"4","last_reported":1705428549,"current_range_meters":16400,"station_id":"ce4bgqh2rcd13ifvqc5g","pricing_plan_id":"free"},{"bike_id":"beb8bbc9-2d6b-4de3-9bdd-1cf3f463c8b2","system_id":"levelo_inurba_marseille","lat":43.292703,"lon":5.376147,"is_reserved":false,"is_disabled":false,"rental_uris":{"android":"levelo://app?vid=beb8bbc9-2d6b-4de3-9bdd-1cf3f463c8b2","ios":"levelo://app?vid=beb8bbc9-2d6b-4de3-9bdd-1cf3f463c8b2"},"vehicle_type_id":"4","last_reported":1705428549,"current_range_meters":6800,"station_id":"","pricing_plan_id":"free"},{"bike_id":"dc3585c9-091b-40ec-9577-e3580e907018","system_id":"levelo_inurba_marseille","lat":43.291994,"lon":5.357886,"is_reserved":false,"is_disabled":false,"rental_uris":{"android":"levelo://app?vid=dc3585c9-091b-40ec-9577-e3580e907018","ios":"levelo://app?vid=dc3585c9-091b-40ec-9577-e3580e907018"},"vehicle_type_id":"4","last_reported":1705428549,"current_range_meters":23600,"station_id":"ce4bhb12rcd13ifvqel0","pricing_plan_id":"free"},{"bike_id":"8073ea03-be81-4338-815a-1745a7977b60","system_id":"levelo_inurba_marseille","lat":43.291994,"lon":5.357886,"is_reserved":false,"is_disabled":false,"rental_uris":{"android":"levelo://app?vid=8073ea03-be81-4338-815a-1745a7977b60","ios":"levelo://app?vid=8073ea03-be81-4338-815a-1745a7977b60"},"vehicle_type_id":"4","last_reported":1705428549,"current_range_meters":29600,"station_id":"ce4bhb12rcd13ifvqel0","pricing_plan_id":"free"},{"bike_id":"e26e7816-2dbd-4e09-89c2-22e618d4d739","system_id":"levelo_inurba_marseille","lat":43.291994,"lon":5.357886,"is_reserved":false,"is_disabled":false,"rental_uris":{"android":"levelo://app?vid=e26e7816-2dbd-4e09-89c2-22e618d4d739","ios":"levelo://app?vid=e26e7816-2dbd-4e09-89c2-22e618d4d739"},"vehicle_type_id":"4","last_reported":1705428549,"current_range_meters":22400,"station_id":"ce4bhb12rcd13ifvqel0","pricing_plan_id":"free"},{"bike_id":"eb05bab1-42c9-404c-a340-3621906c5c21","system_id":"levelo_inurba_marseille","lat":43.291994,"lon":5.357886,"is_reserved":false,"is_disabled":false,"rental_uris":{"android":"levelo://app?vid=eb05bab1-42c9-404c-a340-3621906c5c21","ios":"levelo://app?vid=eb05bab1-42c9-404c-a340-3621906c5c21"},"vehicle_type_id":"4","last_reported":1705428549,"current_range_meters":30000,"station_id":"ce4bhb12rcd13ifvqel0","pricing_plan_id":"free"},{"bike_id":"59e060dd-c338-4c5d-a75d-2b574160e859","system_id":"levelo_inurba_marseille","lat":43.313291,"lon":5.396838,"is_reserved":false,"is_disabled":false,"rental_uris":{"android":"levelo://app?vid=59e060dd-c338-4c5d-a75d-2b574160e859","ios":"levelo://app?vid=59e060dd-c338-4c5d-a75d-2b574160e859"},"vehicle_type_id":"4","last_reported":1705428549,"current_range_meters":16000,"station_id":"ce4bgvp2rcd13ifvqcu0","pricing_plan_id":"free"},{"bike_id":"e833124f-8313-4ae3-9784-f3caa812bce5","system_id":"levelo_inurba_marseille","lat":43.291994,"lon":5.357886,"is_reserved":false,"is_disabled":false,"rental_uris":{"android":"levelo://app?vid=e833124f-8313-4ae3-9784-f3caa812bce5","ios":"levelo://app?vid=e833124f-8313-4ae3-9784-f3caa812bce5"},"vehicle_type_id":"4","last_reported":1705428549,"current_range_meters":24000,"station_id":"ce4bhb12rcd13ifvqel0","pricing_plan_id":"free"},{"bike_id":"715d0ba2-69c6-4bd1-a265-9ce27bde7ed4","system_id":"levelo_inurba_marseille","lat":43.313291,"lon":5.396838,"is_reserved":false,"is_disabled":false,"rental_uris":{"android":"levelo://app?vid=715d0ba2-69c6-4bd1-a265-9ce27bde7ed4","ios":"levelo://app?vid=715d0ba2-69c6-4bd1-a265-9ce27bde7ed4"},"vehicle_type_id":"4","last_reported":1705428549,"current_range_meters":14800,"station_id":"ce4bgvp2rcd13ifvqcu0","pricing_plan_id":"free"},{"bike_id":"35bb406b-43bc-4254-90fc-93722895f24d","system_id":"levelo_inurba_marseille","lat":43.313291,"lon":5.396838,"is_reserved":false,"is_disabled":false,"rental_uris":{"android":"levelo://app?vid=35bb406b-43bc-4254-90fc-93722895f24d","ios":"levelo://app?vid=35bb406b-43bc-4254-90fc-93722895f24d"},"vehicle_type_id":"4","last_reported":1705428549,"current_range_meters":7600,"station_id":"ce4bgvp2rcd13ifvqcu0","pricing_plan_id":"free"},{"bike_id":"b93b9788-c401-44f3-8248-1c48caf61b8e","system_id":"levelo_inurba_marseille","lat":43.309038,"lon":5.396546,"is_reserved":false,"is_disabled":false,"rental_uris":{"android":"levelo://app?vid=b93b9788-c401-44f3-8248-1c48caf61b8e","ios":"levelo://app?vid=b93b9788-c401-44f3-8248-1c48caf61b8e"},"vehicle_type_id":"4","last_reported":1705428549,"current_range_meters":12800,"station_id":"ce4bh012rcd13ifvqcv0","pricing_plan_id":"free"},{"bike_id":"9a36fab0-c591-4782-8038-3d70ca5c098b","system_id":"levelo_inurba_marseille","lat":43.313291,"lon":5.396838,"is_reserved":false,"is_disabled":false,"rental_uris":{"android":"levelo://app?vid=9a36fab0-c591-4782-8038-3d70ca5c098b","ios":"levelo://app?vid=9a36fab0-c591-4782-8038-3d70ca5c098b"},"vehicle_type_id":"4","last_reported":1705428549,"current_range_meters":24000,"station_id":"ce4bgvp2rcd13ifvqcu0","pricing_plan_id":"free"},{"bike_id":"f1af75be-f457-41f2-b38c-f3cdd8b150a0","system_id":"levelo_inurba_marseille","lat":43.313291,"lon":5.396838,"is_reserved":false,"is_disabled":false,"rental_uris":{"android":"levelo://app?vid=f1af75be-f457-41f2-b38c-f3cdd8b150a0","ios":"levelo://app?vid=f1af75be-f457-41f2-b38c-f3cdd8b150a0"},"vehicle_type_id":"4","last_reported":1705428549,"current_range_meters":15600,"station_id":"ce4bgvp2rcd13ifvqcu0","pricing_plan_id":"free"},{"bike_id":"f8616de0-66c1-434b-b29e-5c2886d482e3","system_id":"levelo_inurba_marseille","lat":43.309047,"lon":5.396551,"is_reserved":false,"is_disabled":false,"rental_uris":{"android":"levelo://app?vid=f8616de0-66c1-434b-b29e-5c2886d482e3","ios":"levelo://app?vid=f8616de0-66c1-434b-b29e-5c2886d482e3"},"vehicle_type_id":"4","last_reported":1705428549,"current_range_meters":23600,"station_id":"ce4bh012rcd13ifvqcv0","pricing_plan_id":"free"},{"bike_id":"c1b9692a-e641-4d0d-bce4-c95dda26b1b0","system_id":"levelo_inurba_marseille","lat":43.309038,"lon":5.396546,"is_reserved":false,"is_disabled":false,"rental_uris":{"android":"levelo://app?vid=c1b9692a-e641-4d0d-bce4-c95dda26b1b0","ios":"levelo://app?vid=c1b9692a-e641-4d0d-bce4-c95dda26b1b0"},"vehicle_type_id":"4","last_reported":1705428549,"current_range_meters":400,"station_id":"ce4bh012rcd13ifvqcv0","pricing_plan_id":"free"},{"bike_id":"19d12816-9bb0-429e-9f0a-3d3d80084153","system_id":"levelo_inurba_marseille","lat":43.309038,"lon":5.396546,"is_reserved":false,"is_disabled":false,"rental_uris":{"android":"levelo://app?vid=19d12816-9bb0-429e-9f0a-3d3d80084153","ios":"levelo://app?vid=19d12816-9bb0-429e-9f0a-3d3d80084153"},"vehicle_type_id":"4","last_reported":1705428549,"current_range_meters":24400,"station_id":"ce4bh012rcd13ifvqcv0","pricing_plan_id":"free"},{"bike_id":"a9cd8635-86bc-47da-b9f3-c10e0e70fd27","system_id":"levelo_inurba_marseille","lat":43.295335,"lon":5.38537,"is_reserved":false,"is_disabled":false,"rental_uris":{"android":"levelo://app?vid=a9cd8635-86bc-47da-b9f3-c10e0e70fd27","ios":"levelo://app?vid=a9cd8635-86bc-47da-b9f3-c10e0e70fd27"},"vehicle_type_id":"4","last_reported":1705428549,"current_range_meters":5600,"station_id":"ce4bgih2rcd13ifvqba0","pricing_plan_id":"free"},{"bike_id":"fa08a8c6-cc7a-4a43-8b2e-f2e2a893042c","system_id":"levelo_inurba_marseille","lat":43.29529,"lon":5.385581,"is_reserved":false,"is_disabled":false,"rental_uris":{"android":"levelo://app?vid=fa08a8c6-cc7a-4a43-8b2e-f2e2a893042c","ios":"levelo://app?vid=fa08a8c6-cc7a-4a43-8b2e-f2e2a893042c"},"vehicle_type_id":"4","last_reported":1705428549,"current_range_meters":15200,"station_id":"ce4bgih2rcd13ifvqba0","pricing_plan_id":"free"},{"bike_id":"8e8353c7-efcc-44aa-bf35-5da10bf5dae6","system_id":"levelo_inurba_marseille","lat":43.295416,"lon":5.385752,"is_reserved":false,"is_disabled":false,"rental_uris":{"android":"levelo://app?vid=8e8353c7-efcc-44aa-bf35-5da10bf5dae6","ios":"levelo://app?vid=8e8353c7-efcc-44aa-bf35-5da10bf5dae6"},"vehicle_type_id":"4","last_reported":1705428549,"current_range_meters":23600,"station_id":"ce4bh2h2rcd13ifvqdh0","pricing_plan_id":"free"},{"bike_id":"eb695833-3aad-4e5c-89d3-0bf626ccae97","system_id":"levelo_inurba_marseille","lat":43.29529,"lon":5.385581,"is_reserved":false,"is_disabled":false,"rental_uris":{"android":"levelo://app?vid=eb695833-3aad-4e5c-89d3-0bf626ccae97","ios":"levelo://app?vid=eb695833-3aad-4e5c-89d3-0bf626ccae97"},"vehicle_type_id":"4","last_reported":1705428549,"current_range_meters":14400,"station_id":"ce4bgih2rcd13ifvqba0","pricing_plan_id":"free"},{"bike_id":"5fa90d2d-9098-4feb-a6ed-40daf1142863","system_id":"levelo_inurba_marseille","lat":43.289468,"lon":5.363719,"is_reserved":false,"is_disabled":false,"rental_uris":{"android":"levelo://app?vid=5fa90d2d-9098-4feb-a6ed-40daf1142863","ios":"levelo://app?vid=5fa90d2d-9098-4feb-a6ed-40daf1142863"},"vehicle_type_id":"4","last_reported":1705428549,"current_range_meters":23600,"station_id":"ce4bhc92rcd13ifvqetg","pricing_plan_id":"free"},{"bike_id":"3c09d25c-dc8f-4a2e-a952-8c805d8b12dc","system_id":"levelo_inurba_marseille","lat":43.302008,"lon":5.394694,"is_reserved":false,"is_disabled":false,"rental_uris":{"android":"levelo://app?vid=3c09d25c-dc8f-4a2e-a952-8c805d8b12dc","ios":"levelo://app?vid=3c09d25c-dc8f-4a2e-a952-8c805d8b12dc"},"vehicle_type_id":"4","last_reported":1705428549,"current_range_meters":0,"station_id":"ce4bh0p2rcd13ifvqd70","pricing_plan_id":"free"},{"bike_id":"2d209de3-8192-4655-99c7-5161288498b4","system_id":"levelo_inurba_marseille","lat":43.290624,"lon":5.359245,"is_reserved":false,"is_disabled":false,"rental_uris":{"android":"levelo://app?vid=2d209de3-8192-4655-99c7-5161288498b4","ios":"levelo://app?vid=2d209de3-8192-4655-99c7-5161288498b4"},"vehicle_type_id":"4","last_reported":1705428549,"current_range_meters":29600,"station_id":"ce4bha92rcd13ifvqeg0","pricing_plan_id":"free"},{"bike_id":"129468e0-b0f4-4936-ad60-6945aba0df91","system_id":"levelo_inurba_marseille","lat":43.290624,"lon":5.359245,"is_reserved":false,"is_disabled":false,"rental_uris":{"android":"levelo://app?vid=129468e0-b0f4-4936-ad60-6945aba0df91","ios":"levelo://app?vid=129468e0-b0f4-4936-ad60-6945aba0df91"},"vehicle_type_id":"4","last_reported":1705428549,"current_range_meters":30000,"station_id":"ce4bha92rcd13ifvqeg0","pricing_plan_id":"free"},{"bike_id":"9eb95b87-b2cf-4590-a50d-1e55140a3a72","system_id":"levelo_inurba_marseille","lat":43.290631,"lon":5.359244,"is_reserved":false,"is_disabled":false,"rental_uris":{"android":"levelo://app?vid=9eb95b87-b2cf-4590-a50d-1e55140a3a72","ios":"levelo://app?vid=9eb95b87-b2cf-4590-a50d-1e55140a3a72"},"vehicle_type_id":"4","last_reported":1705428549,"current_range_meters":29600,"station_id":"ce4bha92rcd13ifvqeg0","pricing_plan_id":"free"},{"bike_id":"1714dcff-11e6-4089-be68-066ca8923933","system_id":"levelo_inurba_marseille","lat":43.294153,"lon":5.386305,"is_reserved":false,"is_disabled":false,"rental_uris":{"android":"levelo://app?vid=1714dcff-11e6-4089-be68-066ca8923933","ios":"levelo://app?vid=1714dcff-11e6-4089-be68-066ca8923933"},"vehicle_type_id":"4","last_reported":1705428549,"current_range_meters":26800,"station_id":"ce4bh2h2rcd13ifvqdh0","pricing_plan_id":"free"},{"bike_id":"14c1baca-ac2c-47d2-9925-ab2eb651b046","system_id":"levelo_inurba_marseille","lat":43.294153,"lon":5.386305,"is_reserved":false,"is_disabled":false,"rental_uris":{"android":"levelo://app?vid=14c1baca-ac2c-47d2-9925-ab2eb651b046","ios":"levelo://app?vid=14c1baca-ac2c-47d2-9925-ab2eb651b046"},"vehicle_type_id":"4","last_reported":1705428549,"current_range_meters":24800,"station_id":"ce4bh2h2rcd13ifvqdh0","pricing_plan_id":"free"},{"bike_id":"46bf84e6-ac17-4369-9206-2d5a5b8e302d","system_id":"levelo_inurba_marseille","lat":43.294162,"lon":5.386292,"is_reserved":false,"is_disabled":false,"rental_uris":{"android":"levelo://app?vid=46bf84e6-ac17-4369-9206-2d5a5b8e302d","ios":"levelo://app?vid=46bf84e6-ac17-4369-9206-2d5a5b8e302d"},"vehicle_type_id":"4","last_reported":1705428549,"current_range_meters":12400,"station_id":"ce4bh2h2rcd13ifvqdh0","pricing_plan_id":"free"},{"bike_id":"fa7b6b5d-b413-42fb-b3e6-cf93c762071a","system_id":"levelo_inurba_marseille","lat":43.294153,"lon":5.386305,"is_reserved":false,"is_disabled":false,"rental_uris":{"android":"levelo://app?vid=fa7b6b5d-b413-42fb-b3e6-cf93c762071a","ios":"levelo://app?vid=fa7b6b5d-b413-42fb-b3e6-cf93c762071a"},"vehicle_type_id":"4","last_reported":1705428549,"current_range_meters":10400,"station_id":"ce4bh2h2rcd13ifvqdh0","pricing_plan_id":"free"},{"bike_id":"fca59d47-ba1f-4738-b916-9c25102dce52","system_id":"levelo_inurba_marseille","lat":43.294162,"lon":5.386292,"is_reserved":false,"is_disabled":false,"rental_uris":{"android":"levelo://app?vid=fca59d47-ba1f-4738-b916-9c25102dce52","ios":"levelo://app?vid=fca59d47-ba1f-4738-b916-9c25102dce52"},"vehicle_type_id":"4","last_reported":1705428549,"current_range_meters":24800,"station_id":"ce4bh2h2rcd13ifvqdh0","pricing_plan_id":"free"},{"bike_id":"7f357b09-1bda-471a-8136-61c3c2ea8635","system_id":"levelo_inurba_marseille","lat":43.29418,"lon":5.38625,"is_reserved":false,"is_disabled":false,"rental_uris":{"android":"levelo://app?vid=7f357b09-1bda-471a-8136-61c3c2ea8635","ios":"levelo://app?vid=7f357b09-1bda-471a-8136-61c3c2ea8635"},"vehicle_type_id":"4","last_reported":1705428549,"current_range_meters":14800,"station_id":"ce4bh2h2rcd13ifvqdh0","pricing_plan_id":"free"},{"bike_id":"49432989-15bf-406a-b931-9a4793d88319","system_id":"levelo_inurba_marseille","lat":43.294162,"lon":5.386292,"is_reserved":false,"is_disabled":false,"rental_uris":{"android":"levelo://app?vid=49432989-15bf-406a-b931-9a4793d88319","ios":"levelo://app?vid=49432989-15bf-406a-b931-9a4793d88319"},"vehicle_type_id":"4","last_reported":1705428549,"current_range_meters":26400,"station_id":"ce4bh2h2rcd13ifvqdh0","pricing_plan_id":"free"},{"bike_id":"3a7e495a-3aeb-4eff-ba36-aeb1e09cf0e4","system_id":"levelo_inurba_marseille","lat":43.289468,"lon":5.363719,"is_reserved":false,"is_disabled":false,"rental_uris":{"android":"levelo://app?vid=3a7e495a-3aeb-4eff-ba36-aeb1e09cf0e4","ios":"levelo://app?vid=3a7e495a-3aeb-4eff-ba36-aeb1e09cf0e4"},"vehicle_type_id":"4","last_reported":1705428549,"current_range_meters":27200,"station_id":"ce4bhc92rcd13ifvqetg","pricing_plan_id":"free"},{"bike_id":"29b82307-61fb-4c59-801c-36ce22cb1287","system_id":"levelo_inurba_marseille","lat":43.29416,"lon":5.3863,"is_reserved":false,"is_disabled":false,"rental_uris":{"android":"levelo://app?vid=29b82307-61fb-4c59-801c-36ce22cb1287","ios":"levelo://app?vid=29b82307-61fb-4c59-801c-36ce22cb1287"},"vehicle_type_id":"4","last_reported":1705428549,"current_range_meters":4800,"station_id":"ce4bh2h2rcd13ifvqdh0","pricing_plan_id":"free"},{"bike_id":"820dd41f-9b9b-4e0c-8192-0483109d76cd","system_id":"levelo_inurba_marseille","lat":43.29416,"lon":5.3863,"is_reserved":false,"is_disabled":false,"rental_uris":{"android":"levelo://app?vid=820dd41f-9b9b-4e0c-8192-0483109d76cd","ios":"levelo://app?vid=820dd41f-9b9b-4e0c-8192-0483109d76cd"},"vehicle_type_id":"4","last_reported":1705428549,"current_range_meters":26400,"station_id":"ce4bh2h2rcd13ifvqdh0","pricing_plan_id":"free"},{"bike_id":"aea63ac9-289f-483b-bbdd-c26be86f0e5a","system_id":"levelo_inurba_marseille","lat":43.29411,"lon":5.38621,"is_reserved":false,"is_disabled":false,"rental_uris":{"android":"levelo://app?vid=aea63ac9-289f-483b-bbdd-c26be86f0e5a","ios":"levelo://app?vid=aea63ac9-289f-483b-bbdd-c26be86f0e5a"},"vehicle_type_id":"4","last_reported":1705428549,"current_range_meters":0,"station_id":"ce4bh2h2rcd13ifvqdh0","pricing_plan_id":"free"},{"bike_id":"5a8a0dc7-126a-43f3-bc7f-19fa836fd13c","system_id":"levelo_inurba_marseille","lat":43.294183,"lon":5.386438,"is_reserved":false,"is_disabled":false,"rental_uris":{"android":"levelo://app?vid=5a8a0dc7-126a-43f3-bc7f-19fa836fd13c","ios":"levelo://app?vid=5a8a0dc7-126a-43f3-bc7f-19fa836fd13c"},"vehicle_type_id":"4","last_reported":1705428549,"current_range_meters":18000,"station_id":"","pricing_plan_id":"free"},{"bike_id":"91fe248d-eb10-4192-9749-c72cdc6aa353","system_id":"levelo_inurba_marseille","lat":43.28935,"lon":5.36638,"is_reserved":false,"is_disabled":false,"rental_uris":{"android":"levelo://app?vid=91fe248d-eb10-4192-9749-c72cdc6aa353","ios":"levelo://app?vid=91fe248d-eb10-4192-9749-c72cdc6aa353"},"vehicle_type_id":"4","last_reported":1705428549,"current_range_meters":13200,"station_id":"ce4bhap2rcd13ifvqek0","pricing_plan_id":"free"},{"bike_id":"8ba2d639-30b5-415d-833b-529a99a95f5d","system_id":"levelo_inurba_marseille","lat":43.289184,"lon":5.366408,"is_reserved":false,"is_disabled":false,"rental_uris":{"android":"levelo://app?vid=8ba2d639-30b5-415d-833b-529a99a95f5d","ios":"levelo://app?vid=8ba2d639-30b5-415d-833b-529a99a95f5d"},"vehicle_type_id":"4","last_reported":1705428549,"current_range_meters":14000,"station_id":"ce4bhap2rcd13ifvqek0","pricing_plan_id":"free"},{"bike_id":"91a6e31b-9301-4cb2-9b99-2965d2025ac3","system_id":"levelo_inurba_marseille","lat":43.289468,"lon":5.363719,"is_reserved":false,"is_disabled":false,"rental_uris":{"android":"levelo://app?vid=91a6e31b-9301-4cb2-9b99-2965d2025ac3","ios":"levelo://app?vid=91a6e31b-9301-4cb2-9b99-2965d2025ac3"},"vehicle_type_id":"4","last_reported":1705428549,"current_range_meters":0,"station_id":"ce4bhc92rcd13ifvqetg","pricing_plan_id":"free"},{"bike_id":"514ba7be-d8cd-462a-b50e-cbead39e13ca","system_id":"levelo_inurba_marseille","lat":43.289468,"lon":5.363719,"is_reserved":false,"is_disabled":false,"rental_uris":{"android":"levelo://app?vid=514ba7be-d8cd-462a-b50e-cbead39e13ca","ios":"levelo://app?vid=514ba7be-d8cd-462a-b50e-cbead39e13ca"},"vehicle_type_id":"4","last_reported":1705428549,"current_range_meters":16400,"station_id":"ce4bhc92rcd13ifvqetg","pricing_plan_id":"free"},{"bike_id":"e613ea1d-892a-475c-a121-f02387e1063e","system_id":"levelo_inurba_marseille","lat":43.292642,"lon":5.384254,"is_reserved":false,"is_disabled":false,"rental_uris":{"android":"levelo://app?vid=e613ea1d-892a-475c-a121-f02387e1063e","ios":"levelo://app?vid=e613ea1d-892a-475c-a121-f02387e1063e"},"vehicle_type_id":"4","last_reported":1705428549,"current_range_meters":400,"station_id":"ce4bh692rcd13ifvqea0","pricing_plan_id":"free"},{"bike_id":"f1829c3c-4931-4d51-969e-47b2b2ed24c8","system_id":"levelo_inurba_marseille","lat":43.289307,"lon":5.38406,"is_reserved":false,"is_disabled":false,"rental_uris":{"android":"levelo://app?vid=f1829c3c-4931-4d51-969e-47b2b2ed24c8","ios":"levelo://app?vid=f1829c3c-4931-4d51-969e-47b2b2ed24c8"},"vehicle_type_id":"4","last_reported":1705428549,"current_range_meters":26000,"station_id":"ce4bh612rcd13ifvqe6g","pricing_plan_id":"free"},{"bike_id":"365cc49b-56ee-45a7-b565-12fd283bf4ce","system_id":"levelo_inurba_marseille","lat":43.292642,"lon":5.384254,"is_reserved":false,"is_disabled":false,"rental_uris":{"android":"levelo://app?vid=365cc49b-56ee-45a7-b565-12fd283bf4ce","ios":"levelo://app?vid=365cc49b-56ee-45a7-b565-12fd283bf4ce"},"vehicle_type_id":"4","last_reported":1705428549,"current_range_meters":17600,"station_id":"ce4bh692rcd13ifvqea0","pricing_plan_id":"free"},{"bike_id":"2e417353-bbc2-4c7c-aff7-32752a384b8d","system_id":"levelo_inurba_marseille","lat":43.290995,"lon":5.381361,"is_reserved":false,"is_disabled":false,"rental_uris":{"android":"levelo://app?vid=2e417353-bbc2-4c7c-aff7-32752a384b8d","ios":"levelo://app?vid=2e417353-bbc2-4c7c-aff7-32752a384b8d"},"vehicle_type_id":"4","last_reported":1705428549,"current_range_meters":3600,"station_id":"ce4bh512rcd13ifvqe2g","pricing_plan_id":"free"},{"bike_id":"9a2d2de1-f209-43df-8ec4-4897652b1a12","system_id":"levelo_inurba_marseille","lat":43.297853,"lon":5.39328,"is_reserved":false,"is_disabled":false,"rental_uris":{"android":"levelo://app?vid=9a2d2de1-f209-43df-8ec4-4897652b1a12","ios":"levelo://app?vid=9a2d2de1-f209-43df-8ec4-4897652b1a12"},"vehicle_type_id":"4","last_reported":1705428549,"current_range_meters":26800,"station_id":"","pricing_plan_id":"free"},{"bike_id":"ff7a3510-22f3-47cd-a4fd-2ed29069de7e","system_id":"levelo_inurba_marseille","lat":43.297815,"lon":5.393548,"is_reserved":false,"is_disabled":false,"rental_uris":{"android":"levelo://app?vid=ff7a3510-22f3-47cd-a4fd-2ed29069de7e","ios":"levelo://app?vid=ff7a3510-22f3-47cd-a4fd-2ed29069de7e"},"vehicle_type_id":"4","last_reported":1705428549,"current_range_meters":12000,"station_id":"chh1huq6cuj3fo74tm60","pricing_plan_id":"free"},{"bike_id":"920d832f-0fa3-4dd2-8ec0-4f9cac1c103a","system_id":"levelo_inurba_marseille","lat":43.29782,"lon":5.3934,"is_reserved":false,"is_disabled":false,"rental_uris":{"android":"levelo://app?vid=920d832f-0fa3-4dd2-8ec0-4f9cac1c103a","ios":"levelo://app?vid=920d832f-0fa3-4dd2-8ec0-4f9cac1c103a"},"vehicle_type_id":"4","last_reported":1705428549,"current_range_meters":20800,"station_id":"chh1huq6cuj3fo74tm60","pricing_plan_id":"free"},{"bike_id":"7a14ad5c-fc54-4524-a2d2-8c4158131b8d","system_id":"levelo_inurba_marseille","lat":43.289743,"lon":5.378304,"is_reserved":false,"is_disabled":false,"rental_uris":{"android":"levelo://app?vid=7a14ad5c-fc54-4524-a2d2-8c4158131b8d","ios":"levelo://app?vid=7a14ad5c-fc54-4524-a2d2-8c4158131b8d"},"vehicle_type_id":"4","last_reported":1705428549,"current_range_meters":0,"station_id":"ce4bh9p2rcd13ifvqed0","pricing_plan_id":"free"},{"bike_id":"7c64a78d-cf44-415c-a807-707bdbdb0e66","system_id":"levelo_inurba_marseille","lat":43.33023,"lon":5.39029,"is_reserved":false,"is_disabled":false,"rental_uris":{"android":"levelo://app?vid=7c64a78d-cf44-415c-a807-707bdbdb0e66","ios":"levelo://app?vid=7c64a78d-cf44-415c-a807-707bdbdb0e66"},"vehicle_type_id":"4","last_reported":1705428549,"current_range_meters":1200,"station_id":"ce4bhr92rcd13ifvqhrg","pricing_plan_id":"free"},{"bike_id":"e75e707a-0f8d-45e2-9ae3-d639b4222c9c","system_id":"levelo_inurba_marseille","lat":43.295169,"lon":5.390426,"is_reserved":false,"is_disabled":false,"rental_uris":{"android":"levelo://app?vid=e75e707a-0f8d-45e2-9ae3-d639b4222c9c","ios":"levelo://app?vid=e75e707a-0f8d-45e2-9ae3-d639b4222c9c"},"vehicle_type_id":"4","last_reported":1705428549,"current_range_meters":14000,"station_id":"ce4bh3p2rcd13ifvqdp0","pricing_plan_id":"free"},{"bike_id":"e056a354-5aed-41bf-864d-4a61949478ad","system_id":"levelo_inurba_marseille","lat":43.330224,"lon":5.390444,"is_reserved":false,"is_disabled":false,"rental_uris":{"android":"levelo://app?vid=e056a354-5aed-41bf-864d-4a61949478ad","ios":"levelo://app?vid=e056a354-5aed-41bf-864d-4a61949478ad"},"vehicle_type_id":"4","last_reported":1705428549,"current_range_meters":20800,"station_id":"ce4bhr92rcd13ifvqhrg","pricing_plan_id":"free"},{"bike_id":"9c65c96f-ebbd-40af-a74a-0db8f635ac41","system_id":"levelo_inurba_marseille","lat":43.330442,"lon":5.389148,"is_reserved":false,"is_disabled":false,"rental_uris":{"android":"levelo://app?vid=9c65c96f-ebbd-40af-a74a-0db8f635ac41","ios":"levelo://app?vid=9c65c96f-ebbd-40af-a74a-0db8f635ac41"},"vehicle_type_id":"4","last_reported":1705428549,"current_range_meters":10000,"station_id":"ce4bhr92rcd13ifvqhrg","pricing_plan_id":"free"},{"bike_id":"364d281e-8a2e-449a-8f7e-7d431f280a98","system_id":"levelo_inurba_marseille","lat":43.295169,"lon":5.390426,"is_reserved":false,"is_disabled":false,"rental_uris":{"android":"levelo://app?vid=364d281e-8a2e-449a-8f7e-7d431f280a98","ios":"levelo://app?vid=364d281e-8a2e-449a-8f7e-7d431f280a98"},"vehicle_type_id":"4","last_reported":1705428549,"current_range_meters":0,"station_id":"ce4bh3p2rcd13ifvqdp0","pricing_plan_id":"free"},{"bike_id":"a2e41e28-cdf8-45ff-b1f3-5774fc9e5d5d","system_id":"levelo_inurba_marseille","lat":43.33024,"lon":5.39045,"is_reserved":false,"is_disabled":false,"rental_uris":{"android":"levelo://app?vid=a2e41e28-cdf8-45ff-b1f3-5774fc9e5d5d","ios":"levelo://app?vid=a2e41e28-cdf8-45ff-b1f3-5774fc9e5d5d"},"vehicle_type_id":"4","last_reported":1705428549,"current_range_meters":12800,"station_id":"ce4bhr92rcd13ifvqhrg","pricing_plan_id":"free"},{"bike_id":"942f7412-ae3a-4b0c-ba15-a3ecc5b4bba7","system_id":"levelo_inurba_marseille","lat":43.33024,"lon":5.39045,"is_reserved":false,"is_disabled":false,"rental_uris":{"android":"levelo://app?vid=942f7412-ae3a-4b0c-ba15-a3ecc5b4bba7","ios":"levelo://app?vid=942f7412-ae3a-4b0c-ba15-a3ecc5b4bba7"},"vehicle_type_id":"4","last_reported":1705428549,"current_range_meters":8400,"station_id":"ce4bhr92rcd13ifvqhrg","pricing_plan_id":"free"},{"bike_id":"226bb269-1d10-4f64-bdf3-296d273ae135","system_id":"levelo_inurba_marseille","lat":43.330277,"lon":5.3904,"is_reserved":false,"is_disabled":false,"rental_uris":{"android":"levelo://app?vid=226bb269-1d10-4f64-bdf3-296d273ae135","ios":"levelo://app?vid=226bb269-1d10-4f64-bdf3-296d273ae135"},"vehicle_type_id":"4","last_reported":1705428549,"current_range_meters":0,"station_id":"ce4bhr92rcd13ifvqhrg","pricing_plan_id":"free"},{"bike_id":"d72f036c-d332-4a4d-9681-0eff556c2dd4","system_id":"levelo_inurba_marseille","lat":43.295169,"lon":5.390426,"is_reserved":false,"is_disabled":false,"rental_uris":{"android":"levelo://app?vid=d72f036c-d332-4a4d-9681-0eff556c2dd4","ios":"levelo://app?vid=d72f036c-d332-4a4d-9681-0eff556c2dd4"},"vehicle_type_id":"4","last_reported":1705428549,"current_range_meters":800,"station_id":"ce4bh3p2rcd13ifvqdp0","pricing_plan_id":"free"},{"bike_id":"24e545c8-f1a9-413d-b3e9-bb70ac8cb353","system_id":"levelo_inurba_marseille","lat":43.295169,"lon":5.390426,"is_reserved":false,"is_disabled":false,"rental_uris":{"android":"levelo://app?vid=24e545c8-f1a9-413d-b3e9-bb70ac8cb353","ios":"levelo://app?vid=24e545c8-f1a9-413d-b3e9-bb70ac8cb353"},"vehicle_type_id":"4","last_reported":1705428549,"current_range_meters":15600,"station_id":"ce4bh3p2rcd13ifvqdp0","pricing_plan_id":"free"},{"bike_id":"12a6779f-3d9f-4fd9-8bbc-5e5bf2c38f88","system_id":"levelo_inurba_marseille","lat":43.295169,"lon":5.390426,"is_reserved":false,"is_disabled":false,"rental_uris":{"android":"levelo://app?vid=12a6779f-3d9f-4fd9-8bbc-5e5bf2c38f88","ios":"levelo://app?vid=12a6779f-3d9f-4fd9-8bbc-5e5bf2c38f88"},"vehicle_type_id":"4","last_reported":1705428549,"current_range_meters":18400,"station_id":"ce4bh3p2rcd13ifvqdp0","pricing_plan_id":"free"},{"bike_id":"cd824638-1839-47db-a2dc-d24c915c290f","system_id":"levelo_inurba_marseille","lat":43.2901,"lon":5.381269,"is_reserved":false,"is_disabled":false,"rental_uris":{"android":"levelo://app?vid=cd824638-1839-47db-a2dc-d24c915c290f","ios":"levelo://app?vid=cd824638-1839-47db-a2dc-d24c915c290f"},"vehicle_type_id":"4","last_reported":1705428549,"current_range_meters":8000,"station_id":"ce4bh4p2rcd13ifvqe1g","pricing_plan_id":"free"},{"bike_id":"5c960595-fcfe-492e-8ab8-dfe0a280b2ee","system_id":"levelo_inurba_marseille","lat":43.2901,"lon":5.381269,"is_reserved":false,"is_disabled":false,"rental_uris":{"android":"levelo://app?vid=5c960595-fcfe-492e-8ab8-dfe0a280b2ee","ios":"levelo://app?vid=5c960595-fcfe-492e-8ab8-dfe0a280b2ee"},"vehicle_type_id":"4","last_reported":1705428549,"current_range_meters":3200,"station_id":"ce4bh4p2rcd13ifvqe1g","pricing_plan_id":"free"},{"bike_id":"3a1ac764-6233-4e96-9647-ad0c1d26ac8b","system_id":"levelo_inurba_marseille","lat":43.290234,"lon":5.381436,"is_reserved":false,"is_disabled":false,"rental_uris":{"android":"levelo://app?vid=3a1ac764-6233-4e96-9647-ad0c1d26ac8b","ios":"levelo://app?vid=3a1ac764-6233-4e96-9647-ad0c1d26ac8b"},"vehicle_type_id":"4","last_reported":1705428549,"current_range_meters":0,"station_id":"ce4bh4p2rcd13ifvqe1g","pricing_plan_id":"free"},{"bike_id":"ffdf5e1b-93f5-48de-ab3f-977f7eb3ab43","system_id":"levelo_inurba_marseille","lat":43.28856,"lon":5.358371,"is_reserved":false,"is_disabled":false,"rental_uris":{"android":"levelo://app?vid=ffdf5e1b-93f5-48de-ab3f-977f7eb3ab43","ios":"levelo://app?vid=ffdf5e1b-93f5-48de-ab3f-977f7eb3ab43"},"vehicle_type_id":"4","last_reported":1705428549,"current_range_meters":4800,"station_id":"ce4bhb12rcd13ifvqem0","pricing_plan_id":"free"},{"bike_id":"d73440dc-c778-477a-ae11-26fe0bc647a0","system_id":"levelo_inurba_marseille","lat":43.28856,"lon":5.358371,"is_reserved":false,"is_disabled":false,"rental_uris":{"android":"levelo://app?vid=d73440dc-c778-477a-ae11-26fe0bc647a0","ios":"levelo://app?vid=d73440dc-c778-477a-ae11-26fe0bc647a0"},"vehicle_type_id":"4","last_reported":1705428549,"current_range_meters":24800,"station_id":"ce4bhb12rcd13ifvqem0","pricing_plan_id":"free"},{"bike_id":"65e7b406-3211-4b71-a8b2-61a0e7890960","system_id":"levelo_inurba_marseille","lat":43.28856,"lon":5.358371,"is_reserved":false,"is_disabled":false,"rental_uris":{"android":"levelo://app?vid=65e7b406-3211-4b71-a8b2-61a0e7890960","ios":"levelo://app?vid=65e7b406-3211-4b71-a8b2-61a0e7890960"},"vehicle_type_id":"4","last_reported":1705428549,"current_range_meters":29200,"station_id":"ce4bhb12rcd13ifvqem0","pricing_plan_id":"free"},{"bike_id":"76a76f61-82a5-48c0-abc3-d2dabe6772e1","system_id":"levelo_inurba_marseille","lat":43.28856,"lon":5.358371,"is_reserved":false,"is_disabled":false,"rental_uris":{"android":"levelo://app?vid=76a76f61-82a5-48c0-abc3-d2dabe6772e1","ios":"levelo://app?vid=76a76f61-82a5-48c0-abc3-d2dabe6772e1"},"vehicle_type_id":"4","last_reported":1705428549,"current_range_meters":30800,"station_id":"ce4bhb12rcd13ifvqem0","pricing_plan_id":"free"},{"bike_id":"1e61b843-c9e6-4324-a37a-7aa88910fab6","system_id":"levelo_inurba_marseille","lat":43.28856,"lon":5.358371,"is_reserved":false,"is_disabled":false,"rental_uris":{"android":"levelo://app?vid=1e61b843-c9e6-4324-a37a-7aa88910fab6","ios":"levelo://app?vid=1e61b843-c9e6-4324-a37a-7aa88910fab6"},"vehicle_type_id":"4","last_reported":1705428549,"current_range_meters":1600,"station_id":"ce4bhb12rcd13ifvqem0","pricing_plan_id":"free"},{"bike_id":"e52b53e6-6213-44f1-8861-4d04fc0bfc5f","system_id":"levelo_inurba_marseille","lat":43.312609,"lon":5.401662,"is_reserved":false,"is_disabled":false,"rental_uris":{"android":"levelo://app?vid=e52b53e6-6213-44f1-8861-4d04fc0bfc5f","ios":"levelo://app?vid=e52b53e6-6213-44f1-8861-4d04fc0bfc5f"},"vehicle_type_id":"4","last_reported":1705428549,"current_range_meters":13200,"station_id":"ce4bh092rcd13ifvqd30","pricing_plan_id":"free"},{"bike_id":"e24d14bc-cee9-48c2-85a2-e2a64a4f562d","system_id":"levelo_inurba_marseille","lat":43.312609,"lon":5.401662,"is_reserved":false,"is_disabled":false,"rental_uris":{"android":"levelo://app?vid=e24d14bc-cee9-48c2-85a2-e2a64a4f562d","ios":"levelo://app?vid=e24d14bc-cee9-48c2-85a2-e2a64a4f562d"},"vehicle_type_id":"4","last_reported":1705428549,"current_range_meters":25200,"station_id":"ce4bh092rcd13ifvqd30","pricing_plan_id":"free"},{"bike_id":"034a1c99-1b20-444e-b820-d600efc95777","system_id":"levelo_inurba_marseille","lat":43.312609,"lon":5.401662,"is_reserved":false,"is_disabled":false,"rental_uris":{"android":"levelo://app?vid=034a1c99-1b20-444e-b820-d600efc95777","ios":"levelo://app?vid=034a1c99-1b20-444e-b820-d600efc95777"},"vehicle_type_id":"4","last_reported":1705428549,"current_range_meters":9600,"station_id":"ce4bh092rcd13ifvqd30","pricing_plan_id":"free"},{"bike_id":"2ffe6a10-8360-4eb3-8853-e5a93b2756e8","system_id":"levelo_inurba_marseille","lat":43.312609,"lon":5.401662,"is_reserved":false,"is_disabled":false,"rental_uris":{"android":"levelo://app?vid=2ffe6a10-8360-4eb3-8853-e5a93b2756e8","ios":"levelo://app?vid=2ffe6a10-8360-4eb3-8853-e5a93b2756e8"},"vehicle_type_id":"4","last_reported":1705428549,"current_range_meters":17600,"station_id":"ce4bh092rcd13ifvqd30","pricing_plan_id":"free"},{"bike_id":"0c758ef1-ba82-40f3-904f-35b121a5f182","system_id":"levelo_inurba_marseille","lat":43.312609,"lon":5.401662,"is_reserved":false,"is_disabled":false,"rental_uris":{"android":"levelo://app?vid=0c758ef1-ba82-40f3-904f-35b121a5f182","ios":"levelo://app?vid=0c758ef1-ba82-40f3-904f-35b121a5f182"},"vehicle_type_id":"4","last_reported":1705428549,"current_range_meters":20000,"station_id":"ce4bh092rcd13ifvqd30","pricing_plan_id":"free"},{"bike_id":"75424632-1864-437c-9701-856f27d9b5d9","system_id":"levelo_inurba_marseille","lat":43.312609,"lon":5.401662,"is_reserved":false,"is_disabled":false,"rental_uris":{"android":"levelo://app?vid=75424632-1864-437c-9701-856f27d9b5d9","ios":"levelo://app?vid=75424632-1864-437c-9701-856f27d9b5d9"},"vehicle_type_id":"4","last_reported":1705428549,"current_range_meters":4000,"station_id":"ce4bh092rcd13ifvqd30","pricing_plan_id":"free"},{"bike_id":"c50d7ec3-4f49-4ecf-a5d4-e4f9e0e2e8dc","system_id":"levelo_inurba_marseille","lat":43.309371,"lon":5.401449,"is_reserved":false,"is_disabled":false,"rental_uris":{"android":"levelo://app?vid=c50d7ec3-4f49-4ecf-a5d4-e4f9e0e2e8dc","ios":"levelo://app?vid=c50d7ec3-4f49-4ecf-a5d4-e4f9e0e2e8dc"},"vehicle_type_id":"4","last_reported":1705428549,"current_range_meters":14000,"station_id":"ce4bgvp2rcd13ifvqct0","pricing_plan_id":"free"},{"bike_id":"baec73df-bbbb-4cd9-9964-969b46c92355","system_id":"levelo_inurba_marseille","lat":43.33752,"lon":5.37437,"is_reserved":false,"is_disabled":false,"rental_uris":{"android":"levelo://app?vid=baec73df-bbbb-4cd9-9964-969b46c92355","ios":"levelo://app?vid=baec73df-bbbb-4cd9-9964-969b46c92355"},"vehicle_type_id":"4","last_reported":1705428549,"current_range_meters":30000,"station_id":"","pricing_plan_id":"free"},{"bike_id":"668d54d4-f2ed-444f-9d35-fa3238b5f2ba","system_id":"levelo_inurba_marseille","lat":43.306412,"lon":5.401035,"is_reserved":false,"is_disabled":false,"rental_uris":{"android":"levelo://app?vid=668d54d4-f2ed-444f-9d35-fa3238b5f2ba","ios":"levelo://app?vid=668d54d4-f2ed-444f-9d35-fa3238b5f2ba"},"vehicle_type_id":"4","last_reported":1705428549,"current_range_meters":25200,"station_id":"ce4bh112rcd13ifvqda0","pricing_plan_id":"free"},{"bike_id":"be37f684-bb05-428e-8d28-e5510a893cd9","system_id":"levelo_inurba_marseille","lat":43.30642,"lon":5.401031,"is_reserved":false,"is_disabled":false,"rental_uris":{"android":"levelo://app?vid=be37f684-bb05-428e-8d28-e5510a893cd9","ios":"levelo://app?vid=be37f684-bb05-428e-8d28-e5510a893cd9"},"vehicle_type_id":"4","last_reported":1705428549,"current_range_meters":22000,"station_id":"ce4bh112rcd13ifvqda0","pricing_plan_id":"free"},{"bike_id":"08b41e04-db00-4470-acfe-da25c9a3c828","system_id":"levelo_inurba_marseille","lat":43.30642,"lon":5.401031,"is_reserved":false,"is_disabled":false,"rental_uris":{"android":"levelo://app?vid=08b41e04-db00-4470-acfe-da25c9a3c828","ios":"levelo://app?vid=08b41e04-db00-4470-acfe-da25c9a3c828"},"vehicle_type_id":"4","last_reported":1705428549,"current_range_meters":1200,"station_id":"ce4bh112rcd13ifvqda0","pricing_plan_id":"free"},{"bike_id":"4db63851-d9ad-4eaa-be9a-ab4eca051abd","system_id":"levelo_inurba_marseille","lat":43.292644,"lon":5.384257,"is_reserved":false,"is_disabled":false,"rental_uris":{"android":"levelo://app?vid=4db63851-d9ad-4eaa-be9a-ab4eca051abd","ios":"levelo://app?vid=4db63851-d9ad-4eaa-be9a-ab4eca051abd"},"vehicle_type_id":"4","last_reported":1705428549,"current_range_meters":12800,"station_id":"ce4bh692rcd13ifvqea0","pricing_plan_id":"free"},{"bike_id":"6fe5d6d1-dcd5-4efa-b0ae-89b7ac7e94c4","system_id":"levelo_inurba_marseille","lat":43.301117,"lon":5.398795,"is_reserved":false,"is_disabled":false,"rental_uris":{"android":"levelo://app?vid=6fe5d6d1-dcd5-4efa-b0ae-89b7ac7e94c4","ios":"levelo://app?vid=6fe5d6d1-dcd5-4efa-b0ae-89b7ac7e94c4"},"vehicle_type_id":"4","last_reported":1705428549,"current_range_meters":800,"station_id":"ce4bh0h2rcd13ifvqd40","pricing_plan_id":"free"},{"bike_id":"24cf7b63-c8ee-4d82-b230-df6cc87e6686","system_id":"levelo_inurba_marseille","lat":43.301117,"lon":5.398795,"is_reserved":false,"is_disabled":false,"rental_uris":{"android":"levelo://app?vid=24cf7b63-c8ee-4d82-b230-df6cc87e6686","ios":"levelo://app?vid=24cf7b63-c8ee-4d82-b230-df6cc87e6686"},"vehicle_type_id":"4","last_reported":1705428549,"current_range_meters":16000,"station_id":"ce4bh0h2rcd13ifvqd40","pricing_plan_id":"free"},{"bike_id":"02228069-c226-47da-8c01-691c3c1deee7","system_id":"levelo_inurba_marseille","lat":43.301117,"lon":5.398795,"is_reserved":false,"is_disabled":false,"rental_uris":{"android":"levelo://app?vid=02228069-c226-47da-8c01-691c3c1deee7","ios":"levelo://app?vid=02228069-c226-47da-8c01-691c3c1deee7"},"vehicle_type_id":"4","last_reported":1705428549,"current_range_meters":16800,"station_id":"ce4bh0h2rcd13ifvqd40","pricing_plan_id":"free"},{"bike_id":"39f36516-97f1-4045-96c8-bbce33f58a4f","system_id":"levelo_inurba_marseille","lat":43.28727,"lon":5.36078,"is_reserved":false,"is_disabled":false,"rental_uris":{"android":"levelo://app?vid=39f36516-97f1-4045-96c8-bbce33f58a4f","ios":"levelo://app?vid=39f36516-97f1-4045-96c8-bbce33f58a4f"},"vehicle_type_id":"4","last_reported":1705428549,"current_range_meters":19200,"station_id":"cki0cbj6b192h4jlfktg","pricing_plan_id":"free"},{"bike_id":"08bd979a-e46e-446e-8617-8407e5d99010","system_id":"levelo_inurba_marseille","lat":43.301117,"lon":5.398795,"is_reserved":false,"is_disabled":false,"rental_uris":{"android":"levelo://app?vid=08bd979a-e46e-446e-8617-8407e5d99010","ios":"levelo://app?vid=08bd979a-e46e-446e-8617-8407e5d99010"},"vehicle_type_id":"4","last_reported":1705428549,"current_range_meters":14800,"station_id":"ce4bh0h2rcd13ifvqd40","pricing_plan_id":"free"},{"bike_id":"27b46282-8576-4ade-a1d1-4d290f847a78","system_id":"levelo_inurba_marseille","lat":43.301117,"lon":5.398795,"is_reserved":false,"is_disabled":false,"rental_uris":{"android":"levelo://app?vid=27b46282-8576-4ade-a1d1-4d290f847a78","ios":"levelo://app?vid=27b46282-8576-4ade-a1d1-4d290f847a78"},"vehicle_type_id":"4","last_reported":1705428549,"current_range_meters":8800,"station_id":"ce4bh0h2rcd13ifvqd40","pricing_plan_id":"free"},{"bike_id":"5d922ade-d2c3-4bce-86f3-3a02e6314ec7","system_id":"levelo_inurba_marseille","lat":43.28727,"lon":5.36078,"is_reserved":false,"is_disabled":false,"rental_uris":{"android":"levelo://app?vid=5d922ade-d2c3-4bce-86f3-3a02e6314ec7","ios":"levelo://app?vid=5d922ade-d2c3-4bce-86f3-3a02e6314ec7"},"vehicle_type_id":"4","last_reported":1705428549,"current_range_meters":30400,"station_id":"cki0cbj6b192h4jlfktg","pricing_plan_id":"free"},{"bike_id":"a700f5a7-a7ec-4fb7-9d74-8abb62f5905d","system_id":"levelo_inurba_marseille","lat":43.28727,"lon":5.36078,"is_reserved":false,"is_disabled":false,"rental_uris":{"android":"levelo://app?vid=a700f5a7-a7ec-4fb7-9d74-8abb62f5905d","ios":"levelo://app?vid=a700f5a7-a7ec-4fb7-9d74-8abb62f5905d"},"vehicle_type_id":"4","last_reported":1705428549,"current_range_meters":3600,"station_id":"cki0cbj6b192h4jlfktg","pricing_plan_id":"free"},{"bike_id":"6cc4ec64-eb31-4b93-af8e-7de1c24d2532","system_id":"levelo_inurba_marseille","lat":43.28727,"lon":5.36078,"is_reserved":false,"is_disabled":false,"rental_uris":{"android":"levelo://app?vid=6cc4ec64-eb31-4b93-af8e-7de1c24d2532","ios":"levelo://app?vid=6cc4ec64-eb31-4b93-af8e-7de1c24d2532"},"vehicle_type_id":"4","last_reported":1705428549,"current_range_meters":5600,"station_id":"cki0cbj6b192h4jlfktg","pricing_plan_id":"free"},{"bike_id":"b3dc5b04-a7bc-42b4-8bd3-53abfb3d9e8e","system_id":"levelo_inurba_marseille","lat":43.298681,"lon":5.397225,"is_reserved":false,"is_disabled":false,"rental_uris":{"android":"levelo://app?vid=b3dc5b04-a7bc-42b4-8bd3-53abfb3d9e8e","ios":"levelo://app?vid=b3dc5b04-a7bc-42b4-8bd3-53abfb3d9e8e"},"vehicle_type_id":"4","last_reported":1705428549,"current_range_meters":5600,"station_id":"ce4bh0h2rcd13ifvqd50","pricing_plan_id":"free"},{"bike_id":"ff85328e-49c9-40ee-bf3d-c3fef4779fa4","system_id":"levelo_inurba_marseille","lat":43.298681,"lon":5.397225,"is_reserved":false,"is_disabled":false,"rental_uris":{"android":"levelo://app?vid=ff85328e-49c9-40ee-bf3d-c3fef4779fa4","ios":"levelo://app?vid=ff85328e-49c9-40ee-bf3d-c3fef4779fa4"},"vehicle_type_id":"4","last_reported":1705428549,"current_range_meters":30400,"station_id":"ce4bh0h2rcd13ifvqd50","pricing_plan_id":"free"},{"bike_id":"441ad944-3d51-48cb-9371-4369c06ba8dd","system_id":"levelo_inurba_marseille","lat":43.286685,"lon":5.363503,"is_reserved":false,"is_disabled":false,"rental_uris":{"android":"levelo://app?vid=441ad944-3d51-48cb-9371-4369c06ba8dd","ios":"levelo://app?vid=441ad944-3d51-48cb-9371-4369c06ba8dd"},"vehicle_type_id":"4","last_reported":1705428549,"current_range_meters":6000,"station_id":"ce4bhah2rcd13ifvqej0","pricing_plan_id":"free"},{"bike_id":"a9eac4ac-d4df-4c7e-91ea-543648c669e0","system_id":"levelo_inurba_marseille","lat":43.286961,"lon":5.373785,"is_reserved":false,"is_disabled":false,"rental_uris":{"android":"levelo://app?vid=a9eac4ac-d4df-4c7e-91ea-543648c669e0","ios":"levelo://app?vid=a9eac4ac-d4df-4c7e-91ea-543648c669e0"},"vehicle_type_id":"4","last_reported":1705428549,"current_range_meters":24400,"station_id":"ce4bh3p2rcd13ifvqdq0","pricing_plan_id":"free"},{"bike_id":"4c12d8fb-cf78-4213-ae08-594e3a1ff046","system_id":"levelo_inurba_marseille","lat":43.286961,"lon":5.373785,"is_reserved":false,"is_disabled":false,"rental_uris":{"android":"levelo://app?vid=4c12d8fb-cf78-4213-ae08-594e3a1ff046","ios":"levelo://app?vid=4c12d8fb-cf78-4213-ae08-594e3a1ff046"},"vehicle_type_id":"4","last_reported":1705428549,"current_range_meters":21200,"station_id":"ce4bh3p2rcd13ifvqdq0","pricing_plan_id":"free"},{"bike_id":"177abced-4064-4132-8fb0-02f7bce51e64","system_id":"levelo_inurba_marseille","lat":43.295196,"lon":5.39397,"is_reserved":false,"is_disabled":false,"rental_uris":{"android":"levelo://app?vid=177abced-4064-4132-8fb0-02f7bce51e64","ios":"levelo://app?vid=177abced-4064-4132-8fb0-02f7bce51e64"},"vehicle_type_id":"4","last_reported":1705428549,"current_range_meters":24000,"station_id":"ce4bh292rcd13ifvqdf0","pricing_plan_id":"free"},{"bike_id":"6eaafe97-1d3a-4933-b408-e31720020762","system_id":"levelo_inurba_marseille","lat":43.298681,"lon":5.397225,"is_reserved":false,"is_disabled":false,"rental_uris":{"android":"levelo://app?vid=6eaafe97-1d3a-4933-b408-e31720020762","ios":"levelo://app?vid=6eaafe97-1d3a-4933-b408-e31720020762"},"vehicle_type_id":"4","last_reported":1705428549,"current_range_meters":5200,"station_id":"ce4bh0h2rcd13ifvqd50","pricing_plan_id":"free"},{"bike_id":"5c24486b-028f-439b-bffe-9b03a91746ed","system_id":"levelo_inurba_marseille","lat":43.286961,"lon":5.373785,"is_reserved":false,"is_disabled":false,"rental_uris":{"android":"levelo://app?vid=5c24486b-028f-439b-bffe-9b03a91746ed","ios":"levelo://app?vid=5c24486b-028f-439b-bffe-9b03a91746ed"},"vehicle_type_id":"4","last_reported":1705428549,"current_range_meters":2400,"station_id":"ce4bh3p2rcd13ifvqdq0","pricing_plan_id":"free"},{"bike_id":"95391839-a597-49f6-9df2-f482b030f625","system_id":"levelo_inurba_marseille","lat":43.286961,"lon":5.373785,"is_reserved":false,"is_disabled":false,"rental_uris":{"android":"levelo://app?vid=95391839-a597-49f6-9df2-f482b030f625","ios":"levelo://app?vid=95391839-a597-49f6-9df2-f482b030f625"},"vehicle_type_id":"4","last_reported":1705428549,"current_range_meters":24800,"station_id":"ce4bh3p2rcd13ifvqdq0","pricing_plan_id":"free"},{"bike_id":"0e4e9c3b-adcc-4501-a96f-d9bd24f9e78d","system_id":"levelo_inurba_marseille","lat":43.286961,"lon":5.373785,"is_reserved":false,"is_disabled":false,"rental_uris":{"android":"levelo://app?vid=0e4e9c3b-adcc-4501-a96f-d9bd24f9e78d","ios":"levelo://app?vid=0e4e9c3b-adcc-4501-a96f-d9bd24f9e78d"},"vehicle_type_id":"4","last_reported":1705428549,"current_range_meters":30000,"station_id":"ce4bh3p2rcd13ifvqdq0","pricing_plan_id":"free"},{"bike_id":"d7e20eac-5c32-4abd-9122-40e3f8d5d8f5","system_id":"levelo_inurba_marseille","lat":43.286961,"lon":5.373785,"is_reserved":false,"is_disabled":false,"rental_uris":{"android":"levelo://app?vid=d7e20eac-5c32-4abd-9122-40e3f8d5d8f5","ios":"levelo://app?vid=d7e20eac-5c32-4abd-9122-40e3f8d5d8f5"},"vehicle_type_id":"4","last_reported":1705428549,"current_range_meters":9600,"station_id":"ce4bh3p2rcd13ifvqdq0","pricing_plan_id":"free"},{"bike_id":"250fb7a2-9b12-414b-b998-8a12da92b1cf","system_id":"levelo_inurba_marseille","lat":43.295137,"lon":5.39401,"is_reserved":false,"is_disabled":false,"rental_uris":{"android":"levelo://app?vid=250fb7a2-9b12-414b-b998-8a12da92b1cf","ios":"levelo://app?vid=250fb7a2-9b12-414b-b998-8a12da92b1cf"},"vehicle_type_id":"4","last_reported":1705428549,"current_range_meters":0,"station_id":"ce4bh292rcd13ifvqdf0","pricing_plan_id":"free"},{"bike_id":"7d68f63c-ba64-4a3c-8d14-080063c4b0c8","system_id":"levelo_inurba_marseille","lat":43.289307,"lon":5.38406,"is_reserved":false,"is_disabled":false,"rental_uris":{"android":"levelo://app?vid=7d68f63c-ba64-4a3c-8d14-080063c4b0c8","ios":"levelo://app?vid=7d68f63c-ba64-4a3c-8d14-080063c4b0c8"},"vehicle_type_id":"4","last_reported":1705428549,"current_range_meters":20800,"station_id":"ce4bh612rcd13ifvqe6g","pricing_plan_id":"free"},{"bike_id":"3c646770-af79-45ea-a91e-956eeb95dde8","system_id":"levelo_inurba_marseille","lat":43.290345,"lon":5.38646,"is_reserved":false,"is_disabled":false,"rental_uris":{"android":"levelo://app?vid=3c646770-af79-45ea-a91e-956eeb95dde8","ios":"levelo://app?vid=3c646770-af79-45ea-a91e-956eeb95dde8"},