{"last_updated":1702383220,"ttl":30,"version":"2.2","data":{"bikes":[{"bike_id":"7bce3b70-18b6-47e7-a8b6-a3701968b1e0","system_id":"levelo_inurba_marseille","lat":43.312239,"lon":5.368562,"is_reserved":false,"is_disabled":false,"rental_uris":{"android":"levelo://app?vid=7bce3b70-18b6-47e7-a8b6-a3701968b1e0","ios":"levelo://app?vid=7bce3b70-18b6-47e7-a8b6-a3701968b1e0"},"vehicle_type_id":"4","last_reported":1702383220,"current_range_meters":14000,"station_id":"ce4bgl92rcd13ifvqbq0","pricing_plan_id":"free"},{"bike_id":"2b1ad016-aa74-4246-8ed7-db5789fc25d7","system_id":"levelo_inurba_marseille","lat":43.314811,"lon":5.373103,"is_reserved":false,"is_disabled":false,"rental_uris":{"android":"levelo://app?vid=2b1ad016-aa74-4246-8ed7-db5789fc25d7","ios":"levelo://app?vid=2b1ad016-aa74-4246-8ed7-db5789fc25d7"},"vehicle_type_id":"4","last_reported":1702383220,"current_range_meters":0,"station_id":"ce4bgt12rcd13ifvqcd0","pricing_plan_id":"free"},{"bike_id":"ef2a66f5-5ffa-4e6c-8c3a-6b4d22fb5d7e","system_id":"levelo_inurba_marseille","lat":43.314811,"lon":5.373103,"is_reserved":false,"is_disabled":false,"rental_uris":{"android":"levelo://app?vid=ef2a66f5-5ffa-4e6c-8c3a-6b4d22fb5d7e","ios":"levelo://app?vid=ef2a66f5-5ffa-4e6c-8c3a-6b4d22fb5d7e"},"vehicle_type_id":"4","last_reported":1702383220,"current_range_meters":9600,"station_id":"ce4bgt12rcd13ifvqcd0","pricing_plan_id":"free"},{"bike_id":"21bbec5a-ba8c-40b8-b3c9-e721a4fafdae","system_id":"levelo_inurba_marseille","lat":43.30534,"lon":5.36713,"is_reserved":false,"is_disabled":false,"rental_uris":{"android":"levelo://app?vid=21bbec5a-ba8c-40b8-b3c9-e721a4fafdae","ios":"levelo://app?vid=21bbec5a-ba8c-40b8-b3c9-e721a4fafdae"},"vehicle_type_id":"4","last_reported":1702383220,"current_range_meters":0,"station_id":"ce4bgrp2rcd13ifvqc9g","pricing_plan_id":"free"},{"bike_id":"c6c542bc-e45a-4f6b-bccc-da1477a4eb7e","system_id":"levelo_inurba_marseille","lat":43.305706,"lon":5.365654,"is_reserved":false,"is_disabled":false,"rental_uris":{"android":"levelo://app?vid=c6c542bc-e45a-4f6b-bccc-da1477a4eb7e","ios":"levelo://app?vid=c6c542bc-e45a-4f6b-bccc-da1477a4eb7e"},"vehicle_type_id":"4","last_reported":1702383220,"current_range_meters":12800,"station_id":"ce4bgs12rcd13ifvqcag","pricing_plan_id":"free"},{"bike_id":"dbf144d5-de07-46ee-adeb-60cb0f04a18d","system_id":"levelo_inurba_marseille","lat":43.305706,"lon":5.365654,"is_reserved":false,"is_disabled":false,"rental_uris":{"android":"levelo://app?vid=dbf144d5-de07-46ee-adeb-60cb0f04a18d","ios":"levelo://app?vid=dbf144d5-de07-46ee-adeb-60cb0f04a18d"},"vehicle_type_id":"4","last_reported":1702383220,"current_range_meters":5600,"station_id":"ce4bgs12rcd13ifvqcag","pricing_plan_id":"free"},{"bike_id":"754293c6-a1eb-4038-942e-3078210d8fca","system_id":"levelo_inurba_marseille","lat":43.305706,"lon":5.365654,"is_reserved":false,"is_disabled":false,"rental_uris":{"android":"levelo://app?vid=754293c6-a1eb-4038-942e-3078210d8fca","ios":"levelo://app?vid=754293c6-a1eb-4038-942e-3078210d8fca"},"vehicle_type_id":"4","last_reported":1702383220,"current_range_meters":15600,"station_id":"ce4bgs12rcd13ifvqcag","pricing_plan_id":"free"},{"bike_id":"57520fc4-02db-4600-8871-cf00e600405a","system_id":"levelo_inurba_marseille","lat":43.305706,"lon":5.365654,"is_reserved":false,"is_disabled":false,"rental_uris":{"android":"levelo://app?vid=57520fc4-02db-4600-8871-cf00e600405a","ios":"levelo://app?vid=57520fc4-02db-4600-8871-cf00e600405a"},"vehicle_type_id":"4","last_reported":1702383220,"current_range_meters":26000,"station_id":"ce4bgs12rcd13ifvqcag","pricing_plan_id":"free"},{"bike_id":"5e6d790d-6bf6-4855-b87b-b07ea9a51fc8","system_id":"levelo_inurba_marseille","lat":43.311648,"lon":5.377565,"is_reserved":false,"is_disabled":false,"rental_uris":{"android":"levelo://app?vid=5e6d790d-6bf6-4855-b87b-b07ea9a51fc8","ios":"levelo://app?vid=5e6d790d-6bf6-4855-b87b-b07ea9a51fc8"},"vehicle_type_id":"4","last_reported":1702383220,"current_range_meters":5600,"station_id":"","pricing_plan_id":"free"},{"bike_id":"c4661120-dda3-41d5-8c5a-6de717f5698f","system_id":"levelo_inurba_marseille","lat":43.307945,"lon":5.376487,"is_reserved":false,"is_disabled":false,"rental_uris":{"android":"levelo://app?vid=c4661120-dda3-41d5-8c5a-6de717f5698f","ios":"levelo://app?vid=c4661120-dda3-41d5-8c5a-6de717f5698f"},"vehicle_type_id":"4","last_reported":1702383220,"current_range_meters":28400,"station_id":"ce4bgv92rcd13ifvqcq0","pricing_plan_id":"free"},{"bike_id":"7b0df9c8-6343-4632-b573-e123ee0e53f3","system_id":"levelo_inurba_marseille","lat":43.30304,"lon":5.368987,"is_reserved":false,"is_disabled":false,"rental_uris":{"android":"levelo://app?vid=7b0df9c8-6343-4632-b573-e123ee0e53f3","ios":"levelo://app?vid=7b0df9c8-6343-4632-b573-e123ee0e53f3"},"vehicle_type_id":"4","last_reported":1702383220,"current_range_meters":800,"station_id":"ce4bgqh2rcd13ifvqc5g","pricing_plan_id":"free"},{"bike_id":"5bc2aa2e-d9e1-40b3-8c45-daa07a705fa5","system_id":"levelo_inurba_marseille","lat":43.301939,"lon":5.366286,"is_reserved":false,"is_disabled":false,"rental_uris":{"android":"levelo://app?vid=5bc2aa2e-d9e1-40b3-8c45-daa07a705fa5","ios":"levelo://app?vid=5bc2aa2e-d9e1-40b3-8c45-daa07a705fa5"},"vehicle_type_id":"4","last_reported":1702383220,"current_range_meters":23200,"station_id":"ce4bgrh2rcd13ifvqc8g","pricing_plan_id":"free"},{"bike_id":"e1d30a61-0774-4f8f-95f2-19e4e908ec16","system_id":"levelo_inurba_marseille","lat":43.304606,"lon":5.379026,"is_reserved":false,"is_disabled":false,"rental_uris":{"android":"levelo://app?vid=e1d30a61-0774-4f8f-95f2-19e4e908ec16","ios":"levelo://app?vid=e1d30a61-0774-4f8f-95f2-19e4e908ec16"},"vehicle_type_id":"4","last_reported":1702383220,"current_range_meters":28400,"station_id":"ce4bgup2rcd13ifvqcn0","pricing_plan_id":"free"},{"bike_id":"8c322cc6-9ce4-4010-9c25-45414b149fb7","system_id":"levelo_inurba_marseille","lat":43.30279,"lon":5.37701,"is_reserved":false,"is_disabled":false,"rental_uris":{"android":"levelo://app?vid=8c322cc6-9ce4-4010-9c25-45414b149fb7","ios":"levelo://app?vid=8c322cc6-9ce4-4010-9c25-45414b149fb7"},"vehicle_type_id":"4","last_reported":1702383220,"current_range_meters":0,"station_id":"ce4bguh2rcd13ifvqcj0","pricing_plan_id":"free"},{"bike_id":"327bcd03-0c29-4881-9b7d-fc72e78f28d3","system_id":"levelo_inurba_marseille","lat":43.30143,"lon":5.37413,"is_reserved":false,"is_disabled":false,"rental_uris":{"android":"levelo://app?vid=327bcd03-0c29-4881-9b7d-fc72e78f28d3","ios":"levelo://app?vid=327bcd03-0c29-4881-9b7d-fc72e78f28d3"},"vehicle_type_id":"4","last_reported":1702383220,"current_range_meters":27600,"station_id":"ce4bgs92rcd13ifvqcc0","pricing_plan_id":"free"},{"bike_id":"fdb1a9a7-b9e2-4f82-b72d-71d0e4b3b54a","system_id":"levelo_inurba_marseille","lat":43.313571,"lon":5.384829,"is_reserved":false,"is_disabled":false,"rental_uris":{"android":"levelo://app?vid=fdb1a9a7-b9e2-4f82-b72d-71d0e4b3b54a","ios":"levelo://app?vid=fdb1a9a7-b9e2-4f82-b72d-71d0e4b3b54a"},"vehicle_type_id":"4","last_reported":1702383220,"current_range_meters":26000,"station_id":"ce4bgt92rcd13ifvqcf0","pricing_plan_id":"free"},{"bike_id":"52fbe208-5be5-4594-a20a-d6381f3e2161","system_id":"levelo_inurba_marseille","lat":43.299724,"lon":5.371829,"is_reserved":false,"is_disabled":false,"rental_uris":{"android":"levelo://app?vid=52fbe208-5be5-4594-a20a-d6381f3e2161","ios":"levelo://app?vid=52fbe208-5be5-4594-a20a-d6381f3e2161"},"vehicle_type_id":"4","last_reported":1702383220,"current_range_meters":15600,"station_id":"ce4bgr92rcd13ifvqc7g","pricing_plan_id":"free"},{"bike_id":"e1de7471-1d86-46ee-945e-b348b8b1a029","system_id":"levelo_inurba_marseille","lat":43.299209,"lon":5.365547,"is_reserved":false,"is_disabled":false,"rental_uris":{"android":"levelo://app?vid=e1de7471-1d86-46ee-945e-b348b8b1a029","ios":"levelo://app?vid=e1de7471-1d86-46ee-945e-b348b8b1a029"},"vehicle_type_id":"4","last_reported":1702383220,"current_range_meters":20800,"station_id":"ce4bgm92rcd13ifvqbr0","pricing_plan_id":"free"},{"bike_id":"a9e93db4-b14f-4849-8a0b-db29c9c8d30e","system_id":"levelo_inurba_marseille","lat":43.299243,"lon":5.37481,"is_reserved":false,"is_disabled":false,"rental_uris":{"android":"levelo://app?vid=a9e93db4-b14f-4849-8a0b-db29c9c8d30e","ios":"levelo://app?vid=a9e93db4-b14f-4849-8a0b-db29c9c8d30e"},"vehicle_type_id":"4","last_reported":1702383220,"current_range_meters":0,"station_id":"ce4bgjh2rcd13ifvqbg0","pricing_plan_id":"free"},{"bike_id":"20a1b595-9c79-40e3-a2b2-f15531c0cdac","system_id":"levelo_inurba_marseille","lat":43.2968,"lon":5.37291,"is_reserved":false,"is_disabled":false,"rental_uris":{"android":"levelo://app?vid=20a1b595-9c79-40e3-a2b2-f15531c0cdac","ios":"levelo://app?vid=20a1b595-9c79-40e3-a2b2-f15531c0cdac"},"vehicle_type_id":"4","last_reported":1702383220,"current_range_meters":28000,"station_id":"ce4bgk12rcd13ifvqbj0","pricing_plan_id":"free"},{"bike_id":"058d056e-962c-42b1-9770-250788c51913","system_id":"levelo_inurba_marseille","lat":43.299028,"lon":5.381509,"is_reserved":false,"is_disabled":false,"rental_uris":{"android":"levelo://app?vid=058d056e-962c-42b1-9770-250788c51913","ios":"levelo://app?vid=058d056e-962c-42b1-9770-250788c51913"},"vehicle_type_id":"4","last_reported":1702383220,"current_range_meters":19200,"station_id":"ce4bgj12rcd13ifvqbc0","pricing_plan_id":"free"},{"bike_id":"381d6c75-a143-4b6e-9a87-3c39c0b21c0b","system_id":"levelo_inurba_marseille","lat":43.299028,"lon":5.381509,"is_reserved":false,"is_disabled":false,"rental_uris":{"android":"levelo://app?vid=381d6c75-a143-4b6e-9a87-3c39c0b21c0b","ios":"levelo://app?vid=381d6c75-a143-4b6e-9a87-3c39c0b21c0b"},"vehicle_type_id":"4","last_reported":1702383220,"current_range_meters":21600,"station_id":"ce4bgj12rcd13ifvqbc0","pricing_plan_id":"free"},{"bike_id":"dd98db7d-13ac-431a-9d62-450a34114bcb","system_id":"levelo_inurba_marseille","lat":43.317557,"lon":5.390173,"is_reserved":false,"is_disabled":false,"rental_uris":{"android":"levelo://app?vid=dd98db7d-13ac-431a-9d62-450a34114bcb","ios":"levelo://app?vid=dd98db7d-13ac-431a-9d62-450a34114bcb"},"vehicle_type_id":"4","last_reported":1702383220,"current_range_meters":8400,"station_id":"ce4bhqp2rcd13ifvqhng","pricing_plan_id":"free"},{"bike_id":"2cd2b47e-79ce-422b-b394-744d4d046b95","system_id":"levelo_inurba_marseille","lat":43.304274,"lon":5.388873,"is_reserved":false,"is_disabled":false,"rental_uris":{"android":"levelo://app?vid=2cd2b47e-79ce-422b-b394-744d4d046b95","ios":"levelo://app?vid=2cd2b47e-79ce-422b-b394-744d4d046b95"},"vehicle_type_id":"4","last_reported":1702383220,"current_range_meters":26800,"station_id":"ce4bgk12rcd13ifvqbi0","pricing_plan_id":"free"},{"bike_id":"cd8adbfe-40e2-4ee0-9924-011a65f542e0","system_id":"levelo_inurba_marseille","lat":43.30435,"lon":5.38882,"is_reserved":false,"is_disabled":false,"rental_uris":{"android":"levelo://app?vid=cd8adbfe-40e2-4ee0-9924-011a65f542e0","ios":"levelo://app?vid=cd8adbfe-40e2-4ee0-9924-011a65f542e0"},"vehicle_type_id":"4","last_reported":1702383220,"current_range_meters":28400,"station_id":"ce4bgk12rcd13ifvqbi0","pricing_plan_id":"free"},{"bike_id":"77a6c46d-d898-4e4f-8846-efa91689c7f0","system_id":"levelo_inurba_marseille","lat":43.297827,"lon":5.38093,"is_reserved":false,"is_disabled":false,"rental_uris":{"android":"levelo://app?vid=77a6c46d-d898-4e4f-8846-efa91689c7f0","ios":"levelo://app?vid=77a6c46d-d898-4e4f-8846-efa91689c7f0"},"vehicle_type_id":"4","last_reported":1702383220,"current_range_meters":0,"station_id":"","pricing_plan_id":"free"},{"bike_id":"d840d465-d6b9-4071-bc8d-0df94c0df8b9","system_id":"levelo_inurba_marseille","lat":43.299707,"lon":5.384859,"is_reserved":false,"is_disabled":false,"rental_uris":{"android":"levelo://app?vid=d840d465-d6b9-4071-bc8d-0df94c0df8b9","ios":"levelo://app?vid=d840d465-d6b9-4071-bc8d-0df94c0df8b9"},"vehicle_type_id":"4","last_reported":1702383220,"current_range_meters":23200,"station_id":"ce4bgj92rcd13ifvqbd0","pricing_plan_id":"free"},{"bike_id":"9c33d305-eee2-4a54-abb3-f74604ac7a95","system_id":"levelo_inurba_marseille","lat":43.299707,"lon":5.384859,"is_reserved":false,"is_disabled":false,"rental_uris":{"android":"levelo://app?vid=9c33d305-eee2-4a54-abb3-f74604ac7a95","ios":"levelo://app?vid=9c33d305-eee2-4a54-abb3-f74604ac7a95"},"vehicle_type_id":"4","last_reported":1702383220,"current_range_meters":16800,"station_id":"ce4bgj92rcd13ifvqbd0","pricing_plan_id":"free"},{"bike_id":"2681ce54-254b-496e-a8d4-b9dab55cebd9","system_id":"levelo_inurba_marseille","lat":43.299717,"lon":5.384845,"is_reserved":false,"is_disabled":false,"rental_uris":{"android":"levelo://app?vid=2681ce54-254b-496e-a8d4-b9dab55cebd9","ios":"levelo://app?vid=2681ce54-254b-496e-a8d4-b9dab55cebd9"},"vehicle_type_id":"4","last_reported":1702383220,"current_range_meters":26000,"station_id":"ce4bgj92rcd13ifvqbd0","pricing_plan_id":"free"},{"bike_id":"565fee89-f140-4e6e-96c7-706342170b69","system_id":"levelo_inurba_marseille","lat":43.299717,"lon":5.384845,"is_reserved":false,"is_disabled":false,"rental_uris":{"android":"levelo://app?vid=565fee89-f140-4e6e-96c7-706342170b69","ios":"levelo://app?vid=565fee89-f140-4e6e-96c7-706342170b69"},"vehicle_type_id":"4","last_reported":1702383220,"current_range_meters":11600,"station_id":"ce4bgj92rcd13ifvqbd0","pricing_plan_id":"free"},{"bike_id":"1d5596e9-ef6d-4c1f-b061-a0528e244be6","system_id":"levelo_inurba_marseille","lat":43.29601,"lon":5.381084,"is_reserved":false,"is_disabled":false,"rental_uris":{"android":"levelo://app?vid=1d5596e9-ef6d-4c1f-b061-a0528e244be6","ios":"levelo://app?vid=1d5596e9-ef6d-4c1f-b061-a0528e244be6"},"vehicle_type_id":"4","last_reported":1702383220,"current_range_meters":13200,"station_id":"ce4bgl12rcd13ifvqbo0","pricing_plan_id":"free"},{"bike_id":"a115e07a-019b-4703-8ba9-40f159cbc81a","system_id":"levelo_inurba_marseille","lat":43.305994,"lon":5.393687,"is_reserved":false,"is_disabled":false,"rental_uris":{"android":"levelo://app?vid=a115e07a-019b-4703-8ba9-40f159cbc81a","ios":"levelo://app?vid=a115e07a-019b-4703-8ba9-40f159cbc81a"},"vehicle_type_id":"4","last_reported":1702383220,"current_range_meters":14800,"station_id":"ce4bh0p2rcd13ifvqd80","pricing_plan_id":"free"},{"bike_id":"2f9d16a3-18d8-4daa-8f3b-cd30d4c78088","system_id":"levelo_inurba_marseille","lat":43.291994,"lon":5.357886,"is_reserved":false,"is_disabled":false,"rental_uris":{"android":"levelo://app?vid=2f9d16a3-18d8-4daa-8f3b-cd30d4c78088","ios":"levelo://app?vid=2f9d16a3-18d8-4daa-8f3b-cd30d4c78088"},"vehicle_type_id":"4","last_reported":1702383220,"current_range_meters":20400,"station_id":"ce4bhb12rcd13ifvqel0","pricing_plan_id":"free"},{"bike_id":"086ee3dc-812a-46fe-bbdd-3f38081abf35","system_id":"levelo_inurba_marseille","lat":43.2936,"lon":5.37835,"is_reserved":false,"is_disabled":false,"rental_uris":{"android":"levelo://app?vid=086ee3dc-812a-46fe-bbdd-3f38081abf35","ios":"levelo://app?vid=086ee3dc-812a-46fe-bbdd-3f38081abf35"},"vehicle_type_id":"4","last_reported":1702383220,"current_range_meters":28400,"station_id":"ce4bgjh2rcd13ifvqbf0","pricing_plan_id":"free"},{"bike_id":"2a661d41-4e6e-4f93-a725-221b8d1ddeb6","system_id":"levelo_inurba_marseille","lat":43.300852,"lon":5.390859,"is_reserved":false,"is_disabled":false,"rental_uris":{"android":"levelo://app?vid=2a661d41-4e6e-4f93-a725-221b8d1ddeb6","ios":"levelo://app?vid=2a661d41-4e6e-4f93-a725-221b8d1ddeb6"},"vehicle_type_id":"4","last_reported":1702383220,"current_range_meters":3600,"station_id":"ce4bh192rcd13ifvqdb0","pricing_plan_id":"free"},{"bike_id":"bd07c6d0-8013-48ef-a28b-4a8a8cdf7137","system_id":"levelo_inurba_marseille","lat":43.292663,"lon":5.376394,"is_reserved":false,"is_disabled":false,"rental_uris":{"android":"levelo://app?vid=bd07c6d0-8013-48ef-a28b-4a8a8cdf7137","ios":"levelo://app?vid=bd07c6d0-8013-48ef-a28b-4a8a8cdf7137"},"vehicle_type_id":"4","last_reported":1702383220,"current_range_meters":19200,"station_id":"ce4bgi12rcd13ifvqb80","pricing_plan_id":"free"},{"bike_id":"50bfe0bc-489f-4cf6-858b-64c853861f1d","system_id":"levelo_inurba_marseille","lat":43.309038,"lon":5.396546,"is_reserved":false,"is_disabled":false,"rental_uris":{"android":"levelo://app?vid=50bfe0bc-489f-4cf6-858b-64c853861f1d","ios":"levelo://app?vid=50bfe0bc-489f-4cf6-858b-64c853861f1d"},"vehicle_type_id":"4","last_reported":1702383220,"current_range_meters":7200,"station_id":"ce4bh012rcd13ifvqcv0","pricing_plan_id":"free"},{"bike_id":"1f78c004-a4a7-4017-b579-edf7f6cb4d38","system_id":"levelo_inurba_marseille","lat":43.294153,"lon":5.386305,"is_reserved":false,"is_disabled":false,"rental_uris":{"android":"levelo://app?vid=1f78c004-a4a7-4017-b579-edf7f6cb4d38","ios":"levelo://app?vid=1f78c004-a4a7-4017-b579-edf7f6cb4d38"},"vehicle_type_id":"4","last_reported":1702383220,"current_range_meters":800,"station_id":"ce4bh2h2rcd13ifvqdh0","pricing_plan_id":"free"},{"bike_id":"4681205a-fe61-43b2-808a-e089dad8ecf0","system_id":"levelo_inurba_marseille","lat":43.294153,"lon":5.386305,"is_reserved":false,"is_disabled":false,"rental_uris":{"android":"levelo://app?vid=4681205a-fe61-43b2-808a-e089dad8ecf0","ios":"levelo://app?vid=4681205a-fe61-43b2-808a-e089dad8ecf0"},"vehicle_type_id":"4","last_reported":1702383220,"current_range_meters":0,"station_id":"ce4bh2h2rcd13ifvqdh0","pricing_plan_id":"free"},{"bike_id":"55a8dc63-8f1a-4ba9-9bc1-7daba59f47af","system_id":"levelo_inurba_marseille","lat":43.289586,"lon":5.364143,"is_reserved":false,"is_disabled":false,"rental_uris":{"android":"levelo://app?vid=55a8dc63-8f1a-4ba9-9bc1-7daba59f47af","ios":"levelo://app?vid=55a8dc63-8f1a-4ba9-9bc1-7daba59f47af"},"vehicle_type_id":"4","last_reported":1702383220,"current_range_meters":26000,"station_id":"ce4bhc92rcd13ifvqetg","pricing_plan_id":"free"},{"bike_id":"9ae9787c-463e-43d3-8805-36025067ea5b","system_id":"levelo_inurba_marseille","lat":43.3304,"lon":5.38919,"is_reserved":false,"is_disabled":false,"rental_uris":{"android":"levelo://app?vid=9ae9787c-463e-43d3-8805-36025067ea5b","ios":"levelo://app?vid=9ae9787c-463e-43d3-8805-36025067ea5b"},"vehicle_type_id":"4","last_reported":1702383220,"current_range_meters":5200,"station_id":"ce4bhr92rcd13ifvqhrg","pricing_plan_id":"free"},{"bike_id":"997b8757-6767-4b64-9ff5-2509aa64050f","system_id":"levelo_inurba_marseille","lat":43.290995,"lon":5.381361,"is_reserved":false,"is_disabled":false,"rental_uris":{"android":"levelo://app?vid=997b8757-6767-4b64-9ff5-2509aa64050f","ios":"levelo://app?vid=997b8757-6767-4b64-9ff5-2509aa64050f"},"vehicle_type_id":"4","last_reported":1702383220,"current_range_meters":6000,"station_id":"ce4bh512rcd13ifvqe2g","pricing_plan_id":"free"},{"bike_id":"7b3670df-c84e-4648-9f60-b71012940a6d","system_id":"levelo_inurba_marseille","lat":43.290995,"lon":5.381361,"is_reserved":false,"is_disabled":false,"rental_uris":{"android":"levelo://app?vid=7b3670df-c84e-4648-9f60-b71012940a6d","ios":"levelo://app?vid=7b3670df-c84e-4648-9f60-b71012940a6d"},"vehicle_type_id":"4","last_reported":1702383220,"current_range_meters":14000,"station_id":"ce4bh512rcd13ifvqe2g","pricing_plan_id":"free"},{"bike_id":"3a01eb11-ce53-49cf-ac08-1e5161c64a91","system_id":"levelo_inurba_marseille","lat":43.28971,"lon":5.37843,"is_reserved":false,"is_disabled":false,"rental_uris":{"android":"levelo://app?vid=3a01eb11-ce53-49cf-ac08-1e5161c64a91","ios":"levelo://app?vid=3a01eb11-ce53-49cf-ac08-1e5161c64a91"},"vehicle_type_id":"4","last_reported":1702383220,"current_range_meters":0,"station_id":"ce4bh9p2rcd13ifvqed0","pricing_plan_id":"free"},{"bike_id":"1c816fdb-486d-424c-b98e-d77a38740402","system_id":"levelo_inurba_marseille","lat":43.295169,"lon":5.390426,"is_reserved":false,"is_disabled":false,"rental_uris":{"android":"levelo://app?vid=1c816fdb-486d-424c-b98e-d77a38740402","ios":"levelo://app?vid=1c816fdb-486d-424c-b98e-d77a38740402"},"vehicle_type_id":"4","last_reported":1702383220,"current_range_meters":15200,"station_id":"ce4bh3p2rcd13ifvqdp0","pricing_plan_id":"free"},{"bike_id":"c694b3b5-8c9f-465a-8a9e-530d96485781","system_id":"levelo_inurba_marseille","lat":43.295169,"lon":5.390426,"is_reserved":false,"is_disabled":false,"rental_uris":{"android":"levelo://app?vid=c694b3b5-8c9f-465a-8a9e-530d96485781","ios":"levelo://app?vid=c694b3b5-8c9f-465a-8a9e-530d96485781"},"vehicle_type_id":"4","last_reported":1702383220,"current_range_meters":14400,"station_id":"ce4bh3p2rcd13ifvqdp0","pricing_plan_id":"free"},{"bike_id":"29e2e18a-24db-4624-a1c1-e6ea017c3243","system_id":"levelo_inurba_marseille","lat":43.29023,"lon":5.38138,"is_reserved":false,"is_disabled":false,"rental_uris":{"android":"levelo://app?vid=29e2e18a-24db-4624-a1c1-e6ea017c3243","ios":"levelo://app?vid=29e2e18a-24db-4624-a1c1-e6ea017c3243"},"vehicle_type_id":"4","last_reported":1702383220,"current_range_meters":16800,"station_id":"ce4bh4p2rcd13ifvqe1g","pricing_plan_id":"free"},{"bike_id":"cfcdcbe5-d182-48fc-8e50-51d8220c4a99","system_id":"levelo_inurba_marseille","lat":43.288645,"lon":5.35854,"is_reserved":false,"is_disabled":false,"rental_uris":{"android":"levelo://app?vid=cfcdcbe5-d182-48fc-8e50-51d8220c4a99","ios":"levelo://app?vid=cfcdcbe5-d182-48fc-8e50-51d8220c4a99"},"vehicle_type_id":"4","last_reported":1702383220,"current_range_meters":30000,"station_id":"","pricing_plan_id":"free"},{"bike_id":"b19ea600-fada-4083-9da0-d6ae496c9380","system_id":"levelo_inurba_marseille","lat":43.309371,"lon":5.401449,"is_reserved":false,"is_disabled":false,"rental_uris":{"android":"levelo://app?vid=b19ea600-fada-4083-9da0-d6ae496c9380","ios":"levelo://app?vid=b19ea600-fada-4083-9da0-d6ae496c9380"},"vehicle_type_id":"4","last_reported":1702383220,"current_range_meters":4800,"station_id":"ce4bgvp2rcd13ifvqct0","pricing_plan_id":"free"},{"bike_id":"1ffa6cab-2192-4490-9617-61044011c6b1","system_id":"levelo_inurba_marseille","lat":43.337453,"lon":5.374746,"is_reserved":false,"is_disabled":false,"rental_uris":{"android":"levelo://app?vid=1ffa6cab-2192-4490-9617-61044011c6b1","ios":"levelo://app?vid=1ffa6cab-2192-4490-9617-61044011c6b1"},"vehicle_type_id":"4","last_reported":1702383220,"current_range_meters":16000,"station_id":"","pricing_plan_id":"free"},{"bike_id":"e1115d16-a177-4b09-99f4-d84a7f0a9df4","system_id":"levelo_inurba_marseille","lat":43.33748,"lon":5.374599,"is_reserved":false,"is_disabled":false,"rental_uris":{"android":"levelo://app?vid=e1115d16-a177-4b09-99f4-d84a7f0a9df4","ios":"levelo://app?vid=e1115d16-a177-4b09-99f4-d84a7f0a9df4"},"vehicle_type_id":"4","last_reported":1702383220,"current_range_meters":23600,"station_id":"","pricing_plan_id":"free"},{"bike_id":"67dcbfa0-43d1-4b19-8796-1b88e2ecd2c5","system_id":"levelo_inurba_marseille","lat":43.33752,"lon":5.37447,"is_reserved":false,"is_disabled":false,"rental_uris":{"android":"levelo://app?vid=67dcbfa0-43d1-4b19-8796-1b88e2ecd2c5","ios":"levelo://app?vid=67dcbfa0-43d1-4b19-8796-1b88e2ecd2c5"},"vehicle_type_id":"4","last_reported":1702383220,"current_range_meters":20400,"station_id":"","pricing_plan_id":"free"},{"bike_id":"1a9123ca-1ac0-4cbb-b622-534f88bcae20","system_id":"levelo_inurba_marseille","lat":43.337563,"lon":5.374598,"is_reserved":false,"is_disabled":false,"rental_uris":{"android":"levelo://app?vid=1a9123ca-1ac0-4cbb-b622-534f88bcae20","ios":"levelo://app?vid=1a9123ca-1ac0-4cbb-b622-534f88bcae20"},"vehicle_type_id":"4","last_reported":1702383220,"current_range_meters":28800,"station_id":"","pricing_plan_id":"free"},{"bike_id":"c2eec492-212e-481c-b633-b3e7970fc226","system_id":"levelo_inurba_marseille","lat":43.337615,"lon":5.3745,"is_reserved":false,"is_disabled":false,"rental_uris":{"android":"levelo://app?vid=c2eec492-212e-481c-b633-b3e7970fc226","ios":"levelo://app?vid=c2eec492-212e-481c-b633-b3e7970fc226"},"vehicle_type_id":"4","last_reported":1702383220,"current_range_meters":31200,"station_id":"","pricing_plan_id":"free"},{"bike_id":"70d4bb1f-4e7f-404f-a76c-559ab42af2d8","system_id":"levelo_inurba_marseille","lat":43.286591,"lon":5.363346,"is_reserved":false,"is_disabled":false,"rental_uris":{"android":"levelo://app?vid=70d4bb1f-4e7f-404f-a76c-559ab42af2d8","ios":"levelo://app?vid=70d4bb1f-4e7f-404f-a76c-559ab42af2d8"},"vehicle_type_id":"4","last_reported":1702383220,"current_range_meters":15600,"station_id":"ce4bhah2rcd13ifvqej0","pricing_plan_id":"free"},{"bike_id":"e60e891f-abca-4886-8375-1aba70d61830","system_id":"levelo_inurba_marseille","lat":43.298721,"lon":5.397272,"is_reserved":false,"is_disabled":false,"rental_uris":{"android":"levelo://app?vid=e60e891f-abca-4886-8375-1aba70d61830","ios":"levelo://app?vid=e60e891f-abca-4886-8375-1aba70d61830"},"vehicle_type_id":"4","last_reported":1702383220,"current_range_meters":30000,"station_id":"","pricing_plan_id":"free"},{"bike_id":"110e137c-0d20-442a-bff5-dadfdd7a3251","system_id":"levelo_inurba_marseille","lat":43.286591,"lon":5.363346,"is_reserved":false,"is_disabled":false,"rental_uris":{"android":"levelo://app?vid=110e137c-0d20-442a-bff5-dadfdd7a3251","ios":"levelo://app?vid=110e137c-0d20-442a-bff5-dadfdd7a3251"},"vehicle_type_id":"4","last_reported":1702383220,"current_range_meters":18800,"station_id":"ce4bhah2rcd13ifvqej0","pricing_plan_id":"free"},{"bike_id":"2034bc06-1cd1-4fc1-ab47-f7aa13cf39cd","system_id":"levelo_inurba_marseille","lat":43.286591,"lon":5.363346,"is_reserved":false,"is_disabled":false,"rental_uris":{"android":"levelo://app?vid=2034bc06-1cd1-4fc1-ab47-f7aa13cf39cd","ios":"levelo://app?vid=2034bc06-1cd1-4fc1-ab47-f7aa13cf39cd"},"vehicle_type_id":"4","last_reported":1702383220,"current_range_meters":26000,"station_id":"ce4bhah2rcd13ifvqej0","pricing_plan_id":"free"},{"bike_id":"1e9aaebd-5e95-4fb8-a47a-e6729bc49fdf","system_id":"levelo_inurba_marseille","lat":43.298681,"lon":5.397225,"is_reserved":false,"is_disabled":false,"rental_uris":{"android":"levelo://app?vid=1e9aaebd-5e95-4fb8-a47a-e6729bc49fdf","ios":"levelo://app?vid=1e9aaebd-5e95-4fb8-a47a-e6729bc49fdf"},"vehicle_type_id":"4","last_reported":1702383220,"current_range_meters":31200,"station_id":"ce4bh0h2rcd13ifvqd50","pricing_plan_id":"free"},{"bike_id":"fcd8268b-0395-4e45-a983-fd0561e530d2","system_id":"levelo_inurba_marseille","lat":43.286593,"lon":5.363346,"is_reserved":false,"is_disabled":false,"rental_uris":{"android":"levelo://app?vid=fcd8268b-0395-4e45-a983-fd0561e530d2","ios":"levelo://app?vid=fcd8268b-0395-4e45-a983-fd0561e530d2"},"vehicle_type_id":"4","last_reported":1702383220,"current_range_meters":31200,"station_id":"ce4bhah2rcd13ifvqej0","pricing_plan_id":"free"},{"bike_id":"3bf6e410-eebb-4059-ba47-8a4abb5ebdaf","system_id":"levelo_inurba_marseille","lat":43.295196,"lon":5.39397,"is_reserved":false,"is_disabled":false,"rental_uris":{"android":"levelo://app?vid=3bf6e410-eebb-4059-ba47-8a4abb5ebdaf","ios":"levelo://app?vid=3bf6e410-eebb-4059-ba47-8a4abb5ebdaf"},"vehicle_type_id":"4","last_reported":1702383220,"current_range_meters":23600,"station_id":"ce4bh292rcd13ifvqdf0","pricing_plan_id":"free"},{"bike_id":"96cf6d92-7695-4511-afc8-768406995c55","system_id":"levelo_inurba_marseille","lat":43.295194,"lon":5.39397,"is_reserved":false,"is_disabled":false,"rental_uris":{"android":"levelo://app?vid=96cf6d92-7695-4511-afc8-768406995c55","ios":"levelo://app?vid=96cf6d92-7695-4511-afc8-768406995c55"},"vehicle_type_id":"4","last_reported":1702383220,"current_range_meters":3200,"station_id":"ce4bh292rcd13ifvqdf0","pricing_plan_id":"free"},{"bike_id":"0b6bf27f-4c7b-4de5-ab6f-0edf65476f84","system_id":"levelo_inurba_marseille","lat":43.302759,"lon":5.400793,"is_reserved":false,"is_disabled":false,"rental_uris":{"android":"levelo://app?vid=0b6bf27f-4c7b-4de5-ab6f-0edf65476f84","ios":"levelo://app?vid=0b6bf27f-4c7b-4de5-ab6f-0edf65476f84"},"vehicle_type_id":"4","last_reported":1702383220,"current_range_meters":12000,"station_id":"ce4bgvh2rcd13ifvqcs0","pricing_plan_id":"free"},{"bike_id":"d4f105d3-dfab-4280-82c3-71806f175b13","system_id":"levelo_inurba_marseille","lat":43.28653,"lon":5.37394,"is_reserved":false,"is_disabled":false,"rental_uris":{"android":"levelo://app?vid=d4f105d3-dfab-4280-82c3-71806f175b13","ios":"levelo://app?vid=d4f105d3-dfab-4280-82c3-71806f175b13"},"vehicle_type_id":"4","last_reported":1702383220,"current_range_meters":400,"station_id":"ce4bgup2rcd13ifvqcn0","pricing_plan_id":"free"},{"bike_id":"dd55c571-beb8-4144-9eee-a018fae0dfc2","system_id":"levelo_inurba_marseille","lat":43.286039,"lon":5.370681,"is_reserved":false,"is_disabled":false,"rental_uris":{"android":"levelo://app?vid=dd55c571-beb8-4144-9eee-a018fae0dfc2","ios":"levelo://app?vid=dd55c571-beb8-4144-9eee-a018fae0dfc2"},"vehicle_type_id":"4","last_reported":1702383220,"current_range_meters":23600,"station_id":"ce4bht12rcd13ifvqi60","pricing_plan_id":"free"},{"bike_id":"682e69a0-08b9-4284-a46b-be3562b3f8cf","system_id":"levelo_inurba_marseille","lat":43.287184,"lon":5.37937,"is_reserved":false,"is_disabled":false,"rental_uris":{"android":"levelo://app?vid=682e69a0-08b9-4284-a46b-be3562b3f8cf","ios":"levelo://app?vid=682e69a0-08b9-4284-a46b-be3562b3f8cf"},"vehicle_type_id":"4","last_reported":1702383220,"current_range_meters":15200,"station_id":"ce4bh9p2rcd13ifvqec0","pricing_plan_id":"free"},{"bike_id":"858214c7-8132-48ae-9ca4-b66ab32819d6","system_id":"levelo_inurba_marseille","lat":43.287185,"lon":5.379373,"is_reserved":false,"is_disabled":false,"rental_uris":{"android":"levelo://app?vid=858214c7-8132-48ae-9ca4-b66ab32819d6","ios":"levelo://app?vid=858214c7-8132-48ae-9ca4-b66ab32819d6"},"vehicle_type_id":"4","last_reported":1702383220,"current_range_meters":24400,"station_id":"ce4bh9p2rcd13ifvqec0","pricing_plan_id":"free"},{"bike_id":"b5bf9f42-0627-46b0-9f87-a7d90fed1782","system_id":"levelo_inurba_marseille","lat":43.31689,"lon":5.40481,"is_reserved":false,"is_disabled":false,"rental_uris":{"android":"levelo://app?vid=b5bf9f42-0627-46b0-9f87-a7d90fed1782","ios":"levelo://app?vid=b5bf9f42-0627-46b0-9f87-a7d90fed1782"},"vehicle_type_id":"4","last_reported":1702383220,"current_range_meters":10000,"station_id":"ce4bh012rcd13ifvqd00","pricing_plan_id":"free"},{"bike_id":"d95c5ed4-2452-4401-9621-f6c9ec5e5d70","system_id":"levelo_inurba_marseille","lat":43.284538,"lon":5.358657,"is_reserved":false,"is_disabled":false,"rental_uris":{"android":"levelo://app?vid=d95c5ed4-2452-4401-9621-f6c9ec5e5d70","ios":"levelo://app?vid=d95c5ed4-2452-4401-9621-f6c9ec5e5d70"},"vehicle_type_id":"4","last_reported":1702383220,"current_range_meters":19200,"station_id":"ce4bhah2rcd13ifvqei0","pricing_plan_id":"free"},{"bike_id":"0f6147a0-5733-4162-9d56-3a562843c4a1","system_id":"levelo_inurba_marseille","lat":43.294314,"lon":5.397498,"is_reserved":false,"is_disabled":false,"rental_uris":{"android":"levelo://app?vid=0f6147a0-5733-4162-9d56-3a562843c4a1","ios":"levelo://app?vid=0f6147a0-5733-4162-9d56-3a562843c4a1"},"vehicle_type_id":"4","last_reported":1702383220,"current_range_meters":29200,"station_id":"ce4bh3h2rcd13ifvqdo0","pricing_plan_id":"free"},{"bike_id":"4e4486e4-fe54-4989-8b6c-0450b5af9cd7","system_id":"levelo_inurba_marseille","lat":43.286595,"lon":5.386795,"is_reserved":false,"is_disabled":false,"rental_uris":{"android":"levelo://app?vid=4e4486e4-fe54-4989-8b6c-0450b5af9cd7","ios":"levelo://app?vid=4e4486e4-fe54-4989-8b6c-0450b5af9cd7"},"vehicle_type_id":"4","last_reported":1702383220,"current_range_meters":30000,"station_id":"ce4bh492rcd13ifvqdug","pricing_plan_id":"free"},{"bike_id":"48722a3d-321f-4b5e-b85b-887ed4900422","system_id":"levelo_inurba_marseille","lat":43.319179,"lon":5.407725,"is_reserved":false,"is_disabled":false,"rental_uris":{"android":"levelo://app?vid=48722a3d-321f-4b5e-b85b-887ed4900422","ios":"levelo://app?vid=48722a3d-321f-4b5e-b85b-887ed4900422"},"vehicle_type_id":"4","last_reported":1702383220,"current_range_meters":25600,"station_id":"ce4bhq12rcd13ifvqhig","pricing_plan_id":"free"},{"bike_id":"b141cb4e-b803-4cec-9726-41aed3cf0cb4","system_id":"levelo_inurba_marseille","lat":43.33717,"lon":5.391857,"is_reserved":false,"is_disabled":false,"rental_uris":{"android":"levelo://app?vid=b141cb4e-b803-4cec-9726-41aed3cf0cb4","ios":"levelo://app?vid=b141cb4e-b803-4cec-9726-41aed3cf0cb4"},"vehicle_type_id":"4","last_reported":1702383220,"current_range_meters":18000,"station_id":"ce4bhr92rcd13ifvqhsg","pricing_plan_id":"free"},{"bike_id":"3b407ae7-e8af-45fe-a711-900547285171","system_id":"levelo_inurba_marseille","lat":43.337168,"lon":5.391825,"is_reserved":false,"is_disabled":false,"rental_uris":{"android":"levelo://app?vid=3b407ae7-e8af-45fe-a711-900547285171","ios":"levelo://app?vid=3b407ae7-e8af-45fe-a711-900547285171"},"vehicle_type_id":"4","last_reported":1702383220,"current_range_meters":22800,"station_id":"ce4bhr92rcd13ifvqhsg","pricing_plan_id":"free"},{"bike_id":"a53f5d02-c724-41b5-bc50-53d39b8c48d9","system_id":"levelo_inurba_marseille","lat":43.323464,"lon":5.406297,"is_reserved":false,"is_disabled":false,"rental_uris":{"android":"levelo://app?vid=a53f5d02-c724-41b5-bc50-53d39b8c48d9","ios":"levelo://app?vid=a53f5d02-c724-41b5-bc50-53d39b8c48d9"},"vehicle_type_id":"4","last_reported":1702383220,"current_range_meters":30400,"station_id":"ce4bhq92rcd13ifvqhjg","pricing_plan_id":"free"},{"bike_id":"e19f18ff-25ff-4c0b-a34c-932ba81a951e","system_id":"levelo_inurba_marseille","lat":43.284793,"lon":5.384119,"is_reserved":false,"is_disabled":false,"rental_uris":{"android":"levelo://app?vid=e19f18ff-25ff-4c0b-a34c-932ba81a951e","ios":"levelo://app?vid=e19f18ff-25ff-4c0b-a34c-932ba81a951e"},"vehicle_type_id":"4","last_reported":1702383220,"current_range_meters":0,"station_id":"ce4bh512rcd13ifvqe3g","pricing_plan_id":"free"},{"bike_id":"f720741c-4598-485b-a1c3-12e92080a166","system_id":"levelo_inurba_marseille","lat":43.283494,"lon":5.380945,"is_reserved":false,"is_disabled":false,"rental_uris":{"android":"levelo://app?vid=f720741c-4598-485b-a1c3-12e92080a166","ios":"levelo://app?vid=f720741c-4598-485b-a1c3-12e92080a166"},"vehicle_type_id":"4","last_reported":1702383220,"current_range_meters":21200,"station_id":"ce4bh412rcd13ifvqdr0","pricing_plan_id":"free"},{"bike_id":"3fac27d6-2bbd-4e50-ba2a-18d97a4290b5","system_id":"levelo_inurba_marseille","lat":43.283494,"lon":5.380945,"is_reserved":false,"is_disabled":false,"rental_uris":{"android":"levelo://app?vid=3fac27d6-2bbd-4e50-ba2a-18d97a4290b5","ios":"levelo://app?vid=3fac27d6-2bbd-4e50-ba2a-18d97a4290b5"},"vehicle_type_id":"4","last_reported":1702383220,"current_range_meters":23200,"station_id":"ce4bh412rcd13ifvqdr0","pricing_plan_id":"free"},{"bike_id":"e6d1c614-5e85-4b61-8871-5a724e191c72","system_id":"levelo_inurba_marseille","lat":43.283494,"lon":5.380945,"is_reserved":false,"is_disabled":false,"rental_uris":{"android":"levelo://app?vid=e6d1c614-5e85-4b61-8871-5a724e191c72","ios":"levelo://app?vid=e6d1c614-5e85-4b61-8871-5a724e191c72"},"vehicle_type_id":"4","last_reported":1702383220,"current_range_meters":16000,"station_id":"ce4bh412rcd13ifvqdr0","pricing_plan_id":"free"},{"bike_id":"3d846f5d-087a-432c-bc11-5e4451af192e","system_id":"levelo_inurba_marseille","lat":43.289363,"lon":5.396322,"is_reserved":false,"is_disabled":false,"rental_uris":{"android":"levelo://app?vid=3d846f5d-087a-432c-bc11-5e4451af192e","ios":"levelo://app?vid=3d846f5d-087a-432c-bc11-5e4451af192e"},"vehicle_type_id":"4","last_reported":1702383220,"current_range_meters":26000,"station_id":"ce4bh3h2rcd13ifvqdn0","pricing_plan_id":"free"},{"bike_id":"ae9ab67c-c938-4704-84fc-b294ce561cf0","system_id":"levelo_inurba_marseille","lat":43.289363,"lon":5.396322,"is_reserved":false,"is_disabled":false,"rental_uris":{"android":"levelo://app?vid=ae9ab67c-c938-4704-84fc-b294ce561cf0","ios":"levelo://app?vid=ae9ab67c-c938-4704-84fc-b294ce561cf0"},"vehicle_type_id":"4","last_reported":1702383220,"current_range_meters":26400,"station_id":"ce4bh3h2rcd13ifvqdn0","pricing_plan_id":"free"},{"bike_id":"08151256-e5de-4f97-84b3-49ba5fe1d66f","system_id":"levelo_inurba_marseille","lat":43.289363,"lon":5.396322,"is_reserved":false,"is_disabled":false,"rental_uris":{"android":"levelo://app?vid=08151256-e5de-4f97-84b3-49ba5fe1d66f","ios":"levelo://app?vid=08151256-e5de-4f97-84b3-49ba5fe1d66f"},"vehicle_type_id":"4","last_reported":1702383220,"current_range_meters":22800,"station_id":"ce4bh3h2rcd13ifvqdn0","pricing_plan_id":"free"},{"bike_id":"4c1b3550-7cea-4d69-ac0c-46c9072fb2f0","system_id":"levelo_inurba_marseille","lat":43.292724,"lon":5.401131,"is_reserved":false,"is_disabled":false,"rental_uris":{"android":"levelo://app?vid=4c1b3550-7cea-4d69-ac0c-46c9072fb2f0","ios":"levelo://app?vid=4c1b3550-7cea-4d69-ac0c-46c9072fb2f0"},"vehicle_type_id":"4","last_reported":1702383220,"current_range_meters":30400,"station_id":"ce4bh312rcd13ifvqdk0","pricing_plan_id":"free"},{"bike_id":"bbe5f30a-4738-4826-bd7a-95ec16c0ccd2","system_id":"levelo_inurba_marseille","lat":43.280382,"lon":5.369291,"is_reserved":false,"is_disabled":false,"rental_uris":{"android":"levelo://app?vid=bbe5f30a-4738-4826-bd7a-95ec16c0ccd2","ios":"levelo://app?vid=bbe5f30a-4738-4826-bd7a-95ec16c0ccd2"},"vehicle_type_id":"4","last_reported":1702383220,"current_range_meters":30400,"station_id":"ce4bha12rcd13ifvqef0","pricing_plan_id":"free"},{"bike_id":"696bf1ec-ecac-48e5-aca0-6e8a0eb3f4b8","system_id":"levelo_inurba_marseille","lat":43.280298,"lon":5.369424,"is_reserved":false,"is_disabled":false,"rental_uris":{"android":"levelo://app?vid=696bf1ec-ecac-48e5-aca0-6e8a0eb3f4b8","ios":"levelo://app?vid=696bf1ec-ecac-48e5-aca0-6e8a0eb3f4b8"},"vehicle_type_id":"4","last_reported":1702383220,"current_range_meters":26000,"station_id":"ce4bha12rcd13ifvqef0","pricing_plan_id":"free"},{"bike_id":"6aabaa9f-6a02-4301-8b3c-0eb6397a89d5","system_id":"levelo_inurba_marseille","lat":43.29047,"lon":5.39957,"is_reserved":false,"is_disabled":false,"rental_uris":{"android":"levelo://app?vid=6aabaa9f-6a02-4301-8b3c-0eb6397a89d5","ios":"levelo://app?vid=6aabaa9f-6a02-4301-8b3c-0eb6397a89d5"},"vehicle_type_id":"4","last_reported":1702383220,"current_range_meters":30000,"station_id":"ce4bh392rcd13ifvqdm0","pricing_plan_id":"free"},{"bike_id":"f1ce76ad-57c5-48bb-b84b-d9767a8de19f","system_id":"levelo_inurba_marseille","lat":43.29039,"lon":5.39969,"is_reserved":false,"is_disabled":false,"rental_uris":{"android":"levelo://app?vid=f1ce76ad-57c5-48bb-b84b-d9767a8de19f","ios":"levelo://app?vid=f1ce76ad-57c5-48bb-b84b-d9767a8de19f"},"vehicle_type_id":"4","last_reported":1702383220,"current_range_meters":2000,"station_id":"ce4bh392rcd13ifvqdm0","pricing_plan_id":"free"},{"bike_id":"983aecb4-2352-4508-b58f-3d3024ea84ab","system_id":"levelo_inurba_marseille","lat":43.29036,"lon":5.39977,"is_reserved":false,"is_disabled":false,"rental_uris":{"android":"levelo://app?vid=983aecb4-2352-4508-b58f-3d3024ea84ab","ios":"levelo://app?vid=983aecb4-2352-4508-b58f-3d3024ea84ab"},"vehicle_type_id":"4","last_reported":1702383220,"current_range_meters":18000,"station_id":"ce4bh392rcd13ifvqdm0","pricing_plan_id":"free"},{"bike_id":"6d199128-f011-4e4c-94f7-dbe75ba1dae6","system_id":"levelo_inurba_marseille","lat":43.29033,"lon":5.39976,"is_reserved":false,"is_disabled":false,"rental_uris":{"android":"levelo://app?vid=6d199128-f011-4e4c-94f7-dbe75ba1dae6","ios":"levelo://app?vid=6d199128-f011-4e4c-94f7-dbe75ba1dae6"},"vehicle_type_id":"4","last_reported":1702383220,"current_range_meters":4000,"station_id":"ce4bh392rcd13ifvqdm0","pricing_plan_id":"free"},{"bike_id":"d05c6c97-c3ea-47cc-bc4b-d8dbf193e90d","system_id":"levelo_inurba_marseille","lat":43.284462,"lon":5.392121,"is_reserved":false,"is_disabled":false,"rental_uris":{"android":"levelo://app?vid=d05c6c97-c3ea-47cc-bc4b-d8dbf193e90d","ios":"levelo://app?vid=d05c6c97-c3ea-47cc-bc4b-d8dbf193e90d"},"vehicle_type_id":"4","last_reported":1702383220,"current_range_meters":0,"station_id":"ce4bhoh2rcd13ifvqh5g","pricing_plan_id":"free"},{"bike_id":"51fb7e88-372f-46cb-9cf3-be66f17430a8","system_id":"levelo_inurba_marseille","lat":43.279927,"lon":5.37901,"is_reserved":false,"is_disabled":false,"rental_uris":{"android":"levelo://app?vid=51fb7e88-372f-46cb-9cf3-be66f17430a8","ios":"levelo://app?vid=51fb7e88-372f-46cb-9cf3-be66f17430a8"},"vehicle_type_id":"4","last_reported":1702383220,"current_range_meters":20000,"station_id":"","pricing_plan_id":"free"},{"bike_id":"cef5c5d4-a7e5-4d58-81a6-f5e214d29471","system_id":"levelo_inurba_marseille","lat":43.320045,"lon":5.415048,"is_reserved":false,"is_disabled":false,"rental_uris":{"android":"levelo://app?vid=cef5c5d4-a7e5-4d58-81a6-f5e214d29471","ios":"levelo://app?vid=cef5c5d4-a7e5-4d58-81a6-f5e214d29471"},"vehicle_type_id":"4","last_reported":1702383220,"current_range_meters":25200,"station_id":"ce4bhq92rcd13ifvqhkg","pricing_plan_id":"free"},{"bike_id":"555e2a42-a9d5-4997-8a33-ef9cbd97ad8d","system_id":"levelo_inurba_marseille","lat":43.279742,"lon":5.38744,"is_reserved":false,"is_disabled":false,"rental_uris":{"android":"levelo://app?vid=555e2a42-a9d5-4997-8a33-ef9cbd97ad8d","ios":"levelo://app?vid=555e2a42-a9d5-4997-8a33-ef9cbd97ad8d"},"vehicle_type_id":"4","last_reported":1702383220,"current_range_meters":4400,"station_id":"ce4bhg12rcd13ifvqf80","pricing_plan_id":"free"},{"bike_id":"17cd3a9c-0fad-402d-8cbd-62aa49798b4e","system_id":"levelo_inurba_marseille","lat":43.325233,"lon":5.414318,"is_reserved":false,"is_disabled":false,"rental_uris":{"android":"levelo://app?vid=17cd3a9c-0fad-402d-8cbd-62aa49798b4e","ios":"levelo://app?vid=17cd3a9c-0fad-402d-8cbd-62aa49798b4e"},"vehicle_type_id":"4","last_reported":1702383220,"current_range_meters":15200,"station_id":"ce4bhq12rcd13ifvqhhg","pricing_plan_id":"free"},{"bike_id":"d92d1d39-756a-4555-a28a-a57c8caca57a","system_id":"levelo_inurba_marseille","lat":43.292569,"lon":5.409107,"is_reserved":false,"is_disabled":false,"rental_uris":{"android":"levelo://app?vid=d92d1d39-756a-4555-a28a-a57c8caca57a","ios":"levelo://app?vid=d92d1d39-756a-4555-a28a-a57c8caca57a"},"vehicle_type_id":"4","last_reported":1702383220,"current_range_meters":24400,"station_id":"ce4bh192rcd13ifvqdc0","pricing_plan_id":"free"},{"bike_id":"dafd856d-afd2-420b-b004-e33e4e16b76c","system_id":"levelo_inurba_marseille","lat":43.325243,"lon":5.414326,"is_reserved":false,"is_disabled":false,"rental_uris":{"android":"levelo://app?vid=dafd856d-afd2-420b-b004-e33e4e16b76c","ios":"levelo://app?vid=dafd856d-afd2-420b-b004-e33e4e16b76c"},"vehicle_type_id":"4","last_reported":1702383220,"current_range_meters":22000,"station_id":"ce4bhq12rcd13ifvqhhg","pricing_plan_id":"free"},{"bike_id":"032ad4f4-4b91-4ab5-bb69-483545da83df","system_id":"levelo_inurba_marseille","lat":43.27618,"lon":5.361009,"is_reserved":false,"is_disabled":false,"rental_uris":{"android":"levelo://app?vid=032ad4f4-4b91-4ab5-bb69-483545da83df","ios":"levelo://app?vid=032ad4f4-4b91-4ab5-bb69-483545da83df"},"vehicle_type_id":"4","last_reported":1702383220,"current_range_meters":21200,"station_id":"ce4bgj92rcd13ifvqbe0","pricing_plan_id":"free"},{"bike_id":"f1b5931d-d3b9-4483-b874-4227e70f363c","system_id":"levelo_inurba_marseille","lat":43.276144,"lon":5.361116,"is_reserved":false,"is_disabled":false,"rental_uris":{"android":"levelo://app?vid=f1b5931d-d3b9-4483-b874-4227e70f363c","ios":"levelo://app?vid=f1b5931d-d3b9-4483-b874-4227e70f363c"},"vehicle_type_id":"4","last_reported":1702383220,"current_range_meters":30000,"station_id":"ce4bgj92rcd13ifvqbe0","pricing_plan_id":"free"},{"bike_id":"5e1ebe03-dc0d-4243-b40c-cd9e46c16f93","system_id":"levelo_inurba_marseille","lat":43.27605,"lon":5.36118,"is_reserved":false,"is_disabled":false,"rental_uris":{"android":"levelo://app?vid=5e1ebe03-dc0d-4243-b40c-cd9e46c16f93","ios":"levelo://app?vid=5e1ebe03-dc0d-4243-b40c-cd9e46c16f93"},"vehicle_type_id":"4","last_reported":1702383220,"current_range_meters":2800,"station_id":"ce4bgj92rcd13ifvqbe0","pricing_plan_id":"free"},{"bike_id":"ac67c663-c197-4eab-964f-35ebd9e6d45d","system_id":"levelo_inurba_marseille","lat":43.276769,"lon":5.388787,"is_reserved":false,"is_disabled":false,"rental_uris":{"android":"levelo://app?vid=ac67c663-c197-4eab-964f-35ebd9e6d45d","ios":"levelo://app?vid=ac67c663-c197-4eab-964f-35ebd9e6d45d"},"vehicle_type_id":"4","last_reported":1702383220,"current_range_meters":20000,"station_id":"ce4bhi12rcd13ifvqfo0","pricing_plan_id":"free"},{"bike_id":"4b7e2cdc-9ddf-43f3-b286-6f67d0b69344","system_id":"levelo_inurba_marseille","lat":43.33602,"lon":5.41032,"is_reserved":false,"is_disabled":false,"rental_uris":{"android":"levelo://app?vid=4b7e2cdc-9ddf-43f3-b286-6f67d0b69344","ios":"levelo://app?vid=4b7e2cdc-9ddf-43f3-b286-6f67d0b69344"},"vehicle_type_id":"4","last_reported":1702383220,"current_range_meters":23200,"station_id":"ce4bhqh2rcd13ifvqhmg","pricing_plan_id":"free"},{"bike_id":"5be3d89a-3796-4eda-a28f-531ae0ec7b40","system_id":"levelo_inurba_marseille","lat":43.336148,"lon":5.410349,"is_reserved":false,"is_disabled":false,"rental_uris":{"android":"levelo://app?vid=5be3d89a-3796-4eda-a28f-531ae0ec7b40","ios":"levelo://app?vid=5be3d89a-3796-4eda-a28f-531ae0ec7b40"},"vehicle_type_id":"4","last_reported":1702383220,"current_range_meters":20000,"station_id":"ce4bhqh2rcd13ifvqhmg","pricing_plan_id":"free"},{"bike_id":"8a6bbdb0-3b54-4907-9d1f-91ce3424fe28","system_id":"levelo_inurba_marseille","lat":43.336148,"lon":5.410349,"is_reserved":false,"is_disabled":false,"rental_uris":{"android":"levelo://app?vid=8a6bbdb0-3b54-4907-9d1f-91ce3424fe28","ios":"levelo://app?vid=8a6bbdb0-3b54-4907-9d1f-91ce3424fe28"},"vehicle_type_id":"4","last_reported":1702383220,"current_range_meters":4000,"station_id":"ce4bhqh2rcd13ifvqhmg","pricing_plan_id":"free"},{"bike_id":"7c49a3e4-e381-4ef9-9ed5-09b112166157","system_id":"levelo_inurba_marseille","lat":43.276771,"lon":5.388799,"is_reserved":false,"is_disabled":false,"rental_uris":{"android":"levelo://app?vid=7c49a3e4-e381-4ef9-9ed5-09b112166157","ios":"levelo://app?vid=7c49a3e4-e381-4ef9-9ed5-09b112166157"},"vehicle_type_id":"4","last_reported":1702383220,"current_range_meters":27200,"station_id":"ce4bhi12rcd13ifvqfo0","pricing_plan_id":"free"},{"bike_id":"b1dafd3a-a440-496f-9523-b1636836b00a","system_id":"levelo_inurba_marseille","lat":43.279975,"lon":5.40009,"is_reserved":false,"is_disabled":false,"rental_uris":{"android":"levelo://app?vid=b1dafd3a-a440-496f-9523-b1636836b00a","ios":"levelo://app?vid=b1dafd3a-a440-496f-9523-b1636836b00a"},"vehicle_type_id":"4","last_reported":1702383220,"current_range_meters":22400,"station_id":"ce4bho92rcd13ifvqh4g","pricing_plan_id":"free"},{"bike_id":"b1c028eb-0fe1-4afa-b35c-b9783a0e9537","system_id":"levelo_inurba_marseille","lat":43.31723,"lon":5.42405,"is_reserved":false,"is_disabled":false,"rental_uris":{"android":"levelo://app?vid=b1c028eb-0fe1-4afa-b35c-b9783a0e9537","ios":"levelo://app?vid=b1c028eb-0fe1-4afa-b35c-b9783a0e9537"},"vehicle_type_id":"4","last_reported":1702383220,"current_range_meters":6000,"station_id":"ce4bhp92rcd13ifvqhbg","pricing_plan_id":"free"},{"bike_id":"38199796-b444-4976-9f8e-6c84940e04b4","system_id":"levelo_inurba_marseille","lat":43.340804,"lon":5.410219,"is_reserved":false,"is_disabled":false,"rental_uris":{"android":"levelo://app?vid=38199796-b444-4976-9f8e-6c84940e04b4","ios":"levelo://app?vid=38199796-b444-4976-9f8e-6c84940e04b4"},"vehicle_type_id":"4","last_reported":1702383220,"current_range_meters":31200,"station_id":"ce4bhqh2rcd13ifvqhlg","pricing_plan_id":"free"},{"bike_id":"7cddd4cc-2c7d-4381-9bfa-f684cdc32fa0","system_id":"levelo_inurba_marseille","lat":43.27607,"lon":5.39509,"is_reserved":false,"is_disabled":false,"rental_uris":{"android":"levelo://app?vid=7cddd4cc-2c7d-4381-9bfa-f684cdc32fa0","ios":"levelo://app?vid=7cddd4cc-2c7d-4381-9bfa-f684cdc32fa0"},"vehicle_type_id":"4","last_reported":1702383220,"current_range_meters":13200,"station_id":"","pricing_plan_id":"free"},{"bike_id":"840946d8-d9c9-440b-a8ee-14162bbd15ab","system_id":"levelo_inurba_marseille","lat":43.29553,"lon":5.42276,"is_reserved":false,"is_disabled":false,"rental_uris":{"android":"levelo://app?vid=840946d8-d9c9-440b-a8ee-14162bbd15ab","ios":"levelo://app?vid=840946d8-d9c9-440b-a8ee-14162bbd15ab"},"vehicle_type_id":"4","last_reported":1702383220,"current_range_meters":12800,"station_id":"ce4bhph2rcd13ifvqhdg","pricing_plan_id":"free"},{"bike_id":"18f06cf1-d5a7-4a16-b243-ff63553116c6","system_id":"levelo_inurba_marseille","lat":43.295523,"lon":5.422926,"is_reserved":false,"is_disabled":false,"rental_uris":{"android":"levelo://app?vid=18f06cf1-d5a7-4a16-b243-ff63553116c6","ios":"levelo://app?vid=18f06cf1-d5a7-4a16-b243-ff63553116c6"},"vehicle_type_id":"4","last_reported":1702383220,"current_range_meters":26000,"station_id":"ce4bhph2rcd13ifvqhdg","pricing_plan_id":"free"},{"bike_id":"dab6bfc2-c9fd-4daa-a622-37368ecfa3b2","system_id":"levelo_inurba_marseille","lat":43.29553,"lon":5.42285,"is_reserved":false,"is_disabled":false,"rental_uris":{"android":"levelo://app?vid=dab6bfc2-c9fd-4daa-a622-37368ecfa3b2","ios":"levelo://app?vid=dab6bfc2-c9fd-4daa-a622-37368ecfa3b2"},"vehicle_type_id":"4","last_reported":1702383220,"current_range_meters":31200,"station_id":"ce4bhph2rcd13ifvqhdg","pricing_plan_id":"free"},{"bike_id":"5fdf250f-1327-408e-ae97-07400fa86443","system_id":"levelo_inurba_marseille","lat":43.278128,"lon":5.407195,"is_reserved":false,"is_disabled":false,"rental_uris":{"android":"levelo://app?vid=5fdf250f-1327-408e-ae97-07400fa86443","ios":"levelo://app?vid=5fdf250f-1327-408e-ae97-07400fa86443"},"vehicle_type_id":"4","last_reported":1702383220,"current_range_meters":25600,"station_id":"ce4bhnh2rcd13ifvqgtg","pricing_plan_id":"free"},{"bike_id":"9ff06d78-6a89-4285-8fc0-156e0a10c8d1","system_id":"levelo_inurba_marseille","lat":43.269467,"lon":5.386439,"is_reserved":false,"is_disabled":false,"rental_uris":{"android":"levelo://app?vid=9ff06d78-6a89-4285-8fc0-156e0a10c8d1","ios":"levelo://app?vid=9ff06d78-6a89-4285-8fc0-156e0a10c8d1"},"vehicle_type_id":"4","last_reported":1702383220,"current_range_meters":9200,"station_id":"ce4bhh92rcd13ifvqfh0","pricing_plan_id":"free"},{"bike_id":"0d786861-8003-43f6-a0eb-f5f91e25520d","system_id":"levelo_inurba_marseille","lat":43.267966,"lon":5.393976,"is_reserved":false,"is_disabled":false,"rental_uris":{"android":"levelo://app?vid=0d786861-8003-43f6-a0eb-f5f91e25520d","ios":"levelo://app?vid=0d786861-8003-43f6-a0eb-f5f91e25520d"},"vehicle_type_id":"4","last_reported":1702383220,"current_range_meters":22400,"station_id":"ce4bhh12rcd13ifvqfg0","pricing_plan_id":"free"},{"bike_id":"14bc19f9-c5ac-4814-b202-5604c65f25d1","system_id":"levelo_inurba_marseille","lat":43.30801,"lon":5.43528,"is_reserved":false,"is_disabled":false,"rental_uris":{"android":"levelo://app?vid=14bc19f9-c5ac-4814-b202-5604c65f25d1","ios":"levelo://app?vid=14bc19f9-c5ac-4814-b202-5604c65f25d1"},"vehicle_type_id":"4","last_reported":1702383220,"current_range_meters":17600,"station_id":"ce4bhph2rcd13ifvqheg","pricing_plan_id":"free"},{"bike_id":"c5dcb1f5-374e-4782-ab55-b8ad7f9e18ae","system_id":"levelo_inurba_marseille","lat":43.26939,"lon":5.4025,"is_reserved":false,"is_disabled":false,"rental_uris":{"android":"levelo://app?vid=c5dcb1f5-374e-4782-ab55-b8ad7f9e18ae","ios":"levelo://app?vid=c5dcb1f5-374e-4782-ab55-b8ad7f9e18ae"},"vehicle_type_id":"4","last_reported":1702383220,"current_range_meters":4400,"station_id":"cjm6bp8fraef2m0cb0m0","pricing_plan_id":"free"},{"bike_id":"c976452c-83bc-4afb-b7d1-c0470614e582","system_id":"levelo_inurba_marseille","lat":43.26939,"lon":5.40253,"is_reserved":false,"is_disabled":false,"rental_uris":{"android":"levelo://app?vid=c976452c-83bc-4afb-b7d1-c0470614e582","ios":"levelo://app?vid=c976452c-83bc-4afb-b7d1-c0470614e582"},"vehicle_type_id":"4","last_reported":1702383220,"current_range_meters":20000,"station_id":"cjm6bp8fraef2m0cb0m0","pricing_plan_id":"free"},{"bike_id":"6c89456d-34df-4fe4-bb70-fe33bc99b3c4","system_id":"levelo_inurba_marseille","lat":43.26949,"lon":5.40262,"is_reserved":false,"is_disabled":false,"rental_uris":{"android":"levelo://app?vid=6c89456d-34df-4fe4-bb70-fe33bc99b3c4","ios":"levelo://app?vid=6c89456d-34df-4fe4-bb70-fe33bc99b3c4"},"vehicle_type_id":"4","last_reported":1702383220,"current_range_meters":17200,"station_id":"cjm6bp8fraef2m0cb0m0","pricing_plan_id":"free"},{"bike_id":"ee56300f-2dd8-4c41-83b9-c2c47cfe39b1","system_id":"levelo_inurba_marseille","lat":43.26949,"lon":5.40262,"is_reserved":false,"is_disabled":false,"rental_uris":{"android":"levelo://app?vid=ee56300f-2dd8-4c41-83b9-c2c47cfe39b1","ios":"levelo://app?vid=ee56300f-2dd8-4c41-83b9-c2c47cfe39b1"},"vehicle_type_id":"4","last_reported":1702383220,"current_range_meters":29600,"station_id":"cjm6bp8fraef2m0cb0m0","pricing_plan_id":"free"},{"bike_id":"71947f51-3f0a-4007-9b7a-bff5cbf63a6e","system_id":"levelo_inurba_marseille","lat":43.267959,"lon":5.402685,"is_reserved":false,"is_disabled":false,"rental_uris":{"android":"levelo://app?vid=71947f51-3f0a-4007-9b7a-bff5cbf63a6e","ios":"levelo://app?vid=71947f51-3f0a-4007-9b7a-bff5cbf63a6e"},"vehicle_type_id":"4","last_reported":1702383220,"current_range_meters":29200,"station_id":"ce501612rcd8frsf0b60","pricing_plan_id":"free"},{"bike_id":"ed2a037b-9a83-4b16-b573-d588d78bf987","system_id":"levelo_inurba_marseille","lat":43.267959,"lon":5.402687,"is_reserved":false,"is_disabled":false,"rental_uris":{"android":"levelo://app?vid=ed2a037b-9a83-4b16-b573-d588d78bf987","ios":"levelo://app?vid=ed2a037b-9a83-4b16-b573-d588d78bf987"},"vehicle_type_id":"4","last_reported":1702383220,"current_range_meters":24400,"station_id":"ce501612rcd8frsf0b60","pricing_plan_id":"free"},{"bike_id":"f4e66617-d375-469f-a07f-6fbc25aa13c1","system_id":"levelo_inurba_marseille","lat":43.267959,"lon":5.402687,"is_reserved":false,"is_disabled":false,"rental_uris":{"android":"levelo://app?vid=f4e66617-d375-469f-a07f-6fbc25aa13c1","ios":"levelo://app?vid=f4e66617-d375-469f-a07f-6fbc25aa13c1"},"vehicle_type_id":"4","last_reported":1702383220,"current_range_meters":26000,"station_id":"ce501612rcd8frsf0b60","pricing_plan_id":"free"},{"bike_id":"7aff87a6-0602-470f-b435-fe3bba8d34b7","system_id":"levelo_inurba_marseille","lat":43.281548,"lon":5.42643,"is_reserved":false,"is_disabled":false,"rental_uris":{"android":"levelo://app?vid=7aff87a6-0602-470f-b435-fe3bba8d34b7","ios":"levelo://app?vid=7aff87a6-0602-470f-b435-fe3bba8d34b7"},"vehicle_type_id":"4","last_reported":1702383220,"current_range_meters":9200,"station_id":"ce4bhnh2rcd13ifvqgug","pricing_plan_id":"free"},{"bike_id":"3764faf7-beec-4b88-97d8-9ac6b46998c6","system_id":"levelo_inurba_marseille","lat":43.281548,"lon":5.42643,"is_reserved":false,"is_disabled":false,"rental_uris":{"android":"levelo://app?vid=3764faf7-beec-4b88-97d8-9ac6b46998c6","ios":"levelo://app?vid=3764faf7-beec-4b88-97d8-9ac6b46998c6"},"vehicle_type_id":"4","last_reported":1702383220,"current_range_meters":14000,"station_id":"ce4bhnh2rcd13ifvqgug","pricing_plan_id":"free"},{"bike_id":"db27c65a-0704-437a-9123-16bc6886bfa1","system_id":"levelo_inurba_marseille","lat":43.26085,"lon":5.39765,"is_reserved":false,"is_disabled":false,"rental_uris":{"android":"levelo://app?vid=db27c65a-0704-437a-9123-16bc6886bfa1","ios":"levelo://app?vid=db27c65a-0704-437a-9123-16bc6886bfa1"},"vehicle_type_id":"4","last_reported":1702383220,"current_range_meters":12000,"station_id":"","pricing_plan_id":"free"},{"bike_id":"b4b605fd-101e-49fb-9a6d-6c2e220da34c","system_id":"levelo_inurba_marseille","lat":43.25576,"lon":5.38237,"is_reserved":false,"is_disabled":false,"rental_uris":{"android":"levelo://app?vid=b4b605fd-101e-49fb-9a6d-6c2e220da34c","ios":"levelo://app?vid=b4b605fd-101e-49fb-9a6d-6c2e220da34c"},"vehicle_type_id":"4","last_reported":1702383220,"current_range_meters":17600,"station_id":"ce4bhih2rcd13ifvqfs0","pricing_plan_id":"free"},{"bike_id":"18825a53-5f53-4e3f-9b29-229253e7e46b","system_id":"levelo_inurba_marseille","lat":43.25574,"lon":5.38237,"is_reserved":false,"is_disabled":false,"rental_uris":{"android":"levelo://app?vid=18825a53-5f53-4e3f-9b29-229253e7e46b","ios":"levelo://app?vid=18825a53-5f53-4e3f-9b29-229253e7e46b"},"vehicle_type_id":"4","last_reported":1702383220,"current_range_meters":27600,"station_id":"ce4bhih2rcd13ifvqfs0","pricing_plan_id":"free"},{"bike_id":"aa2d36d0-54ac-4190-a344-60e9d48ac836","system_id":"levelo_inurba_marseille","lat":43.25572,"lon":5.38234,"is_reserved":false,"is_disabled":false,"rental_uris":{"android":"levelo://app?vid=aa2d36d0-54ac-4190-a344-60e9d48ac836","ios":"levelo://app?vid=aa2d36d0-54ac-4190-a344-60e9d48ac836"},"vehicle_type_id":"4","last_reported":1702383220,"current_range_meters":27200,"station_id":"ce4bhih2rcd13ifvqfs0","pricing_plan_id":"free"},{"bike_id":"0370251b-90e4-4107-9093-64411e4ab9af","system_id":"levelo_inurba_marseille","lat":43.258658,"lon":5.398935,"is_reserved":false,"is_disabled":false,"rental_uris":{"android":"levelo://app?vid=0370251b-90e4-4107-9093-64411e4ab9af","ios":"levelo://app?vid=0370251b-90e4-4107-9093-64411e4ab9af"},"vehicle_type_id":"4","last_reported":1702383220,"current_range_meters":10400,"station_id":"ce4bhl92rcd13ifvqghg","pricing_plan_id":"free"},{"bike_id":"c93eb180-86cf-461a-8520-87f836f7c94a","system_id":"levelo_inurba_marseille","lat":43.258658,"lon":5.398935,"is_reserved":false,"is_disabled":false,"rental_uris":{"android":"levelo://app?vid=c93eb180-86cf-461a-8520-87f836f7c94a","ios":"levelo://app?vid=c93eb180-86cf-461a-8520-87f836f7c94a"},"vehicle_type_id":"4","last_reported":1702383220,"current_range_meters":18400,"station_id":"ce4bhl92rcd13ifvqghg","pricing_plan_id":"free"},{"bike_id":"b6400bfa-ebb2-4e35-870b-f55b90b8f69f","system_id":"levelo_inurba_marseille","lat":43.257079,"lon":5.411051,"is_reserved":false,"is_disabled":false,"rental_uris":{"android":"levelo://app?vid=b6400bfa-ebb2-4e35-870b-f55b90b8f69f","ios":"levelo://app?vid=b6400bfa-ebb2-4e35-870b-f55b90b8f69f"},"vehicle_type_id":"4","last_reported":1702383220,"current_range_meters":26800,"station_id":"ce4bhkp2rcd13ifvqgd0","pricing_plan_id":"free"},{"bike_id":"bc8438db-83bf-40a6-81a3-6a2805f1a30d","system_id":"levelo_inurba_marseille","lat":43.2479,"lon":5.374457,"is_reserved":false,"is_disabled":false,"rental_uris":{"android":"levelo://app?vid=bc8438db-83bf-40a6-81a3-6a2805f1a30d","ios":"levelo://app?vid=bc8438db-83bf-40a6-81a3-6a2805f1a30d"},"vehicle_type_id":"4","last_reported":1702383220,"current_range_meters":13600,"station_id":"ce4bhgh2rcd13ifvqfb0","pricing_plan_id":"free"},{"bike_id":"48a6c0a2-6f84-4616-89bd-6d9ccd42bf32","system_id":"levelo_inurba_marseille","lat":43.25102,"lon":5.403214,"is_reserved":false,"is_disabled":false,"rental_uris":{"android":"levelo://app?vid=48a6c0a2-6f84-4616-89bd-6d9ccd42bf32","ios":"levelo://app?vid=48a6c0a2-6f84-4616-89bd-6d9ccd42bf32"},"vehicle_type_id":"4","last_reported":1702383220,"current_range_meters":31200,"station_id":"ce4bhlh2rcd13ifvqgig","pricing_plan_id":"free"},{"bike_id":"fc6c0962-0a01-4a74-ab67-dcec0c657499","system_id":"levelo_inurba_marseille","lat":43.25102,"lon":5.403214,"is_reserved":false,"is_disabled":false,"rental_uris":{"android":"levelo://app?vid=fc6c0962-0a01-4a74-ab67-dcec0c657499","ios":"levelo://app?vid=fc6c0962-0a01-4a74-ab67-dcec0c657499"},"vehicle_type_id":"4","last_reported":1702383220,"current_range_meters":18400,"station_id":"ce4bhlh2rcd13ifvqgig","pricing_plan_id":"free"},{"bike_id":"9b1e1ff4-3ddf-47b7-9015-6a2a9f0b0fcb","system_id":"levelo_inurba_marseille","lat":43.25102,"lon":5.403214,"is_reserved":false,"is_disabled":false,"rental_uris":{"android":"levelo://app?vid=9b1e1ff4-3ddf-47b7-9015-6a2a9f0b0fcb","ios":"levelo://app?vid=9b1e1ff4-3ddf-47b7-9015-6a2a9f0b0fcb"},"vehicle_type_id":"4","last_reported":1702383220,"current_range_meters":13600,"station_id":"ce4bhlh2rcd13ifvqgig","pricing_plan_id":"free"},{"bike_id":"f7982398-27f6-4657-8cc7-49fca840f2d8","system_id":"levelo_inurba_marseille","lat":43.25102,"lon":5.403214,"is_reserved":false,"is_disabled":false,"rental_uris":{"android":"levelo://app?vid=f7982398-27f6-4657-8cc7-49fca840f2d8","ios":"levelo://app?vid=f7982398-27f6-4657-8cc7-49fca840f2d8"},"vehicle_type_id":"4","last_reported":1702383220,"current_range_meters":800,"station_id":"ce4bhlh2rcd13ifvqgig","pricing_plan_id":"free"},{"bike_id":"a940fb1d-8641-410c-aaae-d61f0b5066ce","system_id":"levelo_inurba_marseille","lat":43.25102,"lon":5.403214,"is_reserved":false,"is_disabled":false,"rental_uris":{"android":"levelo://app?vid=a940fb1d-8641-410c-aaae-d61f0b5066ce","ios":"levelo://app?vid=a940fb1d-8641-410c-aaae-d61f0b5066ce"},"vehicle_type_id":"4","last_reported":1702383220,"current_range_meters":1200,"station_id":"ce4bhlh2rcd13ifvqgig","pricing_plan_id":"free"},{"bike_id":"31d9638c-3ea5-49d9-ae1f-e4883bd389a1","system_id":"levelo_inurba_marseille","lat":43.2454,"lon":5.37327,"is_reserved":false,"is_disabled":false,"rental_uris":{"android":"levelo://app?vid=31d9638c-3ea5-49d9-ae1f-e4883bd389a1","ios":"levelo://app?vid=31d9638c-3ea5-49d9-ae1f-e4883bd389a1"},"vehicle_type_id":"4","last_reported":1702383220,"current_range_meters":0,"station_id":"","pricing_plan_id":"free"},{"bike_id":"5dbffd62-7bf5-4e04-b3c0-9db21679956d","system_id":"levelo_inurba_marseille","lat":43.243884,"lon":5.370737,"is_reserved":false,"is_disabled":false,"rental_uris":{"android":"levelo://app?vid=5dbffd62-7bf5-4e04-b3c0-9db21679956d","ios":"levelo://app?vid=5dbffd62-7bf5-4e04-b3c0-9db21679956d"},"vehicle_type_id":"4","last_reported":1702383220,"current_range_meters":1600,"station_id":"ce4bhhh2rcd13ifvqfk0","pricing_plan_id":"free"},{"bike_id":"d77bf314-6576-4cf3-8dc4-1c3d12d9a643","system_id":"levelo_inurba_marseille","lat":43.245581,"lon":5.395069,"is_reserved":false,"is_disabled":false,"rental_uris":{"android":"levelo://app?vid=d77bf314-6576-4cf3-8dc4-1c3d12d9a643","ios":"levelo://app?vid=d77bf314-6576-4cf3-8dc4-1c3d12d9a643"},"vehicle_type_id":"4","last_reported":1702383220,"current_range_meters":24800,"station_id":"ce4bhlp2rcd13ifvqgjg","pricing_plan_id":"free"},{"bike_id":"5f5b8c36-80fb-46a8-bf20-7a2bf94dd4ed","system_id":"levelo_inurba_marseille","lat":43.240623,"lon":5.377642,"is_reserved":false,"is_disabled":false,"rental_uris":{"android":"levelo://app?vid=5f5b8c36-80fb-46a8-bf20-7a2bf94dd4ed","ios":"levelo://app?vid=5f5b8c36-80fb-46a8-bf20-7a2bf94dd4ed"},"vehicle_type_id":"4","last_reported":1702383220,"current_range_meters":23600,"station_id":"ce4bhnp2rcd13ifvqgvg","pricing_plan_id":"free"},{"bike_id":"83867ba8-e7d7-4e18-b0b6-f539c8be7a2c","system_id":"levelo_inurba_marseille","lat":43.239588,"lon":5.366238,"is_reserved":false,"is_disabled":false,"rental_uris":{"android":"levelo://app?vid=83867ba8-e7d7-4e18-b0b6-f539c8be7a2c","ios":"levelo://app?vid=83867ba8-e7d7-4e18-b0b6-f539c8be7a2c"},"vehicle_type_id":"4","last_reported":1702383220,"current_range_meters":5600,"station_id":"ce4bhi12rcd13ifvqfp0","pricing_plan_id":"free"},{"bike_id":"90c11212-ba4b-40d6-b1f3-914422388c7d","system_id":"levelo_inurba_marseille","lat":43.24179,"lon":5.39719,"is_reserved":false,"is_disabled":false,"rental_uris":{"android":"levelo://app?vid=90c11212-ba4b-40d6-b1f3-914422388c7d","ios":"levelo://app?vid=90c11212-ba4b-40d6-b1f3-914422388c7d"},"vehicle_type_id":"4","last_reported":1702383220,"current_range_meters":20400,"station_id":"ce4bhn12rcd13ifvqgpg","pricing_plan_id":"free"},{"bike_id":"c2a21afc-580a-420b-89a4-18bcb5b8cc30","system_id":"levelo_inurba_marseille","lat":43.241737,"lon":5.39732,"is_reserved":false,"is_disabled":false,"rental_uris":{"android":"levelo://app?vid=c2a21afc-580a-420b-89a4-18bcb5b8cc30","ios":"levelo://app?vid=c2a21afc-580a-420b-89a4-18bcb5b8cc30"},"vehicle_type_id":"4","last_reported":1702383220,"current_range_meters":19200,"station_id":"ce4bhn12rcd13ifvqgpg","pricing_plan_id":"free"},{"bike_id":"e5f8a3f9-ad33-4c96-8f80-c9bb436ceb1b","system_id":"levelo_inurba_marseille","lat":43.23581,"lon":5.41046,"is_reserved":false,"is_disabled":false,"rental_uris":{"android":"levelo://app?vid=e5f8a3f9-ad33-4c96-8f80-c9bb436ceb1b","ios":"levelo://app?vid=e5f8a3f9-ad33-4c96-8f80-c9bb436ceb1b"},"vehicle_type_id":"4","last_reported":1702383220,"current_range_meters":15600,"station_id":"","pricing_plan_id":"free"},{"bike_id":"25c6b94d-cc60-4af1-862f-1923b70fae6a","system_id":"levelo_inurba_marseille","lat":43.231794,"lon":5.400052,"is_reserved":false,"is_disabled":false,"rental_uris":{"android":"levelo://app?vid=25c6b94d-cc60-4af1-862f-1923b70fae6a","ios":"levelo://app?vid=25c6b94d-cc60-4af1-862f-1923b70fae6a"},"vehicle_type_id":"4","last_reported":1702383220,"current_range_meters":18000,"station_id":"ce4bhn12rcd13ifvqgqg","pricing_plan_id":"free"},{"bike_id":"5c5d811b-920e-4dc2-8b5a-a33a7df9bc05","system_id":"levelo_inurba_marseille","lat":43.231562,"lon":5.436933,"is_reserved":false,"is_disabled":false,"rental_uris":{"android":"levelo://app?vid=5c5d811b-920e-4dc2-8b5a-a33a7df9bc05","ios":"levelo://app?vid=5c5d811b-920e-4dc2-8b5a-a33a7df9bc05"},"vehicle_type_id":"4","last_reported":1702383220,"current_range_meters":30400,"station_id":"ce4bhmp2rcd13ifvqgog","pricing_plan_id":"free"},{"bike_id":"f3a149a8-3f65-47b2-98af-2dfb2472973b","system_id":"levelo_inurba_marseille","lat":43.231562,"lon":5.436933,"is_reserved":false,"is_disabled":false,"rental_uris":{"android":"levelo://app?vid=f3a149a8-3f65-47b2-98af-2dfb2472973b","ios":"levelo://app?vid=f3a149a8-3f65-47b2-98af-2dfb2472973b"},"vehicle_type_id":"4","last_reported":1702383220,"current_range_meters":4800,"station_id":"ce4bhmp2rcd13ifvqgog","pricing_plan_id":"free"},{"bike_id":"5b1e43e1-157b-41db-80f1-c39aaeb1c62f","system_id":"levelo_inurba_marseille","lat":43.231562,"lon":5.436933,"is_reserved":false,"is_disabled":false,"rental_uris":{"android":"levelo://app?vid=5b1e43e1-157b-41db-80f1-c39aaeb1c62f","ios":"levelo://app?vid=5b1e43e1-157b-41db-80f1-c39aaeb1c62f"},"vehicle_type_id":"4","last_reported":1702383220,"current_range_meters":10000,"station_id":"ce4bhmp2rcd13ifvqgog","pricing_plan_id":"free"},{"bike_id":"b98a457e-cf5f-41f0-830e-89a07a2fd902","system_id":"levelo_inurba_marseille","lat":43.231562,"lon":5.436933,"is_reserved":false,"is_disabled":false,"rental_uris":{"android":"levelo://app?vid=b98a457e-cf5f-41f0-830e-89a07a2fd902","ios":"levelo://app?vid=b98a457e-cf5f-41f0-830e-89a07a2fd902"},"vehicle_type_id":"4","last_reported":1702383220,"current_range_meters":28000,"station_id":"ce4bhmp2rcd13ifvqgog","pricing_plan_id":"free"},{"bike_id":"d586be60-cf27-4933-a60a-529823e68f4b","system_id":"levelo_inurba_marseille","lat":43.23153,"lon":5.43722,"is_reserved":false,"is_disabled":false,"rental_uris":{"android":"levelo://app?vid=d586be60-cf27-4933-a60a-529823e68f4b","ios":"levelo://app?vid=d586be60-cf27-4933-a60a-529823e68f4b"},"vehicle_type_id":"4","last_reported":1702383220,"current_range_meters":6400,"station_id":"ce4bhmp2rcd13ifvqgog","pricing_plan_id":"free"},{"bike_id":"b1e3cd70-38f8-4d10-854a-5c0a5d45a7ae","system_id":"levelo_inurba_marseille","lat":43.231562,"lon":5.436933,"is_reserved":false,"is_disabled":false,"rental_uris":{"android":"levelo://app?vid=b1e3cd70-38f8-4d10-854a-5c0a5d45a7ae","ios":"levelo://app?vid=b1e3cd70-38f8-4d10-854a-5c0a5d45a7ae"},"vehicle_type_id":"4","last_reported":1702383220,"current_range_meters":5200,"station_id":"ce4bhmp2rcd13ifvqgog","pricing_plan_id":"free"}]}}