{"last_updated":1719065297,"ttl":30,"version":"2.2","data":{"bikes":[{"bike_id":"75159ad7-7b1c-4cdd-8312-8b9d6cdc8de4","system_id":"levelo_inurba_marseille","lat":43.313391,"lon":5.36706,"is_reserved":false,"is_disabled":false,"rental_uris":{"android":"levelo://app?vid=75159ad7-7b1c-4cdd-8312-8b9d6cdc8de4","ios":"levelo://app?vid=75159ad7-7b1c-4cdd-8312-8b9d6cdc8de4"},"vehicle_type_id":"4","last_reported":1719065297,"current_range_meters":24400,"station_id":"ce4bgr92rcd13ifvqc6g","pricing_plan_id":"cebpf4jnsgd1na2vs0mg"},{"bike_id":"dfda378f-6c4b-4451-8dec-91118573dfe6","system_id":"levelo_inurba_marseille","lat":43.31221,"lon":5.36837,"is_reserved":false,"is_disabled":false,"rental_uris":{"android":"levelo://app?vid=dfda378f-6c4b-4451-8dec-91118573dfe6","ios":"levelo://app?vid=dfda378f-6c4b-4451-8dec-91118573dfe6"},"vehicle_type_id":"4","last_reported":1719065297,"current_range_meters":23600,"station_id":"","pricing_plan_id":"cebpf4jnsgd1na2vs0mg"},{"bike_id":"24d509b5-ef37-465b-b8cc-6a71986a5c4f","system_id":"levelo_inurba_marseille","lat":43.308742,"lon":5.368103,"is_reserved":false,"is_disabled":false,"rental_uris":{"android":"levelo://app?vid=24d509b5-ef37-465b-b8cc-6a71986a5c4f","ios":"levelo://app?vid=24d509b5-ef37-465b-b8cc-6a71986a5c4f"},"vehicle_type_id":"4","last_reported":1719065297,"current_range_meters":20800,"station_id":"ce4bgn92rcd13ifvqbvg","pricing_plan_id":"cebpf4jnsgd1na2vs0mg"},{"bike_id":"c5e31a89-94b4-41a5-8fea-5481744061f4","system_id":"levelo_inurba_marseille","lat":43.31483,"lon":5.37302,"is_reserved":false,"is_disabled":false,"rental_uris":{"android":"levelo://app?vid=c5e31a89-94b4-41a5-8fea-5481744061f4","ios":"levelo://app?vid=c5e31a89-94b4-41a5-8fea-5481744061f4"},"vehicle_type_id":"4","last_reported":1719065297,"current_range_meters":0,"station_id":"ce4bgt12rcd13ifvqcd0","pricing_plan_id":"cebpf4jnsgd1na2vs0mg"},{"bike_id":"20f31c62-307b-4c16-93b6-6fcc5accd677","system_id":"levelo_inurba_marseille","lat":43.31458,"lon":5.373641,"is_reserved":false,"is_disabled":false,"rental_uris":{"android":"levelo://app?vid=20f31c62-307b-4c16-93b6-6fcc5accd677","ios":"levelo://app?vid=20f31c62-307b-4c16-93b6-6fcc5accd677"},"vehicle_type_id":"4","last_reported":1719065297,"current_range_meters":16000,"station_id":"","pricing_plan_id":"cebpf4jnsgd1na2vs0mg"},{"bike_id":"a71744b9-7781-4c6b-841c-282cfcb778f5","system_id":"levelo_inurba_marseille","lat":43.309039,"lon":5.371797,"is_reserved":false,"is_disabled":false,"rental_uris":{"android":"levelo://app?vid=a71744b9-7781-4c6b-841c-282cfcb778f5","ios":"levelo://app?vid=a71744b9-7781-4c6b-841c-282cfcb778f5"},"vehicle_type_id":"4","last_reported":1719065297,"current_range_meters":31600,"station_id":"ce4bguh2rcd13ifvqckg","pricing_plan_id":"cebpf4jnsgd1na2vs0mg"},{"bike_id":"263d2d23-e025-4fe4-940e-62eada6daf00","system_id":"levelo_inurba_marseille","lat":43.309039,"lon":5.371797,"is_reserved":false,"is_disabled":false,"rental_uris":{"android":"levelo://app?vid=263d2d23-e025-4fe4-940e-62eada6daf00","ios":"levelo://app?vid=263d2d23-e025-4fe4-940e-62eada6daf00"},"vehicle_type_id":"4","last_reported":1719065297,"current_range_meters":24800,"station_id":"ce4bguh2rcd13ifvqckg","pricing_plan_id":"cebpf4jnsgd1na2vs0mg"},{"bike_id":"44e0bd3c-3189-4b05-9174-e9c38f732250","system_id":"levelo_inurba_marseille","lat":43.309039,"lon":5.371797,"is_reserved":false,"is_disabled":false,"rental_uris":{"android":"levelo://app?vid=44e0bd3c-3189-4b05-9174-e9c38f732250","ios":"levelo://app?vid=44e0bd3c-3189-4b05-9174-e9c38f732250"},"vehicle_type_id":"4","last_reported":1719065297,"current_range_meters":9200,"station_id":"ce4bguh2rcd13ifvqckg","pricing_plan_id":"cebpf4jnsgd1na2vs0mg"},{"bike_id":"8cc75193-e8d0-4ec9-b80e-ec8bd83ebb27","system_id":"levelo_inurba_marseille","lat":43.309034,"lon":5.371783,"is_reserved":false,"is_disabled":false,"rental_uris":{"android":"levelo://app?vid=8cc75193-e8d0-4ec9-b80e-ec8bd83ebb27","ios":"levelo://app?vid=8cc75193-e8d0-4ec9-b80e-ec8bd83ebb27"},"vehicle_type_id":"4","last_reported":1719065297,"current_range_meters":21600,"station_id":"ce4bguh2rcd13ifvqckg","pricing_plan_id":"cebpf4jnsgd1na2vs0mg"},{"bike_id":"233eb689-4979-4524-8a55-4207ce9c6339","system_id":"levelo_inurba_marseille","lat":43.309039,"lon":5.371797,"is_reserved":false,"is_disabled":false,"rental_uris":{"android":"levelo://app?vid=233eb689-4979-4524-8a55-4207ce9c6339","ios":"levelo://app?vid=233eb689-4979-4524-8a55-4207ce9c6339"},"vehicle_type_id":"4","last_reported":1719065297,"current_range_meters":10000,"station_id":"ce4bguh2rcd13ifvqckg","pricing_plan_id":"cebpf4jnsgd1na2vs0mg"},{"bike_id":"a7e434d0-ff04-4c66-8ffa-11773c9de32a","system_id":"levelo_inurba_marseille","lat":43.309034,"lon":5.371783,"is_reserved":false,"is_disabled":false,"rental_uris":{"android":"levelo://app?vid=a7e434d0-ff04-4c66-8ffa-11773c9de32a","ios":"levelo://app?vid=a7e434d0-ff04-4c66-8ffa-11773c9de32a"},"vehicle_type_id":"4","last_reported":1719065297,"current_range_meters":8400,"station_id":"ce4bguh2rcd13ifvqckg","pricing_plan_id":"cebpf4jnsgd1na2vs0mg"},{"bike_id":"5ccff02e-5919-40e0-b866-940ec9978037","system_id":"levelo_inurba_marseille","lat":43.3057,"lon":5.36557,"is_reserved":false,"is_disabled":false,"rental_uris":{"android":"levelo://app?vid=5ccff02e-5919-40e0-b866-940ec9978037","ios":"levelo://app?vid=5ccff02e-5919-40e0-b866-940ec9978037"},"vehicle_type_id":"4","last_reported":1719065297,"current_range_meters":7200,"station_id":"ce4bgs12rcd13ifvqcag","pricing_plan_id":"cebpf4jnsgd1na2vs0mg"},{"bike_id":"dd025506-013d-4d6d-a372-77af86d2782e","system_id":"levelo_inurba_marseille","lat":43.305368,"lon":5.367343,"is_reserved":false,"is_disabled":false,"rental_uris":{"android":"levelo://app?vid=dd025506-013d-4d6d-a372-77af86d2782e","ios":"levelo://app?vid=dd025506-013d-4d6d-a372-77af86d2782e"},"vehicle_type_id":"4","last_reported":1719065297,"current_range_meters":0,"station_id":"ce4bgrp2rcd13ifvqc9g","pricing_plan_id":"cebpf4jnsgd1na2vs0mg"},{"bike_id":"806c1973-c86e-48a3-baa6-adabedda2447","system_id":"levelo_inurba_marseille","lat":43.305368,"lon":5.367343,"is_reserved":false,"is_disabled":false,"rental_uris":{"android":"levelo://app?vid=806c1973-c86e-48a3-baa6-adabedda2447","ios":"levelo://app?vid=806c1973-c86e-48a3-baa6-adabedda2447"},"vehicle_type_id":"4","last_reported":1719065297,"current_range_meters":7600,"station_id":"ce4bgrp2rcd13ifvqc9g","pricing_plan_id":"cebpf4jnsgd1na2vs0mg"},{"bike_id":"a43e7e1e-e283-47ba-bb74-77104a25b45c","system_id":"levelo_inurba_marseille","lat":43.30532,"lon":5.36661,"is_reserved":false,"is_disabled":false,"rental_uris":{"android":"levelo://app?vid=a43e7e1e-e283-47ba-bb74-77104a25b45c","ios":"levelo://app?vid=a43e7e1e-e283-47ba-bb74-77104a25b45c"},"vehicle_type_id":"4","last_reported":1719065297,"current_range_meters":22000,"station_id":"","pricing_plan_id":"cebpf4jnsgd1na2vs0mg"},{"bike_id":"11635dff-2cca-4c52-860e-e753b8e7473e","system_id":"levelo_inurba_marseille","lat":43.305989,"lon":5.37225,"is_reserved":false,"is_disabled":false,"rental_uris":{"android":"levelo://app?vid=11635dff-2cca-4c52-860e-e753b8e7473e","ios":"levelo://app?vid=11635dff-2cca-4c52-860e-e753b8e7473e"},"vehicle_type_id":"4","last_reported":1719065297,"current_range_meters":15600,"station_id":"ce4bgqh2rcd13ifvqc4g","pricing_plan_id":"cebpf4jnsgd1na2vs0mg"},{"bike_id":"8c7fa104-95a3-4af4-be28-61b2787b052b","system_id":"levelo_inurba_marseille","lat":43.305989,"lon":5.37225,"is_reserved":false,"is_disabled":false,"rental_uris":{"android":"levelo://app?vid=8c7fa104-95a3-4af4-be28-61b2787b052b","ios":"levelo://app?vid=8c7fa104-95a3-4af4-be28-61b2787b052b"},"vehicle_type_id":"4","last_reported":1719065297,"current_range_meters":19200,"station_id":"ce4bgqh2rcd13ifvqc4g","pricing_plan_id":"cebpf4jnsgd1na2vs0mg"},{"bike_id":"880a902a-380f-414d-ba14-f60415cc6c78","system_id":"levelo_inurba_marseille","lat":43.305989,"lon":5.37225,"is_reserved":false,"is_disabled":false,"rental_uris":{"android":"levelo://app?vid=880a902a-380f-414d-ba14-f60415cc6c78","ios":"levelo://app?vid=880a902a-380f-414d-ba14-f60415cc6c78"},"vehicle_type_id":"4","last_reported":1719065297,"current_range_meters":5200,"station_id":"ce4bgqh2rcd13ifvqc4g","pricing_plan_id":"cebpf4jnsgd1na2vs0mg"},{"bike_id":"b54b5fcd-0345-401b-b3d5-bd27df852fd1","system_id":"levelo_inurba_marseille","lat":43.311131,"lon":5.377651,"is_reserved":false,"is_disabled":false,"rental_uris":{"android":"levelo://app?vid=b54b5fcd-0345-401b-b3d5-bd27df852fd1","ios":"levelo://app?vid=b54b5fcd-0345-401b-b3d5-bd27df852fd1"},"vehicle_type_id":"4","last_reported":1719065297,"current_range_meters":19200,"station_id":"ce4bgt92rcd13ifvqcg0","pricing_plan_id":"cebpf4jnsgd1na2vs0mg"},{"bike_id":"91173037-a030-4702-98fc-b0e798ab9e38","system_id":"levelo_inurba_marseille","lat":43.311125,"lon":5.377624,"is_reserved":false,"is_disabled":false,"rental_uris":{"android":"levelo://app?vid=91173037-a030-4702-98fc-b0e798ab9e38","ios":"levelo://app?vid=91173037-a030-4702-98fc-b0e798ab9e38"},"vehicle_type_id":"4","last_reported":1719065297,"current_range_meters":7200,"station_id":"ce4bgt92rcd13ifvqcg0","pricing_plan_id":"cebpf4jnsgd1na2vs0mg"},{"bike_id":"5ab8f24b-8bf8-4c2c-a72e-1e8f8650b315","system_id":"levelo_inurba_marseille","lat":43.3047,"lon":5.365994,"is_reserved":false,"is_disabled":false,"rental_uris":{"android":"levelo://app?vid=5ab8f24b-8bf8-4c2c-a72e-1e8f8650b315","ios":"levelo://app?vid=5ab8f24b-8bf8-4c2c-a72e-1e8f8650b315"},"vehicle_type_id":"4","last_reported":1719065297,"current_range_meters":25200,"station_id":"","pricing_plan_id":"cebpf4jnsgd1na2vs0mg"},{"bike_id":"0e816a7c-8309-45d1-86ed-6ca0dbcce49c","system_id":"levelo_inurba_marseille","lat":43.307945,"lon":5.376487,"is_reserved":false,"is_disabled":false,"rental_uris":{"android":"levelo://app?vid=0e816a7c-8309-45d1-86ed-6ca0dbcce49c","ios":"levelo://app?vid=0e816a7c-8309-45d1-86ed-6ca0dbcce49c"},"vehicle_type_id":"4","last_reported":1719065297,"current_range_meters":31200,"station_id":"ce4bgv92rcd13ifvqcq0","pricing_plan_id":"cebpf4jnsgd1na2vs0mg"},{"bike_id":"b1768ef0-8754-410e-bae3-abbd4ceb4959","system_id":"levelo_inurba_marseille","lat":43.307945,"lon":5.376487,"is_reserved":false,"is_disabled":false,"rental_uris":{"android":"levelo://app?vid=b1768ef0-8754-410e-bae3-abbd4ceb4959","ios":"levelo://app?vid=b1768ef0-8754-410e-bae3-abbd4ceb4959"},"vehicle_type_id":"4","last_reported":1719065297,"current_range_meters":23200,"station_id":"ce4bgv92rcd13ifvqcq0","pricing_plan_id":"cebpf4jnsgd1na2vs0mg"},{"bike_id":"5b8007bb-0dd8-4352-b213-d088b8c4b4e0","system_id":"levelo_inurba_marseille","lat":43.31555,"lon":5.38022,"is_reserved":false,"is_disabled":false,"rental_uris":{"android":"levelo://app?vid=5b8007bb-0dd8-4352-b213-d088b8c4b4e0","ios":"levelo://app?vid=5b8007bb-0dd8-4352-b213-d088b8c4b4e0"},"vehicle_type_id":"4","last_reported":1719065297,"current_range_meters":8800,"station_id":"ce4bhsp2rcd13ifvqi50","pricing_plan_id":"cebpf4jnsgd1na2vs0mg"},{"bike_id":"1aa9382d-bd55-4aff-8971-b23615fccdae","system_id":"levelo_inurba_marseille","lat":43.311,"lon":5.38145,"is_reserved":false,"is_disabled":false,"rental_uris":{"android":"levelo://app?vid=1aa9382d-bd55-4aff-8971-b23615fccdae","ios":"levelo://app?vid=1aa9382d-bd55-4aff-8971-b23615fccdae"},"vehicle_type_id":"4","last_reported":1719065297,"current_range_meters":5600,"station_id":"","pricing_plan_id":"cebpf4jnsgd1na2vs0mg"},{"bike_id":"c8d74784-cfa3-4dc0-a55e-c53d6b6b7590","system_id":"levelo_inurba_marseille","lat":43.31317,"lon":5.38205,"is_reserved":false,"is_disabled":false,"rental_uris":{"android":"levelo://app?vid=c8d74784-cfa3-4dc0-a55e-c53d6b6b7590","ios":"levelo://app?vid=c8d74784-cfa3-4dc0-a55e-c53d6b6b7590"},"vehicle_type_id":"4","last_reported":1719065297,"current_range_meters":17200,"station_id":"","pricing_plan_id":"cebpf4jnsgd1na2vs0mg"},{"bike_id":"cef4fec3-c854-463b-8e1b-015fb5ee1480","system_id":"levelo_inurba_marseille","lat":43.308012,"lon":5.381511,"is_reserved":false,"is_disabled":false,"rental_uris":{"android":"levelo://app?vid=cef4fec3-c854-463b-8e1b-015fb5ee1480","ios":"levelo://app?vid=cef4fec3-c854-463b-8e1b-015fb5ee1480"},"vehicle_type_id":"4","last_reported":1719065297,"current_range_meters":20800,"station_id":"ce4bgt12rcd13ifvqce0","pricing_plan_id":"cebpf4jnsgd1na2vs0mg"},{"bike_id":"fbfcc362-146b-4468-9a05-88ccd8104b9f","system_id":"levelo_inurba_marseille","lat":43.304606,"lon":5.379026,"is_reserved":false,"is_disabled":false,"rental_uris":{"android":"levelo://app?vid=fbfcc362-146b-4468-9a05-88ccd8104b9f","ios":"levelo://app?vid=fbfcc362-146b-4468-9a05-88ccd8104b9f"},"vehicle_type_id":"4","last_reported":1719065297,"current_range_meters":23600,"station_id":"ce4bgup2rcd13ifvqcn0","pricing_plan_id":"cebpf4jnsgd1na2vs0mg"},{"bike_id":"e9c20251-8140-4e85-a6ac-f49aa877aa45","system_id":"levelo_inurba_marseille","lat":43.304606,"lon":5.379026,"is_reserved":false,"is_disabled":false,"rental_uris":{"android":"levelo://app?vid=e9c20251-8140-4e85-a6ac-f49aa877aa45","ios":"levelo://app?vid=e9c20251-8140-4e85-a6ac-f49aa877aa45"},"vehicle_type_id":"4","last_reported":1719065297,"current_range_meters":15600,"station_id":"ce4bgup2rcd13ifvqcn0","pricing_plan_id":"cebpf4jnsgd1na2vs0mg"},{"bike_id":"ed14ec74-1f1c-4cfd-8d26-59aa92fdca8a","system_id":"levelo_inurba_marseille","lat":43.30083,"lon":5.36719,"is_reserved":false,"is_disabled":false,"rental_uris":{"android":"levelo://app?vid=ed14ec74-1f1c-4cfd-8d26-59aa92fdca8a","ios":"levelo://app?vid=ed14ec74-1f1c-4cfd-8d26-59aa92fdca8a"},"vehicle_type_id":"4","last_reported":1719065297,"current_range_meters":26000,"station_id":"","pricing_plan_id":"cebpf4jnsgd1na2vs0mg"},{"bike_id":"8ff23a4f-a696-439c-a21c-7ec9ae1a53ab","system_id":"levelo_inurba_marseille","lat":43.304606,"lon":5.379026,"is_reserved":false,"is_disabled":false,"rental_uris":{"android":"levelo://app?vid=8ff23a4f-a696-439c-a21c-7ec9ae1a53ab","ios":"levelo://app?vid=8ff23a4f-a696-439c-a21c-7ec9ae1a53ab"},"vehicle_type_id":"4","last_reported":1719065297,"current_range_meters":30800,"station_id":"ce4bgup2rcd13ifvqcn0","pricing_plan_id":"cebpf4jnsgd1na2vs0mg"},{"bike_id":"86848579-7ce7-421c-8d4d-88dd5b5d30e9","system_id":"levelo_inurba_marseille","lat":43.304606,"lon":5.379026,"is_reserved":false,"is_disabled":false,"rental_uris":{"android":"levelo://app?vid=86848579-7ce7-421c-8d4d-88dd5b5d30e9","ios":"levelo://app?vid=86848579-7ce7-421c-8d4d-88dd5b5d30e9"},"vehicle_type_id":"4","last_reported":1719065297,"current_range_meters":22400,"station_id":"ce4bgup2rcd13ifvqcn0","pricing_plan_id":"cebpf4jnsgd1na2vs0mg"},{"bike_id":"f8e8c5d4-c044-4a36-a0d8-feaefa310d86","system_id":"levelo_inurba_marseille","lat":43.304606,"lon":5.379026,"is_reserved":false,"is_disabled":false,"rental_uris":{"android":"levelo://app?vid=f8e8c5d4-c044-4a36-a0d8-feaefa310d86","ios":"levelo://app?vid=f8e8c5d4-c044-4a36-a0d8-feaefa310d86"},"vehicle_type_id":"4","last_reported":1719065297,"current_range_meters":30400,"station_id":"ce4bgup2rcd13ifvqcn0","pricing_plan_id":"cebpf4jnsgd1na2vs0mg"},{"bike_id":"67c2a859-c0c3-4af5-80d5-b0578e27f79c","system_id":"levelo_inurba_marseille","lat":43.304606,"lon":5.379026,"is_reserved":false,"is_disabled":false,"rental_uris":{"android":"levelo://app?vid=67c2a859-c0c3-4af5-80d5-b0578e27f79c","ios":"levelo://app?vid=67c2a859-c0c3-4af5-80d5-b0578e27f79c"},"vehicle_type_id":"4","last_reported":1719065297,"current_range_meters":21600,"station_id":"ce4bgup2rcd13ifvqcn0","pricing_plan_id":"cebpf4jnsgd1na2vs0mg"},{"bike_id":"407dbef7-719d-4357-8cd3-172709b18a2c","system_id":"levelo_inurba_marseille","lat":43.304606,"lon":5.379026,"is_reserved":false,"is_disabled":false,"rental_uris":{"android":"levelo://app?vid=407dbef7-719d-4357-8cd3-172709b18a2c","ios":"levelo://app?vid=407dbef7-719d-4357-8cd3-172709b18a2c"},"vehicle_type_id":"4","last_reported":1719065297,"current_range_meters":31200,"station_id":"ce4bgup2rcd13ifvqcn0","pricing_plan_id":"cebpf4jnsgd1na2vs0mg"},{"bike_id":"e4876dc7-104d-4e95-bdeb-5e7adbe9717d","system_id":"levelo_inurba_marseille","lat":43.324771,"lon":5.36557,"is_reserved":false,"is_disabled":false,"rental_uris":{"android":"levelo://app?vid=e4876dc7-104d-4e95-bdeb-5e7adbe9717d","ios":"levelo://app?vid=e4876dc7-104d-4e95-bdeb-5e7adbe9717d"},"vehicle_type_id":"4","last_reported":1719065297,"current_range_meters":10000,"station_id":"ce4bhs12rcd13ifvqhvg","pricing_plan_id":"cebpf4jnsgd1na2vs0mg"},{"bike_id":"120388ef-ca88-409e-852c-b950a831ad87","system_id":"levelo_inurba_marseille","lat":43.304606,"lon":5.379026,"is_reserved":false,"is_disabled":false,"rental_uris":{"android":"levelo://app?vid=120388ef-ca88-409e-852c-b950a831ad87","ios":"levelo://app?vid=120388ef-ca88-409e-852c-b950a831ad87"},"vehicle_type_id":"4","last_reported":1719065297,"current_range_meters":30400,"station_id":"ce4bgup2rcd13ifvqcn0","pricing_plan_id":"cebpf4jnsgd1na2vs0mg"},{"bike_id":"ca8e743e-e081-4196-988e-11f39432e227","system_id":"levelo_inurba_marseille","lat":43.304606,"lon":5.379026,"is_reserved":false,"is_disabled":false,"rental_uris":{"android":"levelo://app?vid=ca8e743e-e081-4196-988e-11f39432e227","ios":"levelo://app?vid=ca8e743e-e081-4196-988e-11f39432e227"},"vehicle_type_id":"4","last_reported":1719065297,"current_range_meters":29600,"station_id":"ce4bgup2rcd13ifvqcn0","pricing_plan_id":"cebpf4jnsgd1na2vs0mg"},{"bike_id":"23fbc659-4ce1-443d-876a-559ce76beedf","system_id":"levelo_inurba_marseille","lat":43.304606,"lon":5.379026,"is_reserved":false,"is_disabled":false,"rental_uris":{"android":"levelo://app?vid=23fbc659-4ce1-443d-876a-559ce76beedf","ios":"levelo://app?vid=23fbc659-4ce1-443d-876a-559ce76beedf"},"vehicle_type_id":"4","last_reported":1719065297,"current_range_meters":400,"station_id":"ce4bgup2rcd13ifvqcn0","pricing_plan_id":"cebpf4jnsgd1na2vs0mg"},{"bike_id":"d809d112-588f-4e4a-9acc-989a19cff51d","system_id":"levelo_inurba_marseille","lat":43.304606,"lon":5.379026,"is_reserved":false,"is_disabled":false,"rental_uris":{"android":"levelo://app?vid=d809d112-588f-4e4a-9acc-989a19cff51d","ios":"levelo://app?vid=d809d112-588f-4e4a-9acc-989a19cff51d"},"vehicle_type_id":"4","last_reported":1719065297,"current_range_meters":30800,"station_id":"ce4bgup2rcd13ifvqcn0","pricing_plan_id":"cebpf4jnsgd1na2vs0mg"},{"bike_id":"1d9758bc-0aae-41ff-b29b-f4058ca7bdf6","system_id":"levelo_inurba_marseille","lat":43.304606,"lon":5.379026,"is_reserved":false,"is_disabled":false,"rental_uris":{"android":"levelo://app?vid=1d9758bc-0aae-41ff-b29b-f4058ca7bdf6","ios":"levelo://app?vid=1d9758bc-0aae-41ff-b29b-f4058ca7bdf6"},"vehicle_type_id":"4","last_reported":1719065297,"current_range_meters":25200,"station_id":"ce4bgup2rcd13ifvqcn0","pricing_plan_id":"cebpf4jnsgd1na2vs0mg"},{"bike_id":"7b01fbc5-0cfc-4059-95a3-268eb9319593","system_id":"levelo_inurba_marseille","lat":43.304606,"lon":5.379026,"is_reserved":false,"is_disabled":false,"rental_uris":{"android":"levelo://app?vid=7b01fbc5-0cfc-4059-95a3-268eb9319593","ios":"levelo://app?vid=7b01fbc5-0cfc-4059-95a3-268eb9319593"},"vehicle_type_id":"4","last_reported":1719065297,"current_range_meters":31200,"station_id":"ce4bgup2rcd13ifvqcn0","pricing_plan_id":"cebpf4jnsgd1na2vs0mg"},{"bike_id":"19411d20-49af-4d69-bdcf-49fa56c1cd37","system_id":"levelo_inurba_marseille","lat":43.304606,"lon":5.379026,"is_reserved":false,"is_disabled":false,"rental_uris":{"android":"levelo://app?vid=19411d20-49af-4d69-bdcf-49fa56c1cd37","ios":"levelo://app?vid=19411d20-49af-4d69-bdcf-49fa56c1cd37"},"vehicle_type_id":"4","last_reported":1719065297,"current_range_meters":25200,"station_id":"ce4bgup2rcd13ifvqcn0","pricing_plan_id":"cebpf4jnsgd1na2vs0mg"},{"bike_id":"e0097a88-588d-45b3-a8eb-a92715f9dddf","system_id":"levelo_inurba_marseille","lat":43.310804,"lon":5.38359,"is_reserved":false,"is_disabled":false,"rental_uris":{"android":"levelo://app?vid=e0097a88-588d-45b3-a8eb-a92715f9dddf","ios":"levelo://app?vid=e0097a88-588d-45b3-a8eb-a92715f9dddf"},"vehicle_type_id":"4","last_reported":1719065297,"current_range_meters":24000,"station_id":"ce4bgv92rcd13ifvqcr0","pricing_plan_id":"cebpf4jnsgd1na2vs0mg"},{"bike_id":"b60eb607-623f-4a92-bfa4-47101f5a59fe","system_id":"levelo_inurba_marseille","lat":43.310804,"lon":5.38359,"is_reserved":false,"is_disabled":false,"rental_uris":{"android":"levelo://app?vid=b60eb607-623f-4a92-bfa4-47101f5a59fe","ios":"levelo://app?vid=b60eb607-623f-4a92-bfa4-47101f5a59fe"},"vehicle_type_id":"4","last_reported":1719065297,"current_range_meters":20000,"station_id":"ce4bgv92rcd13ifvqcr0","pricing_plan_id":"cebpf4jnsgd1na2vs0mg"},{"bike_id":"52d16fa5-8cd1-44fc-8a15-339a99588df7","system_id":"levelo_inurba_marseille","lat":43.30143,"lon":5.37413,"is_reserved":false,"is_disabled":false,"rental_uris":{"android":"levelo://app?vid=52d16fa5-8cd1-44fc-8a15-339a99588df7","ios":"levelo://app?vid=52d16fa5-8cd1-44fc-8a15-339a99588df7"},"vehicle_type_id":"4","last_reported":1719065297,"current_range_meters":23200,"station_id":"ce4bgs92rcd13ifvqcc0","pricing_plan_id":"cebpf4jnsgd1na2vs0mg"},{"bike_id":"290ebb12-4fa5-493e-befd-fed435c9f2c1","system_id":"levelo_inurba_marseille","lat":43.31996,"lon":5.38154,"is_reserved":false,"is_disabled":false,"rental_uris":{"android":"levelo://app?vid=290ebb12-4fa5-493e-befd-fed435c9f2c1","ios":"levelo://app?vid=290ebb12-4fa5-493e-befd-fed435c9f2c1"},"vehicle_type_id":"4","last_reported":1719065297,"current_range_meters":0,"station_id":"ce4bhr12rcd13ifvqhpg","pricing_plan_id":"cebpf4jnsgd1na2vs0mg"},{"bike_id":"de4ef33a-c563-4c1f-ab2f-f7b312cfd440","system_id":"levelo_inurba_marseille","lat":43.319935,"lon":5.381699,"is_reserved":false,"is_disabled":false,"rental_uris":{"android":"levelo://app?vid=de4ef33a-c563-4c1f-ab2f-f7b312cfd440","ios":"levelo://app?vid=de4ef33a-c563-4c1f-ab2f-f7b312cfd440"},"vehicle_type_id":"4","last_reported":1719065297,"current_range_meters":5200,"station_id":"ce4bhr12rcd13ifvqhpg","pricing_plan_id":"cebpf4jnsgd1na2vs0mg"},{"bike_id":"95dcc627-e2ef-44c2-a014-be447828a52c","system_id":"levelo_inurba_marseille","lat":43.313571,"lon":5.384829,"is_reserved":false,"is_disabled":false,"rental_uris":{"android":"levelo://app?vid=95dcc627-e2ef-44c2-a014-be447828a52c","ios":"levelo://app?vid=95dcc627-e2ef-44c2-a014-be447828a52c"},"vehicle_type_id":"4","last_reported":1719065297,"current_range_meters":25600,"station_id":"ce4bgt92rcd13ifvqcf0","pricing_plan_id":"cebpf4jnsgd1na2vs0mg"},{"bike_id":"22ea3117-5ef8-41a0-b450-56cd24fb3559","system_id":"levelo_inurba_marseille","lat":43.299724,"lon":5.371829,"is_reserved":false,"is_disabled":false,"rental_uris":{"android":"levelo://app?vid=22ea3117-5ef8-41a0-b450-56cd24fb3559","ios":"levelo://app?vid=22ea3117-5ef8-41a0-b450-56cd24fb3559"},"vehicle_type_id":"4","last_reported":1719065297,"current_range_meters":14000,"station_id":"ce4bgr92rcd13ifvqc7g","pricing_plan_id":"cebpf4jnsgd1na2vs0mg"},{"bike_id":"6bd1a044-52ca-4bb4-a5e4-a0a6306462e1","system_id":"levelo_inurba_marseille","lat":43.30023,"lon":5.37402,"is_reserved":false,"is_disabled":false,"rental_uris":{"android":"levelo://app?vid=6bd1a044-52ca-4bb4-a5e4-a0a6306462e1","ios":"levelo://app?vid=6bd1a044-52ca-4bb4-a5e4-a0a6306462e1"},"vehicle_type_id":"4","last_reported":1719065297,"current_range_meters":27600,"station_id":"ce4bgr92rcd13ifvqc7g","pricing_plan_id":"cebpf4jnsgd1na2vs0mg"},{"bike_id":"1f1173d3-48c8-4a16-af28-80f740832638","system_id":"levelo_inurba_marseille","lat":43.298433,"lon":5.362774,"is_reserved":false,"is_disabled":false,"rental_uris":{"android":"levelo://app?vid=1f1173d3-48c8-4a16-af28-80f740832638","ios":"levelo://app?vid=1f1173d3-48c8-4a16-af28-80f740832638"},"vehicle_type_id":"4","last_reported":1719065297,"current_range_meters":4400,"station_id":"ce4bgpp2rcd13ifvqc3g","pricing_plan_id":"cebpf4jnsgd1na2vs0mg"},{"bike_id":"c2b34e48-9e72-43a8-bd1c-f4b91777118a","system_id":"levelo_inurba_marseille","lat":43.311722,"lon":5.387247,"is_reserved":false,"is_disabled":false,"rental_uris":{"android":"levelo://app?vid=c2b34e48-9e72-43a8-bd1c-f4b91777118a","ios":"levelo://app?vid=c2b34e48-9e72-43a8-bd1c-f4b91777118a"},"vehicle_type_id":"4","last_reported":1719065297,"current_range_meters":17200,"station_id":"ce4bgv12rcd13ifvqcp0","pricing_plan_id":"cebpf4jnsgd1na2vs0mg"},{"bike_id":"b77dc8d1-162c-4cb3-871e-548e1f7fa0e9","system_id":"levelo_inurba_marseille","lat":43.297794,"lon":5.370888,"is_reserved":false,"is_disabled":false,"rental_uris":{"android":"levelo://app?vid=b77dc8d1-162c-4cb3-871e-548e1f7fa0e9","ios":"levelo://app?vid=b77dc8d1-162c-4cb3-871e-548e1f7fa0e9"},"vehicle_type_id":"4","last_reported":1719065297,"current_range_meters":22800,"station_id":"ce4bgop2rcd13ifvqc1g","pricing_plan_id":"cebpf4jnsgd1na2vs0mg"},{"bike_id":"168b50c0-2abf-4082-a506-e387b3e830dd","system_id":"levelo_inurba_marseille","lat":43.322872,"lon":5.382756,"is_reserved":false,"is_disabled":false,"rental_uris":{"android":"levelo://app?vid=168b50c0-2abf-4082-a506-e387b3e830dd","ios":"levelo://app?vid=168b50c0-2abf-4082-a506-e387b3e830dd"},"vehicle_type_id":"4","last_reported":1719065297,"current_range_meters":28400,"station_id":"ce4bhr12rcd13ifvqhqg","pricing_plan_id":"cebpf4jnsgd1na2vs0mg"},{"bike_id":"69373cd3-fe31-4a24-adb1-25da81da5e3a","system_id":"levelo_inurba_marseille","lat":43.29623,"lon":5.37148,"is_reserved":false,"is_disabled":false,"rental_uris":{"android":"levelo://app?vid=69373cd3-fe31-4a24-adb1-25da81da5e3a","ios":"levelo://app?vid=69373cd3-fe31-4a24-adb1-25da81da5e3a"},"vehicle_type_id":"4","last_reported":1719065297,"current_range_meters":16000,"station_id":"ce4bgnh2rcd13ifvqc0g","pricing_plan_id":"cebpf4jnsgd1na2vs0mg"},{"bike_id":"2c6395ad-aae5-41b2-baa1-ff1b648f85ca","system_id":"levelo_inurba_marseille","lat":43.299028,"lon":5.381509,"is_reserved":false,"is_disabled":false,"rental_uris":{"android":"levelo://app?vid=2c6395ad-aae5-41b2-baa1-ff1b648f85ca","ios":"levelo://app?vid=2c6395ad-aae5-41b2-baa1-ff1b648f85ca"},"vehicle_type_id":"4","last_reported":1719065297,"current_range_meters":2000,"station_id":"ce4bgj12rcd13ifvqbc0","pricing_plan_id":"cebpf4jnsgd1na2vs0mg"},{"bike_id":"fee84510-a14b-4a26-82bf-519ff11a6d77","system_id":"levelo_inurba_marseille","lat":43.299028,"lon":5.381509,"is_reserved":false,"is_disabled":false,"rental_uris":{"android":"levelo://app?vid=fee84510-a14b-4a26-82bf-519ff11a6d77","ios":"levelo://app?vid=fee84510-a14b-4a26-82bf-519ff11a6d77"},"vehicle_type_id":"4","last_reported":1719065297,"current_range_meters":5200,"station_id":"ce4bgj12rcd13ifvqbc0","pricing_plan_id":"cebpf4jnsgd1na2vs0mg"},{"bike_id":"8f673d65-3937-4daa-b090-3923880d3305","system_id":"levelo_inurba_marseille","lat":43.295748,"lon":5.37522,"is_reserved":false,"is_disabled":false,"rental_uris":{"android":"levelo://app?vid=8f673d65-3937-4daa-b090-3923880d3305","ios":"levelo://app?vid=8f673d65-3937-4daa-b090-3923880d3305"},"vehicle_type_id":"4","last_reported":1719065297,"current_range_meters":21200,"station_id":"ce4bgh92rcd13ifvqb50","pricing_plan_id":"cebpf4jnsgd1na2vs0mg"},{"bike_id":"3c391e71-5516-4b88-8d54-632dad9f64bd","system_id":"levelo_inurba_marseille","lat":43.298037,"lon":5.381066,"is_reserved":false,"is_disabled":false,"rental_uris":{"android":"levelo://app?vid=3c391e71-5516-4b88-8d54-632dad9f64bd","ios":"levelo://app?vid=3c391e71-5516-4b88-8d54-632dad9f64bd"},"vehicle_type_id":"4","last_reported":1719065297,"current_range_meters":31200,"station_id":"ce4bgip2rcd13ifvqbb0","pricing_plan_id":"cebpf4jnsgd1na2vs0mg"},{"bike_id":"253bbfc0-e5ba-4e15-85b2-0f23ad7c6d03","system_id":"levelo_inurba_marseille","lat":43.304274,"lon":5.388873,"is_reserved":false,"is_disabled":false,"rental_uris":{"android":"levelo://app?vid=253bbfc0-e5ba-4e15-85b2-0f23ad7c6d03","ios":"levelo://app?vid=253bbfc0-e5ba-4e15-85b2-0f23ad7c6d03"},"vehicle_type_id":"4","last_reported":1719065297,"current_range_meters":11600,"station_id":"ce4bgk12rcd13ifvqbi0","pricing_plan_id":"cebpf4jnsgd1na2vs0mg"},{"bike_id":"8d252b10-4c58-4bf8-b7be-9228cbc7d1e8","system_id":"levelo_inurba_marseille","lat":43.304274,"lon":5.388873,"is_reserved":false,"is_disabled":false,"rental_uris":{"android":"levelo://app?vid=8d252b10-4c58-4bf8-b7be-9228cbc7d1e8","ios":"levelo://app?vid=8d252b10-4c58-4bf8-b7be-9228cbc7d1e8"},"vehicle_type_id":"4","last_reported":1719065297,"current_range_meters":15600,"station_id":"ce4bgk12rcd13ifvqbi0","pricing_plan_id":"cebpf4jnsgd1na2vs0mg"},{"bike_id":"9d75b7ec-7cef-4293-9bcf-3de4ed4bdf55","system_id":"levelo_inurba_marseille","lat":43.295748,"lon":5.37522,"is_reserved":false,"is_disabled":false,"rental_uris":{"android":"levelo://app?vid=9d75b7ec-7cef-4293-9bcf-3de4ed4bdf55","ios":"levelo://app?vid=9d75b7ec-7cef-4293-9bcf-3de4ed4bdf55"},"vehicle_type_id":"4","last_reported":1719065297,"current_range_meters":0,"station_id":"ce4bgh92rcd13ifvqb50","pricing_plan_id":"cebpf4jnsgd1na2vs0mg"},{"bike_id":"80409c4a-551b-4aad-8010-703effbba897","system_id":"levelo_inurba_marseille","lat":43.295748,"lon":5.37522,"is_reserved":false,"is_disabled":false,"rental_uris":{"android":"levelo://app?vid=80409c4a-551b-4aad-8010-703effbba897","ios":"levelo://app?vid=80409c4a-551b-4aad-8010-703effbba897"},"vehicle_type_id":"4","last_reported":1719065297,"current_range_meters":22400,"station_id":"ce4bgh92rcd13ifvqb50","pricing_plan_id":"cebpf4jnsgd1na2vs0mg"},{"bike_id":"6f352b69-589a-48b6-9d01-ea05f22b70a5","system_id":"levelo_inurba_marseille","lat":43.295748,"lon":5.37522,"is_reserved":false,"is_disabled":false,"rental_uris":{"android":"levelo://app?vid=6f352b69-589a-48b6-9d01-ea05f22b70a5","ios":"levelo://app?vid=6f352b69-589a-48b6-9d01-ea05f22b70a5"},"vehicle_type_id":"4","last_reported":1719065297,"current_range_meters":0,"station_id":"ce4bgh92rcd13ifvqb50","pricing_plan_id":"cebpf4jnsgd1na2vs0mg"},{"bike_id":"cbb6aec6-b0d0-4f58-af12-a81194329193","system_id":"levelo_inurba_marseille","lat":43.295748,"lon":5.37522,"is_reserved":false,"is_disabled":false,"rental_uris":{"android":"levelo://app?vid=cbb6aec6-b0d0-4f58-af12-a81194329193","ios":"levelo://app?vid=cbb6aec6-b0d0-4f58-af12-a81194329193"},"vehicle_type_id":"4","last_reported":1719065297,"current_range_meters":20800,"station_id":"ce4bgh92rcd13ifvqb50","pricing_plan_id":"cebpf4jnsgd1na2vs0mg"},{"bike_id":"2d4e1588-bda6-4b20-b6e6-478fdbd818ea","system_id":"levelo_inurba_marseille","lat":43.296277,"lon":5.377108,"is_reserved":false,"is_disabled":false,"rental_uris":{"android":"levelo://app?vid=2d4e1588-bda6-4b20-b6e6-478fdbd818ea","ios":"levelo://app?vid=2d4e1588-bda6-4b20-b6e6-478fdbd818ea"},"vehicle_type_id":"4","last_reported":1719065297,"current_range_meters":30000,"station_id":"ce4bgi92rcd13ifvqb90","pricing_plan_id":"cebpf4jnsgd1na2vs0mg"},{"bike_id":"4dde8193-6e4c-4f2c-a646-971dff9292c8","system_id":"levelo_inurba_marseille","lat":43.309589,"lon":5.390258,"is_reserved":false,"is_disabled":false,"rental_uris":{"android":"levelo://app?vid=4dde8193-6e4c-4f2c-a646-971dff9292c8","ios":"levelo://app?vid=4dde8193-6e4c-4f2c-a646-971dff9292c8"},"vehicle_type_id":"4","last_reported":1719065297,"current_range_meters":12000,"station_id":"ce4bgup2rcd13ifvqco0","pricing_plan_id":"cebpf4jnsgd1na2vs0mg"},{"bike_id":"d6dfa7c3-34db-4631-a2ba-1b49bd9224d1","system_id":"levelo_inurba_marseille","lat":43.299717,"lon":5.384845,"is_reserved":false,"is_disabled":false,"rental_uris":{"android":"levelo://app?vid=d6dfa7c3-34db-4631-a2ba-1b49bd9224d1","ios":"levelo://app?vid=d6dfa7c3-34db-4631-a2ba-1b49bd9224d1"},"vehicle_type_id":"4","last_reported":1719065297,"current_range_meters":22000,"station_id":"ce4bgj92rcd13ifvqbd0","pricing_plan_id":"cebpf4jnsgd1na2vs0mg"},{"bike_id":"f674f22e-519b-4e74-86da-563139d4cdf8","system_id":"levelo_inurba_marseille","lat":43.299717,"lon":5.384845,"is_reserved":false,"is_disabled":false,"rental_uris":{"android":"levelo://app?vid=f674f22e-519b-4e74-86da-563139d4cdf8","ios":"levelo://app?vid=f674f22e-519b-4e74-86da-563139d4cdf8"},"vehicle_type_id":"4","last_reported":1719065297,"current_range_meters":20000,"station_id":"ce4bgj92rcd13ifvqbd0","pricing_plan_id":"cebpf4jnsgd1na2vs0mg"},{"bike_id":"3bdd2c50-d926-4dd6-bd20-d3473a5e3d76","system_id":"levelo_inurba_marseille","lat":43.32367,"lon":5.388836,"is_reserved":false,"is_disabled":false,"rental_uris":{"android":"levelo://app?vid=3bdd2c50-d926-4dd6-bd20-d3473a5e3d76","ios":"levelo://app?vid=3bdd2c50-d926-4dd6-bd20-d3473a5e3d76"},"vehicle_type_id":"4","last_reported":1719065297,"current_range_meters":4000,"station_id":"ce4bhqp2rcd13ifvqhog","pricing_plan_id":"cebpf4jnsgd1na2vs0mg"},{"bike_id":"ccd395cd-45fd-4579-a697-aede80795eb6","system_id":"levelo_inurba_marseille","lat":43.32367,"lon":5.388836,"is_reserved":false,"is_disabled":false,"rental_uris":{"android":"levelo://app?vid=ccd395cd-45fd-4579-a697-aede80795eb6","ios":"levelo://app?vid=ccd395cd-45fd-4579-a697-aede80795eb6"},"vehicle_type_id":"4","last_reported":1719065297,"current_range_meters":1200,"station_id":"ce4bhqp2rcd13ifvqhog","pricing_plan_id":"cebpf4jnsgd1na2vs0mg"},{"bike_id":"319fc9e3-8218-4a95-b86e-83c2ad4f3c23","system_id":"levelo_inurba_marseille","lat":43.32367,"lon":5.388836,"is_reserved":false,"is_disabled":false,"rental_uris":{"android":"levelo://app?vid=319fc9e3-8218-4a95-b86e-83c2ad4f3c23","ios":"levelo://app?vid=319fc9e3-8218-4a95-b86e-83c2ad4f3c23"},"vehicle_type_id":"4","last_reported":1719065297,"current_range_meters":20800,"station_id":"ce4bhqp2rcd13ifvqhog","pricing_plan_id":"cebpf4jnsgd1na2vs0mg"},{"bike_id":"894e3352-403d-4d4c-99c9-329fbc383fc8","system_id":"levelo_inurba_marseille","lat":43.32367,"lon":5.388836,"is_reserved":false,"is_disabled":false,"rental_uris":{"android":"levelo://app?vid=894e3352-403d-4d4c-99c9-329fbc383fc8","ios":"levelo://app?vid=894e3352-403d-4d4c-99c9-329fbc383fc8"},"vehicle_type_id":"4","last_reported":1719065297,"current_range_meters":0,"station_id":"ce4bhqp2rcd13ifvqhog","pricing_plan_id":"cebpf4jnsgd1na2vs0mg"},{"bike_id":"bcb78d48-c403-4847-be10-633a448df878","system_id":"levelo_inurba_marseille","lat":43.29278,"lon":5.36836,"is_reserved":false,"is_disabled":false,"rental_uris":{"android":"levelo://app?vid=bcb78d48-c403-4847-be10-633a448df878","ios":"levelo://app?vid=bcb78d48-c403-4847-be10-633a448df878"},"vehicle_type_id":"4","last_reported":1719065297,"current_range_meters":19200,"station_id":"ce4bhbp2rcd13ifvqesg","pricing_plan_id":"cebpf4jnsgd1na2vs0mg"},{"bike_id":"3c0cb7c5-5f68-4087-870d-f0fdd06ae3c7","system_id":"levelo_inurba_marseille","lat":43.29307,"lon":5.37184,"is_reserved":false,"is_disabled":false,"rental_uris":{"android":"levelo://app?vid=3c0cb7c5-5f68-4087-870d-f0fdd06ae3c7","ios":"levelo://app?vid=3c0cb7c5-5f68-4087-870d-f0fdd06ae3c7"},"vehicle_type_id":"4","last_reported":1719065297,"current_range_meters":0,"station_id":"ce4bgh92rcd13ifvqb40","pricing_plan_id":"cebpf4jnsgd1na2vs0mg"},{"bike_id":"611068b1-8872-4ff7-b95c-36cfb4e18b52","system_id":"levelo_inurba_marseille","lat":43.29269,"lon":5.36839,"is_reserved":false,"is_disabled":false,"rental_uris":{"android":"levelo://app?vid=611068b1-8872-4ff7-b95c-36cfb4e18b52","ios":"levelo://app?vid=611068b1-8872-4ff7-b95c-36cfb4e18b52"},"vehicle_type_id":"4","last_reported":1719065297,"current_range_meters":0,"station_id":"ce4bhbp2rcd13ifvqesg","pricing_plan_id":"cebpf4jnsgd1na2vs0mg"},{"bike_id":"640a2e27-03e1-4fbd-aa24-d8f344e2ac4f","system_id":"levelo_inurba_marseille","lat":43.337168,"lon":5.391825,"is_reserved":false,"is_disabled":false,"rental_uris":{"android":"levelo://app?vid=640a2e27-03e1-4fbd-aa24-d8f344e2ac4f","ios":"levelo://app?vid=640a2e27-03e1-4fbd-aa24-d8f344e2ac4f"},"vehicle_type_id":"4","last_reported":1719065297,"current_range_meters":24000,"station_id":"ce4bhr92rcd13ifvqhsg","pricing_plan_id":"cebpf4jnsgd1na2vs0mg"},{"bike_id":"c4010a4c-33b5-4bdd-b8ed-c6408e51d1e9","system_id":"levelo_inurba_marseille","lat":43.305994,"lon":5.393687,"is_reserved":false,"is_disabled":false,"rental_uris":{"android":"levelo://app?vid=c4010a4c-33b5-4bdd-b8ed-c6408e51d1e9","ios":"levelo://app?vid=c4010a4c-33b5-4bdd-b8ed-c6408e51d1e9"},"vehicle_type_id":"4","last_reported":1719065297,"current_range_meters":8000,"station_id":"ce4bh0p2rcd13ifvqd80","pricing_plan_id":"cebpf4jnsgd1na2vs0mg"},{"bike_id":"9a419ea5-ea47-4d0e-aff2-feb052772216","system_id":"levelo_inurba_marseille","lat":43.302992,"lon":5.392136,"is_reserved":false,"is_disabled":false,"rental_uris":{"android":"levelo://app?vid=9a419ea5-ea47-4d0e-aff2-feb052772216","ios":"levelo://app?vid=9a419ea5-ea47-4d0e-aff2-feb052772216"},"vehicle_type_id":"4","last_reported":1719065297,"current_range_meters":8800,"station_id":"ce4bgkh2rcd13ifvqbk0","pricing_plan_id":"cebpf4jnsgd1na2vs0mg"},{"bike_id":"03505852-220f-4342-ae6e-c01a10cf7554","system_id":"levelo_inurba_marseille","lat":43.293009,"lon":5.374584,"is_reserved":false,"is_disabled":false,"rental_uris":{"android":"levelo://app?vid=03505852-220f-4342-ae6e-c01a10cf7554","ios":"levelo://app?vid=03505852-220f-4342-ae6e-c01a10cf7554"},"vehicle_type_id":"4","last_reported":1719065297,"current_range_meters":0,"station_id":"ce4bgi12rcd13ifvqb70","pricing_plan_id":"cebpf4jnsgd1na2vs0mg"},{"bike_id":"132a96c6-b69d-4f97-a3cd-985bf571d448","system_id":"levelo_inurba_marseille","lat":43.303002,"lon":5.392142,"is_reserved":false,"is_disabled":false,"rental_uris":{"android":"levelo://app?vid=132a96c6-b69d-4f97-a3cd-985bf571d448","ios":"levelo://app?vid=132a96c6-b69d-4f97-a3cd-985bf571d448"},"vehicle_type_id":"4","last_reported":1719065297,"current_range_meters":0,"station_id":"ce4bgkh2rcd13ifvqbk0","pricing_plan_id":"cebpf4jnsgd1na2vs0mg"},{"bike_id":"86dcf433-3218-4e0c-b09f-80f061e5e184","system_id":"levelo_inurba_marseille","lat":43.302992,"lon":5.392136,"is_reserved":false,"is_disabled":false,"rental_uris":{"android":"levelo://app?vid=86dcf433-3218-4e0c-b09f-80f061e5e184","ios":"levelo://app?vid=86dcf433-3218-4e0c-b09f-80f061e5e184"},"vehicle_type_id":"4","last_reported":1719065297,"current_range_meters":4000,"station_id":"ce4bgkh2rcd13ifvqbk0","pricing_plan_id":"cebpf4jnsgd1na2vs0mg"},{"bike_id":"48faeca2-a98d-4d0d-8592-09dbab170cfa","system_id":"levelo_inurba_marseille","lat":43.292311,"lon":5.360731,"is_reserved":false,"is_disabled":false,"rental_uris":{"android":"levelo://app?vid=48faeca2-a98d-4d0d-8592-09dbab170cfa","ios":"levelo://app?vid=48faeca2-a98d-4d0d-8592-09dbab170cfa"},"vehicle_type_id":"4","last_reported":1719065297,"current_range_meters":1200,"station_id":"ce4bhbh2rcd13ifvqeqg","pricing_plan_id":"cebpf4jnsgd1na2vs0mg"},{"bike_id":"3cccdb73-1fd5-4203-a05d-088d2bc4c8ad","system_id":"levelo_inurba_marseille","lat":43.291994,"lon":5.357886,"is_reserved":false,"is_disabled":false,"rental_uris":{"android":"levelo://app?vid=3cccdb73-1fd5-4203-a05d-088d2bc4c8ad","ios":"levelo://app?vid=3cccdb73-1fd5-4203-a05d-088d2bc4c8ad"},"vehicle_type_id":"4","last_reported":1719065297,"current_range_meters":7200,"station_id":"ce4bhb12rcd13ifvqel0","pricing_plan_id":"cebpf4jnsgd1na2vs0mg"},{"bike_id":"712198be-7c30-4dcb-b067-da8570041bb2","system_id":"levelo_inurba_marseille","lat":43.290779,"lon":5.371482,"is_reserved":false,"is_disabled":false,"rental_uris":{"android":"levelo://app?vid=712198be-7c30-4dcb-b067-da8570041bb2","ios":"levelo://app?vid=712198be-7c30-4dcb-b067-da8570041bb2"},"vehicle_type_id":"4","last_reported":1719065297,"current_range_meters":18400,"station_id":"ce4bh5p2rcd13ifvqe4g","pricing_plan_id":"cebpf4jnsgd1na2vs0mg"},{"bike_id":"618dc813-f8fc-4f3b-b47d-ba2e63de6868","system_id":"levelo_inurba_marseille","lat":43.302008,"lon":5.394694,"is_reserved":false,"is_disabled":false,"rental_uris":{"android":"levelo://app?vid=618dc813-f8fc-4f3b-b47d-ba2e63de6868","ios":"levelo://app?vid=618dc813-f8fc-4f3b-b47d-ba2e63de6868"},"vehicle_type_id":"4","last_reported":1719065297,"current_range_meters":10400,"station_id":"ce4bh0p2rcd13ifvqd70","pricing_plan_id":"cebpf4jnsgd1na2vs0mg"},{"bike_id":"10739cb4-4172-4dd8-be76-1e7fe84d4b8e","system_id":"levelo_inurba_marseille","lat":43.290624,"lon":5.359245,"is_reserved":false,"is_disabled":false,"rental_uris":{"android":"levelo://app?vid=10739cb4-4172-4dd8-be76-1e7fe84d4b8e","ios":"levelo://app?vid=10739cb4-4172-4dd8-be76-1e7fe84d4b8e"},"vehicle_type_id":"4","last_reported":1719065297,"current_range_meters":28400,"station_id":"ce4bha92rcd13ifvqeg0","pricing_plan_id":"cebpf4jnsgd1na2vs0mg"},{"bike_id":"9e0d3b77-914a-4226-8d5b-a99a2301a52b","system_id":"levelo_inurba_marseille","lat":43.304606,"lon":5.379026,"is_reserved":false,"is_disabled":false,"rental_uris":{"android":"levelo://app?vid=9e0d3b77-914a-4226-8d5b-a99a2301a52b","ios":"levelo://app?vid=9e0d3b77-914a-4226-8d5b-a99a2301a52b"},"vehicle_type_id":"4","last_reported":1719065297,"current_range_meters":22400,"station_id":"ce4bgup2rcd13ifvqcn0","pricing_plan_id":"cebpf4jnsgd1na2vs0mg"},{"bike_id":"09e76588-430f-4c41-9ebc-84c5084cdfec","system_id":"levelo_inurba_marseille","lat":43.29043,"lon":5.37555,"is_reserved":false,"is_disabled":false,"rental_uris":{"android":"levelo://app?vid=09e76588-430f-4c41-9ebc-84c5084cdfec","ios":"levelo://app?vid=09e76588-430f-4c41-9ebc-84c5084cdfec"},"vehicle_type_id":"4","last_reported":1719065297,"current_range_meters":0,"station_id":"ce4bh692rcd13ifvqe90","pricing_plan_id":"cebpf4jnsgd1na2vs0mg"},{"bike_id":"d801fc21-bd96-469d-be8f-215f3fa1c6df","system_id":"levelo_inurba_marseille","lat":43.28943,"lon":5.36631,"is_reserved":false,"is_disabled":false,"rental_uris":{"android":"levelo://app?vid=d801fc21-bd96-469d-be8f-215f3fa1c6df","ios":"levelo://app?vid=d801fc21-bd96-469d-be8f-215f3fa1c6df"},"vehicle_type_id":"4","last_reported":1719065297,"current_range_meters":0,"station_id":"ce4bhap2rcd13ifvqek0","pricing_plan_id":"cebpf4jnsgd1na2vs0mg"},{"bike_id":"4376f4a2-1261-4c6f-af14-86ee18a99178","system_id":"levelo_inurba_marseille","lat":43.290327,"lon":5.375711,"is_reserved":false,"is_disabled":false,"rental_uris":{"android":"levelo://app?vid=4376f4a2-1261-4c6f-af14-86ee18a99178","ios":"levelo://app?vid=4376f4a2-1261-4c6f-af14-86ee18a99178"},"vehicle_type_id":"4","last_reported":1719065297,"current_range_meters":22400,"station_id":"ce4bh692rcd13ifvqe90","pricing_plan_id":"cebpf4jnsgd1na2vs0mg"},{"bike_id":"97810639-4a0e-4dda-985d-571db7c504c4","system_id":"levelo_inurba_marseille","lat":43.289184,"lon":5.366408,"is_reserved":false,"is_disabled":false,"rental_uris":{"android":"levelo://app?vid=97810639-4a0e-4dda-985d-571db7c504c4","ios":"levelo://app?vid=97810639-4a0e-4dda-985d-571db7c504c4"},"vehicle_type_id":"4","last_reported":1719065297,"current_range_meters":2000,"station_id":"ce4bhap2rcd13ifvqek0","pricing_plan_id":"cebpf4jnsgd1na2vs0mg"},{"bike_id":"877b3ee0-d795-4ca7-ae0f-a9b08f46979b","system_id":"levelo_inurba_marseille","lat":43.289184,"lon":5.366408,"is_reserved":false,"is_disabled":false,"rental_uris":{"android":"levelo://app?vid=877b3ee0-d795-4ca7-ae0f-a9b08f46979b","ios":"levelo://app?vid=877b3ee0-d795-4ca7-ae0f-a9b08f46979b"},"vehicle_type_id":"4","last_reported":1719065297,"current_range_meters":5600,"station_id":"ce4bhap2rcd13ifvqek0","pricing_plan_id":"cebpf4jnsgd1na2vs0mg"},{"bike_id":"166796b5-4ddb-4852-af0f-b4b6fdc94f72","system_id":"levelo_inurba_marseille","lat":43.290103,"lon":5.356114,"is_reserved":false,"is_disabled":false,"rental_uris":{"android":"levelo://app?vid=166796b5-4ddb-4852-af0f-b4b6fdc94f72","ios":"levelo://app?vid=166796b5-4ddb-4852-af0f-b4b6fdc94f72"},"vehicle_type_id":"4","last_reported":1719065297,"current_range_meters":1600,"station_id":"ce4bhb92rcd13ifvqen0","pricing_plan_id":"cebpf4jnsgd1na2vs0mg"},{"bike_id":"11ddcbe8-f7e8-4c03-9b22-a1aef4650ce5","system_id":"levelo_inurba_marseille","lat":43.290104,"lon":5.356111,"is_reserved":false,"is_disabled":false,"rental_uris":{"android":"levelo://app?vid=11ddcbe8-f7e8-4c03-9b22-a1aef4650ce5","ios":"levelo://app?vid=11ddcbe8-f7e8-4c03-9b22-a1aef4650ce5"},"vehicle_type_id":"4","last_reported":1719065297,"current_range_meters":15200,"station_id":"ce4bhb92rcd13ifvqen0","pricing_plan_id":"cebpf4jnsgd1na2vs0mg"},{"bike_id":"ebe8da76-ec63-49bc-b8cb-ddfb335a3d3d","system_id":"levelo_inurba_marseille","lat":43.290082,"lon":5.356126,"is_reserved":false,"is_disabled":false,"rental_uris":{"android":"levelo://app?vid=ebe8da76-ec63-49bc-b8cb-ddfb335a3d3d","ios":"levelo://app?vid=ebe8da76-ec63-49bc-b8cb-ddfb335a3d3d"},"vehicle_type_id":"4","last_reported":1719065297,"current_range_meters":8000,"station_id":"ce4bhb92rcd13ifvqen0","pricing_plan_id":"cebpf4jnsgd1na2vs0mg"},{"bike_id":"46dd299f-eb0f-4506-ad36-1b91c02422c0","system_id":"levelo_inurba_marseille","lat":43.290104,"lon":5.356111,"is_reserved":false,"is_disabled":false,"rental_uris":{"android":"levelo://app?vid=46dd299f-eb0f-4506-ad36-1b91c02422c0","ios":"levelo://app?vid=46dd299f-eb0f-4506-ad36-1b91c02422c0"},"vehicle_type_id":"4","last_reported":1719065297,"current_range_meters":0,"station_id":"ce4bhb92rcd13ifvqen0","pricing_plan_id":"cebpf4jnsgd1na2vs0mg"},{"bike_id":"e998a75d-2d6d-4d0b-a178-4a52bf16f5af","system_id":"levelo_inurba_marseille","lat":43.290103,"lon":5.356114,"is_reserved":false,"is_disabled":false,"rental_uris":{"android":"levelo://app?vid=e998a75d-2d6d-4d0b-a178-4a52bf16f5af","ios":"levelo://app?vid=e998a75d-2d6d-4d0b-a178-4a52bf16f5af"},"vehicle_type_id":"4","last_reported":1719065297,"current_range_meters":400,"station_id":"ce4bhb92rcd13ifvqen0","pricing_plan_id":"cebpf4jnsgd1na2vs0mg"},{"bike_id":"b08ade93-b2e7-4997-8b87-0b7c9209f0b5","system_id":"levelo_inurba_marseille","lat":43.290104,"lon":5.356111,"is_reserved":false,"is_disabled":false,"rental_uris":{"android":"levelo://app?vid=b08ade93-b2e7-4997-8b87-0b7c9209f0b5","ios":"levelo://app?vid=b08ade93-b2e7-4997-8b87-0b7c9209f0b5"},"vehicle_type_id":"4","last_reported":1719065297,"current_range_meters":13200,"station_id":"ce4bhb92rcd13ifvqen0","pricing_plan_id":"cebpf4jnsgd1na2vs0mg"},{"bike_id":"c8ff4730-43c0-49ad-9510-cd1d63cd95f1","system_id":"levelo_inurba_marseille","lat":43.290104,"lon":5.356111,"is_reserved":false,"is_disabled":false,"rental_uris":{"android":"levelo://app?vid=c8ff4730-43c0-49ad-9510-cd1d63cd95f1","ios":"levelo://app?vid=c8ff4730-43c0-49ad-9510-cd1d63cd95f1"},"vehicle_type_id":"4","last_reported":1719065297,"current_range_meters":0,"station_id":"ce4bhb92rcd13ifvqen0","pricing_plan_id":"cebpf4jnsgd1na2vs0mg"},{"bike_id":"ecf6c986-66ea-4725-a08c-4130b5f1b95f","system_id":"levelo_inurba_marseille","lat":43.290104,"lon":5.356111,"is_reserved":false,"is_disabled":false,"rental_uris":{"android":"levelo://app?vid=ecf6c986-66ea-4725-a08c-4130b5f1b95f","ios":"levelo://app?vid=ecf6c986-66ea-4725-a08c-4130b5f1b95f"},"vehicle_type_id":"4","last_reported":1719065297,"current_range_meters":0,"station_id":"ce4bhb92rcd13ifvqen0","pricing_plan_id":"cebpf4jnsgd1na2vs0mg"},{"bike_id":"f0f3ecc9-5974-473e-83a2-b23b45a9e0ba","system_id":"levelo_inurba_marseille","lat":43.290103,"lon":5.356114,"is_reserved":false,"is_disabled":false,"rental_uris":{"android":"levelo://app?vid=f0f3ecc9-5974-473e-83a2-b23b45a9e0ba","ios":"levelo://app?vid=f0f3ecc9-5974-473e-83a2-b23b45a9e0ba"},"vehicle_type_id":"4","last_reported":1719065297,"current_range_meters":14400,"station_id":"ce4bhb92rcd13ifvqen0","pricing_plan_id":"cebpf4jnsgd1na2vs0mg"},{"bike_id":"67047250-8321-4261-b8de-8c095a8ce691","system_id":"levelo_inurba_marseille","lat":43.29025,"lon":5.35527,"is_reserved":false,"is_disabled":false,"rental_uris":{"android":"levelo://app?vid=67047250-8321-4261-b8de-8c095a8ce691","ios":"levelo://app?vid=67047250-8321-4261-b8de-8c095a8ce691"},"vehicle_type_id":"4","last_reported":1719065297,"current_range_meters":19200,"station_id":"","pricing_plan_id":"cebpf4jnsgd1na2vs0mg"},{"bike_id":"00b33e56-fc24-4155-b283-1169a52b411f","system_id":"levelo_inurba_marseille","lat":43.29026,"lon":5.35519,"is_reserved":false,"is_disabled":false,"rental_uris":{"android":"levelo://app?vid=00b33e56-fc24-4155-b283-1169a52b411f","ios":"levelo://app?vid=00b33e56-fc24-4155-b283-1169a52b411f"},"vehicle_type_id":"4","last_reported":1719065297,"current_range_meters":20000,"station_id":"","pricing_plan_id":"cebpf4jnsgd1na2vs0mg"},{"bike_id":"18d69a33-f021-4ee5-99d1-195eb3c22275","system_id":"levelo_inurba_marseille","lat":43.290995,"lon":5.381361,"is_reserved":false,"is_disabled":false,"rental_uris":{"android":"levelo://app?vid=18d69a33-f021-4ee5-99d1-195eb3c22275","ios":"levelo://app?vid=18d69a33-f021-4ee5-99d1-195eb3c22275"},"vehicle_type_id":"4","last_reported":1719065297,"current_range_meters":9200,"station_id":"ce4bh512rcd13ifvqe2g","pricing_plan_id":"cebpf4jnsgd1na2vs0mg"},{"bike_id":"7e4256d9-3a28-4576-b05c-4b96101c4ec1","system_id":"levelo_inurba_marseille","lat":43.330442,"lon":5.389148,"is_reserved":false,"is_disabled":false,"rental_uris":{"android":"levelo://app?vid=7e4256d9-3a28-4576-b05c-4b96101c4ec1","ios":"levelo://app?vid=7e4256d9-3a28-4576-b05c-4b96101c4ec1"},"vehicle_type_id":"4","last_reported":1719065297,"current_range_meters":9600,"station_id":"ce4bhr92rcd13ifvqhrg","pricing_plan_id":"cebpf4jnsgd1na2vs0mg"},{"bike_id":"13c6072f-23cb-4f84-ac90-715022f088bc","system_id":"levelo_inurba_marseille","lat":43.2901,"lon":5.381269,"is_reserved":false,"is_disabled":false,"rental_uris":{"android":"levelo://app?vid=13c6072f-23cb-4f84-ac90-715022f088bc","ios":"levelo://app?vid=13c6072f-23cb-4f84-ac90-715022f088bc"},"vehicle_type_id":"4","last_reported":1719065297,"current_range_meters":0,"station_id":"ce4bh4p2rcd13ifvqe1g","pricing_plan_id":"cebpf4jnsgd1na2vs0mg"},{"bike_id":"d77378ad-bf6c-41de-b44f-080aca17117c","system_id":"levelo_inurba_marseille","lat":43.28856,"lon":5.358371,"is_reserved":false,"is_disabled":false,"rental_uris":{"android":"levelo://app?vid=d77378ad-bf6c-41de-b44f-080aca17117c","ios":"levelo://app?vid=d77378ad-bf6c-41de-b44f-080aca17117c"},"vehicle_type_id":"4","last_reported":1719065297,"current_range_meters":23600,"station_id":"ce4bhb12rcd13ifvqem0","pricing_plan_id":"cebpf4jnsgd1na2vs0mg"},{"bike_id":"6aeecc67-7960-4dc7-ab72-d57df8389546","system_id":"levelo_inurba_marseille","lat":43.28856,"lon":5.358371,"is_reserved":false,"is_disabled":false,"rental_uris":{"android":"levelo://app?vid=6aeecc67-7960-4dc7-ab72-d57df8389546","ios":"levelo://app?vid=6aeecc67-7960-4dc7-ab72-d57df8389546"},"vehicle_type_id":"4","last_reported":1719065297,"current_range_meters":20400,"station_id":"ce4bhb12rcd13ifvqem0","pricing_plan_id":"cebpf4jnsgd1na2vs0mg"},{"bike_id":"05092e03-5cef-41c3-9575-df5db7507ebd","system_id":"levelo_inurba_marseille","lat":43.33739,"lon":5.37464,"is_reserved":false,"is_disabled":false,"rental_uris":{"android":"levelo://app?vid=05092e03-5cef-41c3-9575-df5db7507ebd","ios":"levelo://app?vid=05092e03-5cef-41c3-9575-df5db7507ebd"},"vehicle_type_id":"4","last_reported":1719065297,"current_range_meters":19600,"station_id":"","pricing_plan_id":"cebpf4jnsgd1na2vs0mg"},{"bike_id":"17793064-a0c1-48b4-8786-c0682a129dbb","system_id":"levelo_inurba_marseille","lat":43.30928,"lon":5.40142,"is_reserved":false,"is_disabled":false,"rental_uris":{"android":"levelo://app?vid=17793064-a0c1-48b4-8786-c0682a129dbb","ios":"levelo://app?vid=17793064-a0c1-48b4-8786-c0682a129dbb"},"vehicle_type_id":"4","last_reported":1719065297,"current_range_meters":20800,"station_id":"ce4bgvp2rcd13ifvqct0","pricing_plan_id":"cebpf4jnsgd1na2vs0mg"},{"bike_id":"5b5cae36-09e1-4bd0-aeb4-83d37c064d16","system_id":"levelo_inurba_marseille","lat":43.33749,"lon":5.37471,"is_reserved":false,"is_disabled":false,"rental_uris":{"android":"levelo://app?vid=5b5cae36-09e1-4bd0-aeb4-83d37c064d16","ios":"levelo://app?vid=5b5cae36-09e1-4bd0-aeb4-83d37c064d16"},"vehicle_type_id":"4","last_reported":1719065297,"current_range_meters":29200,"station_id":"","pricing_plan_id":"cebpf4jnsgd1na2vs0mg"},{"bike_id":"a00c218c-138a-4388-aca4-2952a6961815","system_id":"levelo_inurba_marseille","lat":43.33753,"lon":5.37478,"is_reserved":false,"is_disabled":false,"rental_uris":{"android":"levelo://app?vid=a00c218c-138a-4388-aca4-2952a6961815","ios":"levelo://app?vid=a00c218c-138a-4388-aca4-2952a6961815"},"vehicle_type_id":"4","last_reported":1719065297,"current_range_meters":29200,"station_id":"","pricing_plan_id":"cebpf4jnsgd1na2vs0mg"},{"bike_id":"0e11bbab-a5d9-4098-a6f1-624d89f27c59","system_id":"levelo_inurba_marseille","lat":43.337572,"lon":5.374546,"is_reserved":false,"is_disabled":false,"rental_uris":{"android":"levelo://app?vid=0e11bbab-a5d9-4098-a6f1-624d89f27c59","ios":"levelo://app?vid=0e11bbab-a5d9-4098-a6f1-624d89f27c59"},"vehicle_type_id":"4","last_reported":1719065297,"current_range_meters":24000,"station_id":"","pricing_plan_id":"cebpf4jnsgd1na2vs0mg"},{"bike_id":"db534928-e6a2-47cc-a852-558fe66ed50c","system_id":"levelo_inurba_marseille","lat":43.337583,"lon":5.374633,"is_reserved":false,"is_disabled":false,"rental_uris":{"android":"levelo://app?vid=db534928-e6a2-47cc-a852-558fe66ed50c","ios":"levelo://app?vid=db534928-e6a2-47cc-a852-558fe66ed50c"},"vehicle_type_id":"4","last_reported":1719065297,"current_range_meters":22400,"station_id":"","pricing_plan_id":"cebpf4jnsgd1na2vs0mg"},{"bike_id":"e7be790b-07e4-40f3-b60f-da683b157943","system_id":"levelo_inurba_marseille","lat":43.33033,"lon":5.39238,"is_reserved":false,"is_disabled":false,"rental_uris":{"android":"levelo://app?vid=e7be790b-07e4-40f3-b60f-da683b157943","ios":"levelo://app?vid=e7be790b-07e4-40f3-b60f-da683b157943"},"vehicle_type_id":"4","last_reported":1719065297,"current_range_meters":18800,"station_id":"","pricing_plan_id":"cebpf4jnsgd1na2vs0mg"},{"bike_id":"a77bf3f1-dc55-4e35-8fe0-6292cee970ef","system_id":"levelo_inurba_marseille","lat":43.33035,"lon":5.39239,"is_reserved":false,"is_disabled":false,"rental_uris":{"android":"levelo://app?vid=a77bf3f1-dc55-4e35-8fe0-6292cee970ef","ios":"levelo://app?vid=a77bf3f1-dc55-4e35-8fe0-6292cee970ef"},"vehicle_type_id":"4","last_reported":1719065297,"current_range_meters":21600,"station_id":"","pricing_plan_id":"cebpf4jnsgd1na2vs0mg"},{"bike_id":"918fce3f-cc30-454a-8f04-2ec50bee21ef","system_id":"levelo_inurba_marseille","lat":43.301117,"lon":5.398795,"is_reserved":false,"is_disabled":false,"rental_uris":{"android":"levelo://app?vid=918fce3f-cc30-454a-8f04-2ec50bee21ef","ios":"levelo://app?vid=918fce3f-cc30-454a-8f04-2ec50bee21ef"},"vehicle_type_id":"4","last_reported":1719065297,"current_range_meters":0,"station_id":"ce4bh0h2rcd13ifvqd40","pricing_plan_id":"cebpf4jnsgd1na2vs0mg"},{"bike_id":"1529575d-3c24-4053-9dc4-3fc753c20a3e","system_id":"levelo_inurba_marseille","lat":43.3304,"lon":5.39281,"is_reserved":false,"is_disabled":false,"rental_uris":{"android":"levelo://app?vid=1529575d-3c24-4053-9dc4-3fc753c20a3e","ios":"levelo://app?vid=1529575d-3c24-4053-9dc4-3fc753c20a3e"},"vehicle_type_id":"4","last_reported":1719065297,"current_range_meters":1600,"station_id":"","pricing_plan_id":"cebpf4jnsgd1na2vs0mg"},{"bike_id":"b23ffd4e-7bb6-4dd3-bf3e-37b7bd458673","system_id":"levelo_inurba_marseille","lat":43.28727,"lon":5.36078,"is_reserved":false,"is_disabled":false,"rental_uris":{"android":"levelo://app?vid=b23ffd4e-7bb6-4dd3-bf3e-37b7bd458673","ios":"levelo://app?vid=b23ffd4e-7bb6-4dd3-bf3e-37b7bd458673"},"vehicle_type_id":"4","last_reported":1719065297,"current_range_meters":7600,"station_id":"cki0cbj6b192h4jlfktg","pricing_plan_id":"cebpf4jnsgd1na2vs0mg"},{"bike_id":"102a8acb-1d89-4517-a077-861ead356cd5","system_id":"levelo_inurba_marseille","lat":43.286591,"lon":5.363346,"is_reserved":false,"is_disabled":false,"rental_uris":{"android":"levelo://app?vid=102a8acb-1d89-4517-a077-861ead356cd5","ios":"levelo://app?vid=102a8acb-1d89-4517-a077-861ead356cd5"},"vehicle_type_id":"4","last_reported":1719065297,"current_range_meters":0,"station_id":"ce4bhah2rcd13ifvqej0","pricing_plan_id":"cebpf4jnsgd1na2vs0mg"},{"bike_id":"78f3cf8e-739e-40ce-8ac6-592e9b07fcc9","system_id":"levelo_inurba_marseille","lat":43.295196,"lon":5.39397,"is_reserved":false,"is_disabled":false,"rental_uris":{"android":"levelo://app?vid=78f3cf8e-739e-40ce-8ac6-592e9b07fcc9","ios":"levelo://app?vid=78f3cf8e-739e-40ce-8ac6-592e9b07fcc9"},"vehicle_type_id":"4","last_reported":1719065297,"current_range_meters":30000,"station_id":"ce4bh292rcd13ifvqdf0","pricing_plan_id":"cebpf4jnsgd1na2vs0mg"},{"bike_id":"a3071c01-f853-455f-b070-0f56cfea29ee","system_id":"levelo_inurba_marseille","lat":43.286039,"lon":5.370679,"is_reserved":false,"is_disabled":false,"rental_uris":{"android":"levelo://app?vid=a3071c01-f853-455f-b070-0f56cfea29ee","ios":"levelo://app?vid=a3071c01-f853-455f-b070-0f56cfea29ee"},"vehicle_type_id":"4","last_reported":1719065297,"current_range_meters":31200,"station_id":"ce4bht12rcd13ifvqi60","pricing_plan_id":"cebpf4jnsgd1na2vs0mg"},{"bike_id":"81fe2065-63ab-4906-a19d-cac2afcb1428","system_id":"levelo_inurba_marseille","lat":43.286039,"lon":5.370679,"is_reserved":false,"is_disabled":false,"rental_uris":{"android":"levelo://app?vid=81fe2065-63ab-4906-a19d-cac2afcb1428","ios":"levelo://app?vid=81fe2065-63ab-4906-a19d-cac2afcb1428"},"vehicle_type_id":"4","last_reported":1719065297,"current_range_meters":2800,"station_id":"ce4bht12rcd13ifvqi60","pricing_plan_id":"cebpf4jnsgd1na2vs0mg"},{"bike_id":"922f6d27-6a19-4cb1-a238-b47d10dfa404","system_id":"levelo_inurba_marseille","lat":43.286039,"lon":5.370681,"is_reserved":false,"is_disabled":false,"rental_uris":{"android":"levelo://app?vid=922f6d27-6a19-4cb1-a238-b47d10dfa404","ios":"levelo://app?vid=922f6d27-6a19-4cb1-a238-b47d10dfa404"},"vehicle_type_id":"4","last_reported":1719065297,"current_range_meters":17600,"station_id":"ce4bht12rcd13ifvqi60","pricing_plan_id":"cebpf4jnsgd1na2vs0mg"},{"bike_id":"540a045d-9a1f-43e6-a280-f4b171aa35da","system_id":"levelo_inurba_marseille","lat":43.286039,"lon":5.370679,"is_reserved":false,"is_disabled":false,"rental_uris":{"android":"levelo://app?vid=540a045d-9a1f-43e6-a280-f4b171aa35da","ios":"levelo://app?vid=540a045d-9a1f-43e6-a280-f4b171aa35da"},"vehicle_type_id":"4","last_reported":1719065297,"current_range_meters":800,"station_id":"ce4bht12rcd13ifvqi60","pricing_plan_id":"cebpf4jnsgd1na2vs0mg"},{"bike_id":"4a3ea612-8e39-48d0-95cf-d4707708d80b","system_id":"levelo_inurba_marseille","lat":43.28717,"lon":5.37931,"is_reserved":false,"is_disabled":false,"rental_uris":{"android":"levelo://app?vid=4a3ea612-8e39-48d0-95cf-d4707708d80b","ios":"levelo://app?vid=4a3ea612-8e39-48d0-95cf-d4707708d80b"},"vehicle_type_id":"4","last_reported":1719065297,"current_range_meters":0,"station_id":"ce4bh9p2rcd13ifvqec0","pricing_plan_id":"cebpf4jnsgd1na2vs0mg"},{"bike_id":"95b84703-4435-4a95-8995-5238d63f8851","system_id":"levelo_inurba_marseille","lat":43.291994,"lon":5.392907,"is_reserved":false,"is_disabled":false,"rental_uris":{"android":"levelo://app?vid=95b84703-4435-4a95-8995-5238d63f8851","ios":"levelo://app?vid=95b84703-4435-4a95-8995-5238d63f8851"},"vehicle_type_id":"4","last_reported":1719065297,"current_range_meters":24000,"station_id":"ce4bh192rcd13ifvqdd0","pricing_plan_id":"cebpf4jnsgd1na2vs0mg"},{"bike_id":"2126106a-28bb-4f43-aee0-1592dbc1105e","system_id":"levelo_inurba_marseille","lat":43.291994,"lon":5.392907,"is_reserved":false,"is_disabled":false,"rental_uris":{"android":"levelo://app?vid=2126106a-28bb-4f43-aee0-1592dbc1105e","ios":"levelo://app?vid=2126106a-28bb-4f43-aee0-1592dbc1105e"},"vehicle_type_id":"4","last_reported":1719065297,"current_range_meters":13200,"station_id":"ce4bh192rcd13ifvqdd0","pricing_plan_id":"cebpf4jnsgd1na2vs0mg"},{"bike_id":"a046bdbd-b362-40b4-802b-03a24b73bed2","system_id":"levelo_inurba_marseille","lat":43.284538,"lon":5.358657,"is_reserved":false,"is_disabled":false,"rental_uris":{"android":"levelo://app?vid=a046bdbd-b362-40b4-802b-03a24b73bed2","ios":"levelo://app?vid=a046bdbd-b362-40b4-802b-03a24b73bed2"},"vehicle_type_id":"4","last_reported":1719065297,"current_range_meters":3600,"station_id":"ce4bhah2rcd13ifvqei0","pricing_plan_id":"cebpf4jnsgd1na2vs0mg"},{"bike_id":"ce5c7aec-5656-4d2a-b0a7-f2dafdb6a129","system_id":"levelo_inurba_marseille","lat":43.284534,"lon":5.358662,"is_reserved":false,"is_disabled":false,"rental_uris":{"android":"levelo://app?vid=ce5c7aec-5656-4d2a-b0a7-f2dafdb6a129","ios":"levelo://app?vid=ce5c7aec-5656-4d2a-b0a7-f2dafdb6a129"},"vehicle_type_id":"4","last_reported":1719065297,"current_range_meters":13600,"station_id":"ce4bhah2rcd13ifvqei0","pricing_plan_id":"cebpf4jnsgd1na2vs0mg"},{"bike_id":"7959a823-9e9f-40e4-b7be-1da44563c250","system_id":"levelo_inurba_marseille","lat":43.294314,"lon":5.397498,"is_reserved":false,"is_disabled":false,"rental_uris":{"android":"levelo://app?vid=7959a823-9e9f-40e4-b7be-1da44563c250","ios":"levelo://app?vid=7959a823-9e9f-40e4-b7be-1da44563c250"},"vehicle_type_id":"4","last_reported":1719065297,"current_range_meters":29200,"station_id":"ce4bh3h2rcd13ifvqdo0","pricing_plan_id":"cebpf4jnsgd1na2vs0mg"},{"bike_id":"71138d76-8d74-4964-8b32-5b5e49ec7d8a","system_id":"levelo_inurba_marseille","lat":43.285856,"lon":5.350771,"is_reserved":false,"is_disabled":false,"rental_uris":{"android":"levelo://app?vid=71138d76-8d74-4964-8b32-5b5e49ec7d8a","ios":"levelo://app?vid=71138d76-8d74-4964-8b32-5b5e49ec7d8a"},"vehicle_type_id":"4","last_reported":1719065297,"current_range_meters":20800,"station_id":"ce4bhch2rcd13ifvqeug","pricing_plan_id":"cebpf4jnsgd1na2vs0mg"},{"bike_id":"0ff6a91b-3492-40ea-9ec0-829f60e79fce","system_id":"levelo_inurba_marseille","lat":43.285856,"lon":5.350771,"is_reserved":false,"is_disabled":false,"rental_uris":{"android":"levelo://app?vid=0ff6a91b-3492-40ea-9ec0-829f60e79fce","ios":"levelo://app?vid=0ff6a91b-3492-40ea-9ec0-829f60e79fce"},"vehicle_type_id":"4","last_reported":1719065297,"current_range_meters":19200,"station_id":"ce4bhch2rcd13ifvqeug","pricing_plan_id":"cebpf4jnsgd1na2vs0mg"},{"bike_id":"5520ecf8-263e-489a-a0ac-0031491f54c2","system_id":"levelo_inurba_marseille","lat":43.285856,"lon":5.350771,"is_reserved":false,"is_disabled":false,"rental_uris":{"android":"levelo://app?vid=5520ecf8-263e-489a-a0ac-0031491f54c2","ios":"levelo://app?vid=5520ecf8-263e-489a-a0ac-0031491f54c2"},"vehicle_type_id":"4","last_reported":1719065297,"current_range_meters":20400,"station_id":"ce4bhch2rcd13ifvqeug","pricing_plan_id":"cebpf4jnsgd1na2vs0mg"},{"bike_id":"352dabe0-4fd9-4582-a652-082c0562c280","system_id":"levelo_inurba_marseille","lat":43.283998,"lon":5.375062,"is_reserved":false,"is_disabled":false,"rental_uris":{"android":"levelo://app?vid=352dabe0-4fd9-4582-a652-082c0562c280","ios":"levelo://app?vid=352dabe0-4fd9-4582-a652-082c0562c280"},"vehicle_type_id":"4","last_reported":1719065297,"current_range_meters":15600,"station_id":"ce4bh412rcd13ifvqds0","pricing_plan_id":"cebpf4jnsgd1na2vs0mg"},{"bike_id":"5c2d4539-c1f5-401b-af94-d780f8c31304","system_id":"levelo_inurba_marseille","lat":43.283998,"lon":5.375062,"is_reserved":false,"is_disabled":false,"rental_uris":{"android":"levelo://app?vid=5c2d4539-c1f5-401b-af94-d780f8c31304","ios":"levelo://app?vid=5c2d4539-c1f5-401b-af94-d780f8c31304"},"vehicle_type_id":"4","last_reported":1719065297,"current_range_meters":13200,"station_id":"ce4bh412rcd13ifvqds0","pricing_plan_id":"cebpf4jnsgd1na2vs0mg"},{"bike_id":"264fce2b-142c-4aa9-96bb-dc886548b812","system_id":"levelo_inurba_marseille","lat":43.286595,"lon":5.386795,"is_reserved":false,"is_disabled":false,"rental_uris":{"android":"levelo://app?vid=264fce2b-142c-4aa9-96bb-dc886548b812","ios":"levelo://app?vid=264fce2b-142c-4aa9-96bb-dc886548b812"},"vehicle_type_id":"4","last_reported":1719065297,"current_range_meters":23600,"station_id":"ce4bh492rcd13ifvqdug","pricing_plan_id":"cebpf4jnsgd1na2vs0mg"},{"bike_id":"a6ef6769-2696-4c17-ad11-262df502b8db","system_id":"levelo_inurba_marseille","lat":43.286907,"lon":5.387443,"is_reserved":false,"is_disabled":false,"rental_uris":{"android":"levelo://app?vid=a6ef6769-2696-4c17-ad11-262df502b8db","ios":"levelo://app?vid=a6ef6769-2696-4c17-ad11-262df502b8db"},"vehicle_type_id":"4","last_reported":1719065297,"current_range_meters":1200,"station_id":"","pricing_plan_id":"cebpf4jnsgd1na2vs0mg"},{"bike_id":"96e96dcb-9e16-4287-831f-a786fbe446ab","system_id":"levelo_inurba_marseille","lat":43.319179,"lon":5.407725,"is_reserved":false,"is_disabled":false,"rental_uris":{"android":"levelo://app?vid=96e96dcb-9e16-4287-831f-a786fbe446ab","ios":"levelo://app?vid=96e96dcb-9e16-4287-831f-a786fbe446ab"},"vehicle_type_id":"4","last_reported":1719065297,"current_range_meters":31200,"station_id":"ce4bhq12rcd13ifvqhig","pricing_plan_id":"cebpf4jnsgd1na2vs0mg"},{"bike_id":"3720418d-da95-43ab-883e-5ec4534758a0","system_id":"levelo_inurba_marseille","lat":43.337168,"lon":5.391825,"is_reserved":false,"is_disabled":false,"rental_uris":{"android":"levelo://app?vid=3720418d-da95-43ab-883e-5ec4534758a0","ios":"levelo://app?vid=3720418d-da95-43ab-883e-5ec4534758a0"},"vehicle_type_id":"4","last_reported":1719065297,"current_range_meters":10400,"station_id":"ce4bhr92rcd13ifvqhsg","pricing_plan_id":"cebpf4jnsgd1na2vs0mg"},{"bike_id":"edf69753-5019-4855-9368-d56c882ea8b2","system_id":"levelo_inurba_marseille","lat":43.323464,"lon":5.406297,"is_reserved":false,"is_disabled":false,"rental_uris":{"android":"levelo://app?vid=edf69753-5019-4855-9368-d56c882ea8b2","ios":"levelo://app?vid=edf69753-5019-4855-9368-d56c882ea8b2"},"vehicle_type_id":"4","last_reported":1719065297,"current_range_meters":6800,"station_id":"ce4bhq92rcd13ifvqhjg","pricing_plan_id":"cebpf4jnsgd1na2vs0mg"},{"bike_id":"404a665e-5106-49dc-9725-792a74c363b6","system_id":"levelo_inurba_marseille","lat":43.337168,"lon":5.391825,"is_reserved":false,"is_disabled":false,"rental_uris":{"android":"levelo://app?vid=404a665e-5106-49dc-9725-792a74c363b6","ios":"levelo://app?vid=404a665e-5106-49dc-9725-792a74c363b6"},"vehicle_type_id":"4","last_reported":1719065297,"current_range_meters":16400,"station_id":"ce4bhr92rcd13ifvqhsg","pricing_plan_id":"cebpf4jnsgd1na2vs0mg"},{"bike_id":"d8b17d29-8b4b-4a6a-bada-b477a750ca64","system_id":"levelo_inurba_marseille","lat":43.33717,"lon":5.391857,"is_reserved":false,"is_disabled":false,"rental_uris":{"android":"levelo://app?vid=d8b17d29-8b4b-4a6a-bada-b477a750ca64","ios":"levelo://app?vid=d8b17d29-8b4b-4a6a-bada-b477a750ca64"},"vehicle_type_id":"4","last_reported":1719065297,"current_range_meters":15600,"station_id":"ce4bhr92rcd13ifvqhsg","pricing_plan_id":"cebpf4jnsgd1na2vs0mg"},{"bike_id":"481c8d95-bf5c-4004-9f54-d736ecebd3dc","system_id":"levelo_inurba_marseille","lat":43.28469,"lon":5.38422,"is_reserved":false,"is_disabled":false,"rental_uris":{"android":"levelo://app?vid=481c8d95-bf5c-4004-9f54-d736ecebd3dc","ios":"levelo://app?vid=481c8d95-bf5c-4004-9f54-d736ecebd3dc"},"vehicle_type_id":"4","last_reported":1719065297,"current_range_meters":0,"station_id":"ce4bh512rcd13ifvqe3g","pricing_plan_id":"cebpf4jnsgd1na2vs0mg"},{"bike_id":"57dec321-182a-428a-a6ce-8fe4da20ec1d","system_id":"levelo_inurba_marseille","lat":43.297946,"lon":5.404063,"is_reserved":false,"is_disabled":false,"rental_uris":{"android":"levelo://app?vid=57dec321-182a-428a-a6ce-8fe4da20ec1d","ios":"levelo://app?vid=57dec321-182a-428a-a6ce-8fe4da20ec1d"},"vehicle_type_id":"4","last_reported":1719065297,"current_range_meters":4800,"station_id":"ce4bh112rcd13ifvqd90","pricing_plan_id":"cebpf4jnsgd1na2vs0mg"},{"bike_id":"e8f6f95f-d040-487b-befa-9ebbf93afaa2","system_id":"levelo_inurba_marseille","lat":43.29795,"lon":5.404086,"is_reserved":false,"is_disabled":false,"rental_uris":{"android":"levelo://app?vid=e8f6f95f-d040-487b-befa-9ebbf93afaa2","ios":"levelo://app?vid=e8f6f95f-d040-487b-befa-9ebbf93afaa2"},"vehicle_type_id":"4","last_reported":1719065297,"current_range_meters":13200,"station_id":"ce4bh112rcd13ifvqd90","pricing_plan_id":"cebpf4jnsgd1na2vs0mg"},{"bike_id":"cf87c052-0999-4cf7-b07b-5c35afaabe81","system_id":"levelo_inurba_marseille","lat":43.283494,"lon":5.380945,"is_reserved":false,"is_disabled":false,"rental_uris":{"android":"levelo://app?vid=cf87c052-0999-4cf7-b07b-5c35afaabe81","ios":"levelo://app?vid=cf87c052-0999-4cf7-b07b-5c35afaabe81"},"vehicle_type_id":"4","last_reported":1719065297,"current_range_meters":18800,"station_id":"ce4bh412rcd13ifvqdr0","pricing_plan_id":"cebpf4jnsgd1na2vs0mg"},{"bike_id":"ebd01647-4578-409a-83c8-fb943fbbef1f","system_id":"levelo_inurba_marseille","lat":43.284776,"lon":5.385603,"is_reserved":false,"is_disabled":false,"rental_uris":{"android":"levelo://app?vid=ebd01647-4578-409a-83c8-fb943fbbef1f","ios":"levelo://app?vid=ebd01647-4578-409a-83c8-fb943fbbef1f"},"vehicle_type_id":"4","last_reported":1719065297,"current_range_meters":0,"station_id":"ce4bh8p2rcd13ifvqeb0","pricing_plan_id":"cebpf4jnsgd1na2vs0mg"},{"bike_id":"d643b892-ce3d-4629-b38b-da8bed136115","system_id":"levelo_inurba_marseille","lat":43.288497,"lon":5.393089,"is_reserved":false,"is_disabled":false,"rental_uris":{"android":"levelo://app?vid=d643b892-ce3d-4629-b38b-da8bed136115","ios":"levelo://app?vid=d643b892-ce3d-4629-b38b-da8bed136115"},"vehicle_type_id":"4","last_reported":1719065297,"current_range_meters":2800,"station_id":"ce4bh2p2rcd13ifvqdi0","pricing_plan_id":"cebpf4jnsgd1na2vs0mg"},{"bike_id":"d18abd4f-a7f1-406b-8157-fdb402ed63a2","system_id":"levelo_inurba_marseille","lat":43.28847,"lon":5.39328,"is_reserved":false,"is_disabled":false,"rental_uris":{"android":"levelo://app?vid=d18abd4f-a7f1-406b-8157-fdb402ed63a2","ios":"levelo://app?vid=d18abd4f-a7f1-406b-8157-fdb402ed63a2"},"vehicle_type_id":"4","last_reported":1719065297,"current_range_meters":0,"station_id":"ce4bh2p2rcd13ifvqdi0","pricing_plan_id":"cebpf4jnsgd1na2vs0mg"},{"bike_id":"f7f0042d-e9c6-437b-a1f3-30b9290c7280","system_id":"levelo_inurba_marseille","lat":43.283494,"lon":5.380945,"is_reserved":false,"is_disabled":false,"rental_uris":{"android":"levelo://app?vid=f7f0042d-e9c6-437b-a1f3-30b9290c7280","ios":"levelo://app?vid=f7f0042d-e9c6-437b-a1f3-30b9290c7280"},"vehicle_type_id":"4","last_reported":1719065297,"current_range_meters":3200,"station_id":"ce4bh412rcd13ifvqdr0","pricing_plan_id":"cebpf4jnsgd1na2vs0mg"},{"bike_id":"36da940f-fb48-4ec1-b0f7-67c753e300af","system_id":"levelo_inurba_marseille","lat":43.284219,"lon":5.3497,"is_reserved":false,"is_disabled":false,"rental_uris":{"android":"levelo://app?vid=36da940f-fb48-4ec1-b0f7-67c753e300af","ios":"levelo://app?vid=36da940f-fb48-4ec1-b0f7-67c753e300af"},"vehicle_type_id":"4","last_reported":1719065297,"current_range_meters":31200,"station_id":"ce4bhbh2rcd13ifvqepg","pricing_plan_id":"cebpf4jnsgd1na2vs0mg"},{"bike_id":"233d35a0-9fe4-40ca-ae96-2f3b045492f7","system_id":"levelo_inurba_marseille","lat":43.283498,"lon":5.380948,"is_reserved":false,"is_disabled":false,"rental_uris":{"android":"levelo://app?vid=233d35a0-9fe4-40ca-ae96-2f3b045492f7","ios":"levelo://app?vid=233d35a0-9fe4-40ca-ae96-2f3b045492f7"},"vehicle_type_id":"4","last_reported":1719065297,"current_range_meters":0,"station_id":"ce4bh412rcd13ifvqdr0","pricing_plan_id":"cebpf4jnsgd1na2vs0mg"},{"bike_id":"35609a37-a38a-4a91-9f91-96cd104e50ce","system_id":"levelo_inurba_marseille","lat":43.28457,"lon":5.38478,"is_reserved":false,"is_disabled":false,"rental_uris":{"android":"levelo://app?vid=35609a37-a38a-4a91-9f91-96cd104e50ce","ios":"levelo://app?vid=35609a37-a38a-4a91-9f91-96cd104e50ce"},"vehicle_type_id":"4","last_reported":1719065297,"current_range_meters":26800,"station_id":"","pricing_plan_id":"cebpf4jnsgd1na2vs0mg"},{"bike_id":"b82c05ff-c9f1-44eb-b55a-b191abf53ddf","system_id":"levelo_inurba_marseille","lat":43.284292,"lon":5.349924,"is_reserved":false,"is_disabled":false,"rental_uris":{"android":"levelo://app?vid=b82c05ff-c9f1-44eb-b55a-b191abf53ddf","ios":"levelo://app?vid=b82c05ff-c9f1-44eb-b55a-b191abf53ddf"},"vehicle_type_id":"4","last_reported":1719065297,"current_range_meters":23600,"station_id":"ce4bhbh2rcd13ifvqepg","pricing_plan_id":"cebpf4jnsgd1na2vs0mg"},{"bike_id":"138582a4-5b51-405e-8998-6ddaf705d26e","system_id":"levelo_inurba_marseille","lat":43.284219,"lon":5.3497,"is_reserved":false,"is_disabled":false,"rental_uris":{"android":"levelo://app?vid=138582a4-5b51-405e-8998-6ddaf705d26e","ios":"levelo://app?vid=138582a4-5b51-405e-8998-6ddaf705d26e"},"vehicle_type_id":"4","last_reported":1719065297,"current_range_meters":10400,"station_id":"ce4bhbh2rcd13ifvqepg","pricing_plan_id":"cebpf4jnsgd1na2vs0mg"},{"bike_id":"f68ca45f-460a-4ea5-bb3e-249f6c0c949e","system_id":"levelo_inurba_marseille","lat":43.284776,"lon":5.385603,"is_reserved":false,"is_disabled":false,"rental_uris":{"android":"levelo://app?vid=f68ca45f-460a-4ea5-bb3e-249f6c0c949e","ios":"levelo://app?vid=f68ca45f-460a-4ea5-bb3e-249f6c0c949e"},"vehicle_type_id":"4","last_reported":1719065297,"current_range_meters":12400,"station_id":"ce4bh8p2rcd13ifvqeb0","pricing_plan_id":"cebpf4jnsgd1na2vs0mg"},{"bike_id":"f8efe56d-8889-4ff7-b652-870beb489920","system_id":"levelo_inurba_marseille","lat":43.28427,"lon":5.34988,"is_reserved":false,"is_disabled":false,"rental_uris":{"android":"levelo://app?vid=f8efe56d-8889-4ff7-b652-870beb489920","ios":"levelo://app?vid=f8efe56d-8889-4ff7-b652-870beb489920"},"vehicle_type_id":"4","last_reported":1719065297,"current_range_meters":12400,"station_id":"ce4bhbh2rcd13ifvqepg","pricing_plan_id":"cebpf4jnsgd1na2vs0mg"},{"bike_id":"efb081cb-25e3-40a3-b1de-3782a753cec9","system_id":"levelo_inurba_marseille","lat":43.28426,"lon":5.349874,"is_reserved":false,"is_disabled":false,"rental_uris":{"android":"levelo://app?vid=efb081cb-25e3-40a3-b1de-3782a753cec9","ios":"levelo://app?vid=efb081cb-25e3-40a3-b1de-3782a753cec9"},"vehicle_type_id":"4","last_reported":1719065297,"current_range_meters":13600,"station_id":"ce4bhbh2rcd13ifvqepg","pricing_plan_id":"cebpf4jnsgd1na2vs0mg"},{"bike_id":"81266079-914c-4946-90c1-03f2ffd779f2","system_id":"levelo_inurba_marseille","lat":43.284217,"lon":5.349697,"is_reserved":false,"is_disabled":false,"rental_uris":{"android":"levelo://app?vid=81266079-914c-4946-90c1-03f2ffd779f2","ios":"levelo://app?vid=81266079-914c-4946-90c1-03f2ffd779f2"},"vehicle_type_id":"4","last_reported":1719065297,"current_range_meters":31200,"station_id":"ce4bhbh2rcd13ifvqepg","pricing_plan_id":"cebpf4jnsgd1na2vs0mg"},{"bike_id":"8c2e4777-1286-4e7d-bca1-673d1c9c4d97","system_id":"levelo_inurba_marseille","lat":43.28425,"lon":5.3499,"is_reserved":false,"is_disabled":false,"rental_uris":{"android":"levelo://app?vid=8c2e4777-1286-4e7d-bca1-673d1c9c4d97","ios":"levelo://app?vid=8c2e4777-1286-4e7d-bca1-673d1c9c4d97"},"vehicle_type_id":"4","last_reported":1719065297,"current_range_meters":16800,"station_id":"ce4bhbh2rcd13ifvqepg","pricing_plan_id":"cebpf4jnsgd1na2vs0mg"},{"bike_id":"61018472-8e78-4daf-9d49-84887d9c9a03","system_id":"levelo_inurba_marseille","lat":43.284217,"lon":5.349697,"is_reserved":false,"is_disabled":false,"rental_uris":{"android":"levelo://app?vid=61018472-8e78-4daf-9d49-84887d9c9a03","ios":"levelo://app?vid=61018472-8e78-4daf-9d49-84887d9c9a03"},"vehicle_type_id":"4","last_reported":1719065297,"current_range_meters":22400,"station_id":"ce4bhbh2rcd13ifvqepg","pricing_plan_id":"cebpf4jnsgd1na2vs0mg"},{"bike_id":"37128c58-8291-42b2-9f89-6426a48f6ebf","system_id":"levelo_inurba_marseille","lat":43.28423,"lon":5.34991,"is_reserved":false,"is_disabled":false,"rental_uris":{"android":"levelo://app?vid=37128c58-8291-42b2-9f89-6426a48f6ebf","ios":"levelo://app?vid=37128c58-8291-42b2-9f89-6426a48f6ebf"},"vehicle_type_id":"4","last_reported":1719065297,"current_range_meters":5600,"station_id":"ce4bhbh2rcd13ifvqepg","pricing_plan_id":"cebpf4jnsgd1na2vs0mg"},{"bike_id":"1a0065ba-7b10-46fe-94e1-6f33100eba31","system_id":"levelo_inurba_marseille","lat":43.28424,"lon":5.34987,"is_reserved":false,"is_disabled":false,"rental_uris":{"android":"levelo://app?vid=1a0065ba-7b10-46fe-94e1-6f33100eba31","ios":"levelo://app?vid=1a0065ba-7b10-46fe-94e1-6f33100eba31"},"vehicle_type_id":"4","last_reported":1719065297,"current_range_meters":18400,"station_id":"ce4bhbh2rcd13ifvqepg","pricing_plan_id":"cebpf4jnsgd1na2vs0mg"},{"bike_id":"21087f0b-c76c-4ae6-8862-9b7e4119c534","system_id":"levelo_inurba_marseille","lat":43.284217,"lon":5.349697,"is_reserved":false,"is_disabled":false,"rental_uris":{"android":"levelo://app?vid=21087f0b-c76c-4ae6-8862-9b7e4119c534","ios":"levelo://app?vid=21087f0b-c76c-4ae6-8862-9b7e4119c534"},"vehicle_type_id":"4","last_reported":1719065297,"current_range_meters":31200,"station_id":"ce4bhbh2rcd13ifvqepg","pricing_plan_id":"cebpf4jnsgd1na2vs0mg"},{"bike_id":"fc6fe18f-327f-41b1-9f09-38873f734560","system_id":"levelo_inurba_marseille","lat":43.284217,"lon":5.349697,"is_reserved":false,"is_disabled":false,"rental_uris":{"android":"levelo://app?vid=fc6fe18f-327f-41b1-9f09-38873f734560","ios":"levelo://app?vid=fc6fe18f-327f-41b1-9f09-38873f734560"},"vehicle_type_id":"4","last_reported":1719065297,"current_range_meters":25200,"station_id":"ce4bhbh2rcd13ifvqepg","pricing_plan_id":"cebpf4jnsgd1na2vs0mg"},{"bike_id":"368ecf0d-825a-4169-a503-4c050e9f2f47","system_id":"levelo_inurba_marseille","lat":43.28427,"lon":5.34975,"is_reserved":false,"is_disabled":false,"rental_uris":{"android":"levelo://app?vid=368ecf0d-825a-4169-a503-4c050e9f2f47","ios":"levelo://app?vid=368ecf0d-825a-4169-a503-4c050e9f2f47"},"vehicle_type_id":"4","last_reported":1719065297,"current_range_meters":7600,"station_id":"ce4bhbh2rcd13ifvqepg","pricing_plan_id":"cebpf4jnsgd1na2vs0mg"},{"bike_id":"be23b04d-d718-4304-ab5c-134d4737490f","system_id":"levelo_inurba_marseille","lat":43.28423,"lon":5.34987,"is_reserved":false,"is_disabled":false,"rental_uris":{"android":"levelo://app?vid=be23b04d-d718-4304-ab5c-134d4737490f","ios":"levelo://app?vid=be23b04d-d718-4304-ab5c-134d4737490f"},"vehicle_type_id":"4","last_reported":1719065297,"current_range_meters":20000,"station_id":"ce4bhbh2rcd13ifvqepg","pricing_plan_id":"cebpf4jnsgd1na2vs0mg"},{"bike_id":"9e729c20-c545-4727-853c-e27993e7ddc3","system_id":"levelo_inurba_marseille","lat":43.284217,"lon":5.349697,"is_reserved":false,"is_disabled":false,"rental_uris":{"android":"levelo://app?vid=9e729c20-c545-4727-853c-e27993e7ddc3","ios":"levelo://app?vid=9e729c20-c545-4727-853c-e27993e7ddc3"},"vehicle_type_id":"4","last_reported":1719065297,"current_range_meters":23600,"station_id":"ce4bhbh2rcd13ifvqepg","pricing_plan_id":"cebpf4jnsgd1na2vs0mg"},{"bike_id":"b99f8962-9dcd-4854-9d88-27584e0f5681","system_id":"levelo_inurba_marseille","lat":43.284217,"lon":5.349697,"is_reserved":false,"is_disabled":false,"rental_uris":{"android":"levelo://app?vid=b99f8962-9dcd-4854-9d88-27584e0f5681","ios":"levelo://app?vid=b99f8962-9dcd-4854-9d88-27584e0f5681"},"vehicle_type_id":"4","last_reported":1719065297,"current_range_meters":10400,"station_id":"ce4bhbh2rcd13ifvqepg","pricing_plan_id":"cebpf4jnsgd1na2vs0mg"},{"bike_id":"394d53cf-d023-4cdd-8c37-e40bf710ace7","system_id":"levelo_inurba_marseille","lat":43.284208,"lon":5.349898,"is_reserved":false,"is_disabled":false,"rental_uris":{"android":"levelo://app?vid=394d53cf-d023-4cdd-8c37-e40bf710ace7","ios":"levelo://app?vid=394d53cf-d023-4cdd-8c37-e40bf710ace7"},"vehicle_type_id":"4","last_reported":1719065297,"current_range_meters":31200,"station_id":"ce4bhbh2rcd13ifvqepg","pricing_plan_id":"cebpf4jnsgd1na2vs0mg"},{"bike_id":"ba7fe97c-c1f2-4fc0-ae85-eb510d970a28","system_id":"levelo_inurba_marseille","lat":43.284233,"lon":5.349813,"is_reserved":false,"is_disabled":false,"rental_uris":{"android":"levelo://app?vid=ba7fe97c-c1f2-4fc0-ae85-eb510d970a28","ios":"levelo://app?vid=ba7fe97c-c1f2-4fc0-ae85-eb510d970a28"},"vehicle_type_id":"4","last_reported":1719065297,"current_range_meters":13200,"station_id":"ce4bhbh2rcd13ifvqepg","pricing_plan_id":"cebpf4jnsgd1na2vs0mg"},{"bike_id":"edabd08b-0878-4151-969b-869a0968a9ee","system_id":"levelo_inurba_marseille","lat":43.284214,"lon":5.349706,"is_reserved":false,"is_disabled":false,"rental_uris":{"android":"levelo://app?vid=edabd08b-0878-4151-969b-869a0968a9ee","ios":"levelo://app?vid=edabd08b-0878-4151-969b-869a0968a9ee"},"vehicle_type_id":"4","last_reported":1719065297,"current_range_meters":12800,"station_id":"ce4bhbh2rcd13ifvqepg","pricing_plan_id":"cebpf4jnsgd1na2vs0mg"},{"bike_id":"c4863644-6fe6-4a0c-a50f-a261a340db86","system_id":"levelo_inurba_marseille","lat":43.28421,"lon":5.34985,"is_reserved":false,"is_disabled":false,"rental_uris":{"android":"levelo://app?vid=c4863644-6fe6-4a0c-a50f-a261a340db86","ios":"levelo://app?vid=c4863644-6fe6-4a0c-a50f-a261a340db86"},"vehicle_type_id":"4","last_reported":1719065297,"current_range_meters":6800,"station_id":"ce4bhbh2rcd13ifvqepg","pricing_plan_id":"cebpf4jnsgd1na2vs0mg"},{"bike_id":"765f0d88-f5da-4130-862a-e4b66ce61267","system_id":"levelo_inurba_marseille","lat":43.284217,"lon":5.349697,"is_reserved":false,"is_disabled":false,"rental_uris":{"android":"levelo://app?vid=765f0d88-f5da-4130-862a-e4b66ce61267","ios":"levelo://app?vid=765f0d88-f5da-4130-862a-e4b66ce61267"},"vehicle_type_id":"4","last_reported":1719065297,"current_range_meters":23200,"station_id":"ce4bhbh2rcd13ifvqepg","pricing_plan_id":"cebpf4jnsgd1na2vs0mg"},{"bike_id":"4bab2c7b-9020-40f9-a78b-ec964503fedb","system_id":"levelo_inurba_marseille","lat":43.28421,"lon":5.34984,"is_reserved":false,"is_disabled":false,"rental_uris":{"android":"levelo://app?vid=4bab2c7b-9020-40f9-a78b-ec964503fedb","ios":"levelo://app?vid=4bab2c7b-9020-40f9-a78b-ec964503fedb"},"vehicle_type_id":"4","last_reported":1719065297,"current_range_meters":28800,"station_id":"ce4bhbh2rcd13ifvqepg","pricing_plan_id":"cebpf4jnsgd1na2vs0mg"},{"bike_id":"663cd0c4-98d5-4647-8445-cbf0e9fbe390","system_id":"levelo_inurba_marseille","lat":43.284186,"lon":5.349913,"is_reserved":false,"is_disabled":false,"rental_uris":{"android":"levelo://app?vid=663cd0c4-98d5-4647-8445-cbf0e9fbe390","ios":"levelo://app?vid=663cd0c4-98d5-4647-8445-cbf0e9fbe390"},"vehicle_type_id":"4","last_reported":1719065297,"current_range_meters":20800,"station_id":"ce4bhbh2rcd13ifvqepg","pricing_plan_id":"cebpf4jnsgd1na2vs0mg"},{"bike_id":"f5580ab5-126c-4753-9128-c0aa51fd8145","system_id":"levelo_inurba_marseille","lat":43.28423,"lon":5.34977,"is_reserved":false,"is_disabled":false,"rental_uris":{"android":"levelo://app?vid=f5580ab5-126c-4753-9128-c0aa51fd8145","ios":"levelo://app?vid=f5580ab5-126c-4753-9128-c0aa51fd8145"},"vehicle_type_id":"4","last_reported":1719065297,"current_range_meters":9200,"station_id":"ce4bhbh2rcd13ifvqepg","pricing_plan_id":"cebpf4jnsgd1na2vs0mg"},{"bike_id":"b1b5f420-5c34-49f4-8726-cb97338e9075","system_id":"levelo_inurba_marseille","lat":43.284226,"lon":5.349746,"is_reserved":false,"is_disabled":false,"rental_uris":{"android":"levelo://app?vid=b1b5f420-5c34-49f4-8726-cb97338e9075","ios":"levelo://app?vid=b1b5f420-5c34-49f4-8726-cb97338e9075"},"vehicle_type_id":"4","last_reported":1719065297,"current_range_meters":31200,"station_id":"ce4bhbh2rcd13ifvqepg","pricing_plan_id":"cebpf4jnsgd1na2vs0mg"},{"bike_id":"fba41aab-424b-417b-bf63-fc2cc05351de","system_id":"levelo_inurba_marseille","lat":43.284217,"lon":5.349697,"is_reserved":false,"is_disabled":false,"rental_uris":{"android":"levelo://app?vid=fba41aab-424b-417b-bf63-fc2cc05351de","ios":"levelo://app?vid=fba41aab-424b-417b-bf63-fc2cc05351de"},"vehicle_type_id":"4","last_reported":1719065297,"current_range_meters":17600,"station_id":"ce4bhbh2rcd13ifvqepg","pricing_plan_id":"cebpf4jnsgd1na2vs0mg"},{"bike_id":"8365abc9-a811-4403-90dd-e1240678de25","system_id":"levelo_inurba_marseille","lat":43.28415,"lon":5.34995,"is_reserved":false,"is_disabled":false,"rental_uris":{"android":"levelo://app?vid=8365abc9-a811-4403-90dd-e1240678de25","ios":"levelo://app?vid=8365abc9-a811-4403-90dd-e1240678de25"},"vehicle_type_id":"4","last_reported":1719065297,"current_range_meters":21200,"station_id":"ce4bhbh2rcd13ifvqepg","pricing_plan_id":"cebpf4jnsgd1na2vs0mg"},{"bike_id":"73e58f7c-0aab-4a97-b01c-b50c7846e419","system_id":"levelo_inurba_marseille","lat":43.284217,"lon":5.349697,"is_reserved":false,"is_disabled":false,"rental_uris":{"android":"levelo://app?vid=73e58f7c-0aab-4a97-b01c-b50c7846e419","ios":"levelo://app?vid=73e58f7c-0aab-4a97-b01c-b50c7846e419"},"vehicle_type_id":"4","last_reported":1719065297,"current_range_meters":27200,"station_id":"ce4bhbh2rcd13ifvqepg","pricing_plan_id":"cebpf4jnsgd1na2vs0mg"},{"bike_id":"0201d1b4-fb23-46e9-9904-e162be3c532f","system_id":"levelo_inurba_marseille","lat":43.28423,"lon":5.34968,"is_reserved":false,"is_disabled":false,"rental_uris":{"android":"levelo://app?vid=0201d1b4-fb23-46e9-9904-e162be3c532f","ios":"levelo://app?vid=0201d1b4-fb23-46e9-9904-e162be3c532f"},"vehicle_type_id":"4","last_reported":1719065297,"current_range_meters":10000,"station_id":"ce4bhbh2rcd13ifvqepg","pricing_plan_id":"cebpf4jnsgd1na2vs0mg"},{"bike_id":"61ee6167-2ec1-4743-9da7-14d2dadc194c","system_id":"levelo_inurba_marseille","lat":43.284217,"lon":5.349697,"is_reserved":false,"is_disabled":false,"rental_uris":{"android":"levelo://app?vid=61ee6167-2ec1-4743-9da7-14d2dadc194c","ios":"levelo://app?vid=61ee6167-2ec1-4743-9da7-14d2dadc194c"},"vehicle_type_id":"4","last_reported":1719065297,"current_range_meters":0,"station_id":"ce4bhbh2rcd13ifvqepg","pricing_plan_id":"cebpf4jnsgd1na2vs0mg"},{"bike_id":"1253fbdd-a91e-430b-8609-0c8220fcce59","system_id":"levelo_inurba_marseille","lat":43.2842,"lon":5.34973,"is_reserved":false,"is_disabled":false,"rental_uris":{"android":"levelo://app?vid=1253fbdd-a91e-430b-8609-0c8220fcce59","ios":"levelo://app?vid=1253fbdd-a91e-430b-8609-0c8220fcce59"},"vehicle_type_id":"4","last_reported":1719065297,"current_range_meters":24400,"station_id":"ce4bhbh2rcd13ifvqepg","pricing_plan_id":"cebpf4jnsgd1na2vs0mg"},{"bike_id":"8b684a05-64f8-4ce5-a6b2-678f089fd468","system_id":"levelo_inurba_marseille","lat":43.28413,"lon":5.34993,"is_reserved":false,"is_disabled":false,"rental_uris":{"android":"levelo://app?vid=8b684a05-64f8-4ce5-a6b2-678f089fd468","ios":"levelo://app?vid=8b684a05-64f8-4ce5-a6b2-678f089fd468"},"vehicle_type_id":"4","last_reported":1719065297,"current_range_meters":28000,"station_id":"ce4bhbh2rcd13ifvqepg","pricing_plan_id":"cebpf4jnsgd1na2vs0mg"},{"bike_id":"a48d8b50-50da-41e0-bba5-f357c404ad9d","system_id":"levelo_inurba_marseille","lat":43.28414,"lon":5.34986,"is_reserved":false,"is_disabled":false,"rental_uris":{"android":"levelo://app?vid=a48d8b50-50da-41e0-bba5-f357c404ad9d","ios":"levelo://app?vid=a48d8b50-50da-41e0-bba5-f357c404ad9d"},"vehicle_type_id":"4","last_reported":1719065297,"current_range_meters":22400,"station_id":"ce4bhbh2rcd13ifvqepg","pricing_plan_id":"cebpf4jnsgd1na2vs0mg"},{"bike_id":"618c8864-e515-41f6-8312-16cc450e15ba","system_id":"levelo_inurba_marseille","lat":43.284217,"lon":5.349697,"is_reserved":false,"is_disabled":false,"rental_uris":{"android":"levelo://app?vid=618c8864-e515-41f6-8312-16cc450e15ba","ios":"levelo://app?vid=618c8864-e515-41f6-8312-16cc450e15ba"},"vehicle_type_id":"4","last_reported":1719065297,"current_range_meters":18800,"station_id":"ce4bhbh2rcd13ifvqepg","pricing_plan_id":"cebpf4jnsgd1na2vs0mg"},{"bike_id":"3a4f75ff-a93c-4114-917d-26844776163e","system_id":"levelo_inurba_marseille","lat":43.284217,"lon":5.349697,"is_reserved":false,"is_disabled":false,"rental_uris":{"android":"levelo://app?vid=3a4f75ff-a93c-4114-917d-26844776163e","ios":"levelo://app?vid=3a4f75ff-a93c-4114-917d-26844776163e"},"vehicle_type_id":"4","last_reported":1719065297,"current_range_meters":8400,"station_id":"ce4bhbh2rcd13ifvqepg","pricing_plan_id":"cebpf4jnsgd1na2vs0mg"},{"bike_id":"dc730b6f-e4bf-441b-bfc2-b98a8ce55e6f","system_id":"levelo_inurba_marseille","lat":43.28411,"lon":5.34986,"is_reserved":false,"is_disabled":false,"rental_uris":{"android":"levelo://app?vid=dc730b6f-e4bf-441b-bfc2-b98a8ce55e6f","ios":"levelo://app?vid=dc730b6f-e4bf-441b-bfc2-b98a8ce55e6f"},"vehicle_type_id":"4","last_reported":1719065297,"current_range_meters":18000,"station_id":"ce4bhbh2rcd13ifvqepg","pricing_plan_id":"cebpf4jnsgd1na2vs0mg"},{"bike_id":"dc534a6e-d756-45d4-8437-0dfdc2e4476a","system_id":"levelo_inurba_marseille","lat":43.28405,"lon":5.34991,"is_reserved":false,"is_disabled":false,"rental_uris":{"android":"levelo://app?vid=dc534a6e-d756-45d4-8437-0dfdc2e4476a","ios":"levelo://app?vid=dc534a6e-d756-45d4-8437-0dfdc2e4476a"},"vehicle_type_id":"4","last_reported":1719065297,"current_range_meters":4000,"station_id":"ce4bhbh2rcd13ifvqepg","pricing_plan_id":"cebpf4jnsgd1na2vs0mg"},{"bike_id":"6ee76bc2-e9f4-4f92-8a02-afe788714be2","system_id":"levelo_inurba_marseille","lat":43.28402,"lon":5.34977,"is_reserved":false,"is_disabled":false,"rental_uris":{"android":"levelo://app?vid=6ee76bc2-e9f4-4f92-8a02-afe788714be2","ios":"levelo://app?vid=6ee76bc2-e9f4-4f92-8a02-afe788714be2"},"vehicle_type_id":"4","last_reported":1719065297,"current_range_meters":5200,"station_id":"ce4bhbh2rcd13ifvqepg","pricing_plan_id":"cebpf4jnsgd1na2vs0mg"},{"bike_id":"4f6561ab-51a8-4c31-b394-e57f95da1b26","system_id":"levelo_inurba_marseille","lat":43.283936,"lon":5.349926,"is_reserved":false,"is_disabled":false,"rental_uris":{"android":"levelo://app?vid=4f6561ab-51a8-4c31-b394-e57f95da1b26","ios":"levelo://app?vid=4f6561ab-51a8-4c31-b394-e57f95da1b26"},"vehicle_type_id":"4","last_reported":1719065297,"current_range_meters":25600,"station_id":"ce4bhbh2rcd13ifvqepg","pricing_plan_id":"cebpf4jnsgd1na2vs0mg"},{"bike_id":"7b796d88-33ee-498a-b1cb-0413fff72a4c","system_id":"levelo_inurba_marseille","lat":43.28318,"lon":5.35049,"is_reserved":false,"is_disabled":false,"rental_uris":{"android":"levelo://app?vid=7b796d88-33ee-498a-b1cb-0413fff72a4c","ios":"levelo://app?vid=7b796d88-33ee-498a-b1cb-0413fff72a4c"},"vehicle_type_id":"4","last_reported":1719065297,"current_range_meters":19200,"station_id":"ce4bhbh2rcd13ifvqepg","pricing_plan_id":"cebpf4jnsgd1na2vs0mg"},{"bike_id":"37cff0e5-3ee5-4b4b-ade4-c7bf9928c96c","system_id":"levelo_inurba_marseille","lat":43.282845,"lon":5.350763,"is_reserved":false,"is_disabled":false,"rental_uris":{"android":"levelo://app?vid=37cff0e5-3ee5-4b4b-ade4-c7bf9928c96c","ios":"levelo://app?vid=37cff0e5-3ee5-4b4b-ade4-c7bf9928c96c"},"vehicle_type_id":"4","last_reported":1719065297,"current_range_meters":17200,"station_id":"ce4bhbp2rcd13ifvqerg","pricing_plan_id":"cebpf4jnsgd1na2vs0mg"},{"bike_id":"e42a37c2-8022-4cd3-a460-9284b51afc73","system_id":"levelo_inurba_marseille","lat":43.290412,"lon":5.399633,"is_reserved":false,"is_disabled":false,"rental_uris":{"android":"levelo://app?vid=e42a37c2-8022-4cd3-a460-9284b51afc73","ios":"levelo://app?vid=e42a37c2-8022-4cd3-a460-9284b51afc73"},"vehicle_type_id":"4","last_reported":1719065297,"current_range_meters":4800,"station_id":"ce4bh392rcd13ifvqdm0","pricing_plan_id":"cebpf4jnsgd1na2vs0mg"},{"bike_id":"5d5ca801-0b3f-4f71-9cfc-cdf13df3f489","system_id":"levelo_inurba_marseille","lat":43.282828,"lon":5.350697,"is_reserved":false,"is_disabled":false,"rental_uris":{"android":"levelo://app?vid=5d5ca801-0b3f-4f71-9cfc-cdf13df3f489","ios":"levelo://app?vid=5d5ca801-0b3f-4f71-9cfc-cdf13df3f489"},"vehicle_type_id":"4","last_reported":1719065297,"current_range_meters":14800,"station_id":"ce4bhbp2rcd13ifvqerg","pricing_plan_id":"cebpf4jnsgd1na2vs0mg"},{"bike_id":"1351961f-49a6-4d5f-afa0-984f45d8f278","system_id":"levelo_inurba_marseille","lat":43.282754,"lon":5.350519,"is_reserved":false,"is_disabled":false,"rental_uris":{"android":"levelo://app?vid=1351961f-49a6-4d5f-afa0-984f45d8f278","ios":"levelo://app?vid=1351961f-49a6-4d5f-afa0-984f45d8f278"},"vehicle_type_id":"4","last_reported":1719065297,"current_range_meters":23600,"station_id":"ce4bhbp2rcd13ifvqerg","pricing_plan_id":"cebpf4jnsgd1na2vs0mg"},{"bike_id":"806a2a17-092f-4e1e-8afa-33e5a9d48cb6","system_id":"levelo_inurba_marseille","lat":43.282754,"lon":5.350519,"is_reserved":false,"is_disabled":false,"rental_uris":{"android":"levelo://app?vid=806a2a17-092f-4e1e-8afa-33e5a9d48cb6","ios":"levelo://app?vid=806a2a17-092f-4e1e-8afa-33e5a9d48cb6"},"vehicle_type_id":"4","last_reported":1719065297,"current_range_meters":16400,"station_id":"ce4bhbp2rcd13ifvqerg","pricing_plan_id":"cebpf4jnsgd1na2vs0mg"},{"bike_id":"9651548c-8faa-43d5-9f2b-823108495a23","system_id":"levelo_inurba_marseille","lat":43.282754,"lon":5.350519,"is_reserved":false,"is_disabled":false,"rental_uris":{"android":"levelo://app?vid=9651548c-8faa-43d5-9f2b-823108495a23","ios":"levelo://app?vid=9651548c-8faa-43d5-9f2b-823108495a23"},"vehicle_type_id":"4","last_reported":1719065297,"current_range_meters":23600,"station_id":"ce4bhbp2rcd13ifvqerg","pricing_plan_id":"cebpf4jnsgd1na2vs0mg"},{"bike_id":"107ad678-83a4-454e-b702-f2bfd348dd76","system_id":"levelo_inurba_marseille","lat":43.282754,"lon":5.350519,"is_reserved":false,"is_disabled":false,"rental_uris":{"android":"levelo://app?vid=107ad678-83a4-454e-b702-f2bfd348dd76","ios":"levelo://app?vid=107ad678-83a4-454e-b702-f2bfd348dd76"},"vehicle_type_id":"4","last_reported":1719065297,"current_range_meters":31200,"station_id":"ce4bhbp2rcd13ifvqerg","pricing_plan_id":"cebpf4jnsgd1na2vs0mg"},{"bike_id":"5328c780-6190-4fcc-b5fa-d1bc16904448","system_id":"levelo_inurba_marseille","lat":43.28273,"lon":5.35066,"is_reserved":false,"is_disabled":false,"rental_uris":{"android":"levelo://app?vid=5328c780-6190-4fcc-b5fa-d1bc16904448","ios":"levelo://app?vid=5328c780-6190-4fcc-b5fa-d1bc16904448"},"vehicle_type_id":"4","last_reported":1719065297,"current_range_meters":5600,"station_id":"ce4bhbp2rcd13ifvqerg","pricing_plan_id":"cebpf4jnsgd1na2vs0mg"},{"bike_id":"db0a514f-d346-41ac-bb87-5527531dd2a9","system_id":"levelo_inurba_marseille","lat":43.282712,"lon":5.35071,"is_reserved":false,"is_disabled":false,"rental_uris":{"android":"levelo://app?vid=db0a514f-d346-41ac-bb87-5527531dd2a9","ios":"levelo://app?vid=db0a514f-d346-41ac-bb87-5527531dd2a9"},"vehicle_type_id":"4","last_reported":1719065297,"current_range_meters":15200,"station_id":"ce4bhbp2rcd13ifvqerg","pricing_plan_id":"cebpf4jnsgd1na2vs0mg"},{"bike_id":"a1f06911-e0d0-45ad-94f5-268e663530db","system_id":"levelo_inurba_marseille","lat":43.282754,"lon":5.350519,"is_reserved":false,"is_disabled":false,"rental_uris":{"android":"levelo://app?vid=a1f06911-e0d0-45ad-94f5-268e663530db","ios":"levelo://app?vid=a1f06911-e0d0-45ad-94f5-268e663530db"},"vehicle_type_id":"4","last_reported":1719065297,"current_range_meters":24800,"station_id":"ce4bhbp2rcd13ifvqerg","pricing_plan_id":"cebpf4jnsgd1na2vs0mg"},{"bike_id":"fb44277d-27d3-4298-95ca-53ae2073c906","system_id":"levelo_inurba_marseille","lat":43.28268,"lon":5.35081,"is_reserved":false,"is_disabled":false,"rental_uris":{"android":"levelo://app?vid=fb44277d-27d3-4298-95ca-53ae2073c906","ios":"levelo://app?vid=fb44277d-27d3-4298-95ca-53ae2073c906"},"vehicle_type_id":"4","last_reported":1719065297,"current_range_meters":18800,"station_id":"ce4bhbp2rcd13ifvqerg","pricing_plan_id":"cebpf4jnsgd1na2vs0mg"},{"bike_id":"350931c8-a64c-47f9-9fb2-2a999473d6cc","system_id":"levelo_inurba_marseille","lat":43.282754,"lon":5.350519,"is_reserved":false,"is_disabled":false,"rental_uris":{"android":"levelo://app?vid=350931c8-a64c-47f9-9fb2-2a999473d6cc","ios":"levelo://app?vid=350931c8-a64c-47f9-9fb2-2a999473d6cc"},"vehicle_type_id":"4","last_reported":1719065297,"current_range_meters":22800,"station_id":"ce4bhbp2rcd13ifvqerg","pricing_plan_id":"cebpf4jnsgd1na2vs0mg"},{"bike_id":"e9eff68d-cb2f-4089-93fc-717906a18601","system_id":"levelo_inurba_marseille","lat":43.2827,"lon":5.35073,"is_reserved":false,"is_disabled":false,"rental_uris":{"android":"levelo://app?vid=e9eff68d-cb2f-4089-93fc-717906a18601","ios":"levelo://app?vid=e9eff68d-cb2f-4089-93fc-717906a18601"},"vehicle_type_id":"4","last_reported":1719065297,"current_range_meters":15200,"station_id":"ce4bhbp2rcd13ifvqerg","pricing_plan_id":"cebpf4jnsgd1na2vs0mg"},{"bike_id":"7bac485c-0ba4-4d63-8ecb-af4faf77fac0","system_id":"levelo_inurba_marseille","lat":43.28273,"lon":5.35056,"is_reserved":false,"is_disabled":false,"rental_uris":{"android":"levelo://app?vid=7bac485c-0ba4-4d63-8ecb-af4faf77fac0","ios":"levelo://app?vid=7bac485c-0ba4-4d63-8ecb-af4faf77fac0"},"vehicle_type_id":"4","last_reported":1719065297,"current_range_meters":0,"station_id":"ce4bhbp2rcd13ifvqerg","pricing_plan_id":"cebpf4jnsgd1na2vs0mg"},{"bike_id":"eaff2020-fb3f-42ba-9787-7c3043df5415","system_id":"levelo_inurba_marseille","lat":43.28267,"lon":5.35076,"is_reserved":false,"is_disabled":false,"rental_uris":{"android":"levelo://app?vid=eaff2020-fb3f-42ba-9787-7c3043df5415","ios":"levelo://app?vid=eaff2020-fb3f-42ba-9787-7c3043df5415"},"vehicle_type_id":"4","last_reported":1719065297,"current_range_meters":24400,"station_id":"ce4bhbp2rcd13ifvqerg","pricing_plan_id":"cebpf4jnsgd1na2vs0mg"},{"bike_id":"1c3ed481-5542-41be-88a0-60b6d6b332e8","system_id":"levelo_inurba_marseille","lat":43.282754,"lon":5.350519,"is_reserved":false,"is_disabled":false,"rental_uris":{"android":"levelo://app?vid=1c3ed481-5542-41be-88a0-60b6d6b332e8","ios":"levelo://app?vid=1c3ed481-5542-41be-88a0-60b6d6b332e8"},"vehicle_type_id":"4","last_reported":1719065297,"current_range_meters":11200,"station_id":"ce4bhbp2rcd13ifvqerg","pricing_plan_id":"cebpf4jnsgd1na2vs0mg"},{"bike_id":"23c6b247-7cbd-4f7d-ba20-417a28d5e38f","system_id":"levelo_inurba_marseille","lat":43.282686,"lon":5.350683,"is_reserved":false,"is_disabled":false,"rental_uris":{"android":"levelo://app?vid=23c6b247-7cbd-4f7d-ba20-417a28d5e38f","ios":"levelo://app?vid=23c6b247-7cbd-4f7d-ba20-417a28d5e38f"},"vehicle_type_id":"4","last_reported":1719065297,"current_range_meters":22400,"station_id":"ce4bhbp2rcd13ifvqerg","pricing_plan_id":"cebpf4jnsgd1na2vs0mg"},{"bike_id":"01bd344f-9d2c-47a7-be48-d351d3a5fc24","system_id":"levelo_inurba_marseille","lat":43.28267,"lon":5.35073,"is_reserved":false,"is_disabled":false,"rental_uris":{"android":"levelo://app?vid=01bd344f-9d2c-47a7-be48-d351d3a5fc24","ios":"levelo://app?vid=01bd344f-9d2c-47a7-be48-d351d3a5fc24"},"vehicle_type_id":"4","last_reported":1719065297,"current_range_meters":17200,"station_id":"ce4bhbp2rcd13ifvqerg","pricing_plan_id":"cebpf4jnsgd1na2vs0mg"},{"bike_id":"292c64dd-2b66-4bef-b880-6f03a946f153","system_id":"levelo_inurba_marseille","lat":43.28268,"lon":5.35068,"is_reserved":false,"is_disabled":false,"rental_uris":{"android":"levelo://app?vid=292c64dd-2b66-4bef-b880-6f03a946f153","ios":"levelo://app?vid=292c64dd-2b66-4bef-b880-6f03a946f153"},"vehicle_type_id":"4","last_reported":1719065297,"current_range_meters":9200,"station_id":"ce4bhbp2rcd13ifvqerg","pricing_plan_id":"cebpf4jnsgd1na2vs0mg"},{"bike_id":"7448c93d-cb53-49ba-b7f6-c7b2230b9c9c","system_id":"levelo_inurba_marseille","lat":43.2827,"lon":5.35059,"is_reserved":false,"is_disabled":false,"rental_uris":{"android":"levelo://app?vid=7448c93d-cb53-49ba-b7f6-c7b2230b9c9c","ios":"levelo://app?vid=7448c93d-cb53-49ba-b7f6-c7b2230b9c9c"},"vehicle_type_id":"4","last_reported":1719065297,"current_range_meters":12400,"station_id":"ce4bhbp2rcd13ifvqerg","pricing_plan_id":"cebpf4jnsgd1na2vs0mg"},{"bike_id":"ae43b532-1ad0-44b2-bc03-443e2e10a9d1","system_id":"levelo_inurba_marseille","lat":43.2827,"lon":5.35055,"is_reserved":false,"is_disabled":false,"rental_uris":{"android":"levelo://app?vid=ae43b532-1ad0-44b2-bc03-443e2e10a9d1","ios":"levelo://app?vid=ae43b532-1ad0-44b2-bc03-443e2e10a9d1"},"vehicle_type_id":"4","last_reported":1719065297,"current_range_meters":23600,"station_id":"ce4bhbp2rcd13ifvqerg","pricing_plan_id":"cebpf4jnsgd1na2vs0mg"},{"bike_id":"8cfdf3e0-0f6c-44e8-b8ab-c88afac2dd9b","system_id":"levelo_inurba_marseille","lat":43.282657,"lon":5.350697,"is_reserved":false,"is_disabled":false,"rental_uris":{"android":"levelo://app?vid=8cfdf3e0-0f6c-44e8-b8ab-c88afac2dd9b","ios":"levelo://app?vid=8cfdf3e0-0f6c-44e8-b8ab-c88afac2dd9b"},"vehicle_type_id":"4","last_reported":1719065297,"current_range_meters":8800,"station_id":"ce4bhbp2rcd13ifvqerg","pricing_plan_id":"cebpf4jnsgd1na2vs0mg"},{"bike_id":"895e0418-32b2-433b-8599-731b412e6e2b","system_id":"levelo_inurba_marseille","lat":43.28268,"lon":5.35055,"is_reserved":false,"is_disabled":false,"rental_uris":{"android":"levelo://app?vid=895e0418-32b2-433b-8599-731b412e6e2b","ios":"levelo://app?vid=895e0418-32b2-433b-8599-731b412e6e2b"},"vehicle_type_id":"4","last_reported":1719065297,"current_range_meters":23600,"station_id":"ce4bhbp2rcd13ifvqerg","pricing_plan_id":"cebpf4jnsgd1na2vs0mg"},