{"last_updated":1723287998,"ttl":30,"version":"2.2","data":{"bikes":[{"bike_id":"bc8eda88-6a98-47f9-836d-d6da12cbbc96","system_id":"levelo_inurba_marseille","lat":43.313391,"lon":5.36706,"is_reserved":false,"is_disabled":false,"rental_uris":{"android":"levelo://app?vid=bc8eda88-6a98-47f9-836d-d6da12cbbc96","ios":"levelo://app?vid=bc8eda88-6a98-47f9-836d-d6da12cbbc96"},"vehicle_type_id":"4","last_reported":1723287998,"current_range_meters":24000,"station_id":"ce4bgr92rcd13ifvqc6g","pricing_plan_id":"cebpf4jnsgd1na2vs0mg"},{"bike_id":"2b2270a8-4825-4fd2-a6dd-82a0cc5855ef","system_id":"levelo_inurba_marseille","lat":43.312239,"lon":5.368562,"is_reserved":false,"is_disabled":false,"rental_uris":{"android":"levelo://app?vid=2b2270a8-4825-4fd2-a6dd-82a0cc5855ef","ios":"levelo://app?vid=2b2270a8-4825-4fd2-a6dd-82a0cc5855ef"},"vehicle_type_id":"4","last_reported":1723287998,"current_range_meters":21200,"station_id":"ce4bgl92rcd13ifvqbq0","pricing_plan_id":"cebpf4jnsgd1na2vs0mg"},{"bike_id":"8ee64360-e50a-47c4-a8bb-aba5bda2af8e","system_id":"levelo_inurba_marseille","lat":43.312239,"lon":5.368562,"is_reserved":false,"is_disabled":false,"rental_uris":{"android":"levelo://app?vid=8ee64360-e50a-47c4-a8bb-aba5bda2af8e","ios":"levelo://app?vid=8ee64360-e50a-47c4-a8bb-aba5bda2af8e"},"vehicle_type_id":"4","last_reported":1723287998,"current_range_meters":25200,"station_id":"ce4bgl92rcd13ifvqbq0","pricing_plan_id":"cebpf4jnsgd1na2vs0mg"},{"bike_id":"606d15f7-e64d-42ea-a799-8e739c2a9c22","system_id":"levelo_inurba_marseille","lat":43.312239,"lon":5.368562,"is_reserved":false,"is_disabled":false,"rental_uris":{"android":"levelo://app?vid=606d15f7-e64d-42ea-a799-8e739c2a9c22","ios":"levelo://app?vid=606d15f7-e64d-42ea-a799-8e739c2a9c22"},"vehicle_type_id":"4","last_reported":1723287998,"current_range_meters":18000,"station_id":"ce4bgl92rcd13ifvqbq0","pricing_plan_id":"cebpf4jnsgd1na2vs0mg"},{"bike_id":"d9c00a51-27af-491a-aa4e-61e24ca51e4f","system_id":"levelo_inurba_marseille","lat":43.312239,"lon":5.368562,"is_reserved":false,"is_disabled":false,"rental_uris":{"android":"levelo://app?vid=d9c00a51-27af-491a-aa4e-61e24ca51e4f","ios":"levelo://app?vid=d9c00a51-27af-491a-aa4e-61e24ca51e4f"},"vehicle_type_id":"4","last_reported":1723287998,"current_range_meters":7600,"station_id":"ce4bgl92rcd13ifvqbq0","pricing_plan_id":"cebpf4jnsgd1na2vs0mg"},{"bike_id":"8fb84f04-00be-441a-9614-bdefd11a0057","system_id":"levelo_inurba_marseille","lat":43.312239,"lon":5.368562,"is_reserved":false,"is_disabled":false,"rental_uris":{"android":"levelo://app?vid=8fb84f04-00be-441a-9614-bdefd11a0057","ios":"levelo://app?vid=8fb84f04-00be-441a-9614-bdefd11a0057"},"vehicle_type_id":"4","last_reported":1723287998,"current_range_meters":10800,"station_id":"ce4bgl92rcd13ifvqbq0","pricing_plan_id":"cebpf4jnsgd1na2vs0mg"},{"bike_id":"01a0ac59-ee6e-4f5b-a649-80b2dc28d274","system_id":"levelo_inurba_marseille","lat":43.309076,"lon":5.368465,"is_reserved":false,"is_disabled":false,"rental_uris":{"android":"levelo://app?vid=01a0ac59-ee6e-4f5b-a649-80b2dc28d274","ios":"levelo://app?vid=01a0ac59-ee6e-4f5b-a649-80b2dc28d274"},"vehicle_type_id":"4","last_reported":1723287998,"current_range_meters":28400,"station_id":"ce4bgn92rcd13ifvqbvg","pricing_plan_id":"cebpf4jnsgd1na2vs0mg"},{"bike_id":"f82e57b8-fbbe-4adc-b87c-a8ef90fbbc7f","system_id":"levelo_inurba_marseille","lat":43.31486,"lon":5.37292,"is_reserved":false,"is_disabled":false,"rental_uris":{"android":"levelo://app?vid=f82e57b8-fbbe-4adc-b87c-a8ef90fbbc7f","ios":"levelo://app?vid=f82e57b8-fbbe-4adc-b87c-a8ef90fbbc7f"},"vehicle_type_id":"4","last_reported":1723287998,"current_range_meters":4800,"station_id":"ce4bgt12rcd13ifvqcd0","pricing_plan_id":"cebpf4jnsgd1na2vs0mg"},{"bike_id":"dceb7393-da0f-449c-abe1-ce72972c64b4","system_id":"levelo_inurba_marseille","lat":43.31571,"lon":5.37226,"is_reserved":false,"is_disabled":false,"rental_uris":{"android":"levelo://app?vid=dceb7393-da0f-449c-abe1-ce72972c64b4","ios":"levelo://app?vid=dceb7393-da0f-449c-abe1-ce72972c64b4"},"vehicle_type_id":"4","last_reported":1723287998,"current_range_meters":3200,"station_id":"","pricing_plan_id":"cebpf4jnsgd1na2vs0mg"},{"bike_id":"14d7a85f-96b6-4bf7-834c-6c4521e2fa55","system_id":"levelo_inurba_marseille","lat":43.314811,"lon":5.373103,"is_reserved":false,"is_disabled":false,"rental_uris":{"android":"levelo://app?vid=14d7a85f-96b6-4bf7-834c-6c4521e2fa55","ios":"levelo://app?vid=14d7a85f-96b6-4bf7-834c-6c4521e2fa55"},"vehicle_type_id":"4","last_reported":1723287998,"current_range_meters":9200,"station_id":"ce4bgt12rcd13ifvqcd0","pricing_plan_id":"cebpf4jnsgd1na2vs0mg"},{"bike_id":"d93e0af2-c5c9-45a0-883d-f200e355fa30","system_id":"levelo_inurba_marseille","lat":43.314811,"lon":5.373103,"is_reserved":false,"is_disabled":false,"rental_uris":{"android":"levelo://app?vid=d93e0af2-c5c9-45a0-883d-f200e355fa30","ios":"levelo://app?vid=d93e0af2-c5c9-45a0-883d-f200e355fa30"},"vehicle_type_id":"4","last_reported":1723287998,"current_range_meters":10800,"station_id":"ce4bgt12rcd13ifvqcd0","pricing_plan_id":"cebpf4jnsgd1na2vs0mg"},{"bike_id":"dad01b8d-3a46-4ce4-a6ba-af7bf0ea679b","system_id":"levelo_inurba_marseille","lat":43.314811,"lon":5.373103,"is_reserved":false,"is_disabled":false,"rental_uris":{"android":"levelo://app?vid=dad01b8d-3a46-4ce4-a6ba-af7bf0ea679b","ios":"levelo://app?vid=dad01b8d-3a46-4ce4-a6ba-af7bf0ea679b"},"vehicle_type_id":"4","last_reported":1723287998,"current_range_meters":10000,"station_id":"ce4bgt12rcd13ifvqcd0","pricing_plan_id":"cebpf4jnsgd1na2vs0mg"},{"bike_id":"5122af0f-3b6b-49fa-9373-f5268f9083ec","system_id":"levelo_inurba_marseille","lat":43.314811,"lon":5.373103,"is_reserved":false,"is_disabled":false,"rental_uris":{"android":"levelo://app?vid=5122af0f-3b6b-49fa-9373-f5268f9083ec","ios":"levelo://app?vid=5122af0f-3b6b-49fa-9373-f5268f9083ec"},"vehicle_type_id":"4","last_reported":1723287998,"current_range_meters":31200,"station_id":"ce4bgt12rcd13ifvqcd0","pricing_plan_id":"cebpf4jnsgd1na2vs0mg"},{"bike_id":"04205170-01ab-4094-ae69-0a74150a8209","system_id":"levelo_inurba_marseille","lat":43.314811,"lon":5.373104,"is_reserved":false,"is_disabled":false,"rental_uris":{"android":"levelo://app?vid=04205170-01ab-4094-ae69-0a74150a8209","ios":"levelo://app?vid=04205170-01ab-4094-ae69-0a74150a8209"},"vehicle_type_id":"4","last_reported":1723287998,"current_range_meters":30400,"station_id":"ce4bgt12rcd13ifvqcd0","pricing_plan_id":"cebpf4jnsgd1na2vs0mg"},{"bike_id":"61bfeb3b-5593-46e6-97b6-d90b4519899a","system_id":"levelo_inurba_marseille","lat":43.314811,"lon":5.373103,"is_reserved":false,"is_disabled":false,"rental_uris":{"android":"levelo://app?vid=61bfeb3b-5593-46e6-97b6-d90b4519899a","ios":"levelo://app?vid=61bfeb3b-5593-46e6-97b6-d90b4519899a"},"vehicle_type_id":"4","last_reported":1723287998,"current_range_meters":27200,"station_id":"ce4bgt12rcd13ifvqcd0","pricing_plan_id":"cebpf4jnsgd1na2vs0mg"},{"bike_id":"3c6be6e4-9baf-4db5-b2c4-1940b10ad0ab","system_id":"levelo_inurba_marseille","lat":43.314811,"lon":5.373103,"is_reserved":false,"is_disabled":false,"rental_uris":{"android":"levelo://app?vid=3c6be6e4-9baf-4db5-b2c4-1940b10ad0ab","ios":"levelo://app?vid=3c6be6e4-9baf-4db5-b2c4-1940b10ad0ab"},"vehicle_type_id":"4","last_reported":1723287998,"current_range_meters":11600,"station_id":"ce4bgt12rcd13ifvqcd0","pricing_plan_id":"cebpf4jnsgd1na2vs0mg"},{"bike_id":"1e9d0384-4a4a-4361-a934-af123c4a89f0","system_id":"levelo_inurba_marseille","lat":43.309039,"lon":5.371797,"is_reserved":false,"is_disabled":false,"rental_uris":{"android":"levelo://app?vid=1e9d0384-4a4a-4361-a934-af123c4a89f0","ios":"levelo://app?vid=1e9d0384-4a4a-4361-a934-af123c4a89f0"},"vehicle_type_id":"4","last_reported":1723287998,"current_range_meters":26000,"station_id":"ce4bguh2rcd13ifvqckg","pricing_plan_id":"cebpf4jnsgd1na2vs0mg"},{"bike_id":"254162b5-52a2-4fc8-baaa-1189e854b13e","system_id":"levelo_inurba_marseille","lat":43.305712,"lon":5.365641,"is_reserved":false,"is_disabled":false,"rental_uris":{"android":"levelo://app?vid=254162b5-52a2-4fc8-baaa-1189e854b13e","ios":"levelo://app?vid=254162b5-52a2-4fc8-baaa-1189e854b13e"},"vehicle_type_id":"4","last_reported":1723287998,"current_range_meters":22000,"station_id":"ce4bgs12rcd13ifvqcag","pricing_plan_id":"cebpf4jnsgd1na2vs0mg"},{"bike_id":"ba085e09-007e-4823-a401-1202adf082c1","system_id":"levelo_inurba_marseille","lat":43.305714,"lon":5.365633,"is_reserved":false,"is_disabled":false,"rental_uris":{"android":"levelo://app?vid=ba085e09-007e-4823-a401-1202adf082c1","ios":"levelo://app?vid=ba085e09-007e-4823-a401-1202adf082c1"},"vehicle_type_id":"4","last_reported":1723287998,"current_range_meters":25200,"station_id":"ce4bgs12rcd13ifvqcag","pricing_plan_id":"cebpf4jnsgd1na2vs0mg"},{"bike_id":"be2dd46e-847a-4d1d-99cc-630bfb754026","system_id":"levelo_inurba_marseille","lat":43.305706,"lon":5.365654,"is_reserved":false,"is_disabled":false,"rental_uris":{"android":"levelo://app?vid=be2dd46e-847a-4d1d-99cc-630bfb754026","ios":"levelo://app?vid=be2dd46e-847a-4d1d-99cc-630bfb754026"},"vehicle_type_id":"4","last_reported":1723287998,"current_range_meters":20000,"station_id":"ce4bgs12rcd13ifvqcag","pricing_plan_id":"cebpf4jnsgd1na2vs0mg"},{"bike_id":"b42e402f-a4dd-4f48-a56b-eaeb7b609979","system_id":"levelo_inurba_marseille","lat":43.305714,"lon":5.365633,"is_reserved":false,"is_disabled":false,"rental_uris":{"android":"levelo://app?vid=b42e402f-a4dd-4f48-a56b-eaeb7b609979","ios":"levelo://app?vid=b42e402f-a4dd-4f48-a56b-eaeb7b609979"},"vehicle_type_id":"4","last_reported":1723287998,"current_range_meters":24000,"station_id":"ce4bgs12rcd13ifvqcag","pricing_plan_id":"cebpf4jnsgd1na2vs0mg"},{"bike_id":"da1a2bd2-3451-476a-aae1-83df76224a91","system_id":"levelo_inurba_marseille","lat":43.305714,"lon":5.365633,"is_reserved":false,"is_disabled":false,"rental_uris":{"android":"levelo://app?vid=da1a2bd2-3451-476a-aae1-83df76224a91","ios":"levelo://app?vid=da1a2bd2-3451-476a-aae1-83df76224a91"},"vehicle_type_id":"4","last_reported":1723287998,"current_range_meters":18000,"station_id":"ce4bgs12rcd13ifvqcag","pricing_plan_id":"cebpf4jnsgd1na2vs0mg"},{"bike_id":"6c817fd9-02ca-421e-8513-0a7496a5a2b9","system_id":"levelo_inurba_marseille","lat":43.30544,"lon":5.36528,"is_reserved":false,"is_disabled":false,"rental_uris":{"android":"levelo://app?vid=6c817fd9-02ca-421e-8513-0a7496a5a2b9","ios":"levelo://app?vid=6c817fd9-02ca-421e-8513-0a7496a5a2b9"},"vehicle_type_id":"4","last_reported":1723287998,"current_range_meters":6000,"station_id":"ce4bgs12rcd13ifvqcag","pricing_plan_id":"cebpf4jnsgd1na2vs0mg"},{"bike_id":"a52425a0-7c6e-4bee-8265-603f13480e5c","system_id":"levelo_inurba_marseille","lat":43.305706,"lon":5.365654,"is_reserved":false,"is_disabled":false,"rental_uris":{"android":"levelo://app?vid=a52425a0-7c6e-4bee-8265-603f13480e5c","ios":"levelo://app?vid=a52425a0-7c6e-4bee-8265-603f13480e5c"},"vehicle_type_id":"4","last_reported":1723287998,"current_range_meters":27600,"station_id":"ce4bgs12rcd13ifvqcag","pricing_plan_id":"cebpf4jnsgd1na2vs0mg"},{"bike_id":"23eb4d4d-0c7d-4642-89fd-34f15d9f42d0","system_id":"levelo_inurba_marseille","lat":43.305714,"lon":5.365633,"is_reserved":false,"is_disabled":false,"rental_uris":{"android":"levelo://app?vid=23eb4d4d-0c7d-4642-89fd-34f15d9f42d0","ios":"levelo://app?vid=23eb4d4d-0c7d-4642-89fd-34f15d9f42d0"},"vehicle_type_id":"4","last_reported":1723287998,"current_range_meters":30400,"station_id":"ce4bgs12rcd13ifvqcag","pricing_plan_id":"cebpf4jnsgd1na2vs0mg"},{"bike_id":"579a79c6-c31b-4d08-be74-addc798c4507","system_id":"levelo_inurba_marseille","lat":43.3054,"lon":5.365325,"is_reserved":false,"is_disabled":false,"rental_uris":{"android":"levelo://app?vid=579a79c6-c31b-4d08-be74-addc798c4507","ios":"levelo://app?vid=579a79c6-c31b-4d08-be74-addc798c4507"},"vehicle_type_id":"4","last_reported":1723287998,"current_range_meters":22400,"station_id":"ce4bgs12rcd13ifvqcag","pricing_plan_id":"cebpf4jnsgd1na2vs0mg"},{"bike_id":"a19fc82c-4d43-40f3-a089-4ea82d941216","system_id":"levelo_inurba_marseille","lat":43.305368,"lon":5.367343,"is_reserved":false,"is_disabled":false,"rental_uris":{"android":"levelo://app?vid=a19fc82c-4d43-40f3-a089-4ea82d941216","ios":"levelo://app?vid=a19fc82c-4d43-40f3-a089-4ea82d941216"},"vehicle_type_id":"4","last_reported":1723287998,"current_range_meters":25200,"station_id":"ce4bgrp2rcd13ifvqc9g","pricing_plan_id":"cebpf4jnsgd1na2vs0mg"},{"bike_id":"a819206d-a57c-487c-8b46-6b1806e6fc09","system_id":"levelo_inurba_marseille","lat":43.305706,"lon":5.365654,"is_reserved":false,"is_disabled":false,"rental_uris":{"android":"levelo://app?vid=a819206d-a57c-487c-8b46-6b1806e6fc09","ios":"levelo://app?vid=a819206d-a57c-487c-8b46-6b1806e6fc09"},"vehicle_type_id":"4","last_reported":1723287998,"current_range_meters":5600,"station_id":"ce4bgs12rcd13ifvqcag","pricing_plan_id":"cebpf4jnsgd1na2vs0mg"},{"bike_id":"868f46b2-0c19-4454-a1b2-b1200edd5198","system_id":"levelo_inurba_marseille","lat":43.305706,"lon":5.365654,"is_reserved":false,"is_disabled":false,"rental_uris":{"android":"levelo://app?vid=868f46b2-0c19-4454-a1b2-b1200edd5198","ios":"levelo://app?vid=868f46b2-0c19-4454-a1b2-b1200edd5198"},"vehicle_type_id":"4","last_reported":1723287998,"current_range_meters":31600,"station_id":"ce4bgs12rcd13ifvqcag","pricing_plan_id":"cebpf4jnsgd1na2vs0mg"},{"bike_id":"811c63b8-4c61-4af5-91c3-33708ac27bdf","system_id":"levelo_inurba_marseille","lat":43.305706,"lon":5.365654,"is_reserved":false,"is_disabled":false,"rental_uris":{"android":"levelo://app?vid=811c63b8-4c61-4af5-91c3-33708ac27bdf","ios":"levelo://app?vid=811c63b8-4c61-4af5-91c3-33708ac27bdf"},"vehicle_type_id":"4","last_reported":1723287998,"current_range_meters":18800,"station_id":"ce4bgs12rcd13ifvqcag","pricing_plan_id":"cebpf4jnsgd1na2vs0mg"},{"bike_id":"30214a7f-ee84-4e7c-93cd-c7f37e340dd1","system_id":"levelo_inurba_marseille","lat":43.305989,"lon":5.37225,"is_reserved":false,"is_disabled":false,"rental_uris":{"android":"levelo://app?vid=30214a7f-ee84-4e7c-93cd-c7f37e340dd1","ios":"levelo://app?vid=30214a7f-ee84-4e7c-93cd-c7f37e340dd1"},"vehicle_type_id":"4","last_reported":1723287998,"current_range_meters":31200,"station_id":"ce4bgqh2rcd13ifvqc4g","pricing_plan_id":"cebpf4jnsgd1na2vs0mg"},{"bike_id":"d5661e93-8c32-4943-8830-488f7b7b012a","system_id":"levelo_inurba_marseille","lat":43.305989,"lon":5.37225,"is_reserved":false,"is_disabled":false,"rental_uris":{"android":"levelo://app?vid=d5661e93-8c32-4943-8830-488f7b7b012a","ios":"levelo://app?vid=d5661e93-8c32-4943-8830-488f7b7b012a"},"vehicle_type_id":"4","last_reported":1723287998,"current_range_meters":26800,"station_id":"ce4bgqh2rcd13ifvqc4g","pricing_plan_id":"cebpf4jnsgd1na2vs0mg"},{"bike_id":"3b3efac0-cfed-497f-82d0-03ebc1e98558","system_id":"levelo_inurba_marseille","lat":43.305989,"lon":5.37225,"is_reserved":false,"is_disabled":false,"rental_uris":{"android":"levelo://app?vid=3b3efac0-cfed-497f-82d0-03ebc1e98558","ios":"levelo://app?vid=3b3efac0-cfed-497f-82d0-03ebc1e98558"},"vehicle_type_id":"4","last_reported":1723287998,"current_range_meters":31200,"station_id":"ce4bgqh2rcd13ifvqc4g","pricing_plan_id":"cebpf4jnsgd1na2vs0mg"},{"bike_id":"f263c195-dd8a-43da-afa7-9f585102c646","system_id":"levelo_inurba_marseille","lat":43.305989,"lon":5.37225,"is_reserved":false,"is_disabled":false,"rental_uris":{"android":"levelo://app?vid=f263c195-dd8a-43da-afa7-9f585102c646","ios":"levelo://app?vid=f263c195-dd8a-43da-afa7-9f585102c646"},"vehicle_type_id":"4","last_reported":1723287998,"current_range_meters":21200,"station_id":"ce4bgqh2rcd13ifvqc4g","pricing_plan_id":"cebpf4jnsgd1na2vs0mg"},{"bike_id":"7b9a8bda-d215-47bb-849e-2cd693d1b3e4","system_id":"levelo_inurba_marseille","lat":43.305989,"lon":5.37225,"is_reserved":false,"is_disabled":false,"rental_uris":{"android":"levelo://app?vid=7b9a8bda-d215-47bb-849e-2cd693d1b3e4","ios":"levelo://app?vid=7b9a8bda-d215-47bb-849e-2cd693d1b3e4"},"vehicle_type_id":"4","last_reported":1723287998,"current_range_meters":15600,"station_id":"ce4bgqh2rcd13ifvqc4g","pricing_plan_id":"cebpf4jnsgd1na2vs0mg"},{"bike_id":"65f343e1-8205-4f50-93dd-38933205123e","system_id":"levelo_inurba_marseille","lat":43.305989,"lon":5.37225,"is_reserved":false,"is_disabled":false,"rental_uris":{"android":"levelo://app?vid=65f343e1-8205-4f50-93dd-38933205123e","ios":"levelo://app?vid=65f343e1-8205-4f50-93dd-38933205123e"},"vehicle_type_id":"4","last_reported":1723287998,"current_range_meters":10000,"station_id":"ce4bgqh2rcd13ifvqc4g","pricing_plan_id":"cebpf4jnsgd1na2vs0mg"},{"bike_id":"7c1b0ffc-631b-4dad-9507-f89dc3d3956f","system_id":"levelo_inurba_marseille","lat":43.305989,"lon":5.37225,"is_reserved":false,"is_disabled":false,"rental_uris":{"android":"levelo://app?vid=7c1b0ffc-631b-4dad-9507-f89dc3d3956f","ios":"levelo://app?vid=7c1b0ffc-631b-4dad-9507-f89dc3d3956f"},"vehicle_type_id":"4","last_reported":1723287998,"current_range_meters":16800,"station_id":"ce4bgqh2rcd13ifvqc4g","pricing_plan_id":"cebpf4jnsgd1na2vs0mg"},{"bike_id":"174a01bf-0516-4fa1-a2d2-aa74aeb4d984","system_id":"levelo_inurba_marseille","lat":43.307945,"lon":5.376487,"is_reserved":false,"is_disabled":false,"rental_uris":{"android":"levelo://app?vid=174a01bf-0516-4fa1-a2d2-aa74aeb4d984","ios":"levelo://app?vid=174a01bf-0516-4fa1-a2d2-aa74aeb4d984"},"vehicle_type_id":"4","last_reported":1723287998,"current_range_meters":19600,"station_id":"ce4bgv92rcd13ifvqcq0","pricing_plan_id":"cebpf4jnsgd1na2vs0mg"},{"bike_id":"4d1c5b6e-9be8-482f-9cd5-3cdc45965826","system_id":"levelo_inurba_marseille","lat":43.317075,"lon":5.377367,"is_reserved":false,"is_disabled":false,"rental_uris":{"android":"levelo://app?vid=4d1c5b6e-9be8-482f-9cd5-3cdc45965826","ios":"levelo://app?vid=4d1c5b6e-9be8-482f-9cd5-3cdc45965826"},"vehicle_type_id":"4","last_reported":1723287998,"current_range_meters":17600,"station_id":"ce4bgth2rcd13ifvqch0","pricing_plan_id":"cebpf4jnsgd1na2vs0mg"},{"bike_id":"367eb1c1-578c-45b7-94a1-f71703518cbf","system_id":"levelo_inurba_marseille","lat":43.303046,"lon":5.368981,"is_reserved":false,"is_disabled":false,"rental_uris":{"android":"levelo://app?vid=367eb1c1-578c-45b7-94a1-f71703518cbf","ios":"levelo://app?vid=367eb1c1-578c-45b7-94a1-f71703518cbf"},"vehicle_type_id":"4","last_reported":1723287998,"current_range_meters":15600,"station_id":"ce4bgqh2rcd13ifvqc5g","pricing_plan_id":"cebpf4jnsgd1na2vs0mg"},{"bike_id":"12660d5f-b9de-41d4-9f77-11094403f065","system_id":"levelo_inurba_marseille","lat":43.303046,"lon":5.368981,"is_reserved":false,"is_disabled":false,"rental_uris":{"android":"levelo://app?vid=12660d5f-b9de-41d4-9f77-11094403f065","ios":"levelo://app?vid=12660d5f-b9de-41d4-9f77-11094403f065"},"vehicle_type_id":"4","last_reported":1723287998,"current_range_meters":27600,"station_id":"ce4bgqh2rcd13ifvqc5g","pricing_plan_id":"cebpf4jnsgd1na2vs0mg"},{"bike_id":"6171ee28-2206-4be0-9cdf-633bd170b0bc","system_id":"levelo_inurba_marseille","lat":43.303046,"lon":5.368981,"is_reserved":false,"is_disabled":false,"rental_uris":{"android":"levelo://app?vid=6171ee28-2206-4be0-9cdf-633bd170b0bc","ios":"levelo://app?vid=6171ee28-2206-4be0-9cdf-633bd170b0bc"},"vehicle_type_id":"4","last_reported":1723287998,"current_range_meters":28800,"station_id":"ce4bgqh2rcd13ifvqc5g","pricing_plan_id":"cebpf4jnsgd1na2vs0mg"},{"bike_id":"6ccdffc8-1ee0-4e6e-9e63-1abd78ef5dd4","system_id":"levelo_inurba_marseille","lat":43.30304,"lon":5.368987,"is_reserved":false,"is_disabled":false,"rental_uris":{"android":"levelo://app?vid=6ccdffc8-1ee0-4e6e-9e63-1abd78ef5dd4","ios":"levelo://app?vid=6ccdffc8-1ee0-4e6e-9e63-1abd78ef5dd4"},"vehicle_type_id":"4","last_reported":1723287998,"current_range_meters":13600,"station_id":"ce4bgqh2rcd13ifvqc5g","pricing_plan_id":"cebpf4jnsgd1na2vs0mg"},{"bike_id":"7b723f52-e63f-4b1b-b59f-c7f11933e590","system_id":"levelo_inurba_marseille","lat":43.30307,"lon":5.36882,"is_reserved":false,"is_disabled":false,"rental_uris":{"android":"levelo://app?vid=7b723f52-e63f-4b1b-b59f-c7f11933e590","ios":"levelo://app?vid=7b723f52-e63f-4b1b-b59f-c7f11933e590"},"vehicle_type_id":"4","last_reported":1723287998,"current_range_meters":8400,"station_id":"ce4bgqh2rcd13ifvqc5g","pricing_plan_id":"cebpf4jnsgd1na2vs0mg"},{"bike_id":"ec854837-7a61-4dea-8935-9a7b98ba73e2","system_id":"levelo_inurba_marseille","lat":43.315289,"lon":5.380349,"is_reserved":false,"is_disabled":false,"rental_uris":{"android":"levelo://app?vid=ec854837-7a61-4dea-8935-9a7b98ba73e2","ios":"levelo://app?vid=ec854837-7a61-4dea-8935-9a7b98ba73e2"},"vehicle_type_id":"4","last_reported":1723287998,"current_range_meters":29600,"station_id":"ce4bhsp2rcd13ifvqi50","pricing_plan_id":"cebpf4jnsgd1na2vs0mg"},{"bike_id":"47c6f33f-b978-4dd0-af4b-ed8d86e9ec92","system_id":"levelo_inurba_marseille","lat":43.301939,"lon":5.366286,"is_reserved":false,"is_disabled":false,"rental_uris":{"android":"levelo://app?vid=47c6f33f-b978-4dd0-af4b-ed8d86e9ec92","ios":"levelo://app?vid=47c6f33f-b978-4dd0-af4b-ed8d86e9ec92"},"vehicle_type_id":"4","last_reported":1723287998,"current_range_meters":7200,"station_id":"ce4bgrh2rcd13ifvqc8g","pricing_plan_id":"cebpf4jnsgd1na2vs0mg"},{"bike_id":"192bc778-be1f-402d-b1df-16d7172e5519","system_id":"levelo_inurba_marseille","lat":43.31359,"lon":5.38283,"is_reserved":false,"is_disabled":false,"rental_uris":{"android":"levelo://app?vid=192bc778-be1f-402d-b1df-16d7172e5519","ios":"levelo://app?vid=192bc778-be1f-402d-b1df-16d7172e5519"},"vehicle_type_id":"4","last_reported":1723287998,"current_range_meters":800,"station_id":"","pricing_plan_id":"cebpf4jnsgd1na2vs0mg"},{"bike_id":"ca758db3-78a8-4e51-9654-3aa1b605a433","system_id":"levelo_inurba_marseille","lat":43.304606,"lon":5.379026,"is_reserved":false,"is_disabled":false,"rental_uris":{"android":"levelo://app?vid=ca758db3-78a8-4e51-9654-3aa1b605a433","ios":"levelo://app?vid=ca758db3-78a8-4e51-9654-3aa1b605a433"},"vehicle_type_id":"4","last_reported":1723287998,"current_range_meters":28400,"station_id":"ce4bgup2rcd13ifvqcn0","pricing_plan_id":"cebpf4jnsgd1na2vs0mg"},{"bike_id":"d25f941e-3ce6-45a9-86c5-5d36fbd36951","system_id":"levelo_inurba_marseille","lat":43.304606,"lon":5.379026,"is_reserved":false,"is_disabled":false,"rental_uris":{"android":"levelo://app?vid=d25f941e-3ce6-45a9-86c5-5d36fbd36951","ios":"levelo://app?vid=d25f941e-3ce6-45a9-86c5-5d36fbd36951"},"vehicle_type_id":"4","last_reported":1723287998,"current_range_meters":27200,"station_id":"ce4bgup2rcd13ifvqcn0","pricing_plan_id":"cebpf4jnsgd1na2vs0mg"},{"bike_id":"dc220fc1-ce4d-4f14-aabe-50f51a3678c9","system_id":"levelo_inurba_marseille","lat":43.304606,"lon":5.379026,"is_reserved":false,"is_disabled":false,"rental_uris":{"android":"levelo://app?vid=dc220fc1-ce4d-4f14-aabe-50f51a3678c9","ios":"levelo://app?vid=dc220fc1-ce4d-4f14-aabe-50f51a3678c9"},"vehicle_type_id":"4","last_reported":1723287998,"current_range_meters":12000,"station_id":"ce4bgup2rcd13ifvqcn0","pricing_plan_id":"cebpf4jnsgd1na2vs0mg"},{"bike_id":"b02d4154-9408-45a2-9880-c5901a591aec","system_id":"levelo_inurba_marseille","lat":43.304606,"lon":5.379026,"is_reserved":false,"is_disabled":false,"rental_uris":{"android":"levelo://app?vid=b02d4154-9408-45a2-9880-c5901a591aec","ios":"levelo://app?vid=b02d4154-9408-45a2-9880-c5901a591aec"},"vehicle_type_id":"4","last_reported":1723287998,"current_range_meters":31600,"station_id":"ce4bgup2rcd13ifvqcn0","pricing_plan_id":"cebpf4jnsgd1na2vs0mg"},{"bike_id":"a5bf73d9-f4a6-4560-b5dd-1ae1cc281b04","system_id":"levelo_inurba_marseille","lat":43.304606,"lon":5.379026,"is_reserved":false,"is_disabled":false,"rental_uris":{"android":"levelo://app?vid=a5bf73d9-f4a6-4560-b5dd-1ae1cc281b04","ios":"levelo://app?vid=a5bf73d9-f4a6-4560-b5dd-1ae1cc281b04"},"vehicle_type_id":"4","last_reported":1723287998,"current_range_meters":13600,"station_id":"ce4bgup2rcd13ifvqcn0","pricing_plan_id":"cebpf4jnsgd1na2vs0mg"},{"bike_id":"b24e77f3-47b7-40e6-98d4-ee5ba2dc000e","system_id":"levelo_inurba_marseille","lat":43.304606,"lon":5.379026,"is_reserved":false,"is_disabled":false,"rental_uris":{"android":"levelo://app?vid=b24e77f3-47b7-40e6-98d4-ee5ba2dc000e","ios":"levelo://app?vid=b24e77f3-47b7-40e6-98d4-ee5ba2dc000e"},"vehicle_type_id":"4","last_reported":1723287998,"current_range_meters":19600,"station_id":"ce4bgup2rcd13ifvqcn0","pricing_plan_id":"cebpf4jnsgd1na2vs0mg"},{"bike_id":"02705155-ff23-49b6-b07a-f522c9c34be3","system_id":"levelo_inurba_marseille","lat":43.304606,"lon":5.379026,"is_reserved":false,"is_disabled":false,"rental_uris":{"android":"levelo://app?vid=02705155-ff23-49b6-b07a-f522c9c34be3","ios":"levelo://app?vid=02705155-ff23-49b6-b07a-f522c9c34be3"},"vehicle_type_id":"4","last_reported":1723287998,"current_range_meters":31200,"station_id":"ce4bgup2rcd13ifvqcn0","pricing_plan_id":"cebpf4jnsgd1na2vs0mg"},{"bike_id":"0d02d481-c5ab-4771-888c-3d10ed2eea58","system_id":"levelo_inurba_marseille","lat":43.304606,"lon":5.379026,"is_reserved":false,"is_disabled":false,"rental_uris":{"android":"levelo://app?vid=0d02d481-c5ab-4771-888c-3d10ed2eea58","ios":"levelo://app?vid=0d02d481-c5ab-4771-888c-3d10ed2eea58"},"vehicle_type_id":"4","last_reported":1723287998,"current_range_meters":30400,"station_id":"ce4bgup2rcd13ifvqcn0","pricing_plan_id":"cebpf4jnsgd1na2vs0mg"},{"bike_id":"280ab239-34c8-47a7-b78f-a0dc72e5ac5b","system_id":"levelo_inurba_marseille","lat":43.304606,"lon":5.379026,"is_reserved":false,"is_disabled":false,"rental_uris":{"android":"levelo://app?vid=280ab239-34c8-47a7-b78f-a0dc72e5ac5b","ios":"levelo://app?vid=280ab239-34c8-47a7-b78f-a0dc72e5ac5b"},"vehicle_type_id":"4","last_reported":1723287998,"current_range_meters":17600,"station_id":"ce4bgup2rcd13ifvqcn0","pricing_plan_id":"cebpf4jnsgd1na2vs0mg"},{"bike_id":"99649832-9dfa-41f8-be34-a547fe65d571","system_id":"levelo_inurba_marseille","lat":43.304606,"lon":5.379026,"is_reserved":false,"is_disabled":false,"rental_uris":{"android":"levelo://app?vid=99649832-9dfa-41f8-be34-a547fe65d571","ios":"levelo://app?vid=99649832-9dfa-41f8-be34-a547fe65d571"},"vehicle_type_id":"4","last_reported":1723287998,"current_range_meters":28000,"station_id":"ce4bgup2rcd13ifvqcn0","pricing_plan_id":"cebpf4jnsgd1na2vs0mg"},{"bike_id":"ca40185a-78fd-4df5-a9ea-db25aa86630b","system_id":"levelo_inurba_marseille","lat":43.304606,"lon":5.379026,"is_reserved":false,"is_disabled":false,"rental_uris":{"android":"levelo://app?vid=ca40185a-78fd-4df5-a9ea-db25aa86630b","ios":"levelo://app?vid=ca40185a-78fd-4df5-a9ea-db25aa86630b"},"vehicle_type_id":"4","last_reported":1723287998,"current_range_meters":31600,"station_id":"ce4bgup2rcd13ifvqcn0","pricing_plan_id":"cebpf4jnsgd1na2vs0mg"},{"bike_id":"3441612f-9140-4db6-944a-40c0e364f7ad","system_id":"levelo_inurba_marseille","lat":43.32476,"lon":5.36565,"is_reserved":false,"is_disabled":false,"rental_uris":{"android":"levelo://app?vid=3441612f-9140-4db6-944a-40c0e364f7ad","ios":"levelo://app?vid=3441612f-9140-4db6-944a-40c0e364f7ad"},"vehicle_type_id":"4","last_reported":1723287998,"current_range_meters":22400,"station_id":"ce4bhs12rcd13ifvqhvg","pricing_plan_id":"cebpf4jnsgd1na2vs0mg"},{"bike_id":"88609de2-69df-4d61-9dba-dc654c6db5a2","system_id":"levelo_inurba_marseille","lat":43.32478,"lon":5.36563,"is_reserved":false,"is_disabled":false,"rental_uris":{"android":"levelo://app?vid=88609de2-69df-4d61-9dba-dc654c6db5a2","ios":"levelo://app?vid=88609de2-69df-4d61-9dba-dc654c6db5a2"},"vehicle_type_id":"4","last_reported":1723287998,"current_range_meters":19600,"station_id":"ce4bhs12rcd13ifvqhvg","pricing_plan_id":"cebpf4jnsgd1na2vs0mg"},{"bike_id":"eee0473b-958b-40b7-bb28-c27772b76968","system_id":"levelo_inurba_marseille","lat":43.324771,"lon":5.36557,"is_reserved":false,"is_disabled":false,"rental_uris":{"android":"levelo://app?vid=eee0473b-958b-40b7-bb28-c27772b76968","ios":"levelo://app?vid=eee0473b-958b-40b7-bb28-c27772b76968"},"vehicle_type_id":"4","last_reported":1723287998,"current_range_meters":28800,"station_id":"ce4bhs12rcd13ifvqhvg","pricing_plan_id":"cebpf4jnsgd1na2vs0mg"},{"bike_id":"ad0eded6-3eac-4844-ad57-aaa32c42246e","system_id":"levelo_inurba_marseille","lat":43.324771,"lon":5.36557,"is_reserved":false,"is_disabled":false,"rental_uris":{"android":"levelo://app?vid=ad0eded6-3eac-4844-ad57-aaa32c42246e","ios":"levelo://app?vid=ad0eded6-3eac-4844-ad57-aaa32c42246e"},"vehicle_type_id":"4","last_reported":1723287998,"current_range_meters":24400,"station_id":"ce4bhs12rcd13ifvqhvg","pricing_plan_id":"cebpf4jnsgd1na2vs0mg"},{"bike_id":"8c271a0d-a394-4d18-891f-48438409eb3a","system_id":"levelo_inurba_marseille","lat":43.324771,"lon":5.36557,"is_reserved":false,"is_disabled":false,"rental_uris":{"android":"levelo://app?vid=8c271a0d-a394-4d18-891f-48438409eb3a","ios":"levelo://app?vid=8c271a0d-a394-4d18-891f-48438409eb3a"},"vehicle_type_id":"4","last_reported":1723287998,"current_range_meters":16400,"station_id":"ce4bhs12rcd13ifvqhvg","pricing_plan_id":"cebpf4jnsgd1na2vs0mg"},{"bike_id":"a5ad36c9-6631-415b-8e10-7c7e9517d651","system_id":"levelo_inurba_marseille","lat":43.324771,"lon":5.36557,"is_reserved":false,"is_disabled":false,"rental_uris":{"android":"levelo://app?vid=a5ad36c9-6631-415b-8e10-7c7e9517d651","ios":"levelo://app?vid=a5ad36c9-6631-415b-8e10-7c7e9517d651"},"vehicle_type_id":"4","last_reported":1723287998,"current_range_meters":31600,"station_id":"ce4bhs12rcd13ifvqhvg","pricing_plan_id":"cebpf4jnsgd1na2vs0mg"},{"bike_id":"79ffface-54d4-40fb-95c7-8256a85b69f0","system_id":"levelo_inurba_marseille","lat":43.324771,"lon":5.36557,"is_reserved":false,"is_disabled":false,"rental_uris":{"android":"levelo://app?vid=79ffface-54d4-40fb-95c7-8256a85b69f0","ios":"levelo://app?vid=79ffface-54d4-40fb-95c7-8256a85b69f0"},"vehicle_type_id":"4","last_reported":1723287998,"current_range_meters":28000,"station_id":"ce4bhs12rcd13ifvqhvg","pricing_plan_id":"cebpf4jnsgd1na2vs0mg"},{"bike_id":"addba48e-e352-46be-ab8a-741256f4ced7","system_id":"levelo_inurba_marseille","lat":43.324771,"lon":5.36557,"is_reserved":false,"is_disabled":false,"rental_uris":{"android":"levelo://app?vid=addba48e-e352-46be-ab8a-741256f4ced7","ios":"levelo://app?vid=addba48e-e352-46be-ab8a-741256f4ced7"},"vehicle_type_id":"4","last_reported":1723287998,"current_range_meters":16000,"station_id":"ce4bhs12rcd13ifvqhvg","pricing_plan_id":"cebpf4jnsgd1na2vs0mg"},{"bike_id":"282e32e0-db08-42d5-a972-b34979e8de75","system_id":"levelo_inurba_marseille","lat":43.324771,"lon":5.36557,"is_reserved":false,"is_disabled":false,"rental_uris":{"android":"levelo://app?vid=282e32e0-db08-42d5-a972-b34979e8de75","ios":"levelo://app?vid=282e32e0-db08-42d5-a972-b34979e8de75"},"vehicle_type_id":"4","last_reported":1723287998,"current_range_meters":31600,"station_id":"ce4bhs12rcd13ifvqhvg","pricing_plan_id":"cebpf4jnsgd1na2vs0mg"},{"bike_id":"889cf585-f4c7-4886-a8ca-2a0a420f104a","system_id":"levelo_inurba_marseille","lat":43.302784,"lon":5.377158,"is_reserved":false,"is_disabled":false,"rental_uris":{"android":"levelo://app?vid=889cf585-f4c7-4886-a8ca-2a0a420f104a","ios":"levelo://app?vid=889cf585-f4c7-4886-a8ca-2a0a420f104a"},"vehicle_type_id":"4","last_reported":1723287998,"current_range_meters":21600,"station_id":"ce4bguh2rcd13ifvqcj0","pricing_plan_id":"cebpf4jnsgd1na2vs0mg"},{"bike_id":"290f27ce-ce2d-40e4-8487-4db8a167f572","system_id":"levelo_inurba_marseille","lat":43.302784,"lon":5.377158,"is_reserved":false,"is_disabled":false,"rental_uris":{"android":"levelo://app?vid=290f27ce-ce2d-40e4-8487-4db8a167f572","ios":"levelo://app?vid=290f27ce-ce2d-40e4-8487-4db8a167f572"},"vehicle_type_id":"4","last_reported":1723287998,"current_range_meters":13200,"station_id":"ce4bguh2rcd13ifvqcj0","pricing_plan_id":"cebpf4jnsgd1na2vs0mg"},{"bike_id":"aed1ef8d-1604-4421-b656-51789c6212e2","system_id":"levelo_inurba_marseille","lat":43.301429,"lon":5.37413,"is_reserved":false,"is_disabled":false,"rental_uris":{"android":"levelo://app?vid=aed1ef8d-1604-4421-b656-51789c6212e2","ios":"levelo://app?vid=aed1ef8d-1604-4421-b656-51789c6212e2"},"vehicle_type_id":"4","last_reported":1723287998,"current_range_meters":28800,"station_id":"ce4bgs92rcd13ifvqcc0","pricing_plan_id":"cebpf4jnsgd1na2vs0mg"},{"bike_id":"93114f1a-52e1-4031-8d09-aa2708a9b0a0","system_id":"levelo_inurba_marseille","lat":43.302784,"lon":5.377158,"is_reserved":false,"is_disabled":false,"rental_uris":{"android":"levelo://app?vid=93114f1a-52e1-4031-8d09-aa2708a9b0a0","ios":"levelo://app?vid=93114f1a-52e1-4031-8d09-aa2708a9b0a0"},"vehicle_type_id":"4","last_reported":1723287998,"current_range_meters":27200,"station_id":"ce4bguh2rcd13ifvqcj0","pricing_plan_id":"cebpf4jnsgd1na2vs0mg"},{"bike_id":"1ce53696-01f0-43eb-ad1d-bc67ce2c9dd0","system_id":"levelo_inurba_marseille","lat":43.30143,"lon":5.37413,"is_reserved":false,"is_disabled":false,"rental_uris":{"android":"levelo://app?vid=1ce53696-01f0-43eb-ad1d-bc67ce2c9dd0","ios":"levelo://app?vid=1ce53696-01f0-43eb-ad1d-bc67ce2c9dd0"},"vehicle_type_id":"4","last_reported":1723287998,"current_range_meters":9200,"station_id":"ce4bgs92rcd13ifvqcc0","pricing_plan_id":"cebpf4jnsgd1na2vs0mg"},{"bike_id":"e3178b8f-e1c0-46bb-9b43-d1d9e71247e2","system_id":"levelo_inurba_marseille","lat":43.301429,"lon":5.37413,"is_reserved":false,"is_disabled":false,"rental_uris":{"android":"levelo://app?vid=e3178b8f-e1c0-46bb-9b43-d1d9e71247e2","ios":"levelo://app?vid=e3178b8f-e1c0-46bb-9b43-d1d9e71247e2"},"vehicle_type_id":"4","last_reported":1723287998,"current_range_meters":17200,"station_id":"ce4bgs92rcd13ifvqcc0","pricing_plan_id":"cebpf4jnsgd1na2vs0mg"},{"bike_id":"28756895-a199-4eb8-a244-fac59028a443","system_id":"levelo_inurba_marseille","lat":43.313571,"lon":5.384829,"is_reserved":false,"is_disabled":false,"rental_uris":{"android":"levelo://app?vid=28756895-a199-4eb8-a244-fac59028a443","ios":"levelo://app?vid=28756895-a199-4eb8-a244-fac59028a443"},"vehicle_type_id":"4","last_reported":1723287998,"current_range_meters":13200,"station_id":"ce4bgt92rcd13ifvqcf0","pricing_plan_id":"cebpf4jnsgd1na2vs0mg"},{"bike_id":"fbcd9c2a-5adc-4353-947a-c868c724428f","system_id":"levelo_inurba_marseille","lat":43.299209,"lon":5.365547,"is_reserved":false,"is_disabled":false,"rental_uris":{"android":"levelo://app?vid=fbcd9c2a-5adc-4353-947a-c868c724428f","ios":"levelo://app?vid=fbcd9c2a-5adc-4353-947a-c868c724428f"},"vehicle_type_id":"4","last_reported":1723287998,"current_range_meters":20400,"station_id":"ce4bgm92rcd13ifvqbr0","pricing_plan_id":"cebpf4jnsgd1na2vs0mg"},{"bike_id":"44e6f5d5-bb97-4222-9799-c2977ace9eeb","system_id":"levelo_inurba_marseille","lat":43.299222,"lon":5.365554,"is_reserved":false,"is_disabled":false,"rental_uris":{"android":"levelo://app?vid=44e6f5d5-bb97-4222-9799-c2977ace9eeb","ios":"levelo://app?vid=44e6f5d5-bb97-4222-9799-c2977ace9eeb"},"vehicle_type_id":"4","last_reported":1723287998,"current_range_meters":19200,"station_id":"ce4bgm92rcd13ifvqbr0","pricing_plan_id":"cebpf4jnsgd1na2vs0mg"},{"bike_id":"a6ee31d7-cb89-4ee8-ab22-a5b92b6284ce","system_id":"levelo_inurba_marseille","lat":43.299222,"lon":5.365554,"is_reserved":false,"is_disabled":false,"rental_uris":{"android":"levelo://app?vid=a6ee31d7-cb89-4ee8-ab22-a5b92b6284ce","ios":"levelo://app?vid=a6ee31d7-cb89-4ee8-ab22-a5b92b6284ce"},"vehicle_type_id":"4","last_reported":1723287998,"current_range_meters":26000,"station_id":"ce4bgm92rcd13ifvqbr0","pricing_plan_id":"cebpf4jnsgd1na2vs0mg"},{"bike_id":"dc1a015f-1222-4c5b-8c5e-e8d1923eb6be","system_id":"levelo_inurba_marseille","lat":43.299222,"lon":5.365554,"is_reserved":false,"is_disabled":false,"rental_uris":{"android":"levelo://app?vid=dc1a015f-1222-4c5b-8c5e-e8d1923eb6be","ios":"levelo://app?vid=dc1a015f-1222-4c5b-8c5e-e8d1923eb6be"},"vehicle_type_id":"4","last_reported":1723287998,"current_range_meters":9200,"station_id":"ce4bgm92rcd13ifvqbr0","pricing_plan_id":"cebpf4jnsgd1na2vs0mg"},{"bike_id":"84e863ad-e883-4791-9257-e50753c78e31","system_id":"levelo_inurba_marseille","lat":43.299222,"lon":5.365554,"is_reserved":false,"is_disabled":false,"rental_uris":{"android":"levelo://app?vid=84e863ad-e883-4791-9257-e50753c78e31","ios":"levelo://app?vid=84e863ad-e883-4791-9257-e50753c78e31"},"vehicle_type_id":"4","last_reported":1723287998,"current_range_meters":5200,"station_id":"ce4bgm92rcd13ifvqbr0","pricing_plan_id":"cebpf4jnsgd1na2vs0mg"},{"bike_id":"986334d8-5c9c-4eef-916b-bf67ac953610","system_id":"levelo_inurba_marseille","lat":43.299222,"lon":5.365554,"is_reserved":false,"is_disabled":false,"rental_uris":{"android":"levelo://app?vid=986334d8-5c9c-4eef-916b-bf67ac953610","ios":"levelo://app?vid=986334d8-5c9c-4eef-916b-bf67ac953610"},"vehicle_type_id":"4","last_reported":1723287998,"current_range_meters":28000,"station_id":"ce4bgm92rcd13ifvqbr0","pricing_plan_id":"cebpf4jnsgd1na2vs0mg"},{"bike_id":"18081649-b65a-4504-b82d-640352df7f34","system_id":"levelo_inurba_marseille","lat":43.298433,"lon":5.362774,"is_reserved":false,"is_disabled":false,"rental_uris":{"android":"levelo://app?vid=18081649-b65a-4504-b82d-640352df7f34","ios":"levelo://app?vid=18081649-b65a-4504-b82d-640352df7f34"},"vehicle_type_id":"4","last_reported":1723287998,"current_range_meters":29200,"station_id":"ce4bgpp2rcd13ifvqc3g","pricing_plan_id":"cebpf4jnsgd1na2vs0mg"},{"bike_id":"44ed99cc-b651-4b4b-bfd1-3a3b977cdeda","system_id":"levelo_inurba_marseille","lat":43.298433,"lon":5.362774,"is_reserved":false,"is_disabled":false,"rental_uris":{"android":"levelo://app?vid=44ed99cc-b651-4b4b-bfd1-3a3b977cdeda","ios":"levelo://app?vid=44ed99cc-b651-4b4b-bfd1-3a3b977cdeda"},"vehicle_type_id":"4","last_reported":1723287998,"current_range_meters":24400,"station_id":"ce4bgpp2rcd13ifvqc3g","pricing_plan_id":"cebpf4jnsgd1na2vs0mg"},{"bike_id":"86ec0593-02b7-4419-af6d-adb6f0a5a3de","system_id":"levelo_inurba_marseille","lat":43.298433,"lon":5.362774,"is_reserved":false,"is_disabled":false,"rental_uris":{"android":"levelo://app?vid=86ec0593-02b7-4419-af6d-adb6f0a5a3de","ios":"levelo://app?vid=86ec0593-02b7-4419-af6d-adb6f0a5a3de"},"vehicle_type_id":"4","last_reported":1723287998,"current_range_meters":1600,"station_id":"ce4bgpp2rcd13ifvqc3g","pricing_plan_id":"cebpf4jnsgd1na2vs0mg"},{"bike_id":"3f017d57-2dbf-49fc-937e-ecb7051fd18a","system_id":"levelo_inurba_marseille","lat":43.298433,"lon":5.362774,"is_reserved":false,"is_disabled":false,"rental_uris":{"android":"levelo://app?vid=3f017d57-2dbf-49fc-937e-ecb7051fd18a","ios":"levelo://app?vid=3f017d57-2dbf-49fc-937e-ecb7051fd18a"},"vehicle_type_id":"4","last_reported":1723287998,"current_range_meters":21200,"station_id":"ce4bgpp2rcd13ifvqc3g","pricing_plan_id":"cebpf4jnsgd1na2vs0mg"},{"bike_id":"2c05cb8d-d277-481e-b7b1-b6e21992e3cf","system_id":"levelo_inurba_marseille","lat":43.298433,"lon":5.362774,"is_reserved":false,"is_disabled":false,"rental_uris":{"android":"levelo://app?vid=2c05cb8d-d277-481e-b7b1-b6e21992e3cf","ios":"levelo://app?vid=2c05cb8d-d277-481e-b7b1-b6e21992e3cf"},"vehicle_type_id":"4","last_reported":1723287998,"current_range_meters":31600,"station_id":"ce4bgpp2rcd13ifvqc3g","pricing_plan_id":"cebpf4jnsgd1na2vs0mg"},{"bike_id":"96e9191b-047e-4ad6-acd7-265199751ecd","system_id":"levelo_inurba_marseille","lat":43.299243,"lon":5.374807,"is_reserved":false,"is_disabled":false,"rental_uris":{"android":"levelo://app?vid=96e9191b-047e-4ad6-acd7-265199751ecd","ios":"levelo://app?vid=96e9191b-047e-4ad6-acd7-265199751ecd"},"vehicle_type_id":"4","last_reported":1723287998,"current_range_meters":10800,"station_id":"ce4bgjh2rcd13ifvqbg0","pricing_plan_id":"cebpf4jnsgd1na2vs0mg"},{"bike_id":"c6404903-8345-4644-a154-bc64d2020b42","system_id":"levelo_inurba_marseille","lat":43.298433,"lon":5.362774,"is_reserved":false,"is_disabled":false,"rental_uris":{"android":"levelo://app?vid=c6404903-8345-4644-a154-bc64d2020b42","ios":"levelo://app?vid=c6404903-8345-4644-a154-bc64d2020b42"},"vehicle_type_id":"4","last_reported":1723287998,"current_range_meters":30000,"station_id":"ce4bgpp2rcd13ifvqc3g","pricing_plan_id":"cebpf4jnsgd1na2vs0mg"},{"bike_id":"d773011f-b65d-422b-849a-5ea618617615","system_id":"levelo_inurba_marseille","lat":43.298433,"lon":5.362774,"is_reserved":false,"is_disabled":false,"rental_uris":{"android":"levelo://app?vid=d773011f-b65d-422b-849a-5ea618617615","ios":"levelo://app?vid=d773011f-b65d-422b-849a-5ea618617615"},"vehicle_type_id":"4","last_reported":1723287998,"current_range_meters":28800,"station_id":"ce4bgpp2rcd13ifvqc3g","pricing_plan_id":"cebpf4jnsgd1na2vs0mg"},{"bike_id":"bc038f6c-a052-471a-8394-ef4245b01f11","system_id":"levelo_inurba_marseille","lat":43.29917,"lon":5.37473,"is_reserved":false,"is_disabled":false,"rental_uris":{"android":"levelo://app?vid=bc038f6c-a052-471a-8394-ef4245b01f11","ios":"levelo://app?vid=bc038f6c-a052-471a-8394-ef4245b01f11"},"vehicle_type_id":"4","last_reported":1723287998,"current_range_meters":5600,"station_id":"ce4bgjh2rcd13ifvqbg0","pricing_plan_id":"cebpf4jnsgd1na2vs0mg"},{"bike_id":"6aca5d6d-4f81-4f67-b0b1-7bcc978318b3","system_id":"levelo_inurba_marseille","lat":43.31203,"lon":5.387215,"is_reserved":false,"is_disabled":false,"rental_uris":{"android":"levelo://app?vid=6aca5d6d-4f81-4f67-b0b1-7bcc978318b3","ios":"levelo://app?vid=6aca5d6d-4f81-4f67-b0b1-7bcc978318b3"},"vehicle_type_id":"4","last_reported":1723287998,"current_range_meters":26400,"station_id":"ce4bgv12rcd13ifvqcp0","pricing_plan_id":"cebpf4jnsgd1na2vs0mg"},{"bike_id":"371d672f-b3f8-4431-8cc3-5dbe54a36e51","system_id":"levelo_inurba_marseille","lat":43.311722,"lon":5.387247,"is_reserved":false,"is_disabled":false,"rental_uris":{"android":"levelo://app?vid=371d672f-b3f8-4431-8cc3-5dbe54a36e51","ios":"levelo://app?vid=371d672f-b3f8-4431-8cc3-5dbe54a36e51"},"vehicle_type_id":"4","last_reported":1723287998,"current_range_meters":25200,"station_id":"ce4bgv12rcd13ifvqcp0","pricing_plan_id":"cebpf4jnsgd1na2vs0mg"},{"bike_id":"3802a934-229a-4cd4-b101-35721c9afd3e","system_id":"levelo_inurba_marseille","lat":43.297774,"lon":5.370875,"is_reserved":false,"is_disabled":false,"rental_uris":{"android":"levelo://app?vid=3802a934-229a-4cd4-b101-35721c9afd3e","ios":"levelo://app?vid=3802a934-229a-4cd4-b101-35721c9afd3e"},"vehicle_type_id":"4","last_reported":1723287998,"current_range_meters":400,"station_id":"ce4bgop2rcd13ifvqc1g","pricing_plan_id":"cebpf4jnsgd1na2vs0mg"},{"bike_id":"6670c5b5-10b7-48d1-8b85-eaf8441c7536","system_id":"levelo_inurba_marseille","lat":43.297774,"lon":5.370875,"is_reserved":false,"is_disabled":false,"rental_uris":{"android":"levelo://app?vid=6670c5b5-10b7-48d1-8b85-eaf8441c7536","ios":"levelo://app?vid=6670c5b5-10b7-48d1-8b85-eaf8441c7536"},"vehicle_type_id":"4","last_reported":1723287998,"current_range_meters":12000,"station_id":"ce4bgop2rcd13ifvqc1g","pricing_plan_id":"cebpf4jnsgd1na2vs0mg"},{"bike_id":"7dc8f205-bc0f-4c93-a972-2621d0b99c1a","system_id":"levelo_inurba_marseille","lat":43.322872,"lon":5.382756,"is_reserved":false,"is_disabled":false,"rental_uris":{"android":"levelo://app?vid=7dc8f205-bc0f-4c93-a972-2621d0b99c1a","ios":"levelo://app?vid=7dc8f205-bc0f-4c93-a972-2621d0b99c1a"},"vehicle_type_id":"4","last_reported":1723287998,"current_range_meters":31200,"station_id":"ce4bhr12rcd13ifvqhqg","pricing_plan_id":"cebpf4jnsgd1na2vs0mg"},{"bike_id":"2a1e9806-b2ef-49ba-9af7-2d0df20c945b","system_id":"levelo_inurba_marseille","lat":43.297794,"lon":5.370888,"is_reserved":false,"is_disabled":false,"rental_uris":{"android":"levelo://app?vid=2a1e9806-b2ef-49ba-9af7-2d0df20c945b","ios":"levelo://app?vid=2a1e9806-b2ef-49ba-9af7-2d0df20c945b"},"vehicle_type_id":"4","last_reported":1723287998,"current_range_meters":2800,"station_id":"ce4bgop2rcd13ifvqc1g","pricing_plan_id":"cebpf4jnsgd1na2vs0mg"},{"bike_id":"c30afed9-af68-4726-8063-f30054d89dd8","system_id":"levelo_inurba_marseille","lat":43.32291,"lon":5.38267,"is_reserved":false,"is_disabled":false,"rental_uris":{"android":"levelo://app?vid=c30afed9-af68-4726-8063-f30054d89dd8","ios":"levelo://app?vid=c30afed9-af68-4726-8063-f30054d89dd8"},"vehicle_type_id":"4","last_reported":1723287998,"current_range_meters":9600,"station_id":"ce4bhr12rcd13ifvqhqg","pricing_plan_id":"cebpf4jnsgd1na2vs0mg"},{"bike_id":"216240ef-238f-48ba-bd26-5d1c9cf540df","system_id":"levelo_inurba_marseille","lat":43.31456,"lon":5.38784,"is_reserved":false,"is_disabled":false,"rental_uris":{"android":"levelo://app?vid=216240ef-238f-48ba-bd26-5d1c9cf540df","ios":"levelo://app?vid=216240ef-238f-48ba-bd26-5d1c9cf540df"},"vehicle_type_id":"4","last_reported":1723287998,"current_range_meters":800,"station_id":"","pricing_plan_id":"cebpf4jnsgd1na2vs0mg"},{"bike_id":"82f14497-3d6f-4696-b168-54ad0dd479fa","system_id":"levelo_inurba_marseille","lat":43.32285,"lon":5.38276,"is_reserved":false,"is_disabled":false,"rental_uris":{"android":"levelo://app?vid=82f14497-3d6f-4696-b168-54ad0dd479fa","ios":"levelo://app?vid=82f14497-3d6f-4696-b168-54ad0dd479fa"},"vehicle_type_id":"4","last_reported":1723287998,"current_range_meters":31200,"station_id":"ce4bhr12rcd13ifvqhqg","pricing_plan_id":"cebpf4jnsgd1na2vs0mg"},{"bike_id":"435cae36-4ed6-4222-85d4-60949a07cac7","system_id":"levelo_inurba_marseille","lat":43.32291,"lon":5.38269,"is_reserved":false,"is_disabled":false,"rental_uris":{"android":"levelo://app?vid=435cae36-4ed6-4222-85d4-60949a07cac7","ios":"levelo://app?vid=435cae36-4ed6-4222-85d4-60949a07cac7"},"vehicle_type_id":"4","last_reported":1723287998,"current_range_meters":30000,"station_id":"ce4bhr12rcd13ifvqhqg","pricing_plan_id":"cebpf4jnsgd1na2vs0mg"},{"bike_id":"76b0c718-32ea-4fa8-88c8-22e826f09f1b","system_id":"levelo_inurba_marseille","lat":43.32296,"lon":5.38285,"is_reserved":false,"is_disabled":false,"rental_uris":{"android":"levelo://app?vid=76b0c718-32ea-4fa8-88c8-22e826f09f1b","ios":"levelo://app?vid=76b0c718-32ea-4fa8-88c8-22e826f09f1b"},"vehicle_type_id":"4","last_reported":1723287998,"current_range_meters":2400,"station_id":"ce4bhr12rcd13ifvqhqg","pricing_plan_id":"cebpf4jnsgd1na2vs0mg"},{"bike_id":"77a33cde-b291-40c4-bce9-d17120c1e09a","system_id":"levelo_inurba_marseille","lat":43.297774,"lon":5.370875,"is_reserved":false,"is_disabled":false,"rental_uris":{"android":"levelo://app?vid=77a33cde-b291-40c4-bce9-d17120c1e09a","ios":"levelo://app?vid=77a33cde-b291-40c4-bce9-d17120c1e09a"},"vehicle_type_id":"4","last_reported":1723287998,"current_range_meters":10800,"station_id":"ce4bgop2rcd13ifvqc1g","pricing_plan_id":"cebpf4jnsgd1na2vs0mg"},{"bike_id":"e61bc507-f78c-4050-8d7c-eeebee4fa941","system_id":"levelo_inurba_marseille","lat":43.305364,"lon":5.384119,"is_reserved":false,"is_disabled":false,"rental_uris":{"android":"levelo://app?vid=e61bc507-f78c-4050-8d7c-eeebee4fa941","ios":"levelo://app?vid=e61bc507-f78c-4050-8d7c-eeebee4fa941"},"vehicle_type_id":"4","last_reported":1723287998,"current_range_meters":14800,"station_id":"ce4bgg92rcd13ifvqb30","pricing_plan_id":"cebpf4jnsgd1na2vs0mg"},{"bike_id":"b2186dfa-952c-4b55-a1fa-48c7ec4cde3a","system_id":"levelo_inurba_marseille","lat":43.297163,"lon":5.365866,"is_reserved":false,"is_disabled":false,"rental_uris":{"android":"levelo://app?vid=b2186dfa-952c-4b55-a1fa-48c7ec4cde3a","ios":"levelo://app?vid=b2186dfa-952c-4b55-a1fa-48c7ec4cde3a"},"vehicle_type_id":"4","last_reported":1723287998,"current_range_meters":31600,"station_id":"ce4bgn12rcd13ifvqbt0","pricing_plan_id":"cebpf4jnsgd1na2vs0mg"},{"bike_id":"e3e9ae20-63ec-460e-8f01-25c1d77815b2","system_id":"levelo_inurba_marseille","lat":43.313571,"lon":5.384829,"is_reserved":false,"is_disabled":false,"rental_uris":{"android":"levelo://app?vid=e3e9ae20-63ec-460e-8f01-25c1d77815b2","ios":"levelo://app?vid=e3e9ae20-63ec-460e-8f01-25c1d77815b2"},"vehicle_type_id":"4","last_reported":1723287998,"current_range_meters":30000,"station_id":"ce4bgt92rcd13ifvqcf0","pricing_plan_id":"cebpf4jnsgd1na2vs0mg"},{"bike_id":"aa73f9bf-e257-48ed-a51f-1ec430b7ac1c","system_id":"levelo_inurba_marseille","lat":43.2968,"lon":5.37291,"is_reserved":false,"is_disabled":false,"rental_uris":{"android":"levelo://app?vid=aa73f9bf-e257-48ed-a51f-1ec430b7ac1c","ios":"levelo://app?vid=aa73f9bf-e257-48ed-a51f-1ec430b7ac1c"},"vehicle_type_id":"4","last_reported":1723287998,"current_range_meters":0,"station_id":"ce4bgk12rcd13ifvqbj0","pricing_plan_id":"cebpf4jnsgd1na2vs0mg"},{"bike_id":"d242c61e-c397-4838-b9c3-6aaa46b2ebcf","system_id":"levelo_inurba_marseille","lat":43.2968,"lon":5.37291,"is_reserved":false,"is_disabled":false,"rental_uris":{"android":"levelo://app?vid=d242c61e-c397-4838-b9c3-6aaa46b2ebcf","ios":"levelo://app?vid=d242c61e-c397-4838-b9c3-6aaa46b2ebcf"},"vehicle_type_id":"4","last_reported":1723287998,"current_range_meters":22800,"station_id":"ce4bgk12rcd13ifvqbj0","pricing_plan_id":"cebpf4jnsgd1na2vs0mg"},{"bike_id":"d50f1862-8389-4d38-bf69-907f1a57f7b8","system_id":"levelo_inurba_marseille","lat":43.2968,"lon":5.37291,"is_reserved":false,"is_disabled":false,"rental_uris":{"android":"levelo://app?vid=d50f1862-8389-4d38-bf69-907f1a57f7b8","ios":"levelo://app?vid=d50f1862-8389-4d38-bf69-907f1a57f7b8"},"vehicle_type_id":"4","last_reported":1723287998,"current_range_meters":29200,"station_id":"ce4bgk12rcd13ifvqbj0","pricing_plan_id":"cebpf4jnsgd1na2vs0mg"},{"bike_id":"501987af-622b-43fc-9677-294df046d761","system_id":"levelo_inurba_marseille","lat":43.2968,"lon":5.37291,"is_reserved":false,"is_disabled":false,"rental_uris":{"android":"levelo://app?vid=501987af-622b-43fc-9677-294df046d761","ios":"levelo://app?vid=501987af-622b-43fc-9677-294df046d761"},"vehicle_type_id":"4","last_reported":1723287998,"current_range_meters":13600,"station_id":"ce4bgk12rcd13ifvqbj0","pricing_plan_id":"cebpf4jnsgd1na2vs0mg"},{"bike_id":"0e7f1d24-5ec2-4bf2-979e-91875786b8df","system_id":"levelo_inurba_marseille","lat":43.2968,"lon":5.37291,"is_reserved":false,"is_disabled":false,"rental_uris":{"android":"levelo://app?vid=0e7f1d24-5ec2-4bf2-979e-91875786b8df","ios":"levelo://app?vid=0e7f1d24-5ec2-4bf2-979e-91875786b8df"},"vehicle_type_id":"4","last_reported":1723287998,"current_range_meters":29600,"station_id":"ce4bgk12rcd13ifvqbj0","pricing_plan_id":"cebpf4jnsgd1na2vs0mg"},{"bike_id":"9c317eac-c7ab-4c89-a13f-153cd8b53a9a","system_id":"levelo_inurba_marseille","lat":43.2968,"lon":5.37291,"is_reserved":false,"is_disabled":false,"rental_uris":{"android":"levelo://app?vid=9c317eac-c7ab-4c89-a13f-153cd8b53a9a","ios":"levelo://app?vid=9c317eac-c7ab-4c89-a13f-153cd8b53a9a"},"vehicle_type_id":"4","last_reported":1723287998,"current_range_meters":3600,"station_id":"ce4bgk12rcd13ifvqbj0","pricing_plan_id":"cebpf4jnsgd1na2vs0mg"},{"bike_id":"45668f52-8e9d-4ef1-be6b-e3ceac790a78","system_id":"levelo_inurba_marseille","lat":43.296131,"lon":5.370791,"is_reserved":false,"is_disabled":false,"rental_uris":{"android":"levelo://app?vid=45668f52-8e9d-4ef1-be6b-e3ceac790a78","ios":"levelo://app?vid=45668f52-8e9d-4ef1-be6b-e3ceac790a78"},"vehicle_type_id":"4","last_reported":1723287998,"current_range_meters":10800,"station_id":"ce4bgnh2rcd13ifvqc0g","pricing_plan_id":"cebpf4jnsgd1na2vs0mg"},{"bike_id":"a0a01dfb-6f4a-41b3-955a-49e9c5f9e9db","system_id":"levelo_inurba_marseille","lat":43.296131,"lon":5.370791,"is_reserved":false,"is_disabled":false,"rental_uris":{"android":"levelo://app?vid=a0a01dfb-6f4a-41b3-955a-49e9c5f9e9db","ios":"levelo://app?vid=a0a01dfb-6f4a-41b3-955a-49e9c5f9e9db"},"vehicle_type_id":"4","last_reported":1723287998,"current_range_meters":13600,"station_id":"ce4bgnh2rcd13ifvqc0g","pricing_plan_id":"cebpf4jnsgd1na2vs0mg"},{"bike_id":"0454fe9e-4b9f-4382-b2bf-efee7499d1c8","system_id":"levelo_inurba_marseille","lat":43.29573,"lon":5.367355,"is_reserved":false,"is_disabled":false,"rental_uris":{"android":"levelo://app?vid=0454fe9e-4b9f-4382-b2bf-efee7499d1c8","ios":"levelo://app?vid=0454fe9e-4b9f-4382-b2bf-efee7499d1c8"},"vehicle_type_id":"4","last_reported":1723287998,"current_range_meters":27600,"station_id":"ce4bgph2rcd13ifvqc2g","pricing_plan_id":"cebpf4jnsgd1na2vs0mg"},{"bike_id":"eb5103ba-d883-4756-8364-c0e6306d1a34","system_id":"levelo_inurba_marseille","lat":43.29576,"lon":5.367507,"is_reserved":false,"is_disabled":false,"rental_uris":{"android":"levelo://app?vid=eb5103ba-d883-4756-8364-c0e6306d1a34","ios":"levelo://app?vid=eb5103ba-d883-4756-8364-c0e6306d1a34"},"vehicle_type_id":"4","last_reported":1723287998,"current_range_meters":0,"station_id":"ce4bgph2rcd13ifvqc2g","pricing_plan_id":"cebpf4jnsgd1na2vs0mg"},{"bike_id":"9e8278e4-9247-4d83-8f36-a27a8f34ec7c","system_id":"levelo_inurba_marseille","lat":43.29737,"lon":5.3769,"is_reserved":false,"is_disabled":false,"rental_uris":{"android":"levelo://app?vid=9e8278e4-9247-4d83-8f36-a27a8f34ec7c","ios":"levelo://app?vid=9e8278e4-9247-4d83-8f36-a27a8f34ec7c"},"vehicle_type_id":"4","last_reported":1723287998,"current_range_meters":0,"station_id":"ce4bgkh2rcd13ifvqbl0","pricing_plan_id":"cebpf4jnsgd1na2vs0mg"},{"bike_id":"5d780be6-de57-4eb0-ad08-9c6fa373b570","system_id":"levelo_inurba_marseille","lat":43.309589,"lon":5.390258,"is_reserved":false,"is_disabled":false,"rental_uris":{"android":"levelo://app?vid=5d780be6-de57-4eb0-ad08-9c6fa373b570","ios":"levelo://app?vid=5d780be6-de57-4eb0-ad08-9c6fa373b570"},"vehicle_type_id":"4","last_reported":1723287998,"current_range_meters":6800,"station_id":"ce4bgup2rcd13ifvqco0","pricing_plan_id":"cebpf4jnsgd1na2vs0mg"},{"bike_id":"5002fdf4-9ddf-47ff-916f-547110b50234","system_id":"levelo_inurba_marseille","lat":43.31973,"lon":5.38877,"is_reserved":false,"is_disabled":false,"rental_uris":{"android":"levelo://app?vid=5002fdf4-9ddf-47ff-916f-547110b50234","ios":"levelo://app?vid=5002fdf4-9ddf-47ff-916f-547110b50234"},"vehicle_type_id":"4","last_reported":1723287998,"current_range_meters":6400,"station_id":"","pricing_plan_id":"cebpf4jnsgd1na2vs0mg"},{"bike_id":"58bf4bb6-35db-4178-b88a-e4082560f8a4","system_id":"levelo_inurba_marseille","lat":43.29535,"lon":5.36529,"is_reserved":false,"is_disabled":false,"rental_uris":{"android":"levelo://app?vid=58bf4bb6-35db-4178-b88a-e4082560f8a4","ios":"levelo://app?vid=58bf4bb6-35db-4178-b88a-e4082560f8a4"},"vehicle_type_id":"4","last_reported":1723287998,"current_range_meters":24400,"station_id":"","pricing_plan_id":"cebpf4jnsgd1na2vs0mg"},{"bike_id":"e3e896b7-3260-42ee-a2cc-aaab0b46ab74","system_id":"levelo_inurba_marseille","lat":43.3176,"lon":5.39012,"is_reserved":false,"is_disabled":false,"rental_uris":{"android":"levelo://app?vid=e3e896b7-3260-42ee-a2cc-aaab0b46ab74","ios":"levelo://app?vid=e3e896b7-3260-42ee-a2cc-aaab0b46ab74"},"vehicle_type_id":"4","last_reported":1723287998,"current_range_meters":27200,"station_id":"ce4bhqp2rcd13ifvqhng","pricing_plan_id":"cebpf4jnsgd1na2vs0mg"},{"bike_id":"2f529738-f8ee-4e89-ba1b-2d2599fadcb7","system_id":"levelo_inurba_marseille","lat":43.29569,"lon":5.37502,"is_reserved":false,"is_disabled":false,"rental_uris":{"android":"levelo://app?vid=2f529738-f8ee-4e89-ba1b-2d2599fadcb7","ios":"levelo://app?vid=2f529738-f8ee-4e89-ba1b-2d2599fadcb7"},"vehicle_type_id":"4","last_reported":1723287998,"current_range_meters":4400,"station_id":"ce4bgh92rcd13ifvqb50","pricing_plan_id":"cebpf4jnsgd1na2vs0mg"},{"bike_id":"4a5e9369-9bd4-4574-b9a7-7753e68727dc","system_id":"levelo_inurba_marseille","lat":43.304278,"lon":5.388868,"is_reserved":false,"is_disabled":false,"rental_uris":{"android":"levelo://app?vid=4a5e9369-9bd4-4574-b9a7-7753e68727dc","ios":"levelo://app?vid=4a5e9369-9bd4-4574-b9a7-7753e68727dc"},"vehicle_type_id":"4","last_reported":1723287998,"current_range_meters":24800,"station_id":"ce4bgk12rcd13ifvqbi0","pricing_plan_id":"cebpf4jnsgd1na2vs0mg"},{"bike_id":"b2940ac6-4c25-4c84-bfa8-da6a1e3bf0f5","system_id":"levelo_inurba_marseille","lat":43.296277,"lon":5.377108,"is_reserved":false,"is_disabled":false,"rental_uris":{"android":"levelo://app?vid=b2940ac6-4c25-4c84-bfa8-da6a1e3bf0f5","ios":"levelo://app?vid=b2940ac6-4c25-4c84-bfa8-da6a1e3bf0f5"},"vehicle_type_id":"4","last_reported":1723287998,"current_range_meters":3600,"station_id":"ce4bgi92rcd13ifvqb90","pricing_plan_id":"cebpf4jnsgd1na2vs0mg"},{"bike_id":"022e53b1-c129-42ec-9468-c3ebbc795a7c","system_id":"levelo_inurba_marseille","lat":43.296277,"lon":5.377108,"is_reserved":false,"is_disabled":false,"rental_uris":{"android":"levelo://app?vid=022e53b1-c129-42ec-9468-c3ebbc795a7c","ios":"levelo://app?vid=022e53b1-c129-42ec-9468-c3ebbc795a7c"},"vehicle_type_id":"4","last_reported":1723287998,"current_range_meters":13600,"station_id":"ce4bgi92rcd13ifvqb90","pricing_plan_id":"cebpf4jnsgd1na2vs0mg"},{"bike_id":"e7f3c0e6-cc37-4ef8-bfa8-3291fcbaad7b","system_id":"levelo_inurba_marseille","lat":43.296277,"lon":5.377108,"is_reserved":false,"is_disabled":false,"rental_uris":{"android":"levelo://app?vid=e7f3c0e6-cc37-4ef8-bfa8-3291fcbaad7b","ios":"levelo://app?vid=e7f3c0e6-cc37-4ef8-bfa8-3291fcbaad7b"},"vehicle_type_id":"4","last_reported":1723287998,"current_range_meters":27600,"station_id":"ce4bgi92rcd13ifvqb90","pricing_plan_id":"cebpf4jnsgd1na2vs0mg"},{"bike_id":"187c9ac6-59a8-4bd2-8bde-045871404408","system_id":"levelo_inurba_marseille","lat":43.296277,"lon":5.377108,"is_reserved":false,"is_disabled":false,"rental_uris":{"android":"levelo://app?vid=187c9ac6-59a8-4bd2-8bde-045871404408","ios":"levelo://app?vid=187c9ac6-59a8-4bd2-8bde-045871404408"},"vehicle_type_id":"4","last_reported":1723287998,"current_range_meters":2000,"station_id":"ce4bgi92rcd13ifvqb90","pricing_plan_id":"cebpf4jnsgd1na2vs0mg"},{"bike_id":"ad431f4c-eb99-4625-a446-e429f4e11853","system_id":"levelo_inurba_marseille","lat":43.32367,"lon":5.38876,"is_reserved":false,"is_disabled":false,"rental_uris":{"android":"levelo://app?vid=ad431f4c-eb99-4625-a446-e429f4e11853","ios":"levelo://app?vid=ad431f4c-eb99-4625-a446-e429f4e11853"},"vehicle_type_id":"4","last_reported":1723287998,"current_range_meters":8000,"station_id":"ce4bhqp2rcd13ifvqhog","pricing_plan_id":"cebpf4jnsgd1na2vs0mg"},{"bike_id":"4385894f-5195-4653-8119-e4750b9f5d33","system_id":"levelo_inurba_marseille","lat":43.32367,"lon":5.388836,"is_reserved":false,"is_disabled":false,"rental_uris":{"android":"levelo://app?vid=4385894f-5195-4653-8119-e4750b9f5d33","ios":"levelo://app?vid=4385894f-5195-4653-8119-e4750b9f5d33"},"vehicle_type_id":"4","last_reported":1723287998,"current_range_meters":4400,"station_id":"ce4bhqp2rcd13ifvqhog","pricing_plan_id":"cebpf4jnsgd1na2vs0mg"},{"bike_id":"c02a821f-6fc9-4898-82b3-df4bf3cecbf5","system_id":"levelo_inurba_marseille","lat":43.29636,"lon":5.38126,"is_reserved":false,"is_disabled":false,"rental_uris":{"android":"levelo://app?vid=c02a821f-6fc9-4898-82b3-df4bf3cecbf5","ios":"levelo://app?vid=c02a821f-6fc9-4898-82b3-df4bf3cecbf5"},"vehicle_type_id":"4","last_reported":1723287998,"current_range_meters":6000,"station_id":"","pricing_plan_id":"cebpf4jnsgd1na2vs0mg"},{"bike_id":"fd831640-3c7a-4d30-b993-05917e9a8584","system_id":"levelo_inurba_marseille","lat":43.292749,"lon":5.368402,"is_reserved":false,"is_disabled":false,"rental_uris":{"android":"levelo://app?vid=fd831640-3c7a-4d30-b993-05917e9a8584","ios":"levelo://app?vid=fd831640-3c7a-4d30-b993-05917e9a8584"},"vehicle_type_id":"4","last_reported":1723287998,"current_range_meters":18000,"station_id":"ce4bhbp2rcd13ifvqesg","pricing_plan_id":"cebpf4jnsgd1na2vs0mg"},{"bike_id":"f23811cc-d8ec-4200-8ee6-62fa65bc25a0","system_id":"levelo_inurba_marseille","lat":43.292749,"lon":5.368402,"is_reserved":false,"is_disabled":false,"rental_uris":{"android":"levelo://app?vid=f23811cc-d8ec-4200-8ee6-62fa65bc25a0","ios":"levelo://app?vid=f23811cc-d8ec-4200-8ee6-62fa65bc25a0"},"vehicle_type_id":"4","last_reported":1723287998,"current_range_meters":0,"station_id":"ce4bhbp2rcd13ifvqesg","pricing_plan_id":"cebpf4jnsgd1na2vs0mg"},{"bike_id":"f02c5cee-e597-492c-87a4-4123e31f068c","system_id":"levelo_inurba_marseille","lat":43.29265,"lon":5.36848,"is_reserved":false,"is_disabled":false,"rental_uris":{"android":"levelo://app?vid=f02c5cee-e597-492c-87a4-4123e31f068c","ios":"levelo://app?vid=f02c5cee-e597-492c-87a4-4123e31f068c"},"vehicle_type_id":"4","last_reported":1723287998,"current_range_meters":18400,"station_id":"ce4bhbp2rcd13ifvqesg","pricing_plan_id":"cebpf4jnsgd1na2vs0mg"},{"bike_id":"0644ab5e-6d45-413c-960b-dc4d9d7a875e","system_id":"levelo_inurba_marseille","lat":43.293009,"lon":5.374584,"is_reserved":false,"is_disabled":false,"rental_uris":{"android":"levelo://app?vid=0644ab5e-6d45-413c-960b-dc4d9d7a875e","ios":"levelo://app?vid=0644ab5e-6d45-413c-960b-dc4d9d7a875e"},"vehicle_type_id":"4","last_reported":1723287998,"current_range_meters":22800,"station_id":"ce4bgi12rcd13ifvqb70","pricing_plan_id":"cebpf4jnsgd1na2vs0mg"},{"bike_id":"525fc642-85d0-461e-b506-bb42bf26a019","system_id":"levelo_inurba_marseille","lat":43.293009,"lon":5.374584,"is_reserved":false,"is_disabled":false,"rental_uris":{"android":"levelo://app?vid=525fc642-85d0-461e-b506-bb42bf26a019","ios":"levelo://app?vid=525fc642-85d0-461e-b506-bb42bf26a019"},"vehicle_type_id":"4","last_reported":1723287998,"current_range_meters":28800,"station_id":"ce4bgi12rcd13ifvqb70","pricing_plan_id":"cebpf4jnsgd1na2vs0mg"},{"bike_id":"8d37495d-9961-45f8-ba67-ee81725ae3ae","system_id":"levelo_inurba_marseille","lat":43.29228,"lon":5.36363,"is_reserved":false,"is_disabled":false,"rental_uris":{"android":"levelo://app?vid=8d37495d-9961-45f8-ba67-ee81725ae3ae","ios":"levelo://app?vid=8d37495d-9961-45f8-ba67-ee81725ae3ae"},"vehicle_type_id":"4","last_reported":1723287998,"current_range_meters":9200,"station_id":"","pricing_plan_id":"cebpf4jnsgd1na2vs0mg"},{"bike_id":"3f37b13c-cb7a-4696-882c-5f4f2c1f6393","system_id":"levelo_inurba_marseille","lat":43.29344,"lon":5.377191,"is_reserved":false,"is_disabled":false,"rental_uris":{"android":"levelo://app?vid=3f37b13c-cb7a-4696-882c-5f4f2c1f6393","ios":"levelo://app?vid=3f37b13c-cb7a-4696-882c-5f4f2c1f6393"},"vehicle_type_id":"4","last_reported":1723287998,"current_range_meters":0,"station_id":"","pricing_plan_id":"cebpf4jnsgd1na2vs0mg"},{"bike_id":"8ef52e33-01b9-4d9f-bdc1-2d1b950b90d9","system_id":"levelo_inurba_marseille","lat":43.292311,"lon":5.360731,"is_reserved":false,"is_disabled":false,"rental_uris":{"android":"levelo://app?vid=8ef52e33-01b9-4d9f-bdc1-2d1b950b90d9","ios":"levelo://app?vid=8ef52e33-01b9-4d9f-bdc1-2d1b950b90d9"},"vehicle_type_id":"4","last_reported":1723287998,"current_range_meters":21600,"station_id":"ce4bhbh2rcd13ifvqeqg","pricing_plan_id":"cebpf4jnsgd1na2vs0mg"},{"bike_id":"39f953aa-3a33-4c90-98cd-ac62b1479eea","system_id":"levelo_inurba_marseille","lat":43.292311,"lon":5.360731,"is_reserved":false,"is_disabled":false,"rental_uris":{"android":"levelo://app?vid=39f953aa-3a33-4c90-98cd-ac62b1479eea","ios":"levelo://app?vid=39f953aa-3a33-4c90-98cd-ac62b1479eea"},"vehicle_type_id":"4","last_reported":1723287998,"current_range_meters":28400,"station_id":"ce4bhbh2rcd13ifvqeqg","pricing_plan_id":"cebpf4jnsgd1na2vs0mg"},{"bike_id":"e292ee6f-68ea-4429-8b02-b8d0624a4748","system_id":"levelo_inurba_marseille","lat":43.292311,"lon":5.360731,"is_reserved":false,"is_disabled":false,"rental_uris":{"android":"levelo://app?vid=e292ee6f-68ea-4429-8b02-b8d0624a4748","ios":"levelo://app?vid=e292ee6f-68ea-4429-8b02-b8d0624a4748"},"vehicle_type_id":"4","last_reported":1723287998,"current_range_meters":30000,"station_id":"ce4bhbh2rcd13ifvqeqg","pricing_plan_id":"cebpf4jnsgd1na2vs0mg"},{"bike_id":"063af1f4-825a-4240-80f4-04ce9f3ea2fd","system_id":"levelo_inurba_marseille","lat":43.292311,"lon":5.360731,"is_reserved":false,"is_disabled":false,"rental_uris":{"android":"levelo://app?vid=063af1f4-825a-4240-80f4-04ce9f3ea2fd","ios":"levelo://app?vid=063af1f4-825a-4240-80f4-04ce9f3ea2fd"},"vehicle_type_id":"4","last_reported":1723287998,"current_range_meters":24400,"station_id":"ce4bhbh2rcd13ifvqeqg","pricing_plan_id":"cebpf4jnsgd1na2vs0mg"},{"bike_id":"2d4188fa-07de-4b58-87fb-c1888b57ebef","system_id":"levelo_inurba_marseille","lat":43.292311,"lon":5.360731,"is_reserved":false,"is_disabled":false,"rental_uris":{"android":"levelo://app?vid=2d4188fa-07de-4b58-87fb-c1888b57ebef","ios":"levelo://app?vid=2d4188fa-07de-4b58-87fb-c1888b57ebef"},"vehicle_type_id":"4","last_reported":1723287998,"current_range_meters":26400,"station_id":"ce4bhbh2rcd13ifvqeqg","pricing_plan_id":"cebpf4jnsgd1na2vs0mg"},{"bike_id":"62c27b8e-2ad4-4bb1-9c9a-1fe4d99a424a","system_id":"levelo_inurba_marseille","lat":43.292671,"lon":5.37611,"is_reserved":false,"is_disabled":false,"rental_uris":{"android":"levelo://app?vid=62c27b8e-2ad4-4bb1-9c9a-1fe4d99a424a","ios":"levelo://app?vid=62c27b8e-2ad4-4bb1-9c9a-1fe4d99a424a"},"vehicle_type_id":"4","last_reported":1723287998,"current_range_meters":23200,"station_id":"ce4bgi12rcd13ifvqb80","pricing_plan_id":"cebpf4jnsgd1na2vs0mg"},{"bike_id":"8669c215-f64f-4991-918a-38e605b47e3d","system_id":"levelo_inurba_marseille","lat":43.29287,"lon":5.355549,"is_reserved":false,"is_disabled":false,"rental_uris":{"android":"levelo://app?vid=8669c215-f64f-4991-918a-38e605b47e3d","ios":"levelo://app?vid=8669c215-f64f-4991-918a-38e605b47e3d"},"vehicle_type_id":"4","last_reported":1723287998,"current_range_meters":8400,"station_id":"","pricing_plan_id":"cebpf4jnsgd1na2vs0mg"},{"bike_id":"4dad3722-6baa-4d91-bfec-b89feb5e4614","system_id":"levelo_inurba_marseille","lat":43.292005,"lon":5.357875,"is_reserved":false,"is_disabled":false,"rental_uris":{"android":"levelo://app?vid=4dad3722-6baa-4d91-bfec-b89feb5e4614","ios":"levelo://app?vid=4dad3722-6baa-4d91-bfec-b89feb5e4614"},"vehicle_type_id":"4","last_reported":1723287998,"current_range_meters":3200,"station_id":"ce4bhb12rcd13ifvqel0","pricing_plan_id":"cebpf4jnsgd1na2vs0mg"},{"bike_id":"a208c92f-d234-40e8-8fe6-8282e6edba9d","system_id":"levelo_inurba_marseille","lat":43.29198,"lon":5.35784,"is_reserved":false,"is_disabled":false,"rental_uris":{"android":"levelo://app?vid=a208c92f-d234-40e8-8fe6-8282e6edba9d","ios":"levelo://app?vid=a208c92f-d234-40e8-8fe6-8282e6edba9d"},"vehicle_type_id":"4","last_reported":1723287998,"current_range_meters":20000,"station_id":"ce4bhb12rcd13ifvqel0","pricing_plan_id":"cebpf4jnsgd1na2vs0mg"},{"bike_id":"a0c02b8a-f155-4158-b9a4-cefeda5546c8","system_id":"levelo_inurba_marseille","lat":43.313291,"lon":5.396838,"is_reserved":false,"is_disabled":false,"rental_uris":{"android":"levelo://app?vid=a0c02b8a-f155-4158-b9a4-cefeda5546c8","ios":"levelo://app?vid=a0c02b8a-f155-4158-b9a4-cefeda5546c8"},"vehicle_type_id":"4","last_reported":1723287998,"current_range_meters":4000,"station_id":"ce4bgvp2rcd13ifvqcu0","pricing_plan_id":"cebpf4jnsgd1na2vs0mg"},{"bike_id":"9d4b68a5-c93f-4844-a235-5ff4a055b660","system_id":"levelo_inurba_marseille","lat":43.292385,"lon":5.37767,"is_reserved":false,"is_disabled":false,"rental_uris":{"android":"levelo://app?vid=9d4b68a5-c93f-4844-a235-5ff4a055b660","ios":"levelo://app?vid=9d4b68a5-c93f-4844-a235-5ff4a055b660"},"vehicle_type_id":"4","last_reported":1723287998,"current_range_meters":12000,"station_id":"","pricing_plan_id":"cebpf4jnsgd1na2vs0mg"},{"bike_id":"da1296df-0f0b-410d-9aa3-c7a4d2782611","system_id":"levelo_inurba_marseille","lat":43.313291,"lon":5.396838,"is_reserved":false,"is_disabled":false,"rental_uris":{"android":"levelo://app?vid=da1296df-0f0b-410d-9aa3-c7a4d2782611","ios":"levelo://app?vid=da1296df-0f0b-410d-9aa3-c7a4d2782611"},"vehicle_type_id":"4","last_reported":1723287998,"current_range_meters":3200,"station_id":"ce4bgvp2rcd13ifvqcu0","pricing_plan_id":"cebpf4jnsgd1na2vs0mg"},{"bike_id":"89dd4fe0-d8d8-49ad-9083-72fabc7458e0","system_id":"levelo_inurba_marseille","lat":43.313291,"lon":5.396838,"is_reserved":false,"is_disabled":false,"rental_uris":{"android":"levelo://app?vid=89dd4fe0-d8d8-49ad-9083-72fabc7458e0","ios":"levelo://app?vid=89dd4fe0-d8d8-49ad-9083-72fabc7458e0"},"vehicle_type_id":"4","last_reported":1723287998,"current_range_meters":6400,"station_id":"ce4bgvp2rcd13ifvqcu0","pricing_plan_id":"cebpf4jnsgd1na2vs0mg"},{"bike_id":"1afe40e8-2419-4693-a559-f07398c26105","system_id":"levelo_inurba_marseille","lat":43.309047,"lon":5.396551,"is_reserved":false,"is_disabled":false,"rental_uris":{"android":"levelo://app?vid=1afe40e8-2419-4693-a559-f07398c26105","ios":"levelo://app?vid=1afe40e8-2419-4693-a559-f07398c26105"},"vehicle_type_id":"4","last_reported":1723287998,"current_range_meters":4000,"station_id":"ce4bh012rcd13ifvqcv0","pricing_plan_id":"cebpf4jnsgd1na2vs0mg"},{"bike_id":"c46abd45-f049-4e18-aaad-fd3890d32b6e","system_id":"levelo_inurba_marseille","lat":43.290779,"lon":5.371482,"is_reserved":false,"is_disabled":false,"rental_uris":{"android":"levelo://app?vid=c46abd45-f049-4e18-aaad-fd3890d32b6e","ios":"levelo://app?vid=c46abd45-f049-4e18-aaad-fd3890d32b6e"},"vehicle_type_id":"4","last_reported":1723287998,"current_range_meters":0,"station_id":"ce4bh5p2rcd13ifvqe4g","pricing_plan_id":"cebpf4jnsgd1na2vs0mg"},{"bike_id":"a8f56f6d-4ea3-493c-81fb-4c76747c077d","system_id":"levelo_inurba_marseille","lat":43.290779,"lon":5.371482,"is_reserved":false,"is_disabled":false,"rental_uris":{"android":"levelo://app?vid=a8f56f6d-4ea3-493c-81fb-4c76747c077d","ios":"levelo://app?vid=a8f56f6d-4ea3-493c-81fb-4c76747c077d"},"vehicle_type_id":"4","last_reported":1723287998,"current_range_meters":9200,"station_id":"ce4bh5p2rcd13ifvqe4g","pricing_plan_id":"cebpf4jnsgd1na2vs0mg"},{"bike_id":"87955b6c-f787-4860-a9c9-7270ae57a59e","system_id":"levelo_inurba_marseille","lat":43.290779,"lon":5.371482,"is_reserved":false,"is_disabled":false,"rental_uris":{"android":"levelo://app?vid=87955b6c-f787-4860-a9c9-7270ae57a59e","ios":"levelo://app?vid=87955b6c-f787-4860-a9c9-7270ae57a59e"},"vehicle_type_id":"4","last_reported":1723287998,"current_range_meters":23600,"station_id":"ce4bh5p2rcd13ifvqe4g","pricing_plan_id":"cebpf4jnsgd1na2vs0mg"},{"bike_id":"5c472778-f629-4a37-a08e-d52723ab3954","system_id":"levelo_inurba_marseille","lat":43.290779,"lon":5.371482,"is_reserved":false,"is_disabled":false,"rental_uris":{"android":"levelo://app?vid=5c472778-f629-4a37-a08e-d52723ab3954","ios":"levelo://app?vid=5c472778-f629-4a37-a08e-d52723ab3954"},"vehicle_type_id":"4","last_reported":1723287998,"current_range_meters":17600,"station_id":"ce4bh5p2rcd13ifvqe4g","pricing_plan_id":"cebpf4jnsgd1na2vs0mg"},{"bike_id":"0adf16fa-f37b-4e09-b6a7-e41d86e67628","system_id":"levelo_inurba_marseille","lat":43.290779,"lon":5.371482,"is_reserved":false,"is_disabled":false,"rental_uris":{"android":"levelo://app?vid=0adf16fa-f37b-4e09-b6a7-e41d86e67628","ios":"levelo://app?vid=0adf16fa-f37b-4e09-b6a7-e41d86e67628"},"vehicle_type_id":"4","last_reported":1723287998,"current_range_meters":0,"station_id":"ce4bh5p2rcd13ifvqe4g","pricing_plan_id":"cebpf4jnsgd1na2vs0mg"},{"bike_id":"9319951f-ac54-48ba-a881-38837b9a9855","system_id":"levelo_inurba_marseille","lat":43.33517,"lon":5.36159,"is_reserved":false,"is_disabled":false,"rental_uris":{"android":"levelo://app?vid=9319951f-ac54-48ba-a881-38837b9a9855","ios":"levelo://app?vid=9319951f-ac54-48ba-a881-38837b9a9855"},"vehicle_type_id":"4","last_reported":1723287998,"current_range_meters":20400,"station_id":"","pricing_plan_id":"cebpf4jnsgd1na2vs0mg"},{"bike_id":"11bfebf0-8dae-4b27-8c0a-1aa4e8f103c3","system_id":"levelo_inurba_marseille","lat":43.293009,"lon":5.374584,"is_reserved":false,"is_disabled":false,"rental_uris":{"android":"levelo://app?vid=11bfebf0-8dae-4b27-8c0a-1aa4e8f103c3","ios":"levelo://app?vid=11bfebf0-8dae-4b27-8c0a-1aa4e8f103c3"},"vehicle_type_id":"4","last_reported":1723287998,"current_range_meters":20400,"station_id":"ce4bgi12rcd13ifvqb70","pricing_plan_id":"cebpf4jnsgd1na2vs0mg"},{"bike_id":"73b1e0d2-89c3-4331-947a-b9dfac30990a","system_id":"levelo_inurba_marseille","lat":43.290624,"lon":5.359245,"is_reserved":false,"is_disabled":false,"rental_uris":{"android":"levelo://app?vid=73b1e0d2-89c3-4331-947a-b9dfac30990a","ios":"levelo://app?vid=73b1e0d2-89c3-4331-947a-b9dfac30990a"},"vehicle_type_id":"4","last_reported":1723287998,"current_range_meters":28800,"station_id":"ce4bha92rcd13ifvqeg0","pricing_plan_id":"cebpf4jnsgd1na2vs0mg"},{"bike_id":"1b124bc6-03dd-4e2f-a69b-074f98d4b72b","system_id":"levelo_inurba_marseille","lat":43.290631,"lon":5.359244,"is_reserved":false,"is_disabled":false,"rental_uris":{"android":"levelo://app?vid=1b124bc6-03dd-4e2f-a69b-074f98d4b72b","ios":"levelo://app?vid=1b124bc6-03dd-4e2f-a69b-074f98d4b72b"},"vehicle_type_id":"4","last_reported":1723287998,"current_range_meters":15600,"station_id":"ce4bha92rcd13ifvqeg0","pricing_plan_id":"cebpf4jnsgd1na2vs0mg"},{"bike_id":"49411da5-7bdb-41ff-be46-5d066606aa54","system_id":"levelo_inurba_marseille","lat":43.290327,"lon":5.375711,"is_reserved":false,"is_disabled":false,"rental_uris":{"android":"levelo://app?vid=49411da5-7bdb-41ff-be46-5d066606aa54","ios":"levelo://app?vid=49411da5-7bdb-41ff-be46-5d066606aa54"},"vehicle_type_id":"4","last_reported":1723287998,"current_range_meters":8000,"station_id":"ce4bh692rcd13ifvqe90","pricing_plan_id":"cebpf4jnsgd1na2vs0mg"},{"bike_id":"bf53ebf4-bd30-4ac0-a462-965d29afd480","system_id":"levelo_inurba_marseille","lat":43.290327,"lon":5.375711,"is_reserved":false,"is_disabled":false,"rental_uris":{"android":"levelo://app?vid=bf53ebf4-bd30-4ac0-a462-965d29afd480","ios":"levelo://app?vid=bf53ebf4-bd30-4ac0-a462-965d29afd480"},"vehicle_type_id":"4","last_reported":1723287998,"current_range_meters":6000,"station_id":"ce4bh692rcd13ifvqe90","pricing_plan_id":"cebpf4jnsgd1na2vs0mg"},{"bike_id":"b47d156b-e441-40b8-871f-f1626504d1a4","system_id":"levelo_inurba_marseille","lat":43.290327,"lon":5.375711,"is_reserved":false,"is_disabled":false,"rental_uris":{"android":"levelo://app?vid=b47d156b-e441-40b8-871f-f1626504d1a4","ios":"levelo://app?vid=b47d156b-e441-40b8-871f-f1626504d1a4"},"vehicle_type_id":"4","last_reported":1723287998,"current_range_meters":12800,"station_id":"ce4bh692rcd13ifvqe90","pricing_plan_id":"cebpf4jnsgd1na2vs0mg"},{"bike_id":"f2762375-76ca-4c15-813c-4f0b724afeb2","system_id":"levelo_inurba_marseille","lat":43.290319,"lon":5.375732,"is_reserved":false,"is_disabled":false,"rental_uris":{"android":"levelo://app?vid=f2762375-76ca-4c15-813c-4f0b724afeb2","ios":"levelo://app?vid=f2762375-76ca-4c15-813c-4f0b724afeb2"},"vehicle_type_id":"4","last_reported":1723287998,"current_range_meters":18800,"station_id":"ce4bh692rcd13ifvqe90","pricing_plan_id":"cebpf4jnsgd1na2vs0mg"},{"bike_id":"df32a3fc-46c0-444f-a6f2-2569741421c1","system_id":"levelo_inurba_marseille","lat":43.290327,"lon":5.375711,"is_reserved":false,"is_disabled":false,"rental_uris":{"android":"levelo://app?vid=df32a3fc-46c0-444f-a6f2-2569741421c1","ios":"levelo://app?vid=df32a3fc-46c0-444f-a6f2-2569741421c1"},"vehicle_type_id":"4","last_reported":1723287998,"current_range_meters":9600,"station_id":"ce4bh692rcd13ifvqe90","pricing_plan_id":"cebpf4jnsgd1na2vs0mg"},{"bike_id":"284b2f62-8a40-44c2-8bd7-f909020966bc","system_id":"levelo_inurba_marseille","lat":43.294162,"lon":5.386292,"is_reserved":false,"is_disabled":false,"rental_uris":{"android":"levelo://app?vid=284b2f62-8a40-44c2-8bd7-f909020966bc","ios":"levelo://app?vid=284b2f62-8a40-44c2-8bd7-f909020966bc"},"vehicle_type_id":"4","last_reported":1723287998,"current_range_meters":25200,"station_id":"ce4bh2h2rcd13ifvqdh0","pricing_plan_id":"cebpf4jnsgd1na2vs0mg"},{"bike_id":"62e19232-2882-46da-a556-e3a97bc81327","system_id":"levelo_inurba_marseille","lat":43.290319,"lon":5.375732,"is_reserved":false,"is_disabled":false,"rental_uris":{"android":"levelo://app?vid=62e19232-2882-46da-a556-e3a97bc81327","ios":"levelo://app?vid=62e19232-2882-46da-a556-e3a97bc81327"},"vehicle_type_id":"4","last_reported":1723287998,"current_range_meters":20000,"station_id":"ce4bh692rcd13ifvqe90","pricing_plan_id":"cebpf4jnsgd1na2vs0mg"},{"bike_id":"b7406c04-0d84-4bc3-9b80-3ae39713f5a0","system_id":"levelo_inurba_marseille","lat":43.289184,"lon":5.366408,"is_reserved":false,"is_disabled":false,"rental_uris":{"android":"levelo://app?vid=b7406c04-0d84-4bc3-9b80-3ae39713f5a0","ios":"levelo://app?vid=b7406c04-0d84-4bc3-9b80-3ae39713f5a0"},"vehicle_type_id":"4","last_reported":1723287998,"current_range_meters":15600,"station_id":"ce4bhap2rcd13ifvqek0","pricing_plan_id":"cebpf4jnsgd1na2vs0mg"},{"bike_id":"8ba54495-9df7-4c66-8eb5-753a5b14073d","system_id":"levelo_inurba_marseille","lat":43.294162,"lon":5.386292,"is_reserved":false,"is_disabled":false,"rental_uris":{"android":"levelo://app?vid=8ba54495-9df7-4c66-8eb5-753a5b14073d","ios":"levelo://app?vid=8ba54495-9df7-4c66-8eb5-753a5b14073d"},"vehicle_type_id":"4","last_reported":1723287998,"current_range_meters":5200,"station_id":"ce4bh2h2rcd13ifvqdh0","pricing_plan_id":"cebpf4jnsgd1na2vs0mg"},{"bike_id":"62a3f539-c463-4c3c-9202-47fa575b7457","system_id":"levelo_inurba_marseille","lat":43.289184,"lon":5.366408,"is_reserved":false,"is_disabled":false,"rental_uris":{"android":"levelo://app?vid=62a3f539-c463-4c3c-9202-47fa575b7457","ios":"levelo://app?vid=62a3f539-c463-4c3c-9202-47fa575b7457"},"vehicle_type_id":"4","last_reported":1723287998,"current_range_meters":7600,"station_id":"ce4bhap2rcd13ifvqek0","pricing_plan_id":"cebpf4jnsgd1na2vs0mg"},{"bike_id":"2158dfa3-cb2f-4283-b6a8-3effabc663b3","system_id":"levelo_inurba_marseille","lat":43.289184,"lon":5.366408,"is_reserved":false,"is_disabled":false,"rental_uris":{"android":"levelo://app?vid=2158dfa3-cb2f-4283-b6a8-3effabc663b3","ios":"levelo://app?vid=2158dfa3-cb2f-4283-b6a8-3effabc663b3"},"vehicle_type_id":"4","last_reported":1723287998,"current_range_meters":11200,"station_id":"ce4bhap2rcd13ifvqek0","pricing_plan_id":"cebpf4jnsgd1na2vs0mg"},{"bike_id":"3e3159ea-bac7-4083-a79b-d9ee27163906","system_id":"levelo_inurba_marseille","lat":43.289184,"lon":5.366408,"is_reserved":false,"is_disabled":false,"rental_uris":{"android":"levelo://app?vid=3e3159ea-bac7-4083-a79b-d9ee27163906","ios":"levelo://app?vid=3e3159ea-bac7-4083-a79b-d9ee27163906"},"vehicle_type_id":"4","last_reported":1723287998,"current_range_meters":24000,"station_id":"ce4bhap2rcd13ifvqek0","pricing_plan_id":"cebpf4jnsgd1na2vs0mg"},{"bike_id":"6fb16a03-f255-4f0d-8a49-b22fb0ec4669","system_id":"levelo_inurba_marseille","lat":43.289184,"lon":5.366408,"is_reserved":false,"is_disabled":false,"rental_uris":{"android":"levelo://app?vid=6fb16a03-f255-4f0d-8a49-b22fb0ec4669","ios":"levelo://app?vid=6fb16a03-f255-4f0d-8a49-b22fb0ec4669"},"vehicle_type_id":"4","last_reported":1723287998,"current_range_meters":1600,"station_id":"ce4bhap2rcd13ifvqek0","pricing_plan_id":"cebpf4jnsgd1na2vs0mg"},{"bike_id":"0edea29b-cd16-4035-a06c-6416cfabcb15","system_id":"levelo_inurba_marseille","lat":43.304274,"lon":5.397513,"is_reserved":false,"is_disabled":false,"rental_uris":{"android":"levelo://app?vid=0edea29b-cd16-4035-a06c-6416cfabcb15","ios":"levelo://app?vid=0edea29b-cd16-4035-a06c-6416cfabcb15"},"vehicle_type_id":"4","last_reported":1723287998,"current_range_meters":14000,"station_id":"ce4bh092rcd13ifvqd20","pricing_plan_id":"cebpf4jnsgd1na2vs0mg"},{"bike_id":"83725e7c-14a5-4bb0-9398-b3dc32f63aed","system_id":"levelo_inurba_marseille","lat":43.292644,"lon":5.384257,"is_reserved":false,"is_disabled":false,"rental_uris":{"android":"levelo://app?vid=83725e7c-14a5-4bb0-9398-b3dc32f63aed","ios":"levelo://app?vid=83725e7c-14a5-4bb0-9398-b3dc32f63aed"},"vehicle_type_id":"4","last_reported":1723287998,"current_range_meters":800,"station_id":"ce4bh692rcd13ifvqea0","pricing_plan_id":"cebpf4jnsgd1na2vs0mg"},{"bike_id":"ec3600b8-a1a7-427b-894f-0af9a9f74a66","system_id":"levelo_inurba_marseille","lat":43.290103,"lon":5.356114,"is_reserved":false,"is_disabled":false,"rental_uris":{"android":"levelo://app?vid=ec3600b8-a1a7-427b-894f-0af9a9f74a66","ios":"levelo://app?vid=ec3600b8-a1a7-427b-894f-0af9a9f74a66"},"vehicle_type_id":"4","last_reported":1723287998,"current_range_meters":20800,"station_id":"ce4bhb92rcd13ifvqen0","pricing_plan_id":"cebpf4jnsgd1na2vs0mg"},{"bike_id":"813a9eb6-1f40-439e-9668-de72b8008bcc","system_id":"levelo_inurba_marseille","lat":43.290104,"lon":5.356111,"is_reserved":false,"is_disabled":false,"rental_uris":{"android":"levelo://app?vid=813a9eb6-1f40-439e-9668-de72b8008bcc","ios":"levelo://app?vid=813a9eb6-1f40-439e-9668-de72b8008bcc"},"vehicle_type_id":"4","last_reported":1723287998,"current_range_meters":0,"station_id":"ce4bhb92rcd13ifvqen0","pricing_plan_id":"cebpf4jnsgd1na2vs0mg"},{"bike_id":"ee61b89c-daa2-4a30-953a-d283d3e2aa1c","system_id":"levelo_inurba_marseille","lat":43.290103,"lon":5.356114,"is_reserved":false,"is_disabled":false,"rental_uris":{"android":"levelo://app?vid=ee61b89c-daa2-4a30-953a-d283d3e2aa1c","ios":"levelo://app?vid=ee61b89c-daa2-4a30-953a-d283d3e2aa1c"},"vehicle_type_id":"4","last_reported":1723287998,"current_range_meters":27200,"station_id":"ce4bhb92rcd13ifvqen0","pricing_plan_id":"cebpf4jnsgd1na2vs0mg"},{"bike_id":"86a06780-516f-4f4c-a2de-09c4ede645b3","system_id":"levelo_inurba_marseille","lat":43.290995,"lon":5.381361,"is_reserved":false,"is_disabled":false,"rental_uris":{"android":"levelo://app?vid=86a06780-516f-4f4c-a2de-09c4ede645b3","ios":"levelo://app?vid=86a06780-516f-4f4c-a2de-09c4ede645b3"},"vehicle_type_id":"4","last_reported":1723287998,"current_range_meters":3600,"station_id":"ce4bh512rcd13ifvqe2g","pricing_plan_id":"cebpf4jnsgd1na2vs0mg"},{"bike_id":"97cec0b4-b251-4575-babd-dcb37fd052f3","system_id":"levelo_inurba_marseille","lat":43.290995,"lon":5.381361,"is_reserved":false,"is_disabled":false,"rental_uris":{"android":"levelo://app?vid=97cec0b4-b251-4575-babd-dcb37fd052f3","ios":"levelo://app?vid=97cec0b4-b251-4575-babd-dcb37fd052f3"},"vehicle_type_id":"4","last_reported":1723287998,"current_range_meters":24000,"station_id":"ce4bh512rcd13ifvqe2g","pricing_plan_id":"cebpf4jnsgd1na2vs0mg"},{"bike_id":"61e882ab-e8ee-4bef-b706-4cbd5a01602b","system_id":"levelo_inurba_marseille","lat":43.290995,"lon":5.381361,"is_reserved":false,"is_disabled":false,"rental_uris":{"android":"levelo://app?vid=61e882ab-e8ee-4bef-b706-4cbd5a01602b","ios":"levelo://app?vid=61e882ab-e8ee-4bef-b706-4cbd5a01602b"},"vehicle_type_id":"4","last_reported":1723287998,"current_range_meters":26400,"station_id":"ce4bh512rcd13ifvqe2g","pricing_plan_id":"cebpf4jnsgd1na2vs0mg"},{"bike_id":"42af3269-583d-4170-97b5-c5ba4087b9c9","system_id":"levelo_inurba_marseille","lat":43.290995,"lon":5.381361,"is_reserved":false,"is_disabled":false,"rental_uris":{"android":"levelo://app?vid=42af3269-583d-4170-97b5-c5ba4087b9c9","ios":"levelo://app?vid=42af3269-583d-4170-97b5-c5ba4087b9c9"},"vehicle_type_id":"4","last_reported":1723287998,"current_range_meters":2000,"station_id":"ce4bh512rcd13ifvqe2g","pricing_plan_id":"cebpf4jnsgd1na2vs0mg"},{"bike_id":"282f0548-27a7-413e-915c-bafabd715878","system_id":"levelo_inurba_marseille","lat":43.289743,"lon":5.378304,"is_reserved":false,"is_disabled":false,"rental_uris":{"android":"levelo://app?vid=282f0548-27a7-413e-915c-bafabd715878","ios":"levelo://app?vid=282f0548-27a7-413e-915c-bafabd715878"},"vehicle_type_id":"4","last_reported":1723287998,"current_range_meters":20000,"station_id":"ce4bh9p2rcd13ifvqed0","pricing_plan_id":"cebpf4jnsgd1na2vs0mg"},{"bike_id":"5d07b028-ea05-4457-bb0d-78c8e31c24f4","system_id":"levelo_inurba_marseille","lat":43.330184,"lon":5.390398,"is_reserved":false,"is_disabled":false,"rental_uris":{"android":"levelo://app?vid=5d07b028-ea05-4457-bb0d-78c8e31c24f4","ios":"levelo://app?vid=5d07b028-ea05-4457-bb0d-78c8e31c24f4"},"vehicle_type_id":"4","last_reported":1723287998,"current_range_meters":14800,"station_id":"ce4bhr92rcd13ifvqhrg","pricing_plan_id":"cebpf4jnsgd1na2vs0mg"},{"bike_id":"45400c6e-8fe0-489f-a0b7-378baeec17c2","system_id":"levelo_inurba_marseille","lat":43.330442,"lon":5.389148,"is_reserved":false,"is_disabled":false,"rental_uris":{"android":"levelo://app?vid=45400c6e-8fe0-489f-a0b7-378baeec17c2","ios":"levelo://app?vid=45400c6e-8fe0-489f-a0b7-378baeec17c2"},"vehicle_type_id":"4","last_reported":1723287998,"current_range_meters":30800,"station_id":"ce4bhr92rcd13ifvqhrg","pricing_plan_id":"cebpf4jnsgd1na2vs0mg"},{"bike_id":"7e2eb3f3-b2a1-4fcd-8e30-bb2ebe22ce2d","system_id":"levelo_inurba_marseille","lat":43.289741,"lon":5.378306,"is_reserved":false,"is_disabled":false,"rental_uris":{"android":"levelo://app?vid=7e2eb3f3-b2a1-4fcd-8e30-bb2ebe22ce2d","ios":"levelo://app?vid=7e2eb3f3-b2a1-4fcd-8e30-bb2ebe22ce2d"},"vehicle_type_id":"4","last_reported":1723287998,"current_range_meters":12400,"station_id":"ce4bh9p2rcd13ifvqed0","pricing_plan_id":"cebpf4jnsgd1na2vs0mg"},{"bike_id":"89afadd2-b246-46c8-925b-ecf32b200d4f","system_id":"levelo_inurba_marseille","lat":43.330219,"lon":5.390398,"is_reserved":false,"is_disabled":false,"rental_uris":{"android":"levelo://app?vid=89afadd2-b246-46c8-925b-ecf32b200d4f","ios":"levelo://app?vid=89afadd2-b246-46c8-925b-ecf32b200d4f"},"vehicle_type_id":"4","last_reported":1723287998,"current_range_meters":31200,"station_id":"ce4bhr92rcd13ifvqhrg","pricing_plan_id":"cebpf4jnsgd1na2vs0mg"},{"bike_id":"955f7c39-8a7e-4dec-b39c-c97a67b5433a","system_id":"levelo_inurba_marseille","lat":43.33025,"lon":5.39036,"is_reserved":false,"is_disabled":false,"rental_uris":{"android":"levelo://app?vid=955f7c39-8a7e-4dec-b39c-c97a67b5433a","ios":"levelo://app?vid=955f7c39-8a7e-4dec-b39c-c97a67b5433a"},"vehicle_type_id":"4","last_reported":1723287998,"current_range_meters":25200,"station_id":"ce4bhr92rcd13ifvqhrg","pricing_plan_id":"cebpf4jnsgd1na2vs0mg"},{"bike_id":"407131df-1728-4a6f-9d07-9cedc33bfdcb","system_id":"levelo_inurba_marseille","lat":43.289741,"lon":5.378306,"is_reserved":false,"is_disabled":false,"rental_uris":{"android":"levelo://app?vid=407131df-1728-4a6f-9d07-9cedc33bfdcb","ios":"levelo://app?vid=407131df-1728-4a6f-9d07-9cedc33bfdcb"},"vehicle_type_id":"4","last_reported":1723287998,"current_range_meters":26000,"station_id":"ce4bh9p2rcd13ifvqed0","pricing_plan_id":"cebpf4jnsgd1na2vs0mg"},{"bike_id":"25cf6e4b-b30a-4646-ad45-bdf7936cb5a2","system_id":"levelo_inurba_marseille","lat":43.33024,"lon":5.3904,"is_reserved":false,"is_disabled":false,"rental_uris":{"android":"levelo://app?vid=25cf6e4b-b30a-4646-ad45-bdf7936cb5a2","ios":"levelo://app?vid=25cf6e4b-b30a-4646-ad45-bdf7936cb5a2"},"vehicle_type_id":"4","last_reported":1723287998,"current_range_meters":31600,"station_id":"ce4bhr92rcd13ifvqhrg","pricing_plan_id":"cebpf4jnsgd1na2vs0mg"},{"bike_id":"3e8361a5-70cb-4795-a351-0c9497d9c4db","system_id":"levelo_inurba_marseille","lat":43.33024,"lon":5.39041,"is_reserved":false,"is_disabled":false,"rental_uris":{"android":"levelo://app?vid=3e8361a5-70cb-4795-a351-0c9497d9c4db","ios":"levelo://app?vid=3e8361a5-70cb-4795-a351-0c9497d9c4db"},"vehicle_type_id":"4","last_reported":1723287998,"current_range_meters":12400,"station_id":"ce4bhr92rcd13ifvqhrg","pricing_plan_id":"cebpf4jnsgd1na2vs0mg"},{"bike_id":"7cadf526-ec97-45fc-a408-1ccaeb4406b1","system_id":"levelo_inurba_marseille","lat":43.33026,"lon":5.39039,"is_reserved":false,"is_disabled":false,"rental_uris":{"android":"levelo://app?vid=7cadf526-ec97-45fc-a408-1ccaeb4406b1","ios":"levelo://app?vid=7cadf526-ec97-45fc-a408-1ccaeb4406b1"},"vehicle_type_id":"4","last_reported":1723287998,"current_range_meters":24000,"station_id":"ce4bhr92rcd13ifvqhrg","pricing_plan_id":"cebpf4jnsgd1na2vs0mg"},{"bike_id":"3426e4c0-ccf4-47a9-aa94-cc9d783b72ec","system_id":"levelo_inurba_marseille","lat":43.33024,"lon":5.39042,"is_reserved":false,"is_disabled":false,"rental_uris":{"android":"levelo://app?vid=3426e4c0-ccf4-47a9-aa94-cc9d783b72ec","ios":"levelo://app?vid=3426e4c0-ccf4-47a9-aa94-cc9d783b72ec"},"vehicle_type_id":"4","last_reported":1723287998,"current_range_meters":13200,"station_id":"ce4bhr92rcd13ifvqhrg","pricing_plan_id":"cebpf4jnsgd1na2vs0mg"},{"bike_id":"4a552901-90d1-4bbb-9615-b57928898000","system_id":"levelo_inurba_marseille","lat":43.289741,"lon":5.378306,"is_reserved":false,"is_disabled":false,"rental_uris":{"android":"levelo://app?vid=4a552901-90d1-4bbb-9615-b57928898000","ios":"levelo://app?vid=4a552901-90d1-4bbb-9615-b57928898000"},"vehicle_type_id":"4","last_reported":1723287998,"current_range_meters":21600,"station_id":"ce4bh9p2rcd13ifvqed0","pricing_plan_id":"cebpf4jnsgd1na2vs0mg"},{"bike_id":"c4b95fca-eb6e-4bc8-99b3-f17f77fd62a5","system_id":"levelo_inurba_marseille","lat":43.33025,"lon":5.39046,"is_reserved":false,"is_disabled":false,"rental_uris":{"android":"levelo://app?vid=c4b95fca-eb6e-4bc8-99b3-f17f77fd62a5","ios":"levelo://app?vid=c4b95fca-eb6e-4bc8-99b3-f17f77fd62a5"},"vehicle_type_id":"4","last_reported":1723287998,"current_range_meters":26800,"station_id":"ce4bhr92rcd13ifvqhrg","pricing_plan_id":"cebpf4jnsgd1na2vs0mg"},{"bike_id":"0c0e1fec-3432-45ae-8332-161f590ece58","system_id":"levelo_inurba_marseille","lat":43.33029,"lon":5.39041,"is_reserved":false,"is_disabled":false,"rental_uris":{"android":"levelo://app?vid=0c0e1fec-3432-45ae-8332-161f590ece58","ios":"levelo://app?vid=0c0e1fec-3432-45ae-8332-161f590ece58"},"vehicle_type_id":"4","last_reported":1723287998,"current_range_meters":28400,"station_id":"ce4bhr92rcd13ifvqhrg","pricing_plan_id":"cebpf4jnsgd1na2vs0mg"},{"bike_id":"b7bef6d3-8542-4c30-a00e-6d8294dd005c","system_id":"levelo_inurba_marseille","lat":43.295169,"lon":5.390426,"is_reserved":false,"is_disabled":false,"rental_uris":{"android":"levelo://app?vid=b7bef6d3-8542-4c30-a00e-6d8294dd005c","ios":"levelo://app?vid=b7bef6d3-8542-4c30-a00e-6d8294dd005c"},"vehicle_type_id":"4","last_reported":1723287998,"current_range_meters":16000,"station_id":"ce4bh3p2rcd13ifvqdp0","pricing_plan_id":"cebpf4jnsgd1na2vs0mg"},{"bike_id":"57aa7534-ceb4-4eda-98d2-a42f6caa1222","system_id":"levelo_inurba_marseille","lat":43.318793,"lon":5.399899,"is_reserved":false,"is_disabled":false,"rental_uris":{"android":"levelo://app?vid=57aa7534-ceb4-4eda-98d2-a42f6caa1222","ios":"levelo://app?vid=57aa7534-ceb4-4eda-98d2-a42f6caa1222"},"vehicle_type_id":"4","last_reported":1723287998,"current_range_meters":12000,"station_id":"","pricing_plan_id":"cebpf4jnsgd1na2vs0mg"},{"bike_id":"35fd4fcb-2d90-4e11-9379-5da1c1fb1c0e","system_id":"levelo_inurba_marseille","lat":43.318773,"lon":5.399955,"is_reserved":false,"is_disabled":false,"rental_uris":{"android":"levelo://app?vid=35fd4fcb-2d90-4e11-9379-5da1c1fb1c0e","ios":"levelo://app?vid=35fd4fcb-2d90-4e11-9379-5da1c1fb1c0e"},"vehicle_type_id":"4","last_reported":1723287998,"current_range_meters":9600,"station_id":"","pricing_plan_id":"cebpf4jnsgd1na2vs0mg"},{"bike_id":"bf6d34b7-659d-402f-aca8-e215614aec6f","system_id":"levelo_inurba_marseille","lat":43.31062,"lon":5.40089,"is_reserved":false,"is_disabled":false,"rental_uris":{"android":"levelo://app?vid=bf6d34b7-659d-402f-aca8-e215614aec6f","ios":"levelo://app?vid=bf6d34b7-659d-402f-aca8-e215614aec6f"},"vehicle_type_id":"4","last_reported":1723287998,"current_range_meters":4800,"station_id":"","pricing_plan_id":"cebpf4jnsgd1na2vs0mg"},{"bike_id":"916e90fe-5978-48d1-99fe-f67865877e4c","system_id":"levelo_inurba_marseille","lat":43.28856,"lon":5.358371,"is_reserved":false,"is_disabled":false,"rental_uris":{"android":"levelo://app?vid=916e90fe-5978-48d1-99fe-f67865877e4c","ios":"levelo://app?vid=916e90fe-5978-48d1-99fe-f67865877e4c"},"vehicle_type_id":"4","last_reported":1723287998,"current_range_meters":18400,"station_id":"ce4bhb12rcd13ifvqem0","pricing_plan_id":"cebpf4jnsgd1na2vs0mg"},{"bike_id":"d6359269-ae07-4c26-8fde-a64c3c639f8f","system_id":"levelo_inurba_marseille","lat":43.28856,"lon":5.358371,"is_reserved":false,"is_disabled":false,"rental_uris":{"android":"levelo://app?vid=d6359269-ae07-4c26-8fde-a64c3c639f8f","ios":"levelo://app?vid=d6359269-ae07-4c26-8fde-a64c3c639f8f"},"vehicle_type_id":"4","last_reported":1723287998,"current_range_meters":15200,"station_id":"ce4bhb12rcd13ifvqem0","pricing_plan_id":"cebpf4jnsgd1na2vs0mg"},{"bike_id":"b82d858a-91a0-49bf-a6fc-8ae898ab18fa","system_id":"levelo_inurba_marseille","lat":43.312609,"lon":5.401662,"is_reserved":false,"is_disabled":false,"rental_uris":{"android":"levelo://app?vid=b82d858a-91a0-49bf-a6fc-8ae898ab18fa","ios":"levelo://app?vid=b82d858a-91a0-49bf-a6fc-8ae898ab18fa"},"vehicle_type_id":"4","last_reported":1723287998,"current_range_meters":31200,"station_id":"ce4bh092rcd13ifvqd30","pricing_plan_id":"cebpf4jnsgd1na2vs0mg"},{"bike_id":"99ff80d6-767c-4ca9-81b5-c19f253f3bd3","system_id":"levelo_inurba_marseille","lat":43.33738,"lon":5.3746,"is_reserved":false,"is_disabled":false,"rental_uris":{"android":"levelo://app?vid=99ff80d6-767c-4ca9-81b5-c19f253f3bd3","ios":"levelo://app?vid=99ff80d6-767c-4ca9-81b5-c19f253f3bd3"},"vehicle_type_id":"4","last_reported":1723287998,"current_range_meters":4400,"station_id":"","pricing_plan_id":"cebpf4jnsgd1na2vs0mg"},{"bike_id":"ac75d8e5-5139-4e43-a64e-51e7994c2517","system_id":"levelo_inurba_marseille","lat":43.337444,"lon":5.374475,"is_reserved":false,"is_disabled":false,"rental_uris":{"android":"levelo://app?vid=ac75d8e5-5139-4e43-a64e-51e7994c2517","ios":"levelo://app?vid=ac75d8e5-5139-4e43-a64e-51e7994c2517"},"vehicle_type_id":"3","last_reported":1723287998,"current_range_meters":24800,"station_id":"","pricing_plan_id":"cebpf4jnsgd1na2vs0mg"},{"bike_id":"bc4ad99f-e946-4e5c-a7a2-41e11e702155","system_id":"levelo_inurba_marseille","lat":43.309371,"lon":5.401449,"is_reserved":false,"is_disabled":false,"rental_uris":{"android":"levelo://app?vid=bc4ad99f-e946-4e5c-a7a2-41e11e702155","ios":"levelo://app?vid=bc4ad99f-e946-4e5c-a7a2-41e11e702155"},"vehicle_type_id":"4","last_reported":1723287998,"current_range_meters":0,"station_id":"ce4bgvp2rcd13ifvqct0","pricing_plan_id":"cebpf4jnsgd1na2vs0mg"},{"bike_id":"1115374c-9bd1-4203-8798-2954097db088","system_id":"levelo_inurba_marseille","lat":43.33742,"lon":5.37467,"is_reserved":false,"is_disabled":false,"rental_uris":{"android":"levelo://app?vid=1115374c-9bd1-4203-8798-2954097db088","ios":"levelo://app?vid=1115374c-9bd1-4203-8798-2954097db088"},"vehicle_type_id":"4","last_reported":1723287998,"current_range_meters":6800,"station_id":"","pricing_plan_id":"cebpf4jnsgd1na2vs0mg"},{"bike_id":"7fd52e3d-d8a0-4216-a455-f832a3c42d30","system_id":"levelo_inurba_marseille","lat":43.337429,"lon":5.374638,"is_reserved":false,"is_disabled":false,"rental_uris":{"android":"levelo://app?vid=7fd52e3d-d8a0-4216-a455-f832a3c42d30","ios":"levelo://app?vid=7fd52e3d-d8a0-4216-a455-f832a3c42d30"},"vehicle_type_id":"4","last_reported":1723287998,"current_range_meters":30000,"station_id":"","pricing_plan_id":"cebpf4jnsgd1na2vs0mg"},{"bike_id":"8bf0e6c6-078d-419a-87a9-a2ae1f0d6bd6","system_id":"levelo_inurba_marseille","lat":43.309371,"lon":5.401449,"is_reserved":false,"is_disabled":false,"rental_uris":{"android":"levelo://app?vid=8bf0e6c6-078d-419a-87a9-a2ae1f0d6bd6","ios":"levelo://app?vid=8bf0e6c6-078d-419a-87a9-a2ae1f0d6bd6"},"vehicle_type_id":"4","last_reported":1723287998,"current_range_meters":20800,"station_id":"ce4bgvp2rcd13ifvqct0","pricing_plan_id":"cebpf4jnsgd1na2vs0mg"},{"bike_id":"05b50d76-7193-4433-8135-a17e4315fb2d","system_id":"levelo_inurba_marseille","lat":43.33745,"lon":5.37458,"is_reserved":false,"is_disabled":false,"rental_uris":{"android":"levelo://app?vid=05b50d76-7193-4433-8135-a17e4315fb2d","ios":"levelo://app?vid=05b50d76-7193-4433-8135-a17e4315fb2d"},"vehicle_type_id":"4","last_reported":1723287998,"current_range_meters":26400,"station_id":"","pricing_plan_id":"cebpf4jnsgd1na2vs0mg"},{"bike_id":"7553d7c6-8eef-4b21-9dca-534ec43256a6","system_id":"levelo_inurba_marseille","lat":43.33742,"lon":5.37478,"is_reserved":false,"is_disabled":false,"rental_uris":{"android":"levelo://app?vid=7553d7c6-8eef-4b21-9dca-534ec43256a6","ios":"levelo://app?vid=7553d7c6-8eef-4b21-9dca-534ec43256a6"},"vehicle_type_id":"4","last_reported":1723287998,"current_range_meters":15200,"station_id":"","pricing_plan_id":"cebpf4jnsgd1na2vs0mg"},{"bike_id":"1596ed5a-2748-4147-884b-51e994b2b8ca","system_id":"levelo_inurba_marseille","lat":43.337482,"lon":5.374568,"is_reserved":false,"is_disabled":false,"rental_uris":{"android":"levelo://app?vid=1596ed5a-2748-4147-884b-51e994b2b8ca","ios":"levelo://app?vid=1596ed5a-2748-4147-884b-51e994b2b8ca"},"vehicle_type_id":"4","last_reported":1723287998,"current_range_meters":16800,"station_id":"","pricing_plan_id":"cebpf4jnsgd1na2vs0mg"},{"bike_id":"a99690a8-3e4f-41a1-9b6a-5b43249a269f","system_id":"levelo_inurba_marseille","lat":43.33748,"lon":5.37462,"is_reserved":false,"is_disabled":false,"rental_uris":{"android":"levelo://app?vid=a99690a8-3e4f-41a1-9b6a-5b43249a269f","ios":"levelo://app?vid=a99690a8-3e4f-41a1-9b6a-5b43249a269f"},"vehicle_type_id":"4","last_reported":1723287998,"current_range_meters":5200,"station_id":"","pricing_plan_id":"cebpf4jnsgd1na2vs0mg"},{"bike_id":"7f4a4c6f-9116-49e3-9148-94c29c22873f","system_id":"levelo_inurba_marseille","lat":43.33748,"lon":5.37464,"is_reserved":false,"is_disabled":false,"rental_uris":{"android":"levelo://app?vid=7f4a4c6f-9116-49e3-9148-94c29c22873f","ios":"levelo://app?vid=7f4a4c6f-9116-49e3-9148-94c29c22873f"},"vehicle_type_id":"4","last_reported":1723287998,"current_range_meters":29600,"station_id":"","pricing_plan_id":"cebpf4jnsgd1na2vs0mg"},{"bike_id":"fcb552aa-4b86-4ab7-bdf4-7617d41dcd66","system_id":"levelo_inurba_marseille","lat":43.33755,"lon":5.37424,"is_reserved":false,"is_disabled":false,"rental_uris":{"android":"levelo://app?vid=fcb552aa-4b86-4ab7-bdf4-7617d41dcd66","ios":"levelo://app?vid=fcb552aa-4b86-4ab7-bdf4-7617d41dcd66"},"vehicle_type_id":"4","last_reported":1723287998,"current_range_meters":26800,"station_id":"","pricing_plan_id":"cebpf4jnsgd1na2vs0mg"},{"bike_id":"1d380d86-5e76-461b-bb6c-dc94aca12cd4","system_id":"levelo_inurba_marseille","lat":43.3375,"lon":5.37458,"is_reserved":false,"is_disabled":false,"rental_uris":{"android":"levelo://app?vid=1d380d86-5e76-461b-bb6c-dc94aca12cd4","ios":"levelo://app?vid=1d380d86-5e76-461b-bb6c-dc94aca12cd4"},"vehicle_type_id":"4","last_reported":1723287998,"current_range_meters":10800,"station_id":"","pricing_plan_id":"cebpf4jnsgd1na2vs0mg"},{"bike_id":"176078ac-dbf3-4a59-b7a0-e3f26aa7db6d","system_id":"levelo_inurba_marseille","lat":43.33751,"lon":5.37455,"is_reserved":false,"is_disabled":false,"rental_uris":{"android":"levelo://app?vid=176078ac-dbf3-4a59-b7a0-e3f26aa7db6d","ios":"levelo://app?vid=176078ac-dbf3-4a59-b7a0-e3f26aa7db6d"},"vehicle_type_id":"4","last_reported":1723287998,"current_range_meters":11200,"station_id":"","pricing_plan_id":"cebpf4jnsgd1na2vs0mg"},{"bike_id":"6137b86e-8de9-4c4f-94ef-bfa372175031","system_id":"levelo_inurba_marseille","lat":43.337513,"lon":5.37454,"is_reserved":false,"is_disabled":false,"rental_uris":{"android":"levelo://app?vid=6137b86e-8de9-4c4f-94ef-bfa372175031","ios":"levelo://app?vid=6137b86e-8de9-4c4f-94ef-bfa372175031"},"vehicle_type_id":"4","last_reported":1723287998,"current_range_meters":16400,"station_id":"","pricing_plan_id":"cebpf4jnsgd1na2vs0mg"},{"bike_id":"43f21911-683d-4ba4-93d3-8a7e20e1c78c","system_id":"levelo_inurba_marseille","lat":43.337517,"lon":5.374536,"is_reserved":false,"is_disabled":false,"rental_uris":{"android":"levelo://app?vid=43f21911-683d-4ba4-93d3-8a7e20e1c78c","ios":"levelo://app?vid=43f21911-683d-4ba4-93d3-8a7e20e1c78c"},"vehicle_type_id":"4","last_reported":1723287998,"current_range_meters":31200,"station_id":"","pricing_plan_id":"cebpf4jnsgd1na2vs0mg"},{"bike_id":"3bf2c92b-e810-4497-81f3-0eb40ecad1f5","system_id":"levelo_inurba_marseille","lat":43.33754,"lon":5.3744,"is_reserved":false,"is_disabled":false,"rental_uris":{"android":"levelo://app?vid=3bf2c92b-e810-4497-81f3-0eb40ecad1f5","ios":"levelo://app?vid=3bf2c92b-e810-4497-81f3-0eb40ecad1f5"},"vehicle_type_id":"4","last_reported":1723287998,"current_range_meters":30400,"station_id":"","pricing_plan_id":"cebpf4jnsgd1na2vs0mg"},{"bike_id":"17b56712-d908-4596-b21a-f4eb5e805a6f","system_id":"levelo_inurba_marseille","lat":43.33751,"lon":5.37459,"is_reserved":false,"is_disabled":false,"rental_uris":{"android":"levelo://app?vid=17b56712-d908-4596-b21a-f4eb5e805a6f","ios":"levelo://app?vid=17b56712-d908-4596-b21a-f4eb5e805a6f"},"vehicle_type_id":"4","last_reported":1723287998,"current_range_meters":6400,"station_id":"","pricing_plan_id":"cebpf4jnsgd1na2vs0mg"},