{"last_updated":1769160039,"ttl":60,"version":"2.2","data":{"bikes":[{"bike_id":"d8344329-153b-4a08-9de8-fc84530e10b9","system_id":"levelo_inurba_marseille","lat":43.23805,"lon":5.36616,"is_reserved":false,"is_disabled":false,"rental_uris":{"android":"levelo://app?vid=d8344329-153b-4a08-9de8-fc84530e10b9","ios":"levelo://app?vid=d8344329-153b-4a08-9de8-fc84530e10b9"},"vehicle_type_id":"4","last_reported":1769160039,"current_range_meters":2800,"station_id":"st_d3nk18o9ro0c73en2l3g","pricing_plan_id":"cebpf4jnsgd1na2vs0mg"},{"bike_id":"1057ea7d-0495-4504-82b1-fb2945db5536","system_id":"levelo_inurba_marseille","lat":43.278053,"lon":5.407036,"is_reserved":false,"is_disabled":false,"rental_uris":{"android":"levelo://app?vid=1057ea7d-0495-4504-82b1-fb2945db5536","ios":"levelo://app?vid=1057ea7d-0495-4504-82b1-fb2945db5536"},"vehicle_type_id":"4","last_reported":1769160039,"current_range_meters":2800,"station_id":"ce4bhnh2rcd13ifvqgtg","pricing_plan_id":"cebpf4jnsgd1na2vs0mg"},{"bike_id":"4c4ab50c-d6b5-4663-8cfd-881147133cad","system_id":"levelo_inurba_marseille","lat":43.24068,"lon":5.37762,"is_reserved":false,"is_disabled":false,"rental_uris":{"android":"levelo://app?vid=4c4ab50c-d6b5-4663-8cfd-881147133cad","ios":"levelo://app?vid=4c4ab50c-d6b5-4663-8cfd-881147133cad"},"vehicle_type_id":"4","last_reported":1769160039,"current_range_meters":2800,"station_id":"ce4bhnp2rcd13ifvqgvg","pricing_plan_id":"cebpf4jnsgd1na2vs0mg"},{"bike_id":"992bbdc1-e51f-4a26-9c9d-5e8155ad3433","system_id":"levelo_inurba_marseille","lat":43.272094,"lon":5.391868,"is_reserved":false,"is_disabled":false,"rental_uris":{"android":"levelo://app?vid=992bbdc1-e51f-4a26-9c9d-5e8155ad3433","ios":"levelo://app?vid=992bbdc1-e51f-4a26-9c9d-5e8155ad3433"},"vehicle_type_id":"4","last_reported":1769160039,"current_range_meters":2800,"station_id":"ce4bhhp2rcd13ifvqfm0","pricing_plan_id":"cebpf4jnsgd1na2vs0mg"},{"bike_id":"65c28cdb-30b5-4369-aca8-0fed60a51212","system_id":"levelo_inurba_marseille","lat":43.25721,"lon":5.41116,"is_reserved":false,"is_disabled":false,"rental_uris":{"android":"levelo://app?vid=65c28cdb-30b5-4369-aca8-0fed60a51212","ios":"levelo://app?vid=65c28cdb-30b5-4369-aca8-0fed60a51212"},"vehicle_type_id":"4","last_reported":1769160039,"current_range_meters":3200,"station_id":"ce4bhkp2rcd13ifvqgd0","pricing_plan_id":"cebpf4jnsgd1na2vs0mg"},{"bike_id":"c6df5a11-88ac-4c2d-966f-46bd5174cf60","system_id":"levelo_inurba_marseille","lat":43.28166,"lon":5.42623,"is_reserved":false,"is_disabled":false,"rental_uris":{"android":"levelo://app?vid=c6df5a11-88ac-4c2d-966f-46bd5174cf60","ios":"levelo://app?vid=c6df5a11-88ac-4c2d-966f-46bd5174cf60"},"vehicle_type_id":"4","last_reported":1769160039,"current_range_meters":3200,"station_id":"ce4bhnh2rcd13ifvqgug","pricing_plan_id":"cebpf4jnsgd1na2vs0mg"},{"bike_id":"a6110c34-a25c-43e2-b2cf-d90d5bd9d5eb","system_id":"levelo_inurba_marseille","lat":43.27984,"lon":5.41675,"is_reserved":false,"is_disabled":false,"rental_uris":{"android":"levelo://app?vid=a6110c34-a25c-43e2-b2cf-d90d5bd9d5eb","ios":"levelo://app?vid=a6110c34-a25c-43e2-b2cf-d90d5bd9d5eb"},"vehicle_type_id":"4","last_reported":1769160039,"current_range_meters":3200,"station_id":"ce4bho12rcd13ifvqh1g","pricing_plan_id":"cebpf4jnsgd1na2vs0mg"},{"bike_id":"5a0b5ced-2864-4e44-a912-b5c12eabb027","system_id":"levelo_inurba_marseille","lat":43.25699,"lon":5.41134,"is_reserved":false,"is_disabled":false,"rental_uris":{"android":"levelo://app?vid=5a0b5ced-2864-4e44-a912-b5c12eabb027","ios":"levelo://app?vid=5a0b5ced-2864-4e44-a912-b5c12eabb027"},"vehicle_type_id":"4","last_reported":1769160039,"current_range_meters":3200,"station_id":"ce4bhkp2rcd13ifvqgd0","pricing_plan_id":"cebpf4jnsgd1na2vs0mg"},{"bike_id":"db52c014-7507-43f9-8010-c9eb4d059d84","system_id":"levelo_inurba_marseille","lat":43.25164,"lon":5.3955,"is_reserved":false,"is_disabled":false,"rental_uris":{"android":"levelo://app?vid=db52c014-7507-43f9-8010-c9eb4d059d84","ios":"levelo://app?vid=db52c014-7507-43f9-8010-c9eb4d059d84"},"vehicle_type_id":"4","last_reported":1769160039,"current_range_meters":3200,"station_id":"","pricing_plan_id":"cebpf4jnsgd1na2vs0mg"},{"bike_id":"3b12d6b4-840f-44cf-b4a9-56ca22a7154f","system_id":"levelo_inurba_marseille","lat":43.273292,"lon":5.390948,"is_reserved":false,"is_disabled":false,"rental_uris":{"android":"levelo://app?vid=3b12d6b4-840f-44cf-b4a9-56ca22a7154f","ios":"levelo://app?vid=3b12d6b4-840f-44cf-b4a9-56ca22a7154f"},"vehicle_type_id":"4","last_reported":1769160039,"current_range_meters":3200,"station_id":"ce4bhgp2rcd13ifvqfe0","pricing_plan_id":"cebpf4jnsgd1na2vs0mg"},{"bike_id":"f39628e7-f451-4af8-80af-ee31b074b0b2","system_id":"levelo_inurba_marseille","lat":43.28537,"lon":5.44109,"is_reserved":false,"is_disabled":false,"rental_uris":{"android":"levelo://app?vid=f39628e7-f451-4af8-80af-ee31b074b0b2","ios":"levelo://app?vid=f39628e7-f451-4af8-80af-ee31b074b0b2"},"vehicle_type_id":"4","last_reported":1769160039,"current_range_meters":3200,"station_id":"st_d3j3df2ikq2c7380ej80","pricing_plan_id":"cebpf4jnsgd1na2vs0mg"},{"bike_id":"8d4c3a37-1bcc-4c7e-8df0-4db94e80a659","system_id":"levelo_inurba_marseille","lat":43.30956,"lon":5.39026,"is_reserved":false,"is_disabled":false,"rental_uris":{"android":"levelo://app?vid=8d4c3a37-1bcc-4c7e-8df0-4db94e80a659","ios":"levelo://app?vid=8d4c3a37-1bcc-4c7e-8df0-4db94e80a659"},"vehicle_type_id":"4","last_reported":1769160039,"current_range_meters":3200,"station_id":"ce4bgup2rcd13ifvqco0","pricing_plan_id":"cebpf4jnsgd1na2vs0mg"},{"bike_id":"918dbf10-fe63-4f36-8383-9d474af5fde8","system_id":"levelo_inurba_marseille","lat":43.30449,"lon":5.37918,"is_reserved":false,"is_disabled":false,"rental_uris":{"android":"levelo://app?vid=918dbf10-fe63-4f36-8383-9d474af5fde8","ios":"levelo://app?vid=918dbf10-fe63-4f36-8383-9d474af5fde8"},"vehicle_type_id":"4","last_reported":1769160039,"current_range_meters":3200,"station_id":"ce4bgup2rcd13ifvqcn0","pricing_plan_id":"cebpf4jnsgd1na2vs0mg"},{"bike_id":"cf9d1ef5-1b27-4844-8227-de6f097a8958","system_id":"levelo_inurba_marseille","lat":43.26941,"lon":5.3865,"is_reserved":false,"is_disabled":false,"rental_uris":{"android":"levelo://app?vid=cf9d1ef5-1b27-4844-8227-de6f097a8958","ios":"levelo://app?vid=cf9d1ef5-1b27-4844-8227-de6f097a8958"},"vehicle_type_id":"4","last_reported":1769160039,"current_range_meters":3200,"station_id":"ce4bhh92rcd13ifvqfh0","pricing_plan_id":"cebpf4jnsgd1na2vs0mg"},{"bike_id":"ccbae388-92fe-44e9-a046-f507e677cba9","system_id":"levelo_inurba_marseille","lat":43.30454,"lon":5.37919,"is_reserved":false,"is_disabled":false,"rental_uris":{"android":"levelo://app?vid=ccbae388-92fe-44e9-a046-f507e677cba9","ios":"levelo://app?vid=ccbae388-92fe-44e9-a046-f507e677cba9"},"vehicle_type_id":"4","last_reported":1769160039,"current_range_meters":3200,"station_id":"ce4bgup2rcd13ifvqcn0","pricing_plan_id":"cebpf4jnsgd1na2vs0mg"},{"bike_id":"70bf7087-7641-4f14-8a6b-ba94eb562e34","system_id":"levelo_inurba_marseille","lat":43.26537,"lon":5.39026,"is_reserved":false,"is_disabled":false,"rental_uris":{"android":"levelo://app?vid=70bf7087-7641-4f14-8a6b-ba94eb562e34","ios":"levelo://app?vid=70bf7087-7641-4f14-8a6b-ba94eb562e34"},"vehicle_type_id":"4","last_reported":1769160039,"current_range_meters":3200,"station_id":"ce4bhe12rcd13ifvqf30","pricing_plan_id":"cebpf4jnsgd1na2vs0mg"},{"bike_id":"c04a5f67-8f5d-4135-86b4-b72fa6fb5eb3","system_id":"levelo_inurba_marseille","lat":43.27206,"lon":5.39207,"is_reserved":false,"is_disabled":false,"rental_uris":{"android":"levelo://app?vid=c04a5f67-8f5d-4135-86b4-b72fa6fb5eb3","ios":"levelo://app?vid=c04a5f67-8f5d-4135-86b4-b72fa6fb5eb3"},"vehicle_type_id":"4","last_reported":1769160039,"current_range_meters":3600,"station_id":"ce4bhhp2rcd13ifvqfm0","pricing_plan_id":"cebpf4jnsgd1na2vs0mg"},{"bike_id":"12d65139-8fbd-418b-8523-1b0952363e37","system_id":"levelo_inurba_marseille","lat":43.24649,"lon":5.38893,"is_reserved":false,"is_disabled":false,"rental_uris":{"android":"levelo://app?vid=12d65139-8fbd-418b-8523-1b0952363e37","ios":"levelo://app?vid=12d65139-8fbd-418b-8523-1b0952363e37"},"vehicle_type_id":"4","last_reported":1769160039,"current_range_meters":3600,"station_id":"ce4bhg12rcd13ifvqf60","pricing_plan_id":"cebpf4jnsgd1na2vs0mg"},{"bike_id":"e45e439a-8bbb-4c8b-be27-d95955fac1ae","system_id":"levelo_inurba_marseille","lat":43.30471,"lon":5.37918,"is_reserved":false,"is_disabled":true,"rental_uris":{"android":"levelo://app?vid=e45e439a-8bbb-4c8b-be27-d95955fac1ae","ios":"levelo://app?vid=e45e439a-8bbb-4c8b-be27-d95955fac1ae"},"vehicle_type_id":"4","last_reported":1769160039,"current_range_meters":3600,"station_id":"ce4bgup2rcd13ifvqcn0","pricing_plan_id":"cebpf4jnsgd1na2vs0mg"},{"bike_id":"020cfd6a-f32a-46f1-8621-8c0d452c270c","system_id":"levelo_inurba_marseille","lat":43.29014,"lon":5.37585,"is_reserved":false,"is_disabled":false,"rental_uris":{"android":"levelo://app?vid=020cfd6a-f32a-46f1-8621-8c0d452c270c","ios":"levelo://app?vid=020cfd6a-f32a-46f1-8621-8c0d452c270c"},"vehicle_type_id":"4","last_reported":1769160039,"current_range_meters":3600,"station_id":"ce4bh692rcd13ifvqe90","pricing_plan_id":"cebpf4jnsgd1na2vs0mg"},{"bike_id":"3d1881c1-9744-4183-b317-8e21bd24e52c","system_id":"levelo_inurba_marseille","lat":43.30949,"lon":5.39028,"is_reserved":false,"is_disabled":false,"rental_uris":{"android":"levelo://app?vid=3d1881c1-9744-4183-b317-8e21bd24e52c","ios":"levelo://app?vid=3d1881c1-9744-4183-b317-8e21bd24e52c"},"vehicle_type_id":"4","last_reported":1769160039,"current_range_meters":3600,"station_id":"ce4bgup2rcd13ifvqco0","pricing_plan_id":"cebpf4jnsgd1na2vs0mg"},{"bike_id":"f9143ecb-aade-4bb9-990c-9859476787e9","system_id":"levelo_inurba_marseille","lat":43.237805,"lon":5.366305,"is_reserved":false,"is_disabled":false,"rental_uris":{"android":"levelo://app?vid=f9143ecb-aade-4bb9-990c-9859476787e9","ios":"levelo://app?vid=f9143ecb-aade-4bb9-990c-9859476787e9"},"vehicle_type_id":"4","last_reported":1769160039,"current_range_meters":3600,"station_id":"st_d3nk18o9ro0c73en2l3g","pricing_plan_id":"cebpf4jnsgd1na2vs0mg"},{"bike_id":"6fb623f9-2096-4f17-9ade-ac0d4c495178","system_id":"levelo_inurba_marseille","lat":43.237854,"lon":5.366361,"is_reserved":false,"is_disabled":false,"rental_uris":{"android":"levelo://app?vid=6fb623f9-2096-4f17-9ade-ac0d4c495178","ios":"levelo://app?vid=6fb623f9-2096-4f17-9ade-ac0d4c495178"},"vehicle_type_id":"4","last_reported":1769160039,"current_range_meters":3600,"station_id":"st_d3nk18o9ro0c73en2l3g","pricing_plan_id":"cebpf4jnsgd1na2vs0mg"},{"bike_id":"00501435-8bd5-42ca-818c-f4f4367ebce1","system_id":"levelo_inurba_marseille","lat":43.23146,"lon":5.43723,"is_reserved":false,"is_disabled":false,"rental_uris":{"android":"levelo://app?vid=00501435-8bd5-42ca-818c-f4f4367ebce1","ios":"levelo://app?vid=00501435-8bd5-42ca-818c-f4f4367ebce1"},"vehicle_type_id":"4","last_reported":1769160039,"current_range_meters":3600,"station_id":"ce4bhmp2rcd13ifvqgog","pricing_plan_id":"cebpf4jnsgd1na2vs0mg"},{"bike_id":"1b7c3a5c-95e4-464b-a048-0de84ce85da9","system_id":"levelo_inurba_marseille","lat":43.30946,"lon":5.39047,"is_reserved":false,"is_disabled":false,"rental_uris":{"android":"levelo://app?vid=1b7c3a5c-95e4-464b-a048-0de84ce85da9","ios":"levelo://app?vid=1b7c3a5c-95e4-464b-a048-0de84ce85da9"},"vehicle_type_id":"4","last_reported":1769160039,"current_range_meters":3600,"station_id":"ce4bgup2rcd13ifvqco0","pricing_plan_id":"cebpf4jnsgd1na2vs0mg"},{"bike_id":"5400f95a-3e79-4d8e-b63d-814c0b42c1b8","system_id":"levelo_inurba_marseille","lat":43.30269,"lon":5.37722,"is_reserved":false,"is_disabled":false,"rental_uris":{"android":"levelo://app?vid=5400f95a-3e79-4d8e-b63d-814c0b42c1b8","ios":"levelo://app?vid=5400f95a-3e79-4d8e-b63d-814c0b42c1b8"},"vehicle_type_id":"4","last_reported":1769160039,"current_range_meters":3600,"station_id":"ce4bguh2rcd13ifvqcj0","pricing_plan_id":"cebpf4jnsgd1na2vs0mg"},{"bike_id":"550c8532-fc28-4cbc-819b-c2fe363468a7","system_id":"levelo_inurba_marseille","lat":43.310541,"lon":5.371661,"is_reserved":false,"is_disabled":false,"rental_uris":{"android":"levelo://app?vid=550c8532-fc28-4cbc-819b-c2fe363468a7","ios":"levelo://app?vid=550c8532-fc28-4cbc-819b-c2fe363468a7"},"vehicle_type_id":"4","last_reported":1769160039,"current_range_meters":4000,"station_id":"st_d4kl2rp97mjs73e7tdfg","pricing_plan_id":"cebpf4jnsgd1na2vs0mg"},{"bike_id":"1334fc94-1b07-4854-8e71-929fb3680a22","system_id":"levelo_inurba_marseille","lat":43.30884,"lon":5.37206,"is_reserved":false,"is_disabled":false,"rental_uris":{"android":"levelo://app?vid=1334fc94-1b07-4854-8e71-929fb3680a22","ios":"levelo://app?vid=1334fc94-1b07-4854-8e71-929fb3680a22"},"vehicle_type_id":"4","last_reported":1769160039,"current_range_meters":4000,"station_id":"ce4bguh2rcd13ifvqckg","pricing_plan_id":"cebpf4jnsgd1na2vs0mg"},{"bike_id":"3b364841-63d1-4d4f-bb34-83c89b251a49","system_id":"levelo_inurba_marseille","lat":43.308905,"lon":5.372013,"is_reserved":false,"is_disabled":false,"rental_uris":{"android":"levelo://app?vid=3b364841-63d1-4d4f-bb34-83c89b251a49","ios":"levelo://app?vid=3b364841-63d1-4d4f-bb34-83c89b251a49"},"vehicle_type_id":"4","last_reported":1769160039,"current_range_meters":4000,"station_id":"ce4bguh2rcd13ifvqckg","pricing_plan_id":"cebpf4jnsgd1na2vs0mg"},{"bike_id":"ea48d3c5-9f3a-48bc-998d-c00f8dba2c5c","system_id":"levelo_inurba_marseille","lat":43.27203,"lon":5.39189,"is_reserved":false,"is_disabled":false,"rental_uris":{"android":"levelo://app?vid=ea48d3c5-9f3a-48bc-998d-c00f8dba2c5c","ios":"levelo://app?vid=ea48d3c5-9f3a-48bc-998d-c00f8dba2c5c"},"vehicle_type_id":"4","last_reported":1769160039,"current_range_meters":4000,"station_id":"ce4bhhp2rcd13ifvqfm0","pricing_plan_id":"cebpf4jnsgd1na2vs0mg"},{"bike_id":"e7d1d2d2-0497-443e-8fbf-626f2faca361","system_id":"levelo_inurba_marseille","lat":43.302921,"lon":5.368955,"is_reserved":false,"is_disabled":false,"rental_uris":{"android":"levelo://app?vid=e7d1d2d2-0497-443e-8fbf-626f2faca361","ios":"levelo://app?vid=e7d1d2d2-0497-443e-8fbf-626f2faca361"},"vehicle_type_id":"4","last_reported":1769160039,"current_range_meters":4000,"station_id":"ce4bgqh2rcd13ifvqc5g","pricing_plan_id":"cebpf4jnsgd1na2vs0mg"},{"bike_id":"2bd7b052-198e-4662-8aa6-61b0cac79738","system_id":"levelo_inurba_marseille","lat":43.27255,"lon":5.39125,"is_reserved":false,"is_disabled":false,"rental_uris":{"android":"levelo://app?vid=2bd7b052-198e-4662-8aa6-61b0cac79738","ios":"levelo://app?vid=2bd7b052-198e-4662-8aa6-61b0cac79738"},"vehicle_type_id":"4","last_reported":1769160039,"current_range_meters":4000,"station_id":"","pricing_plan_id":"cebpf4jnsgd1na2vs0mg"},{"bike_id":"dfb6b791-badd-4621-9306-ea3c833e2455","system_id":"levelo_inurba_marseille","lat":43.32679,"lon":5.40914,"is_reserved":false,"is_disabled":false,"rental_uris":{"android":"levelo://app?vid=dfb6b791-badd-4621-9306-ea3c833e2455","ios":"levelo://app?vid=dfb6b791-badd-4621-9306-ea3c833e2455"},"vehicle_type_id":"4","last_reported":1769160039,"current_range_meters":4000,"station_id":"","pricing_plan_id":"cebpf4jnsgd1na2vs0mg"},{"bike_id":"e726a595-d783-4aca-abf1-2027c976f3e0","system_id":"levelo_inurba_marseille","lat":43.3055,"lon":5.3657,"is_reserved":false,"is_disabled":false,"rental_uris":{"android":"levelo://app?vid=e726a595-d783-4aca-abf1-2027c976f3e0","ios":"levelo://app?vid=e726a595-d783-4aca-abf1-2027c976f3e0"},"vehicle_type_id":"4","last_reported":1769160039,"current_range_meters":4000,"station_id":"ce4bgs12rcd13ifvqcag","pricing_plan_id":"cebpf4jnsgd1na2vs0mg"},{"bike_id":"6055bb6e-3d5f-4359-bcc3-e96115ee8c1f","system_id":"levelo_inurba_marseille","lat":43.25561,"lon":5.38248,"is_reserved":false,"is_disabled":false,"rental_uris":{"android":"levelo://app?vid=6055bb6e-3d5f-4359-bcc3-e96115ee8c1f","ios":"levelo://app?vid=6055bb6e-3d5f-4359-bcc3-e96115ee8c1f"},"vehicle_type_id":"4","last_reported":1769160039,"current_range_meters":4400,"station_id":"ce4bhih2rcd13ifvqfs0","pricing_plan_id":"cebpf4jnsgd1na2vs0mg"},{"bike_id":"ddcb7194-82dc-49b9-9531-85c1db3d6fc4","system_id":"levelo_inurba_marseille","lat":43.24618,"lon":5.38868,"is_reserved":false,"is_disabled":false,"rental_uris":{"android":"levelo://app?vid=ddcb7194-82dc-49b9-9531-85c1db3d6fc4","ios":"levelo://app?vid=ddcb7194-82dc-49b9-9531-85c1db3d6fc4"},"vehicle_type_id":"4","last_reported":1769160039,"current_range_meters":4400,"station_id":"ce4bhg12rcd13ifvqf60","pricing_plan_id":"cebpf4jnsgd1na2vs0mg"},{"bike_id":"a1cf0267-a9c6-4cb7-b49a-598a4cc67209","system_id":"levelo_inurba_marseille","lat":43.23177,"lon":5.3557,"is_reserved":false,"is_disabled":false,"rental_uris":{"android":"levelo://app?vid=a1cf0267-a9c6-4cb7-b49a-598a4cc67209","ios":"levelo://app?vid=a1cf0267-a9c6-4cb7-b49a-598a4cc67209"},"vehicle_type_id":"4","last_reported":1769160039,"current_range_meters":4400,"station_id":"ce4bhu92rcd13ifvqi70","pricing_plan_id":"cebpf4jnsgd1na2vs0mg"},{"bike_id":"090da4bf-e1ff-427c-b741-8d3293006606","system_id":"levelo_inurba_marseille","lat":43.23188,"lon":5.35566,"is_reserved":false,"is_disabled":false,"rental_uris":{"android":"levelo://app?vid=090da4bf-e1ff-427c-b741-8d3293006606","ios":"levelo://app?vid=090da4bf-e1ff-427c-b741-8d3293006606"},"vehicle_type_id":"4","last_reported":1769160039,"current_range_meters":4400,"station_id":"ce4bhu92rcd13ifvqi70","pricing_plan_id":"cebpf4jnsgd1na2vs0mg"},{"bike_id":"2db372e0-2885-418f-a8c1-4f892624262b","system_id":"levelo_inurba_marseille","lat":43.27207,"lon":5.39204,"is_reserved":false,"is_disabled":false,"rental_uris":{"android":"levelo://app?vid=2db372e0-2885-418f-a8c1-4f892624262b","ios":"levelo://app?vid=2db372e0-2885-418f-a8c1-4f892624262b"},"vehicle_type_id":"4","last_reported":1769160039,"current_range_meters":4400,"station_id":"ce4bhhp2rcd13ifvqfm0","pricing_plan_id":"cebpf4jnsgd1na2vs0mg"},{"bike_id":"95fcb32a-d899-4c43-aca7-c0b0b736ec9f","system_id":"levelo_inurba_marseille","lat":43.29257,"lon":5.40161,"is_reserved":false,"is_disabled":false,"rental_uris":{"android":"levelo://app?vid=95fcb32a-d899-4c43-aca7-c0b0b736ec9f","ios":"levelo://app?vid=95fcb32a-d899-4c43-aca7-c0b0b736ec9f"},"vehicle_type_id":"4","last_reported":1769160039,"current_range_meters":4400,"station_id":"ce4bh312rcd13ifvqdk0","pricing_plan_id":"cebpf4jnsgd1na2vs0mg"},{"bike_id":"983dfa04-9e71-401d-b498-feaefa1c2d24","system_id":"levelo_inurba_marseille","lat":43.27002,"lon":5.39222,"is_reserved":false,"is_disabled":false,"rental_uris":{"android":"levelo://app?vid=983dfa04-9e71-401d-b498-feaefa1c2d24","ios":"levelo://app?vid=983dfa04-9e71-401d-b498-feaefa1c2d24"},"vehicle_type_id":"4","last_reported":1769160039,"current_range_meters":4400,"station_id":"","pricing_plan_id":"cebpf4jnsgd1na2vs0mg"},{"bike_id":"0bf07db8-c48c-432b-b250-ec7680bacaa6","system_id":"levelo_inurba_marseille","lat":43.29219,"lon":5.36059,"is_reserved":false,"is_disabled":false,"rental_uris":{"android":"levelo://app?vid=0bf07db8-c48c-432b-b250-ec7680bacaa6","ios":"levelo://app?vid=0bf07db8-c48c-432b-b250-ec7680bacaa6"},"vehicle_type_id":"4","last_reported":1769160039,"current_range_meters":4400,"station_id":"ce4bhbh2rcd13ifvqeqg","pricing_plan_id":"cebpf4jnsgd1na2vs0mg"},{"bike_id":"52d180c0-5053-4665-a9be-c53985e60be1","system_id":"levelo_inurba_marseille","lat":43.2407,"lon":5.37768,"is_reserved":false,"is_disabled":false,"rental_uris":{"android":"levelo://app?vid=52d180c0-5053-4665-a9be-c53985e60be1","ios":"levelo://app?vid=52d180c0-5053-4665-a9be-c53985e60be1"},"vehicle_type_id":"4","last_reported":1769160039,"current_range_meters":4400,"station_id":"ce4bhnp2rcd13ifvqgvg","pricing_plan_id":"cebpf4jnsgd1na2vs0mg"},{"bike_id":"f86bd105-9e03-4ff7-bfb9-09e5f8507dc8","system_id":"levelo_inurba_marseille","lat":43.289958,"lon":5.398756,"is_reserved":false,"is_disabled":false,"rental_uris":{"android":"levelo://app?vid=f86bd105-9e03-4ff7-bfb9-09e5f8507dc8","ios":"levelo://app?vid=f86bd105-9e03-4ff7-bfb9-09e5f8507dc8"},"vehicle_type_id":"4","last_reported":1769160039,"current_range_meters":4400,"station_id":"ce4bh392rcd13ifvqdm0","pricing_plan_id":"cebpf4jnsgd1na2vs0mg"},{"bike_id":"6cde08db-2d60-4fc0-a7d5-505f4f93c6d4","system_id":"levelo_inurba_marseille","lat":43.33537,"lon":5.37465,"is_reserved":false,"is_disabled":false,"rental_uris":{"android":"levelo://app?vid=6cde08db-2d60-4fc0-a7d5-505f4f93c6d4","ios":"levelo://app?vid=6cde08db-2d60-4fc0-a7d5-505f4f93c6d4"},"vehicle_type_id":"4","last_reported":1769160039,"current_range_meters":4400,"station_id":"st_d46tts09ee8s73dlu43g","pricing_plan_id":"cebpf4jnsgd1na2vs0mg"},{"bike_id":"72fafb96-f297-4dfe-9661-167cd14b85bc","system_id":"levelo_inurba_marseille","lat":43.30531,"lon":5.36553,"is_reserved":false,"is_disabled":false,"rental_uris":{"android":"levelo://app?vid=72fafb96-f297-4dfe-9661-167cd14b85bc","ios":"levelo://app?vid=72fafb96-f297-4dfe-9661-167cd14b85bc"},"vehicle_type_id":"4","last_reported":1769160039,"current_range_meters":4400,"station_id":"ce4bgs12rcd13ifvqcag","pricing_plan_id":"cebpf4jnsgd1na2vs0mg"},{"bike_id":"68e91371-ec19-4980-808d-6b1e83d2095c","system_id":"levelo_inurba_marseille","lat":43.27915,"lon":5.39587,"is_reserved":false,"is_disabled":false,"rental_uris":{"android":"levelo://app?vid=68e91371-ec19-4980-808d-6b1e83d2095c","ios":"levelo://app?vid=68e91371-ec19-4980-808d-6b1e83d2095c"},"vehicle_type_id":"4","last_reported":1769160039,"current_range_meters":4800,"station_id":"ce4bhf92rcd13ifvqf40","pricing_plan_id":"cebpf4jnsgd1na2vs0mg"},{"bike_id":"3e2deb9e-e71a-4d11-940d-76cd444019bd","system_id":"levelo_inurba_marseille","lat":43.30113,"lon":5.43106,"is_reserved":false,"is_disabled":false,"rental_uris":{"android":"levelo://app?vid=3e2deb9e-e71a-4d11-940d-76cd444019bd","ios":"levelo://app?vid=3e2deb9e-e71a-4d11-940d-76cd444019bd"},"vehicle_type_id":"4","last_reported":1769160039,"current_range_meters":4800,"station_id":"st_d3js3co5814s73ftftug","pricing_plan_id":"cebpf4jnsgd1na2vs0mg"},{"bike_id":"90986cae-dfb6-4673-bf77-446d46274004","system_id":"levelo_inurba_marseille","lat":43.28527,"lon":5.44132,"is_reserved":false,"is_disabled":false,"rental_uris":{"android":"levelo://app?vid=90986cae-dfb6-4673-bf77-446d46274004","ios":"levelo://app?vid=90986cae-dfb6-4673-bf77-446d46274004"},"vehicle_type_id":"4","last_reported":1769160039,"current_range_meters":4800,"station_id":"st_d3j3df2ikq2c7380ej80","pricing_plan_id":"cebpf4jnsgd1na2vs0mg"},{"bike_id":"1850841b-646c-41b2-acb1-5ed7f28164ea","system_id":"levelo_inurba_marseille","lat":43.25923,"lon":5.40904,"is_reserved":false,"is_disabled":false,"rental_uris":{"android":"levelo://app?vid=1850841b-646c-41b2-acb1-5ed7f28164ea","ios":"levelo://app?vid=1850841b-646c-41b2-acb1-5ed7f28164ea"},"vehicle_type_id":"4","last_reported":1769160039,"current_range_meters":4800,"station_id":"ce4bhm92rcd13ifvqglg","pricing_plan_id":"cebpf4jnsgd1na2vs0mg"},{"bike_id":"9bcc74ff-bb21-459b-8c89-b1049e46743c","system_id":"levelo_inurba_marseille","lat":43.24622,"lon":5.43163,"is_reserved":false,"is_disabled":false,"rental_uris":{"android":"levelo://app?vid=9bcc74ff-bb21-459b-8c89-b1049e46743c","ios":"levelo://app?vid=9bcc74ff-bb21-459b-8c89-b1049e46743c"},"vehicle_type_id":"4","last_reported":1769160039,"current_range_meters":4800,"station_id":"st_d2m6c4gdas8pm72e190g","pricing_plan_id":"cebpf4jnsgd1na2vs0mg"},{"bike_id":"5ed9adc2-4705-47c2-8f5e-8468dac9363e","system_id":"levelo_inurba_marseille","lat":43.31711,"lon":5.43711,"is_reserved":false,"is_disabled":false,"rental_uris":{"android":"levelo://app?vid=5ed9adc2-4705-47c2-8f5e-8468dac9363e","ios":"levelo://app?vid=5ed9adc2-4705-47c2-8f5e-8468dac9363e"},"vehicle_type_id":"4","last_reported":1769160039,"current_range_meters":4800,"station_id":"ce4bhp92rcd13ifvqhcg","pricing_plan_id":"cebpf4jnsgd1na2vs0mg"},{"bike_id":"c9c91417-1c93-40bd-ac7d-c76d147f675b","system_id":"levelo_inurba_marseille","lat":43.249951,"lon":5.38932,"is_reserved":false,"is_disabled":false,"rental_uris":{"android":"levelo://app?vid=c9c91417-1c93-40bd-ac7d-c76d147f675b","ios":"levelo://app?vid=c9c91417-1c93-40bd-ac7d-c76d147f675b"},"vehicle_type_id":"4","last_reported":1769160039,"current_range_meters":4800,"station_id":"ce4bhgp2rcd13ifvqfd0","pricing_plan_id":"cebpf4jnsgd1na2vs0mg"},{"bike_id":"1d27e4bb-8e6d-488b-8b47-016afdca1c44","system_id":"levelo_inurba_marseille","lat":43.2902,"lon":5.38648,"is_reserved":false,"is_disabled":false,"rental_uris":{"android":"levelo://app?vid=1d27e4bb-8e6d-488b-8b47-016afdca1c44","ios":"levelo://app?vid=1d27e4bb-8e6d-488b-8b47-016afdca1c44"},"vehicle_type_id":"4","last_reported":1769160039,"current_range_meters":4800,"station_id":"ce4bh4p2rcd13ifvqe0g","pricing_plan_id":"cebpf4jnsgd1na2vs0mg"},{"bike_id":"accf3f81-0250-412b-b538-7a6a19b0ed96","system_id":"levelo_inurba_marseille","lat":43.30273,"lon":5.37721,"is_reserved":false,"is_disabled":false,"rental_uris":{"android":"levelo://app?vid=accf3f81-0250-412b-b538-7a6a19b0ed96","ios":"levelo://app?vid=accf3f81-0250-412b-b538-7a6a19b0ed96"},"vehicle_type_id":"4","last_reported":1769160039,"current_range_meters":5600,"station_id":"ce4bguh2rcd13ifvqcj0","pricing_plan_id":"cebpf4jnsgd1na2vs0mg"},{"bike_id":"1cd16e19-c2c6-42be-a9ab-0a35f15f0209","system_id":"levelo_inurba_marseille","lat":43.30141,"lon":5.37423,"is_reserved":false,"is_disabled":false,"rental_uris":{"android":"levelo://app?vid=1cd16e19-c2c6-42be-a9ab-0a35f15f0209","ios":"levelo://app?vid=1cd16e19-c2c6-42be-a9ab-0a35f15f0209"},"vehicle_type_id":"4","last_reported":1769160039,"current_range_meters":5600,"station_id":"ce4bgs92rcd13ifvqcc0","pricing_plan_id":"cebpf4jnsgd1na2vs0mg"},{"bike_id":"f3575230-e372-44e1-a1c3-3fb9c98f3fe2","system_id":"levelo_inurba_marseille","lat":43.26366,"lon":5.41083,"is_reserved":false,"is_disabled":false,"rental_uris":{"android":"levelo://app?vid=f3575230-e372-44e1-a1c3-3fb9c98f3fe2","ios":"levelo://app?vid=f3575230-e372-44e1-a1c3-3fb9c98f3fe2"},"vehicle_type_id":"4","last_reported":1769160039,"current_range_meters":5600,"station_id":"st_d4e5ca6na9uc73bfl5fg","pricing_plan_id":"cebpf4jnsgd1na2vs0mg"},{"bike_id":"c462c4a3-3f5e-4fd1-8a2f-56615210c468","system_id":"levelo_inurba_marseille","lat":43.258101,"lon":5.385961,"is_reserved":false,"is_disabled":false,"rental_uris":{"android":"levelo://app?vid=c462c4a3-3f5e-4fd1-8a2f-56615210c468","ios":"levelo://app?vid=c462c4a3-3f5e-4fd1-8a2f-56615210c468"},"vehicle_type_id":"4","last_reported":1769160039,"current_range_meters":5600,"station_id":"","pricing_plan_id":"cebpf4jnsgd1na2vs0mg"},{"bike_id":"28b0ee13-bea5-4907-a1a4-3c3f9ad9d835","system_id":"levelo_inurba_marseille","lat":43.26556,"lon":5.37323,"is_reserved":false,"is_disabled":false,"rental_uris":{"android":"levelo://app?vid=28b0ee13-bea5-4907-a1a4-3c3f9ad9d835","ios":"levelo://app?vid=28b0ee13-bea5-4907-a1a4-3c3f9ad9d835"},"vehicle_type_id":"4","last_reported":1769160039,"current_range_meters":5600,"station_id":"ce4bhg12rcd13ifvqf70","pricing_plan_id":"cebpf4jnsgd1na2vs0mg"},{"bike_id":"07eceb74-6a95-40d2-bb91-34d09033e737","system_id":"levelo_inurba_marseille","lat":43.27366,"lon":5.36267,"is_reserved":false,"is_disabled":false,"rental_uris":{"android":"levelo://app?vid=07eceb74-6a95-40d2-bb91-34d09033e737","ios":"levelo://app?vid=07eceb74-6a95-40d2-bb91-34d09033e737"},"vehicle_type_id":"4","last_reported":1769160039,"current_range_meters":5600,"station_id":"ce4bhbh2rcd13ifvqeo0","pricing_plan_id":"cebpf4jnsgd1na2vs0mg"},{"bike_id":"fe3350b5-ccbd-45e4-b52d-f2070401a0a4","system_id":"levelo_inurba_marseille","lat":43.29874,"lon":5.38901,"is_reserved":false,"is_disabled":true,"rental_uris":{"android":"levelo://app?vid=fe3350b5-ccbd-45e4-b52d-f2070401a0a4","ios":"levelo://app?vid=fe3350b5-ccbd-45e4-b52d-f2070401a0a4"},"vehicle_type_id":"4","last_reported":1769160039,"current_range_meters":5600,"station_id":"ce4bh392rcd13ifvqdl0","pricing_plan_id":"cebpf4jnsgd1na2vs0mg"},{"bike_id":"93ccd092-a7f1-4592-950d-bdb838c6f004","system_id":"levelo_inurba_marseille","lat":43.25004,"lon":5.38942,"is_reserved":false,"is_disabled":false,"rental_uris":{"android":"levelo://app?vid=93ccd092-a7f1-4592-950d-bdb838c6f004","ios":"levelo://app?vid=93ccd092-a7f1-4592-950d-bdb838c6f004"},"vehicle_type_id":"4","last_reported":1769160039,"current_range_meters":5600,"station_id":"ce4bhgp2rcd13ifvqfd0","pricing_plan_id":"cebpf4jnsgd1na2vs0mg"},{"bike_id":"2fa28398-73c6-40b0-abd2-13b571db7bc0","system_id":"levelo_inurba_marseille","lat":43.26197,"lon":5.37935,"is_reserved":false,"is_disabled":false,"rental_uris":{"android":"levelo://app?vid=2fa28398-73c6-40b0-abd2-13b571db7bc0","ios":"levelo://app?vid=2fa28398-73c6-40b0-abd2-13b571db7bc0"},"vehicle_type_id":"4","last_reported":1769160039,"current_range_meters":5600,"station_id":"ce4bhjp2rcd13ifvqg90","pricing_plan_id":"cebpf4jnsgd1na2vs0mg"},{"bike_id":"7a44288c-76ef-42bd-aa63-09fedbfa4f09","system_id":"levelo_inurba_marseille","lat":43.244675,"lon":5.425328,"is_reserved":false,"is_disabled":false,"rental_uris":{"android":"levelo://app?vid=7a44288c-76ef-42bd-aa63-09fedbfa4f09","ios":"levelo://app?vid=7a44288c-76ef-42bd-aa63-09fedbfa4f09"},"vehicle_type_id":"4","last_reported":1769160039,"current_range_meters":5600,"station_id":"st_d4a3vfp97mjs738cd8kg","pricing_plan_id":"cebpf4jnsgd1na2vs0mg"},{"bike_id":"fd925f8e-899e-40ec-9287-4e65251eafb1","system_id":"levelo_inurba_marseille","lat":43.26829,"lon":5.38499,"is_reserved":false,"is_disabled":false,"rental_uris":{"android":"levelo://app?vid=fd925f8e-899e-40ec-9287-4e65251eafb1","ios":"levelo://app?vid=fd925f8e-899e-40ec-9287-4e65251eafb1"},"vehicle_type_id":"4","last_reported":1769160039,"current_range_meters":6000,"station_id":"","pricing_plan_id":"cebpf4jnsgd1na2vs0mg"},{"bike_id":"9864eb71-e1a9-41e3-a300-f80070833647","system_id":"levelo_inurba_marseille","lat":43.26562,"lon":5.40326,"is_reserved":false,"is_disabled":false,"rental_uris":{"android":"levelo://app?vid=9864eb71-e1a9-41e3-a300-f80070833647","ios":"levelo://app?vid=9864eb71-e1a9-41e3-a300-f80070833647"},"vehicle_type_id":"4","last_reported":1769160039,"current_range_meters":6000,"station_id":"ce4bhmp2rcd13ifvqgng","pricing_plan_id":"cebpf4jnsgd1na2vs0mg"},{"bike_id":"cc9f4717-497d-46b4-8770-89f5df0571cd","system_id":"levelo_inurba_marseille","lat":43.24384,"lon":5.37075,"is_reserved":false,"is_disabled":false,"rental_uris":{"android":"levelo://app?vid=cc9f4717-497d-46b4-8770-89f5df0571cd","ios":"levelo://app?vid=cc9f4717-497d-46b4-8770-89f5df0571cd"},"vehicle_type_id":"4","last_reported":1769160039,"current_range_meters":6000,"station_id":"ce4bhhh2rcd13ifvqfk0","pricing_plan_id":"cebpf4jnsgd1na2vs0mg"},{"bike_id":"ae72a7f7-0a78-43a1-a80c-a2893de3e9bb","system_id":"levelo_inurba_marseille","lat":43.24806,"lon":5.37472,"is_reserved":false,"is_disabled":false,"rental_uris":{"android":"levelo://app?vid=ae72a7f7-0a78-43a1-a80c-a2893de3e9bb","ios":"levelo://app?vid=ae72a7f7-0a78-43a1-a80c-a2893de3e9bb"},"vehicle_type_id":"4","last_reported":1769160039,"current_range_meters":6000,"station_id":"ce4bhgh2rcd13ifvqfb0","pricing_plan_id":"cebpf4jnsgd1na2vs0mg"},{"bike_id":"594123cd-6fd8-4ac7-93c4-4fe96aefa6e1","system_id":"levelo_inurba_marseille","lat":43.30952,"lon":5.39036,"is_reserved":false,"is_disabled":false,"rental_uris":{"android":"levelo://app?vid=594123cd-6fd8-4ac7-93c4-4fe96aefa6e1","ios":"levelo://app?vid=594123cd-6fd8-4ac7-93c4-4fe96aefa6e1"},"vehicle_type_id":"4","last_reported":1769160039,"current_range_meters":6000,"station_id":"ce4bgup2rcd13ifvqco0","pricing_plan_id":"cebpf4jnsgd1na2vs0mg"},{"bike_id":"65a6842e-5fed-466b-9131-4e1d873c7f6a","system_id":"levelo_inurba_marseille","lat":43.30106,"lon":5.39082,"is_reserved":false,"is_disabled":false,"rental_uris":{"android":"levelo://app?vid=65a6842e-5fed-466b-9131-4e1d873c7f6a","ios":"levelo://app?vid=65a6842e-5fed-466b-9131-4e1d873c7f6a"},"vehicle_type_id":"4","last_reported":1769160039,"current_range_meters":6000,"station_id":"ce4bh192rcd13ifvqdb0","pricing_plan_id":"cebpf4jnsgd1na2vs0mg"},{"bike_id":"3cf97f5c-44e2-4840-86f1-adbb97679053","system_id":"levelo_inurba_marseille","lat":43.305407,"lon":5.367015,"is_reserved":false,"is_disabled":false,"rental_uris":{"android":"levelo://app?vid=3cf97f5c-44e2-4840-86f1-adbb97679053","ios":"levelo://app?vid=3cf97f5c-44e2-4840-86f1-adbb97679053"},"vehicle_type_id":"4","last_reported":1769160039,"current_range_meters":6000,"station_id":"ce4bgrp2rcd13ifvqc9g","pricing_plan_id":"cebpf4jnsgd1na2vs0mg"},{"bike_id":"40e5e2c7-0e64-4220-a47b-eba55999faf7","system_id":"levelo_inurba_marseille","lat":43.22557,"lon":5.41646,"is_reserved":false,"is_disabled":false,"rental_uris":{"android":"levelo://app?vid=40e5e2c7-0e64-4220-a47b-eba55999faf7","ios":"levelo://app?vid=40e5e2c7-0e64-4220-a47b-eba55999faf7"},"vehicle_type_id":"4","last_reported":1769160039,"current_range_meters":6000,"station_id":"st_d2o4gvlbi1j2169b742g","pricing_plan_id":"cebpf4jnsgd1na2vs0mg"},{"bike_id":"7ba23323-6ddc-445c-8627-b0bc6c465bc3","system_id":"levelo_inurba_marseille","lat":43.32438,"lon":5.36575,"is_reserved":false,"is_disabled":false,"rental_uris":{"android":"levelo://app?vid=7ba23323-6ddc-445c-8627-b0bc6c465bc3","ios":"levelo://app?vid=7ba23323-6ddc-445c-8627-b0bc6c465bc3"},"vehicle_type_id":"4","last_reported":1769160039,"current_range_meters":6000,"station_id":"ce4bhs12rcd13ifvqhvg","pricing_plan_id":"cebpf4jnsgd1na2vs0mg"},{"bike_id":"20c1cc69-3a0d-4679-b45c-9954ef47fca5","system_id":"levelo_inurba_marseille","lat":43.230655,"lon":5.354972,"is_reserved":false,"is_disabled":false,"rental_uris":{"android":"levelo://app?vid=20c1cc69-3a0d-4679-b45c-9954ef47fca5","ios":"levelo://app?vid=20c1cc69-3a0d-4679-b45c-9954ef47fca5"},"vehicle_type_id":"4","last_reported":1769160039,"current_range_meters":6000,"station_id":"cpo3342slgdg3j2ifvpg","pricing_plan_id":"cebpf4jnsgd1na2vs0mg"},{"bike_id":"884b714b-de31-400c-acad-491c87710532","system_id":"levelo_inurba_marseille","lat":43.29903,"lon":5.43661,"is_reserved":false,"is_disabled":false,"rental_uris":{"android":"levelo://app?vid=884b714b-de31-400c-acad-491c87710532","ios":"levelo://app?vid=884b714b-de31-400c-acad-491c87710532"},"vehicle_type_id":"4","last_reported":1769160039,"current_range_meters":6000,"station_id":"ce4bhpp2rcd13ifvqhfg","pricing_plan_id":"cebpf4jnsgd1na2vs0mg"},{"bike_id":"2a23604c-3a2a-4386-9db8-9dcef82c7a83","system_id":"levelo_inurba_marseille","lat":43.30171,"lon":5.38089,"is_reserved":false,"is_disabled":false,"rental_uris":{"android":"levelo://app?vid=2a23604c-3a2a-4386-9db8-9dcef82c7a83","ios":"levelo://app?vid=2a23604c-3a2a-4386-9db8-9dcef82c7a83"},"vehicle_type_id":"4","last_reported":1769160039,"current_range_meters":6000,"station_id":"ce4bgjp2rcd13ifvqbh0","pricing_plan_id":"cebpf4jnsgd1na2vs0mg"},{"bike_id":"cf557c85-8b34-4929-8f7e-4bc211ee95de","system_id":"levelo_inurba_marseille","lat":43.21739,"lon":5.34618,"is_reserved":false,"is_disabled":false,"rental_uris":{"android":"levelo://app?vid=cf557c85-8b34-4929-8f7e-4bc211ee95de","ios":"levelo://app?vid=cf557c85-8b34-4929-8f7e-4bc211ee95de"},"vehicle_type_id":"4","last_reported":1769160039,"current_range_meters":6400,"station_id":"","pricing_plan_id":"cebpf4jnsgd1na2vs0mg"},{"bike_id":"c0285b55-73df-4265-a2e1-4a0bb225f766","system_id":"levelo_inurba_marseille","lat":43.246437,"lon":5.388895,"is_reserved":false,"is_disabled":false,"rental_uris":{"android":"levelo://app?vid=c0285b55-73df-4265-a2e1-4a0bb225f766","ios":"levelo://app?vid=c0285b55-73df-4265-a2e1-4a0bb225f766"},"vehicle_type_id":"4","last_reported":1769160039,"current_range_meters":6400,"station_id":"ce4bhg12rcd13ifvqf60","pricing_plan_id":"cebpf4jnsgd1na2vs0mg"},{"bike_id":"05d6e816-c599-4137-a30a-5127b06dbfc0","system_id":"levelo_inurba_marseille","lat":43.28144,"lon":5.42644,"is_reserved":false,"is_disabled":true,"rental_uris":{"android":"levelo://app?vid=05d6e816-c599-4137-a30a-5127b06dbfc0","ios":"levelo://app?vid=05d6e816-c599-4137-a30a-5127b06dbfc0"},"vehicle_type_id":"4","last_reported":1769160039,"current_range_meters":6400,"station_id":"ce4bhnh2rcd13ifvqgug","pricing_plan_id":"cebpf4jnsgd1na2vs0mg"},{"bike_id":"cc3c0fa4-318c-42a8-b516-2cb6a62d73ef","system_id":"levelo_inurba_marseille","lat":43.24994,"lon":5.38937,"is_reserved":false,"is_disabled":false,"rental_uris":{"android":"levelo://app?vid=cc3c0fa4-318c-42a8-b516-2cb6a62d73ef","ios":"levelo://app?vid=cc3c0fa4-318c-42a8-b516-2cb6a62d73ef"},"vehicle_type_id":"4","last_reported":1769160039,"current_range_meters":6400,"station_id":"ce4bhgp2rcd13ifvqfd0","pricing_plan_id":"cebpf4jnsgd1na2vs0mg"},{"bike_id":"9c444706-c06d-4bf0-b1a2-d7f04a918691","system_id":"levelo_inurba_marseille","lat":43.25934,"lon":5.4092,"is_reserved":false,"is_disabled":false,"rental_uris":{"android":"levelo://app?vid=9c444706-c06d-4bf0-b1a2-d7f04a918691","ios":"levelo://app?vid=9c444706-c06d-4bf0-b1a2-d7f04a918691"},"vehicle_type_id":"4","last_reported":1769160039,"current_range_meters":6400,"station_id":"ce4bhm92rcd13ifvqglg","pricing_plan_id":"cebpf4jnsgd1na2vs0mg"},{"bike_id":"a6647b88-80b4-4619-873e-fc05f3342456","system_id":"levelo_inurba_marseille","lat":43.24632,"lon":5.43149,"is_reserved":false,"is_disabled":false,"rental_uris":{"android":"levelo://app?vid=a6647b88-80b4-4619-873e-fc05f3342456","ios":"levelo://app?vid=a6647b88-80b4-4619-873e-fc05f3342456"},"vehicle_type_id":"4","last_reported":1769160039,"current_range_meters":6400,"station_id":"st_d2m6c4gdas8pm72e190g","pricing_plan_id":"cebpf4jnsgd1na2vs0mg"},{"bike_id":"dbaf99ff-7cdf-410d-a89b-d60be462efcf","system_id":"levelo_inurba_marseille","lat":43.29862,"lon":5.38886,"is_reserved":false,"is_disabled":true,"rental_uris":{"android":"levelo://app?vid=dbaf99ff-7cdf-410d-a89b-d60be462efcf","ios":"levelo://app?vid=dbaf99ff-7cdf-410d-a89b-d60be462efcf"},"vehicle_type_id":"4","last_reported":1769160039,"current_range_meters":6400,"station_id":"","pricing_plan_id":"cebpf4jnsgd1na2vs0mg"},{"bike_id":"70aa8391-3c8c-41ab-8c43-1b3661572c84","system_id":"levelo_inurba_marseille","lat":43.24661,"lon":5.38152,"is_reserved":false,"is_disabled":false,"rental_uris":{"android":"levelo://app?vid=70aa8391-3c8c-41ab-8c43-1b3661572c84","ios":"levelo://app?vid=70aa8391-3c8c-41ab-8c43-1b3661572c84"},"vehicle_type_id":"4","last_reported":1769160039,"current_range_meters":6400,"station_id":"ce4bhih2rcd13ifvqfr0","pricing_plan_id":"cebpf4jnsgd1na2vs0mg"},{"bike_id":"324cd82f-1083-4204-b317-811809b2300e","system_id":"levelo_inurba_marseille","lat":43.29187,"lon":5.37312,"is_reserved":false,"is_disabled":true,"rental_uris":{"android":"levelo://app?vid=324cd82f-1083-4204-b317-811809b2300e","ios":"levelo://app?vid=324cd82f-1083-4204-b317-811809b2300e"},"vehicle_type_id":"4","last_reported":1769160039,"current_range_meters":6400,"station_id":"","pricing_plan_id":"cebpf4jnsgd1na2vs0mg"},{"bike_id":"cddcd166-b3d6-4385-9135-e14b29a5fcbd","system_id":"levelo_inurba_marseille","lat":43.305406,"lon":5.367387,"is_reserved":false,"is_disabled":false,"rental_uris":{"android":"levelo://app?vid=cddcd166-b3d6-4385-9135-e14b29a5fcbd","ios":"levelo://app?vid=cddcd166-b3d6-4385-9135-e14b29a5fcbd"},"vehicle_type_id":"4","last_reported":1769160039,"current_range_meters":6400,"station_id":"ce4bgrp2rcd13ifvqc9g","pricing_plan_id":"cebpf4jnsgd1na2vs0mg"},{"bike_id":"cbd6d55e-5809-4853-9878-dbbf6af6a148","system_id":"levelo_inurba_marseille","lat":43.28866,"lon":5.42545,"is_reserved":false,"is_disabled":false,"rental_uris":{"android":"levelo://app?vid=cbd6d55e-5809-4853-9878-dbbf6af6a148","ios":"levelo://app?vid=cbd6d55e-5809-4853-9878-dbbf6af6a148"},"vehicle_type_id":"4","last_reported":1769160039,"current_range_meters":6800,"station_id":"st_d3b462108ojc7389ooeg","pricing_plan_id":"cebpf4jnsgd1na2vs0mg"},{"bike_id":"5b94d29f-9636-4aaa-b03f-06ecb5d9af2a","system_id":"levelo_inurba_marseille","lat":43.26059,"lon":5.39467,"is_reserved":false,"is_disabled":false,"rental_uris":{"android":"levelo://app?vid=5b94d29f-9636-4aaa-b03f-06ecb5d9af2a","ios":"levelo://app?vid=5b94d29f-9636-4aaa-b03f-06ecb5d9af2a"},"vehicle_type_id":"4","last_reported":1769160039,"current_range_meters":6800,"station_id":"ce4bhh92rcd13ifvqfj0","pricing_plan_id":"cebpf4jnsgd1na2vs0mg"},{"bike_id":"2403f0bf-de39-4f6c-b1d8-f725bb90dee3","system_id":"levelo_inurba_marseille","lat":43.24158,"lon":5.36393,"is_reserved":false,"is_disabled":false,"rental_uris":{"android":"levelo://app?vid=2403f0bf-de39-4f6c-b1d8-f725bb90dee3","ios":"levelo://app?vid=2403f0bf-de39-4f6c-b1d8-f725bb90dee3"},"vehicle_type_id":"4","last_reported":1769160039,"current_range_meters":6800,"station_id":"cpo36qri1sfpv3e86is0","pricing_plan_id":"cebpf4jnsgd1na2vs0mg"},{"bike_id":"ba4dbbff-8d2b-4731-b2d8-2ba2461db1db","system_id":"levelo_inurba_marseille","lat":43.288655,"lon":5.425139,"is_reserved":false,"is_disabled":false,"rental_uris":{"android":"levelo://app?vid=ba4dbbff-8d2b-4731-b2d8-2ba2461db1db","ios":"levelo://app?vid=ba4dbbff-8d2b-4731-b2d8-2ba2461db1db"},"vehicle_type_id":"4","last_reported":1769160039,"current_range_meters":6800,"station_id":"st_d3b462108ojc7389ooeg","pricing_plan_id":"cebpf4jnsgd1na2vs0mg"},{"bike_id":"249a4cf7-06f6-4fea-96cc-c9c6b750c37f","system_id":"levelo_inurba_marseille","lat":43.24165,"lon":5.36422,"is_reserved":false,"is_disabled":false,"rental_uris":{"android":"levelo://app?vid=249a4cf7-06f6-4fea-96cc-c9c6b750c37f","ios":"levelo://app?vid=249a4cf7-06f6-4fea-96cc-c9c6b750c37f"},"vehicle_type_id":"4","last_reported":1769160039,"current_range_meters":6800,"station_id":"cpo36qri1sfpv3e86is0","pricing_plan_id":"cebpf4jnsgd1na2vs0mg"},{"bike_id":"a5df8023-10a0-49b1-afeb-bc63fd2fb394","system_id":"levelo_inurba_marseille","lat":43.26376,"lon":5.41059,"is_reserved":false,"is_disabled":false,"rental_uris":{"android":"levelo://app?vid=a5df8023-10a0-49b1-afeb-bc63fd2fb394","ios":"levelo://app?vid=a5df8023-10a0-49b1-afeb-bc63fd2fb394"},"vehicle_type_id":"4","last_reported":1769160039,"current_range_meters":6800,"station_id":"st_d4e5ca6na9uc73bfl5fg","pricing_plan_id":"cebpf4jnsgd1na2vs0mg"},{"bike_id":"630358af-5dc2-4402-a954-7eec38a4ae20","system_id":"levelo_inurba_marseille","lat":43.30557,"lon":5.36696,"is_reserved":false,"is_disabled":false,"rental_uris":{"android":"levelo://app?vid=630358af-5dc2-4402-a954-7eec38a4ae20","ios":"levelo://app?vid=630358af-5dc2-4402-a954-7eec38a4ae20"},"vehicle_type_id":"4","last_reported":1769160039,"current_range_meters":6800,"station_id":"ce4bgrp2rcd13ifvqc9g","pricing_plan_id":"cebpf4jnsgd1na2vs0mg"},{"bike_id":"45babb45-93f7-4f3b-b6b9-60f993fef36c","system_id":"levelo_inurba_marseille","lat":43.3235,"lon":5.36743,"is_reserved":false,"is_disabled":false,"rental_uris":{"android":"levelo://app?vid=45babb45-93f7-4f3b-b6b9-60f993fef36c","ios":"levelo://app?vid=45babb45-93f7-4f3b-b6b9-60f993fef36c"},"vehicle_type_id":"4","last_reported":1769160039,"current_range_meters":6800,"station_id":"ce4bhsh2rcd13ifvqi2g","pricing_plan_id":"cebpf4jnsgd1na2vs0mg"},{"bike_id":"8d79e999-534d-46eb-b226-e914c7d703b0","system_id":"levelo_inurba_marseille","lat":43.30532,"lon":5.36728,"is_reserved":false,"is_disabled":false,"rental_uris":{"android":"levelo://app?vid=8d79e999-534d-46eb-b226-e914c7d703b0","ios":"levelo://app?vid=8d79e999-534d-46eb-b226-e914c7d703b0"},"vehicle_type_id":"4","last_reported":1769160039,"current_range_meters":6800,"station_id":"ce4bgrp2rcd13ifvqc9g","pricing_plan_id":"cebpf4jnsgd1na2vs0mg"},{"bike_id":"a11cffd0-9b57-4915-917d-0c6c7495713d","system_id":"levelo_inurba_marseille","lat":43.26677,"lon":5.38273,"is_reserved":false,"is_disabled":false,"rental_uris":{"android":"levelo://app?vid=a11cffd0-9b57-4915-917d-0c6c7495713d","ios":"levelo://app?vid=a11cffd0-9b57-4915-917d-0c6c7495713d"},"vehicle_type_id":"4","last_reported":1769160039,"current_range_meters":6800,"station_id":"ce4bhg92rcd13ifvqf90","pricing_plan_id":"cebpf4jnsgd1na2vs0mg"},{"bike_id":"92295e8e-aa68-4e38-8fb7-fb93e0d44651","system_id":"levelo_inurba_marseille","lat":43.23241,"lon":5.3554,"is_reserved":false,"is_disabled":false,"rental_uris":{"android":"levelo://app?vid=92295e8e-aa68-4e38-8fb7-fb93e0d44651","ios":"levelo://app?vid=92295e8e-aa68-4e38-8fb7-fb93e0d44651"},"vehicle_type_id":"4","last_reported":1769160039,"current_range_meters":6800,"station_id":"","pricing_plan_id":"cebpf4jnsgd1na2vs0mg"},{"bike_id":"8cadc070-63ab-45ed-bbb6-c0e7ed1a678c","system_id":"levelo_inurba_marseille","lat":43.33603,"lon":5.40974,"is_reserved":false,"is_disabled":false,"rental_uris":{"android":"levelo://app?vid=8cadc070-63ab-45ed-bbb6-c0e7ed1a678c","ios":"levelo://app?vid=8cadc070-63ab-45ed-bbb6-c0e7ed1a678c"},"vehicle_type_id":"4","last_reported":1769160039,"current_range_meters":6800,"station_id":"ce4bhqh2rcd13ifvqhmg","pricing_plan_id":"cebpf4jnsgd1na2vs0mg"},{"bike_id":"9cc3faeb-2728-4e8c-becd-84beead73a00","system_id":"levelo_inurba_marseille","lat":43.26752,"lon":5.39455,"is_reserved":false,"is_disabled":false,"rental_uris":{"android":"levelo://app?vid=9cc3faeb-2728-4e8c-becd-84beead73a00","ios":"levelo://app?vid=9cc3faeb-2728-4e8c-becd-84beead73a00"},"vehicle_type_id":"4","last_reported":1769160039,"current_range_meters":6800,"station_id":"","pricing_plan_id":"cebpf4jnsgd1na2vs0mg"},{"bike_id":"38ff71d9-0688-4679-a14b-94c0737f6456","system_id":"levelo_inurba_marseille","lat":43.30943,"lon":5.3904,"is_reserved":false,"is_disabled":false,"rental_uris":{"android":"levelo://app?vid=38ff71d9-0688-4679-a14b-94c0737f6456","ios":"levelo://app?vid=38ff71d9-0688-4679-a14b-94c0737f6456"},"vehicle_type_id":"4","last_reported":1769160039,"current_range_meters":6800,"station_id":"ce4bgup2rcd13ifvqco0","pricing_plan_id":"cebpf4jnsgd1na2vs0mg"},{"bike_id":"8753a683-2051-4886-9ce0-c24853c6454d","system_id":"levelo_inurba_marseille","lat":43.24545,"lon":5.39528,"is_reserved":false,"is_disabled":false,"rental_uris":{"android":"levelo://app?vid=8753a683-2051-4886-9ce0-c24853c6454d","ios":"levelo://app?vid=8753a683-2051-4886-9ce0-c24853c6454d"},"vehicle_type_id":"4","last_reported":1769160039,"current_range_meters":6800,"station_id":"ce4bhlp2rcd13ifvqgjg","pricing_plan_id":"cebpf4jnsgd1na2vs0mg"},{"bike_id":"f78947df-deca-4141-ad9c-b28b8e18cc28","system_id":"levelo_inurba_marseille","lat":43.29507,"lon":5.37413,"is_reserved":false,"is_disabled":false,"rental_uris":{"android":"levelo://app?vid=f78947df-deca-4141-ad9c-b28b8e18cc28","ios":"levelo://app?vid=f78947df-deca-4141-ad9c-b28b8e18cc28"},"vehicle_type_id":"4","last_reported":1769160039,"current_range_meters":7200,"station_id":"","pricing_plan_id":"cebpf4jnsgd1na2vs0mg"},{"bike_id":"26bd6ab6-4b40-4c45-b7dc-920d50072930","system_id":"levelo_inurba_marseille","lat":43.2842,"lon":5.39202,"is_reserved":false,"is_disabled":false,"rental_uris":{"android":"levelo://app?vid=26bd6ab6-4b40-4c45-b7dc-920d50072930","ios":"levelo://app?vid=26bd6ab6-4b40-4c45-b7dc-920d50072930"},"vehicle_type_id":"4","last_reported":1769160039,"current_range_meters":7200,"station_id":"ce4bhoh2rcd13ifvqh5g","pricing_plan_id":"cebpf4jnsgd1na2vs0mg"},{"bike_id":"5ed4e9d2-631e-4b69-8907-913cd14f0cf9","system_id":"levelo_inurba_marseille","lat":43.25815,"lon":5.39461,"is_reserved":false,"is_disabled":false,"rental_uris":{"android":"levelo://app?vid=5ed4e9d2-631e-4b69-8907-913cd14f0cf9","ios":"levelo://app?vid=5ed4e9d2-631e-4b69-8907-913cd14f0cf9"},"vehicle_type_id":"4","last_reported":1769160039,"current_range_meters":7200,"station_id":"ce4bhip2rcd13ifvqft0","pricing_plan_id":"cebpf4jnsgd1na2vs0mg"},{"bike_id":"d976239b-28ec-44a7-86c6-eb8c811e60cb","system_id":"levelo_inurba_marseille","lat":43.25734,"lon":5.41126,"is_reserved":false,"is_disabled":false,"rental_uris":{"android":"levelo://app?vid=d976239b-28ec-44a7-86c6-eb8c811e60cb","ios":"levelo://app?vid=d976239b-28ec-44a7-86c6-eb8c811e60cb"},"vehicle_type_id":"4","last_reported":1769160039,"current_range_meters":7200,"station_id":"ce4bhkp2rcd13ifvqgd0","pricing_plan_id":"cebpf4jnsgd1na2vs0mg"},{"bike_id":"217c986b-eb9e-44c4-a3e0-92f4ba70b7a5","system_id":"levelo_inurba_marseille","lat":43.23193,"lon":5.39984,"is_reserved":false,"is_disabled":false,"rental_uris":{"android":"levelo://app?vid=217c986b-eb9e-44c4-a3e0-92f4ba70b7a5","ios":"levelo://app?vid=217c986b-eb9e-44c4-a3e0-92f4ba70b7a5"},"vehicle_type_id":"4","last_reported":1769160039,"current_range_meters":7200,"station_id":"ce4bhn12rcd13ifvqgqg","pricing_plan_id":"cebpf4jnsgd1na2vs0mg"},{"bike_id":"9ebcb6f2-2b34-450a-b0e9-a722077e035b","system_id":"levelo_inurba_marseille","lat":43.24624,"lon":5.43167,"is_reserved":false,"is_disabled":false,"rental_uris":{"android":"levelo://app?vid=9ebcb6f2-2b34-450a-b0e9-a722077e035b","ios":"levelo://app?vid=9ebcb6f2-2b34-450a-b0e9-a722077e035b"},"vehicle_type_id":"4","last_reported":1769160039,"current_range_meters":7200,"station_id":"st_d2m6c4gdas8pm72e190g","pricing_plan_id":"cebpf4jnsgd1na2vs0mg"},{"bike_id":"f2413f15-e0b6-4f03-bb3a-1e94b23daeef","system_id":"levelo_inurba_marseille","lat":43.24685,"lon":5.38141,"is_reserved":false,"is_disabled":false,"rental_uris":{"android":"levelo://app?vid=f2413f15-e0b6-4f03-bb3a-1e94b23daeef","ios":"levelo://app?vid=f2413f15-e0b6-4f03-bb3a-1e94b23daeef"},"vehicle_type_id":"4","last_reported":1769160039,"current_range_meters":7200,"station_id":"ce4bhih2rcd13ifvqfr0","pricing_plan_id":"cebpf4jnsgd1na2vs0mg"},{"bike_id":"8201b82f-83b0-49f2-99bb-f454c070ebda","system_id":"levelo_inurba_marseille","lat":43.22552,"lon":5.41638,"is_reserved":false,"is_disabled":false,"rental_uris":{"android":"levelo://app?vid=8201b82f-83b0-49f2-99bb-f454c070ebda","ios":"levelo://app?vid=8201b82f-83b0-49f2-99bb-f454c070ebda"},"vehicle_type_id":"4","last_reported":1769160039,"current_range_meters":7200,"station_id":"st_d2o4gvlbi1j2169b742g","pricing_plan_id":"cebpf4jnsgd1na2vs0mg"},{"bike_id":"485f9176-e3d7-4a06-a887-1d75232b68b0","system_id":"levelo_inurba_marseille","lat":43.26675,"lon":5.38268,"is_reserved":false,"is_disabled":false,"rental_uris":{"android":"levelo://app?vid=485f9176-e3d7-4a06-a887-1d75232b68b0","ios":"levelo://app?vid=485f9176-e3d7-4a06-a887-1d75232b68b0"},"vehicle_type_id":"4","last_reported":1769160039,"current_range_meters":7200,"station_id":"ce4bhg92rcd13ifvqf90","pricing_plan_id":"cebpf4jnsgd1na2vs0mg"},{"bike_id":"945b75a6-cb60-4db3-b411-8a275b15016e","system_id":"levelo_inurba_marseille","lat":43.25013,"lon":5.38921,"is_reserved":false,"is_disabled":false,"rental_uris":{"android":"levelo://app?vid=945b75a6-cb60-4db3-b411-8a275b15016e","ios":"levelo://app?vid=945b75a6-cb60-4db3-b411-8a275b15016e"},"vehicle_type_id":"4","last_reported":1769160039,"current_range_meters":7200,"station_id":"ce4bhgp2rcd13ifvqfd0","pricing_plan_id":"cebpf4jnsgd1na2vs0mg"},{"bike_id":"26b75af5-7ae4-4c9e-852d-f4607cbb3b5b","system_id":"levelo_inurba_marseille","lat":43.24539,"lon":5.39523,"is_reserved":false,"is_disabled":false,"rental_uris":{"android":"levelo://app?vid=26b75af5-7ae4-4c9e-852d-f4607cbb3b5b","ios":"levelo://app?vid=26b75af5-7ae4-4c9e-852d-f4607cbb3b5b"},"vehicle_type_id":"4","last_reported":1769160039,"current_range_meters":7200,"station_id":"ce4bhlp2rcd13ifvqgjg","pricing_plan_id":"cebpf4jnsgd1na2vs0mg"},{"bike_id":"ab1ce965-255f-45f9-ad31-e191b42eae3a","system_id":"levelo_inurba_marseille","lat":43.23144,"lon":5.43742,"is_reserved":false,"is_disabled":false,"rental_uris":{"android":"levelo://app?vid=ab1ce965-255f-45f9-ad31-e191b42eae3a","ios":"levelo://app?vid=ab1ce965-255f-45f9-ad31-e191b42eae3a"},"vehicle_type_id":"4","last_reported":1769160039,"current_range_meters":7200,"station_id":"ce4bhmp2rcd13ifvqgog","pricing_plan_id":"cebpf4jnsgd1na2vs0mg"},{"bike_id":"3c14818c-a24d-48f3-b7db-1652ad81b188","system_id":"levelo_inurba_marseille","lat":43.25913,"lon":5.40935,"is_reserved":false,"is_disabled":false,"rental_uris":{"android":"levelo://app?vid=3c14818c-a24d-48f3-b7db-1652ad81b188","ios":"levelo://app?vid=3c14818c-a24d-48f3-b7db-1652ad81b188"},"vehicle_type_id":"4","last_reported":1769160039,"current_range_meters":7200,"station_id":"ce4bhm92rcd13ifvqglg","pricing_plan_id":"cebpf4jnsgd1na2vs0mg"},{"bike_id":"16590669-22b9-475f-acf3-c7e2ee0e80fd","system_id":"levelo_inurba_marseille","lat":43.25005,"lon":5.38919,"is_reserved":false,"is_disabled":false,"rental_uris":{"android":"levelo://app?vid=16590669-22b9-475f-acf3-c7e2ee0e80fd","ios":"levelo://app?vid=16590669-22b9-475f-acf3-c7e2ee0e80fd"},"vehicle_type_id":"4","last_reported":1769160039,"current_range_meters":7200,"station_id":"ce4bhgp2rcd13ifvqfd0","pricing_plan_id":"cebpf4jnsgd1na2vs0mg"},{"bike_id":"7eff7443-7243-4dd3-a489-b4193a3184f3","system_id":"levelo_inurba_marseille","lat":43.29557,"lon":5.37521,"is_reserved":false,"is_disabled":false,"rental_uris":{"android":"levelo://app?vid=7eff7443-7243-4dd3-a489-b4193a3184f3","ios":"levelo://app?vid=7eff7443-7243-4dd3-a489-b4193a3184f3"},"vehicle_type_id":"4","last_reported":1769160039,"current_range_meters":7200,"station_id":"ce4bgh92rcd13ifvqb50","pricing_plan_id":"cebpf4jnsgd1na2vs0mg"},{"bike_id":"9f9c4f85-7d9e-4e8a-9123-cbd1f8de03db","system_id":"levelo_inurba_marseille","lat":43.3185,"lon":5.38986,"is_reserved":false,"is_disabled":false,"rental_uris":{"android":"levelo://app?vid=9f9c4f85-7d9e-4e8a-9123-cbd1f8de03db","ios":"levelo://app?vid=9f9c4f85-7d9e-4e8a-9123-cbd1f8de03db"},"vehicle_type_id":"4","last_reported":1769160039,"current_range_meters":7200,"station_id":"","pricing_plan_id":"cebpf4jnsgd1na2vs0mg"},{"bike_id":"a6ab8593-52ce-440a-b58b-f0ead590ee3a","system_id":"levelo_inurba_marseille","lat":43.30148,"lon":5.38096,"is_reserved":false,"is_disabled":false,"rental_uris":{"android":"levelo://app?vid=a6ab8593-52ce-440a-b58b-f0ead590ee3a","ios":"levelo://app?vid=a6ab8593-52ce-440a-b58b-f0ead590ee3a"},"vehicle_type_id":"4","last_reported":1769160039,"current_range_meters":7200,"station_id":"ce4bgjp2rcd13ifvqbh0","pricing_plan_id":"cebpf4jnsgd1na2vs0mg"},{"bike_id":"59ba4534-2aee-44e4-9228-bcbe63725245","system_id":"levelo_inurba_marseille","lat":43.273286,"lon":5.390882,"is_reserved":false,"is_disabled":false,"rental_uris":{"android":"levelo://app?vid=59ba4534-2aee-44e4-9228-bcbe63725245","ios":"levelo://app?vid=59ba4534-2aee-44e4-9228-bcbe63725245"},"vehicle_type_id":"4","last_reported":1769160039,"current_range_meters":8000,"station_id":"ce4bhgp2rcd13ifvqfe0","pricing_plan_id":"cebpf4jnsgd1na2vs0mg"},{"bike_id":"dc82bfc6-2b44-4bff-8892-9b8eb7e91578","system_id":"levelo_inurba_marseille","lat":43.2396,"lon":5.36637,"is_reserved":false,"is_disabled":false,"rental_uris":{"android":"levelo://app?vid=dc82bfc6-2b44-4bff-8892-9b8eb7e91578","ios":"levelo://app?vid=dc82bfc6-2b44-4bff-8892-9b8eb7e91578"},"vehicle_type_id":"4","last_reported":1769160039,"current_range_meters":8000,"station_id":"ce4bhi12rcd13ifvqfp0","pricing_plan_id":"cebpf4jnsgd1na2vs0mg"},{"bike_id":"d2dd2bd5-35c6-4cf8-86dc-87c4bf274249","system_id":"levelo_inurba_marseille","lat":43.24643,"lon":5.38894,"is_reserved":false,"is_disabled":false,"rental_uris":{"android":"levelo://app?vid=d2dd2bd5-35c6-4cf8-86dc-87c4bf274249","ios":"levelo://app?vid=d2dd2bd5-35c6-4cf8-86dc-87c4bf274249"},"vehicle_type_id":"4","last_reported":1769160039,"current_range_meters":8000,"station_id":"ce4bhg12rcd13ifvqf60","pricing_plan_id":"cebpf4jnsgd1na2vs0mg"},{"bike_id":"137c1aa3-375d-434c-b8ea-265f86139225","system_id":"levelo_inurba_marseille","lat":43.31342,"lon":5.36729,"is_reserved":false,"is_disabled":false,"rental_uris":{"android":"levelo://app?vid=137c1aa3-375d-434c-b8ea-265f86139225","ios":"levelo://app?vid=137c1aa3-375d-434c-b8ea-265f86139225"},"vehicle_type_id":"4","last_reported":1769160039,"current_range_meters":8000,"station_id":"ce4bgr92rcd13ifvqc6g","pricing_plan_id":"cebpf4jnsgd1na2vs0mg"},{"bike_id":"7a979796-e9e0-46a0-8894-e0515e90f174","system_id":"levelo_inurba_marseille","lat":43.28001,"lon":5.40016,"is_reserved":false,"is_disabled":true,"rental_uris":{"android":"levelo://app?vid=7a979796-e9e0-46a0-8894-e0515e90f174","ios":"levelo://app?vid=7a979796-e9e0-46a0-8894-e0515e90f174"},"vehicle_type_id":"4","last_reported":1769160039,"current_range_meters":8000,"station_id":"ce4bho92rcd13ifvqh4g","pricing_plan_id":"cebpf4jnsgd1na2vs0mg"},{"bike_id":"340e74fd-4574-4d28-832c-d7e6960bf37b","system_id":"levelo_inurba_marseille","lat":43.23152,"lon":5.43714,"is_reserved":false,"is_disabled":false,"rental_uris":{"android":"levelo://app?vid=340e74fd-4574-4d28-832c-d7e6960bf37b","ios":"levelo://app?vid=340e74fd-4574-4d28-832c-d7e6960bf37b"},"vehicle_type_id":"4","last_reported":1769160039,"current_range_meters":8000,"station_id":"ce4bhmp2rcd13ifvqgog","pricing_plan_id":"cebpf4jnsgd1na2vs0mg"},{"bike_id":"9b45898e-68f4-47fa-9e2a-d93357bd073d","system_id":"levelo_inurba_marseille","lat":43.24811,"lon":5.37462,"is_reserved":false,"is_disabled":false,"rental_uris":{"android":"levelo://app?vid=9b45898e-68f4-47fa-9e2a-d93357bd073d","ios":"levelo://app?vid=9b45898e-68f4-47fa-9e2a-d93357bd073d"},"vehicle_type_id":"4","last_reported":1769160039,"current_range_meters":8000,"station_id":"ce4bhgh2rcd13ifvqfb0","pricing_plan_id":"cebpf4jnsgd1na2vs0mg"},{"bike_id":"da005ffc-f532-4b5a-a329-d2fbdebb6e7d","system_id":"levelo_inurba_marseille","lat":43.316841,"lon":5.404759,"is_reserved":false,"is_disabled":false,"rental_uris":{"android":"levelo://app?vid=da005ffc-f532-4b5a-a329-d2fbdebb6e7d","ios":"levelo://app?vid=da005ffc-f532-4b5a-a329-d2fbdebb6e7d"},"vehicle_type_id":"4","last_reported":1769160039,"current_range_meters":8000,"station_id":"ce4bh012rcd13ifvqd00","pricing_plan_id":"cebpf4jnsgd1na2vs0mg"},{"bike_id":"5686f102-6cf5-4a18-9b33-fbef2e2cef12","system_id":"levelo_inurba_marseille","lat":43.23204,"lon":5.35553,"is_reserved":false,"is_disabled":false,"rental_uris":{"android":"levelo://app?vid=5686f102-6cf5-4a18-9b33-fbef2e2cef12","ios":"levelo://app?vid=5686f102-6cf5-4a18-9b33-fbef2e2cef12"},"vehicle_type_id":"4","last_reported":1769160039,"current_range_meters":8000,"station_id":"ce4bhu92rcd13ifvqi70","pricing_plan_id":"cebpf4jnsgd1na2vs0mg"},{"bike_id":"1ff74440-841e-45a3-baf5-283c5a4a84e4","system_id":"levelo_inurba_marseille","lat":43.304695,"lon":5.379033,"is_reserved":false,"is_disabled":false,"rental_uris":{"android":"levelo://app?vid=1ff74440-841e-45a3-baf5-283c5a4a84e4","ios":"levelo://app?vid=1ff74440-841e-45a3-baf5-283c5a4a84e4"},"vehicle_type_id":"4","last_reported":1769160039,"current_range_meters":8000,"station_id":"ce4bgup2rcd13ifvqcn0","pricing_plan_id":"cebpf4jnsgd1na2vs0mg"},{"bike_id":"bc61b31d-a59b-43b4-9147-44220082005b","system_id":"levelo_inurba_marseille","lat":43.30548,"lon":5.36708,"is_reserved":false,"is_disabled":false,"rental_uris":{"android":"levelo://app?vid=bc61b31d-a59b-43b4-9147-44220082005b","ios":"levelo://app?vid=bc61b31d-a59b-43b4-9147-44220082005b"},"vehicle_type_id":"4","last_reported":1769160039,"current_range_meters":8000,"station_id":"ce4bgrp2rcd13ifvqc9g","pricing_plan_id":"cebpf4jnsgd1na2vs0mg"},{"bike_id":"b773bbbb-d72b-4b38-92a3-28fca628ed6c","system_id":"levelo_inurba_marseille","lat":43.22926,"lon":5.35374,"is_reserved":false,"is_disabled":false,"rental_uris":{"android":"levelo://app?vid=b773bbbb-d72b-4b38-92a3-28fca628ed6c","ios":"levelo://app?vid=b773bbbb-d72b-4b38-92a3-28fca628ed6c"},"vehicle_type_id":"4","last_reported":1769160039,"current_range_meters":8000,"station_id":"cpo3532slgdg3j2ikp40","pricing_plan_id":"cebpf4jnsgd1na2vs0mg"},{"bike_id":"b57df7ad-97cd-44b3-a204-ea83c250292c","system_id":"levelo_inurba_marseille","lat":43.23209,"lon":5.35553,"is_reserved":false,"is_disabled":false,"rental_uris":{"android":"levelo://app?vid=b57df7ad-97cd-44b3-a204-ea83c250292c","ios":"levelo://app?vid=b57df7ad-97cd-44b3-a204-ea83c250292c"},"vehicle_type_id":"4","last_reported":1769160039,"current_range_meters":8000,"station_id":"ce4bhu92rcd13ifvqi70","pricing_plan_id":"cebpf4jnsgd1na2vs0mg"},{"bike_id":"d8368424-7a2e-4ab4-b75d-24eb5c1743cf","system_id":"levelo_inurba_marseille","lat":43.305287,"lon":5.36711,"is_reserved":false,"is_disabled":false,"rental_uris":{"android":"levelo://app?vid=d8368424-7a2e-4ab4-b75d-24eb5c1743cf","ios":"levelo://app?vid=d8368424-7a2e-4ab4-b75d-24eb5c1743cf"},"vehicle_type_id":"4","last_reported":1769160039,"current_range_meters":8000,"station_id":"ce4bgrp2rcd13ifvqc9g","pricing_plan_id":"cebpf4jnsgd1na2vs0mg"},{"bike_id":"5560fc7f-1e40-4887-b56f-d8792953a489","system_id":"levelo_inurba_marseille","lat":43.24163,"lon":5.363894,"is_reserved":false,"is_disabled":false,"rental_uris":{"android":"levelo://app?vid=5560fc7f-1e40-4887-b56f-d8792953a489","ios":"levelo://app?vid=5560fc7f-1e40-4887-b56f-d8792953a489"},"vehicle_type_id":"4","last_reported":1769160039,"current_range_meters":8000,"station_id":"cpo36qri1sfpv3e86is0","pricing_plan_id":"cebpf4jnsgd1na2vs0mg"},{"bike_id":"8756ae21-e9b8-4ab7-b0da-e836b9541e1e","system_id":"levelo_inurba_marseille","lat":43.29279,"lon":5.40113,"is_reserved":false,"is_disabled":false,"rental_uris":{"android":"levelo://app?vid=8756ae21-e9b8-4ab7-b0da-e836b9541e1e","ios":"levelo://app?vid=8756ae21-e9b8-4ab7-b0da-e836b9541e1e"},"vehicle_type_id":"4","last_reported":1769160039,"current_range_meters":8000,"station_id":"ce4bh312rcd13ifvqdk0","pricing_plan_id":"cebpf4jnsgd1na2vs0mg"},{"bike_id":"d3746757-64c0-4deb-8ffa-a59c72b048ff","system_id":"levelo_inurba_marseille","lat":43.29684,"lon":5.37302,"is_reserved":false,"is_disabled":false,"rental_uris":{"android":"levelo://app?vid=d3746757-64c0-4deb-8ffa-a59c72b048ff","ios":"levelo://app?vid=d3746757-64c0-4deb-8ffa-a59c72b048ff"},"vehicle_type_id":"4","last_reported":1769160039,"current_range_meters":8000,"station_id":"ce4bgk12rcd13ifvqbj0","pricing_plan_id":"cebpf4jnsgd1na2vs0mg"},{"bike_id":"5b38d95a-957d-4597-90f1-9fbf09e5b340","system_id":"levelo_inurba_marseille","lat":43.290721,"lon":5.37154,"is_reserved":false,"is_disabled":false,"rental_uris":{"android":"levelo://app?vid=5b38d95a-957d-4597-90f1-9fbf09e5b340","ios":"levelo://app?vid=5b38d95a-957d-4597-90f1-9fbf09e5b340"},"vehicle_type_id":"4","last_reported":1769160039,"current_range_meters":8000,"station_id":"ce4bh5p2rcd13ifvqe4g","pricing_plan_id":"cebpf4jnsgd1na2vs0mg"},{"bike_id":"722919f1-e164-467f-a946-cfaa35a85b10","system_id":"levelo_inurba_marseille","lat":43.27303,"lon":5.39113,"is_reserved":false,"is_disabled":false,"rental_uris":{"android":"levelo://app?vid=722919f1-e164-467f-a946-cfaa35a85b10","ios":"levelo://app?vid=722919f1-e164-467f-a946-cfaa35a85b10"},"vehicle_type_id":"4","last_reported":1769160039,"current_range_meters":8000,"station_id":"ce4bhgp2rcd13ifvqfe0","pricing_plan_id":"cebpf4jnsgd1na2vs0mg"},{"bike_id":"637875b4-6618-4d37-a2a2-46c81fd176ca","system_id":"levelo_inurba_marseille","lat":43.257219,"lon":5.411156,"is_reserved":false,"is_disabled":false,"rental_uris":{"android":"levelo://app?vid=637875b4-6618-4d37-a2a2-46c81fd176ca","ios":"levelo://app?vid=637875b4-6618-4d37-a2a2-46c81fd176ca"},"vehicle_type_id":"4","last_reported":1769160039,"current_range_meters":8000,"station_id":"ce4bhkp2rcd13ifvqgd0","pricing_plan_id":"cebpf4jnsgd1na2vs0mg"},{"bike_id":"884f0875-38ce-48cc-9261-deeb0db0e66a","system_id":"levelo_inurba_marseille","lat":43.30889,"lon":5.37296,"is_reserved":false,"is_disabled":false,"rental_uris":{"android":"levelo://app?vid=884f0875-38ce-48cc-9261-deeb0db0e66a","ios":"levelo://app?vid=884f0875-38ce-48cc-9261-deeb0db0e66a"},"vehicle_type_id":"4","last_reported":1769160039,"current_range_meters":8000,"station_id":"","pricing_plan_id":"cebpf4jnsgd1na2vs0mg"},{"bike_id":"10d81607-b2c6-4f43-9034-1dd057977b39","system_id":"levelo_inurba_marseille","lat":43.242198,"lon":5.396787,"is_reserved":false,"is_disabled":false,"rental_uris":{"android":"levelo://app?vid=10d81607-b2c6-4f43-9034-1dd057977b39","ios":"levelo://app?vid=10d81607-b2c6-4f43-9034-1dd057977b39"},"vehicle_type_id":"4","last_reported":1769160039,"current_range_meters":8000,"station_id":"","pricing_plan_id":"cebpf4jnsgd1na2vs0mg"},{"bike_id":"3d597fd9-858c-4201-b70e-c019a48ebc4d","system_id":"levelo_inurba_marseille","lat":43.263691,"lon":5.410831,"is_reserved":false,"is_disabled":false,"rental_uris":{"android":"levelo://app?vid=3d597fd9-858c-4201-b70e-c019a48ebc4d","ios":"levelo://app?vid=3d597fd9-858c-4201-b70e-c019a48ebc4d"},"vehicle_type_id":"4","last_reported":1769160039,"current_range_meters":8000,"station_id":"ce4bh2p2rcd13ifvqdi0","pricing_plan_id":"cebpf4jnsgd1na2vs0mg"},{"bike_id":"e48b0243-245b-4bd6-9fa4-3379ed23e52f","system_id":"levelo_inurba_marseille","lat":43.27201,"lon":5.39206,"is_reserved":false,"is_disabled":false,"rental_uris":{"android":"levelo://app?vid=e48b0243-245b-4bd6-9fa4-3379ed23e52f","ios":"levelo://app?vid=e48b0243-245b-4bd6-9fa4-3379ed23e52f"},"vehicle_type_id":"4","last_reported":1769160039,"current_range_meters":8400,"station_id":"ce4bhhp2rcd13ifvqfm0","pricing_plan_id":"cebpf4jnsgd1na2vs0mg"},{"bike_id":"2ed63fba-cb91-4f97-8bd0-a7d22dfd80c3","system_id":"levelo_inurba_marseille","lat":43.28928,"lon":5.36671,"is_reserved":false,"is_disabled":false,"rental_uris":{"android":"levelo://app?vid=2ed63fba-cb91-4f97-8bd0-a7d22dfd80c3","ios":"levelo://app?vid=2ed63fba-cb91-4f97-8bd0-a7d22dfd80c3"},"vehicle_type_id":"4","last_reported":1769160039,"current_range_meters":8400,"station_id":"ce4bhap2rcd13ifvqek0","pricing_plan_id":"cebpf4jnsgd1na2vs0mg"},{"bike_id":"ee1097c7-66cb-4cde-affa-a4b0a3128b81","system_id":"levelo_inurba_marseille","lat":43.28445,"lon":5.37183,"is_reserved":false,"is_disabled":false,"rental_uris":{"android":"levelo://app?vid=ee1097c7-66cb-4cde-affa-a4b0a3128b81","ios":"levelo://app?vid=ee1097c7-66cb-4cde-affa-a4b0a3128b81"},"vehicle_type_id":"4","last_reported":1769160039,"current_range_meters":8400,"station_id":"","pricing_plan_id":"cebpf4jnsgd1na2vs0mg"},{"bike_id":"7e40f92b-af7d-4c04-a6b2-c7fb67c9c6fb","system_id":"levelo_inurba_marseille","lat":43.27496,"lon":5.42454,"is_reserved":false,"is_disabled":false,"rental_uris":{"android":"levelo://app?vid=7e40f92b-af7d-4c04-a6b2-c7fb67c9c6fb","ios":"levelo://app?vid=7e40f92b-af7d-4c04-a6b2-c7fb67c9c6fb"},"vehicle_type_id":"4","last_reported":1769160039,"current_range_meters":8400,"station_id":"ce4bhn92rcd13ifvqgrg","pricing_plan_id":"cebpf4jnsgd1na2vs0mg"},{"bike_id":"17ed46bf-b051-47fc-a887-339e35ccca50","system_id":"levelo_inurba_marseille","lat":43.29024,"lon":5.37571,"is_reserved":false,"is_disabled":false,"rental_uris":{"android":"levelo://app?vid=17ed46bf-b051-47fc-a887-339e35ccca50","ios":"levelo://app?vid=17ed46bf-b051-47fc-a887-339e35ccca50"},"vehicle_type_id":"4","last_reported":1769160039,"current_range_meters":8400,"station_id":"ce4bh692rcd13ifvqe90","pricing_plan_id":"cebpf4jnsgd1na2vs0mg"},{"bike_id":"a59677c2-732e-4af6-82bc-b80db91e4468","system_id":"levelo_inurba_marseille","lat":43.24542,"lon":5.39535,"is_reserved":false,"is_disabled":false,"rental_uris":{"android":"levelo://app?vid=a59677c2-732e-4af6-82bc-b80db91e4468","ios":"levelo://app?vid=a59677c2-732e-4af6-82bc-b80db91e4468"},"vehicle_type_id":"4","last_reported":1769160039,"current_range_meters":8400,"station_id":"ce4bhlp2rcd13ifvqgjg","pricing_plan_id":"cebpf4jnsgd1na2vs0mg"},{"bike_id":"41b6079d-4cdc-43c3-992c-83a2df77a11e","system_id":"levelo_inurba_marseille","lat":43.30534,"lon":5.38422,"is_reserved":false,"is_disabled":false,"rental_uris":{"android":"levelo://app?vid=41b6079d-4cdc-43c3-992c-83a2df77a11e","ios":"levelo://app?vid=41b6079d-4cdc-43c3-992c-83a2df77a11e"},"vehicle_type_id":"4","last_reported":1769160039,"current_range_meters":8400,"station_id":"ce4bgg92rcd13ifvqb30","pricing_plan_id":"cebpf4jnsgd1na2vs0mg"},{"bike_id":"1e7abe68-0b2d-4caa-981c-28f05900369d","system_id":"levelo_inurba_marseille","lat":43.23148,"lon":5.43724,"is_reserved":false,"is_disabled":false,"rental_uris":{"android":"levelo://app?vid=1e7abe68-0b2d-4caa-981c-28f05900369d","ios":"levelo://app?vid=1e7abe68-0b2d-4caa-981c-28f05900369d"},"vehicle_type_id":"4","last_reported":1769160039,"current_range_meters":8400,"station_id":"ce4bhmp2rcd13ifvqgog","pricing_plan_id":"cebpf4jnsgd1na2vs0mg"},{"bike_id":"f72efe51-12d3-4c91-8eb1-b0d276f7cb47","system_id":"levelo_inurba_marseille","lat":43.248023,"lon":5.374608,"is_reserved":false,"is_disabled":false,"rental_uris":{"android":"levelo://app?vid=f72efe51-12d3-4c91-8eb1-b0d276f7cb47","ios":"levelo://app?vid=f72efe51-12d3-4c91-8eb1-b0d276f7cb47"},"vehicle_type_id":"4","last_reported":1769160039,"current_range_meters":8400,"station_id":"ce4bhgh2rcd13ifvqfb0","pricing_plan_id":"cebpf4jnsgd1na2vs0mg"},{"bike_id":"b880bbb1-8ce2-4dee-a3f1-8c14e28a73f2","system_id":"levelo_inurba_marseille","lat":43.26787,"lon":5.39427,"is_reserved":false,"is_disabled":false,"rental_uris":{"android":"levelo://app?vid=b880bbb1-8ce2-4dee-a3f1-8c14e28a73f2","ios":"levelo://app?vid=b880bbb1-8ce2-4dee-a3f1-8c14e28a73f2"},"vehicle_type_id":"4","last_reported":1769160039,"current_range_meters":8400,"station_id":"ce4bhh12rcd13ifvqfg0","pricing_plan_id":"cebpf4jnsgd1na2vs0mg"},{"bike_id":"6282d9a7-88b7-444d-a3bd-050bf586be70","system_id":"levelo_inurba_marseille","lat":43.296845,"lon":5.373,"is_reserved":false,"is_disabled":false,"rental_uris":{"android":"levelo://app?vid=6282d9a7-88b7-444d-a3bd-050bf586be70","ios":"levelo://app?vid=6282d9a7-88b7-444d-a3bd-050bf586be70"},"vehicle_type_id":"4","last_reported":1769160039,"current_range_meters":8400,"station_id":"ce4bgk12rcd13ifvqbj0","pricing_plan_id":"cebpf4jnsgd1na2vs0mg"},{"bike_id":"83cfc6fc-818a-4d29-b877-3fdba22e0a51","system_id":"levelo_inurba_marseille","lat":43.30532,"lon":5.36709,"is_reserved":false,"is_disabled":false,"rental_uris":{"android":"levelo://app?vid=83cfc6fc-818a-4d29-b877-3fdba22e0a51","ios":"levelo://app?vid=83cfc6fc-818a-4d29-b877-3fdba22e0a51"},"vehicle_type_id":"4","last_reported":1769160039,"current_range_meters":8400,"station_id":"ce4bgrp2rcd13ifvqc9g","pricing_plan_id":"cebpf4jnsgd1na2vs0mg"},{"bike_id":"da85d8cc-4ec4-4e63-94c2-beb7bedb5c3f","system_id":"levelo_inurba_marseille","lat":43.29042,"lon":5.39964,"is_reserved":false,"is_disabled":false,"rental_uris":{"android":"levelo://app?vid=da85d8cc-4ec4-4e63-94c2-beb7bedb5c3f","ios":"levelo://app?vid=da85d8cc-4ec4-4e63-94c2-beb7bedb5c3f"},"vehicle_type_id":"4","last_reported":1769160039,"current_range_meters":8400,"station_id":"ce4bh392rcd13ifvqdm0","pricing_plan_id":"cebpf4jnsgd1na2vs0mg"},{"bike_id":"d5979a98-94ba-4609-af07-e02fe23bf3bc","system_id":"levelo_inurba_marseille","lat":43.22543,"lon":5.41661,"is_reserved":false,"is_disabled":true,"rental_uris":{"android":"levelo://app?vid=d5979a98-94ba-4609-af07-e02fe23bf3bc","ios":"levelo://app?vid=d5979a98-94ba-4609-af07-e02fe23bf3bc"},"vehicle_type_id":"4","last_reported":1769160039,"current_range_meters":8400,"station_id":"st_d2o4gvlbi1j2169b742g","pricing_plan_id":"cebpf4jnsgd1na2vs0mg"},{"bike_id":"bad75388-e421-4a71-a9aa-cd2865663d67","system_id":"levelo_inurba_marseille","lat":43.32089,"lon":5.36832,"is_reserved":false,"is_disabled":false,"rental_uris":{"android":"levelo://app?vid=bad75388-e421-4a71-a9aa-cd2865663d67","ios":"levelo://app?vid=bad75388-e421-4a71-a9aa-cd2865663d67"},"vehicle_type_id":"4","last_reported":1769160039,"current_range_meters":8400,"station_id":"","pricing_plan_id":"cebpf4jnsgd1na2vs0mg"},{"bike_id":"02e7a81c-add2-44fa-966b-2d696b46b0f6","system_id":"levelo_inurba_marseille","lat":43.29485,"lon":5.3738,"is_reserved":false,"is_disabled":false,"rental_uris":{"android":"levelo://app?vid=02e7a81c-add2-44fa-966b-2d696b46b0f6","ios":"levelo://app?vid=02e7a81c-add2-44fa-966b-2d696b46b0f6"},"vehicle_type_id":"4","last_reported":1769160039,"current_range_meters":8400,"station_id":"","pricing_plan_id":"cebpf4jnsgd1na2vs0mg"},{"bike_id":"731e3c39-4cfc-47aa-926e-d6f514d68010","system_id":"levelo_inurba_marseille","lat":43.22554,"lon":5.41649,"is_reserved":false,"is_disabled":false,"rental_uris":{"android":"levelo://app?vid=731e3c39-4cfc-47aa-926e-d6f514d68010","ios":"levelo://app?vid=731e3c39-4cfc-47aa-926e-d6f514d68010"},"vehicle_type_id":"4","last_reported":1769160039,"current_range_meters":8800,"station_id":"st_d2o4gvlbi1j2169b742g","pricing_plan_id":"cebpf4jnsgd1na2vs0mg"},{"bike_id":"bcbc77f3-fa29-45ed-907c-082f61672a43","system_id":"levelo_inurba_marseille","lat":43.297462,"lon":5.427929,"is_reserved":false,"is_disabled":false,"rental_uris":{"android":"levelo://app?vid=bcbc77f3-fa29-45ed-907c-082f61672a43","ios":"levelo://app?vid=bcbc77f3-fa29-45ed-907c-082f61672a43"},"vehicle_type_id":"4","last_reported":1769160039,"current_range_meters":8800,"station_id":"st_d3md5207bmas73dh9klg","pricing_plan_id":"cebpf4jnsgd1na2vs0mg"},{"bike_id":"5c6da10b-38e9-4dc2-819a-b9596fb94c5b","system_id":"levelo_inurba_marseille","lat":43.26185,"lon":5.37483,"is_reserved":false,"is_disabled":false,"rental_uris":{"android":"levelo://app?vid=5c6da10b-38e9-4dc2-819a-b9596fb94c5b","ios":"levelo://app?vid=5c6da10b-38e9-4dc2-819a-b9596fb94c5b"},"vehicle_type_id":"4","last_reported":1769160039,"current_range_meters":8800,"station_id":"ce4bhgp2rcd13ifvqfc0","pricing_plan_id":"cebpf4jnsgd1na2vs0mg"},{"bike_id":"7423d516-da5c-4b79-9263-bcad22b3ff84","system_id":"levelo_inurba_marseille","lat":43.30158,"lon":5.38086,"is_reserved":false,"is_disabled":false,"rental_uris":{"android":"levelo://app?vid=7423d516-da5c-4b79-9263-bcad22b3ff84","ios":"levelo://app?vid=7423d516-da5c-4b79-9263-bcad22b3ff84"},"vehicle_type_id":"4","last_reported":1769160039,"current_range_meters":8800,"station_id":"ce4bgjp2rcd13ifvqbh0","pricing_plan_id":"cebpf4jnsgd1na2vs0mg"},{"bike_id":"078c9eab-27b6-460e-a26e-8ce7fa01f3b7","system_id":"levelo_inurba_marseille","lat":43.28707,"lon":5.37928,"is_reserved":false,"is_disabled":false,"rental_uris":{"android":"levelo://app?vid=078c9eab-27b6-460e-a26e-8ce7fa01f3b7","ios":"levelo://app?vid=078c9eab-27b6-460e-a26e-8ce7fa01f3b7"},"vehicle_type_id":"4","last_reported":1769160039,"current_range_meters":8800,"station_id":"ce4bh9p2rcd13ifvqec0","pricing_plan_id":"cebpf4jnsgd1na2vs0mg"},{"bike_id":"d1248e4b-c241-4185-9668-62cef44fb4ea","system_id":"levelo_inurba_marseille","lat":43.32372,"lon":5.36742,"is_reserved":false,"is_disabled":false,"rental_uris":{"android":"levelo://app?vid=d1248e4b-c241-4185-9668-62cef44fb4ea","ios":"levelo://app?vid=d1248e4b-c241-4185-9668-62cef44fb4ea"},"vehicle_type_id":"4","last_reported":1769160039,"current_range_meters":8800,"station_id":"ce4bhsh2rcd13ifvqi2g","pricing_plan_id":"cebpf4jnsgd1na2vs0mg"},{"bike_id":"dbacbe0b-2e19-4e5a-a279-dbb0320742d2","system_id":"levelo_inurba_marseille","lat":43.30946,"lon":5.39037,"is_reserved":false,"is_disabled":false,"rental_uris":{"android":"levelo://app?vid=dbacbe0b-2e19-4e5a-a279-dbb0320742d2","ios":"levelo://app?vid=dbacbe0b-2e19-4e5a-a279-dbb0320742d2"},"vehicle_type_id":"4","last_reported":1769160039,"current_range_meters":8800,"station_id":"ce4bgup2rcd13ifvqco0","pricing_plan_id":"cebpf4jnsgd1na2vs0mg"},{"bike_id":"c9389fd4-af01-4458-ab7b-0fb1fe06acd7","system_id":"levelo_inurba_marseille","lat":43.2315,"lon":5.43721,"is_reserved":false,"is_disabled":false,"rental_uris":{"android":"levelo://app?vid=c9389fd4-af01-4458-ab7b-0fb1fe06acd7","ios":"levelo://app?vid=c9389fd4-af01-4458-ab7b-0fb1fe06acd7"},"vehicle_type_id":"4","last_reported":1769160039,"current_range_meters":8800,"station_id":"ce4bhmp2rcd13ifvqgog","pricing_plan_id":"cebpf4jnsgd1na2vs0mg"},{"bike_id":"6cd34f0f-5209-4797-9672-b427f029df42","system_id":"levelo_inurba_marseille","lat":43.29698,"lon":5.37281,"is_reserved":false,"is_disabled":false,"rental_uris":{"android":"levelo://app?vid=6cd34f0f-5209-4797-9672-b427f029df42","ios":"levelo://app?vid=6cd34f0f-5209-4797-9672-b427f029df42"},"vehicle_type_id":"4","last_reported":1769160039,"current_range_meters":8800,"station_id":"ce4bgk12rcd13ifvqbj0","pricing_plan_id":"cebpf4jnsgd1na2vs0mg"},{"bike_id":"de2d4b41-3779-4f7f-8a16-0def354b23f6","system_id":"levelo_inurba_marseille","lat":43.3015,"lon":5.38081,"is_reserved":false,"is_disabled":false,"rental_uris":{"android":"levelo://app?vid=de2d4b41-3779-4f7f-8a16-0def354b23f6","ios":"levelo://app?vid=de2d4b41-3779-4f7f-8a16-0def354b23f6"},"vehicle_type_id":"4","last_reported":1769160039,"current_range_meters":8800,"station_id":"ce4bgjp2rcd13ifvqbh0","pricing_plan_id":"cebpf4jnsgd1na2vs0mg"},{"bike_id":"5227aa2c-fa57-4eba-94c4-cd0fb65fdf6e","system_id":"levelo_inurba_marseille","lat":43.30145,"lon":5.38099,"is_reserved":false,"is_disabled":false,"rental_uris":{"android":"levelo://app?vid=5227aa2c-fa57-4eba-94c4-cd0fb65fdf6e","ios":"levelo://app?vid=5227aa2c-fa57-4eba-94c4-cd0fb65fdf6e"},"vehicle_type_id":"4","last_reported":1769160039,"current_range_meters":8800,"station_id":"ce4bgjp2rcd13ifvqbh0","pricing_plan_id":"cebpf4jnsgd1na2vs0mg"},{"bike_id":"17669b47-9100-4319-b70b-7d4875adf193","system_id":"levelo_inurba_marseille","lat":43.29764,"lon":5.42766,"is_reserved":false,"is_disabled":true,"rental_uris":{"android":"levelo://app?vid=17669b47-9100-4319-b70b-7d4875adf193","ios":"levelo://app?vid=17669b47-9100-4319-b70b-7d4875adf193"},"vehicle_type_id":"4","last_reported":1769160039,"current_range_meters":8800,"station_id":"st_d3md5207bmas73dh9klg","pricing_plan_id":"cebpf4jnsgd1na2vs0mg"},{"bike_id":"ddb744dc-0e68-480f-91b2-075fe1c80917","system_id":"levelo_inurba_marseille","lat":43.30301,"lon":5.36931,"is_reserved":false,"is_disabled":false,"rental_uris":{"android":"levelo://app?vid=ddb744dc-0e68-480f-91b2-075fe1c80917","ios":"levelo://app?vid=ddb744dc-0e68-480f-91b2-075fe1c80917"},"vehicle_type_id":"4","last_reported":1769160039,"current_range_meters":8800,"station_id":"ce4bgqh2rcd13ifvqc5g","pricing_plan_id":"cebpf4jnsgd1na2vs0mg"},{"bike_id":"8750ab90-342c-4b21-9046-287ee13df746","system_id":"levelo_inurba_marseille","lat":43.32347,"lon":5.36741,"is_reserved":false,"is_disabled":false,"rental_uris":{"android":"levelo://app?vid=8750ab90-342c-4b21-9046-287ee13df746","ios":"levelo://app?vid=8750ab90-342c-4b21-9046-287ee13df746"},"vehicle_type_id":"4","last_reported":1769160039,"current_range_meters":8800,"station_id":"ce4bhsh2rcd13ifvqi2g","pricing_plan_id":"cebpf4jnsgd1na2vs0mg"},{"bike_id":"68b37f36-cf3a-478d-b797-11563aaa1e5e","system_id":"levelo_inurba_marseille","lat":43.29949,"lon":5.3717,"is_reserved":false,"is_disabled":false,"rental_uris":{"android":"levelo://app?vid=68b37f36-cf3a-478d-b797-11563aaa1e5e","ios":"levelo://app?vid=68b37f36-cf3a-478d-b797-11563aaa1e5e"},"vehicle_type_id":"4","last_reported":1769160039,"current_range_meters":9200,"station_id":"ce4bgr92rcd13ifvqc7g","pricing_plan_id":"cebpf4jnsgd1na2vs0mg"},{"bike_id":"46f75794-75d1-4ef5-98be-9fe9801b2e3c","system_id":"levelo_inurba_marseille","lat":43.31366,"lon":5.36705,"is_reserved":false,"is_disabled":false,"rental_uris":{"android":"levelo://app?vid=46f75794-75d1-4ef5-98be-9fe9801b2e3c","ios":"levelo://app?vid=46f75794-75d1-4ef5-98be-9fe9801b2e3c"},"vehicle_type_id":"4","last_reported":1769160039,"current_range_meters":9200,"station_id":"ce4bgr92rcd13ifvqc6g","pricing_plan_id":"cebpf4jnsgd1na2vs0mg"},{"bike_id":"cfb6c891-b851-4c1e-b20a-99f1fd1c4c2d","system_id":"levelo_inurba_marseille","lat":43.240685,"lon":5.37771,"is_reserved":false,"is_disabled":false,"rental_uris":{"android":"levelo://app?vid=cfb6c891-b851-4c1e-b20a-99f1fd1c4c2d","ios":"levelo://app?vid=cfb6c891-b851-4c1e-b20a-99f1fd1c4c2d"},"vehicle_type_id":"4","last_reported":1769160039,"current_range_meters":9200,"station_id":"ce4bhnp2rcd13ifvqgvg","pricing_plan_id":"cebpf4jnsgd1na2vs0mg"},{"bike_id":"98dea6ea-b7af-4e6b-9660-eb2e4071f25d","system_id":"levelo_inurba_marseille","lat":43.2871,"lon":5.40006,"is_reserved":false,"is_disabled":false,"rental_uris":{"android":"levelo://app?vid=98dea6ea-b7af-4e6b-9660-eb2e4071f25d","ios":"levelo://app?vid=98dea6ea-b7af-4e6b-9660-eb2e4071f25d"},"vehicle_type_id":"4","last_reported":1769160039,"current_range_meters":9200,"station_id":"ce4bho92rcd13ifvqh3g","pricing_plan_id":"cebpf4jnsgd1na2vs0mg"},{"bike_id":"15ce2f7b-e27b-4b73-b1d7-521910c86f00","system_id":"levelo_inurba_marseille","lat":43.28481,"lon":5.48385,"is_reserved":false,"is_disabled":false,"rental_uris":{"android":"levelo://app?vid=15ce2f7b-e27b-4b73-b1d7-521910c86f00","ios":"levelo://app?vid=15ce2f7b-e27b-4b73-b1d7-521910c86f00"},"vehicle_type_id":"4","last_reported":1769160039,"current_range_meters":9200,"station_id":"st_d3svhcjqgbts73a3dn0g","pricing_plan_id":"cebpf4jnsgd1na2vs0mg"},{"bike_id":"42258f14-4722-4aac-b949-245a1ef55bb3","system_id":"levelo_inurba_marseille","lat":43.22928,"lon":5.35391,"is_reserved":false,"is_disabled":false,"rental_uris":{"android":"levelo://app?vid=42258f14-4722-4aac-b949-245a1ef55bb3","ios":"levelo://app?vid=42258f14-4722-4aac-b949-245a1ef55bb3"},"vehicle_type_id":"4","last_reported":1769160039,"current_range_meters":9200,"station_id":"cpo3532slgdg3j2ikp40","pricing_plan_id":"cebpf4jnsgd1na2vs0mg"},{"bike_id":"8b3cd425-bcfd-4e98-97ed-9364c3ab1a83","system_id":"levelo_inurba_marseille","lat":43.32494,"lon":5.39414,"is_reserved":false,"is_disabled":false,"rental_uris":{"android":"levelo://app?vid=8b3cd425-bcfd-4e98-97ed-9364c3ab1a83","ios":"levelo://app?vid=8b3cd425-bcfd-4e98-97ed-9364c3ab1a83"},"vehicle_type_id":"4","last_reported":1769160039,"current_range_meters":9200,"station_id":"","pricing_plan_id":"cebpf4jnsgd1na2vs0mg"},{"bike_id":"6a7e8b47-1abf-4350-a831-a2c7f0807730","system_id":"levelo_inurba_marseille","lat":43.28605,"lon":5.35115,"is_reserved":false,"is_disabled":false,"rental_uris":{"android":"levelo://app?vid=6a7e8b47-1abf-4350-a831-a2c7f0807730","ios":"levelo://app?vid=6a7e8b47-1abf-4350-a831-a2c7f0807730"},"vehicle_type_id":"4","last_reported":1769160039,"current_range_meters":9200,"station_id":"ce4bhch2rcd13ifvqeug","pricing_plan_id":"cebpf4jnsgd1na2vs0mg"},{"bike_id":"b147dd6d-64e5-4e1d-a67d-e4c30841ca44","system_id":"levelo_inurba_marseille","lat":43.26519,"lon":5.39034,"is_reserved":false,"is_disabled":false,"rental_uris":{"android":"levelo://app?vid=b147dd6d-64e5-4e1d-a67d-e4c30841ca44","ios":"levelo://app?vid=b147dd6d-64e5-4e1d-a67d-e4c30841ca44"},"vehicle_type_id":"4","last_reported":1769160039,"current_range_meters":9200,"station_id":"ce4bhe12rcd13ifvqf30","pricing_plan_id":"cebpf4jnsgd1na2vs0mg"},{"bike_id":"a4e7739a-94e7-473a-b9f6-4a43e35efa2d","system_id":"levelo_inurba_marseille","lat":43.291738,"lon":5.371478,"is_reserved":false,"is_disabled":false,"rental_uris":{"android":"levelo://app?vid=a4e7739a-94e7-473a-b9f6-4a43e35efa2d","ios":"levelo://app?vid=a4e7739a-94e7-473a-b9f6-4a43e35efa2d"},"vehicle_type_id":"4","last_reported":1769160039,"current_range_meters":9200,"station_id":"ce4bha92rcd13ifvqeh0","pricing_plan_id":"cebpf4jnsgd1na2vs0mg"},{"bike_id":"1dc7f858-3921-47cb-8db8-d8aeb621c643","system_id":"levelo_inurba_marseille","lat":43.29954,"lon":5.37169,"is_reserved":false,"is_disabled":false,"rental_uris":{"android":"levelo://app?vid=1dc7f858-3921-47cb-8db8-d8aeb621c643","ios":"levelo://app?vid=1dc7f858-3921-47cb-8db8-d8aeb621c643"},"vehicle_type_id":"4","last_reported":1769160039,"current_range_meters":9200,"station_id":"ce4bgr92rcd13ifvqc7g","pricing_plan_id":"cebpf4jnsgd1na2vs0mg"},{"bike_id":"3fd603c4-6e35-4017-a90c-25d398c36f9b","system_id":"levelo_inurba_marseille","lat":43.31224,"lon":5.36844,"is_reserved":false,"is_disabled":false,"rental_uris":{"android":"levelo://app?vid=3fd603c4-6e35-4017-a90c-25d398c36f9b","ios":"levelo://app?vid=3fd603c4-6e35-4017-a90c-25d398c36f9b"},"vehicle_type_id":"4","last_reported":1769160039,"current_range_meters":9200,"station_id":"ce4bgl92rcd13ifvqbq0","pricing_plan_id":"cebpf4jnsgd1na2vs0mg"},{"bike_id":"df48ff42-f262-45fd-870e-875d13fd81e4","system_id":"levelo_inurba_marseille","lat":43.26635,"lon":5.38935,"is_reserved":false,"is_disabled":false,"rental_uris":{"android":"levelo://app?vid=df48ff42-f262-45fd-870e-875d13fd81e4","ios":"levelo://app?vid=df48ff42-f262-45fd-870e-875d13fd81e4"},"vehicle_type_id":"4","last_reported":1769160039,"current_range_meters":9200,"station_id":"","pricing_plan_id":"cebpf4jnsgd1na2vs0mg"},{"bike_id":"2e2ce66a-3f89-4c21-a9df-34056a5a5860","system_id":"levelo_inurba_marseille","lat":43.22556,"lon":5.41633,"is_reserved":false,"is_disabled":false,"rental_uris":{"android":"levelo://app?vid=2e2ce66a-3f89-4c21-a9df-34056a5a5860","ios":"levelo://app?vid=2e2ce66a-3f89-4c21-a9df-34056a5a5860"},"vehicle_type_id":"4","last_reported":1769160039,"current_range_meters":9200,"station_id":"st_d2o4gvlbi1j2169b742g","pricing_plan_id":"cebpf4jnsgd1na2vs0mg"},{"bike_id":"31435c69-25b9-4ce8-9ee2-a00fda9647a2","system_id":"levelo_inurba_marseille","lat":43.30461,"lon":5.3792,"is_reserved":false,"is_disabled":false,"rental_uris":{"android":"levelo://app?vid=31435c69-25b9-4ce8-9ee2-a00fda9647a2","ios":"levelo://app?vid=31435c69-25b9-4ce8-9ee2-a00fda9647a2"},"vehicle_type_id":"4","last_reported":1769160039,"current_range_meters":9600,"station_id":"ce4bgup2rcd13ifvqcn0","pricing_plan_id":"cebpf4jnsgd1na2vs0mg"},{"bike_id":"e4c4f5dd-c80d-4d75-801c-35c973416425","system_id":"levelo_inurba_marseille","lat":43.26552,"lon":5.37325,"is_reserved":false,"is_disabled":false,"rental_uris":{"android":"levelo://app?vid=e4c4f5dd-c80d-4d75-801c-35c973416425","ios":"levelo://app?vid=e4c4f5dd-c80d-4d75-801c-35c973416425"},"vehicle_type_id":"4","last_reported":1769160039,"current_range_meters":9600,"station_id":"ce4bhg12rcd13ifvqf70","pricing_plan_id":"cebpf4jnsgd1na2vs0mg"},{"bike_id":"0e7c9739-7c0b-462d-b69e-90718e9a5775","system_id":"levelo_inurba_marseille","lat":43.26547,"lon":5.37314,"is_reserved":false,"is_disabled":false,"rental_uris":{"android":"levelo://app?vid=0e7c9739-7c0b-462d-b69e-90718e9a5775","ios":"levelo://app?vid=0e7c9739-7c0b-462d-b69e-90718e9a5775"},"vehicle_type_id":"4","last_reported":1769160039,"current_range_meters":9600,"station_id":"ce4bhg12rcd13ifvqf70","pricing_plan_id":"cebpf4jnsgd1na2vs0mg"},{"bike_id":"10c585ec-0d69-49bc-a403-a71e7446105a","system_id":"levelo_inurba_marseille","lat":43.24913,"lon":5.39711,"is_reserved":false,"is_disabled":false,"rental_uris":{"android":"levelo://app?vid=10c585ec-0d69-49bc-a403-a71e7446105a","ios":"levelo://app?vid=10c585ec-0d69-49bc-a403-a71e7446105a"},"vehicle_type_id":"4","last_reported":1769160039,"current_range_meters":9600,"station_id":"","pricing_plan_id":"cebpf4jnsgd1na2vs0mg"},{"bike_id":"16bac1b9-8c78-40e2-a2a0-840ef0df37e4","system_id":"levelo_inurba_marseille","lat":43.29273,"lon":5.36851,"is_reserved":false,"is_disabled":false,"rental_uris":{"android":"levelo://app?vid=16bac1b9-8c78-40e2-a2a0-840ef0df37e4","ios":"levelo://app?vid=16bac1b9-8c78-40e2-a2a0-840ef0df37e4"},"vehicle_type_id":"4","last_reported":1769160039,"current_range_meters":9600,"station_id":"ce4bhbp2rcd13ifvqesg","pricing_plan_id":"cebpf4jnsgd1na2vs0mg"},{"bike_id":"7c7cc252-7f4f-4ac1-8175-44f20e46ac77","system_id":"levelo_inurba_marseille","lat":43.26749,"lon":5.40214,"is_reserved":false,"is_disabled":false,"rental_uris":{"android":"levelo://app?vid=7c7cc252-7f4f-4ac1-8175-44f20e46ac77","ios":"levelo://app?vid=7c7cc252-7f4f-4ac1-8175-44f20e46ac77"},"vehicle_type_id":"4","last_reported":1769160039,"current_range_meters":9600,"station_id":"","pricing_plan_id":"cebpf4jnsgd1na2vs0mg"},{"bike_id":"8ac90997-fa6e-4e47-9844-f802382369ea","system_id":"levelo_inurba_marseille","lat":43.30457,"lon":5.3793,"is_reserved":false,"is_disabled":false,"rental_uris":{"android":"levelo://app?vid=8ac90997-fa6e-4e47-9844-f802382369ea","ios":"levelo://app?vid=8ac90997-fa6e-4e47-9844-f802382369ea"},"vehicle_type_id":"4","last_reported":1769160039,"current_range_meters":9600,"station_id":"ce4bgup2rcd13ifvqcn0","pricing_plan_id":"cebpf4jnsgd1na2vs0mg"},{"bike_id":"72879d1c-890c-4352-a31f-76d07f7913aa","system_id":"levelo_inurba_marseille","lat":43.27494,"lon":5.42467,"is_reserved":false,"is_disabled":false,"rental_uris":{"android":"levelo://app?vid=72879d1c-890c-4352-a31f-76d07f7913aa","ios":"levelo://app?vid=72879d1c-890c-4352-a31f-76d07f7913aa"},"vehicle_type_id":"4","last_reported":1769160039,"current_range_meters":9600,"station_id":"ce4bhn92rcd13ifvqgrg","pricing_plan_id":"cebpf4jnsgd1na2vs0mg"},{"bike_id":"05d1c121-28b2-4089-b97e-95b3b06f8585","system_id":"levelo_inurba_marseille","lat":43.31353,"lon":5.37177,"is_reserved":false,"is_disabled":false,"rental_uris":{"android":"levelo://app?vid=05d1c121-28b2-4089-b97e-95b3b06f8585","ios":"levelo://app?vid=05d1c121-28b2-4089-b97e-95b3b06f8585"},"vehicle_type_id":"4","last_reported":1769160039,"current_range_meters":9600,"station_id":"","pricing_plan_id":"cebpf4jnsgd1na2vs0mg"},{"bike_id":"f26a57b4-5e53-4868-8c65-86067b75affd","system_id":"levelo_inurba_marseille","lat":43.29845,"lon":5.36291,"is_reserved":false,"is_disabled":false,"rental_uris":{"android":"levelo://app?vid=f26a57b4-5e53-4868-8c65-86067b75affd","ios":"levelo://app?vid=f26a57b4-5e53-4868-8c65-86067b75affd"},"vehicle_type_id":"4","last_reported":1769160039,"current_range_meters":9600,"station_id":"ce4bgpp2rcd13ifvqc3g","pricing_plan_id":"cebpf4jnsgd1na2vs0mg"},{"bike_id":"5529285c-2106-44ec-b070-b9fecf3940c9","system_id":"levelo_inurba_marseille","lat":43.27293,"lon":5.39151,"is_reserved":false,"is_disabled":false,"rental_uris":{"android":"levelo://app?vid=5529285c-2106-44ec-b070-b9fecf3940c9","ios":"levelo://app?vid=5529285c-2106-44ec-b070-b9fecf3940c9"},"vehicle_type_id":"4","last_reported":1769160039,"current_range_meters":9600,"station_id":"","pricing_plan_id":"cebpf4jnsgd1na2vs0mg"},{"bike_id":"640121a6-98f3-4df3-8ec4-d218eca026e4","system_id":"levelo_inurba_marseille","lat":43.24161,"lon":5.36408,"is_reserved":false,"is_disabled":false,"rental_uris":{"android":"levelo://app?vid=640121a6-98f3-4df3-8ec4-d218eca026e4","ios":"levelo://app?vid=640121a6-98f3-4df3-8ec4-d218eca026e4"},"vehicle_type_id":"4","last_reported":1769160039,"current_range_meters":9600,"station_id":"cpo36qri1sfpv3e86is0","pricing_plan_id":"cebpf4jnsgd1na2vs0mg"},{"bike_id":"ca616cdb-4b11-45fe-ae44-b700aa3b252d","system_id":"levelo_inurba_marseille","lat":43.26216,"lon":5.38816,"is_reserved":false,"is_disabled":false,"rental_uris":{"android":"levelo://app?vid=ca616cdb-4b11-45fe-ae44-b700aa3b252d","ios":"levelo://app?vid=ca616cdb-4b11-45fe-ae44-b700aa3b252d"},"vehicle_type_id":"4","last_reported":1769160039,"current_range_meters":9600,"station_id":"","pricing_plan_id":"cebpf4jnsgd1na2vs0mg"},{"bike_id":"e75f255e-bebc-44ff-b701-1489882695b1","system_id":"levelo_inurba_marseille","lat":43.30907,"lon":5.36862,"is_reserved":false,"is_disabled":false,"rental_uris":{"android":"levelo://app?vid=e75f255e-bebc-44ff-b701-1489882695b1","ios":"levelo://app?vid=e75f255e-bebc-44ff-b701-1489882695b1"},"vehicle_type_id":"4","last_reported":1769160039,"current_range_meters":9600,"station_id":"ce4bgn92rcd13ifvqbvg","pricing_plan_id":"cebpf4jnsgd1na2vs0mg"},{"bike_id":"dd178b0d-57a2-42e1-8a69-79f640f4f2cc","system_id":"levelo_inurba_marseille","lat":43.33364,"lon":5.3945,"is_reserved":false,"is_disabled":false,"rental_uris":{"android":"levelo://app?vid=dd178b0d-57a2-42e1-8a69-79f640f4f2cc","ios":"levelo://app?vid=dd178b0d-57a2-42e1-8a69-79f640f4f2cc"},"vehicle_type_id":"4","last_reported":1769160039,"current_range_meters":9600,"station_id":"","pricing_plan_id":"cebpf4jnsgd1na2vs0mg"},{"bike_id":"f8d9b269-c286-45ae-8e78-09b2d8fcd752","system_id":"levelo_inurba_marseille","lat":43.23156,"lon":5.43726,"is_reserved":false,"is_disabled":false,"rental_uris":{"android":"levelo://app?vid=f8d9b269-c286-45ae-8e78-09b2d8fcd752","ios":"levelo://app?vid=f8d9b269-c286-45ae-8e78-09b2d8fcd752"},"vehicle_type_id":"4","last_reported":1769160039,"current_range_meters":9600,"station_id":"ce4bhmp2rcd13ifvqgog","pricing_plan_id":"cebpf4jnsgd1na2vs0mg"},{"bike_id":"d5fe549d-e013-49d6-92e6-a7a6a353e682","system_id":"levelo_inurba_marseille","lat":43.30947,"lon":5.39042,"is_reserved":false,"is_disabled":false,"rental_uris":{"android":"levelo://app?vid=d5fe549d-e013-49d6-92e6-a7a6a353e682","ios":"levelo://app?vid=d5fe549d-e013-49d6-92e6-a7a6a353e682"},"vehicle_type_id":"4","last_reported":1769160039,"current_range_meters":9600,"station_id":"ce4bgup2rcd13ifvqco0","pricing_plan_id":"cebpf4jnsgd1na2vs0mg"},{"bike_id":"de13daa3-9427-4f29-bc07-2c270fc518f0","system_id":"levelo_inurba_marseille","lat":43.24084,"lon":5.3775,"is_reserved":false,"is_disabled":false,"rental_uris":{"android":"levelo://app?vid=de13daa3-9427-4f29-bc07-2c270fc518f0","ios":"levelo://app?vid=de13daa3-9427-4f29-bc07-2c270fc518f0"},"vehicle_type_id":"4","last_reported":1769160039,"current_range_meters":10000,"station_id":"ce4bhnp2rcd13ifvqgvg","pricing_plan_id":"cebpf4jnsgd1na2vs0mg"},{"bike_id":"c84bdd1d-e931-4705-a93b-8fc9d358cede","system_id":"levelo_inurba_marseille","lat":43.30961,"lon":5.39044,"is_reserved":false,"is_disabled":false,"rental_uris":{"android":"levelo://app?vid=c84bdd1d-e931-4705-a93b-8fc9d358cede","ios":"levelo://app?vid=c84bdd1d-e931-4705-a93b-8fc9d358cede"},"vehicle_type_id":"4","last_reported":1769160039,"current_range_meters":10000,"station_id":"ce4bgup2rcd13ifvqco0","pricing_plan_id":"cebpf4jnsgd1na2vs0mg"},{"bike_id":"6ce0459e-0183-40a0-a83f-0da5dda0b95a","system_id":"levelo_inurba_marseille","lat":43.24674,"lon":5.38164,"is_reserved":false,"is_disabled":false,"rental_uris":{"android":"levelo://app?vid=6ce0459e-0183-40a0-a83f-0da5dda0b95a","ios":"levelo://app?vid=6ce0459e-0183-40a0-a83f-0da5dda0b95a"},"vehicle_type_id":"4","last_reported":1769160039,"current_range_meters":10000,"station_id":"ce4bhih2rcd13ifvqfr0","pricing_plan_id":"cebpf4jnsgd1na2vs0mg"},{"bike_id":"0067e0af-5ba0-4b0d-a268-ed0ed9e19547","system_id":"levelo_inurba_marseille","lat":43.323584,"lon":5.367665,"is_reserved":false,"is_disabled":false,"rental_uris":{"android":"levelo://app?vid=0067e0af-5ba0-4b0d-a268-ed0ed9e19547","ios":"levelo://app?vid=0067e0af-5ba0-4b0d-a268-ed0ed9e19547"},"vehicle_type_id":"4","last_reported":1769160039,"current_range_meters":10000,"station_id":"ce4bhsh2rcd13ifvqi2g","pricing_plan_id":"cebpf4jnsgd1na2vs0mg"},{"bike_id":"28717d61-7495-4704-9751-13d576ce0ba5","system_id":"levelo_inurba_marseille","lat":43.30288,"lon":5.36923,"is_reserved":false,"is_disabled":true,"rental_uris":{"android":"levelo://app?vid=28717d61-7495-4704-9751-13d576ce0ba5","ios":"levelo://app?vid=28717d61-7495-4704-9751-13d576ce0ba5"},"vehicle_type_id":"4","last_reported":1769160039,"current_range_meters":10000,"station_id":"ce4bgqh2rcd13ifvqc5g","pricing_plan_id":"cebpf4jnsgd1na2vs0mg"},{"bike_id":"4b7c68c6-a9a4-4dd4-b9ea-7708888d7664","system_id":"levelo_inurba_marseille","lat":43.32278,"lon":5.38294,"is_reserved":false,"is_disabled":false,"rental_uris":{"android":"levelo://app?vid=4b7c68c6-a9a4-4dd4-b9ea-7708888d7664","ios":"levelo://app?vid=4b7c68c6-a9a4-4dd4-b9ea-7708888d7664"},"vehicle_type_id":"4","last_reported":1769160039,"current_range_meters":10000,"station_id":"ce4bhr12rcd13ifvqhqg","pricing_plan_id":"cebpf4jnsgd1na2vs0mg"},{"bike_id":"8b917e27-22d9-41a4-8cc4-2ae4540e4e35","system_id":"levelo_inurba_marseille","lat":43.29174,"lon":5.37146,"is_reserved":false,"is_disabled":false,"rental_uris":{"android":"levelo://app?vid=8b917e27-22d9-41a4-8cc4-2ae4540e4e35","ios":"levelo://app?vid=8b917e27-22d9-41a4-8cc4-2ae4540e4e35"},"vehicle_type_id":"4","last_reported":1769160039,"current_range_meters":10000,"station_id":"ce4bha92rcd13ifvqeh0","pricing_plan_id":"cebpf4jnsgd1na2vs0mg"},{"bike_id":"30fcd7db-619d-4119-b719-6347c95bfc86","system_id":"levelo_inurba_marseille","lat":43.27826,"lon":5.39216,"is_reserved":false,"is_disabled":false,"rental_uris":{"android":"levelo://app?vid=30fcd7db-619d-4119-b719-6347c95bfc86","ios":"levelo://app?vid=30fcd7db-619d-4119-b719-6347c95bfc86"},"vehicle_type_id":"4","last_reported":1769160039,"current_range_meters":10000,"station_id":"ce4bhjp2rcd13ifvqga0","pricing_plan_id":"cebpf4jnsgd1na2vs0mg"},{"bike_id":"89d2f176-9210-47d4-8e8a-9009973231fc","system_id":"levelo_inurba_marseille","lat":43.31332,"lon":5.36724,"is_reserved":false,"is_disabled":false,"rental_uris":{"android":"levelo://app?vid=89d2f176-9210-47d4-8e8a-9009973231fc","ios":"levelo://app?vid=89d2f176-9210-47d4-8e8a-9009973231fc"},"vehicle_type_id":"4","last_reported":1769160039,"current_range_meters":10000,"station_id":"ce4bgr92rcd13ifvqc6g","pricing_plan_id":"cebpf4jnsgd1na2vs0mg"},{"bike_id":"e3bf064c-53bb-4e5e-a214-36779e2347bf","system_id":"levelo_inurba_marseille","lat":43.27976,"lon":5.41662,"is_reserved":false,"is_disabled":false,"rental_uris":{"android":"levelo://app?vid=e3bf064c-53bb-4e5e-a214-36779e2347bf","ios":"levelo://app?vid=e3bf064c-53bb-4e5e-a214-36779e2347bf"},"vehicle_type_id":"4","last_reported":1769160039,"current_range_meters":10000,"station_id":"ce4bho12rcd13ifvqh1g","pricing_plan_id":"cebpf4jnsgd1na2vs0mg"},{"bike_id":"5396c21b-b22e-42d7-b6f7-73cfeb11a57b","system_id":"levelo_inurba_marseille","lat":43.26048,"lon":5.39427,"is_reserved":false,"is_disabled":false,"rental_uris":{"android":"levelo://app?vid=5396c21b-b22e-42d7-b6f7-73cfeb11a57b","ios":"levelo://app?vid=5396c21b-b22e-42d7-b6f7-73cfeb11a57b"},"vehicle_type_id":"4","last_reported":1769160039,"current_range_meters":10000,"station_id":"ce4bhh92rcd13ifvqfj0","pricing_plan_id":"cebpf4jnsgd1na2vs0mg"},{"bike_id":"d53aa9d5-2a5b-4c87-a2ec-7bd3f4bf9eba","system_id":"levelo_inurba_marseille","lat":43.24995,"lon":5.38925,"is_reserved":false,"is_disabled":false,"rental_uris":{"android":"levelo://app?vid=d53aa9d5-2a5b-4c87-a2ec-7bd3f4bf9eba","ios":"levelo://app?vid=d53aa9d5-2a5b-4c87-a2ec-7bd3f4bf9eba"},"vehicle_type_id":"4","last_reported":1769160039,"current_range_meters":10000,"station_id":"ce4bhgp2rcd13ifvqfd0","pricing_plan_id":"cebpf4jnsgd1na2vs0mg"},{"bike_id":"0dbfa07b-ac38-4c48-88a5-cb50e6add71c","system_id":"levelo_inurba_marseille","lat":43.30955,"lon":5.39047,"is_reserved":false,"is_disabled":false,"rental_uris":{"android":"levelo://app?vid=0dbfa07b-ac38-4c48-88a5-cb50e6add71c","ios":"levelo://app?vid=0dbfa07b-ac38-4c48-88a5-cb50e6add71c"},"vehicle_type_id":"4","last_reported":1769160039,"current_range_meters":10000,"station_id":"ce4bgup2rcd13ifvqco0","pricing_plan_id":"cebpf4jnsgd1na2vs0mg"},{"bike_id":"16525725-a4c4-4bd9-9925-eb9b950936aa","system_id":"levelo_inurba_marseille","lat":43.26917,"lon":5.39097,"is_reserved":false,"is_disabled":false,"rental_uris":{"android":"levelo://app?vid=16525725-a4c4-4bd9-9925-eb9b950936aa","ios":"levelo://app?vid=16525725-a4c4-4bd9-9925-eb9b950936aa"},"vehicle_type_id":"4","last_reported":1769160039,"current_range_meters":10000,"station_id":"","pricing_plan_id":"cebpf4jnsgd1na2vs0mg"},{"bike_id":"19e6e7d2-bef1-44e5-9a90-2c60d7c61b9f","system_id":"levelo_inurba_marseille","lat":43.30152,"lon":5.38099,"is_reserved":false,"is_disabled":false,"rental_uris":{"android":"levelo://app?vid=19e6e7d2-bef1-44e5-9a90-2c60d7c61b9f","ios":"levelo://app?vid=19e6e7d2-bef1-44e5-9a90-2c60d7c61b9f"},"vehicle_type_id":"4","last_reported":1769160039,"current_range_meters":10000,"station_id":"ce4bgjp2rcd13ifvqbh0","pricing_plan_id":"cebpf4jnsgd1na2vs0mg"},{"bike_id":"7146efbd-684d-4932-90cd-4a38feea3f92","system_id":"levelo_inurba_marseille","lat":43.30949,"lon":5.37819,"is_reserved":false,"is_disabled":false,"rental_uris":{"android":"levelo://app?vid=7146efbd-684d-4932-90cd-4a38feea3f92","ios":"levelo://app?vid=7146efbd-684d-4932-90cd-4a38feea3f92"},"vehicle_type_id":"4","last_reported":1769160039,"current_range_meters":10000,"station_id":"","pricing_plan_id":"cebpf4jnsgd1na2vs0mg"},{"bike_id":"f399ed01-cc9a-426c-a0f1-368007604474","system_id":"levelo_inurba_marseille","lat":43.28338,"lon":5.38123,"is_reserved":false,"is_disabled":false,"rental_uris":{"android":"levelo://app?vid=f399ed01-cc9a-426c-a0f1-368007604474","ios":"levelo://app?vid=f399ed01-cc9a-426c-a0f1-368007604474"},"vehicle_type_id":"4","last_reported":1769160039,"current_range_meters":10000,"station_id":"ce4bh412rcd13ifvqdr0","pricing_plan_id":"cebpf4jnsgd1na2vs0mg"},{"bike_id":"61f8f703-6b88-486b-a682-14ccb08771e5","system_id":"levelo_inurba_marseille","lat":43.290365,"lon":5.399656,"is_reserved":false,"is_disabled":true,"rental_uris":{"android":"levelo://app?vid=61f8f703-6b88-486b-a682-14ccb08771e5","ios":"levelo://app?vid=61f8f703-6b88-486b-a682-14ccb08771e5"},"vehicle_type_id":"4","last_reported":1769160039,"current_range_meters":10000,"station_id":"","pricing_plan_id":"cebpf4jnsgd1na2vs0mg"},