{"last_updated":1731676725,"ttl":60,"version":"2.2","data":{"bikes":[{"bike_id":"f59844f5-3e17-4795-8cbc-14bce776c389","system_id":"levelo_inurba_marseille","lat":43.29623,"lon":5.3717,"is_reserved":false,"is_disabled":false,"rental_uris":{"android":"levelo://app?vid=f59844f5-3e17-4795-8cbc-14bce776c389","ios":"levelo://app?vid=f59844f5-3e17-4795-8cbc-14bce776c389"},"vehicle_type_id":"4","last_reported":1731676725,"current_range_meters":36400,"station_id":"ce4bgnh2rcd13ifvqc0g","pricing_plan_id":"cebpf4jnsgd1na2vs0mg"},{"bike_id":"07124827-45b6-46a4-898a-cb8cf0f4715e","system_id":"levelo_inurba_marseille","lat":43.29894,"lon":5.43674,"is_reserved":false,"is_disabled":false,"rental_uris":{"android":"levelo://app?vid=07124827-45b6-46a4-898a-cb8cf0f4715e","ios":"levelo://app?vid=07124827-45b6-46a4-898a-cb8cf0f4715e"},"vehicle_type_id":"4","last_reported":1731676725,"current_range_meters":30800,"station_id":"ce4bhpp2rcd13ifvqhfg","pricing_plan_id":"cebpf4jnsgd1na2vs0mg"},{"bike_id":"9af31f59-0071-41cd-883a-a94e4269c1bb","system_id":"levelo_inurba_marseille","lat":43.28347,"lon":5.38626,"is_reserved":false,"is_disabled":false,"rental_uris":{"android":"levelo://app?vid=9af31f59-0071-41cd-883a-a94e4269c1bb","ios":"levelo://app?vid=9af31f59-0071-41cd-883a-a94e4269c1bb"},"vehicle_type_id":"4","last_reported":1731676725,"current_range_meters":39200,"station_id":"ce4bh492rcd13ifvqdvg","pricing_plan_id":"cebpf4jnsgd1na2vs0mg"},{"bike_id":"aa1a5ada-34e5-4ee8-8d26-1c510285f33e","system_id":"levelo_inurba_marseille","lat":43.26211,"lon":5.37441,"is_reserved":false,"is_disabled":false,"rental_uris":{"android":"levelo://app?vid=aa1a5ada-34e5-4ee8-8d26-1c510285f33e","ios":"levelo://app?vid=aa1a5ada-34e5-4ee8-8d26-1c510285f33e"},"vehicle_type_id":"4","last_reported":1731676725,"current_range_meters":34800,"station_id":"ce4bhgp2rcd13ifvqfc0","pricing_plan_id":"cebpf4jnsgd1na2vs0mg"},{"bike_id":"bba30ccd-2b4f-42d8-b68d-f3f8cfd6f6dd","system_id":"levelo_inurba_marseille","lat":43.31236,"lon":5.36866,"is_reserved":false,"is_disabled":false,"rental_uris":{"android":"levelo://app?vid=bba30ccd-2b4f-42d8-b68d-f3f8cfd6f6dd","ios":"levelo://app?vid=bba30ccd-2b4f-42d8-b68d-f3f8cfd6f6dd"},"vehicle_type_id":"4","last_reported":1731676725,"current_range_meters":35600,"station_id":"ce4bgl92rcd13ifvqbq0","pricing_plan_id":"cebpf4jnsgd1na2vs0mg"},{"bike_id":"d9847e7e-8407-4b3b-8aa7-64d3afcb8734","system_id":"levelo_inurba_marseille","lat":43.26034,"lon":5.37547,"is_reserved":false,"is_disabled":false,"rental_uris":{"android":"levelo://app?vid=d9847e7e-8407-4b3b-8aa7-64d3afcb8734","ios":"levelo://app?vid=d9847e7e-8407-4b3b-8aa7-64d3afcb8734"},"vehicle_type_id":"4","last_reported":1731676725,"current_range_meters":37600,"station_id":"ce4bhgh2rcd13ifvqfa0","pricing_plan_id":"cebpf4jnsgd1na2vs0mg"},{"bike_id":"d21f8540-0475-45a6-8fd4-8d2a11e01acd","system_id":"levelo_inurba_marseille","lat":43.29035,"lon":5.39963,"is_reserved":false,"is_disabled":false,"rental_uris":{"android":"levelo://app?vid=d21f8540-0475-45a6-8fd4-8d2a11e01acd","ios":"levelo://app?vid=d21f8540-0475-45a6-8fd4-8d2a11e01acd"},"vehicle_type_id":"4","last_reported":1731676725,"current_range_meters":17200,"station_id":"ce4bh392rcd13ifvqdm0","pricing_plan_id":"cebpf4jnsgd1na2vs0mg"},{"bike_id":"e282d3e7-c389-4465-b1cf-db1f5fba47c4","system_id":"levelo_inurba_marseille","lat":43.32538,"lon":5.41434,"is_reserved":false,"is_disabled":false,"rental_uris":{"android":"levelo://app?vid=e282d3e7-c389-4465-b1cf-db1f5fba47c4","ios":"levelo://app?vid=e282d3e7-c389-4465-b1cf-db1f5fba47c4"},"vehicle_type_id":"4","last_reported":1731676725,"current_range_meters":38800,"station_id":"ce4bhq12rcd13ifvqhhg","pricing_plan_id":"cebpf4jnsgd1na2vs0mg"},{"bike_id":"576c7744-2f08-4d65-9294-b677c695fd7d","system_id":"levelo_inurba_marseille","lat":43.255786,"lon":5.382427,"is_reserved":false,"is_disabled":false,"rental_uris":{"android":"levelo://app?vid=576c7744-2f08-4d65-9294-b677c695fd7d","ios":"levelo://app?vid=576c7744-2f08-4d65-9294-b677c695fd7d"},"vehicle_type_id":"4","last_reported":1731676725,"current_range_meters":12400,"station_id":"ce4bhih2rcd13ifvqfs0","pricing_plan_id":"cebpf4jnsgd1na2vs0mg"},{"bike_id":"d42cecbe-81f9-4636-ba96-898357cff367","system_id":"levelo_inurba_marseille","lat":43.28665,"lon":5.38663,"is_reserved":false,"is_disabled":false,"rental_uris":{"android":"levelo://app?vid=d42cecbe-81f9-4636-ba96-898357cff367","ios":"levelo://app?vid=d42cecbe-81f9-4636-ba96-898357cff367"},"vehicle_type_id":"4","last_reported":1731676725,"current_range_meters":25600,"station_id":"ce4bh492rcd13ifvqdug","pricing_plan_id":"cebpf4jnsgd1na2vs0mg"},{"bike_id":"3b7c8e8c-ce53-4a9d-afc0-ed0ce3192736","system_id":"levelo_inurba_marseille","lat":43.28945,"lon":5.36636,"is_reserved":false,"is_disabled":false,"rental_uris":{"android":"levelo://app?vid=3b7c8e8c-ce53-4a9d-afc0-ed0ce3192736","ios":"levelo://app?vid=3b7c8e8c-ce53-4a9d-afc0-ed0ce3192736"},"vehicle_type_id":"4","last_reported":1731676725,"current_range_meters":6400,"station_id":"ce4bhap2rcd13ifvqek0","pricing_plan_id":"cebpf4jnsgd1na2vs0mg"},{"bike_id":"a0178126-4e34-4887-9604-62aa42afad02","system_id":"levelo_inurba_marseille","lat":43.27373,"lon":5.36267,"is_reserved":false,"is_disabled":false,"rental_uris":{"android":"levelo://app?vid=a0178126-4e34-4887-9604-62aa42afad02","ios":"levelo://app?vid=a0178126-4e34-4887-9604-62aa42afad02"},"vehicle_type_id":"4","last_reported":1731676725,"current_range_meters":38800,"station_id":"ce4bhbh2rcd13ifvqeo0","pricing_plan_id":"cebpf4jnsgd1na2vs0mg"},{"bike_id":"0d464bfc-172e-48ac-834e-501767c8714d","system_id":"levelo_inurba_marseille","lat":43.24389,"lon":5.37061,"is_reserved":false,"is_disabled":false,"rental_uris":{"android":"levelo://app?vid=0d464bfc-172e-48ac-834e-501767c8714d","ios":"levelo://app?vid=0d464bfc-172e-48ac-834e-501767c8714d"},"vehicle_type_id":"4","last_reported":1731676725,"current_range_meters":30400,"station_id":"ce4bhhh2rcd13ifvqfk0","pricing_plan_id":"cebpf4jnsgd1na2vs0mg"},{"bike_id":"0af9917c-0ec2-417f-b871-d98fb7e08a49","system_id":"levelo_inurba_marseille","lat":43.27917,"lon":5.3958,"is_reserved":false,"is_disabled":false,"rental_uris":{"android":"levelo://app?vid=0af9917c-0ec2-417f-b871-d98fb7e08a49","ios":"levelo://app?vid=0af9917c-0ec2-417f-b871-d98fb7e08a49"},"vehicle_type_id":"4","last_reported":1731676725,"current_range_meters":4800,"station_id":"ce4bhf92rcd13ifvqf40","pricing_plan_id":"cebpf4jnsgd1na2vs0mg"},{"bike_id":"45a49876-2680-412b-a707-c0b5187d250d","system_id":"levelo_inurba_marseille","lat":43.27172,"lon":5.40993,"is_reserved":false,"is_disabled":false,"rental_uris":{"android":"levelo://app?vid=45a49876-2680-412b-a707-c0b5187d250d","ios":"levelo://app?vid=45a49876-2680-412b-a707-c0b5187d250d"},"vehicle_type_id":"4","last_reported":1731676725,"current_range_meters":20800,"station_id":"ce4bhl12rcd13ifvqgf0","pricing_plan_id":"cebpf4jnsgd1na2vs0mg"},{"bike_id":"9ef76943-592f-4d3b-a0f1-da70d440e9b4","system_id":"levelo_inurba_marseille","lat":43.29896,"lon":5.43668,"is_reserved":false,"is_disabled":false,"rental_uris":{"android":"levelo://app?vid=9ef76943-592f-4d3b-a0f1-da70d440e9b4","ios":"levelo://app?vid=9ef76943-592f-4d3b-a0f1-da70d440e9b4"},"vehicle_type_id":"4","last_reported":1731676725,"current_range_meters":24000,"station_id":"ce4bhpp2rcd13ifvqhfg","pricing_plan_id":"cebpf4jnsgd1na2vs0mg"},{"bike_id":"b49aa65f-0592-446c-970f-4a118defa2f6","system_id":"levelo_inurba_marseille","lat":43.29611,"lon":5.38111,"is_reserved":false,"is_disabled":false,"rental_uris":{"android":"levelo://app?vid=b49aa65f-0592-446c-970f-4a118defa2f6","ios":"levelo://app?vid=b49aa65f-0592-446c-970f-4a118defa2f6"},"vehicle_type_id":"4","last_reported":1731676725,"current_range_meters":12400,"station_id":"ce4bgl12rcd13ifvqbo0","pricing_plan_id":"cebpf4jnsgd1na2vs0mg"},{"bike_id":"a0721954-1a3f-425b-87d5-e4463e7bd4d1","system_id":"levelo_inurba_marseille","lat":43.31313,"lon":5.3972,"is_reserved":false,"is_disabled":false,"rental_uris":{"android":"levelo://app?vid=a0721954-1a3f-425b-87d5-e4463e7bd4d1","ios":"levelo://app?vid=a0721954-1a3f-425b-87d5-e4463e7bd4d1"},"vehicle_type_id":"4","last_reported":1731676725,"current_range_meters":38800,"station_id":"ce4bgvp2rcd13ifvqcu0","pricing_plan_id":"cebpf4jnsgd1na2vs0mg"},{"bike_id":"bf456e7e-3318-43eb-b5b6-172756a69b96","system_id":"levelo_inurba_marseille","lat":43.33776,"lon":5.37466,"is_reserved":false,"is_disabled":false,"rental_uris":{"android":"levelo://app?vid=bf456e7e-3318-43eb-b5b6-172756a69b96","ios":"levelo://app?vid=bf456e7e-3318-43eb-b5b6-172756a69b96"},"vehicle_type_id":"4","last_reported":1731676725,"current_range_meters":38800,"station_id":"","pricing_plan_id":"cebpf4jnsgd1na2vs0mg"},{"bike_id":"a98a227b-df56-437d-bc7c-da769931c3cc","system_id":"levelo_inurba_marseille","lat":43.29796,"lon":5.38101,"is_reserved":false,"is_disabled":false,"rental_uris":{"android":"levelo://app?vid=a98a227b-df56-437d-bc7c-da769931c3cc","ios":"levelo://app?vid=a98a227b-df56-437d-bc7c-da769931c3cc"},"vehicle_type_id":"4","last_reported":1731676725,"current_range_meters":36800,"station_id":"ce4bgip2rcd13ifvqbb0","pricing_plan_id":"cebpf4jnsgd1na2vs0mg"},{"bike_id":"6a6a808d-455b-4f24-bf9d-46c87d214f6b","system_id":"levelo_inurba_marseille","lat":43.26506,"lon":5.39543,"is_reserved":false,"is_disabled":false,"rental_uris":{"android":"levelo://app?vid=6a6a808d-455b-4f24-bf9d-46c87d214f6b","ios":"levelo://app?vid=6a6a808d-455b-4f24-bf9d-46c87d214f6b"},"vehicle_type_id":"4","last_reported":1731676725,"current_range_meters":26800,"station_id":"ce4bhi12rcd13ifvqfq0","pricing_plan_id":"cebpf4jnsgd1na2vs0mg"},{"bike_id":"f976b5b6-8589-440c-b7da-abdff4dd7432","system_id":"levelo_inurba_marseille","lat":43.30442,"lon":5.37919,"is_reserved":false,"is_disabled":false,"rental_uris":{"android":"levelo://app?vid=f976b5b6-8589-440c-b7da-abdff4dd7432","ios":"levelo://app?vid=f976b5b6-8589-440c-b7da-abdff4dd7432"},"vehicle_type_id":"4","last_reported":1731676725,"current_range_meters":16000,"station_id":"ce4bgup2rcd13ifvqcn0","pricing_plan_id":"cebpf4jnsgd1na2vs0mg"},{"bike_id":"0a57fa9f-2e55-46e8-867f-1fda3c624d9e","system_id":"levelo_inurba_marseille","lat":43.2962,"lon":5.37154,"is_reserved":false,"is_disabled":false,"rental_uris":{"android":"levelo://app?vid=0a57fa9f-2e55-46e8-867f-1fda3c624d9e","ios":"levelo://app?vid=0a57fa9f-2e55-46e8-867f-1fda3c624d9e"},"vehicle_type_id":"4","last_reported":1731676725,"current_range_meters":38800,"station_id":"ce4bgnh2rcd13ifvqc0g","pricing_plan_id":"cebpf4jnsgd1na2vs0mg"},{"bike_id":"4a74f469-1d99-48ee-a8ca-9199898c00a4","system_id":"levelo_inurba_marseille","lat":43.23197,"lon":5.35547,"is_reserved":false,"is_disabled":false,"rental_uris":{"android":"levelo://app?vid=4a74f469-1d99-48ee-a8ca-9199898c00a4","ios":"levelo://app?vid=4a74f469-1d99-48ee-a8ca-9199898c00a4"},"vehicle_type_id":"4","last_reported":1731676725,"current_range_meters":15200,"station_id":"ce4bhu92rcd13ifvqi70","pricing_plan_id":"cebpf4jnsgd1na2vs0mg"},{"bike_id":"140cdcdf-4f5c-48d7-815f-e523c9597bcf","system_id":"levelo_inurba_marseille","lat":43.30596,"lon":5.39363,"is_reserved":false,"is_disabled":false,"rental_uris":{"android":"levelo://app?vid=140cdcdf-4f5c-48d7-815f-e523c9597bcf","ios":"levelo://app?vid=140cdcdf-4f5c-48d7-815f-e523c9597bcf"},"vehicle_type_id":"4","last_reported":1731676725,"current_range_meters":37600,"station_id":"ce4bh0p2rcd13ifvqd80","pricing_plan_id":"cebpf4jnsgd1na2vs0mg"},{"bike_id":"20101b81-9713-4d4e-a436-1ddf3101e86f","system_id":"levelo_inurba_marseille","lat":43.2582,"lon":5.39435,"is_reserved":false,"is_disabled":false,"rental_uris":{"android":"levelo://app?vid=20101b81-9713-4d4e-a436-1ddf3101e86f","ios":"levelo://app?vid=20101b81-9713-4d4e-a436-1ddf3101e86f"},"vehicle_type_id":"4","last_reported":1731676725,"current_range_meters":17600,"station_id":"ce4bhip2rcd13ifvqft0","pricing_plan_id":"cebpf4jnsgd1na2vs0mg"},{"bike_id":"ad90e739-0a27-4799-866e-18492760e810","system_id":"levelo_inurba_marseille","lat":43.24388,"lon":5.3706,"is_reserved":false,"is_disabled":false,"rental_uris":{"android":"levelo://app?vid=ad90e739-0a27-4799-866e-18492760e810","ios":"levelo://app?vid=ad90e739-0a27-4799-866e-18492760e810"},"vehicle_type_id":"4","last_reported":1731676725,"current_range_meters":25200,"station_id":"ce4bhhh2rcd13ifvqfk0","pricing_plan_id":"cebpf4jnsgd1na2vs0mg"},{"bike_id":"6babf76a-ba79-4056-910f-7a5af004d4ea","system_id":"levelo_inurba_marseille","lat":43.29008,"lon":5.35609,"is_reserved":false,"is_disabled":false,"rental_uris":{"android":"levelo://app?vid=6babf76a-ba79-4056-910f-7a5af004d4ea","ios":"levelo://app?vid=6babf76a-ba79-4056-910f-7a5af004d4ea"},"vehicle_type_id":"4","last_reported":1731676725,"current_range_meters":25600,"station_id":"ce4bhb92rcd13ifvqen0","pricing_plan_id":"cebpf4jnsgd1na2vs0mg"},{"bike_id":"f1502596-bcdc-4f2f-9fc2-d8182b56815c","system_id":"levelo_inurba_marseille","lat":43.28945,"lon":5.38392,"is_reserved":false,"is_disabled":false,"rental_uris":{"android":"levelo://app?vid=f1502596-bcdc-4f2f-9fc2-d8182b56815c","ios":"levelo://app?vid=f1502596-bcdc-4f2f-9fc2-d8182b56815c"},"vehicle_type_id":"4","last_reported":1731676725,"current_range_meters":2800,"station_id":"ce4bh612rcd13ifvqe6g","pricing_plan_id":"cebpf4jnsgd1na2vs0mg"},{"bike_id":"e297c16a-5b5b-42b0-a5e7-4340b3af961d","system_id":"levelo_inurba_marseille","lat":43.248,"lon":5.37454,"is_reserved":false,"is_disabled":false,"rental_uris":{"android":"levelo://app?vid=e297c16a-5b5b-42b0-a5e7-4340b3af961d","ios":"levelo://app?vid=e297c16a-5b5b-42b0-a5e7-4340b3af961d"},"vehicle_type_id":"4","last_reported":1731676725,"current_range_meters":38800,"station_id":"ce4bhgh2rcd13ifvqfb0","pricing_plan_id":"cebpf4jnsgd1na2vs0mg"},{"bike_id":"3cf97c83-00bf-47d8-8617-def8d66a8a61","system_id":"levelo_inurba_marseille","lat":43.30136,"lon":5.37432,"is_reserved":false,"is_disabled":false,"rental_uris":{"android":"levelo://app?vid=3cf97c83-00bf-47d8-8617-def8d66a8a61","ios":"levelo://app?vid=3cf97c83-00bf-47d8-8617-def8d66a8a61"},"vehicle_type_id":"4","last_reported":1731676725,"current_range_meters":37600,"station_id":"ce4bgs92rcd13ifvqcc0","pricing_plan_id":"cebpf4jnsgd1na2vs0mg"},{"bike_id":"34894f31-0d58-4b99-bedf-fbccfa834d04","system_id":"levelo_inurba_marseille","lat":43.24076,"lon":5.37739,"is_reserved":false,"is_disabled":false,"rental_uris":{"android":"levelo://app?vid=34894f31-0d58-4b99-bedf-fbccfa834d04","ios":"levelo://app?vid=34894f31-0d58-4b99-bedf-fbccfa834d04"},"vehicle_type_id":"4","last_reported":1731676725,"current_range_meters":35600,"station_id":"ce4bhnp2rcd13ifvqgvg","pricing_plan_id":"cebpf4jnsgd1na2vs0mg"},{"bike_id":"0c21a761-f7b3-4c63-b4aa-6b71e7a913e6","system_id":"levelo_inurba_marseille","lat":43.27375,"lon":5.36258,"is_reserved":false,"is_disabled":false,"rental_uris":{"android":"levelo://app?vid=0c21a761-f7b3-4c63-b4aa-6b71e7a913e6","ios":"levelo://app?vid=0c21a761-f7b3-4c63-b4aa-6b71e7a913e6"},"vehicle_type_id":"4","last_reported":1731676725,"current_range_meters":4800,"station_id":"ce4bhbh2rcd13ifvqeo0","pricing_plan_id":"cebpf4jnsgd1na2vs0mg"},{"bike_id":"4eb7b8fe-4791-48de-bd00-3c8f92e319b7","system_id":"levelo_inurba_marseille","lat":43.30908,"lon":5.36849,"is_reserved":false,"is_disabled":false,"rental_uris":{"android":"levelo://app?vid=4eb7b8fe-4791-48de-bd00-3c8f92e319b7","ios":"levelo://app?vid=4eb7b8fe-4791-48de-bd00-3c8f92e319b7"},"vehicle_type_id":"4","last_reported":1731676725,"current_range_meters":36400,"station_id":"ce4bgn92rcd13ifvqbvg","pricing_plan_id":"cebpf4jnsgd1na2vs0mg"},{"bike_id":"7811c85e-ace6-4809-bc0b-7e8e9cefd74c","system_id":"levelo_inurba_marseille","lat":43.27376,"lon":5.36269,"is_reserved":false,"is_disabled":false,"rental_uris":{"android":"levelo://app?vid=7811c85e-ace6-4809-bc0b-7e8e9cefd74c","ios":"levelo://app?vid=7811c85e-ace6-4809-bc0b-7e8e9cefd74c"},"vehicle_type_id":"4","last_reported":1731676725,"current_range_meters":22800,"station_id":"ce4bhbh2rcd13ifvqeo0","pricing_plan_id":"cebpf4jnsgd1na2vs0mg"},{"bike_id":"dca415e1-3cc2-444c-bcc1-7ce6aedb9739","system_id":"levelo_inurba_marseille","lat":43.24165,"lon":5.36396,"is_reserved":false,"is_disabled":false,"rental_uris":{"android":"levelo://app?vid=dca415e1-3cc2-444c-bcc1-7ce6aedb9739","ios":"levelo://app?vid=dca415e1-3cc2-444c-bcc1-7ce6aedb9739"},"vehicle_type_id":"4","last_reported":1731676725,"current_range_meters":27600,"station_id":"cpo36qri1sfpv3e86is0","pricing_plan_id":"cebpf4jnsgd1na2vs0mg"},{"bike_id":"954015a0-299a-4e1d-90c1-a75faf597368","system_id":"levelo_inurba_marseille","lat":43.31263,"lon":5.36883,"is_reserved":false,"is_disabled":false,"rental_uris":{"android":"levelo://app?vid=954015a0-299a-4e1d-90c1-a75faf597368","ios":"levelo://app?vid=954015a0-299a-4e1d-90c1-a75faf597368"},"vehicle_type_id":"4","last_reported":1731676725,"current_range_meters":33600,"station_id":"ce4bgl92rcd13ifvqbq0","pricing_plan_id":"cebpf4jnsgd1na2vs0mg"},{"bike_id":"7ec75aee-5f83-49ca-b236-8c344fe9f9d5","system_id":"levelo_inurba_marseille","lat":43.3414,"lon":5.40902,"is_reserved":false,"is_disabled":false,"rental_uris":{"android":"levelo://app?vid=7ec75aee-5f83-49ca-b236-8c344fe9f9d5","ios":"levelo://app?vid=7ec75aee-5f83-49ca-b236-8c344fe9f9d5"},"vehicle_type_id":"4","last_reported":1731676725,"current_range_meters":26000,"station_id":"ce4bhqh2rcd13ifvqhlg","pricing_plan_id":"cebpf4jnsgd1na2vs0mg"},{"bike_id":"0dd5c336-8bf7-409f-a046-4f44d557e694","system_id":"levelo_inurba_marseille","lat":43.33725,"lon":5.39176,"is_reserved":false,"is_disabled":false,"rental_uris":{"android":"levelo://app?vid=0dd5c336-8bf7-409f-a046-4f44d557e694","ios":"levelo://app?vid=0dd5c336-8bf7-409f-a046-4f44d557e694"},"vehicle_type_id":"4","last_reported":1731676725,"current_range_meters":39200,"station_id":"ce4bhr92rcd13ifvqhsg","pricing_plan_id":"cebpf4jnsgd1na2vs0mg"},{"bike_id":"a6ef5596-2bf0-4422-b7f1-3158767c6405","system_id":"levelo_inurba_marseille","lat":43.29915,"lon":5.37484,"is_reserved":false,"is_disabled":false,"rental_uris":{"android":"levelo://app?vid=a6ef5596-2bf0-4422-b7f1-3158767c6405","ios":"levelo://app?vid=a6ef5596-2bf0-4422-b7f1-3158767c6405"},"vehicle_type_id":"4","last_reported":1731676725,"current_range_meters":25600,"station_id":"ce4bgjh2rcd13ifvqbg0","pricing_plan_id":"cebpf4jnsgd1na2vs0mg"},{"bike_id":"4d28ebeb-b071-40be-83ae-a72c38016b9c","system_id":"levelo_inurba_marseille","lat":43.24651,"lon":5.38903,"is_reserved":false,"is_disabled":false,"rental_uris":{"android":"levelo://app?vid=4d28ebeb-b071-40be-83ae-a72c38016b9c","ios":"levelo://app?vid=4d28ebeb-b071-40be-83ae-a72c38016b9c"},"vehicle_type_id":"4","last_reported":1731676725,"current_range_meters":38800,"station_id":"ce4bhg12rcd13ifvqf60","pricing_plan_id":"cebpf4jnsgd1na2vs0mg"},{"bike_id":"631284bc-ca79-4566-a19e-c81968ea3fef","system_id":"levelo_inurba_marseille","lat":43.26682,"lon":5.38273,"is_reserved":false,"is_disabled":false,"rental_uris":{"android":"levelo://app?vid=631284bc-ca79-4566-a19e-c81968ea3fef","ios":"levelo://app?vid=631284bc-ca79-4566-a19e-c81968ea3fef"},"vehicle_type_id":"4","last_reported":1731676725,"current_range_meters":29600,"station_id":"ce4bhg92rcd13ifvqf90","pricing_plan_id":"cebpf4jnsgd1na2vs0mg"},{"bike_id":"7857af21-8d4b-431a-a0af-a6cbd0cfd56f","system_id":"levelo_inurba_marseille","lat":43.3124,"lon":5.36879,"is_reserved":false,"is_disabled":false,"rental_uris":{"android":"levelo://app?vid=7857af21-8d4b-431a-a0af-a6cbd0cfd56f","ios":"levelo://app?vid=7857af21-8d4b-431a-a0af-a6cbd0cfd56f"},"vehicle_type_id":"4","last_reported":1731676725,"current_range_meters":38800,"station_id":"ce4bgl92rcd13ifvqbq0","pricing_plan_id":"cebpf4jnsgd1na2vs0mg"},{"bike_id":"913a4160-2863-4466-8491-0f2d64cb513c","system_id":"levelo_inurba_marseille","lat":43.28152,"lon":5.42638,"is_reserved":false,"is_disabled":false,"rental_uris":{"android":"levelo://app?vid=913a4160-2863-4466-8491-0f2d64cb513c","ios":"levelo://app?vid=913a4160-2863-4466-8491-0f2d64cb513c"},"vehicle_type_id":"4","last_reported":1731676725,"current_range_meters":36800,"station_id":"ce4bhnh2rcd13ifvqgug","pricing_plan_id":"cebpf4jnsgd1na2vs0mg"},{"bike_id":"58f7c9a1-ee7f-445e-a6cf-0fc294e9485e","system_id":"levelo_inurba_marseille","lat":43.241809,"lon":5.397283,"is_reserved":false,"is_disabled":false,"rental_uris":{"android":"levelo://app?vid=58f7c9a1-ee7f-445e-a6cf-0fc294e9485e","ios":"levelo://app?vid=58f7c9a1-ee7f-445e-a6cf-0fc294e9485e"},"vehicle_type_id":"4","last_reported":1731676725,"current_range_meters":24800,"station_id":"ce4bhn12rcd13ifvqgpg","pricing_plan_id":"cebpf4jnsgd1na2vs0mg"},{"bike_id":"239b9a8c-221e-4921-b0cd-84f850ec8210","system_id":"levelo_inurba_marseille","lat":43.24076,"lon":5.37756,"is_reserved":false,"is_disabled":false,"rental_uris":{"android":"levelo://app?vid=239b9a8c-221e-4921-b0cd-84f850ec8210","ios":"levelo://app?vid=239b9a8c-221e-4921-b0cd-84f850ec8210"},"vehicle_type_id":"4","last_reported":1731676725,"current_range_meters":25600,"station_id":"ce4bhnp2rcd13ifvqgvg","pricing_plan_id":"cebpf4jnsgd1na2vs0mg"},{"bike_id":"bc4ab888-e1b1-4cb8-9739-ffdb26fb128a","system_id":"levelo_inurba_marseille","lat":43.31754,"lon":5.39017,"is_reserved":false,"is_disabled":false,"rental_uris":{"android":"levelo://app?vid=bc4ab888-e1b1-4cb8-9739-ffdb26fb128a","ios":"levelo://app?vid=bc4ab888-e1b1-4cb8-9739-ffdb26fb128a"},"vehicle_type_id":"4","last_reported":1731676725,"current_range_meters":4400,"station_id":"ce4bhqp2rcd13ifvqhng","pricing_plan_id":"cebpf4jnsgd1na2vs0mg"},{"bike_id":"8c5a1ea1-aabe-4daf-8645-b48b0e9ea4b5","system_id":"levelo_inurba_marseille","lat":43.28415,"lon":5.3499,"is_reserved":false,"is_disabled":false,"rental_uris":{"android":"levelo://app?vid=8c5a1ea1-aabe-4daf-8645-b48b0e9ea4b5","ios":"levelo://app?vid=8c5a1ea1-aabe-4daf-8645-b48b0e9ea4b5"},"vehicle_type_id":"4","last_reported":1731676725,"current_range_meters":29600,"station_id":"ce4bhbh2rcd13ifvqepg","pricing_plan_id":"cebpf4jnsgd1na2vs0mg"},{"bike_id":"a9637660-0219-4344-899a-9e103fdee393","system_id":"levelo_inurba_marseille","lat":43.30219,"lon":5.3947,"is_reserved":false,"is_disabled":false,"rental_uris":{"android":"levelo://app?vid=a9637660-0219-4344-899a-9e103fdee393","ios":"levelo://app?vid=a9637660-0219-4344-899a-9e103fdee393"},"vehicle_type_id":"4","last_reported":1731676725,"current_range_meters":24000,"station_id":"ce4bh0p2rcd13ifvqd70","pricing_plan_id":"cebpf4jnsgd1na2vs0mg"},{"bike_id":"e229226f-5c35-4352-8909-818c0580333b","system_id":"levelo_inurba_marseille","lat":43.2606,"lon":5.39402,"is_reserved":false,"is_disabled":false,"rental_uris":{"android":"levelo://app?vid=e229226f-5c35-4352-8909-818c0580333b","ios":"levelo://app?vid=e229226f-5c35-4352-8909-818c0580333b"},"vehicle_type_id":"4","last_reported":1731676725,"current_range_meters":37600,"station_id":"ce4bhh92rcd13ifvqfj0","pricing_plan_id":"cebpf4jnsgd1na2vs0mg"},{"bike_id":"c6004910-0375-4b4e-afa3-1d5f1f5b4002","system_id":"levelo_inurba_marseille","lat":43.28414,"lon":5.34989,"is_reserved":false,"is_disabled":false,"rental_uris":{"android":"levelo://app?vid=c6004910-0375-4b4e-afa3-1d5f1f5b4002","ios":"levelo://app?vid=c6004910-0375-4b4e-afa3-1d5f1f5b4002"},"vehicle_type_id":"4","last_reported":1731676725,"current_range_meters":7200,"station_id":"ce4bhbh2rcd13ifvqepg","pricing_plan_id":"cebpf4jnsgd1na2vs0mg"},{"bike_id":"91b357ea-e254-42a1-90f9-606819a74660","system_id":"levelo_inurba_marseille","lat":43.26958,"lon":5.386373,"is_reserved":false,"is_disabled":false,"rental_uris":{"android":"levelo://app?vid=91b357ea-e254-42a1-90f9-606819a74660","ios":"levelo://app?vid=91b357ea-e254-42a1-90f9-606819a74660"},"vehicle_type_id":"4","last_reported":1731676725,"current_range_meters":18800,"station_id":"ce4bhh92rcd13ifvqfh0","pricing_plan_id":"cebpf4jnsgd1na2vs0mg"},{"bike_id":"10e31298-7ef0-4047-a905-d4452af3264e","system_id":"levelo_inurba_marseille","lat":43.24994,"lon":5.38935,"is_reserved":false,"is_disabled":false,"rental_uris":{"android":"levelo://app?vid=10e31298-7ef0-4047-a905-d4452af3264e","ios":"levelo://app?vid=10e31298-7ef0-4047-a905-d4452af3264e"},"vehicle_type_id":"4","last_reported":1731676725,"current_range_meters":32800,"station_id":"ce4bhgp2rcd13ifvqfd0","pricing_plan_id":"cebpf4jnsgd1na2vs0mg"},{"bike_id":"0a87b3d5-db67-4abb-9619-038fbf7bb898","system_id":"levelo_inurba_marseille","lat":43.3171,"lon":5.43706,"is_reserved":false,"is_disabled":false,"rental_uris":{"android":"levelo://app?vid=0a87b3d5-db67-4abb-9619-038fbf7bb898","ios":"levelo://app?vid=0a87b3d5-db67-4abb-9619-038fbf7bb898"},"vehicle_type_id":"4","last_reported":1731676725,"current_range_meters":13600,"station_id":"ce4bhp92rcd13ifvqhcg","pricing_plan_id":"cebpf4jnsgd1na2vs0mg"},{"bike_id":"6b8eba9e-251e-401f-9b82-4a96d08ef40f","system_id":"levelo_inurba_marseille","lat":43.33017,"lon":5.39049,"is_reserved":false,"is_disabled":false,"rental_uris":{"android":"levelo://app?vid=6b8eba9e-251e-401f-9b82-4a96d08ef40f","ios":"levelo://app?vid=6b8eba9e-251e-401f-9b82-4a96d08ef40f"},"vehicle_type_id":"4","last_reported":1731676725,"current_range_meters":24000,"station_id":"ce4bhr92rcd13ifvqhrg","pricing_plan_id":"cebpf4jnsgd1na2vs0mg"},{"bike_id":"42530507-fe16-4274-b0d5-25367bad591d","system_id":"levelo_inurba_marseille","lat":43.27503,"lon":5.42437,"is_reserved":false,"is_disabled":false,"rental_uris":{"android":"levelo://app?vid=42530507-fe16-4274-b0d5-25367bad591d","ios":"levelo://app?vid=42530507-fe16-4274-b0d5-25367bad591d"},"vehicle_type_id":"4","last_reported":1731676725,"current_range_meters":10800,"station_id":"ce4bhn92rcd13ifvqgrg","pricing_plan_id":"cebpf4jnsgd1na2vs0mg"},{"bike_id":"096ace2b-e505-453d-8b01-e6db072e6b64","system_id":"levelo_inurba_marseille","lat":43.27071,"lon":5.42283,"is_reserved":false,"is_disabled":false,"rental_uris":{"android":"levelo://app?vid=096ace2b-e505-453d-8b01-e6db072e6b64","ios":"levelo://app?vid=096ace2b-e505-453d-8b01-e6db072e6b64"},"vehicle_type_id":"4","last_reported":1731676725,"current_range_meters":4400,"station_id":"ce4bhk92rcd13ifvqgb0","pricing_plan_id":"cebpf4jnsgd1na2vs0mg"},{"bike_id":"0171ef7d-fb0d-47c1-87c0-c9702427d369","system_id":"levelo_inurba_marseille","lat":43.28612,"lon":5.35106,"is_reserved":false,"is_disabled":false,"rental_uris":{"android":"levelo://app?vid=0171ef7d-fb0d-47c1-87c0-c9702427d369","ios":"levelo://app?vid=0171ef7d-fb0d-47c1-87c0-c9702427d369"},"vehicle_type_id":"4","last_reported":1731676725,"current_range_meters":23200,"station_id":"ce4bhch2rcd13ifvqeug","pricing_plan_id":"cebpf4jnsgd1na2vs0mg"},{"bike_id":"c974cc8b-299b-4d52-81c8-4e50a91b9225","system_id":"levelo_inurba_marseille","lat":43.33745,"lon":5.37487,"is_reserved":false,"is_disabled":false,"rental_uris":{"android":"levelo://app?vid=c974cc8b-299b-4d52-81c8-4e50a91b9225","ios":"levelo://app?vid=c974cc8b-299b-4d52-81c8-4e50a91b9225"},"vehicle_type_id":"4","last_reported":1731676725,"current_range_meters":38800,"station_id":"","pricing_plan_id":"cebpf4jnsgd1na2vs0mg"},{"bike_id":"f86a601e-26e3-440e-a7e5-894f75bad9f4","system_id":"levelo_inurba_marseille","lat":43.337444,"lon":5.374475,"is_reserved":false,"is_disabled":false,"rental_uris":{"android":"levelo://app?vid=f86a601e-26e3-440e-a7e5-894f75bad9f4","ios":"levelo://app?vid=f86a601e-26e3-440e-a7e5-894f75bad9f4"},"vehicle_type_id":"4","last_reported":1731676725,"current_range_meters":23200,"station_id":"","pricing_plan_id":"cebpf4jnsgd1na2vs0mg"},{"bike_id":"1eb97dbf-5446-4ab0-b07f-9456d20ddc92","system_id":"levelo_inurba_marseille","lat":43.28408,"lon":5.34989,"is_reserved":false,"is_disabled":false,"rental_uris":{"android":"levelo://app?vid=1eb97dbf-5446-4ab0-b07f-9456d20ddc92","ios":"levelo://app?vid=1eb97dbf-5446-4ab0-b07f-9456d20ddc92"},"vehicle_type_id":"4","last_reported":1731676725,"current_range_meters":19600,"station_id":"ce4bhbh2rcd13ifvqepg","pricing_plan_id":"cebpf4jnsgd1na2vs0mg"},{"bike_id":"b2a2d94f-736c-466c-8c56-d1af380a6a7f","system_id":"levelo_inurba_marseille","lat":43.26555,"lon":5.37299,"is_reserved":false,"is_disabled":false,"rental_uris":{"android":"levelo://app?vid=b2a2d94f-736c-466c-8c56-d1af380a6a7f","ios":"levelo://app?vid=b2a2d94f-736c-466c-8c56-d1af380a6a7f"},"vehicle_type_id":"4","last_reported":1731676725,"current_range_meters":32400,"station_id":"ce4bhg12rcd13ifvqf70","pricing_plan_id":"cebpf4jnsgd1na2vs0mg"},{"bike_id":"e3e7f596-49f6-4e7d-8b29-7ca5efd9dde3","system_id":"levelo_inurba_marseille","lat":43.24073,"lon":5.37766,"is_reserved":false,"is_disabled":false,"rental_uris":{"android":"levelo://app?vid=e3e7f596-49f6-4e7d-8b29-7ca5efd9dde3","ios":"levelo://app?vid=e3e7f596-49f6-4e7d-8b29-7ca5efd9dde3"},"vehicle_type_id":"4","last_reported":1731676725,"current_range_meters":9600,"station_id":"ce4bhnp2rcd13ifvqgvg","pricing_plan_id":"cebpf4jnsgd1na2vs0mg"},{"bike_id":"1636156c-cecd-4e4c-86d9-d0c9f055e76e","system_id":"levelo_inurba_marseille","lat":43.29796,"lon":5.38119,"is_reserved":false,"is_disabled":false,"rental_uris":{"android":"levelo://app?vid=1636156c-cecd-4e4c-86d9-d0c9f055e76e","ios":"levelo://app?vid=1636156c-cecd-4e4c-86d9-d0c9f055e76e"},"vehicle_type_id":"4","last_reported":1731676725,"current_range_meters":28800,"station_id":"ce4bgip2rcd13ifvqbb0","pricing_plan_id":"cebpf4jnsgd1na2vs0mg"},{"bike_id":"f891d33c-7bdf-4346-ae45-18fb1b5899f5","system_id":"levelo_inurba_marseille","lat":43.298,"lon":5.38113,"is_reserved":false,"is_disabled":false,"rental_uris":{"android":"levelo://app?vid=f891d33c-7bdf-4346-ae45-18fb1b5899f5","ios":"levelo://app?vid=f891d33c-7bdf-4346-ae45-18fb1b5899f5"},"vehicle_type_id":"4","last_reported":1731676725,"current_range_meters":18800,"station_id":"ce4bgip2rcd13ifvqbb0","pricing_plan_id":"cebpf4jnsgd1na2vs0mg"},{"bike_id":"fa6bbd19-a7be-49d4-a03c-c6c6b2c81da7","system_id":"levelo_inurba_marseille","lat":43.28461,"lon":5.35899,"is_reserved":false,"is_disabled":false,"rental_uris":{"android":"levelo://app?vid=fa6bbd19-a7be-49d4-a03c-c6c6b2c81da7","ios":"levelo://app?vid=fa6bbd19-a7be-49d4-a03c-c6c6b2c81da7"},"vehicle_type_id":"4","last_reported":1731676725,"current_range_meters":2000,"station_id":"ce4bhah2rcd13ifvqei0","pricing_plan_id":"cebpf4jnsgd1na2vs0mg"},{"bike_id":"d0f6f75c-4490-4a54-be6f-c8cc30a85fb2","system_id":"levelo_inurba_marseille","lat":43.33765,"lon":5.37444,"is_reserved":false,"is_disabled":false,"rental_uris":{"android":"levelo://app?vid=d0f6f75c-4490-4a54-be6f-c8cc30a85fb2","ios":"levelo://app?vid=d0f6f75c-4490-4a54-be6f-c8cc30a85fb2"},"vehicle_type_id":"4","last_reported":1731676725,"current_range_meters":33200,"station_id":"","pricing_plan_id":"cebpf4jnsgd1na2vs0mg"},{"bike_id":"d3240d15-a980-4dfd-83cf-6a9eb47f9619","system_id":"levelo_inurba_marseille","lat":43.25868,"lon":5.39901,"is_reserved":false,"is_disabled":false,"rental_uris":{"android":"levelo://app?vid=d3240d15-a980-4dfd-83cf-6a9eb47f9619","ios":"levelo://app?vid=d3240d15-a980-4dfd-83cf-6a9eb47f9619"},"vehicle_type_id":"4","last_reported":1731676725,"current_range_meters":24000,"station_id":"ce4bhl92rcd13ifvqghg","pricing_plan_id":"cebpf4jnsgd1na2vs0mg"},{"bike_id":"beba84cd-a5b5-41ab-bcae-36dc23dca579","system_id":"levelo_inurba_marseille","lat":43.25869,"lon":5.39896,"is_reserved":false,"is_disabled":false,"rental_uris":{"android":"levelo://app?vid=beba84cd-a5b5-41ab-bcae-36dc23dca579","ios":"levelo://app?vid=beba84cd-a5b5-41ab-bcae-36dc23dca579"},"vehicle_type_id":"4","last_reported":1731676725,"current_range_meters":4400,"station_id":"ce4bhl92rcd13ifvqghg","pricing_plan_id":"cebpf4jnsgd1na2vs0mg"},{"bike_id":"7548fad3-ed47-43cc-9cb4-b35a8bf078bb","system_id":"levelo_inurba_marseille","lat":43.24079,"lon":5.37751,"is_reserved":false,"is_disabled":false,"rental_uris":{"android":"levelo://app?vid=7548fad3-ed47-43cc-9cb4-b35a8bf078bb","ios":"levelo://app?vid=7548fad3-ed47-43cc-9cb4-b35a8bf078bb"},"vehicle_type_id":"4","last_reported":1731676725,"current_range_meters":38800,"station_id":"ce4bhnp2rcd13ifvqgvg","pricing_plan_id":"cebpf4jnsgd1na2vs0mg"},{"bike_id":"1cd41f91-8b69-4013-be00-faaee12d2361","system_id":"levelo_inurba_marseille","lat":43.29266,"lon":5.38447,"is_reserved":false,"is_disabled":false,"rental_uris":{"android":"levelo://app?vid=1cd41f91-8b69-4013-be00-faaee12d2361","ios":"levelo://app?vid=1cd41f91-8b69-4013-be00-faaee12d2361"},"vehicle_type_id":"4","last_reported":1731676725,"current_range_meters":36000,"station_id":"ce4bh692rcd13ifvqea0","pricing_plan_id":"cebpf4jnsgd1na2vs0mg"},{"bike_id":"279d2b67-048f-4ec1-8617-30db9e481e7e","system_id":"levelo_inurba_marseille","lat":43.30902,"lon":5.37191,"is_reserved":false,"is_disabled":false,"rental_uris":{"android":"levelo://app?vid=279d2b67-048f-4ec1-8617-30db9e481e7e","ios":"levelo://app?vid=279d2b67-048f-4ec1-8617-30db9e481e7e"},"vehicle_type_id":"4","last_reported":1731676725,"current_range_meters":36800,"station_id":"ce4bguh2rcd13ifvqckg","pricing_plan_id":"cebpf4jnsgd1na2vs0mg"},{"bike_id":"be143330-401b-45ae-ae28-86d360141455","system_id":"levelo_inurba_marseille","lat":43.2894,"lon":5.36637,"is_reserved":false,"is_disabled":false,"rental_uris":{"android":"levelo://app?vid=be143330-401b-45ae-ae28-86d360141455","ios":"levelo://app?vid=be143330-401b-45ae-ae28-86d360141455"},"vehicle_type_id":"4","last_reported":1731676725,"current_range_meters":14400,"station_id":"ce4bhap2rcd13ifvqek0","pricing_plan_id":"cebpf4jnsgd1na2vs0mg"},{"bike_id":"b0b76e5c-b704-4328-bd3b-69fd2b68fc25","system_id":"levelo_inurba_marseille","lat":43.32543,"lon":5.41427,"is_reserved":false,"is_disabled":false,"rental_uris":{"android":"levelo://app?vid=b0b76e5c-b704-4328-bd3b-69fd2b68fc25","ios":"levelo://app?vid=b0b76e5c-b704-4328-bd3b-69fd2b68fc25"},"vehicle_type_id":"4","last_reported":1731676725,"current_range_meters":12000,"station_id":"ce4bhq12rcd13ifvqhhg","pricing_plan_id":"cebpf4jnsgd1na2vs0mg"},{"bike_id":"edb0828f-6657-46bf-b880-771737fdbf49","system_id":"levelo_inurba_marseille","lat":43.30175,"lon":5.36616,"is_reserved":false,"is_disabled":false,"rental_uris":{"android":"levelo://app?vid=edb0828f-6657-46bf-b880-771737fdbf49","ios":"levelo://app?vid=edb0828f-6657-46bf-b880-771737fdbf49"},"vehicle_type_id":"4","last_reported":1731676725,"current_range_meters":32000,"station_id":"ce4bgrh2rcd13ifvqc8g","pricing_plan_id":"cebpf4jnsgd1na2vs0mg"},{"bike_id":"7798529d-2492-453f-aa2b-08e54393688a","system_id":"levelo_inurba_marseille","lat":43.273201,"lon":5.390729,"is_reserved":false,"is_disabled":false,"rental_uris":{"android":"levelo://app?vid=7798529d-2492-453f-aa2b-08e54393688a","ios":"levelo://app?vid=7798529d-2492-453f-aa2b-08e54393688a"},"vehicle_type_id":"4","last_reported":1731676725,"current_range_meters":10000,"station_id":"ce4bhgp2rcd13ifvqfe0","pricing_plan_id":"cebpf4jnsgd1na2vs0mg"},{"bike_id":"fd8cd714-32f6-4506-aaf3-6a1148d18faa","system_id":"levelo_inurba_marseille","lat":43.29776,"lon":5.3711,"is_reserved":false,"is_disabled":false,"rental_uris":{"android":"levelo://app?vid=fd8cd714-32f6-4506-aaf3-6a1148d18faa","ios":"levelo://app?vid=fd8cd714-32f6-4506-aaf3-6a1148d18faa"},"vehicle_type_id":"4","last_reported":1731676725,"current_range_meters":12000,"station_id":"ce4bgop2rcd13ifvqc1g","pricing_plan_id":"cebpf4jnsgd1na2vs0mg"},{"bike_id":"c9cfa6e6-e716-4e1c-a953-41465b226ac9","system_id":"levelo_inurba_marseille","lat":43.23965,"lon":5.3663,"is_reserved":false,"is_disabled":false,"rental_uris":{"android":"levelo://app?vid=c9cfa6e6-e716-4e1c-a953-41465b226ac9","ios":"levelo://app?vid=c9cfa6e6-e716-4e1c-a953-41465b226ac9"},"vehicle_type_id":"4","last_reported":1731676725,"current_range_meters":27200,"station_id":"ce4bhi12rcd13ifvqfp0","pricing_plan_id":"cebpf4jnsgd1na2vs0mg"},{"bike_id":"b6f8bd44-7df1-4c6e-8767-80c3a8073b46","system_id":"levelo_inurba_marseille","lat":43.26568,"lon":5.39009,"is_reserved":false,"is_disabled":false,"rental_uris":{"android":"levelo://app?vid=b6f8bd44-7df1-4c6e-8767-80c3a8073b46","ios":"levelo://app?vid=b6f8bd44-7df1-4c6e-8767-80c3a8073b46"},"vehicle_type_id":"4","last_reported":1731676725,"current_range_meters":4400,"station_id":"ce4bhe12rcd13ifvqf30","pricing_plan_id":"cebpf4jnsgd1na2vs0mg"},{"bike_id":"1e8cec2f-8e3b-41d0-b74f-a9e52ce4804f","system_id":"levelo_inurba_marseille","lat":43.30597,"lon":5.39361,"is_reserved":false,"is_disabled":false,"rental_uris":{"android":"levelo://app?vid=1e8cec2f-8e3b-41d0-b74f-a9e52ce4804f","ios":"levelo://app?vid=1e8cec2f-8e3b-41d0-b74f-a9e52ce4804f"},"vehicle_type_id":"4","last_reported":1731676725,"current_range_meters":28400,"station_id":"ce4bh0p2rcd13ifvqd80","pricing_plan_id":"cebpf4jnsgd1na2vs0mg"},{"bike_id":"60346686-846e-43e0-b1f0-095f872d71c2","system_id":"levelo_inurba_marseille","lat":43.337444,"lon":5.374475,"is_reserved":false,"is_disabled":false,"rental_uris":{"android":"levelo://app?vid=60346686-846e-43e0-b1f0-095f872d71c2","ios":"levelo://app?vid=60346686-846e-43e0-b1f0-095f872d71c2"},"vehicle_type_id":"4","last_reported":1731676725,"current_range_meters":38800,"station_id":"","pricing_plan_id":"cebpf4jnsgd1na2vs0mg"},{"bike_id":"efdafcfb-7406-4e4b-9a34-67d4ad42523b","system_id":"levelo_inurba_marseille","lat":43.29184,"lon":5.39325,"is_reserved":false,"is_disabled":false,"rental_uris":{"android":"levelo://app?vid=efdafcfb-7406-4e4b-9a34-67d4ad42523b","ios":"levelo://app?vid=efdafcfb-7406-4e4b-9a34-67d4ad42523b"},"vehicle_type_id":"4","last_reported":1731676725,"current_range_meters":16000,"station_id":"ce4bh192rcd13ifvqdd0","pricing_plan_id":"cebpf4jnsgd1na2vs0mg"},{"bike_id":"98d248a2-65e9-45e6-a0e5-ded316c191c1","system_id":"levelo_inurba_marseille","lat":43.2438,"lon":5.37101,"is_reserved":false,"is_disabled":false,"rental_uris":{"android":"levelo://app?vid=98d248a2-65e9-45e6-a0e5-ded316c191c1","ios":"levelo://app?vid=98d248a2-65e9-45e6-a0e5-ded316c191c1"},"vehicle_type_id":"4","last_reported":1731676725,"current_range_meters":39200,"station_id":"ce4bhhh2rcd13ifvqfk0","pricing_plan_id":"cebpf4jnsgd1na2vs0mg"},{"bike_id":"06f3008b-54eb-4cd9-a99e-80726f919a5e","system_id":"levelo_inurba_marseille","lat":43.28567,"lon":5.39501,"is_reserved":false,"is_disabled":false,"rental_uris":{"android":"levelo://app?vid=06f3008b-54eb-4cd9-a99e-80726f919a5e","ios":"levelo://app?vid=06f3008b-54eb-4cd9-a99e-80726f919a5e"},"vehicle_type_id":"4","last_reported":1731676725,"current_range_meters":17200,"station_id":"ce4bh292rcd13ifvqdg0","pricing_plan_id":"cebpf4jnsgd1na2vs0mg"},{"bike_id":"92e3ad17-17c9-4714-a148-ef9436ad6113","system_id":"levelo_inurba_marseille","lat":43.22934,"lon":5.35388,"is_reserved":false,"is_disabled":false,"rental_uris":{"android":"levelo://app?vid=92e3ad17-17c9-4714-a148-ef9436ad6113","ios":"levelo://app?vid=92e3ad17-17c9-4714-a148-ef9436ad6113"},"vehicle_type_id":"4","last_reported":1731676725,"current_range_meters":38800,"station_id":"cpo3532slgdg3j2ikp40","pricing_plan_id":"cebpf4jnsgd1na2vs0mg"},{"bike_id":"5326c5f8-bba7-40e6-bfc7-8e986a3bddf3","system_id":"levelo_inurba_marseille","lat":43.31036,"lon":5.3746,"is_reserved":false,"is_disabled":false,"rental_uris":{"android":"levelo://app?vid=5326c5f8-bba7-40e6-bfc7-8e986a3bddf3","ios":"levelo://app?vid=5326c5f8-bba7-40e6-bfc7-8e986a3bddf3"},"vehicle_type_id":"4","last_reported":1731676725,"current_range_meters":22800,"station_id":"ce4bgt12rcd13ifvqcd0","pricing_plan_id":"cebpf4jnsgd1na2vs0mg"},{"bike_id":"ba0f8a3a-206a-4321-a10c-9f857fbbf60f","system_id":"levelo_inurba_marseille","lat":43.23154,"lon":5.43713,"is_reserved":false,"is_disabled":false,"rental_uris":{"android":"levelo://app?vid=ba0f8a3a-206a-4321-a10c-9f857fbbf60f","ios":"levelo://app?vid=ba0f8a3a-206a-4321-a10c-9f857fbbf60f"},"vehicle_type_id":"4","last_reported":1731676725,"current_range_meters":38800,"station_id":"ce4bhmp2rcd13ifvqgog","pricing_plan_id":"cebpf4jnsgd1na2vs0mg"},{"bike_id":"53d7bcd3-9b91-45ae-a329-82890c3251d9","system_id":"levelo_inurba_marseille","lat":43.26678,"lon":5.38267,"is_reserved":false,"is_disabled":false,"rental_uris":{"android":"levelo://app?vid=53d7bcd3-9b91-45ae-a329-82890c3251d9","ios":"levelo://app?vid=53d7bcd3-9b91-45ae-a329-82890c3251d9"},"vehicle_type_id":"4","last_reported":1731676725,"current_range_meters":10000,"station_id":"ce4bhg92rcd13ifvqf90","pricing_plan_id":"cebpf4jnsgd1na2vs0mg"},{"bike_id":"73e0cdd4-dbed-44e9-8f18-f00dd137c24e","system_id":"levelo_inurba_marseille","lat":43.24166,"lon":5.36397,"is_reserved":false,"is_disabled":false,"rental_uris":{"android":"levelo://app?vid=73e0cdd4-dbed-44e9-8f18-f00dd137c24e","ios":"levelo://app?vid=73e0cdd4-dbed-44e9-8f18-f00dd137c24e"},"vehicle_type_id":"4","last_reported":1731676725,"current_range_meters":8000,"station_id":"cpo36qri1sfpv3e86is0","pricing_plan_id":"cebpf4jnsgd1na2vs0mg"},{"bike_id":"881eacb7-0ffc-4171-9405-9084fa6720be","system_id":"levelo_inurba_marseille","lat":43.30538,"lon":5.36526,"is_reserved":false,"is_disabled":false,"rental_uris":{"android":"levelo://app?vid=881eacb7-0ffc-4171-9405-9084fa6720be","ios":"levelo://app?vid=881eacb7-0ffc-4171-9405-9084fa6720be"},"vehicle_type_id":"4","last_reported":1731676725,"current_range_meters":30000,"station_id":"ce4bgs12rcd13ifvqcag","pricing_plan_id":"cebpf4jnsgd1na2vs0mg"},{"bike_id":"7946c576-3cb6-4409-a0c0-d2f9b2c2fa76","system_id":"levelo_inurba_marseille","lat":43.309459,"lon":5.390211,"is_reserved":false,"is_disabled":false,"rental_uris":{"android":"levelo://app?vid=7946c576-3cb6-4409-a0c0-d2f9b2c2fa76","ios":"levelo://app?vid=7946c576-3cb6-4409-a0c0-d2f9b2c2fa76"},"vehicle_type_id":"4","last_reported":1731676725,"current_range_meters":34000,"station_id":"ce4bgup2rcd13ifvqco0","pricing_plan_id":"cebpf4jnsgd1na2vs0mg"},{"bike_id":"1396c9db-7da6-4ee5-ab19-d607f15e9a73","system_id":"levelo_inurba_marseille","lat":43.26788,"lon":5.39416,"is_reserved":false,"is_disabled":false,"rental_uris":{"android":"levelo://app?vid=1396c9db-7da6-4ee5-ab19-d607f15e9a73","ios":"levelo://app?vid=1396c9db-7da6-4ee5-ab19-d607f15e9a73"},"vehicle_type_id":"4","last_reported":1731676725,"current_range_meters":28400,"station_id":"ce4bhh12rcd13ifvqfg0","pricing_plan_id":"cebpf4jnsgd1na2vs0mg"},{"bike_id":"193ef4a0-958b-4f93-b34e-5c05737917f0","system_id":"levelo_inurba_marseille","lat":43.23192,"lon":5.35554,"is_reserved":false,"is_disabled":false,"rental_uris":{"android":"levelo://app?vid=193ef4a0-958b-4f93-b34e-5c05737917f0","ios":"levelo://app?vid=193ef4a0-958b-4f93-b34e-5c05737917f0"},"vehicle_type_id":"4","last_reported":1731676725,"current_range_meters":21600,"station_id":"ce4bhu92rcd13ifvqi70","pricing_plan_id":"cebpf4jnsgd1na2vs0mg"},{"bike_id":"f958f471-cf92-436a-bc8d-8e57613d3090","system_id":"levelo_inurba_marseille","lat":43.2842,"lon":5.34989,"is_reserved":false,"is_disabled":false,"rental_uris":{"android":"levelo://app?vid=f958f471-cf92-436a-bc8d-8e57613d3090","ios":"levelo://app?vid=f958f471-cf92-436a-bc8d-8e57613d3090"},"vehicle_type_id":"4","last_reported":1731676725,"current_range_meters":38800,"station_id":"ce4bhbh2rcd13ifvqepg","pricing_plan_id":"cebpf4jnsgd1na2vs0mg"},{"bike_id":"610b4aa3-e8fc-4e02-84ae-82f027091518","system_id":"levelo_inurba_marseille","lat":43.30116,"lon":5.3985,"is_reserved":false,"is_disabled":false,"rental_uris":{"android":"levelo://app?vid=610b4aa3-e8fc-4e02-84ae-82f027091518","ios":"levelo://app?vid=610b4aa3-e8fc-4e02-84ae-82f027091518"},"vehicle_type_id":"4","last_reported":1731676725,"current_range_meters":4800,"station_id":"ce4bh0h2rcd13ifvqd40","pricing_plan_id":"cebpf4jnsgd1na2vs0mg"},{"bike_id":"1dfd41a3-485d-44d4-aa40-6bb5997a17a4","system_id":"levelo_inurba_marseille","lat":43.26055,"lon":5.39408,"is_reserved":false,"is_disabled":false,"rental_uris":{"android":"levelo://app?vid=1dfd41a3-485d-44d4-aa40-6bb5997a17a4","ios":"levelo://app?vid=1dfd41a3-485d-44d4-aa40-6bb5997a17a4"},"vehicle_type_id":"4","last_reported":1731676725,"current_range_meters":9200,"station_id":"ce4bhh92rcd13ifvqfj0","pricing_plan_id":"cebpf4jnsgd1na2vs0mg"},{"bike_id":"9f2a33b4-0fd8-4b35-a585-96dabc67ff18","system_id":"levelo_inurba_marseille","lat":43.24805,"lon":5.37461,"is_reserved":false,"is_disabled":false,"rental_uris":{"android":"levelo://app?vid=9f2a33b4-0fd8-4b35-a585-96dabc67ff18","ios":"levelo://app?vid=9f2a33b4-0fd8-4b35-a585-96dabc67ff18"},"vehicle_type_id":"4","last_reported":1731676725,"current_range_meters":27600,"station_id":"ce4bhgh2rcd13ifvqfb0","pricing_plan_id":"cebpf4jnsgd1na2vs0mg"},{"bike_id":"53043055-cdb5-43f3-bbc1-444652add9c6","system_id":"levelo_inurba_marseille","lat":43.26069,"lon":5.39399,"is_reserved":false,"is_disabled":false,"rental_uris":{"android":"levelo://app?vid=53043055-cdb5-43f3-bbc1-444652add9c6","ios":"levelo://app?vid=53043055-cdb5-43f3-bbc1-444652add9c6"},"vehicle_type_id":"4","last_reported":1731676725,"current_range_meters":18000,"station_id":"ce4bhh92rcd13ifvqfj0","pricing_plan_id":"cebpf4jnsgd1na2vs0mg"},{"bike_id":"8db07b76-9054-465a-89b4-68d17707961b","system_id":"levelo_inurba_marseille","lat":43.2842,"lon":5.34987,"is_reserved":false,"is_disabled":false,"rental_uris":{"android":"levelo://app?vid=8db07b76-9054-465a-89b4-68d17707961b","ios":"levelo://app?vid=8db07b76-9054-465a-89b4-68d17707961b"},"vehicle_type_id":"4","last_reported":1731676725,"current_range_meters":30800,"station_id":"ce4bhbh2rcd13ifvqepg","pricing_plan_id":"cebpf4jnsgd1na2vs0mg"},{"bike_id":"f022b3fd-a179-4d52-b3f6-c0d05d581c4c","system_id":"levelo_inurba_marseille","lat":43.25583,"lon":5.38235,"is_reserved":false,"is_disabled":false,"rental_uris":{"android":"levelo://app?vid=f022b3fd-a179-4d52-b3f6-c0d05d581c4c","ios":"levelo://app?vid=f022b3fd-a179-4d52-b3f6-c0d05d581c4c"},"vehicle_type_id":"4","last_reported":1731676725,"current_range_meters":24800,"station_id":"ce4bhih2rcd13ifvqfs0","pricing_plan_id":"cebpf4jnsgd1na2vs0mg"},{"bike_id":"7355e674-f0f1-403f-9992-e8b01e892f8f","system_id":"levelo_inurba_marseille","lat":43.26535,"lon":5.395121,"is_reserved":false,"is_disabled":false,"rental_uris":{"android":"levelo://app?vid=7355e674-f0f1-403f-9992-e8b01e892f8f","ios":"levelo://app?vid=7355e674-f0f1-403f-9992-e8b01e892f8f"},"vehicle_type_id":"4","last_reported":1731676725,"current_range_meters":30800,"station_id":"ce4bhi12rcd13ifvqfq0","pricing_plan_id":"cebpf4jnsgd1na2vs0mg"},{"bike_id":"3954dd37-8389-4e48-b138-27e1c188a614","system_id":"levelo_inurba_marseille","lat":43.31241,"lon":5.36891,"is_reserved":false,"is_disabled":false,"rental_uris":{"android":"levelo://app?vid=3954dd37-8389-4e48-b138-27e1c188a614","ios":"levelo://app?vid=3954dd37-8389-4e48-b138-27e1c188a614"},"vehicle_type_id":"4","last_reported":1731676725,"current_range_meters":35200,"station_id":"ce4bgl92rcd13ifvqbq0","pricing_plan_id":"cebpf4jnsgd1na2vs0mg"},{"bike_id":"e4c2c935-523d-4abc-b9a5-4439c72e4be4","system_id":"levelo_inurba_marseille","lat":43.28474,"lon":5.38423,"is_reserved":false,"is_disabled":false,"rental_uris":{"android":"levelo://app?vid=e4c2c935-523d-4abc-b9a5-4439c72e4be4","ios":"levelo://app?vid=e4c2c935-523d-4abc-b9a5-4439c72e4be4"},"vehicle_type_id":"4","last_reported":1731676725,"current_range_meters":38800,"station_id":"ce4bh512rcd13ifvqe3g","pricing_plan_id":"cebpf4jnsgd1na2vs0mg"},{"bike_id":"fd3b21ef-1275-4612-b613-6c6a1f32d4e3","system_id":"levelo_inurba_marseille","lat":43.2993,"lon":5.37483,"is_reserved":false,"is_disabled":false,"rental_uris":{"android":"levelo://app?vid=fd3b21ef-1275-4612-b613-6c6a1f32d4e3","ios":"levelo://app?vid=fd3b21ef-1275-4612-b613-6c6a1f32d4e3"},"vehicle_type_id":"4","last_reported":1731676725,"current_range_meters":39200,"station_id":"ce4bgjh2rcd13ifvqbg0","pricing_plan_id":"cebpf4jnsgd1na2vs0mg"},{"bike_id":"5aee1bf6-a76a-4943-bea3-0ce3b9c9068a","system_id":"levelo_inurba_marseille","lat":43.2695,"lon":5.38641,"is_reserved":false,"is_disabled":false,"rental_uris":{"android":"levelo://app?vid=5aee1bf6-a76a-4943-bea3-0ce3b9c9068a","ios":"levelo://app?vid=5aee1bf6-a76a-4943-bea3-0ce3b9c9068a"},"vehicle_type_id":"4","last_reported":1731676725,"current_range_meters":22000,"station_id":"ce4bhh92rcd13ifvqfh0","pricing_plan_id":"cebpf4jnsgd1na2vs0mg"},{"bike_id":"b47cb991-57c8-4ef2-ba6f-88a50e1a1219","system_id":"levelo_inurba_marseille","lat":43.22935,"lon":5.35378,"is_reserved":false,"is_disabled":false,"rental_uris":{"android":"levelo://app?vid=b47cb991-57c8-4ef2-ba6f-88a50e1a1219","ios":"levelo://app?vid=b47cb991-57c8-4ef2-ba6f-88a50e1a1219"},"vehicle_type_id":"4","last_reported":1731676725,"current_range_meters":36800,"station_id":"cpo3532slgdg3j2ikp40","pricing_plan_id":"cebpf4jnsgd1na2vs0mg"},{"bike_id":"2a54e76e-cd76-4a10-940f-30917d8bcf09","system_id":"levelo_inurba_marseille","lat":43.22936,"lon":5.35371,"is_reserved":false,"is_disabled":false,"rental_uris":{"android":"levelo://app?vid=2a54e76e-cd76-4a10-940f-30917d8bcf09","ios":"levelo://app?vid=2a54e76e-cd76-4a10-940f-30917d8bcf09"},"vehicle_type_id":"4","last_reported":1731676725,"current_range_meters":9600,"station_id":"cpo3532slgdg3j2ikp40","pricing_plan_id":"cebpf4jnsgd1na2vs0mg"},{"bike_id":"40e157a7-3519-4e35-81ac-9efc89d111cb","system_id":"levelo_inurba_marseille","lat":43.27895,"lon":5.3801,"is_reserved":false,"is_disabled":false,"rental_uris":{"android":"levelo://app?vid=40e157a7-3519-4e35-81ac-9efc89d111cb","ios":"levelo://app?vid=40e157a7-3519-4e35-81ac-9efc89d111cb"},"vehicle_type_id":"4","last_reported":1731676725,"current_range_meters":32400,"station_id":"ce4bhf92rcd13ifvqf50","pricing_plan_id":"cebpf4jnsgd1na2vs0mg"},{"bike_id":"7786afe7-e9bc-4849-86dc-37f93f066f42","system_id":"levelo_inurba_marseille","lat":43.2956,"lon":5.39979,"is_reserved":false,"is_disabled":false,"rental_uris":{"android":"levelo://app?vid=7786afe7-e9bc-4849-86dc-37f93f066f42","ios":"levelo://app?vid=7786afe7-e9bc-4849-86dc-37f93f066f42"},"vehicle_type_id":"4","last_reported":1731676725,"current_range_meters":28400,"station_id":"ce4bh312rcd13ifvqdj0","pricing_plan_id":"cebpf4jnsgd1na2vs0mg"},{"bike_id":"add09707-c9a0-4879-8548-6fd5d03b7d81","system_id":"levelo_inurba_marseille","lat":43.28669,"lon":5.38665,"is_reserved":false,"is_disabled":false,"rental_uris":{"android":"levelo://app?vid=add09707-c9a0-4879-8548-6fd5d03b7d81","ios":"levelo://app?vid=add09707-c9a0-4879-8548-6fd5d03b7d81"},"vehicle_type_id":"4","last_reported":1731676725,"current_range_meters":38800,"station_id":"ce4bh492rcd13ifvqdug","pricing_plan_id":"cebpf4jnsgd1na2vs0mg"},{"bike_id":"76fda271-4bcd-4529-8397-8074a1eff7fe","system_id":"levelo_inurba_marseille","lat":43.337444,"lon":5.374475,"is_reserved":false,"is_disabled":false,"rental_uris":{"android":"levelo://app?vid=76fda271-4bcd-4529-8397-8074a1eff7fe","ios":"levelo://app?vid=76fda271-4bcd-4529-8397-8074a1eff7fe"},"vehicle_type_id":"4","last_reported":1731676725,"current_range_meters":38000,"station_id":"","pricing_plan_id":"cebpf4jnsgd1na2vs0mg"},{"bike_id":"bef7ca68-0ccd-456c-a245-4471193ed987","system_id":"levelo_inurba_marseille","lat":43.26059,"lon":5.39393,"is_reserved":false,"is_disabled":false,"rental_uris":{"android":"levelo://app?vid=bef7ca68-0ccd-456c-a245-4471193ed987","ios":"levelo://app?vid=bef7ca68-0ccd-456c-a245-4471193ed987"},"vehicle_type_id":"4","last_reported":1731676725,"current_range_meters":38800,"station_id":"ce4bhh92rcd13ifvqfj0","pricing_plan_id":"cebpf4jnsgd1na2vs0mg"},{"bike_id":"7125cda5-6cac-4f0d-b24c-2d801b2955b5","system_id":"levelo_inurba_marseille","lat":43.231859,"lon":5.399764,"is_reserved":false,"is_disabled":false,"rental_uris":{"android":"levelo://app?vid=7125cda5-6cac-4f0d-b24c-2d801b2955b5","ios":"levelo://app?vid=7125cda5-6cac-4f0d-b24c-2d801b2955b5"},"vehicle_type_id":"4","last_reported":1731676725,"current_range_meters":39200,"station_id":"ce4bhn12rcd13ifvqgqg","pricing_plan_id":"cebpf4jnsgd1na2vs0mg"},{"bike_id":"fc04c45e-2438-445b-be4f-fe14e5ab307f","system_id":"levelo_inurba_marseille","lat":43.2992,"lon":5.37502,"is_reserved":false,"is_disabled":false,"rental_uris":{"android":"levelo://app?vid=fc04c45e-2438-445b-be4f-fe14e5ab307f","ios":"levelo://app?vid=fc04c45e-2438-445b-be4f-fe14e5ab307f"},"vehicle_type_id":"4","last_reported":1731676725,"current_range_meters":12000,"station_id":"ce4bgjh2rcd13ifvqbg0","pricing_plan_id":"cebpf4jnsgd1na2vs0mg"},{"bike_id":"a4a99544-0271-463f-902a-e21b24cc5317","system_id":"levelo_inurba_marseille","lat":43.29861,"lon":5.39753,"is_reserved":false,"is_disabled":false,"rental_uris":{"android":"levelo://app?vid=a4a99544-0271-463f-902a-e21b24cc5317","ios":"levelo://app?vid=a4a99544-0271-463f-902a-e21b24cc5317"},"vehicle_type_id":"4","last_reported":1731676725,"current_range_meters":9200,"station_id":"ce4bh0h2rcd13ifvqd50","pricing_plan_id":"cebpf4jnsgd1na2vs0mg"},{"bike_id":"f98f703a-7297-4648-848e-71fd34cf5ae1","system_id":"levelo_inurba_marseille","lat":43.3107,"lon":5.38356,"is_reserved":false,"is_disabled":false,"rental_uris":{"android":"levelo://app?vid=f98f703a-7297-4648-848e-71fd34cf5ae1","ios":"levelo://app?vid=f98f703a-7297-4648-848e-71fd34cf5ae1"},"vehicle_type_id":"4","last_reported":1731676725,"current_range_meters":17200,"station_id":"ce4bgv92rcd13ifvqcr0","pricing_plan_id":"cebpf4jnsgd1na2vs0mg"},{"bike_id":"1626a742-2f59-4293-aa55-b7fc53058e3e","system_id":"levelo_inurba_marseille","lat":43.28727,"lon":5.35211,"is_reserved":false,"is_disabled":false,"rental_uris":{"android":"levelo://app?vid=1626a742-2f59-4293-aa55-b7fc53058e3e","ios":"levelo://app?vid=1626a742-2f59-4293-aa55-b7fc53058e3e"},"vehicle_type_id":"4","last_reported":1731676725,"current_range_meters":13600,"station_id":"ce4bh0h2rcd13ifvqd50","pricing_plan_id":"cebpf4jnsgd1na2vs0mg"},{"bike_id":"f710546f-2098-4f83-8e7a-6cc06384a317","system_id":"levelo_inurba_marseille","lat":43.23149,"lon":5.4372,"is_reserved":false,"is_disabled":false,"rental_uris":{"android":"levelo://app?vid=f710546f-2098-4f83-8e7a-6cc06384a317","ios":"levelo://app?vid=f710546f-2098-4f83-8e7a-6cc06384a317"},"vehicle_type_id":"4","last_reported":1731676725,"current_range_meters":33600,"station_id":"ce4bhmp2rcd13ifvqgog","pricing_plan_id":"cebpf4jnsgd1na2vs0mg"},{"bike_id":"6d757fef-4f26-43f9-ac2c-ffab39bf7dae","system_id":"levelo_inurba_marseille","lat":43.32249,"lon":5.36901,"is_reserved":false,"is_disabled":false,"rental_uris":{"android":"levelo://app?vid=6d757fef-4f26-43f9-ac2c-ffab39bf7dae","ios":"levelo://app?vid=6d757fef-4f26-43f9-ac2c-ffab39bf7dae"},"vehicle_type_id":"4","last_reported":1731676725,"current_range_meters":24400,"station_id":"","pricing_plan_id":"cebpf4jnsgd1na2vs0mg"},{"bike_id":"b8f61d72-c92a-47a9-abde-ccc3639fd93e","system_id":"levelo_inurba_marseille","lat":43.248688,"lon":5.426766,"is_reserved":false,"is_disabled":false,"rental_uris":{"android":"levelo://app?vid=b8f61d72-c92a-47a9-abde-ccc3639fd93e","ios":"levelo://app?vid=b8f61d72-c92a-47a9-abde-ccc3639fd93e"},"vehicle_type_id":"4","last_reported":1731676725,"current_range_meters":28400,"station_id":"","pricing_plan_id":"cebpf4jnsgd1na2vs0mg"},{"bike_id":"f3975e9a-c0f8-472c-a99d-658eaabc3976","system_id":"levelo_inurba_marseille","lat":43.26559,"lon":5.37285,"is_reserved":false,"is_disabled":false,"rental_uris":{"android":"levelo://app?vid=f3975e9a-c0f8-472c-a99d-658eaabc3976","ios":"levelo://app?vid=f3975e9a-c0f8-472c-a99d-658eaabc3976"},"vehicle_type_id":"4","last_reported":1731676725,"current_range_meters":34000,"station_id":"ce4bhg12rcd13ifvqf70","pricing_plan_id":"cebpf4jnsgd1na2vs0mg"},{"bike_id":"2ebc919b-91fa-451d-aa51-bfed6b644219","system_id":"levelo_inurba_marseille","lat":43.23146,"lon":5.43732,"is_reserved":false,"is_disabled":false,"rental_uris":{"android":"levelo://app?vid=2ebc919b-91fa-451d-aa51-bfed6b644219","ios":"levelo://app?vid=2ebc919b-91fa-451d-aa51-bfed6b644219"},"vehicle_type_id":"4","last_reported":1731676725,"current_range_meters":39200,"station_id":"ce4bhmp2rcd13ifvqgog","pricing_plan_id":"cebpf4jnsgd1na2vs0mg"},{"bike_id":"eedc3573-d97e-4cf3-9883-e860b4b8970e","system_id":"levelo_inurba_marseille","lat":43.28482,"lon":5.38539,"is_reserved":false,"is_disabled":false,"rental_uris":{"android":"levelo://app?vid=eedc3573-d97e-4cf3-9883-e860b4b8970e","ios":"levelo://app?vid=eedc3573-d97e-4cf3-9883-e860b4b8970e"},"vehicle_type_id":"4","last_reported":1731676725,"current_range_meters":38800,"station_id":"ce4bh8p2rcd13ifvqeb0","pricing_plan_id":"cebpf4jnsgd1na2vs0mg"},{"bike_id":"96558a29-717f-4bbb-b58e-8cdcb4a8ffbb","system_id":"levelo_inurba_marseille","lat":43.23182,"lon":5.39978,"is_reserved":false,"is_disabled":false,"rental_uris":{"android":"levelo://app?vid=96558a29-717f-4bbb-b58e-8cdcb4a8ffbb","ios":"levelo://app?vid=96558a29-717f-4bbb-b58e-8cdcb4a8ffbb"},"vehicle_type_id":"4","last_reported":1731676725,"current_range_meters":6400,"station_id":"ce4bhn12rcd13ifvqgqg","pricing_plan_id":"cebpf4jnsgd1na2vs0mg"},{"bike_id":"e9368c9b-6a29-4553-bab1-b23f0054b982","system_id":"levelo_inurba_marseille","lat":43.2407,"lon":5.37764,"is_reserved":false,"is_disabled":false,"rental_uris":{"android":"levelo://app?vid=e9368c9b-6a29-4553-bab1-b23f0054b982","ios":"levelo://app?vid=e9368c9b-6a29-4553-bab1-b23f0054b982"},"vehicle_type_id":"4","last_reported":1731676725,"current_range_meters":36000,"station_id":"ce4bhnp2rcd13ifvqgvg","pricing_plan_id":"cebpf4jnsgd1na2vs0mg"},{"bike_id":"923e2328-a70b-4e54-9d70-99ab02e03371","system_id":"levelo_inurba_marseille","lat":43.30549,"lon":5.36714,"is_reserved":false,"is_disabled":false,"rental_uris":{"android":"levelo://app?vid=923e2328-a70b-4e54-9d70-99ab02e03371","ios":"levelo://app?vid=923e2328-a70b-4e54-9d70-99ab02e03371"},"vehicle_type_id":"4","last_reported":1731676725,"current_range_meters":30800,"station_id":"ce4bgrp2rcd13ifvqc9g","pricing_plan_id":"cebpf4jnsgd1na2vs0mg"},{"bike_id":"858c964c-9286-411e-b21e-219d3e432e38","system_id":"levelo_inurba_marseille","lat":43.30902,"lon":5.36858,"is_reserved":false,"is_disabled":false,"rental_uris":{"android":"levelo://app?vid=858c964c-9286-411e-b21e-219d3e432e38","ios":"levelo://app?vid=858c964c-9286-411e-b21e-219d3e432e38"},"vehicle_type_id":"4","last_reported":1731676725,"current_range_meters":38800,"station_id":"ce4bgn92rcd13ifvqbvg","pricing_plan_id":"cebpf4jnsgd1na2vs0mg"},{"bike_id":"b38e639e-d12e-457c-9da2-11763fd88d86","system_id":"levelo_inurba_marseille","lat":43.24663,"lon":5.38166,"is_reserved":false,"is_disabled":false,"rental_uris":{"android":"levelo://app?vid=b38e639e-d12e-457c-9da2-11763fd88d86","ios":"levelo://app?vid=b38e639e-d12e-457c-9da2-11763fd88d86"},"vehicle_type_id":"4","last_reported":1731676725,"current_range_meters":26000,"station_id":"ce4bhih2rcd13ifvqfr0","pricing_plan_id":"cebpf4jnsgd1na2vs0mg"},{"bike_id":"a1214a2f-2564-4ba7-9d72-e9651e0a33a8","system_id":"levelo_inurba_marseille","lat":43.24069,"lon":5.37767,"is_reserved":false,"is_disabled":false,"rental_uris":{"android":"levelo://app?vid=a1214a2f-2564-4ba7-9d72-e9651e0a33a8","ios":"levelo://app?vid=a1214a2f-2564-4ba7-9d72-e9651e0a33a8"},"vehicle_type_id":"4","last_reported":1731676725,"current_range_meters":25600,"station_id":"ce4bhnp2rcd13ifvqgvg","pricing_plan_id":"cebpf4jnsgd1na2vs0mg"},{"bike_id":"37a22fc0-d25c-4606-a88d-953e5d774d37","system_id":"levelo_inurba_marseille","lat":43.2439,"lon":5.37061,"is_reserved":false,"is_disabled":false,"rental_uris":{"android":"levelo://app?vid=37a22fc0-d25c-4606-a88d-953e5d774d37","ios":"levelo://app?vid=37a22fc0-d25c-4606-a88d-953e5d774d37"},"vehicle_type_id":"4","last_reported":1731676725,"current_range_meters":14800,"station_id":"ce4bhhh2rcd13ifvqfk0","pricing_plan_id":"cebpf4jnsgd1na2vs0mg"},{"bike_id":"f8116ae0-69b4-4329-a9e1-83882f19e84e","system_id":"levelo_inurba_marseille","lat":43.30174,"lon":5.36636,"is_reserved":false,"is_disabled":false,"rental_uris":{"android":"levelo://app?vid=f8116ae0-69b4-4329-a9e1-83882f19e84e","ios":"levelo://app?vid=f8116ae0-69b4-4329-a9e1-83882f19e84e"},"vehicle_type_id":"4","last_reported":1731676725,"current_range_meters":8800,"station_id":"ce4bgrh2rcd13ifvqc8g","pricing_plan_id":"cebpf4jnsgd1na2vs0mg"},{"bike_id":"65cb16e2-a473-46d4-aca7-b87538c2057b","system_id":"levelo_inurba_marseille","lat":43.23186,"lon":5.39981,"is_reserved":false,"is_disabled":false,"rental_uris":{"android":"levelo://app?vid=65cb16e2-a473-46d4-aca7-b87538c2057b","ios":"levelo://app?vid=65cb16e2-a473-46d4-aca7-b87538c2057b"},"vehicle_type_id":"4","last_reported":1731676725,"current_range_meters":35200,"station_id":"ce4bhn12rcd13ifvqgqg","pricing_plan_id":"cebpf4jnsgd1na2vs0mg"},{"bike_id":"b07b2adb-ace8-4d85-971b-0d0c6aa942cc","system_id":"levelo_inurba_marseille","lat":43.30905,"lon":5.36864,"is_reserved":false,"is_disabled":false,"rental_uris":{"android":"levelo://app?vid=b07b2adb-ace8-4d85-971b-0d0c6aa942cc","ios":"levelo://app?vid=b07b2adb-ace8-4d85-971b-0d0c6aa942cc"},"vehicle_type_id":"4","last_reported":1731676725,"current_range_meters":5600,"station_id":"ce4bgn92rcd13ifvqbvg","pricing_plan_id":"cebpf4jnsgd1na2vs0mg"},{"bike_id":"db9eb11d-1019-4a46-b3a1-995a3a298f26","system_id":"levelo_inurba_marseille","lat":43.27495,"lon":5.42449,"is_reserved":false,"is_disabled":false,"rental_uris":{"android":"levelo://app?vid=db9eb11d-1019-4a46-b3a1-995a3a298f26","ios":"levelo://app?vid=db9eb11d-1019-4a46-b3a1-995a3a298f26"},"vehicle_type_id":"4","last_reported":1731676725,"current_range_meters":18800,"station_id":"ce4bhn92rcd13ifvqgrg","pricing_plan_id":"cebpf4jnsgd1na2vs0mg"},{"bike_id":"501fb595-0f9a-4e22-b5b9-96be110b36dc","system_id":"levelo_inurba_marseille","lat":43.30542,"lon":5.36713,"is_reserved":false,"is_disabled":false,"rental_uris":{"android":"levelo://app?vid=501fb595-0f9a-4e22-b5b9-96be110b36dc","ios":"levelo://app?vid=501fb595-0f9a-4e22-b5b9-96be110b36dc"},"vehicle_type_id":"4","last_reported":1731676725,"current_range_meters":28000,"station_id":"ce4bgrp2rcd13ifvqc9g","pricing_plan_id":"cebpf4jnsgd1na2vs0mg"},{"bike_id":"7dd5e351-cf68-404a-9dff-d4564317cd28","system_id":"levelo_inurba_marseille","lat":43.24546,"lon":5.39526,"is_reserved":false,"is_disabled":false,"rental_uris":{"android":"levelo://app?vid=7dd5e351-cf68-404a-9dff-d4564317cd28","ios":"levelo://app?vid=7dd5e351-cf68-404a-9dff-d4564317cd28"},"vehicle_type_id":"4","last_reported":1731676725,"current_range_meters":7200,"station_id":"ce4bhlp2rcd13ifvqgjg","pricing_plan_id":"cebpf4jnsgd1na2vs0mg"},{"bike_id":"ec5a80aa-659d-4326-af34-6a40814ccfb7","system_id":"levelo_inurba_marseille","lat":43.29938,"lon":5.36562,"is_reserved":false,"is_disabled":false,"rental_uris":{"android":"levelo://app?vid=ec5a80aa-659d-4326-af34-6a40814ccfb7","ios":"levelo://app?vid=ec5a80aa-659d-4326-af34-6a40814ccfb7"},"vehicle_type_id":"4","last_reported":1731676725,"current_range_meters":5600,"station_id":"ce4bgm92rcd13ifvqbr0","pricing_plan_id":"cebpf4jnsgd1na2vs0mg"},{"bike_id":"7b395a17-1286-44cd-a35b-798e0c35a15f","system_id":"levelo_inurba_marseille","lat":43.29612,"lon":5.37745,"is_reserved":false,"is_disabled":false,"rental_uris":{"android":"levelo://app?vid=7b395a17-1286-44cd-a35b-798e0c35a15f","ios":"levelo://app?vid=7b395a17-1286-44cd-a35b-798e0c35a15f"},"vehicle_type_id":"4","last_reported":1731676725,"current_range_meters":4800,"station_id":"ce4bgi92rcd13ifvqb90","pricing_plan_id":"cebpf4jnsgd1na2vs0mg"},{"bike_id":"32b2b641-dd34-4128-b2e7-6cc7f329c5e7","system_id":"levelo_inurba_marseille","lat":43.32527,"lon":5.41432,"is_reserved":false,"is_disabled":false,"rental_uris":{"android":"levelo://app?vid=32b2b641-dd34-4128-b2e7-6cc7f329c5e7","ios":"levelo://app?vid=32b2b641-dd34-4128-b2e7-6cc7f329c5e7"},"vehicle_type_id":"4","last_reported":1731676725,"current_range_meters":36800,"station_id":"ce4bhq12rcd13ifvqhhg","pricing_plan_id":"cebpf4jnsgd1na2vs0mg"},{"bike_id":"cb70bb28-2565-468e-b40e-deeab4180c2c","system_id":"levelo_inurba_marseille","lat":43.27493,"lon":5.42452,"is_reserved":false,"is_disabled":false,"rental_uris":{"android":"levelo://app?vid=cb70bb28-2565-468e-b40e-deeab4180c2c","ios":"levelo://app?vid=cb70bb28-2565-468e-b40e-deeab4180c2c"},"vehicle_type_id":"4","last_reported":1731676725,"current_range_meters":8800,"station_id":"ce4bhn92rcd13ifvqgrg","pricing_plan_id":"cebpf4jnsgd1na2vs0mg"},{"bike_id":"eeb420cc-0bcd-4ca2-9bdc-63be31d752db","system_id":"levelo_inurba_marseille","lat":43.30956,"lon":5.39035,"is_reserved":false,"is_disabled":false,"rental_uris":{"android":"levelo://app?vid=eeb420cc-0bcd-4ca2-9bdc-63be31d752db","ios":"levelo://app?vid=eeb420cc-0bcd-4ca2-9bdc-63be31d752db"},"vehicle_type_id":"4","last_reported":1731676725,"current_range_meters":9200,"station_id":"ce4bgup2rcd13ifvqco0","pricing_plan_id":"cebpf4jnsgd1na2vs0mg"},{"bike_id":"4e411e0f-bb98-4e17-9f67-3d6dd82ab111","system_id":"levelo_inurba_marseille","lat":43.25579,"lon":5.38236,"is_reserved":false,"is_disabled":false,"rental_uris":{"android":"levelo://app?vid=4e411e0f-bb98-4e17-9f67-3d6dd82ab111","ios":"levelo://app?vid=4e411e0f-bb98-4e17-9f67-3d6dd82ab111"},"vehicle_type_id":"4","last_reported":1731676725,"current_range_meters":36800,"station_id":"ce4bhih2rcd13ifvqfs0","pricing_plan_id":"cebpf4jnsgd1na2vs0mg"},{"bike_id":"e14339e0-1837-4fa9-a858-86dc78e5d1a5","system_id":"levelo_inurba_marseille","lat":43.28031,"lon":5.36948,"is_reserved":false,"is_disabled":false,"rental_uris":{"android":"levelo://app?vid=e14339e0-1837-4fa9-a858-86dc78e5d1a5","ios":"levelo://app?vid=e14339e0-1837-4fa9-a858-86dc78e5d1a5"},"vehicle_type_id":"4","last_reported":1731676725,"current_range_meters":16800,"station_id":"ce4bha12rcd13ifvqef0","pricing_plan_id":"cebpf4jnsgd1na2vs0mg"},{"bike_id":"11300e79-041b-40a8-aa57-2a7db3de227e","system_id":"levelo_inurba_marseille","lat":43.287818,"lon":5.362616,"is_reserved":false,"is_disabled":false,"rental_uris":{"android":"levelo://app?vid=11300e79-041b-40a8-aa57-2a7db3de227e","ios":"levelo://app?vid=11300e79-041b-40a8-aa57-2a7db3de227e"},"vehicle_type_id":"4","last_reported":1731676725,"current_range_meters":34800,"station_id":"cki0cbj6b192h4jlfktg","pricing_plan_id":"cebpf4jnsgd1na2vs0mg"},{"bike_id":"5e2699ee-8ebe-4d6e-8a33-746b5174c372","system_id":"levelo_inurba_marseille","lat":43.29788,"lon":5.38114,"is_reserved":false,"is_disabled":false,"rental_uris":{"android":"levelo://app?vid=5e2699ee-8ebe-4d6e-8a33-746b5174c372","ios":"levelo://app?vid=5e2699ee-8ebe-4d6e-8a33-746b5174c372"},"vehicle_type_id":"4","last_reported":1731676725,"current_range_meters":20000,"station_id":"ce4bgip2rcd13ifvqbb0","pricing_plan_id":"cebpf4jnsgd1na2vs0mg"},{"bike_id":"96737c33-81d5-47aa-ba2a-2f2a98117d95","system_id":"levelo_inurba_marseille","lat":43.31345,"lon":5.36722,"is_reserved":false,"is_disabled":false,"rental_uris":{"android":"levelo://app?vid=96737c33-81d5-47aa-ba2a-2f2a98117d95","ios":"levelo://app?vid=96737c33-81d5-47aa-ba2a-2f2a98117d95"},"vehicle_type_id":"4","last_reported":1731676725,"current_range_meters":37600,"station_id":"ce4bgr92rcd13ifvqc6g","pricing_plan_id":"cebpf4jnsgd1na2vs0mg"},{"bike_id":"b387c63c-35ec-4650-bd74-4fde7f7a8479","system_id":"levelo_inurba_marseille","lat":43.28673,"lon":5.38682,"is_reserved":false,"is_disabled":false,"rental_uris":{"android":"levelo://app?vid=b387c63c-35ec-4650-bd74-4fde7f7a8479","ios":"levelo://app?vid=b387c63c-35ec-4650-bd74-4fde7f7a8479"},"vehicle_type_id":"4","last_reported":1731676725,"current_range_meters":28800,"station_id":"ce4bh492rcd13ifvqdug","pricing_plan_id":"cebpf4jnsgd1na2vs0mg"},{"bike_id":"4c5d3f4e-b227-428f-aefc-20ac8b67d2b5","system_id":"levelo_inurba_marseille","lat":43.27907,"lon":5.38006,"is_reserved":false,"is_disabled":false,"rental_uris":{"android":"levelo://app?vid=4c5d3f4e-b227-428f-aefc-20ac8b67d2b5","ios":"levelo://app?vid=4c5d3f4e-b227-428f-aefc-20ac8b67d2b5"},"vehicle_type_id":"4","last_reported":1731676725,"current_range_meters":37600,"station_id":"ce4bhf92rcd13ifvqf50","pricing_plan_id":"cebpf4jnsgd1na2vs0mg"},{"bike_id":"b54f4471-f146-477a-ade3-58e1dea1b85e","system_id":"levelo_inurba_marseille","lat":43.337444,"lon":5.374475,"is_reserved":false,"is_disabled":false,"rental_uris":{"android":"levelo://app?vid=b54f4471-f146-477a-ade3-58e1dea1b85e","ios":"levelo://app?vid=b54f4471-f146-477a-ade3-58e1dea1b85e"},"vehicle_type_id":"4","last_reported":1731676725,"current_range_meters":37600,"station_id":"","pricing_plan_id":"cebpf4jnsgd1na2vs0mg"},{"bike_id":"f9e0adcc-30e8-437c-a54e-34217473db9b","system_id":"levelo_inurba_marseille","lat":43.23952,"lon":5.36646,"is_reserved":false,"is_disabled":false,"rental_uris":{"android":"levelo://app?vid=f9e0adcc-30e8-437c-a54e-34217473db9b","ios":"levelo://app?vid=f9e0adcc-30e8-437c-a54e-34217473db9b"},"vehicle_type_id":"4","last_reported":1731676725,"current_range_meters":10800,"station_id":"ce4bhi12rcd13ifvqfp0","pricing_plan_id":"cebpf4jnsgd1na2vs0mg"},{"bike_id":"2d8f8111-d053-4451-bfa3-6d3dae96ad22","system_id":"levelo_inurba_marseille","lat":43.30212,"lon":5.39464,"is_reserved":false,"is_disabled":false,"rental_uris":{"android":"levelo://app?vid=2d8f8111-d053-4451-bfa3-6d3dae96ad22","ios":"levelo://app?vid=2d8f8111-d053-4451-bfa3-6d3dae96ad22"},"vehicle_type_id":"4","last_reported":1731676725,"current_range_meters":29600,"station_id":"ce4bh0p2rcd13ifvqd70","pricing_plan_id":"cebpf4jnsgd1na2vs0mg"},{"bike_id":"3801d79e-aba9-453c-9e83-33f3550a7c41","system_id":"levelo_inurba_marseille","lat":43.24389,"lon":5.37053,"is_reserved":false,"is_disabled":false,"rental_uris":{"android":"levelo://app?vid=3801d79e-aba9-453c-9e83-33f3550a7c41","ios":"levelo://app?vid=3801d79e-aba9-453c-9e83-33f3550a7c41"},"vehicle_type_id":"4","last_reported":1731676725,"current_range_meters":38000,"station_id":"ce4bhhh2rcd13ifvqfk0","pricing_plan_id":"cebpf4jnsgd1na2vs0mg"},{"bike_id":"792531a3-4da6-4082-bd0a-16451cbb2558","system_id":"levelo_inurba_marseille","lat":43.26026,"lon":5.3755,"is_reserved":false,"is_disabled":false,"rental_uris":{"android":"levelo://app?vid=792531a3-4da6-4082-bd0a-16451cbb2558","ios":"levelo://app?vid=792531a3-4da6-4082-bd0a-16451cbb2558"},"vehicle_type_id":"4","last_reported":1731676725,"current_range_meters":22000,"station_id":"ce4bhgh2rcd13ifvqfa0","pricing_plan_id":"cebpf4jnsgd1na2vs0mg"},{"bike_id":"805cfe6b-be44-4949-bab5-57b1ce8478a4","system_id":"levelo_inurba_marseille","lat":43.33752,"lon":5.37459,"is_reserved":false,"is_disabled":false,"rental_uris":{"android":"levelo://app?vid=805cfe6b-be44-4949-bab5-57b1ce8478a4","ios":"levelo://app?vid=805cfe6b-be44-4949-bab5-57b1ce8478a4"},"vehicle_type_id":"4","last_reported":1731676725,"current_range_meters":33600,"station_id":"","pricing_plan_id":"cebpf4jnsgd1na2vs0mg"},{"bike_id":"acacdfc4-d24f-4466-8d6c-b7acbaa3c062","system_id":"levelo_inurba_marseille","lat":43.32041,"lon":5.41553,"is_reserved":false,"is_disabled":false,"rental_uris":{"android":"levelo://app?vid=acacdfc4-d24f-4466-8d6c-b7acbaa3c062","ios":"levelo://app?vid=acacdfc4-d24f-4466-8d6c-b7acbaa3c062"},"vehicle_type_id":"4","last_reported":1731676725,"current_range_meters":37600,"station_id":"ce4bhq92rcd13ifvqhkg","pricing_plan_id":"cebpf4jnsgd1na2vs0mg"},{"bike_id":"f87cf030-2c24-4f87-b7a5-9e7172254a78","system_id":"levelo_inurba_marseille","lat":43.28417,"lon":5.34995,"is_reserved":false,"is_disabled":false,"rental_uris":{"android":"levelo://app?vid=f87cf030-2c24-4f87-b7a5-9e7172254a78","ios":"levelo://app?vid=f87cf030-2c24-4f87-b7a5-9e7172254a78"},"vehicle_type_id":"4","last_reported":1731676725,"current_range_meters":38800,"station_id":"ce4bhbh2rcd13ifvqepg","pricing_plan_id":"cebpf4jnsgd1na2vs0mg"},{"bike_id":"5a427756-8a2a-4c85-83d0-551885eff5bf","system_id":"levelo_inurba_marseille","lat":43.30543,"lon":5.36549,"is_reserved":false,"is_disabled":false,"rental_uris":{"android":"levelo://app?vid=5a427756-8a2a-4c85-83d0-551885eff5bf","ios":"levelo://app?vid=5a427756-8a2a-4c85-83d0-551885eff5bf"},"vehicle_type_id":"4","last_reported":1731676725,"current_range_meters":38800,"station_id":"ce4bgs12rcd13ifvqcag","pricing_plan_id":"cebpf4jnsgd1na2vs0mg"},{"bike_id":"e29dfad3-41fa-463d-969c-798b1e5dc837","system_id":"levelo_inurba_marseille","lat":43.26493,"lon":5.39552,"is_reserved":false,"is_disabled":false,"rental_uris":{"android":"levelo://app?vid=e29dfad3-41fa-463d-969c-798b1e5dc837","ios":"levelo://app?vid=e29dfad3-41fa-463d-969c-798b1e5dc837"},"vehicle_type_id":"4","last_reported":1731676725,"current_range_meters":6400,"station_id":"ce4bhi12rcd13ifvqfq0","pricing_plan_id":"cebpf4jnsgd1na2vs0mg"},{"bike_id":"748c6f07-fa3a-4ce6-9fcc-ceefd197ab4d","system_id":"levelo_inurba_marseille","lat":43.28423,"lon":5.34991,"is_reserved":false,"is_disabled":false,"rental_uris":{"android":"levelo://app?vid=748c6f07-fa3a-4ce6-9fcc-ceefd197ab4d","ios":"levelo://app?vid=748c6f07-fa3a-4ce6-9fcc-ceefd197ab4d"},"vehicle_type_id":"4","last_reported":1731676725,"current_range_meters":33600,"station_id":"ce4bhbh2rcd13ifvqepg","pricing_plan_id":"cebpf4jnsgd1na2vs0mg"},{"bike_id":"ac409d96-8553-49d9-99a4-28046c6852e5","system_id":"levelo_inurba_marseille","lat":43.32539,"lon":5.41439,"is_reserved":false,"is_disabled":false,"rental_uris":{"android":"levelo://app?vid=ac409d96-8553-49d9-99a4-28046c6852e5","ios":"levelo://app?vid=ac409d96-8553-49d9-99a4-28046c6852e5"},"vehicle_type_id":"4","last_reported":1731676725,"current_range_meters":36000,"station_id":"ce4bhq12rcd13ifvqhhg","pricing_plan_id":"cebpf4jnsgd1na2vs0mg"},{"bike_id":"e83fe41a-bdd6-40b7-aacc-500960b45a82","system_id":"levelo_inurba_marseille","lat":43.30907,"lon":5.36849,"is_reserved":false,"is_disabled":false,"rental_uris":{"android":"levelo://app?vid=e83fe41a-bdd6-40b7-aacc-500960b45a82","ios":"levelo://app?vid=e83fe41a-bdd6-40b7-aacc-500960b45a82"},"vehicle_type_id":"4","last_reported":1731676725,"current_range_meters":35200,"station_id":"ce4bgn92rcd13ifvqbvg","pricing_plan_id":"cebpf4jnsgd1na2vs0mg"},{"bike_id":"debaec47-0b0a-41b6-9254-b9a23971ae87","system_id":"levelo_inurba_marseille","lat":43.31338,"lon":5.39695,"is_reserved":false,"is_disabled":false,"rental_uris":{"android":"levelo://app?vid=debaec47-0b0a-41b6-9254-b9a23971ae87","ios":"levelo://app?vid=debaec47-0b0a-41b6-9254-b9a23971ae87"},"vehicle_type_id":"4","last_reported":1731676725,"current_range_meters":26800,"station_id":"ce4bgvp2rcd13ifvqcu0","pricing_plan_id":"cebpf4jnsgd1na2vs0mg"},{"bike_id":"3e4e5ae0-9e83-417b-8fda-6f6310be1964","system_id":"levelo_inurba_marseille","lat":43.29896,"lon":5.43667,"is_reserved":false,"is_disabled":false,"rental_uris":{"android":"levelo://app?vid=3e4e5ae0-9e83-417b-8fda-6f6310be1964","ios":"levelo://app?vid=3e4e5ae0-9e83-417b-8fda-6f6310be1964"},"vehicle_type_id":"4","last_reported":1731676725,"current_range_meters":28800,"station_id":"ce4bhpp2rcd13ifvqhfg","pricing_plan_id":"cebpf4jnsgd1na2vs0mg"},{"bike_id":"935fe13f-f89d-4266-85f1-4e4b2f0bcf9e","system_id":"levelo_inurba_marseille","lat":43.28076,"lon":5.39655,"is_reserved":false,"is_disabled":false,"rental_uris":{"android":"levelo://app?vid=935fe13f-f89d-4266-85f1-4e4b2f0bcf9e","ios":"levelo://app?vid=935fe13f-f89d-4266-85f1-4e4b2f0bcf9e"},"vehicle_type_id":"4","last_reported":1731676725,"current_range_meters":28000,"station_id":"ce4bho12rcd13ifvqh2g","pricing_plan_id":"cebpf4jnsgd1na2vs0mg"},{"bike_id":"ca655f3b-8380-4045-b3f8-8acaa0e83ede","system_id":"levelo_inurba_marseille","lat":43.33727,"lon":5.37469,"is_reserved":false,"is_disabled":false,"rental_uris":{"android":"levelo://app?vid=ca655f3b-8380-4045-b3f8-8acaa0e83ede","ios":"levelo://app?vid=ca655f3b-8380-4045-b3f8-8acaa0e83ede"},"vehicle_type_id":"4","last_reported":1731676725,"current_range_meters":36000,"station_id":"","pricing_plan_id":"cebpf4jnsgd1na2vs0mg"},{"bike_id":"d38c5b95-2c84-4872-a4e7-fcb37e96cb03","system_id":"levelo_inurba_marseille","lat":43.3021,"lon":5.39471,"is_reserved":false,"is_disabled":false,"rental_uris":{"android":"levelo://app?vid=d38c5b95-2c84-4872-a4e7-fcb37e96cb03","ios":"levelo://app?vid=d38c5b95-2c84-4872-a4e7-fcb37e96cb03"},"vehicle_type_id":"4","last_reported":1731676725,"current_range_meters":15200,"station_id":"ce4bh0p2rcd13ifvqd70","pricing_plan_id":"cebpf4jnsgd1na2vs0mg"},{"bike_id":"20359f26-dcf7-429d-9bc3-462ee61536c6","system_id":"levelo_inurba_marseille","lat":43.28101,"lon":5.40619,"is_reserved":false,"is_disabled":false,"rental_uris":{"android":"levelo://app?vid=20359f26-dcf7-429d-9bc3-462ee61536c6","ios":"levelo://app?vid=20359f26-dcf7-429d-9bc3-462ee61536c6"},"vehicle_type_id":"4","last_reported":1731676725,"current_range_meters":16000,"station_id":"","pricing_plan_id":"cebpf4jnsgd1na2vs0mg"},{"bike_id":"abf9588f-04fc-4ae1-b671-5d484c70a6c9","system_id":"levelo_inurba_marseille","lat":43.33603,"lon":5.41017,"is_reserved":false,"is_disabled":false,"rental_uris":{"android":"levelo://app?vid=abf9588f-04fc-4ae1-b671-5d484c70a6c9","ios":"levelo://app?vid=abf9588f-04fc-4ae1-b671-5d484c70a6c9"},"vehicle_type_id":"4","last_reported":1731676725,"current_range_meters":32800,"station_id":"ce4bhqh2rcd13ifvqhmg","pricing_plan_id":"cebpf4jnsgd1na2vs0mg"},{"bike_id":"a6b8c285-acc9-4039-9531-1aae39136a33","system_id":"levelo_inurba_marseille","lat":43.312042,"lon":5.367348,"is_reserved":false,"is_disabled":false,"rental_uris":{"android":"levelo://app?vid=a6b8c285-acc9-4039-9531-1aae39136a33","ios":"levelo://app?vid=a6b8c285-acc9-4039-9531-1aae39136a33"},"vehicle_type_id":"4","last_reported":1731676725,"current_range_meters":19600,"station_id":"","pricing_plan_id":"cebpf4jnsgd1na2vs0mg"},{"bike_id":"420ee1f5-00a3-412c-8970-90ada70dc741","system_id":"levelo_inurba_marseille","lat":43.25117,"lon":5.40322,"is_reserved":false,"is_disabled":false,"rental_uris":{"android":"levelo://app?vid=420ee1f5-00a3-412c-8970-90ada70dc741","ios":"levelo://app?vid=420ee1f5-00a3-412c-8970-90ada70dc741"},"vehicle_type_id":"4","last_reported":1731676725,"current_range_meters":9600,"station_id":"ce4bhlh2rcd13ifvqgig","pricing_plan_id":"cebpf4jnsgd1na2vs0mg"},{"bike_id":"43a74946-80ad-4604-b753-c4e098de4814","system_id":"levelo_inurba_marseille","lat":43.33721,"lon":5.391797,"is_reserved":false,"is_disabled":false,"rental_uris":{"android":"levelo://app?vid=43a74946-80ad-4604-b753-c4e098de4814","ios":"levelo://app?vid=43a74946-80ad-4604-b753-c4e098de4814"},"vehicle_type_id":"4","last_reported":1731676725,"current_range_meters":22800,"station_id":"ce4bhr92rcd13ifvqhsg","pricing_plan_id":"cebpf4jnsgd1na2vs0mg"},{"bike_id":"265a998c-096d-4a07-974e-41be37e184a7","system_id":"levelo_inurba_marseille","lat":43.30537,"lon":5.36552,"is_reserved":false,"is_disabled":false,"rental_uris":{"android":"levelo://app?vid=265a998c-096d-4a07-974e-41be37e184a7","ios":"levelo://app?vid=265a998c-096d-4a07-974e-41be37e184a7"},"vehicle_type_id":"4","last_reported":1731676725,"current_range_meters":38800,"station_id":"ce4bgs12rcd13ifvqcag","pricing_plan_id":"cebpf4jnsgd1na2vs0mg"},{"bike_id":"15462ef7-c093-4c55-89a2-6a72e5084dc1","system_id":"levelo_inurba_marseille","lat":43.33768,"lon":5.37451,"is_reserved":false,"is_disabled":false,"rental_uris":{"android":"levelo://app?vid=15462ef7-c093-4c55-89a2-6a72e5084dc1","ios":"levelo://app?vid=15462ef7-c093-4c55-89a2-6a72e5084dc1"},"vehicle_type_id":"4","last_reported":1731676725,"current_range_meters":38800,"station_id":"","pricing_plan_id":"cebpf4jnsgd1na2vs0mg"},{"bike_id":"9a6f4f9d-1c72-4430-8020-ba5bbc826984","system_id":"levelo_inurba_marseille","lat":43.29584,"lon":5.36743,"is_reserved":false,"is_disabled":false,"rental_uris":{"android":"levelo://app?vid=9a6f4f9d-1c72-4430-8020-ba5bbc826984","ios":"levelo://app?vid=9a6f4f9d-1c72-4430-8020-ba5bbc826984"},"vehicle_type_id":"4","last_reported":1731676725,"current_range_meters":38800,"station_id":"ce4bgph2rcd13ifvqc2g","pricing_plan_id":"cebpf4jnsgd1na2vs0mg"},{"bike_id":"88e590a2-feb4-4651-8c00-672d62f5366b","system_id":"levelo_inurba_marseille","lat":43.29575,"lon":5.39977,"is_reserved":false,"is_disabled":false,"rental_uris":{"android":"levelo://app?vid=88e590a2-feb4-4651-8c00-672d62f5366b","ios":"levelo://app?vid=88e590a2-feb4-4651-8c00-672d62f5366b"},"vehicle_type_id":"4","last_reported":1731676725,"current_range_meters":8800,"station_id":"ce4bh312rcd13ifvqdj0","pricing_plan_id":"cebpf4jnsgd1na2vs0mg"},{"bike_id":"fb99fb82-1c03-4526-b862-280bcf8ac70c","system_id":"levelo_inurba_marseille","lat":43.23954,"lon":5.36652,"is_reserved":false,"is_disabled":false,"rental_uris":{"android":"levelo://app?vid=fb99fb82-1c03-4526-b862-280bcf8ac70c","ios":"levelo://app?vid=fb99fb82-1c03-4526-b862-280bcf8ac70c"},"vehicle_type_id":"4","last_reported":1731676725,"current_range_meters":28800,"station_id":"ce4bhi12rcd13ifvqfp0","pricing_plan_id":"cebpf4jnsgd1na2vs0mg"},{"bike_id":"251aebea-9ebd-49fe-964c-1ec2b40aee70","system_id":"levelo_inurba_marseille","lat":43.3247,"lon":5.36577,"is_reserved":false,"is_disabled":false,"rental_uris":{"android":"levelo://app?vid=251aebea-9ebd-49fe-964c-1ec2b40aee70","ios":"levelo://app?vid=251aebea-9ebd-49fe-964c-1ec2b40aee70"},"vehicle_type_id":"4","last_reported":1731676725,"current_range_meters":28400,"station_id":"ce4bhs12rcd13ifvqhvg","pricing_plan_id":"cebpf4jnsgd1na2vs0mg"},{"bike_id":"1ae8fe75-00ad-479b-a755-74d45d76bfbe","system_id":"levelo_inurba_marseille","lat":43.24169,"lon":5.36404,"is_reserved":false,"is_disabled":false,"rental_uris":{"android":"levelo://app?vid=1ae8fe75-00ad-479b-a755-74d45d76bfbe","ios":"levelo://app?vid=1ae8fe75-00ad-479b-a755-74d45d76bfbe"},"vehicle_type_id":"4","last_reported":1731676725,"current_range_meters":11200,"station_id":"cpo36qri1sfpv3e86is0","pricing_plan_id":"cebpf4jnsgd1na2vs0mg"},{"bike_id":"4b226822-080c-4688-9634-9503b4032b95","system_id":"levelo_inurba_marseille","lat":43.2397,"lon":5.36635,"is_reserved":false,"is_disabled":false,"rental_uris":{"android":"levelo://app?vid=4b226822-080c-4688-9634-9503b4032b95","ios":"levelo://app?vid=4b226822-080c-4688-9634-9503b4032b95"},"vehicle_type_id":"4","last_reported":1731676725,"current_range_meters":15200,"station_id":"ce4bhi12rcd13ifvqfp0","pricing_plan_id":"cebpf4jnsgd1na2vs0mg"},{"bike_id":"92ac4858-87d6-4ceb-8f6e-004635a816a8","system_id":"levelo_inurba_marseille","lat":43.27785,"lon":5.40741,"is_reserved":false,"is_disabled":false,"rental_uris":{"android":"levelo://app?vid=92ac4858-87d6-4ceb-8f6e-004635a816a8","ios":"levelo://app?vid=92ac4858-87d6-4ceb-8f6e-004635a816a8"},"vehicle_type_id":"4","last_reported":1731676725,"current_range_meters":36800,"station_id":"ce4bhnh2rcd13ifvqgtg","pricing_plan_id":"cebpf4jnsgd1na2vs0mg"},{"bike_id":"81c873da-92ee-489b-b593-31be8f5d3a34","system_id":"levelo_inurba_marseille","lat":43.27029,"lon":5.39216,"is_reserved":false,"is_disabled":false,"rental_uris":{"android":"levelo://app?vid=81c873da-92ee-489b-b593-31be8f5d3a34","ios":"levelo://app?vid=81c873da-92ee-489b-b593-31be8f5d3a34"},"vehicle_type_id":"4","last_reported":1731676725,"current_range_meters":26000,"station_id":"","pricing_plan_id":"cebpf4jnsgd1na2vs0mg"},{"bike_id":"16c431de-b128-4380-a727-8a0a0eba5b1b","system_id":"levelo_inurba_marseille","lat":43.24385,"lon":5.37059,"is_reserved":false,"is_disabled":false,"rental_uris":{"android":"levelo://app?vid=16c431de-b128-4380-a727-8a0a0eba5b1b","ios":"levelo://app?vid=16c431de-b128-4380-a727-8a0a0eba5b1b"},"vehicle_type_id":"4","last_reported":1731676725,"current_range_meters":39200,"station_id":"ce4bhhh2rcd13ifvqfk0","pricing_plan_id":"cebpf4jnsgd1na2vs0mg"},{"bike_id":"d37a5777-a5f5-4b7f-b7f5-a1dae307da91","system_id":"levelo_inurba_marseille","lat":43.23192,"lon":5.35554,"is_reserved":false,"is_disabled":false,"rental_uris":{"android":"levelo://app?vid=d37a5777-a5f5-4b7f-b7f5-a1dae307da91","ios":"levelo://app?vid=d37a5777-a5f5-4b7f-b7f5-a1dae307da91"},"vehicle_type_id":"4","last_reported":1731676725,"current_range_meters":36800,"station_id":"ce4bhu92rcd13ifvqi70","pricing_plan_id":"cebpf4jnsgd1na2vs0mg"},{"bike_id":"e7304854-2450-4c0a-beb0-014f16541fc9","system_id":"levelo_inurba_marseille","lat":43.28114,"lon":5.37843,"is_reserved":false,"is_disabled":false,"rental_uris":{"android":"levelo://app?vid=e7304854-2450-4c0a-beb0-014f16541fc9","ios":"levelo://app?vid=e7304854-2450-4c0a-beb0-014f16541fc9"},"vehicle_type_id":"4","last_reported":1731676725,"current_range_meters":20000,"station_id":"ce4bha12rcd13ifvqee0","pricing_plan_id":"cebpf4jnsgd1na2vs0mg"},{"bike_id":"79c06113-53da-4dc0-956f-865d3a0055cf","system_id":"levelo_inurba_marseille","lat":43.30524,"lon":5.36698,"is_reserved":false,"is_disabled":false,"rental_uris":{"android":"levelo://app?vid=79c06113-53da-4dc0-956f-865d3a0055cf","ios":"levelo://app?vid=79c06113-53da-4dc0-956f-865d3a0055cf"},"vehicle_type_id":"4","last_reported":1731676725,"current_range_meters":22800,"station_id":"ce4bgrp2rcd13ifvqc9g","pricing_plan_id":"cebpf4jnsgd1na2vs0mg"},{"bike_id":"674b0e8f-8c9e-4c11-a204-160fb5dcf762","system_id":"levelo_inurba_marseille","lat":43.24388,"lon":5.37054,"is_reserved":false,"is_disabled":false,"rental_uris":{"android":"levelo://app?vid=674b0e8f-8c9e-4c11-a204-160fb5dcf762","ios":"levelo://app?vid=674b0e8f-8c9e-4c11-a204-160fb5dcf762"},"vehicle_type_id":"4","last_reported":1731676725,"current_range_meters":38800,"station_id":"ce4bhhh2rcd13ifvqfk0","pricing_plan_id":"cebpf4jnsgd1na2vs0mg"},{"bike_id":"922a9932-fa85-4262-88e3-0c8d93011b60","system_id":"levelo_inurba_marseille","lat":43.25726,"lon":5.41109,"is_reserved":false,"is_disabled":false,"rental_uris":{"android":"levelo://app?vid=922a9932-fa85-4262-88e3-0c8d93011b60","ios":"levelo://app?vid=922a9932-fa85-4262-88e3-0c8d93011b60"},"vehicle_type_id":"4","last_reported":1731676725,"current_range_meters":20000,"station_id":"ce4bhkp2rcd13ifvqgd0","pricing_plan_id":"cebpf4jnsgd1na2vs0mg"},{"bike_id":"139d00fc-e67b-449a-9fd4-0db893561dc2","system_id":"levelo_inurba_marseille","lat":43.33756,"lon":5.37418,"is_reserved":false,"is_disabled":false,"rental_uris":{"android":"levelo://app?vid=139d00fc-e67b-449a-9fd4-0db893561dc2","ios":"levelo://app?vid=139d00fc-e67b-449a-9fd4-0db893561dc2"},"vehicle_type_id":"4","last_reported":1731676725,"current_range_meters":9600,"station_id":"","pricing_plan_id":"cebpf4jnsgd1na2vs0mg"},{"bike_id":"bdda4347-118f-4304-b506-09b4b5e15b39","system_id":"levelo_inurba_marseille","lat":43.33723,"lon":5.39186,"is_reserved":false,"is_disabled":false,"rental_uris":{"android":"levelo://app?vid=bdda4347-118f-4304-b506-09b4b5e15b39","ios":"levelo://app?vid=bdda4347-118f-4304-b506-09b4b5e15b39"},"vehicle_type_id":"4","last_reported":1731676725,"current_range_meters":20000,"station_id":"ce4bhr92rcd13ifvqhsg","pricing_plan_id":"cebpf4jnsgd1na2vs0mg"},{"bike_id":"5fa36305-c834-4a82-837e-986bb52980b6","system_id":"levelo_inurba_marseille","lat":43.25582,"lon":5.38237,"is_reserved":false,"is_disabled":false,"rental_uris":{"android":"levelo://app?vid=5fa36305-c834-4a82-837e-986bb52980b6","ios":"levelo://app?vid=5fa36305-c834-4a82-837e-986bb52980b6"},"vehicle_type_id":"4","last_reported":1731676725,"current_range_meters":26000,"station_id":"ce4bhih2rcd13ifvqfs0","pricing_plan_id":"cebpf4jnsgd1na2vs0mg"},{"bike_id":"98121d5f-01e5-45e8-a04a-1b8c07d4a29c","system_id":"levelo_inurba_marseille","lat":43.23956,"lon":5.36638,"is_reserved":false,"is_disabled":false,"rental_uris":{"android":"levelo://app?vid=98121d5f-01e5-45e8-a04a-1b8c07d4a29c","ios":"levelo://app?vid=98121d5f-01e5-45e8-a04a-1b8c07d4a29c"},"vehicle_type_id":"4","last_reported":1731676725,"current_range_meters":13600,"station_id":"ce4bhi12rcd13ifvqfp0","pricing_plan_id":"cebpf4jnsgd1na2vs0mg"},{"bike_id":"a2093831-6093-4959-a0f7-dab6a243ed02","system_id":"levelo_inurba_marseille","lat":43.31235,"lon":5.3686,"is_reserved":false,"is_disabled":false,"rental_uris":{"android":"levelo://app?vid=a2093831-6093-4959-a0f7-dab6a243ed02","ios":"levelo://app?vid=a2093831-6093-4959-a0f7-dab6a243ed02"},"vehicle_type_id":"4","last_reported":1731676725,"current_range_meters":39200,"station_id":"ce4bgl92rcd13ifvqbq0","pricing_plan_id":"cebpf4jnsgd1na2vs0mg"},{"bike_id":"1251cdec-4e0b-4865-8190-36fd90191faa","system_id":"levelo_inurba_marseille","lat":43.30878,"lon":5.37184,"is_reserved":false,"is_disabled":false,"rental_uris":{"android":"levelo://app?vid=1251cdec-4e0b-4865-8190-36fd90191faa","ios":"levelo://app?vid=1251cdec-4e0b-4865-8190-36fd90191faa"},"vehicle_type_id":"4","last_reported":1731676725,"current_range_meters":37600,"station_id":"ce4bguh2rcd13ifvqckg","pricing_plan_id":"cebpf4jnsgd1na2vs0mg"},{"bike_id":"bbac1192-8b65-492f-8850-823b061dd0e0","system_id":"levelo_inurba_marseille","lat":43.28866,"lon":5.35885,"is_reserved":false,"is_disabled":false,"rental_uris":{"android":"levelo://app?vid=bbac1192-8b65-492f-8850-823b061dd0e0","ios":"levelo://app?vid=bbac1192-8b65-492f-8850-823b061dd0e0"},"vehicle_type_id":"4","last_reported":1731676725,"current_range_meters":26800,"station_id":"ce4bhb12rcd13ifvqem0","pricing_plan_id":"cebpf4jnsgd1na2vs0mg"},{"bike_id":"2f1efe36-41b2-4a6f-aa98-b326b5712fe6","system_id":"levelo_inurba_marseille","lat":43.299,"lon":5.4366,"is_reserved":false,"is_disabled":false,"rental_uris":{"android":"levelo://app?vid=2f1efe36-41b2-4a6f-aa98-b326b5712fe6","ios":"levelo://app?vid=2f1efe36-41b2-4a6f-aa98-b326b5712fe6"},"vehicle_type_id":"4","last_reported":1731676725,"current_range_meters":24400,"station_id":"ce4bhpp2rcd13ifvqhfg","pricing_plan_id":"cebpf4jnsgd1na2vs0mg"},{"bike_id":"e9372ae2-22bc-4684-acdd-60a8b0660356","system_id":"levelo_inurba_marseille","lat":43.30207,"lon":5.39472,"is_reserved":false,"is_disabled":false,"rental_uris":{"android":"levelo://app?vid=e9372ae2-22bc-4684-acdd-60a8b0660356","ios":"levelo://app?vid=e9372ae2-22bc-4684-acdd-60a8b0660356"},"vehicle_type_id":"4","last_reported":1731676725,"current_range_meters":17200,"station_id":"ce4bh0p2rcd13ifvqd70","pricing_plan_id":"cebpf4jnsgd1na2vs0mg"},{"bike_id":"f765df4a-0462-477c-989d-67c0bff36300","system_id":"levelo_inurba_marseille","lat":43.26685,"lon":5.38267,"is_reserved":false,"is_disabled":false,"rental_uris":{"android":"levelo://app?vid=f765df4a-0462-477c-989d-67c0bff36300","ios":"levelo://app?vid=f765df4a-0462-477c-989d-67c0bff36300"},"vehicle_type_id":"4","last_reported":1731676725,"current_range_meters":38800,"station_id":"ce4bhg92rcd13ifvqf90","pricing_plan_id":"cebpf4jnsgd1na2vs0mg"},{"bike_id":"d5f07619-96c4-402a-aace-ad2e05a4b944","system_id":"levelo_inurba_marseille","lat":43.313599,"lon":5.39716,"is_reserved":false,"is_disabled":false,"rental_uris":{"android":"levelo://app?vid=d5f07619-96c4-402a-aace-ad2e05a4b944","ios":"levelo://app?vid=d5f07619-96c4-402a-aace-ad2e05a4b944"},"vehicle_type_id":"4","last_reported":1731676725,"current_range_meters":32800,"station_id":"ce4bgvp2rcd13ifvqcu0","pricing_plan_id":"cebpf4jnsgd1na2vs0mg"},{"bike_id":"4af956a5-31d2-4098-9c43-756e35b16f3b","system_id":"levelo_inurba_marseille","lat":43.32108,"lon":5.3678,"is_reserved":false,"is_disabled":false,"rental_uris":{"android":"levelo://app?vid=4af956a5-31d2-4098-9c43-756e35b16f3b","ios":"levelo://app?vid=4af956a5-31d2-4098-9c43-756e35b16f3b"},"vehicle_type_id":"4","last_reported":1731676725,"current_range_meters":28000,"station_id":"ce4bhrh2rcd13ifvqhug","pricing_plan_id":"cebpf4jnsgd1na2vs0mg"},{"bike_id":"9bafab45-cb8e-4c27-803a-82d257c6d546","system_id":"levelo_inurba_marseille","lat":43.29839,"lon":5.36271,"is_reserved":false,"is_disabled":false,"rental_uris":{"android":"levelo://app?vid=9bafab45-cb8e-4c27-803a-82d257c6d546","ios":"levelo://app?vid=9bafab45-cb8e-4c27-803a-82d257c6d546"},"vehicle_type_id":"4","last_reported":1731676725,"current_range_meters":38800,"station_id":"ce4bgpp2rcd13ifvqc3g","pricing_plan_id":"cebpf4jnsgd1na2vs0mg"},{"bike_id":"6d6992bf-ade3-4a22-a168-306dafdc4544","system_id":"levelo_inurba_marseille","lat":43.2417,"lon":5.364,"is_reserved":false,"is_disabled":false,"rental_uris":{"android":"levelo://app?vid=6d6992bf-ade3-4a22-a168-306dafdc4544","ios":"levelo://app?vid=6d6992bf-ade3-4a22-a168-306dafdc4544"},"vehicle_type_id":"4","last_reported":1731676725,"current_range_meters":38000,"station_id":"cpo36qri1sfpv3e86is0","pricing_plan_id":"cebpf4jnsgd1na2vs0mg"},{"bike_id":"723d1851-243a-45a0-b611-276b9e40945b","system_id":"levelo_inurba_marseille","lat":43.30542,"lon":5.36546,"is_reserved":false,"is_disabled":false,"rental_uris":{"android":"levelo://app?vid=723d1851-243a-45a0-b611-276b9e40945b","ios":"levelo://app?vid=723d1851-243a-45a0-b611-276b9e40945b"},"vehicle_type_id":"4","last_reported":1731676725,"current_range_meters":16000,"station_id":"ce4bgs12rcd13ifvqcag","pricing_plan_id":"cebpf4jnsgd1na2vs0mg"},{"bike_id":"eef5d37c-5bfd-4c76-81bd-46afa511c5a9","system_id":"levelo_inurba_marseille","lat":43.33025,"lon":5.39039,"is_reserved":false,"is_disabled":false,"rental_uris":{"android":"levelo://app?vid=eef5d37c-5bfd-4c76-81bd-46afa511c5a9","ios":"levelo://app?vid=eef5d37c-5bfd-4c76-81bd-46afa511c5a9"},"vehicle_type_id":"4","last_reported":1731676725,"current_range_meters":36000,"station_id":"ce4bhr92rcd13ifvqhrg","pricing_plan_id":"cebpf4jnsgd1na2vs0mg"},{"bike_id":"1707cb1e-404f-449a-8ec1-810d24d3f970","system_id":"levelo_inurba_marseille","lat":43.23161,"lon":5.4,"is_reserved":false,"is_disabled":false,"rental_uris":{"android":"levelo://app?vid=1707cb1e-404f-449a-8ec1-810d24d3f970","ios":"levelo://app?vid=1707cb1e-404f-449a-8ec1-810d24d3f970"},"vehicle_type_id":"4","last_reported":1731676725,"current_range_meters":30000,"station_id":"ce4bhn12rcd13ifvqgqg","pricing_plan_id":"cebpf4jnsgd1na2vs0mg"},{"bike_id":"b5018252-9a31-4103-8ef9-7a0d549ed8b7","system_id":"levelo_inurba_marseille","lat":43.26063,"lon":5.39395,"is_reserved":false,"is_disabled":false,"rental_uris":{"android":"levelo://app?vid=b5018252-9a31-4103-8ef9-7a0d549ed8b7","ios":"levelo://app?vid=b5018252-9a31-4103-8ef9-7a0d549ed8b7"},"vehicle_type_id":"4","last_reported":1731676725,"current_range_meters":28000,"station_id":"ce4bhh92rcd13ifvqfj0","pricing_plan_id":"cebpf4jnsgd1na2vs0mg"},{"bike_id":"61c23283-34cf-4995-b965-15a08f3ab2b7","system_id":"levelo_inurba_marseille","lat":43.27897,"lon":5.40552,"is_reserved":false,"is_disabled":false,"rental_uris":{"android":"levelo://app?vid=61c23283-34cf-4995-b965-15a08f3ab2b7","ios":"levelo://app?vid=61c23283-34cf-4995-b965-15a08f3ab2b7"},"vehicle_type_id":"4","last_reported":1731676725,"current_range_meters":17600,"station_id":"ce4bh192rcd13ifvqdc0","pricing_plan_id":"cebpf4jnsgd1na2vs0mg"},{"bike_id":"762da85a-00e3-4ec2-92a7-b6d9e2a1bdd9","system_id":"levelo_inurba_marseille","lat":43.32032,"lon":5.41566,"is_reserved":false,"is_disabled":false,"rental_uris":{"android":"levelo://app?vid=762da85a-00e3-4ec2-92a7-b6d9e2a1bdd9","ios":"levelo://app?vid=762da85a-00e3-4ec2-92a7-b6d9e2a1bdd9"},"vehicle_type_id":"4","last_reported":1731676725,"current_range_meters":38400,"station_id":"ce4bhq92rcd13ifvqhkg","pricing_plan_id":"cebpf4jnsgd1na2vs0mg"},{"bike_id":"6c9033cb-b15d-4f62-8629-29e9ce95572b","system_id":"levelo_inurba_marseille","lat":43.3014,"lon":5.39868,"is_reserved":false,"is_disabled":false,"rental_uris":{"android":"levelo://app?vid=6c9033cb-b15d-4f62-8629-29e9ce95572b","ios":"levelo://app?vid=6c9033cb-b15d-4f62-8629-29e9ce95572b"},"vehicle_type_id":"4","last_reported":1731676725,"current_range_meters":30400,"station_id":"ce4bh0h2rcd13ifvqd40","pricing_plan_id":"cebpf4jnsgd1na2vs0mg"},{"bike_id":"ff273380-c91d-4de0-97f4-4e62bfd1e6c1","system_id":"levelo_inurba_marseille","lat":43.29649,"lon":5.37648,"is_reserved":false,"is_disabled":false,"rental_uris":{"android":"levelo://app?vid=ff273380-c91d-4de0-97f4-4e62bfd1e6c1","ios":"levelo://app?vid=ff273380-c91d-4de0-97f4-4e62bfd1e6c1"},"vehicle_type_id":"4","last_reported":1731676725,"current_range_meters":16800,"station_id":"","pricing_plan_id":"cebpf4jnsgd1na2vs0mg"},{"bike_id":"ef7aea19-fba8-44c4-82b5-d45d0832afa4","system_id":"levelo_inurba_marseille","lat":43.29603,"lon":5.38114,"is_reserved":false,"is_disabled":false,"rental_uris":{"android":"levelo://app?vid=ef7aea19-fba8-44c4-82b5-d45d0832afa4","ios":"levelo://app?vid=ef7aea19-fba8-44c4-82b5-d45d0832afa4"},"vehicle_type_id":"4","last_reported":1731676725,"current_range_meters":4800,"station_id":"ce4bgl12rcd13ifvqbo0","pricing_plan_id":"cebpf4jnsgd1na2vs0mg"},{"bike_id":"b383bdff-725f-4440-afee-836d8e0212d5","system_id":"levelo_inurba_marseille","lat":43.30942,"lon":5.39047,"is_reserved":false,"is_disabled":false,"rental_uris":{"android":"levelo://app?vid=b383bdff-725f-4440-afee-836d8e0212d5","ios":"levelo://app?vid=b383bdff-725f-4440-afee-836d8e0212d5"},"vehicle_type_id":"4","last_reported":1731676725,"current_range_meters":30400,"station_id":"ce4bgup2rcd13ifvqco0","pricing_plan_id":"cebpf4jnsgd1na2vs0mg"},{"bike_id":"cb3095ed-188a-40f9-9a74-e608f1334364","system_id":"levelo_inurba_marseille","lat":43.3055,"lon":5.36534,"is_reserved":false,"is_disabled":false,"rental_uris":{"android":"levelo://app?vid=cb3095ed-188a-40f9-9a74-e608f1334364","ios":"levelo://app?vid=cb3095ed-188a-40f9-9a74-e608f1334364"},"vehicle_type_id":"4","last_reported":1731676725,"current_range_meters":11600,"station_id":"ce4bgs12rcd13ifvqcag","pricing_plan_id":"cebpf4jnsgd1na2vs0mg"},{"bike_id":"c4c51bbd-689e-45a9-83d2-4a07bbd575ac","system_id":"levelo_inurba_marseille","lat":43.28716,"lon":5.36101,"is_reserved":false,"is_disabled":false,"rental_uris":{"android":"levelo://app?vid=c4c51bbd-689e-45a9-83d2-4a07bbd575ac","ios":"levelo://app?vid=c4c51bbd-689e-45a9-83d2-4a07bbd575ac"},"vehicle_type_id":"4","last_reported":1731676725,"current_range_meters":33200,"station_id":"cki0cbj6b192h4jlfktg","pricing_plan_id":"cebpf4jnsgd1na2vs0mg"},{"bike_id":"59cbe84c-12c2-4ef0-b349-686295c5491f","system_id":"levelo_inurba_marseille","lat":43.255853,"lon":5.382387,"is_reserved":false,"is_disabled":false,"rental_uris":{"android":"levelo://app?vid=59cbe84c-12c2-4ef0-b349-686295c5491f","ios":"levelo://app?vid=59cbe84c-12c2-4ef0-b349-686295c5491f"},"vehicle_type_id":"4","last_reported":1731676725,"current_range_meters":6800,"station_id":"ce4bhih2rcd13ifvqfs0","pricing_plan_id":"cebpf4jnsgd1na2vs0mg"},{"bike_id":"98d26a8a-83c9-4e21-911b-c818f9329797","system_id":"levelo_inurba_marseille","lat":43.28485,"lon":5.38419,"is_reserved":false,"is_disabled":false,"rental_uris":{"android":"levelo://app?vid=98d26a8a-83c9-4e21-911b-c818f9329797","ios":"levelo://app?vid=98d26a8a-83c9-4e21-911b-c818f9329797"},"vehicle_type_id":"4","last_reported":1731676725,"current_range_meters":19600,"station_id":"ce4bh512rcd13ifvqe3g","pricing_plan_id":"cebpf4jnsgd1na2vs0mg"},{"bike_id":"d658a9a7-9e59-4a55-92a5-1fada6a0df7a","system_id":"levelo_inurba_marseille","lat":43.27983,"lon":5.38756,"is_reserved":false,"is_disabled":false,"rental_uris":{"android":"levelo://app?vid=d658a9a7-9e59-4a55-92a5-1fada6a0df7a","ios":"levelo://app?vid=d658a9a7-9e59-4a55-92a5-1fada6a0df7a"},"vehicle_type_id":"4","last_reported":1731676725,"current_range_meters":29600,"station_id":"ce4bhg12rcd13ifvqf80","pricing_plan_id":"cebpf4jnsgd1na2vs0mg"},{"bike_id":"f635dd94-e775-4e8f-a4c9-cf3fb3b853f5","system_id":"levelo_inurba_marseille","lat":43.296055,"lon":5.381066,"is_reserved":false,"is_disabled":false,"rental_uris":{"android":"levelo://app?vid=f635dd94-e775-4e8f-a4c9-cf3fb3b853f5","ios":"levelo://app?vid=f635dd94-e775-4e8f-a4c9-cf3fb3b853f5"},"vehicle_type_id":"4","last_reported":1731676725,"current_range_meters":18000,"station_id":"ce4bhoh2rcd13ifvqh5g","pricing_plan_id":"cebpf4jnsgd1na2vs0mg"},{"bike_id":"66dba128-6fac-4ce0-9f18-d8bac3c50743","system_id":"levelo_inurba_marseille","lat":43.284637,"lon":5.384162,"is_reserved":false,"is_disabled":false,"rental_uris":{"android":"levelo://app?vid=66dba128-6fac-4ce0-9f18-d8bac3c50743","ios":"levelo://app?vid=66dba128-6fac-4ce0-9f18-d8bac3c50743"},"vehicle_type_id":"4","last_reported":1731676725,"current_range_meters":18000,"station_id":"ce4bh512rcd13ifvqe3g","pricing_plan_id":"cebpf4jnsgd1na2vs0mg"},{"bike_id":"9e60ec82-0d97-4ce9-b22e-751432ab4967","system_id":"levelo_inurba_marseille","lat":43.24389,"lon":5.37053,"is_reserved":false,"is_disabled":false,"rental_uris":{"android":"levelo://app?vid=9e60ec82-0d97-4ce9-b22e-751432ab4967","ios":"levelo://app?vid=9e60ec82-0d97-4ce9-b22e-751432ab4967"},"vehicle_type_id":"4","last_reported":1731676725,"current_range_meters":23200,"station_id":"ce4bhhh2rcd13ifvqfk0","pricing_plan_id":"cebpf4jnsgd1na2vs0mg"},